{"last_updated":1692392714,"ttl":30,"version":"2.2","data":{"bikes":[{"bike_id":"db787836-eafe-4572-adca-8e9b3a761a56","system_id":"levelo_inurba_marseille","lat":43.31234,"lon":5.36852,"is_reserved":false,"is_disabled":false,"rental_uris":{"android":"levelo://app?vid=db787836-eafe-4572-adca-8e9b3a761a56","ios":"levelo://app?vid=db787836-eafe-4572-adca-8e9b3a761a56"},"vehicle_type_id":"4","last_reported":1692392715,"current_range_meters":2000,"station_id":"ce4bgl92rcd13ifvqbq0","pricing_plan_id":"free"},{"bike_id":"f22ca441-4e4e-4660-b824-b2f46943e54d","system_id":"levelo_inurba_marseille","lat":43.31216,"lon":5.36848,"is_reserved":false,"is_disabled":false,"rental_uris":{"android":"levelo://app?vid=f22ca441-4e4e-4660-b824-b2f46943e54d","ios":"levelo://app?vid=f22ca441-4e4e-4660-b824-b2f46943e54d"},"vehicle_type_id":"4","last_reported":1692392715,"current_range_meters":31200,"station_id":"ce4bgl92rcd13ifvqbq0","pricing_plan_id":"free"},{"bike_id":"8f304134-a1eb-4b99-87d1-e143bcb02257","system_id":"levelo_inurba_marseille","lat":43.309076,"lon":5.368465,"is_reserved":false,"is_disabled":false,"rental_uris":{"android":"levelo://app?vid=8f304134-a1eb-4b99-87d1-e143bcb02257","ios":"levelo://app?vid=8f304134-a1eb-4b99-87d1-e143bcb02257"},"vehicle_type_id":"4","last_reported":1692392715,"current_range_meters":28800,"station_id":"ce4bgn92rcd13ifvqbvg","pricing_plan_id":"free"},{"bike_id":"92fa6ef6-f91f-4412-8385-f57d2ba31f1a","system_id":"levelo_inurba_marseille","lat":43.30912,"lon":5.36844,"is_reserved":false,"is_disabled":false,"rental_uris":{"android":"levelo://app?vid=92fa6ef6-f91f-4412-8385-f57d2ba31f1a","ios":"levelo://app?vid=92fa6ef6-f91f-4412-8385-f57d2ba31f1a"},"vehicle_type_id":"4","last_reported":1692392715,"current_range_meters":16000,"station_id":"","pricing_plan_id":"free"},{"bike_id":"492c890f-762d-4779-9020-3f8f16d53c62","system_id":"levelo_inurba_marseille","lat":43.309076,"lon":5.368465,"is_reserved":false,"is_disabled":false,"rental_uris":{"android":"levelo://app?vid=492c890f-762d-4779-9020-3f8f16d53c62","ios":"levelo://app?vid=492c890f-762d-4779-9020-3f8f16d53c62"},"vehicle_type_id":"4","last_reported":1692392715,"current_range_meters":0,"station_id":"ce4bgn92rcd13ifvqbvg","pricing_plan_id":"free"},{"bike_id":"a6bf38f1-7c90-4059-b987-be26a6a4a422","system_id":"levelo_inurba_marseille","lat":43.31483,"lon":5.37298,"is_reserved":false,"is_disabled":false,"rental_uris":{"android":"levelo://app?vid=a6bf38f1-7c90-4059-b987-be26a6a4a422","ios":"levelo://app?vid=a6bf38f1-7c90-4059-b987-be26a6a4a422"},"vehicle_type_id":"4","last_reported":1692392715,"current_range_meters":28000,"station_id":"ce4bgt12rcd13ifvqcd0","pricing_plan_id":"free"},{"bike_id":"d80d6f82-69d5-48d8-a61d-ca29c11ee410","system_id":"levelo_inurba_marseille","lat":43.309039,"lon":5.371797,"is_reserved":false,"is_disabled":false,"rental_uris":{"android":"levelo://app?vid=d80d6f82-69d5-48d8-a61d-ca29c11ee410","ios":"levelo://app?vid=d80d6f82-69d5-48d8-a61d-ca29c11ee410"},"vehicle_type_id":"4","last_reported":1692392715,"current_range_meters":27600,"station_id":"ce4bguh2rcd13ifvqckg","pricing_plan_id":"free"},{"bike_id":"e0d7d119-8a08-416f-b874-f2f437cc2846","system_id":"levelo_inurba_marseille","lat":43.30538,"lon":5.36703,"is_reserved":false,"is_disabled":false,"rental_uris":{"android":"levelo://app?vid=e0d7d119-8a08-416f-b874-f2f437cc2846","ios":"levelo://app?vid=e0d7d119-8a08-416f-b874-f2f437cc2846"},"vehicle_type_id":"4","last_reported":1692392715,"current_range_meters":17200,"station_id":"ce4bgrp2rcd13ifvqc9g","pricing_plan_id":"free"},{"bike_id":"386ed8e3-b71e-4f68-86af-202c5b76503e","system_id":"levelo_inurba_marseille","lat":43.30536,"lon":5.36706,"is_reserved":false,"is_disabled":false,"rental_uris":{"android":"levelo://app?vid=386ed8e3-b71e-4f68-86af-202c5b76503e","ios":"levelo://app?vid=386ed8e3-b71e-4f68-86af-202c5b76503e"},"vehicle_type_id":"4","last_reported":1692392715,"current_range_meters":28800,"station_id":"ce4bgrp2rcd13ifvqc9g","pricing_plan_id":"free"},{"bike_id":"9fbe6e18-d192-44c2-98b5-cafb68b41aa4","system_id":"levelo_inurba_marseille","lat":43.30535,"lon":5.36544,"is_reserved":false,"is_disabled":false,"rental_uris":{"android":"levelo://app?vid=9fbe6e18-d192-44c2-98b5-cafb68b41aa4","ios":"levelo://app?vid=9fbe6e18-d192-44c2-98b5-cafb68b41aa4"},"vehicle_type_id":"4","last_reported":1692392715,"current_range_meters":14800,"station_id":"ce4bgs12rcd13ifvqcag","pricing_plan_id":"free"},{"bike_id":"dc2cc4e1-b2c1-4cd1-a5a4-9fc90f2a3f13","system_id":"levelo_inurba_marseille","lat":43.305989,"lon":5.37225,"is_reserved":false,"is_disabled":false,"rental_uris":{"android":"levelo://app?vid=dc2cc4e1-b2c1-4cd1-a5a4-9fc90f2a3f13","ios":"levelo://app?vid=dc2cc4e1-b2c1-4cd1-a5a4-9fc90f2a3f13"},"vehicle_type_id":"4","last_reported":1692392715,"current_range_meters":21200,"station_id":"ce4bgqh2rcd13ifvqc4g","pricing_plan_id":"free"},{"bike_id":"05c66bce-b01a-4407-956a-307a27eec595","system_id":"levelo_inurba_marseille","lat":43.305989,"lon":5.37225,"is_reserved":false,"is_disabled":false,"rental_uris":{"android":"levelo://app?vid=05c66bce-b01a-4407-956a-307a27eec595","ios":"levelo://app?vid=05c66bce-b01a-4407-956a-307a27eec595"},"vehicle_type_id":"4","last_reported":1692392715,"current_range_meters":12000,"station_id":"ce4bgqh2rcd13ifvqc4g","pricing_plan_id":"free"},{"bike_id":"9e0419fd-ea03-46cf-9210-7e6cb40c347e","system_id":"levelo_inurba_marseille","lat":43.311125,"lon":5.377624,"is_reserved":false,"is_disabled":false,"rental_uris":{"android":"levelo://app?vid=9e0419fd-ea03-46cf-9210-7e6cb40c347e","ios":"levelo://app?vid=9e0419fd-ea03-46cf-9210-7e6cb40c347e"},"vehicle_type_id":"4","last_reported":1692392715,"current_range_meters":12000,"station_id":"ce4bgt92rcd13ifvqcg0","pricing_plan_id":"free"},{"bike_id":"3d5ef014-6dd3-434c-8973-58fa2c316faf","system_id":"levelo_inurba_marseille","lat":43.311125,"lon":5.377624,"is_reserved":false,"is_disabled":false,"rental_uris":{"android":"levelo://app?vid=3d5ef014-6dd3-434c-8973-58fa2c316faf","ios":"levelo://app?vid=3d5ef014-6dd3-434c-8973-58fa2c316faf"},"vehicle_type_id":"4","last_reported":1692392715,"current_range_meters":28400,"station_id":"ce4bgt92rcd13ifvqcg0","pricing_plan_id":"free"},{"bike_id":"21e7e65d-ce60-4b85-a652-e8908c4e0528","system_id":"levelo_inurba_marseille","lat":43.311125,"lon":5.377624,"is_reserved":false,"is_disabled":false,"rental_uris":{"android":"levelo://app?vid=21e7e65d-ce60-4b85-a652-e8908c4e0528","ios":"levelo://app?vid=21e7e65d-ce60-4b85-a652-e8908c4e0528"},"vehicle_type_id":"4","last_reported":1692392715,"current_range_meters":24000,"station_id":"ce4bgt92rcd13ifvqcg0","pricing_plan_id":"free"},{"bike_id":"77826aa5-9b20-4e65-9287-000637452ee4","system_id":"levelo_inurba_marseille","lat":43.31114,"lon":5.37777,"is_reserved":false,"is_disabled":false,"rental_uris":{"android":"levelo://app?vid=77826aa5-9b20-4e65-9287-000637452ee4","ios":"levelo://app?vid=77826aa5-9b20-4e65-9287-000637452ee4"},"vehicle_type_id":"4","last_reported":1692392715,"current_range_meters":14400,"station_id":"ce4bgt92rcd13ifvqcg0","pricing_plan_id":"free"},{"bike_id":"d25fe1a5-048d-4909-9b93-40acb4b0df5e","system_id":"levelo_inurba_marseille","lat":43.307945,"lon":5.376487,"is_reserved":false,"is_disabled":false,"rental_uris":{"android":"levelo://app?vid=d25fe1a5-048d-4909-9b93-40acb4b0df5e","ios":"levelo://app?vid=d25fe1a5-048d-4909-9b93-40acb4b0df5e"},"vehicle_type_id":"4","last_reported":1692392715,"current_range_meters":10400,"station_id":"ce4bgv92rcd13ifvqcq0","pricing_plan_id":"free"},{"bike_id":"06fd5ed9-9846-4860-8a67-1ff1db9729c7","system_id":"levelo_inurba_marseille","lat":43.307929,"lon":5.376485,"is_reserved":false,"is_disabled":false,"rental_uris":{"android":"levelo://app?vid=06fd5ed9-9846-4860-8a67-1ff1db9729c7","ios":"levelo://app?vid=06fd5ed9-9846-4860-8a67-1ff1db9729c7"},"vehicle_type_id":"4","last_reported":1692392715,"current_range_meters":29600,"station_id":"","pricing_plan_id":"free"},{"bike_id":"58042dd0-d41e-4810-a31b-3b2bad9fd145","system_id":"levelo_inurba_marseille","lat":43.307945,"lon":5.376487,"is_reserved":false,"is_disabled":false,"rental_uris":{"android":"levelo://app?vid=58042dd0-d41e-4810-a31b-3b2bad9fd145","ios":"levelo://app?vid=58042dd0-d41e-4810-a31b-3b2bad9fd145"},"vehicle_type_id":"4","last_reported":1692392715,"current_range_meters":400,"station_id":"ce4bgv92rcd13ifvqcq0","pricing_plan_id":"free"},{"bike_id":"17795b23-def9-4891-a3dc-118b4277a6cf","system_id":"levelo_inurba_marseille","lat":43.30789,"lon":5.37657,"is_reserved":false,"is_disabled":false,"rental_uris":{"android":"levelo://app?vid=17795b23-def9-4891-a3dc-118b4277a6cf","ios":"levelo://app?vid=17795b23-def9-4891-a3dc-118b4277a6cf"},"vehicle_type_id":"4","last_reported":1692392715,"current_range_meters":24000,"station_id":"ce4bgv92rcd13ifvqcq0","pricing_plan_id":"free"},{"bike_id":"9e2ade74-71b6-49d5-836d-53aa4b918390","system_id":"levelo_inurba_marseille","lat":43.31692,"lon":5.3775,"is_reserved":false,"is_disabled":false,"rental_uris":{"android":"levelo://app?vid=9e2ade74-71b6-49d5-836d-53aa4b918390","ios":"levelo://app?vid=9e2ade74-71b6-49d5-836d-53aa4b918390"},"vehicle_type_id":"4","last_reported":1692392715,"current_range_meters":25200,"station_id":"ce4bgth2rcd13ifvqch0","pricing_plan_id":"free"},{"bike_id":"784dd607-42ba-4c87-aa30-553f0fab1303","system_id":"levelo_inurba_marseille","lat":43.31528,"lon":5.38026,"is_reserved":false,"is_disabled":false,"rental_uris":{"android":"levelo://app?vid=784dd607-42ba-4c87-aa30-553f0fab1303","ios":"levelo://app?vid=784dd607-42ba-4c87-aa30-553f0fab1303"},"vehicle_type_id":"4","last_reported":1692392715,"current_range_meters":17200,"station_id":"ce4bhsp2rcd13ifvqi50","pricing_plan_id":"free"},{"bike_id":"a6651547-d993-431a-9bb2-3389a1270c4d","system_id":"levelo_inurba_marseille","lat":43.31534,"lon":5.38024,"is_reserved":false,"is_disabled":false,"rental_uris":{"android":"levelo://app?vid=a6651547-d993-431a-9bb2-3389a1270c4d","ios":"levelo://app?vid=a6651547-d993-431a-9bb2-3389a1270c4d"},"vehicle_type_id":"4","last_reported":1692392715,"current_range_meters":28800,"station_id":"ce4bhsp2rcd13ifvqi50","pricing_plan_id":"free"},{"bike_id":"28b8c7fd-4c88-403f-9814-975b1d0e7007","system_id":"levelo_inurba_marseille","lat":43.31535,"lon":5.38024,"is_reserved":false,"is_disabled":false,"rental_uris":{"android":"levelo://app?vid=28b8c7fd-4c88-403f-9814-975b1d0e7007","ios":"levelo://app?vid=28b8c7fd-4c88-403f-9814-975b1d0e7007"},"vehicle_type_id":"4","last_reported":1692392715,"current_range_meters":28400,"station_id":"ce4bhsp2rcd13ifvqi50","pricing_plan_id":"free"},{"bike_id":"e3310298-fb10-4c18-ae38-2570af28e985","system_id":"levelo_inurba_marseille","lat":43.315289,"lon":5.380349,"is_reserved":false,"is_disabled":false,"rental_uris":{"android":"levelo://app?vid=e3310298-fb10-4c18-ae38-2570af28e985","ios":"levelo://app?vid=e3310298-fb10-4c18-ae38-2570af28e985"},"vehicle_type_id":"4","last_reported":1692392715,"current_range_meters":8400,"station_id":"ce4bhsp2rcd13ifvqi50","pricing_plan_id":"free"},{"bike_id":"bfd18b81-7891-4c2a-9875-8c3cac67fc01","system_id":"levelo_inurba_marseille","lat":43.315293,"lon":5.380349,"is_reserved":false,"is_disabled":false,"rental_uris":{"android":"levelo://app?vid=bfd18b81-7891-4c2a-9875-8c3cac67fc01","ios":"levelo://app?vid=bfd18b81-7891-4c2a-9875-8c3cac67fc01"},"vehicle_type_id":"4","last_reported":1692392715,"current_range_meters":29600,"station_id":"ce4bhsp2rcd13ifvqi50","pricing_plan_id":"free"},{"bike_id":"2ea97f1a-1347-4738-a08b-7b9e24416fd8","system_id":"levelo_inurba_marseille","lat":43.31537,"lon":5.38028,"is_reserved":false,"is_disabled":false,"rental_uris":{"android":"levelo://app?vid=2ea97f1a-1347-4738-a08b-7b9e24416fd8","ios":"levelo://app?vid=2ea97f1a-1347-4738-a08b-7b9e24416fd8"},"vehicle_type_id":"4","last_reported":1692392715,"current_range_meters":21200,"station_id":"ce4bhsp2rcd13ifvqi50","pricing_plan_id":"free"},{"bike_id":"ae206411-eaa8-4ac8-9636-8149e80af6c8","system_id":"levelo_inurba_marseille","lat":43.315293,"lon":5.380349,"is_reserved":false,"is_disabled":false,"rental_uris":{"android":"levelo://app?vid=ae206411-eaa8-4ac8-9636-8149e80af6c8","ios":"levelo://app?vid=ae206411-eaa8-4ac8-9636-8149e80af6c8"},"vehicle_type_id":"4","last_reported":1692392715,"current_range_meters":18800,"station_id":"ce4bhsp2rcd13ifvqi50","pricing_plan_id":"free"},{"bike_id":"b1ce8c2f-d585-4193-8765-0ab0d3fd8f86","system_id":"levelo_inurba_marseille","lat":43.31531,"lon":5.38033,"is_reserved":false,"is_disabled":false,"rental_uris":{"android":"levelo://app?vid=b1ce8c2f-d585-4193-8765-0ab0d3fd8f86","ios":"levelo://app?vid=b1ce8c2f-d585-4193-8765-0ab0d3fd8f86"},"vehicle_type_id":"4","last_reported":1692392715,"current_range_meters":18000,"station_id":"ce4bhsp2rcd13ifvqi50","pricing_plan_id":"free"},{"bike_id":"1371b4ca-3860-4ff7-a6a1-15c1250fb196","system_id":"levelo_inurba_marseille","lat":43.31534,"lon":5.38033,"is_reserved":false,"is_disabled":false,"rental_uris":{"android":"levelo://app?vid=1371b4ca-3860-4ff7-a6a1-15c1250fb196","ios":"levelo://app?vid=1371b4ca-3860-4ff7-a6a1-15c1250fb196"},"vehicle_type_id":"4","last_reported":1692392715,"current_range_meters":20800,"station_id":"ce4bhsp2rcd13ifvqi50","pricing_plan_id":"free"},{"bike_id":"58d8d104-8d3f-4976-99f8-939c4abc52f7","system_id":"levelo_inurba_marseille","lat":43.31531,"lon":5.38035,"is_reserved":false,"is_disabled":false,"rental_uris":{"android":"levelo://app?vid=58d8d104-8d3f-4976-99f8-939c4abc52f7","ios":"levelo://app?vid=58d8d104-8d3f-4976-99f8-939c4abc52f7"},"vehicle_type_id":"4","last_reported":1692392715,"current_range_meters":13600,"station_id":"ce4bhsp2rcd13ifvqi50","pricing_plan_id":"free"},{"bike_id":"4204ac8f-e5b0-4f8d-8a0c-b55ad19de15b","system_id":"levelo_inurba_marseille","lat":43.315289,"lon":5.380349,"is_reserved":false,"is_disabled":false,"rental_uris":{"android":"levelo://app?vid=4204ac8f-e5b0-4f8d-8a0c-b55ad19de15b","ios":"levelo://app?vid=4204ac8f-e5b0-4f8d-8a0c-b55ad19de15b"},"vehicle_type_id":"4","last_reported":1692392715,"current_range_meters":800,"station_id":"ce4bhsp2rcd13ifvqi50","pricing_plan_id":"free"},{"bike_id":"0d20c648-5861-4067-90df-a6f48ef2b067","system_id":"levelo_inurba_marseille","lat":43.301939,"lon":5.366286,"is_reserved":false,"is_disabled":false,"rental_uris":{"android":"levelo://app?vid=0d20c648-5861-4067-90df-a6f48ef2b067","ios":"levelo://app?vid=0d20c648-5861-4067-90df-a6f48ef2b067"},"vehicle_type_id":"4","last_reported":1692392715,"current_range_meters":24400,"station_id":"ce4bgrh2rcd13ifvqc8g","pricing_plan_id":"free"},{"bike_id":"b7d27f4b-8b3e-4ec8-9b29-9ebe31e92f4d","system_id":"levelo_inurba_marseille","lat":43.30813,"lon":5.38153,"is_reserved":false,"is_disabled":false,"rental_uris":{"android":"levelo://app?vid=b7d27f4b-8b3e-4ec8-9b29-9ebe31e92f4d","ios":"levelo://app?vid=b7d27f4b-8b3e-4ec8-9b29-9ebe31e92f4d"},"vehicle_type_id":"4","last_reported":1692392715,"current_range_meters":30000,"station_id":"ce4bgt12rcd13ifvqce0","pricing_plan_id":"free"},{"bike_id":"1c15d969-a3c9-44eb-872c-9d1fd6739573","system_id":"levelo_inurba_marseille","lat":43.308012,"lon":5.381511,"is_reserved":false,"is_disabled":false,"rental_uris":{"android":"levelo://app?vid=1c15d969-a3c9-44eb-872c-9d1fd6739573","ios":"levelo://app?vid=1c15d969-a3c9-44eb-872c-9d1fd6739573"},"vehicle_type_id":"4","last_reported":1692392715,"current_range_meters":1600,"station_id":"ce4bgt12rcd13ifvqce0","pricing_plan_id":"free"},{"bike_id":"9e6ebe6c-6d21-471a-b46f-c2305f56f84c","system_id":"levelo_inurba_marseille","lat":43.304606,"lon":5.379026,"is_reserved":false,"is_disabled":false,"rental_uris":{"android":"levelo://app?vid=9e6ebe6c-6d21-471a-b46f-c2305f56f84c","ios":"levelo://app?vid=9e6ebe6c-6d21-471a-b46f-c2305f56f84c"},"vehicle_type_id":"4","last_reported":1692392715,"current_range_meters":29600,"station_id":"ce4bgup2rcd13ifvqcn0","pricing_plan_id":"free"},{"bike_id":"2abc82e4-052b-4d84-a0bc-3861198b4955","system_id":"levelo_inurba_marseille","lat":43.304606,"lon":5.379026,"is_reserved":false,"is_disabled":false,"rental_uris":{"android":"levelo://app?vid=2abc82e4-052b-4d84-a0bc-3861198b4955","ios":"levelo://app?vid=2abc82e4-052b-4d84-a0bc-3861198b4955"},"vehicle_type_id":"4","last_reported":1692392715,"current_range_meters":10000,"station_id":"ce4bgup2rcd13ifvqcn0","pricing_plan_id":"free"},{"bike_id":"b7ce8a6e-a107-4ca8-81a8-6ae930bcc278","system_id":"levelo_inurba_marseille","lat":43.304606,"lon":5.379026,"is_reserved":false,"is_disabled":false,"rental_uris":{"android":"levelo://app?vid=b7ce8a6e-a107-4ca8-81a8-6ae930bcc278","ios":"levelo://app?vid=b7ce8a6e-a107-4ca8-81a8-6ae930bcc278"},"vehicle_type_id":"4","last_reported":1692392715,"current_range_meters":31600,"station_id":"ce4bgup2rcd13ifvqcn0","pricing_plan_id":"free"},{"bike_id":"44e27681-7ac7-4655-ba65-37f7b0cf7452","system_id":"levelo_inurba_marseille","lat":43.304606,"lon":5.379026,"is_reserved":false,"is_disabled":false,"rental_uris":{"android":"levelo://app?vid=44e27681-7ac7-4655-ba65-37f7b0cf7452","ios":"levelo://app?vid=44e27681-7ac7-4655-ba65-37f7b0cf7452"},"vehicle_type_id":"4","last_reported":1692392715,"current_range_meters":30800,"station_id":"ce4bgup2rcd13ifvqcn0","pricing_plan_id":"free"},{"bike_id":"0c423629-8638-422e-a8e9-3b8991efba73","system_id":"levelo_inurba_marseille","lat":43.302784,"lon":5.377158,"is_reserved":false,"is_disabled":false,"rental_uris":{"android":"levelo://app?vid=0c423629-8638-422e-a8e9-3b8991efba73","ios":"levelo://app?vid=0c423629-8638-422e-a8e9-3b8991efba73"},"vehicle_type_id":"4","last_reported":1692392715,"current_range_meters":31600,"station_id":"ce4bguh2rcd13ifvqcj0","pricing_plan_id":"free"},{"bike_id":"64101f2f-5146-42ba-9eb0-70bf3c1590ef","system_id":"levelo_inurba_marseille","lat":43.30143,"lon":5.37428,"is_reserved":false,"is_disabled":false,"rental_uris":{"android":"levelo://app?vid=64101f2f-5146-42ba-9eb0-70bf3c1590ef","ios":"levelo://app?vid=64101f2f-5146-42ba-9eb0-70bf3c1590ef"},"vehicle_type_id":"4","last_reported":1692392715,"current_range_meters":0,"station_id":"ce4bgs92rcd13ifvqcc0","pricing_plan_id":"free"},{"bike_id":"27f42fd0-2d3f-4f54-ad9b-35cfde011298","system_id":"levelo_inurba_marseille","lat":43.31997,"lon":5.38146,"is_reserved":false,"is_disabled":false,"rental_uris":{"android":"levelo://app?vid=27f42fd0-2d3f-4f54-ad9b-35cfde011298","ios":"levelo://app?vid=27f42fd0-2d3f-4f54-ad9b-35cfde011298"},"vehicle_type_id":"4","last_reported":1692392715,"current_range_meters":28000,"station_id":"ce4bhr12rcd13ifvqhpg","pricing_plan_id":"free"},{"bike_id":"759dd295-af3d-4c72-b6fa-1d61a75844e4","system_id":"levelo_inurba_marseille","lat":43.31995,"lon":5.3815,"is_reserved":false,"is_disabled":false,"rental_uris":{"android":"levelo://app?vid=759dd295-af3d-4c72-b6fa-1d61a75844e4","ios":"levelo://app?vid=759dd295-af3d-4c72-b6fa-1d61a75844e4"},"vehicle_type_id":"4","last_reported":1692392715,"current_range_meters":18800,"station_id":"ce4bhr12rcd13ifvqhpg","pricing_plan_id":"free"},{"bike_id":"8f9423b6-2f75-4d37-9601-472d76ede970","system_id":"levelo_inurba_marseille","lat":43.31358,"lon":5.38469,"is_reserved":false,"is_disabled":false,"rental_uris":{"android":"levelo://app?vid=8f9423b6-2f75-4d37-9601-472d76ede970","ios":"levelo://app?vid=8f9423b6-2f75-4d37-9601-472d76ede970"},"vehicle_type_id":"4","last_reported":1692392715,"current_range_meters":10800,"station_id":"ce4bgt92rcd13ifvqcf0","pricing_plan_id":"free"},{"bike_id":"38a2839b-73df-4249-936d-c8ed3b9c563b","system_id":"levelo_inurba_marseille","lat":43.313571,"lon":5.384829,"is_reserved":false,"is_disabled":false,"rental_uris":{"android":"levelo://app?vid=38a2839b-73df-4249-936d-c8ed3b9c563b","ios":"levelo://app?vid=38a2839b-73df-4249-936d-c8ed3b9c563b"},"vehicle_type_id":"4","last_reported":1692392715,"current_range_meters":24000,"station_id":"ce4bgt92rcd13ifvqcf0","pricing_plan_id":"free"},{"bike_id":"b0cd3983-7ed9-4f12-b66a-cccdac1649cc","system_id":"levelo_inurba_marseille","lat":43.313571,"lon":5.384829,"is_reserved":false,"is_disabled":false,"rental_uris":{"android":"levelo://app?vid=b0cd3983-7ed9-4f12-b66a-cccdac1649cc","ios":"levelo://app?vid=b0cd3983-7ed9-4f12-b66a-cccdac1649cc"},"vehicle_type_id":"4","last_reported":1692392715,"current_range_meters":18800,"station_id":"ce4bgt92rcd13ifvqcf0","pricing_plan_id":"free"},{"bike_id":"e017936f-66fe-4b1d-aba7-5a1fa9d70117","system_id":"levelo_inurba_marseille","lat":43.313571,"lon":5.384829,"is_reserved":false,"is_disabled":false,"rental_uris":{"android":"levelo://app?vid=e017936f-66fe-4b1d-aba7-5a1fa9d70117","ios":"levelo://app?vid=e017936f-66fe-4b1d-aba7-5a1fa9d70117"},"vehicle_type_id":"4","last_reported":1692392715,"current_range_meters":12800,"station_id":"ce4bgt92rcd13ifvqcf0","pricing_plan_id":"free"},{"bike_id":"7c13af4b-e744-4391-98f3-450ad4882b34","system_id":"levelo_inurba_marseille","lat":43.313571,"lon":5.384829,"is_reserved":false,"is_disabled":false,"rental_uris":{"android":"levelo://app?vid=7c13af4b-e744-4391-98f3-450ad4882b34","ios":"levelo://app?vid=7c13af4b-e744-4391-98f3-450ad4882b34"},"vehicle_type_id":"4","last_reported":1692392715,"current_range_meters":25200,"station_id":"ce4bgt92rcd13ifvqcf0","pricing_plan_id":"free"},{"bike_id":"7a4b2d3d-4c59-4d74-9fc5-87f9bc73adcc","system_id":"levelo_inurba_marseille","lat":43.313571,"lon":5.384829,"is_reserved":false,"is_disabled":false,"rental_uris":{"android":"levelo://app?vid=7a4b2d3d-4c59-4d74-9fc5-87f9bc73adcc","ios":"levelo://app?vid=7a4b2d3d-4c59-4d74-9fc5-87f9bc73adcc"},"vehicle_type_id":"4","last_reported":1692392715,"current_range_meters":6800,"station_id":"ce4bgt92rcd13ifvqcf0","pricing_plan_id":"free"},{"bike_id":"fc136b6a-e037-4335-9e56-c3dd46e70eaa","system_id":"levelo_inurba_marseille","lat":43.31359,"lon":5.38493,"is_reserved":false,"is_disabled":false,"rental_uris":{"android":"levelo://app?vid=fc136b6a-e037-4335-9e56-c3dd46e70eaa","ios":"levelo://app?vid=fc136b6a-e037-4335-9e56-c3dd46e70eaa"},"vehicle_type_id":"4","last_reported":1692392715,"current_range_meters":2400,"station_id":"ce4bgt92rcd13ifvqcf0","pricing_plan_id":"free"},{"bike_id":"3fef3bef-c96c-446a-8f9a-a2a57997b62a","system_id":"levelo_inurba_marseille","lat":43.313571,"lon":5.384829,"is_reserved":false,"is_disabled":false,"rental_uris":{"android":"levelo://app?vid=3fef3bef-c96c-446a-8f9a-a2a57997b62a","ios":"levelo://app?vid=3fef3bef-c96c-446a-8f9a-a2a57997b62a"},"vehicle_type_id":"4","last_reported":1692392715,"current_range_meters":0,"station_id":"ce4bgt92rcd13ifvqcf0","pricing_plan_id":"free"},{"bike_id":"441fe163-c3ed-4576-b265-2bf097134ee6","system_id":"levelo_inurba_marseille","lat":43.29981,"lon":5.37173,"is_reserved":false,"is_disabled":false,"rental_uris":{"android":"levelo://app?vid=441fe163-c3ed-4576-b265-2bf097134ee6","ios":"levelo://app?vid=441fe163-c3ed-4576-b265-2bf097134ee6"},"vehicle_type_id":"4","last_reported":1692392715,"current_range_meters":400,"station_id":"ce4bgr92rcd13ifvqc7g","pricing_plan_id":"free"},{"bike_id":"f8c851b8-1e2c-4195-9933-a6d14e39048f","system_id":"levelo_inurba_marseille","lat":43.299012,"lon":5.365186,"is_reserved":false,"is_disabled":false,"rental_uris":{"android":"levelo://app?vid=f8c851b8-1e2c-4195-9933-a6d14e39048f","ios":"levelo://app?vid=f8c851b8-1e2c-4195-9933-a6d14e39048f"},"vehicle_type_id":"4","last_reported":1692392715,"current_range_meters":3600,"station_id":"ce4bgm92rcd13ifvqbr0","pricing_plan_id":"free"},{"bike_id":"163a6a19-6a42-4885-b221-48e99bb2ddcb","system_id":"levelo_inurba_marseille","lat":43.30543,"lon":5.38433,"is_reserved":false,"is_disabled":false,"rental_uris":{"android":"levelo://app?vid=163a6a19-6a42-4885-b221-48e99bb2ddcb","ios":"levelo://app?vid=163a6a19-6a42-4885-b221-48e99bb2ddcb"},"vehicle_type_id":"4","last_reported":1692392715,"current_range_meters":14800,"station_id":"ce4bgg92rcd13ifvqb30","pricing_plan_id":"free"},{"bike_id":"54799a81-fb0a-407f-8737-89661789adb5","system_id":"levelo_inurba_marseille","lat":43.305364,"lon":5.384119,"is_reserved":false,"is_disabled":false,"rental_uris":{"android":"levelo://app?vid=54799a81-fb0a-407f-8737-89661789adb5","ios":"levelo://app?vid=54799a81-fb0a-407f-8737-89661789adb5"},"vehicle_type_id":"4","last_reported":1692392715,"current_range_meters":0,"station_id":"ce4bgg92rcd13ifvqb30","pricing_plan_id":"free"},{"bike_id":"4f4385b6-ff5d-47d4-b53e-7e84c94a5c8e","system_id":"levelo_inurba_marseille","lat":43.311722,"lon":5.387247,"is_reserved":false,"is_disabled":false,"rental_uris":{"android":"levelo://app?vid=4f4385b6-ff5d-47d4-b53e-7e84c94a5c8e","ios":"levelo://app?vid=4f4385b6-ff5d-47d4-b53e-7e84c94a5c8e"},"vehicle_type_id":"4","last_reported":1692392715,"current_range_meters":19200,"station_id":"ce4bgv12rcd13ifvqcp0","pricing_plan_id":"free"},{"bike_id":"6448bada-ce13-4a40-a1db-ae0f0d08f94a","system_id":"levelo_inurba_marseille","lat":43.297774,"lon":5.370875,"is_reserved":false,"is_disabled":false,"rental_uris":{"android":"levelo://app?vid=6448bada-ce13-4a40-a1db-ae0f0d08f94a","ios":"levelo://app?vid=6448bada-ce13-4a40-a1db-ae0f0d08f94a"},"vehicle_type_id":"4","last_reported":1692392715,"current_range_meters":5600,"station_id":"ce4bgop2rcd13ifvqc1g","pricing_plan_id":"free"},{"bike_id":"aeefdbbb-0ed4-4b18-941b-939a779ad632","system_id":"levelo_inurba_marseille","lat":43.297774,"lon":5.370875,"is_reserved":false,"is_disabled":false,"rental_uris":{"android":"levelo://app?vid=aeefdbbb-0ed4-4b18-941b-939a779ad632","ios":"levelo://app?vid=aeefdbbb-0ed4-4b18-941b-939a779ad632"},"vehicle_type_id":"4","last_reported":1692392715,"current_range_meters":16800,"station_id":"ce4bgop2rcd13ifvqc1g","pricing_plan_id":"free"},{"bike_id":"5f91fc7d-0833-4a7c-a0d8-21ec0ad5455a","system_id":"levelo_inurba_marseille","lat":43.32286,"lon":5.3826,"is_reserved":false,"is_disabled":false,"rental_uris":{"android":"levelo://app?vid=5f91fc7d-0833-4a7c-a0d8-21ec0ad5455a","ios":"levelo://app?vid=5f91fc7d-0833-4a7c-a0d8-21ec0ad5455a"},"vehicle_type_id":"4","last_reported":1692392715,"current_range_meters":24800,"station_id":"ce4bhr12rcd13ifvqhqg","pricing_plan_id":"free"},{"bike_id":"673200d6-9c00-4797-bd65-06254571f6fe","system_id":"levelo_inurba_marseille","lat":43.32289,"lon":5.38267,"is_reserved":false,"is_disabled":false,"rental_uris":{"android":"levelo://app?vid=673200d6-9c00-4797-bd65-06254571f6fe","ios":"levelo://app?vid=673200d6-9c00-4797-bd65-06254571f6fe"},"vehicle_type_id":"4","last_reported":1692392715,"current_range_meters":26800,"station_id":"ce4bhr12rcd13ifvqhqg","pricing_plan_id":"free"},{"bike_id":"15120a69-1dc0-488d-b5dc-3813b3f3db2b","system_id":"levelo_inurba_marseille","lat":43.32288,"lon":5.38271,"is_reserved":false,"is_disabled":false,"rental_uris":{"android":"levelo://app?vid=15120a69-1dc0-488d-b5dc-3813b3f3db2b","ios":"levelo://app?vid=15120a69-1dc0-488d-b5dc-3813b3f3db2b"},"vehicle_type_id":"4","last_reported":1692392715,"current_range_meters":800,"station_id":"ce4bhr12rcd13ifvqhqg","pricing_plan_id":"free"},{"bike_id":"a1f7b084-f437-4e0c-8b20-334f54c48d59","system_id":"levelo_inurba_marseille","lat":43.32291,"lon":5.38272,"is_reserved":false,"is_disabled":false,"rental_uris":{"android":"levelo://app?vid=a1f7b084-f437-4e0c-8b20-334f54c48d59","ios":"levelo://app?vid=a1f7b084-f437-4e0c-8b20-334f54c48d59"},"vehicle_type_id":"4","last_reported":1692392715,"current_range_meters":22000,"station_id":"ce4bhr12rcd13ifvqhqg","pricing_plan_id":"free"},{"bike_id":"b9784bc4-a1f4-4e7b-a996-3746dcc4c656","system_id":"levelo_inurba_marseille","lat":43.32287,"lon":5.38278,"is_reserved":false,"is_disabled":false,"rental_uris":{"android":"levelo://app?vid=b9784bc4-a1f4-4e7b-a996-3746dcc4c656","ios":"levelo://app?vid=b9784bc4-a1f4-4e7b-a996-3746dcc4c656"},"vehicle_type_id":"4","last_reported":1692392715,"current_range_meters":13600,"station_id":"ce4bhr12rcd13ifvqhqg","pricing_plan_id":"free"},{"bike_id":"20066552-063e-4d3e-9e10-e0e8a6d2c838","system_id":"levelo_inurba_marseille","lat":43.322872,"lon":5.382756,"is_reserved":false,"is_disabled":false,"rental_uris":{"android":"levelo://app?vid=20066552-063e-4d3e-9e10-e0e8a6d2c838","ios":"levelo://app?vid=20066552-063e-4d3e-9e10-e0e8a6d2c838"},"vehicle_type_id":"4","last_reported":1692392715,"current_range_meters":5600,"station_id":"ce4bhr12rcd13ifvqhqg","pricing_plan_id":"free"},{"bike_id":"5b5c8cae-b425-4976-9ba8-5ae205664d6b","system_id":"levelo_inurba_marseille","lat":43.32297,"lon":5.38273,"is_reserved":false,"is_disabled":false,"rental_uris":{"android":"levelo://app?vid=5b5c8cae-b425-4976-9ba8-5ae205664d6b","ios":"levelo://app?vid=5b5c8cae-b425-4976-9ba8-5ae205664d6b"},"vehicle_type_id":"4","last_reported":1692392715,"current_range_meters":23200,"station_id":"ce4bhr12rcd13ifvqhqg","pricing_plan_id":"free"},{"bike_id":"dfeeac75-820a-4455-804e-e17b713a5fe3","system_id":"levelo_inurba_marseille","lat":43.32827,"lon":5.36684,"is_reserved":false,"is_disabled":false,"rental_uris":{"android":"levelo://app?vid=dfeeac75-820a-4455-804e-e17b713a5fe3","ios":"levelo://app?vid=dfeeac75-820a-4455-804e-e17b713a5fe3"},"vehicle_type_id":"4","last_reported":1692392715,"current_range_meters":4800,"station_id":"ce4bhs92rcd13ifvqi0g","pricing_plan_id":"free"},{"bike_id":"e3a21d07-f446-4608-85be-12a81574bffc","system_id":"levelo_inurba_marseille","lat":43.32828,"lon":5.36688,"is_reserved":false,"is_disabled":false,"rental_uris":{"android":"levelo://app?vid=e3a21d07-f446-4608-85be-12a81574bffc","ios":"levelo://app?vid=e3a21d07-f446-4608-85be-12a81574bffc"},"vehicle_type_id":"4","last_reported":1692392715,"current_range_meters":19600,"station_id":"ce4bhs92rcd13ifvqi0g","pricing_plan_id":"free"},{"bike_id":"c19114af-ab1c-4a57-8410-cc7725c9d41a","system_id":"levelo_inurba_marseille","lat":43.328371,"lon":5.366909,"is_reserved":false,"is_disabled":false,"rental_uris":{"android":"levelo://app?vid=c19114af-ab1c-4a57-8410-cc7725c9d41a","ios":"levelo://app?vid=c19114af-ab1c-4a57-8410-cc7725c9d41a"},"vehicle_type_id":"4","last_reported":1692392715,"current_range_meters":400,"station_id":"ce4bhs92rcd13ifvqi0g","pricing_plan_id":"free"},{"bike_id":"dd789220-e7b5-42c1-b9dc-dc4243148021","system_id":"levelo_inurba_marseille","lat":43.297163,"lon":5.365866,"is_reserved":false,"is_disabled":false,"rental_uris":{"android":"levelo://app?vid=dd789220-e7b5-42c1-b9dc-dc4243148021","ios":"levelo://app?vid=dd789220-e7b5-42c1-b9dc-dc4243148021"},"vehicle_type_id":"4","last_reported":1692392715,"current_range_meters":32000,"station_id":"ce4bgn12rcd13ifvqbt0","pricing_plan_id":"free"},{"bike_id":"2d81f0e6-7977-49ec-8cd7-3d0ebd61ea99","system_id":"levelo_inurba_marseille","lat":43.297163,"lon":5.365866,"is_reserved":false,"is_disabled":false,"rental_uris":{"android":"levelo://app?vid=2d81f0e6-7977-49ec-8cd7-3d0ebd61ea99","ios":"levelo://app?vid=2d81f0e6-7977-49ec-8cd7-3d0ebd61ea99"},"vehicle_type_id":"4","last_reported":1692392715,"current_range_meters":15200,"station_id":"ce4bgn12rcd13ifvqbt0","pricing_plan_id":"free"},{"bike_id":"cee55217-4045-4062-bc35-ff22321f566b","system_id":"levelo_inurba_marseille","lat":43.297163,"lon":5.365866,"is_reserved":false,"is_disabled":false,"rental_uris":{"android":"levelo://app?vid=cee55217-4045-4062-bc35-ff22321f566b","ios":"levelo://app?vid=cee55217-4045-4062-bc35-ff22321f566b"},"vehicle_type_id":"4","last_reported":1692392715,"current_range_meters":15200,"station_id":"ce4bgn12rcd13ifvqbt0","pricing_plan_id":"free"},{"bike_id":"e2395d82-9667-4d11-98d0-4c1a88a0e6e3","system_id":"levelo_inurba_marseille","lat":43.2968,"lon":5.37291,"is_reserved":false,"is_disabled":false,"rental_uris":{"android":"levelo://app?vid=e2395d82-9667-4d11-98d0-4c1a88a0e6e3","ios":"levelo://app?vid=e2395d82-9667-4d11-98d0-4c1a88a0e6e3"},"vehicle_type_id":"4","last_reported":1692392715,"current_range_meters":12400,"station_id":"ce4bgk12rcd13ifvqbj0","pricing_plan_id":"free"},{"bike_id":"d3139180-8ba9-4c91-b6e4-8baae3c22113","system_id":"levelo_inurba_marseille","lat":43.296131,"lon":5.370773,"is_reserved":false,"is_disabled":false,"rental_uris":{"android":"levelo://app?vid=d3139180-8ba9-4c91-b6e4-8baae3c22113","ios":"levelo://app?vid=d3139180-8ba9-4c91-b6e4-8baae3c22113"},"vehicle_type_id":"4","last_reported":1692392715,"current_range_meters":31600,"station_id":"ce4bgnh2rcd13ifvqc0g","pricing_plan_id":"free"},{"bike_id":"bb155e93-116e-494a-9911-2df351c7dae8","system_id":"levelo_inurba_marseille","lat":43.296131,"lon":5.370791,"is_reserved":false,"is_disabled":false,"rental_uris":{"android":"levelo://app?vid=bb155e93-116e-494a-9911-2df351c7dae8","ios":"levelo://app?vid=bb155e93-116e-494a-9911-2df351c7dae8"},"vehicle_type_id":"4","last_reported":1692392715,"current_range_meters":30400,"station_id":"ce4bgnh2rcd13ifvqc0g","pricing_plan_id":"free"},{"bike_id":"6c7a474c-7c40-4936-8482-d8fb4b940fe2","system_id":"levelo_inurba_marseille","lat":43.296935,"lon":5.376544,"is_reserved":false,"is_disabled":false,"rental_uris":{"android":"levelo://app?vid=6c7a474c-7c40-4936-8482-d8fb4b940fe2","ios":"levelo://app?vid=6c7a474c-7c40-4936-8482-d8fb4b940fe2"},"vehicle_type_id":"4","last_reported":1692392715,"current_range_meters":16800,"station_id":"ce4bgkh2rcd13ifvqbl0","pricing_plan_id":"free"},{"bike_id":"aa08cf5f-fde7-46fa-b966-709d9e51129e","system_id":"levelo_inurba_marseille","lat":43.296921,"lon":5.376579,"is_reserved":false,"is_disabled":false,"rental_uris":{"android":"levelo://app?vid=aa08cf5f-fde7-46fa-b966-709d9e51129e","ios":"levelo://app?vid=aa08cf5f-fde7-46fa-b966-709d9e51129e"},"vehicle_type_id":"4","last_reported":1692392715,"current_range_meters":0,"station_id":"ce4bgkh2rcd13ifvqbl0","pricing_plan_id":"free"},{"bike_id":"aa36c3bc-0d5d-4e42-bf7e-3efc41e548a3","system_id":"levelo_inurba_marseille","lat":43.296921,"lon":5.376579,"is_reserved":false,"is_disabled":false,"rental_uris":{"android":"levelo://app?vid=aa36c3bc-0d5d-4e42-bf7e-3efc41e548a3","ios":"levelo://app?vid=aa36c3bc-0d5d-4e42-bf7e-3efc41e548a3"},"vehicle_type_id":"4","last_reported":1692392715,"current_range_meters":6000,"station_id":"ce4bgkh2rcd13ifvqbl0","pricing_plan_id":"free"},{"bike_id":"37273f91-f903-4e04-9550-73ac58106a60","system_id":"levelo_inurba_marseille","lat":43.317557,"lon":5.390173,"is_reserved":false,"is_disabled":false,"rental_uris":{"android":"levelo://app?vid=37273f91-f903-4e04-9550-73ac58106a60","ios":"levelo://app?vid=37273f91-f903-4e04-9550-73ac58106a60"},"vehicle_type_id":"4","last_reported":1692392715,"current_range_meters":30400,"station_id":"ce4bhqp2rcd13ifvqhng","pricing_plan_id":"free"},{"bike_id":"e7426ba5-20b1-4b15-98e8-f5b6df319dcd","system_id":"levelo_inurba_marseille","lat":43.29793,"lon":5.38093,"is_reserved":false,"is_disabled":false,"rental_uris":{"android":"levelo://app?vid=e7426ba5-20b1-4b15-98e8-f5b6df319dcd","ios":"levelo://app?vid=e7426ba5-20b1-4b15-98e8-f5b6df319dcd"},"vehicle_type_id":"4","last_reported":1692392715,"current_range_meters":13200,"station_id":"ce4bgip2rcd13ifvqbb0","pricing_plan_id":"free"},{"bike_id":"199fb71e-64e1-4c5a-a5d4-6d870a6212ad","system_id":"levelo_inurba_marseille","lat":43.295748,"lon":5.37522,"is_reserved":false,"is_disabled":false,"rental_uris":{"android":"levelo://app?vid=199fb71e-64e1-4c5a-a5d4-6d870a6212ad","ios":"levelo://app?vid=199fb71e-64e1-4c5a-a5d4-6d870a6212ad"},"vehicle_type_id":"4","last_reported":1692392715,"current_range_meters":3600,"station_id":"ce4bgh92rcd13ifvqb50","pricing_plan_id":"free"},{"bike_id":"5497dfc6-ee0e-44c7-96bd-e50384fe26f3","system_id":"levelo_inurba_marseille","lat":43.295748,"lon":5.37522,"is_reserved":false,"is_disabled":false,"rental_uris":{"android":"levelo://app?vid=5497dfc6-ee0e-44c7-96bd-e50384fe26f3","ios":"levelo://app?vid=5497dfc6-ee0e-44c7-96bd-e50384fe26f3"},"vehicle_type_id":"4","last_reported":1692392715,"current_range_meters":6000,"station_id":"ce4bgh92rcd13ifvqb50","pricing_plan_id":"free"},{"bike_id":"86c46d41-0e1d-419d-8187-3ee66d34f1be","system_id":"levelo_inurba_marseille","lat":43.304365,"lon":5.388944,"is_reserved":false,"is_disabled":false,"rental_uris":{"android":"levelo://app?vid=86c46d41-0e1d-419d-8187-3ee66d34f1be","ios":"levelo://app?vid=86c46d41-0e1d-419d-8187-3ee66d34f1be"},"vehicle_type_id":"4","last_reported":1692392715,"current_range_meters":13200,"station_id":"ce4bgk12rcd13ifvqbi0","pricing_plan_id":"free"},{"bike_id":"49544035-0e17-49fc-a8d7-6783c330954d","system_id":"levelo_inurba_marseille","lat":43.30433,"lon":5.38893,"is_reserved":false,"is_disabled":false,"rental_uris":{"android":"levelo://app?vid=49544035-0e17-49fc-a8d7-6783c330954d","ios":"levelo://app?vid=49544035-0e17-49fc-a8d7-6783c330954d"},"vehicle_type_id":"4","last_reported":1692392715,"current_range_meters":11600,"station_id":"ce4bgk12rcd13ifvqbi0","pricing_plan_id":"free"},{"bike_id":"a4df99ce-0488-49dd-a888-94686f562e88","system_id":"levelo_inurba_marseille","lat":43.295748,"lon":5.37522,"is_reserved":false,"is_disabled":false,"rental_uris":{"android":"levelo://app?vid=a4df99ce-0488-49dd-a888-94686f562e88","ios":"levelo://app?vid=a4df99ce-0488-49dd-a888-94686f562e88"},"vehicle_type_id":"4","last_reported":1692392715,"current_range_meters":27600,"station_id":"ce4bgh92rcd13ifvqb50","pricing_plan_id":"free"},{"bike_id":"85d43f9f-6257-4699-96d2-2e4c4a33c41c","system_id":"levelo_inurba_marseille","lat":43.30427,"lon":5.38896,"is_reserved":false,"is_disabled":false,"rental_uris":{"android":"levelo://app?vid=85d43f9f-6257-4699-96d2-2e4c4a33c41c","ios":"levelo://app?vid=85d43f9f-6257-4699-96d2-2e4c4a33c41c"},"vehicle_type_id":"4","last_reported":1692392715,"current_range_meters":0,"station_id":"ce4bgk12rcd13ifvqbi0","pricing_plan_id":"free"},{"bike_id":"8f841225-5f5a-48b0-b9b3-eec9198d1c7a","system_id":"levelo_inurba_marseille","lat":43.295748,"lon":5.37522,"is_reserved":false,"is_disabled":false,"rental_uris":{"android":"levelo://app?vid=8f841225-5f5a-48b0-b9b3-eec9198d1c7a","ios":"levelo://app?vid=8f841225-5f5a-48b0-b9b3-eec9198d1c7a"},"vehicle_type_id":"4","last_reported":1692392715,"current_range_meters":8800,"station_id":"ce4bgh92rcd13ifvqb50","pricing_plan_id":"free"},{"bike_id":"6bc0237a-5c23-4d3d-86ce-886319e4f0cf","system_id":"levelo_inurba_marseille","lat":43.32159,"lon":5.38903,"is_reserved":false,"is_disabled":false,"rental_uris":{"android":"levelo://app?vid=6bc0237a-5c23-4d3d-86ce-886319e4f0cf","ios":"levelo://app?vid=6bc0237a-5c23-4d3d-86ce-886319e4f0cf"},"vehicle_type_id":"4","last_reported":1692392715,"current_range_meters":22800,"station_id":"","pricing_plan_id":"free"},{"bike_id":"c48bfbe9-ae9d-4b6b-8669-bb40d8c01ab2","system_id":"levelo_inurba_marseille","lat":43.299724,"lon":5.384848,"is_reserved":false,"is_disabled":false,"rental_uris":{"android":"levelo://app?vid=c48bfbe9-ae9d-4b6b-8669-bb40d8c01ab2","ios":"levelo://app?vid=c48bfbe9-ae9d-4b6b-8669-bb40d8c01ab2"},"vehicle_type_id":"4","last_reported":1692392715,"current_range_meters":0,"station_id":"ce4bgj92rcd13ifvqbd0","pricing_plan_id":"free"},{"bike_id":"a97f77a2-1520-4bfc-9df0-0f9c62851caa","system_id":"levelo_inurba_marseille","lat":43.32365,"lon":5.3888,"is_reserved":false,"is_disabled":false,"rental_uris":{"android":"levelo://app?vid=a97f77a2-1520-4bfc-9df0-0f9c62851caa","ios":"levelo://app?vid=a97f77a2-1520-4bfc-9df0-0f9c62851caa"},"vehicle_type_id":"4","last_reported":1692392715,"current_range_meters":31200,"station_id":"ce4bhqp2rcd13ifvqhog","pricing_plan_id":"free"},{"bike_id":"6b6cba89-d2b8-44bb-8454-5df08cf65f67","system_id":"levelo_inurba_marseille","lat":43.32367,"lon":5.388836,"is_reserved":false,"is_disabled":false,"rental_uris":{"android":"levelo://app?vid=6b6cba89-d2b8-44bb-8454-5df08cf65f67","ios":"levelo://app?vid=6b6cba89-d2b8-44bb-8454-5df08cf65f67"},"vehicle_type_id":"4","last_reported":1692392715,"current_range_meters":16400,"station_id":"ce4bhqp2rcd13ifvqhog","pricing_plan_id":"free"},{"bike_id":"810e5c4e-cfbd-4fb4-b6d8-02289cde4c80","system_id":"levelo_inurba_marseille","lat":43.32364,"lon":5.38885,"is_reserved":false,"is_disabled":false,"rental_uris":{"android":"levelo://app?vid=810e5c4e-cfbd-4fb4-b6d8-02289cde4c80","ios":"levelo://app?vid=810e5c4e-cfbd-4fb4-b6d8-02289cde4c80"},"vehicle_type_id":"4","last_reported":1692392715,"current_range_meters":16800,"station_id":"ce4bhqp2rcd13ifvqhog","pricing_plan_id":"free"},{"bike_id":"03f2098f-b50c-4ca4-a765-8806d474ecf2","system_id":"levelo_inurba_marseille","lat":43.32366,"lon":5.38884,"is_reserved":false,"is_disabled":false,"rental_uris":{"android":"levelo://app?vid=03f2098f-b50c-4ca4-a765-8806d474ecf2","ios":"levelo://app?vid=03f2098f-b50c-4ca4-a765-8806d474ecf2"},"vehicle_type_id":"4","last_reported":1692392715,"current_range_meters":12800,"station_id":"ce4bhqp2rcd13ifvqhog","pricing_plan_id":"free"},{"bike_id":"ecb24715-729b-4905-a497-1ddcefbd8f59","system_id":"levelo_inurba_marseille","lat":43.32367,"lon":5.388836,"is_reserved":false,"is_disabled":false,"rental_uris":{"android":"levelo://app?vid=ecb24715-729b-4905-a497-1ddcefbd8f59","ios":"levelo://app?vid=ecb24715-729b-4905-a497-1ddcefbd8f59"},"vehicle_type_id":"4","last_reported":1692392715,"current_range_meters":20000,"station_id":"ce4bhqp2rcd13ifvqhog","pricing_plan_id":"free"},{"bike_id":"0126f869-77bb-4690-a14f-53e2dd9d4689","system_id":"levelo_inurba_marseille","lat":43.32371,"lon":5.38886,"is_reserved":false,"is_disabled":false,"rental_uris":{"android":"levelo://app?vid=0126f869-77bb-4690-a14f-53e2dd9d4689","ios":"levelo://app?vid=0126f869-77bb-4690-a14f-53e2dd9d4689"},"vehicle_type_id":"4","last_reported":1692392715,"current_range_meters":29600,"station_id":"ce4bhqp2rcd13ifvqhog","pricing_plan_id":"free"},{"bike_id":"207f2f90-5396-4fe6-bd95-d438ab16c0b7","system_id":"levelo_inurba_marseille","lat":43.32367,"lon":5.388836,"is_reserved":false,"is_disabled":false,"rental_uris":{"android":"levelo://app?vid=207f2f90-5396-4fe6-bd95-d438ab16c0b7","ios":"levelo://app?vid=207f2f90-5396-4fe6-bd95-d438ab16c0b7"},"vehicle_type_id":"4","last_reported":1692392715,"current_range_meters":31200,"station_id":"ce4bhqp2rcd13ifvqhog","pricing_plan_id":"free"},{"bike_id":"4314cd19-09e7-4af1-900a-88512d095e20","system_id":"levelo_inurba_marseille","lat":43.32367,"lon":5.388836,"is_reserved":false,"is_disabled":false,"rental_uris":{"android":"levelo://app?vid=4314cd19-09e7-4af1-900a-88512d095e20","ios":"levelo://app?vid=4314cd19-09e7-4af1-900a-88512d095e20"},"vehicle_type_id":"4","last_reported":1692392715,"current_range_meters":25200,"station_id":"ce4bhqp2rcd13ifvqhog","pricing_plan_id":"free"},{"bike_id":"55f08f4d-333e-4077-9882-16e72e12ddbf","system_id":"levelo_inurba_marseille","lat":43.32367,"lon":5.388836,"is_reserved":false,"is_disabled":false,"rental_uris":{"android":"levelo://app?vid=55f08f4d-333e-4077-9882-16e72e12ddbf","ios":"levelo://app?vid=55f08f4d-333e-4077-9882-16e72e12ddbf"},"vehicle_type_id":"4","last_reported":1692392715,"current_range_meters":31200,"station_id":"ce4bhqp2rcd13ifvqhog","pricing_plan_id":"free"},{"bike_id":"d49c7be8-2f16-4455-8835-7143b891d27c","system_id":"levelo_inurba_marseille","lat":43.323724,"lon":5.38889,"is_reserved":false,"is_disabled":false,"rental_uris":{"android":"levelo://app?vid=d49c7be8-2f16-4455-8835-7143b891d27c","ios":"levelo://app?vid=d49c7be8-2f16-4455-8835-7143b891d27c"},"vehicle_type_id":"4","last_reported":1692392715,"current_range_meters":30000,"station_id":"ce4bhqp2rcd13ifvqhog","pricing_plan_id":"free"},{"bike_id":"3ca3f621-3ed1-46b4-b4f6-37a71d187fa3","system_id":"levelo_inurba_marseille","lat":43.323719,"lon":5.388897,"is_reserved":false,"is_disabled":false,"rental_uris":{"android":"levelo://app?vid=3ca3f621-3ed1-46b4-b4f6-37a71d187fa3","ios":"levelo://app?vid=3ca3f621-3ed1-46b4-b4f6-37a71d187fa3"},"vehicle_type_id":"4","last_reported":1692392715,"current_range_meters":30000,"station_id":"ce4bhqp2rcd13ifvqhog","pricing_plan_id":"free"},{"bike_id":"11420018-7402-44cf-b16c-b30e64c75998","system_id":"levelo_inurba_marseille","lat":43.29601,"lon":5.381084,"is_reserved":false,"is_disabled":false,"rental_uris":{"android":"levelo://app?vid=11420018-7402-44cf-b16c-b30e64c75998","ios":"levelo://app?vid=11420018-7402-44cf-b16c-b30e64c75998"},"vehicle_type_id":"4","last_reported":1692392715,"current_range_meters":17600,"station_id":"ce4bgl12rcd13ifvqbo0","pricing_plan_id":"free"},{"bike_id":"e46c7b1e-d3e8-4edd-befa-b124186248be","system_id":"levelo_inurba_marseille","lat":43.29601,"lon":5.381084,"is_reserved":false,"is_disabled":false,"rental_uris":{"android":"levelo://app?vid=e46c7b1e-d3e8-4edd-befa-b124186248be","ios":"levelo://app?vid=e46c7b1e-d3e8-4edd-befa-b124186248be"},"vehicle_type_id":"4","last_reported":1692392715,"current_range_meters":800,"station_id":"ce4bgl12rcd13ifvqbo0","pricing_plan_id":"free"},{"bike_id":"7c989a85-e290-492d-89e0-ee6590f3419e","system_id":"levelo_inurba_marseille","lat":43.29601,"lon":5.381084,"is_reserved":false,"is_disabled":false,"rental_uris":{"android":"levelo://app?vid=7c989a85-e290-492d-89e0-ee6590f3419e","ios":"levelo://app?vid=7c989a85-e290-492d-89e0-ee6590f3419e"},"vehicle_type_id":"4","last_reported":1692392715,"current_range_meters":21200,"station_id":"ce4bgl12rcd13ifvqbo0","pricing_plan_id":"free"},{"bike_id":"346aaa5d-21ef-4f99-90f2-98138f862c2e","system_id":"levelo_inurba_marseille","lat":43.29588,"lon":5.38107,"is_reserved":false,"is_disabled":false,"rental_uris":{"android":"levelo://app?vid=346aaa5d-21ef-4f99-90f2-98138f862c2e","ios":"levelo://app?vid=346aaa5d-21ef-4f99-90f2-98138f862c2e"},"vehicle_type_id":"4","last_reported":1692392715,"current_range_meters":16000,"station_id":"ce4bgl12rcd13ifvqbo0","pricing_plan_id":"free"},{"bike_id":"38fef587-7cc5-4800-b069-87b8f296a10a","system_id":"levelo_inurba_marseille","lat":43.293009,"lon":5.374584,"is_reserved":false,"is_disabled":false,"rental_uris":{"android":"levelo://app?vid=38fef587-7cc5-4800-b069-87b8f296a10a","ios":"levelo://app?vid=38fef587-7cc5-4800-b069-87b8f296a10a"},"vehicle_type_id":"4","last_reported":1692392715,"current_range_meters":31600,"station_id":"ce4bgi12rcd13ifvqb70","pricing_plan_id":"free"},{"bike_id":"3b5631b1-e544-43fa-b9c5-3ba12c57dbdb","system_id":"levelo_inurba_marseille","lat":43.305994,"lon":5.393687,"is_reserved":false,"is_disabled":false,"rental_uris":{"android":"levelo://app?vid=3b5631b1-e544-43fa-b9c5-3ba12c57dbdb","ios":"levelo://app?vid=3b5631b1-e544-43fa-b9c5-3ba12c57dbdb"},"vehicle_type_id":"4","last_reported":1692392715,"current_range_meters":30800,"station_id":"ce4bh0p2rcd13ifvqd80","pricing_plan_id":"free"},{"bike_id":"46cfbd61-fe99-4296-a18c-ef80c6831d37","system_id":"levelo_inurba_marseille","lat":43.300852,"lon":5.390859,"is_reserved":false,"is_disabled":false,"rental_uris":{"android":"levelo://app?vid=46cfbd61-fe99-4296-a18c-ef80c6831d37","ios":"levelo://app?vid=46cfbd61-fe99-4296-a18c-ef80c6831d37"},"vehicle_type_id":"4","last_reported":1692392715,"current_range_meters":29600,"station_id":"ce4bh192rcd13ifvqdb0","pricing_plan_id":"free"},{"bike_id":"a2f337ca-661c-4c0a-a955-23bd9d67e18a","system_id":"levelo_inurba_marseille","lat":43.300852,"lon":5.390859,"is_reserved":false,"is_disabled":false,"rental_uris":{"android":"levelo://app?vid=a2f337ca-661c-4c0a-a955-23bd9d67e18a","ios":"levelo://app?vid=a2f337ca-661c-4c0a-a955-23bd9d67e18a"},"vehicle_type_id":"4","last_reported":1692392715,"current_range_meters":5600,"station_id":"ce4bh192rcd13ifvqdb0","pricing_plan_id":"free"},{"bike_id":"1ce496bc-bd2b-4bff-80bb-01c146d09bdc","system_id":"levelo_inurba_marseille","lat":43.30085,"lon":5.390856,"is_reserved":false,"is_disabled":false,"rental_uris":{"android":"levelo://app?vid=1ce496bc-bd2b-4bff-80bb-01c146d09bdc","ios":"levelo://app?vid=1ce496bc-bd2b-4bff-80bb-01c146d09bdc"},"vehicle_type_id":"4","last_reported":1692392715,"current_range_meters":10000,"station_id":"ce4bh192rcd13ifvqdb0","pricing_plan_id":"free"},{"bike_id":"647f75c9-f16a-4780-b654-c3aba5519296","system_id":"levelo_inurba_marseille","lat":43.313291,"lon":5.396838,"is_reserved":false,"is_disabled":false,"rental_uris":{"android":"levelo://app?vid=647f75c9-f16a-4780-b654-c3aba5519296","ios":"levelo://app?vid=647f75c9-f16a-4780-b654-c3aba5519296"},"vehicle_type_id":"4","last_reported":1692392715,"current_range_meters":1600,"station_id":"ce4bgvp2rcd13ifvqcu0","pricing_plan_id":"free"},{"bike_id":"59fbc0df-5b31-4b50-b976-cfe6aece3be2","system_id":"levelo_inurba_marseille","lat":43.31329,"lon":5.3969,"is_reserved":false,"is_disabled":false,"rental_uris":{"android":"levelo://app?vid=59fbc0df-5b31-4b50-b976-cfe6aece3be2","ios":"levelo://app?vid=59fbc0df-5b31-4b50-b976-cfe6aece3be2"},"vehicle_type_id":"4","last_reported":1692392715,"current_range_meters":6800,"station_id":"ce4bgvp2rcd13ifvqcu0","pricing_plan_id":"free"},{"bike_id":"5993409d-f254-421a-8076-4402fc9570bd","system_id":"levelo_inurba_marseille","lat":43.31327,"lon":5.39692,"is_reserved":false,"is_disabled":false,"rental_uris":{"android":"levelo://app?vid=5993409d-f254-421a-8076-4402fc9570bd","ios":"levelo://app?vid=5993409d-f254-421a-8076-4402fc9570bd"},"vehicle_type_id":"4","last_reported":1692392715,"current_range_meters":1200,"station_id":"ce4bgvp2rcd13ifvqcu0","pricing_plan_id":"free"},{"bike_id":"c94f2036-bcbd-49b1-957e-68a41beb0349","system_id":"levelo_inurba_marseille","lat":43.298764,"lon":5.388973,"is_reserved":false,"is_disabled":false,"rental_uris":{"android":"levelo://app?vid=c94f2036-bcbd-49b1-957e-68a41beb0349","ios":"levelo://app?vid=c94f2036-bcbd-49b1-957e-68a41beb0349"},"vehicle_type_id":"4","last_reported":1692392715,"current_range_meters":5600,"station_id":"ce4bh392rcd13ifvqdl0","pricing_plan_id":"free"},{"bike_id":"f8e22b43-9b04-48fe-b796-2d8d3e42740f","system_id":"levelo_inurba_marseille","lat":43.313291,"lon":5.396838,"is_reserved":false,"is_disabled":false,"rental_uris":{"android":"levelo://app?vid=f8e22b43-9b04-48fe-b796-2d8d3e42740f","ios":"levelo://app?vid=f8e22b43-9b04-48fe-b796-2d8d3e42740f"},"vehicle_type_id":"4","last_reported":1692392715,"current_range_meters":9600,"station_id":"ce4bgvp2rcd13ifvqcu0","pricing_plan_id":"free"},{"bike_id":"40c3bb03-89e1-4dc5-8673-c3d93ead9d1d","system_id":"levelo_inurba_marseille","lat":43.309038,"lon":5.396546,"is_reserved":false,"is_disabled":false,"rental_uris":{"android":"levelo://app?vid=40c3bb03-89e1-4dc5-8673-c3d93ead9d1d","ios":"levelo://app?vid=40c3bb03-89e1-4dc5-8673-c3d93ead9d1d"},"vehicle_type_id":"4","last_reported":1692392715,"current_range_meters":15200,"station_id":"ce4bh012rcd13ifvqcv0","pricing_plan_id":"free"},{"bike_id":"7c398c27-e259-43d6-b055-9f32aad9e72d","system_id":"levelo_inurba_marseille","lat":43.29529,"lon":5.385581,"is_reserved":false,"is_disabled":false,"rental_uris":{"android":"levelo://app?vid=7c398c27-e259-43d6-b055-9f32aad9e72d","ios":"levelo://app?vid=7c398c27-e259-43d6-b055-9f32aad9e72d"},"vehicle_type_id":"4","last_reported":1692392715,"current_range_meters":24400,"station_id":"ce4bgih2rcd13ifvqba0","pricing_plan_id":"free"},{"bike_id":"a7db73b5-8e23-4a7a-89a7-48b4794a5301","system_id":"levelo_inurba_marseille","lat":43.29538,"lon":5.38548,"is_reserved":false,"is_disabled":false,"rental_uris":{"android":"levelo://app?vid=a7db73b5-8e23-4a7a-89a7-48b4794a5301","ios":"levelo://app?vid=a7db73b5-8e23-4a7a-89a7-48b4794a5301"},"vehicle_type_id":"4","last_reported":1692392715,"current_range_meters":21200,"station_id":"ce4bgih2rcd13ifvqba0","pricing_plan_id":"free"},{"bike_id":"f0d4fcc5-3c89-420b-8c88-bc682d2f6499","system_id":"levelo_inurba_marseille","lat":43.29529,"lon":5.385581,"is_reserved":false,"is_disabled":false,"rental_uris":{"android":"levelo://app?vid=f0d4fcc5-3c89-420b-8c88-bc682d2f6499","ios":"levelo://app?vid=f0d4fcc5-3c89-420b-8c88-bc682d2f6499"},"vehicle_type_id":"4","last_reported":1692392715,"current_range_meters":31200,"station_id":"ce4bgih2rcd13ifvqba0","pricing_plan_id":"free"},{"bike_id":"0337e1a9-20b6-4033-a639-cb872d6fa512","system_id":"levelo_inurba_marseille","lat":43.29529,"lon":5.385581,"is_reserved":false,"is_disabled":false,"rental_uris":{"android":"levelo://app?vid=0337e1a9-20b6-4033-a639-cb872d6fa512","ios":"levelo://app?vid=0337e1a9-20b6-4033-a639-cb872d6fa512"},"vehicle_type_id":"4","last_reported":1692392715,"current_range_meters":25600,"station_id":"ce4bgih2rcd13ifvqba0","pricing_plan_id":"free"},{"bike_id":"e1e67a3b-b633-4154-bf2a-6039b2d34e8f","system_id":"levelo_inurba_marseille","lat":43.29529,"lon":5.385581,"is_reserved":false,"is_disabled":false,"rental_uris":{"android":"levelo://app?vid=e1e67a3b-b633-4154-bf2a-6039b2d34e8f","ios":"levelo://app?vid=e1e67a3b-b633-4154-bf2a-6039b2d34e8f"},"vehicle_type_id":"4","last_reported":1692392715,"current_range_meters":4800,"station_id":"ce4bgih2rcd13ifvqba0","pricing_plan_id":"free"},{"bike_id":"a69e5878-dcae-4a8c-ba95-13a0628cddc9","system_id":"levelo_inurba_marseille","lat":43.29533,"lon":5.38543,"is_reserved":false,"is_disabled":false,"rental_uris":{"android":"levelo://app?vid=a69e5878-dcae-4a8c-ba95-13a0628cddc9","ios":"levelo://app?vid=a69e5878-dcae-4a8c-ba95-13a0628cddc9"},"vehicle_type_id":"4","last_reported":1692392715,"current_range_meters":12400,"station_id":"ce4bgih2rcd13ifvqba0","pricing_plan_id":"free"},{"bike_id":"46838bf8-0b53-4e8e-934a-a6b3787fcc22","system_id":"levelo_inurba_marseille","lat":43.29529,"lon":5.385581,"is_reserved":false,"is_disabled":false,"rental_uris":{"android":"levelo://app?vid=46838bf8-0b53-4e8e-934a-a6b3787fcc22","ios":"levelo://app?vid=46838bf8-0b53-4e8e-934a-a6b3787fcc22"},"vehicle_type_id":"4","last_reported":1692392715,"current_range_meters":800,"station_id":"ce4bgih2rcd13ifvqba0","pricing_plan_id":"free"},{"bike_id":"9c543448-948b-4599-a890-c75ac4c28e73","system_id":"levelo_inurba_marseille","lat":43.29529,"lon":5.385581,"is_reserved":false,"is_disabled":false,"rental_uris":{"android":"levelo://app?vid=9c543448-948b-4599-a890-c75ac4c28e73","ios":"levelo://app?vid=9c543448-948b-4599-a890-c75ac4c28e73"},"vehicle_type_id":"4","last_reported":1692392715,"current_range_meters":20800,"station_id":"ce4bgih2rcd13ifvqba0","pricing_plan_id":"free"},{"bike_id":"e33a45f7-7dac-4dc9-9b01-add96e8cd393","system_id":"levelo_inurba_marseille","lat":43.29535,"lon":5.38552,"is_reserved":false,"is_disabled":false,"rental_uris":{"android":"levelo://app?vid=e33a45f7-7dac-4dc9-9b01-add96e8cd393","ios":"levelo://app?vid=e33a45f7-7dac-4dc9-9b01-add96e8cd393"},"vehicle_type_id":"4","last_reported":1692392715,"current_range_meters":3200,"station_id":"ce4bgih2rcd13ifvqba0","pricing_plan_id":"free"},{"bike_id":"011e2441-7727-47df-b9a8-b379ae27e39f","system_id":"levelo_inurba_marseille","lat":43.29529,"lon":5.385581,"is_reserved":false,"is_disabled":false,"rental_uris":{"android":"levelo://app?vid=011e2441-7727-47df-b9a8-b379ae27e39f","ios":"levelo://app?vid=011e2441-7727-47df-b9a8-b379ae27e39f"},"vehicle_type_id":"4","last_reported":1692392715,"current_range_meters":4800,"station_id":"ce4bgih2rcd13ifvqba0","pricing_plan_id":"free"},{"bike_id":"d4b6399e-98c2-4016-8719-360d81476cfa","system_id":"levelo_inurba_marseille","lat":43.29529,"lon":5.385581,"is_reserved":false,"is_disabled":false,"rental_uris":{"android":"levelo://app?vid=d4b6399e-98c2-4016-8719-360d81476cfa","ios":"levelo://app?vid=d4b6399e-98c2-4016-8719-360d81476cfa"},"vehicle_type_id":"4","last_reported":1692392715,"current_range_meters":19200,"station_id":"ce4bgih2rcd13ifvqba0","pricing_plan_id":"free"},{"bike_id":"815597ee-31a3-4f21-82b2-973e2d1c8934","system_id":"levelo_inurba_marseille","lat":43.29533,"lon":5.38553,"is_reserved":false,"is_disabled":false,"rental_uris":{"android":"levelo://app?vid=815597ee-31a3-4f21-82b2-973e2d1c8934","ios":"levelo://app?vid=815597ee-31a3-4f21-82b2-973e2d1c8934"},"vehicle_type_id":"4","last_reported":1692392715,"current_range_meters":16800,"station_id":"ce4bgih2rcd13ifvqba0","pricing_plan_id":"free"},{"bike_id":"ddab2aea-b4ea-4386-988c-85e48f186723","system_id":"levelo_inurba_marseille","lat":43.29529,"lon":5.385581,"is_reserved":false,"is_disabled":false,"rental_uris":{"android":"levelo://app?vid=ddab2aea-b4ea-4386-988c-85e48f186723","ios":"levelo://app?vid=ddab2aea-b4ea-4386-988c-85e48f186723"},"vehicle_type_id":"4","last_reported":1692392715,"current_range_meters":12400,"station_id":"ce4bgih2rcd13ifvqba0","pricing_plan_id":"free"},{"bike_id":"078c3443-e368-41a6-963c-8c3c28797f38","system_id":"levelo_inurba_marseille","lat":43.29531,"lon":5.38553,"is_reserved":false,"is_disabled":false,"rental_uris":{"android":"levelo://app?vid=078c3443-e368-41a6-963c-8c3c28797f38","ios":"levelo://app?vid=078c3443-e368-41a6-963c-8c3c28797f38"},"vehicle_type_id":"4","last_reported":1692392715,"current_range_meters":16400,"station_id":"ce4bgih2rcd13ifvqba0","pricing_plan_id":"free"},{"bike_id":"c5706709-c6e5-49ab-905c-174a7f5ee636","system_id":"levelo_inurba_marseille","lat":43.29529,"lon":5.3855,"is_reserved":false,"is_disabled":false,"rental_uris":{"android":"levelo://app?vid=c5706709-c6e5-49ab-905c-174a7f5ee636","ios":"levelo://app?vid=c5706709-c6e5-49ab-905c-174a7f5ee636"},"vehicle_type_id":"4","last_reported":1692392715,"current_range_meters":24000,"station_id":"ce4bgih2rcd13ifvqba0","pricing_plan_id":"free"},{"bike_id":"28200ad2-5d49-48d7-9d2f-55dc24855733","system_id":"levelo_inurba_marseille","lat":43.302008,"lon":5.394694,"is_reserved":false,"is_disabled":false,"rental_uris":{"android":"levelo://app?vid=28200ad2-5d49-48d7-9d2f-55dc24855733","ios":"levelo://app?vid=28200ad2-5d49-48d7-9d2f-55dc24855733"},"vehicle_type_id":"4","last_reported":1692392715,"current_range_meters":8800,"station_id":"ce4bh0p2rcd13ifvqd70","pricing_plan_id":"free"},{"bike_id":"34f60922-8265-4670-8299-f44cbd94ecca","system_id":"levelo_inurba_marseille","lat":43.294153,"lon":5.386305,"is_reserved":false,"is_disabled":false,"rental_uris":{"android":"levelo://app?vid=34f60922-8265-4670-8299-f44cbd94ecca","ios":"levelo://app?vid=34f60922-8265-4670-8299-f44cbd94ecca"},"vehicle_type_id":"4","last_reported":1692392715,"current_range_meters":8400,"station_id":"ce4bh2h2rcd13ifvqdh0","pricing_plan_id":"free"},{"bike_id":"4d8cb496-1431-41b2-a54f-8c59dcdf5a78","system_id":"levelo_inurba_marseille","lat":43.294153,"lon":5.386305,"is_reserved":false,"is_disabled":false,"rental_uris":{"android":"levelo://app?vid=4d8cb496-1431-41b2-a54f-8c59dcdf5a78","ios":"levelo://app?vid=4d8cb496-1431-41b2-a54f-8c59dcdf5a78"},"vehicle_type_id":"4","last_reported":1692392715,"current_range_meters":3600,"station_id":"ce4bh2h2rcd13ifvqdh0","pricing_plan_id":"free"},{"bike_id":"dd0f1b2c-b008-415f-b167-e10f0b253100","system_id":"levelo_inurba_marseille","lat":43.29419,"lon":5.38623,"is_reserved":false,"is_disabled":false,"rental_uris":{"android":"levelo://app?vid=dd0f1b2c-b008-415f-b167-e10f0b253100","ios":"levelo://app?vid=dd0f1b2c-b008-415f-b167-e10f0b253100"},"vehicle_type_id":"4","last_reported":1692392715,"current_range_meters":8400,"station_id":"ce4bh2h2rcd13ifvqdh0","pricing_plan_id":"free"},{"bike_id":"af445658-89a2-47e1-9e9d-b406c9ae07c9","system_id":"levelo_inurba_marseille","lat":43.29419,"lon":5.38623,"is_reserved":false,"is_disabled":false,"rental_uris":{"android":"levelo://app?vid=af445658-89a2-47e1-9e9d-b406c9ae07c9","ios":"levelo://app?vid=af445658-89a2-47e1-9e9d-b406c9ae07c9"},"vehicle_type_id":"4","last_reported":1692392715,"current_range_meters":2000,"station_id":"ce4bh2h2rcd13ifvqdh0","pricing_plan_id":"free"},{"bike_id":"0efd717f-e234-40bb-9b77-785360aba2fc","system_id":"levelo_inurba_marseille","lat":43.2942,"lon":5.38628,"is_reserved":false,"is_disabled":false,"rental_uris":{"android":"levelo://app?vid=0efd717f-e234-40bb-9b77-785360aba2fc","ios":"levelo://app?vid=0efd717f-e234-40bb-9b77-785360aba2fc"},"vehicle_type_id":"4","last_reported":1692392715,"current_range_meters":19200,"station_id":"ce4bh2h2rcd13ifvqdh0","pricing_plan_id":"free"},{"bike_id":"df903d66-27fe-422d-a234-3fb1fc9da286","system_id":"levelo_inurba_marseille","lat":43.29421,"lon":5.3863,"is_reserved":false,"is_disabled":false,"rental_uris":{"android":"levelo://app?vid=df903d66-27fe-422d-a234-3fb1fc9da286","ios":"levelo://app?vid=df903d66-27fe-422d-a234-3fb1fc9da286"},"vehicle_type_id":"4","last_reported":1692392715,"current_range_meters":0,"station_id":"ce4bh2h2rcd13ifvqdh0","pricing_plan_id":"free"},{"bike_id":"42656c25-27b1-4460-93a1-f63af78144ca","system_id":"levelo_inurba_marseille","lat":43.29034,"lon":5.37571,"is_reserved":false,"is_disabled":false,"rental_uris":{"android":"levelo://app?vid=42656c25-27b1-4460-93a1-f63af78144ca","ios":"levelo://app?vid=42656c25-27b1-4460-93a1-f63af78144ca"},"vehicle_type_id":"4","last_reported":1692392715,"current_range_meters":26800,"station_id":"ce4bh692rcd13ifvqe90","pricing_plan_id":"free"},{"bike_id":"53b16bce-518a-4670-8658-ad2ceb40dbad","system_id":"levelo_inurba_marseille","lat":43.294153,"lon":5.386305,"is_reserved":false,"is_disabled":false,"rental_uris":{"android":"levelo://app?vid=53b16bce-518a-4670-8658-ad2ceb40dbad","ios":"levelo://app?vid=53b16bce-518a-4670-8658-ad2ceb40dbad"},"vehicle_type_id":"4","last_reported":1692392715,"current_range_meters":14400,"station_id":"ce4bh2h2rcd13ifvqdh0","pricing_plan_id":"free"},{"bike_id":"16b58cb6-64f6-4a75-9637-58c48a96bdb8","system_id":"levelo_inurba_marseille","lat":43.29419,"lon":5.38631,"is_reserved":false,"is_disabled":false,"rental_uris":{"android":"levelo://app?vid=16b58cb6-64f6-4a75-9637-58c48a96bdb8","ios":"levelo://app?vid=16b58cb6-64f6-4a75-9637-58c48a96bdb8"},"vehicle_type_id":"4","last_reported":1692392715,"current_range_meters":8800,"station_id":"ce4bh2h2rcd13ifvqdh0","pricing_plan_id":"free"},{"bike_id":"cb2de1a3-57ea-405e-bad0-acf35b3f64b3","system_id":"levelo_inurba_marseille","lat":43.29416,"lon":5.38626,"is_reserved":false,"is_disabled":false,"rental_uris":{"android":"levelo://app?vid=cb2de1a3-57ea-405e-bad0-acf35b3f64b3","ios":"levelo://app?vid=cb2de1a3-57ea-405e-bad0-acf35b3f64b3"},"vehicle_type_id":"4","last_reported":1692392715,"current_range_meters":15600,"station_id":"ce4bh2h2rcd13ifvqdh0","pricing_plan_id":"free"},{"bike_id":"5c66fe9e-afd9-4cea-aacb-7e55a145e43d","system_id":"levelo_inurba_marseille","lat":43.29418,"lon":5.3863,"is_reserved":false,"is_disabled":false,"rental_uris":{"android":"levelo://app?vid=5c66fe9e-afd9-4cea-aacb-7e55a145e43d","ios":"levelo://app?vid=5c66fe9e-afd9-4cea-aacb-7e55a145e43d"},"vehicle_type_id":"4","last_reported":1692392715,"current_range_meters":27600,"station_id":"ce4bh2h2rcd13ifvqdh0","pricing_plan_id":"free"},{"bike_id":"a18f392a-952e-45a5-8627-6be160305e27","system_id":"levelo_inurba_marseille","lat":43.29416,"lon":5.38627,"is_reserved":false,"is_disabled":false,"rental_uris":{"android":"levelo://app?vid=a18f392a-952e-45a5-8627-6be160305e27","ios":"levelo://app?vid=a18f392a-952e-45a5-8627-6be160305e27"},"vehicle_type_id":"4","last_reported":1692392715,"current_range_meters":10400,"station_id":"ce4bh2h2rcd13ifvqdh0","pricing_plan_id":"free"},{"bike_id":"97ac6290-f5a2-4988-af3f-ed76bfbe06c4","system_id":"levelo_inurba_marseille","lat":43.294153,"lon":5.386305,"is_reserved":false,"is_disabled":false,"rental_uris":{"android":"levelo://app?vid=97ac6290-f5a2-4988-af3f-ed76bfbe06c4","ios":"levelo://app?vid=97ac6290-f5a2-4988-af3f-ed76bfbe06c4"},"vehicle_type_id":"4","last_reported":1692392715,"current_range_meters":28800,"station_id":"ce4bh2h2rcd13ifvqdh0","pricing_plan_id":"free"},{"bike_id":"d443b301-b697-4014-9a5f-81ada8222cd4","system_id":"levelo_inurba_marseille","lat":43.294153,"lon":5.386305,"is_reserved":false,"is_disabled":false,"rental_uris":{"android":"levelo://app?vid=d443b301-b697-4014-9a5f-81ada8222cd4","ios":"levelo://app?vid=d443b301-b697-4014-9a5f-81ada8222cd4"},"vehicle_type_id":"4","last_reported":1692392715,"current_range_meters":2000,"station_id":"ce4bh2h2rcd13ifvqdh0","pricing_plan_id":"free"},{"bike_id":"082b2cc1-f23b-441d-ad38-e7fb76d7c33b","system_id":"levelo_inurba_marseille","lat":43.29417,"lon":5.38629,"is_reserved":false,"is_disabled":false,"rental_uris":{"android":"levelo://app?vid=082b2cc1-f23b-441d-ad38-e7fb76d7c33b","ios":"levelo://app?vid=082b2cc1-f23b-441d-ad38-e7fb76d7c33b"},"vehicle_type_id":"4","last_reported":1692392715,"current_range_meters":24800,"station_id":"ce4bh2h2rcd13ifvqdh0","pricing_plan_id":"free"},{"bike_id":"5ac179f2-9725-463c-8bbf-4572e59e52e5","system_id":"levelo_inurba_marseille","lat":43.29415,"lon":5.38627,"is_reserved":false,"is_disabled":false,"rental_uris":{"android":"levelo://app?vid=5ac179f2-9725-463c-8bbf-4572e59e52e5","ios":"levelo://app?vid=5ac179f2-9725-463c-8bbf-4572e59e52e5"},"vehicle_type_id":"4","last_reported":1692392715,"current_range_meters":0,"station_id":"ce4bh2h2rcd13ifvqdh0","pricing_plan_id":"free"},{"bike_id":"77f743fa-e6a2-4745-99af-13ab1feb321d","system_id":"levelo_inurba_marseille","lat":43.29413,"lon":5.38624,"is_reserved":false,"is_disabled":false,"rental_uris":{"android":"levelo://app?vid=77f743fa-e6a2-4745-99af-13ab1feb321d","ios":"levelo://app?vid=77f743fa-e6a2-4745-99af-13ab1feb321d"},"vehicle_type_id":"4","last_reported":1692392715,"current_range_meters":10400,"station_id":"ce4bh2h2rcd13ifvqdh0","pricing_plan_id":"free"},{"bike_id":"e11a67c2-13ea-4c01-a0dc-a90b995651e2","system_id":"levelo_inurba_marseille","lat":43.294153,"lon":5.386305,"is_reserved":false,"is_disabled":false,"rental_uris":{"android":"levelo://app?vid=e11a67c2-13ea-4c01-a0dc-a90b995651e2","ios":"levelo://app?vid=e11a67c2-13ea-4c01-a0dc-a90b995651e2"},"vehicle_type_id":"4","last_reported":1692392715,"current_range_meters":31200,"station_id":"ce4bh2h2rcd13ifvqdh0","pricing_plan_id":"free"},{"bike_id":"7dec95ac-ada7-406e-9e98-105c25bebae1","system_id":"levelo_inurba_marseille","lat":43.29414,"lon":5.38631,"is_reserved":false,"is_disabled":false,"rental_uris":{"android":"levelo://app?vid=7dec95ac-ada7-406e-9e98-105c25bebae1","ios":"levelo://app?vid=7dec95ac-ada7-406e-9e98-105c25bebae1"},"vehicle_type_id":"4","last_reported":1692392715,"current_range_meters":12400,"station_id":"ce4bh2h2rcd13ifvqdh0","pricing_plan_id":"free"},{"bike_id":"90c03fb7-f3d0-45e0-818c-0411e775dff6","system_id":"levelo_inurba_marseille","lat":43.29414,"lon":5.38635,"is_reserved":false,"is_disabled":false,"rental_uris":{"android":"levelo://app?vid=90c03fb7-f3d0-45e0-818c-0411e775dff6","ios":"levelo://app?vid=90c03fb7-f3d0-45e0-818c-0411e775dff6"},"vehicle_type_id":"4","last_reported":1692392715,"current_range_meters":0,"station_id":"ce4bh2h2rcd13ifvqdh0","pricing_plan_id":"free"},{"bike_id":"d30aad89-6591-46be-8770-c4198584ec8f","system_id":"levelo_inurba_marseille","lat":43.289184,"lon":5.366408,"is_reserved":false,"is_disabled":false,"rental_uris":{"android":"levelo://app?vid=d30aad89-6591-46be-8770-c4198584ec8f","ios":"levelo://app?vid=d30aad89-6591-46be-8770-c4198584ec8f"},"vehicle_type_id":"4","last_reported":1692392715,"current_range_meters":16400,"station_id":"ce4bhap2rcd13ifvqek0","pricing_plan_id":"free"},{"bike_id":"af3bc1b7-5494-4eac-8d31-87c222cbb140","system_id":"levelo_inurba_marseille","lat":43.29413,"lon":5.38636,"is_reserved":false,"is_disabled":false,"rental_uris":{"android":"levelo://app?vid=af3bc1b7-5494-4eac-8d31-87c222cbb140","ios":"levelo://app?vid=af3bc1b7-5494-4eac-8d31-87c222cbb140"},"vehicle_type_id":"4","last_reported":1692392715,"current_range_meters":1600,"station_id":"ce4bh2h2rcd13ifvqdh0","pricing_plan_id":"free"},{"bike_id":"26b40df7-2e0b-4940-b33b-a1f1d1399b0a","system_id":"levelo_inurba_marseille","lat":43.289184,"lon":5.366408,"is_reserved":false,"is_disabled":false,"rental_uris":{"android":"levelo://app?vid=26b40df7-2e0b-4940-b33b-a1f1d1399b0a","ios":"levelo://app?vid=26b40df7-2e0b-4940-b33b-a1f1d1399b0a"},"vehicle_type_id":"4","last_reported":1692392715,"current_range_meters":24400,"station_id":"ce4bhap2rcd13ifvqek0","pricing_plan_id":"free"},{"bike_id":"39cd8f1b-3ebb-474c-a4e4-911ab7d12502","system_id":"levelo_inurba_marseille","lat":43.289184,"lon":5.366408,"is_reserved":false,"is_disabled":false,"rental_uris":{"android":"levelo://app?vid=39cd8f1b-3ebb-474c-a4e4-911ab7d12502","ios":"levelo://app?vid=39cd8f1b-3ebb-474c-a4e4-911ab7d12502"},"vehicle_type_id":"4","last_reported":1692392715,"current_range_meters":1200,"station_id":"ce4bhap2rcd13ifvqek0","pricing_plan_id":"free"},{"bike_id":"2de7126f-c37b-4214-80bb-fbc46e7bbaa6","system_id":"levelo_inurba_marseille","lat":43.294161,"lon":5.386536,"is_reserved":false,"is_disabled":false,"rental_uris":{"android":"levelo://app?vid=2de7126f-c37b-4214-80bb-fbc46e7bbaa6","ios":"levelo://app?vid=2de7126f-c37b-4214-80bb-fbc46e7bbaa6"},"vehicle_type_id":"4","last_reported":1692392715,"current_range_meters":11200,"station_id":"ce4bh2h2rcd13ifvqdh0","pricing_plan_id":"free"},{"bike_id":"e45958f9-b7e5-45eb-8e87-a7678f6d4cd2","system_id":"levelo_inurba_marseille","lat":43.292644,"lon":5.384257,"is_reserved":false,"is_disabled":false,"rental_uris":{"android":"levelo://app?vid=e45958f9-b7e5-45eb-8e87-a7678f6d4cd2","ios":"levelo://app?vid=e45958f9-b7e5-45eb-8e87-a7678f6d4cd2"},"vehicle_type_id":"4","last_reported":1692392715,"current_range_meters":32000,"station_id":"ce4bh692rcd13ifvqea0","pricing_plan_id":"free"},{"bike_id":"771b5228-f852-42b9-ab73-3e1ce1a5323e","system_id":"levelo_inurba_marseille","lat":43.29278,"lon":5.38448,"is_reserved":false,"is_disabled":false,"rental_uris":{"android":"levelo://app?vid=771b5228-f852-42b9-ab73-3e1ce1a5323e","ios":"levelo://app?vid=771b5228-f852-42b9-ab73-3e1ce1a5323e"},"vehicle_type_id":"4","last_reported":1692392715,"current_range_meters":14000,"station_id":"ce4bh692rcd13ifvqea0","pricing_plan_id":"free"},{"bike_id":"755557b2-73ce-49d8-acf9-69244b2c0149","system_id":"levelo_inurba_marseille","lat":43.292644,"lon":5.384257,"is_reserved":false,"is_disabled":false,"rental_uris":{"android":"levelo://app?vid=755557b2-73ce-49d8-acf9-69244b2c0149","ios":"levelo://app?vid=755557b2-73ce-49d8-acf9-69244b2c0149"},"vehicle_type_id":"4","last_reported":1692392715,"current_range_meters":21200,"station_id":"ce4bh692rcd13ifvqea0","pricing_plan_id":"free"},{"bike_id":"c4710a08-e554-4b57-baef-4e5c306e5540","system_id":"levelo_inurba_marseille","lat":43.29275,"lon":5.38445,"is_reserved":false,"is_disabled":false,"rental_uris":{"android":"levelo://app?vid=c4710a08-e554-4b57-baef-4e5c306e5540","ios":"levelo://app?vid=c4710a08-e554-4b57-baef-4e5c306e5540"},"vehicle_type_id":"4","last_reported":1692392715,"current_range_meters":25200,"station_id":"ce4bh692rcd13ifvqea0","pricing_plan_id":"free"},{"bike_id":"80b5c6ee-383e-414d-8bb9-bd6e97b5a000","system_id":"levelo_inurba_marseille","lat":43.29275,"lon":5.38447,"is_reserved":false,"is_disabled":false,"rental_uris":{"android":"levelo://app?vid=80b5c6ee-383e-414d-8bb9-bd6e97b5a000","ios":"levelo://app?vid=80b5c6ee-383e-414d-8bb9-bd6e97b5a000"},"vehicle_type_id":"4","last_reported":1692392715,"current_range_meters":12000,"station_id":"ce4bh692rcd13ifvqea0","pricing_plan_id":"free"},{"bike_id":"b66c1dc7-d18f-42cf-8cdf-79e0b26df9f0","system_id":"levelo_inurba_marseille","lat":43.292644,"lon":5.384257,"is_reserved":false,"is_disabled":false,"rental_uris":{"android":"levelo://app?vid=b66c1dc7-d18f-42cf-8cdf-79e0b26df9f0","ios":"levelo://app?vid=b66c1dc7-d18f-42cf-8cdf-79e0b26df9f0"},"vehicle_type_id":"4","last_reported":1692392715,"current_range_meters":10800,"station_id":"ce4bh692rcd13ifvqea0","pricing_plan_id":"free"},{"bike_id":"4c417045-4d75-49d2-8e2a-99fd7025f5da","system_id":"levelo_inurba_marseille","lat":43.2927,"lon":5.38446,"is_reserved":false,"is_disabled":false,"rental_uris":{"android":"levelo://app?vid=4c417045-4d75-49d2-8e2a-99fd7025f5da","ios":"levelo://app?vid=4c417045-4d75-49d2-8e2a-99fd7025f5da"},"vehicle_type_id":"4","last_reported":1692392715,"current_range_meters":1200,"station_id":"ce4bh692rcd13ifvqea0","pricing_plan_id":"free"},{"bike_id":"cfd59b25-ce71-46d7-badc-b025987df720","system_id":"levelo_inurba_marseille","lat":43.29269,"lon":5.38444,"is_reserved":false,"is_disabled":false,"rental_uris":{"android":"levelo://app?vid=cfd59b25-ce71-46d7-badc-b025987df720","ios":"levelo://app?vid=cfd59b25-ce71-46d7-badc-b025987df720"},"vehicle_type_id":"4","last_reported":1692392715,"current_range_meters":0,"station_id":"ce4bh692rcd13ifvqea0","pricing_plan_id":"free"},{"bike_id":"e4696fc1-ab71-429e-889f-846785587e32","system_id":"levelo_inurba_marseille","lat":43.29267,"lon":5.3844,"is_reserved":false,"is_disabled":false,"rental_uris":{"android":"levelo://app?vid=e4696fc1-ab71-429e-889f-846785587e32","ios":"levelo://app?vid=e4696fc1-ab71-429e-889f-846785587e32"},"vehicle_type_id":"4","last_reported":1692392715,"current_range_meters":22400,"station_id":"ce4bh692rcd13ifvqea0","pricing_plan_id":"free"},{"bike_id":"4efb2839-69b9-4388-a975-a61e01a722e3","system_id":"levelo_inurba_marseille","lat":43.29269,"lon":5.38445,"is_reserved":false,"is_disabled":false,"rental_uris":{"android":"levelo://app?vid=4efb2839-69b9-4388-a975-a61e01a722e3","ios":"levelo://app?vid=4efb2839-69b9-4388-a975-a61e01a722e3"},"vehicle_type_id":"4","last_reported":1692392715,"current_range_meters":7600,"station_id":"ce4bh692rcd13ifvqea0","pricing_plan_id":"free"},{"bike_id":"5c59d5d1-8079-4f95-9c0b-804f49e502d2","system_id":"levelo_inurba_marseille","lat":43.292644,"lon":5.384257,"is_reserved":false,"is_disabled":false,"rental_uris":{"android":"levelo://app?vid=5c59d5d1-8079-4f95-9c0b-804f49e502d2","ios":"levelo://app?vid=5c59d5d1-8079-4f95-9c0b-804f49e502d2"},"vehicle_type_id":"4","last_reported":1692392715,"current_range_meters":6400,"station_id":"ce4bh692rcd13ifvqea0","pricing_plan_id":"free"},{"bike_id":"e187b793-5b5e-4f82-b1bf-3eb437312253","system_id":"levelo_inurba_marseille","lat":43.29262,"lon":5.3843,"is_reserved":false,"is_disabled":false,"rental_uris":{"android":"levelo://app?vid=e187b793-5b5e-4f82-b1bf-3eb437312253","ios":"levelo://app?vid=e187b793-5b5e-4f82-b1bf-3eb437312253"},"vehicle_type_id":"4","last_reported":1692392715,"current_range_meters":4000,"station_id":"ce4bh692rcd13ifvqea0","pricing_plan_id":"free"},{"bike_id":"0ce9a46d-0192-4810-b6e3-05c0afb68954","system_id":"levelo_inurba_marseille","lat":43.292642,"lon":5.384254,"is_reserved":false,"is_disabled":false,"rental_uris":{"android":"levelo://app?vid=0ce9a46d-0192-4810-b6e3-05c0afb68954","ios":"levelo://app?vid=0ce9a46d-0192-4810-b6e3-05c0afb68954"},"vehicle_type_id":"4","last_reported":1692392715,"current_range_meters":30000,"station_id":"ce4bh692rcd13ifvqea0","pricing_plan_id":"free"},{"bike_id":"8b9a8bfd-fb0b-4354-8156-1abbc2066982","system_id":"levelo_inurba_marseille","lat":43.29265,"lon":5.38441,"is_reserved":false,"is_disabled":false,"rental_uris":{"android":"levelo://app?vid=8b9a8bfd-fb0b-4354-8156-1abbc2066982","ios":"levelo://app?vid=8b9a8bfd-fb0b-4354-8156-1abbc2066982"},"vehicle_type_id":"4","last_reported":1692392715,"current_range_meters":18800,"station_id":"ce4bh692rcd13ifvqea0","pricing_plan_id":"free"},{"bike_id":"14e7405a-b8fa-4de3-83d5-d3653c403dc9","system_id":"levelo_inurba_marseille","lat":43.29267,"lon":5.38447,"is_reserved":false,"is_disabled":false,"rental_uris":{"android":"levelo://app?vid=14e7405a-b8fa-4de3-83d5-d3653c403dc9","ios":"levelo://app?vid=14e7405a-b8fa-4de3-83d5-d3653c403dc9"},"vehicle_type_id":"4","last_reported":1692392715,"current_range_meters":25600,"station_id":"ce4bh692rcd13ifvqea0","pricing_plan_id":"free"},{"bike_id":"6b086155-9f6e-4d62-9ae1-2403540a3bbf","system_id":"levelo_inurba_marseille","lat":43.292644,"lon":5.384257,"is_reserved":false,"is_disabled":false,"rental_uris":{"android":"levelo://app?vid=6b086155-9f6e-4d62-9ae1-2403540a3bbf","ios":"levelo://app?vid=6b086155-9f6e-4d62-9ae1-2403540a3bbf"},"vehicle_type_id":"4","last_reported":1692392715,"current_range_meters":30400,"station_id":"ce4bh692rcd13ifvqea0","pricing_plan_id":"free"},{"bike_id":"843ef16d-936f-4925-ba04-159add64a9d0","system_id":"levelo_inurba_marseille","lat":43.29266,"lon":5.38445,"is_reserved":false,"is_disabled":false,"rental_uris":{"android":"levelo://app?vid=843ef16d-936f-4925-ba04-159add64a9d0","ios":"levelo://app?vid=843ef16d-936f-4925-ba04-159add64a9d0"},"vehicle_type_id":"4","last_reported":1692392715,"current_range_meters":19600,"station_id":"ce4bh692rcd13ifvqea0","pricing_plan_id":"free"},{"bike_id":"b1f37942-9e95-4ed7-b6df-455dd84aa3b9","system_id":"levelo_inurba_marseille","lat":43.29272,"lon":5.38458,"is_reserved":false,"is_disabled":false,"rental_uris":{"android":"levelo://app?vid=b1f37942-9e95-4ed7-b6df-455dd84aa3b9","ios":"levelo://app?vid=b1f37942-9e95-4ed7-b6df-455dd84aa3b9"},"vehicle_type_id":"4","last_reported":1692392715,"current_range_meters":0,"station_id":"ce4bh692rcd13ifvqea0","pricing_plan_id":"free"},{"bike_id":"84374f34-9857-4d07-a870-20a2cdb35daf","system_id":"levelo_inurba_marseille","lat":43.29264,"lon":5.38442,"is_reserved":false,"is_disabled":false,"rental_uris":{"android":"levelo://app?vid=84374f34-9857-4d07-a870-20a2cdb35daf","ios":"levelo://app?vid=84374f34-9857-4d07-a870-20a2cdb35daf"},"vehicle_type_id":"4","last_reported":1692392715,"current_range_meters":800,"station_id":"ce4bh692rcd13ifvqea0","pricing_plan_id":"free"},{"bike_id":"d233ef84-2ed4-4711-823a-dbd3ceebbfda","system_id":"levelo_inurba_marseille","lat":43.29265,"lon":5.38445,"is_reserved":false,"is_disabled":false,"rental_uris":{"android":"levelo://app?vid=d233ef84-2ed4-4711-823a-dbd3ceebbfda","ios":"levelo://app?vid=d233ef84-2ed4-4711-823a-dbd3ceebbfda"},"vehicle_type_id":"4","last_reported":1692392715,"current_range_meters":17600,"station_id":"ce4bh692rcd13ifvqea0","pricing_plan_id":"free"},{"bike_id":"88a72875-b222-402f-9fb5-923222c340b7","system_id":"levelo_inurba_marseille","lat":43.29264,"lon":5.38444,"is_reserved":false,"is_disabled":false,"rental_uris":{"android":"levelo://app?vid=88a72875-b222-402f-9fb5-923222c340b7","ios":"levelo://app?vid=88a72875-b222-402f-9fb5-923222c340b7"},"vehicle_type_id":"4","last_reported":1692392715,"current_range_meters":13600,"station_id":"ce4bh692rcd13ifvqea0","pricing_plan_id":"free"},{"bike_id":"81f27b8a-3da7-4e46-a9d3-2f86dce64898","system_id":"levelo_inurba_marseille","lat":43.29262,"lon":5.3844,"is_reserved":false,"is_disabled":false,"rental_uris":{"android":"levelo://app?vid=81f27b8a-3da7-4e46-a9d3-2f86dce64898","ios":"levelo://app?vid=81f27b8a-3da7-4e46-a9d3-2f86dce64898"},"vehicle_type_id":"4","last_reported":1692392715,"current_range_meters":6800,"station_id":"ce4bh692rcd13ifvqea0","pricing_plan_id":"free"},{"bike_id":"48cbaeef-787f-4a6d-b95a-bc0e18d9a395","system_id":"levelo_inurba_marseille","lat":43.2926,"lon":5.38439,"is_reserved":false,"is_disabled":false,"rental_uris":{"android":"levelo://app?vid=48cbaeef-787f-4a6d-b95a-bc0e18d9a395","ios":"levelo://app?vid=48cbaeef-787f-4a6d-b95a-bc0e18d9a395"},"vehicle_type_id":"4","last_reported":1692392715,"current_range_meters":400,"station_id":"ce4bh692rcd13ifvqea0","pricing_plan_id":"free"},{"bike_id":"db53003c-6d68-40a6-aabd-92e5a4d1c627","system_id":"levelo_inurba_marseille","lat":43.29258,"lon":5.38435,"is_reserved":false,"is_disabled":false,"rental_uris":{"android":"levelo://app?vid=db53003c-6d68-40a6-aabd-92e5a4d1c627","ios":"levelo://app?vid=db53003c-6d68-40a6-aabd-92e5a4d1c627"},"vehicle_type_id":"4","last_reported":1692392715,"current_range_meters":22400,"station_id":"ce4bh692rcd13ifvqea0","pricing_plan_id":"free"},{"bike_id":"70921125-53a8-4c7c-943f-380d2e703c97","system_id":"levelo_inurba_marseille","lat":43.29258,"lon":5.38439,"is_reserved":false,"is_disabled":false,"rental_uris":{"android":"levelo://app?vid=70921125-53a8-4c7c-943f-380d2e703c97","ios":"levelo://app?vid=70921125-53a8-4c7c-943f-380d2e703c97"},"vehicle_type_id":"4","last_reported":1692392715,"current_range_meters":2800,"station_id":"ce4bh692rcd13ifvqea0","pricing_plan_id":"free"},{"bike_id":"fec895a6-5453-4c0f-8bf8-d13fa5165765","system_id":"levelo_inurba_marseille","lat":43.29262,"lon":5.38453,"is_reserved":false,"is_disabled":false,"rental_uris":{"android":"levelo://app?vid=fec895a6-5453-4c0f-8bf8-d13fa5165765","ios":"levelo://app?vid=fec895a6-5453-4c0f-8bf8-d13fa5165765"},"vehicle_type_id":"4","last_reported":1692392715,"current_range_meters":4000,"station_id":"ce4bh692rcd13ifvqea0","pricing_plan_id":"free"},{"bike_id":"c14e4177-5e3b-4755-a2c9-f4be28331cda","system_id":"levelo_inurba_marseille","lat":43.29258,"lon":5.38448,"is_reserved":false,"is_disabled":false,"rental_uris":{"android":"levelo://app?vid=c14e4177-5e3b-4755-a2c9-f4be28331cda","ios":"levelo://app?vid=c14e4177-5e3b-4755-a2c9-f4be28331cda"},"vehicle_type_id":"4","last_reported":1692392715,"current_range_meters":8800,"station_id":"ce4bh692rcd13ifvqea0","pricing_plan_id":"free"},{"bike_id":"41ed9d8d-7bd3-4ae5-9953-723b122092fd","system_id":"levelo_inurba_marseille","lat":43.33037,"lon":5.38913,"is_reserved":false,"is_disabled":false,"rental_uris":{"android":"levelo://app?vid=41ed9d8d-7bd3-4ae5-9953-723b122092fd","ios":"levelo://app?vid=41ed9d8d-7bd3-4ae5-9953-723b122092fd"},"vehicle_type_id":"4","last_reported":1692392715,"current_range_meters":30000,"station_id":"ce4bhr92rcd13ifvqhrg","pricing_plan_id":"free"},{"bike_id":"33f78fbf-f7ec-4b55-9ebc-a8318d5db131","system_id":"levelo_inurba_marseille","lat":43.3304,"lon":5.38914,"is_reserved":false,"is_disabled":false,"rental_uris":{"android":"levelo://app?vid=33f78fbf-f7ec-4b55-9ebc-a8318d5db131","ios":"levelo://app?vid=33f78fbf-f7ec-4b55-9ebc-a8318d5db131"},"vehicle_type_id":"4","last_reported":1692392715,"current_range_meters":25600,"station_id":"ce4bhr92rcd13ifvqhrg","pricing_plan_id":"free"},{"bike_id":"f144c2fb-8010-4ce7-a8e1-b884ee678b78","system_id":"levelo_inurba_marseille","lat":43.33038,"lon":5.38917,"is_reserved":false,"is_disabled":false,"rental_uris":{"android":"levelo://app?vid=f144c2fb-8010-4ce7-a8e1-b884ee678b78","ios":"levelo://app?vid=f144c2fb-8010-4ce7-a8e1-b884ee678b78"},"vehicle_type_id":"4","last_reported":1692392715,"current_range_meters":31200,"station_id":"ce4bhr92rcd13ifvqhrg","pricing_plan_id":"free"},{"bike_id":"16105e4d-cb4a-4aae-91bb-2ecd41a7406b","system_id":"levelo_inurba_marseille","lat":43.33038,"lon":5.38924,"is_reserved":false,"is_disabled":false,"rental_uris":{"android":"levelo://app?vid=16105e4d-cb4a-4aae-91bb-2ecd41a7406b","ios":"levelo://app?vid=16105e4d-cb4a-4aae-91bb-2ecd41a7406b"},"vehicle_type_id":"4","last_reported":1692392715,"current_range_meters":27600,"station_id":"ce4bhr92rcd13ifvqhrg","pricing_plan_id":"free"},{"bike_id":"de450cac-4370-4660-9455-3e94463307a2","system_id":"levelo_inurba_marseille","lat":43.33042,"lon":5.38922,"is_reserved":false,"is_disabled":false,"rental_uris":{"android":"levelo://app?vid=de450cac-4370-4660-9455-3e94463307a2","ios":"levelo://app?vid=de450cac-4370-4660-9455-3e94463307a2"},"vehicle_type_id":"4","last_reported":1692392715,"current_range_meters":22800,"station_id":"ce4bhr92rcd13ifvqhrg","pricing_plan_id":"free"},{"bike_id":"5036c72a-6252-47f4-a9fb-50fd514d506a","system_id":"levelo_inurba_marseille","lat":43.33043,"lon":5.38921,"is_reserved":false,"is_disabled":false,"rental_uris":{"android":"levelo://app?vid=5036c72a-6252-47f4-a9fb-50fd514d506a","ios":"levelo://app?vid=5036c72a-6252-47f4-a9fb-50fd514d506a"},"vehicle_type_id":"4","last_reported":1692392715,"current_range_meters":27600,"station_id":"ce4bhr92rcd13ifvqhrg","pricing_plan_id":"free"},{"bike_id":"78f1a325-e5b4-4a72-bb0e-b29d3285ba24","system_id":"levelo_inurba_marseille","lat":43.290103,"lon":5.356114,"is_reserved":false,"is_disabled":false,"rental_uris":{"android":"levelo://app?vid=78f1a325-e5b4-4a72-bb0e-b29d3285ba24","ios":"levelo://app?vid=78f1a325-e5b4-4a72-bb0e-b29d3285ba24"},"vehicle_type_id":"4","last_reported":1692392715,"current_range_meters":31600,"station_id":"ce4bhb92rcd13ifvqen0","pricing_plan_id":"free"},{"bike_id":"1bcacd4e-0831-4fde-86cf-cd6c542614f6","system_id":"levelo_inurba_marseille","lat":43.260219,"lon":5.37546,"is_reserved":false,"is_disabled":false,"rental_uris":{"android":"levelo://app?vid=1bcacd4e-0831-4fde-86cf-cd6c542614f6","ios":"levelo://app?vid=1bcacd4e-0831-4fde-86cf-cd6c542614f6"},"vehicle_type_id":"4","last_reported":1692392715,"current_range_meters":3200,"station_id":"ce4bhgh2rcd13ifvqfa0","pricing_plan_id":"free"},{"bike_id":"0871f96a-5992-45ef-bc53-978d5c811405","system_id":"levelo_inurba_marseille","lat":43.29,"lon":5.35608,"is_reserved":false,"is_disabled":false,"rental_uris":{"android":"levelo://app?vid=0871f96a-5992-45ef-bc53-978d5c811405","ios":"levelo://app?vid=0871f96a-5992-45ef-bc53-978d5c811405"},"vehicle_type_id":"4","last_reported":1692392715,"current_range_meters":1600,"station_id":"ce4bhb92rcd13ifvqen0","pricing_plan_id":"free"},{"bike_id":"efbe6914-13a5-4765-90c6-55324287d2e6","system_id":"levelo_inurba_marseille","lat":43.290995,"lon":5.381361,"is_reserved":false,"is_disabled":false,"rental_uris":{"android":"levelo://app?vid=efbe6914-13a5-4765-90c6-55324287d2e6","ios":"levelo://app?vid=efbe6914-13a5-4765-90c6-55324287d2e6"},"vehicle_type_id":"4","last_reported":1692392715,"current_range_meters":1600,"station_id":"ce4bh512rcd13ifvqe2g","pricing_plan_id":"free"},{"bike_id":"ef6fab9b-c5a9-4895-b0ad-7c3cc3c6329a","system_id":"levelo_inurba_marseille","lat":43.297815,"lon":5.393548,"is_reserved":false,"is_disabled":false,"rental_uris":{"android":"levelo://app?vid=ef6fab9b-c5a9-4895-b0ad-7c3cc3c6329a","ios":"levelo://app?vid=ef6fab9b-c5a9-4895-b0ad-7c3cc3c6329a"},"vehicle_type_id":"4","last_reported":1692392715,"current_range_meters":3200,"station_id":"chh1huq6cuj3fo74tm60","pricing_plan_id":"free"},{"bike_id":"e3750e7c-823e-4040-ac68-9ca43b948629","system_id":"levelo_inurba_marseille","lat":43.295169,"lon":5.390426,"is_reserved":false,"is_disabled":false,"rental_uris":{"android":"levelo://app?vid=e3750e7c-823e-4040-ac68-9ca43b948629","ios":"levelo://app?vid=e3750e7c-823e-4040-ac68-9ca43b948629"},"vehicle_type_id":"4","last_reported":1692392715,"current_range_meters":22800,"station_id":"ce4bh3p2rcd13ifvqdp0","pricing_plan_id":"free"},{"bike_id":"e15a16d3-1909-4e30-be97-ae7825feb047","system_id":"levelo_inurba_marseille","lat":43.295169,"lon":5.390426,"is_reserved":false,"is_disabled":false,"rental_uris":{"android":"levelo://app?vid=e15a16d3-1909-4e30-be97-ae7825feb047","ios":"levelo://app?vid=e15a16d3-1909-4e30-be97-ae7825feb047"},"vehicle_type_id":"4","last_reported":1692392715,"current_range_meters":7200,"station_id":"ce4bh3p2rcd13ifvqdp0","pricing_plan_id":"free"},{"bike_id":"4df49aa5-5b02-44f1-9d4d-7b0759f45f62","system_id":"levelo_inurba_marseille","lat":43.295169,"lon":5.390426,"is_reserved":false,"is_disabled":false,"rental_uris":{"android":"levelo://app?vid=4df49aa5-5b02-44f1-9d4d-7b0759f45f62","ios":"levelo://app?vid=4df49aa5-5b02-44f1-9d4d-7b0759f45f62"},"vehicle_type_id":"4","last_reported":1692392715,"current_range_meters":28800,"station_id":"ce4bh3p2rcd13ifvqdp0","pricing_plan_id":"free"},{"bike_id":"788ab94c-7b10-47f7-9855-71a0909c4e11","system_id":"levelo_inurba_marseille","lat":43.295169,"lon":5.390426,"is_reserved":false,"is_disabled":false,"rental_uris":{"android":"levelo://app?vid=788ab94c-7b10-47f7-9855-71a0909c4e11","ios":"levelo://app?vid=788ab94c-7b10-47f7-9855-71a0909c4e11"},"vehicle_type_id":"4","last_reported":1692392715,"current_range_meters":18000,"station_id":"ce4bh3p2rcd13ifvqdp0","pricing_plan_id":"free"},{"bike_id":"7c99a8c2-6752-46eb-a3e7-1d49f67a10ef","system_id":"levelo_inurba_marseille","lat":43.29035,"lon":5.38149,"is_reserved":false,"is_disabled":false,"rental_uris":{"android":"levelo://app?vid=7c99a8c2-6752-46eb-a3e7-1d49f67a10ef","ios":"levelo://app?vid=7c99a8c2-6752-46eb-a3e7-1d49f67a10ef"},"vehicle_type_id":"4","last_reported":1692392715,"current_range_meters":6400,"station_id":"ce4bh4p2rcd13ifvqe1g","pricing_plan_id":"free"},{"bike_id":"c6098bd4-30ef-40d6-b19b-2b275a548095","system_id":"levelo_inurba_marseille","lat":43.29016,"lon":5.38138,"is_reserved":false,"is_disabled":false,"rental_uris":{"android":"levelo://app?vid=c6098bd4-30ef-40d6-b19b-2b275a548095","ios":"levelo://app?vid=c6098bd4-30ef-40d6-b19b-2b275a548095"},"vehicle_type_id":"4","last_reported":1692392715,"current_range_meters":9600,"station_id":"ce4bh4p2rcd13ifvqe1g","pricing_plan_id":"free"},{"bike_id":"ac97ea24-d81e-468d-b2e2-51747b1df6ed","system_id":"levelo_inurba_marseille","lat":43.3019,"lon":5.39782,"is_reserved":false,"is_disabled":false,"rental_uris":{"android":"levelo://app?vid=ac97ea24-d81e-468d-b2e2-51747b1df6ed","ios":"levelo://app?vid=ac97ea24-d81e-468d-b2e2-51747b1df6ed"},"vehicle_type_id":"4","last_reported":1692392715,"current_range_meters":800,"station_id":"","pricing_plan_id":"free"},{"bike_id":"89747b0d-158e-4cc1-96a2-6b6468bf1fb0","system_id":"levelo_inurba_marseille","lat":43.28856,"lon":5.358371,"is_reserved":false,"is_disabled":false,"rental_uris":{"android":"levelo://app?vid=89747b0d-158e-4cc1-96a2-6b6468bf1fb0","ios":"levelo://app?vid=89747b0d-158e-4cc1-96a2-6b6468bf1fb0"},"vehicle_type_id":"4","last_reported":1692392715,"current_range_meters":26000,"station_id":"ce4bhb12rcd13ifvqem0","pricing_plan_id":"free"},{"bike_id":"31a6f081-b3f4-495c-a865-06ed51874294","system_id":"levelo_inurba_marseille","lat":43.28856,"lon":5.358371,"is_reserved":false,"is_disabled":false,"rental_uris":{"android":"levelo://app?vid=31a6f081-b3f4-495c-a865-06ed51874294","ios":"levelo://app?vid=31a6f081-b3f4-495c-a865-06ed51874294"},"vehicle_type_id":"4","last_reported":1692392715,"current_range_meters":5200,"station_id":"ce4bhb12rcd13ifvqem0","pricing_plan_id":"free"},{"bike_id":"e4320b10-fb27-4ead-8c99-101e7e058f42","system_id":"levelo_inurba_marseille","lat":43.28856,"lon":5.358371,"is_reserved":false,"is_disabled":false,"rental_uris":{"android":"levelo://app?vid=e4320b10-fb27-4ead-8c99-101e7e058f42","ios":"levelo://app?vid=e4320b10-fb27-4ead-8c99-101e7e058f42"},"vehicle_type_id":"4","last_reported":1692392715,"current_range_meters":18800,"station_id":"ce4bhb12rcd13ifvqem0","pricing_plan_id":"free"},{"bike_id":"2f9699c6-2b29-491e-a3a8-82e6afd6de9f","system_id":"levelo_inurba_marseille","lat":43.28844,"lon":5.35862,"is_reserved":false,"is_disabled":false,"rental_uris":{"android":"levelo://app?vid=2f9699c6-2b29-491e-a3a8-82e6afd6de9f","ios":"levelo://app?vid=2f9699c6-2b29-491e-a3a8-82e6afd6de9f"},"vehicle_type_id":"4","last_reported":1692392715,"current_range_meters":7200,"station_id":"ce4bhb12rcd13ifvqem0","pricing_plan_id":"free"},{"bike_id":"887ae241-3198-4b0f-b29d-13938761eb3c","system_id":"levelo_inurba_marseille","lat":43.312589,"lon":5.401662,"is_reserved":false,"is_disabled":false,"rental_uris":{"android":"levelo://app?vid=887ae241-3198-4b0f-b29d-13938761eb3c","ios":"levelo://app?vid=887ae241-3198-4b0f-b29d-13938761eb3c"},"vehicle_type_id":"4","last_reported":1692392715,"current_range_meters":8000,"station_id":"","pricing_plan_id":"free"},{"bike_id":"37b5468b-3d6e-456d-b580-33319d0fb398","system_id":"levelo_inurba_marseille","lat":43.312609,"lon":5.401662,"is_reserved":false,"is_disabled":false,"rental_uris":{"android":"levelo://app?vid=37b5468b-3d6e-456d-b580-33319d0fb398","ios":"levelo://app?vid=37b5468b-3d6e-456d-b580-33319d0fb398"},"vehicle_type_id":"4","last_reported":1692392715,"current_range_meters":800,"station_id":"ce4bh092rcd13ifvqd30","pricing_plan_id":"free"},{"bike_id":"659b1726-536e-4798-92ea-26106f5c7b2e","system_id":"levelo_inurba_marseille","lat":43.30937,"lon":5.40144,"is_reserved":false,"is_disabled":false,"rental_uris":{"android":"levelo://app?vid=659b1726-536e-4798-92ea-26106f5c7b2e","ios":"levelo://app?vid=659b1726-536e-4798-92ea-26106f5c7b2e"},"vehicle_type_id":"4","last_reported":1692392715,"current_range_meters":10400,"station_id":"ce4bgvp2rcd13ifvqct0","pricing_plan_id":"free"},{"bike_id":"4f16f00b-055e-47c1-87c7-7b0500833a2e","system_id":"levelo_inurba_marseille","lat":43.309371,"lon":5.401449,"is_reserved":false,"is_disabled":false,"rental_uris":{"android":"levelo://app?vid=4f16f00b-055e-47c1-87c7-7b0500833a2e","ios":"levelo://app?vid=4f16f00b-055e-47c1-87c7-7b0500833a2e"},"vehicle_type_id":"4","last_reported":1692392715,"current_range_meters":29200,"station_id":"ce4bgvp2rcd13ifvqct0","pricing_plan_id":"free"},{"bike_id":"a0e42a28-0bfc-4c47-98bb-0aaf9a6f8482","system_id":"levelo_inurba_marseille","lat":43.312609,"lon":5.401662,"is_reserved":false,"is_disabled":false,"rental_uris":{"android":"levelo://app?vid=a0e42a28-0bfc-4c47-98bb-0aaf9a6f8482","ios":"levelo://app?vid=a0e42a28-0bfc-4c47-98bb-0aaf9a6f8482"},"vehicle_type_id":"4","last_reported":1692392715,"current_range_meters":22000,"station_id":"ce4bh092rcd13ifvqd30","pricing_plan_id":"free"},{"bike_id":"79a87d83-48d6-48a9-a3b4-9bbf612d1ebc","system_id":"levelo_inurba_marseille","lat":43.3093,"lon":5.40146,"is_reserved":false,"is_disabled":false,"rental_uris":{"android":"levelo://app?vid=79a87d83-48d6-48a9-a3b4-9bbf612d1ebc","ios":"levelo://app?vid=79a87d83-48d6-48a9-a3b4-9bbf612d1ebc"},"vehicle_type_id":"4","last_reported":1692392715,"current_range_meters":400,"station_id":"ce4bgvp2rcd13ifvqct0","pricing_plan_id":"free"},{"bike_id":"8189a9ad-08f9-480a-9479-c5922bbc41b9","system_id":"levelo_inurba_marseille","lat":43.309371,"lon":5.401449,"is_reserved":false,"is_disabled":false,"rental_uris":{"android":"levelo://app?vid=8189a9ad-08f9-480a-9479-c5922bbc41b9","ios":"levelo://app?vid=8189a9ad-08f9-480a-9479-c5922bbc41b9"},"vehicle_type_id":"4","last_reported":1692392715,"current_range_meters":18000,"station_id":"ce4bgvp2rcd13ifvqct0","pricing_plan_id":"free"},{"bike_id":"640bedee-e722-4f6c-bbca-39c044540309","system_id":"levelo_inurba_marseille","lat":43.31281,"lon":5.40182,"is_reserved":false,"is_disabled":false,"rental_uris":{"android":"levelo://app?vid=640bedee-e722-4f6c-bbca-39c044540309","ios":"levelo://app?vid=640bedee-e722-4f6c-bbca-39c044540309"},"vehicle_type_id":"4","last_reported":1692392715,"current_range_meters":400,"station_id":"ce4bh092rcd13ifvqd30","pricing_plan_id":"free"},{"bike_id":"270fa677-9c96-40f8-9aba-2acbac0d994c","system_id":"levelo_inurba_marseille","lat":43.33751,"lon":5.3746,"is_reserved":false,"is_disabled":false,"rental_uris":{"android":"levelo://app?vid=270fa677-9c96-40f8-9aba-2acbac0d994c","ios":"levelo://app?vid=270fa677-9c96-40f8-9aba-2acbac0d994c"},"vehicle_type_id":"4","last_reported":1692392715,"current_range_meters":27600,"station_id":"","pricing_plan_id":"free"},{"bike_id":"99d343dd-7199-48b8-9178-823f2da8e4aa","system_id":"levelo_inurba_marseille","lat":43.337656,"lon":5.374589,"is_reserved":false,"is_disabled":false,"rental_uris":{"android":"levelo://app?vid=99d343dd-7199-48b8-9178-823f2da8e4aa","ios":"levelo://app?vid=99d343dd-7199-48b8-9178-823f2da8e4aa"},"vehicle_type_id":"4","last_reported":1692392715,"current_range_meters":25600,"station_id":"","pricing_plan_id":"free"},{"bike_id":"51522cc2-a712-4022-8c55-d27ca827fdfb","system_id":"levelo_inurba_marseille","lat":43.30642,"lon":5.401031,"is_reserved":false,"is_disabled":false,"rental_uris":{"android":"levelo://app?vid=51522cc2-a712-4022-8c55-d27ca827fdfb","ios":"levelo://app?vid=51522cc2-a712-4022-8c55-d27ca827fdfb"},"vehicle_type_id":"4","last_reported":1692392715,"current_range_meters":2800,"station_id":"ce4bh112rcd13ifvqda0","pricing_plan_id":"free"},{"bike_id":"014a8bce-6b1b-471b-86b9-3c43b1dd77a0","system_id":"levelo_inurba_marseille","lat":43.33783,"lon":5.37435,"is_reserved":false,"is_disabled":false,"rental_uris":{"android":"levelo://app?vid=014a8bce-6b1b-471b-86b9-3c43b1dd77a0","ios":"levelo://app?vid=014a8bce-6b1b-471b-86b9-3c43b1dd77a0"},"vehicle_type_id":"4","last_reported":1692392715,"current_range_meters":30000,"station_id":"","pricing_plan_id":"free"},{"bike_id":"7ff9e425-7a71-44eb-afe2-b426b8ca44f1","system_id":"levelo_inurba_marseille","lat":43.286961,"lon":5.373785,"is_reserved":false,"is_disabled":false,"rental_uris":{"android":"levelo://app?vid=7ff9e425-7a71-44eb-afe2-b426b8ca44f1","ios":"levelo://app?vid=7ff9e425-7a71-44eb-afe2-b426b8ca44f1"},"vehicle_type_id":"4","last_reported":1692392715,"current_range_meters":4800,"station_id":"ce4bh3p2rcd13ifvqdq0","pricing_plan_id":"free"},{"bike_id":"98ea4258-a922-4ed3-91aa-bdc79b365c47","system_id":"levelo_inurba_marseille","lat":43.298681,"lon":5.397225,"is_reserved":false,"is_disabled":false,"rental_uris":{"android":"levelo://app?vid=98ea4258-a922-4ed3-91aa-bdc79b365c47","ios":"levelo://app?vid=98ea4258-a922-4ed3-91aa-bdc79b365c47"},"vehicle_type_id":"4","last_reported":1692392715,"current_range_meters":2000,"station_id":"ce4bh0h2rcd13ifvqd50","pricing_plan_id":"free"},{"bike_id":"75199276-b705-4ad7-b6a9-49aeaa84628a","system_id":"levelo_inurba_marseille","lat":43.286591,"lon":5.363346,"is_reserved":false,"is_disabled":false,"rental_uris":{"android":"levelo://app?vid=75199276-b705-4ad7-b6a9-49aeaa84628a","ios":"levelo://app?vid=75199276-b705-4ad7-b6a9-49aeaa84628a"},"vehicle_type_id":"4","last_reported":1692392715,"current_range_meters":31600,"station_id":"ce4bhah2rcd13ifvqej0","pricing_plan_id":"free"},{"bike_id":"a7dd4104-fcd7-4148-970a-f6ceac3f48b9","system_id":"levelo_inurba_marseille","lat":43.286591,"lon":5.363346,"is_reserved":false,"is_disabled":false,"rental_uris":{"android":"levelo://app?vid=a7dd4104-fcd7-4148-970a-f6ceac3f48b9","ios":"levelo://app?vid=a7dd4104-fcd7-4148-970a-f6ceac3f48b9"},"vehicle_type_id":"4","last_reported":1692392715,"current_range_meters":4800,"station_id":"ce4bhah2rcd13ifvqej0","pricing_plan_id":"free"},{"bike_id":"9f9fc62c-0dcb-4e16-a9d6-ce30143ec7b7","system_id":"levelo_inurba_marseille","lat":43.286961,"lon":5.373785,"is_reserved":false,"is_disabled":false,"rental_uris":{"android":"levelo://app?vid=9f9fc62c-0dcb-4e16-a9d6-ce30143ec7b7","ios":"levelo://app?vid=9f9fc62c-0dcb-4e16-a9d6-ce30143ec7b7"},"vehicle_type_id":"4","last_reported":1692392715,"current_range_meters":800,"station_id":"ce4bh3p2rcd13ifvqdq0","pricing_plan_id":"free"},{"bike_id":"30f254b3-e456-44b6-9b16-0bb9cc83e32f","system_id":"levelo_inurba_marseille","lat":43.286961,"lon":5.373785,"is_reserved":false,"is_disabled":false,"rental_uris":{"android":"levelo://app?vid=30f254b3-e456-44b6-9b16-0bb9cc83e32f","ios":"levelo://app?vid=30f254b3-e456-44b6-9b16-0bb9cc83e32f"},"vehicle_type_id":"4","last_reported":1692392715,"current_range_meters":13600,"station_id":"ce4bh3p2rcd13ifvqdq0","pricing_plan_id":"free"},{"bike_id":"8bde0ef1-53a6-4a71-8680-79ab64eff004","system_id":"levelo_inurba_marseille","lat":43.286961,"lon":5.373785,"is_reserved":false,"is_disabled":false,"rental_uris":{"android":"levelo://app?vid=8bde0ef1-53a6-4a71-8680-79ab64eff004","ios":"levelo://app?vid=8bde0ef1-53a6-4a71-8680-79ab64eff004"},"vehicle_type_id":"4","last_reported":1692392715,"current_range_meters":4400,"station_id":"ce4bh3p2rcd13ifvqdq0","pricing_plan_id":"free"},{"bike_id":"9b3bc8a4-a76f-45f0-a0bf-7a4d0bb9e0bc","system_id":"levelo_inurba_marseille","lat":43.290336,"lon":5.386425,"is_reserved":false,"is_disabled":false,"rental_uris":{"android":"levelo://app?vid=9b3bc8a4-a76f-45f0-a0bf-7a4d0bb9e0bc","ios":"levelo://app?vid=9b3bc8a4-a76f-45f0-a0bf-7a4d0bb9e0bc"},"vehicle_type_id":"4","last_reported":1692392715,"current_range_meters":28400,"station_id":"ce4bh4p2rcd13ifvqe0g","pricing_plan_id":"free"},{"bike_id":"c65625c0-9f15-4c02-98c0-0c48ad7e88ca","system_id":"levelo_inurba_marseille","lat":43.29031,"lon":5.3865,"is_reserved":false,"is_disabled":false,"rental_uris":{"android":"levelo://app?vid=c65625c0-9f15-4c02-98c0-0c48ad7e88ca","ios":"levelo://app?vid=c65625c0-9f15-4c02-98c0-0c48ad7e88ca"},"vehicle_type_id":"4","last_reported":1692392715,"current_range_meters":10000,"station_id":"ce4bh4p2rcd13ifvqe0g","pricing_plan_id":"free"},{"bike_id":"730930e5-c9d8-4a2e-b7fb-0922a4ec9911","system_id":"levelo_inurba_marseille","lat":43.29033,"lon":5.38655,"is_reserved":false,"is_disabled":false,"rental_uris":{"android":"levelo://app?vid=730930e5-c9d8-4a2e-b7fb-0922a4ec9911","ios":"levelo://app?vid=730930e5-c9d8-4a2e-b7fb-0922a4ec9911"},"vehicle_type_id":"4","last_reported":1692392715,"current_range_meters":10400,"station_id":"ce4bh4p2rcd13ifvqe0g","pricing_plan_id":"free"},{"bike_id":"e20d15bf-e93b-491a-84d0-1c9496ad865b","system_id":"levelo_inurba_marseille","lat":43.29032,"lon":5.38653,"is_reserved":false,"is_disabled":false,"rental_uris":{"android":"levelo://app?vid=e20d15bf-e93b-491a-84d0-1c9496ad865b","ios":"levelo://app?vid=e20d15bf-e93b-491a-84d0-1c9496ad865b"},