{"last_updated":1729004996,"ttl":60,"version":"2.2","data":{"bikes":[{"bike_id":"ca19aae3-ddc9-46d5-8241-83affcfa7618","system_id":"levelo_inurba_marseille","lat":43.25928,"lon":5.40916,"is_reserved":false,"is_disabled":false,"rental_uris":{"android":"levelo://app?vid=ca19aae3-ddc9-46d5-8241-83affcfa7618","ios":"levelo://app?vid=ca19aae3-ddc9-46d5-8241-83affcfa7618"},"vehicle_type_id":"4","last_reported":1729004996,"current_range_meters":11600,"station_id":"ce4bhm92rcd13ifvqglg","pricing_plan_id":"cebpf4jnsgd1na2vs0mg"},{"bike_id":"f91b438d-e4c6-48f3-94ea-bf2292895ad0","system_id":"levelo_inurba_marseille","lat":43.29557,"lon":5.42286,"is_reserved":false,"is_disabled":false,"rental_uris":{"android":"levelo://app?vid=f91b438d-e4c6-48f3-94ea-bf2292895ad0","ios":"levelo://app?vid=f91b438d-e4c6-48f3-94ea-bf2292895ad0"},"vehicle_type_id":"4","last_reported":1729004996,"current_range_meters":11200,"station_id":"ce4bhph2rcd13ifvqhdg","pricing_plan_id":"cebpf4jnsgd1na2vs0mg"},{"bike_id":"b219e8df-801b-4f0f-a0f6-ea2485c345f9","system_id":"levelo_inurba_marseille","lat":43.22929,"lon":5.35373,"is_reserved":false,"is_disabled":false,"rental_uris":{"android":"levelo://app?vid=b219e8df-801b-4f0f-a0f6-ea2485c345f9","ios":"levelo://app?vid=b219e8df-801b-4f0f-a0f6-ea2485c345f9"},"vehicle_type_id":"4","last_reported":1729004996,"current_range_meters":36800,"station_id":"cpo3532slgdg3j2ikp40","pricing_plan_id":"cebpf4jnsgd1na2vs0mg"},{"bike_id":"909f65d0-d616-4d8d-8da7-5dd3a76afbb5","system_id":"levelo_inurba_marseille","lat":43.29008,"lon":5.35618,"is_reserved":false,"is_disabled":false,"rental_uris":{"android":"levelo://app?vid=909f65d0-d616-4d8d-8da7-5dd3a76afbb5","ios":"levelo://app?vid=909f65d0-d616-4d8d-8da7-5dd3a76afbb5"},"vehicle_type_id":"4","last_reported":1729004996,"current_range_meters":22400,"station_id":"ce4bhb92rcd13ifvqen0","pricing_plan_id":"cebpf4jnsgd1na2vs0mg"},{"bike_id":"fe0cb077-ed5d-4b46-aab0-c27fb00c0ccb","system_id":"levelo_inurba_marseille","lat":43.28568,"lon":5.39498,"is_reserved":false,"is_disabled":false,"rental_uris":{"android":"levelo://app?vid=fe0cb077-ed5d-4b46-aab0-c27fb00c0ccb","ios":"levelo://app?vid=fe0cb077-ed5d-4b46-aab0-c27fb00c0ccb"},"vehicle_type_id":"4","last_reported":1729004996,"current_range_meters":20000,"station_id":"ce4bh292rcd13ifvqdg0","pricing_plan_id":"cebpf4jnsgd1na2vs0mg"},{"bike_id":"d389a2f2-2ea2-48c8-81b0-14fe1b8235e7","system_id":"levelo_inurba_marseille","lat":43.2738,"lon":5.36257,"is_reserved":false,"is_disabled":false,"rental_uris":{"android":"levelo://app?vid=d389a2f2-2ea2-48c8-81b0-14fe1b8235e7","ios":"levelo://app?vid=d389a2f2-2ea2-48c8-81b0-14fe1b8235e7"},"vehicle_type_id":"4","last_reported":1729004996,"current_range_meters":8800,"station_id":"ce4bhbh2rcd13ifvqeo0","pricing_plan_id":"cebpf4jnsgd1na2vs0mg"},{"bike_id":"8f795aa9-9304-40cd-90ff-6661dc3f930d","system_id":"levelo_inurba_marseille","lat":43.25726,"lon":5.41106,"is_reserved":false,"is_disabled":false,"rental_uris":{"android":"levelo://app?vid=8f795aa9-9304-40cd-90ff-6661dc3f930d","ios":"levelo://app?vid=8f795aa9-9304-40cd-90ff-6661dc3f930d"},"vehicle_type_id":"4","last_reported":1729004996,"current_range_meters":16000,"station_id":"ce4bhkp2rcd13ifvqgd0","pricing_plan_id":"cebpf4jnsgd1na2vs0mg"},{"bike_id":"505c001a-2d3e-435a-a369-21ef27eb563c","system_id":"levelo_inurba_marseille","lat":43.22936,"lon":5.35377,"is_reserved":false,"is_disabled":false,"rental_uris":{"android":"levelo://app?vid=505c001a-2d3e-435a-a369-21ef27eb563c","ios":"levelo://app?vid=505c001a-2d3e-435a-a369-21ef27eb563c"},"vehicle_type_id":"4","last_reported":1729004996,"current_range_meters":8400,"station_id":"cpo3532slgdg3j2ikp40","pricing_plan_id":"cebpf4jnsgd1na2vs0mg"},{"bike_id":"896c01b2-3027-4ce1-8011-46088a711aad","system_id":"levelo_inurba_marseille","lat":43.30888,"lon":5.37191,"is_reserved":false,"is_disabled":false,"rental_uris":{"android":"levelo://app?vid=896c01b2-3027-4ce1-8011-46088a711aad","ios":"levelo://app?vid=896c01b2-3027-4ce1-8011-46088a711aad"},"vehicle_type_id":"4","last_reported":1729004996,"current_range_meters":33200,"station_id":"ce4bguh2rcd13ifvqckg","pricing_plan_id":"cebpf4jnsgd1na2vs0mg"},{"bike_id":"ac990160-74ea-4e89-9d54-6c4fa8644bd0","system_id":"levelo_inurba_marseille","lat":43.31713,"lon":5.43707,"is_reserved":false,"is_disabled":false,"rental_uris":{"android":"levelo://app?vid=ac990160-74ea-4e89-9d54-6c4fa8644bd0","ios":"levelo://app?vid=ac990160-74ea-4e89-9d54-6c4fa8644bd0"},"vehicle_type_id":"4","last_reported":1729004996,"current_range_meters":18000,"station_id":"ce4bhp92rcd13ifvqhcg","pricing_plan_id":"cebpf4jnsgd1na2vs0mg"},{"bike_id":"92aca147-d7ff-4277-a937-ddcd3881db1e","system_id":"levelo_inurba_marseille","lat":43.26929,"lon":5.38915,"is_reserved":false,"is_disabled":false,"rental_uris":{"android":"levelo://app?vid=92aca147-d7ff-4277-a937-ddcd3881db1e","ios":"levelo://app?vid=92aca147-d7ff-4277-a937-ddcd3881db1e"},"vehicle_type_id":"4","last_reported":1729004996,"current_range_meters":15200,"station_id":"ce4bhhh2rcd13ifvqfl0","pricing_plan_id":"cebpf4jnsgd1na2vs0mg"},{"bike_id":"b6894f60-15c5-4341-885f-959eb47a6977","system_id":"levelo_inurba_marseille","lat":43.3108,"lon":5.42432,"is_reserved":false,"is_disabled":false,"rental_uris":{"android":"levelo://app?vid=b6894f60-15c5-4341-885f-959eb47a6977","ios":"levelo://app?vid=b6894f60-15c5-4341-885f-959eb47a6977"},"vehicle_type_id":"4","last_reported":1729004996,"current_range_meters":9200,"station_id":"ce4bhp92rcd13ifvqhag","pricing_plan_id":"cebpf4jnsgd1na2vs0mg"},{"bike_id":"beea5ce3-6e3b-468e-af4b-c0aef7b7dfd3","system_id":"levelo_inurba_marseille","lat":43.24394,"lon":5.37061,"is_reserved":false,"is_disabled":false,"rental_uris":{"android":"levelo://app?vid=beea5ce3-6e3b-468e-af4b-c0aef7b7dfd3","ios":"levelo://app?vid=beea5ce3-6e3b-468e-af4b-c0aef7b7dfd3"},"vehicle_type_id":"4","last_reported":1729004996,"current_range_meters":34000,"station_id":"ce4bhhh2rcd13ifvqfk0","pricing_plan_id":"cebpf4jnsgd1na2vs0mg"},{"bike_id":"acea3b20-d882-41f4-a7e7-e207a1dfcac8","system_id":"levelo_inurba_marseille","lat":43.30886,"lon":5.39655,"is_reserved":false,"is_disabled":false,"rental_uris":{"android":"levelo://app?vid=acea3b20-d882-41f4-a7e7-e207a1dfcac8","ios":"levelo://app?vid=acea3b20-d882-41f4-a7e7-e207a1dfcac8"},"vehicle_type_id":"4","last_reported":1729004996,"current_range_meters":26000,"station_id":"ce4bh012rcd13ifvqcv0","pricing_plan_id":"cebpf4jnsgd1na2vs0mg"},{"bike_id":"7da6b2b1-bd60-4f82-939a-ec6088da804d","system_id":"levelo_inurba_marseille","lat":43.28569,"lon":5.39502,"is_reserved":false,"is_disabled":false,"rental_uris":{"android":"levelo://app?vid=7da6b2b1-bd60-4f82-939a-ec6088da804d","ios":"levelo://app?vid=7da6b2b1-bd60-4f82-939a-ec6088da804d"},"vehicle_type_id":"4","last_reported":1729004996,"current_range_meters":4400,"station_id":"ce4bh292rcd13ifvqdg0","pricing_plan_id":"cebpf4jnsgd1na2vs0mg"},{"bike_id":"4e0fb3d8-657a-4a31-bc7a-b6b6f5d4ebe0","system_id":"levelo_inurba_marseille","lat":43.29623,"lon":5.37149,"is_reserved":false,"is_disabled":false,"rental_uris":{"android":"levelo://app?vid=4e0fb3d8-657a-4a31-bc7a-b6b6f5d4ebe0","ios":"levelo://app?vid=4e0fb3d8-657a-4a31-bc7a-b6b6f5d4ebe0"},"vehicle_type_id":"4","last_reported":1729004996,"current_range_meters":38400,"station_id":"ce4bgnh2rcd13ifvqc0g","pricing_plan_id":"cebpf4jnsgd1na2vs0mg"},{"bike_id":"9e21f6d9-4a73-497d-a7e2-5036db2477bd","system_id":"levelo_inurba_marseille","lat":43.28425,"lon":5.34991,"is_reserved":false,"is_disabled":false,"rental_uris":{"android":"levelo://app?vid=9e21f6d9-4a73-497d-a7e2-5036db2477bd","ios":"levelo://app?vid=9e21f6d9-4a73-497d-a7e2-5036db2477bd"},"vehicle_type_id":"4","last_reported":1729004996,"current_range_meters":16400,"station_id":"ce4bhbh2rcd13ifvqepg","pricing_plan_id":"cebpf4jnsgd1na2vs0mg"},{"bike_id":"72358ece-4187-445f-9954-0b053f59dd58","system_id":"levelo_inurba_marseille","lat":43.28271,"lon":5.35079,"is_reserved":false,"is_disabled":false,"rental_uris":{"android":"levelo://app?vid=72358ece-4187-445f-9954-0b053f59dd58","ios":"levelo://app?vid=72358ece-4187-445f-9954-0b053f59dd58"},"vehicle_type_id":"4","last_reported":1729004996,"current_range_meters":39200,"station_id":"ce4bhbp2rcd13ifvqerg","pricing_plan_id":"cebpf4jnsgd1na2vs0mg"},{"bike_id":"0d709b04-13aa-4fc7-a575-c70a83cf3926","system_id":"levelo_inurba_marseille","lat":43.2843,"lon":5.34995,"is_reserved":false,"is_disabled":false,"rental_uris":{"android":"levelo://app?vid=0d709b04-13aa-4fc7-a575-c70a83cf3926","ios":"levelo://app?vid=0d709b04-13aa-4fc7-a575-c70a83cf3926"},"vehicle_type_id":"4","last_reported":1729004996,"current_range_meters":22000,"station_id":"ce4bhbh2rcd13ifvqepg","pricing_plan_id":"cebpf4jnsgd1na2vs0mg"},{"bike_id":"519196eb-25d1-421d-a405-17ed26974f25","system_id":"levelo_inurba_marseille","lat":43.30798,"lon":5.38169,"is_reserved":false,"is_disabled":false,"rental_uris":{"android":"levelo://app?vid=519196eb-25d1-421d-a405-17ed26974f25","ios":"levelo://app?vid=519196eb-25d1-421d-a405-17ed26974f25"},"vehicle_type_id":"4","last_reported":1729004996,"current_range_meters":36400,"station_id":"ce4bgt12rcd13ifvqce0","pricing_plan_id":"cebpf4jnsgd1na2vs0mg"},{"bike_id":"d52ffa24-6f2b-4755-8f1a-39fecd1e8a52","system_id":"levelo_inurba_marseille","lat":43.28614,"lon":5.35106,"is_reserved":false,"is_disabled":false,"rental_uris":{"android":"levelo://app?vid=d52ffa24-6f2b-4755-8f1a-39fecd1e8a52","ios":"levelo://app?vid=d52ffa24-6f2b-4755-8f1a-39fecd1e8a52"},"vehicle_type_id":"4","last_reported":1729004996,"current_range_meters":8800,"station_id":"ce4bhch2rcd13ifvqeug","pricing_plan_id":"cebpf4jnsgd1na2vs0mg"},{"bike_id":"0fec2704-b8a7-4b2c-b611-d5dae9dd568d","system_id":"levelo_inurba_marseille","lat":43.29228,"lon":5.36066,"is_reserved":false,"is_disabled":false,"rental_uris":{"android":"levelo://app?vid=0fec2704-b8a7-4b2c-b611-d5dae9dd568d","ios":"levelo://app?vid=0fec2704-b8a7-4b2c-b611-d5dae9dd568d"},"vehicle_type_id":"4","last_reported":1729004996,"current_range_meters":37600,"station_id":"ce4bhbh2rcd13ifvqeqg","pricing_plan_id":"cebpf4jnsgd1na2vs0mg"},{"bike_id":"389ba53e-4e6d-4c81-a94b-d4aec5756103","system_id":"levelo_inurba_marseille","lat":43.30416,"lon":5.41271,"is_reserved":false,"is_disabled":false,"rental_uris":{"android":"levelo://app?vid=389ba53e-4e6d-4c81-a94b-d4aec5756103","ios":"levelo://app?vid=389ba53e-4e6d-4c81-a94b-d4aec5756103"},"vehicle_type_id":"4","last_reported":1729004996,"current_range_meters":9200,"station_id":"ce4bhop2rcd13ifvqh8g","pricing_plan_id":"cebpf4jnsgd1na2vs0mg"},{"bike_id":"ed5514c5-a492-4b11-a555-08e14c90f84a","system_id":"levelo_inurba_marseille","lat":43.31693,"lon":5.40481,"is_reserved":false,"is_disabled":false,"rental_uris":{"android":"levelo://app?vid=ed5514c5-a492-4b11-a555-08e14c90f84a","ios":"levelo://app?vid=ed5514c5-a492-4b11-a555-08e14c90f84a"},"vehicle_type_id":"4","last_reported":1729004996,"current_range_meters":8800,"station_id":"ce4bh012rcd13ifvqd00","pricing_plan_id":"cebpf4jnsgd1na2vs0mg"},{"bike_id":"8af21a98-bbc4-4052-b68d-e7364716c960","system_id":"levelo_inurba_marseille","lat":43.30459,"lon":5.37908,"is_reserved":false,"is_disabled":false,"rental_uris":{"android":"levelo://app?vid=8af21a98-bbc4-4052-b68d-e7364716c960","ios":"levelo://app?vid=8af21a98-bbc4-4052-b68d-e7364716c960"},"vehicle_type_id":"4","last_reported":1729004996,"current_range_meters":3200,"station_id":"ce4bgup2rcd13ifvqcn0","pricing_plan_id":"cebpf4jnsgd1na2vs0mg"},{"bike_id":"a977fcdb-6122-4a6f-a61c-8450bd7f7cbd","system_id":"levelo_inurba_marseille","lat":43.29032,"lon":5.38657,"is_reserved":false,"is_disabled":false,"rental_uris":{"android":"levelo://app?vid=a977fcdb-6122-4a6f-a61c-8450bd7f7cbd","ios":"levelo://app?vid=a977fcdb-6122-4a6f-a61c-8450bd7f7cbd"},"vehicle_type_id":"4","last_reported":1729004996,"current_range_meters":29600,"station_id":"ce4bh4p2rcd13ifvqe0g","pricing_plan_id":"cebpf4jnsgd1na2vs0mg"},{"bike_id":"2e4050a8-1a71-449a-be37-78f4f1bf7fdf","system_id":"levelo_inurba_marseille","lat":43.28034,"lon":5.36952,"is_reserved":false,"is_disabled":false,"rental_uris":{"android":"levelo://app?vid=2e4050a8-1a71-449a-be37-78f4f1bf7fdf","ios":"levelo://app?vid=2e4050a8-1a71-449a-be37-78f4f1bf7fdf"},"vehicle_type_id":"4","last_reported":1729004996,"current_range_meters":26800,"station_id":"ce4bha12rcd13ifvqef0","pricing_plan_id":"cebpf4jnsgd1na2vs0mg"},{"bike_id":"00707241-c9a7-4262-a6e1-14ee27f38531","system_id":"levelo_inurba_marseille","lat":43.28275,"lon":5.35074,"is_reserved":false,"is_disabled":false,"rental_uris":{"android":"levelo://app?vid=00707241-c9a7-4262-a6e1-14ee27f38531","ios":"levelo://app?vid=00707241-c9a7-4262-a6e1-14ee27f38531"},"vehicle_type_id":"4","last_reported":1729004996,"current_range_meters":13600,"station_id":"ce4bhbp2rcd13ifvqerg","pricing_plan_id":"cebpf4jnsgd1na2vs0mg"},{"bike_id":"89198ecf-9ad5-429c-84dc-a279ee6e8f88","system_id":"levelo_inurba_marseille","lat":43.33769,"lon":5.37454,"is_reserved":false,"is_disabled":false,"rental_uris":{"android":"levelo://app?vid=89198ecf-9ad5-429c-84dc-a279ee6e8f88","ios":"levelo://app?vid=89198ecf-9ad5-429c-84dc-a279ee6e8f88"},"vehicle_type_id":"4","last_reported":1729004996,"current_range_meters":34800,"station_id":"","pricing_plan_id":"cebpf4jnsgd1na2vs0mg"},{"bike_id":"63016981-dbb7-4908-8ed3-c351855b2f31","system_id":"levelo_inurba_marseille","lat":43.28156,"lon":5.42638,"is_reserved":false,"is_disabled":false,"rental_uris":{"android":"levelo://app?vid=63016981-dbb7-4908-8ed3-c351855b2f31","ios":"levelo://app?vid=63016981-dbb7-4908-8ed3-c351855b2f31"},"vehicle_type_id":"4","last_reported":1729004996,"current_range_meters":19200,"station_id":"ce4bhnh2rcd13ifvqgug","pricing_plan_id":"cebpf4jnsgd1na2vs0mg"},{"bike_id":"b85517d1-5b0d-483c-b156-ca063268b813","system_id":"levelo_inurba_marseille","lat":43.28087,"lon":5.39664,"is_reserved":false,"is_disabled":false,"rental_uris":{"android":"levelo://app?vid=b85517d1-5b0d-483c-b156-ca063268b813","ios":"levelo://app?vid=b85517d1-5b0d-483c-b156-ca063268b813"},"vehicle_type_id":"4","last_reported":1729004996,"current_range_meters":28000,"station_id":"ce4bho12rcd13ifvqh2g","pricing_plan_id":"cebpf4jnsgd1na2vs0mg"},{"bike_id":"ab0fa430-85fa-4789-920a-607a8247337d","system_id":"levelo_inurba_marseille","lat":43.31756,"lon":5.39017,"is_reserved":false,"is_disabled":false,"rental_uris":{"android":"levelo://app?vid=ab0fa430-85fa-4789-920a-607a8247337d","ios":"levelo://app?vid=ab0fa430-85fa-4789-920a-607a8247337d"},"vehicle_type_id":"4","last_reported":1729004996,"current_range_meters":18800,"station_id":"ce4bhqp2rcd13ifvqhng","pricing_plan_id":"cebpf4jnsgd1na2vs0mg"},{"bike_id":"42a0196b-b45e-4326-bd51-ffb4495542ca","system_id":"levelo_inurba_marseille","lat":43.29207,"lon":5.35805,"is_reserved":false,"is_disabled":false,"rental_uris":{"android":"levelo://app?vid=42a0196b-b45e-4326-bd51-ffb4495542ca","ios":"levelo://app?vid=42a0196b-b45e-4326-bd51-ffb4495542ca"},"vehicle_type_id":"4","last_reported":1729004996,"current_range_meters":38800,"station_id":"ce4bhb12rcd13ifvqel0","pricing_plan_id":"cebpf4jnsgd1na2vs0mg"},{"bike_id":"7cef6d8b-c9b4-4723-90ce-6f534ede3192","system_id":"levelo_inurba_marseille","lat":43.27429,"lon":5.39422,"is_reserved":false,"is_disabled":false,"rental_uris":{"android":"levelo://app?vid=7cef6d8b-c9b4-4723-90ce-6f534ede3192","ios":"levelo://app?vid=7cef6d8b-c9b4-4723-90ce-6f534ede3192"},"vehicle_type_id":"4","last_reported":1729004996,"current_range_meters":2800,"station_id":"ce4bhdp2rcd13ifvqf20","pricing_plan_id":"cebpf4jnsgd1na2vs0mg"},{"bike_id":"21abe228-1e5e-45ff-a3d0-5b43793fe6d6","system_id":"levelo_inurba_marseille","lat":43.28276,"lon":5.35076,"is_reserved":false,"is_disabled":false,"rental_uris":{"android":"levelo://app?vid=21abe228-1e5e-45ff-a3d0-5b43793fe6d6","ios":"levelo://app?vid=21abe228-1e5e-45ff-a3d0-5b43793fe6d6"},"vehicle_type_id":"4","last_reported":1729004996,"current_range_meters":13600,"station_id":"ce4bhbp2rcd13ifvqerg","pricing_plan_id":"cebpf4jnsgd1na2vs0mg"},{"bike_id":"63d29957-bb09-4d47-ba1b-2e5ced261e68","system_id":"levelo_inurba_marseille","lat":43.29291,"lon":5.3747,"is_reserved":false,"is_disabled":false,"rental_uris":{"android":"levelo://app?vid=63d29957-bb09-4d47-ba1b-2e5ced261e68","ios":"levelo://app?vid=63d29957-bb09-4d47-ba1b-2e5ced261e68"},"vehicle_type_id":"4","last_reported":1729004996,"current_range_meters":5600,"station_id":"ce4bgi12rcd13ifvqb70","pricing_plan_id":"cebpf4jnsgd1na2vs0mg"},{"bike_id":"bb6732df-dfdc-4ac0-aab1-669cf413b9aa","system_id":"levelo_inurba_marseille","lat":43.32476,"lon":5.3656,"is_reserved":false,"is_disabled":false,"rental_uris":{"android":"levelo://app?vid=bb6732df-dfdc-4ac0-aab1-669cf413b9aa","ios":"levelo://app?vid=bb6732df-dfdc-4ac0-aab1-669cf413b9aa"},"vehicle_type_id":"4","last_reported":1729004996,"current_range_meters":36000,"station_id":"ce4bhs12rcd13ifvqhvg","pricing_plan_id":"cebpf4jnsgd1na2vs0mg"},{"bike_id":"cbd7d81a-b913-4adf-8a4f-e40c105f9838","system_id":"levelo_inurba_marseille","lat":43.28434,"lon":5.34994,"is_reserved":false,"is_disabled":false,"rental_uris":{"android":"levelo://app?vid=cbd7d81a-b913-4adf-8a4f-e40c105f9838","ios":"levelo://app?vid=cbd7d81a-b913-4adf-8a4f-e40c105f9838"},"vehicle_type_id":"4","last_reported":1729004996,"current_range_meters":36800,"station_id":"ce4bhbh2rcd13ifvqepg","pricing_plan_id":"cebpf4jnsgd1na2vs0mg"},{"bike_id":"5ce2aef0-cdc5-4f20-8a24-743407c3281c","system_id":"levelo_inurba_marseille","lat":43.272081,"lon":5.391609,"is_reserved":false,"is_disabled":false,"rental_uris":{"android":"levelo://app?vid=5ce2aef0-cdc5-4f20-8a24-743407c3281c","ios":"levelo://app?vid=5ce2aef0-cdc5-4f20-8a24-743407c3281c"},"vehicle_type_id":"4","last_reported":1729004996,"current_range_meters":29600,"station_id":"ce4bhhp2rcd13ifvqfm0","pricing_plan_id":"cebpf4jnsgd1na2vs0mg"},{"bike_id":"24e12ca4-0a57-4d42-998f-29586ca0ba64","system_id":"levelo_inurba_marseille","lat":43.29291,"lon":5.36852,"is_reserved":false,"is_disabled":false,"rental_uris":{"android":"levelo://app?vid=24e12ca4-0a57-4d42-998f-29586ca0ba64","ios":"levelo://app?vid=24e12ca4-0a57-4d42-998f-29586ca0ba64"},"vehicle_type_id":"4","last_reported":1729004996,"current_range_meters":9600,"station_id":"ce4bhbp2rcd13ifvqesg","pricing_plan_id":"cebpf4jnsgd1na2vs0mg"},{"bike_id":"dc15b13a-4342-4d9f-be7f-04ceff5a3f3f","system_id":"levelo_inurba_marseille","lat":43.30874,"lon":5.39622,"is_reserved":false,"is_disabled":false,"rental_uris":{"android":"levelo://app?vid=dc15b13a-4342-4d9f-be7f-04ceff5a3f3f","ios":"levelo://app?vid=dc15b13a-4342-4d9f-be7f-04ceff5a3f3f"},"vehicle_type_id":"4","last_reported":1729004996,"current_range_meters":38800,"station_id":"ce4bh012rcd13ifvqcv0","pricing_plan_id":"cebpf4jnsgd1na2vs0mg"},{"bike_id":"af72c931-eb8a-4884-9dc9-d800fea8aa26","system_id":"levelo_inurba_marseille","lat":43.24388,"lon":5.37055,"is_reserved":false,"is_disabled":false,"rental_uris":{"android":"levelo://app?vid=af72c931-eb8a-4884-9dc9-d800fea8aa26","ios":"levelo://app?vid=af72c931-eb8a-4884-9dc9-d800fea8aa26"},"vehicle_type_id":"4","last_reported":1729004996,"current_range_meters":39200,"station_id":"ce4bhhh2rcd13ifvqfk0","pricing_plan_id":"cebpf4jnsgd1na2vs0mg"},{"bike_id":"abbffdf3-ff6a-4da1-91df-ef5d1453acc4","system_id":"levelo_inurba_marseille","lat":43.32107,"lon":5.36782,"is_reserved":false,"is_disabled":false,"rental_uris":{"android":"levelo://app?vid=abbffdf3-ff6a-4da1-91df-ef5d1453acc4","ios":"levelo://app?vid=abbffdf3-ff6a-4da1-91df-ef5d1453acc4"},"vehicle_type_id":"4","last_reported":1729004996,"current_range_meters":38800,"station_id":"ce4bhrh2rcd13ifvqhug","pricing_plan_id":"cebpf4jnsgd1na2vs0mg"},{"bike_id":"b5a6da61-267b-4a4a-83dc-cfc36469a6b3","system_id":"levelo_inurba_marseille","lat":43.31487,"lon":5.37313,"is_reserved":false,"is_disabled":false,"rental_uris":{"android":"levelo://app?vid=b5a6da61-267b-4a4a-83dc-cfc36469a6b3","ios":"levelo://app?vid=b5a6da61-267b-4a4a-83dc-cfc36469a6b3"},"vehicle_type_id":"4","last_reported":1729004996,"current_range_meters":28800,"station_id":"ce4bgt12rcd13ifvqcd0","pricing_plan_id":"cebpf4jnsgd1na2vs0mg"},{"bike_id":"d8cfc6fd-9344-4cc2-85b9-f446892c48f9","system_id":"levelo_inurba_marseille","lat":43.32665,"lon":5.40995,"is_reserved":false,"is_disabled":false,"rental_uris":{"android":"levelo://app?vid=d8cfc6fd-9344-4cc2-85b9-f446892c48f9","ios":"levelo://app?vid=d8cfc6fd-9344-4cc2-85b9-f446892c48f9"},"vehicle_type_id":"4","last_reported":1729004996,"current_range_meters":36400,"station_id":"ce4bhpp2rcd13ifvqhgg","pricing_plan_id":"cebpf4jnsgd1na2vs0mg"},{"bike_id":"446168c3-e7fa-4444-a966-fa92840076d1","system_id":"levelo_inurba_marseille","lat":43.29624,"lon":5.37152,"is_reserved":false,"is_disabled":false,"rental_uris":{"android":"levelo://app?vid=446168c3-e7fa-4444-a966-fa92840076d1","ios":"levelo://app?vid=446168c3-e7fa-4444-a966-fa92840076d1"},"vehicle_type_id":"4","last_reported":1729004996,"current_range_meters":23200,"station_id":"ce4bgnh2rcd13ifvqc0g","pricing_plan_id":"cebpf4jnsgd1na2vs0mg"},{"bike_id":"f61f5020-9a98-430b-af24-9548f2ac9198","system_id":"levelo_inurba_marseille","lat":43.24393,"lon":5.3707,"is_reserved":false,"is_disabled":false,"rental_uris":{"android":"levelo://app?vid=f61f5020-9a98-430b-af24-9548f2ac9198","ios":"levelo://app?vid=f61f5020-9a98-430b-af24-9548f2ac9198"},"vehicle_type_id":"4","last_reported":1729004996,"current_range_meters":31200,"station_id":"ce4bhhh2rcd13ifvqfk0","pricing_plan_id":"cebpf4jnsgd1na2vs0mg"},{"bike_id":"d6a1f10f-3b73-48f7-b84b-ed9cab52949c","system_id":"levelo_inurba_marseille","lat":43.32368,"lon":5.38886,"is_reserved":false,"is_disabled":false,"rental_uris":{"android":"levelo://app?vid=d6a1f10f-3b73-48f7-b84b-ed9cab52949c","ios":"levelo://app?vid=d6a1f10f-3b73-48f7-b84b-ed9cab52949c"},"vehicle_type_id":"4","last_reported":1729004996,"current_range_meters":3200,"station_id":"ce4bhqp2rcd13ifvqhog","pricing_plan_id":"cebpf4jnsgd1na2vs0mg"},{"bike_id":"ce6f8676-a881-45c2-8305-3226f12080a0","system_id":"levelo_inurba_marseille","lat":43.28095,"lon":5.39657,"is_reserved":false,"is_disabled":false,"rental_uris":{"android":"levelo://app?vid=ce6f8676-a881-45c2-8305-3226f12080a0","ios":"levelo://app?vid=ce6f8676-a881-45c2-8305-3226f12080a0"},"vehicle_type_id":"4","last_reported":1729004996,"current_range_meters":28000,"station_id":"ce4bho12rcd13ifvqh2g","pricing_plan_id":"cebpf4jnsgd1na2vs0mg"},{"bike_id":"99660c18-bef0-4551-86e1-907db05089fc","system_id":"levelo_inurba_marseille","lat":43.29262,"lon":5.40917,"is_reserved":false,"is_disabled":false,"rental_uris":{"android":"levelo://app?vid=99660c18-bef0-4551-86e1-907db05089fc","ios":"levelo://app?vid=99660c18-bef0-4551-86e1-907db05089fc"},"vehicle_type_id":"4","last_reported":1729004996,"current_range_meters":22000,"station_id":"ce4bh192rcd13ifvqdc0","pricing_plan_id":"cebpf4jnsgd1na2vs0mg"},{"bike_id":"c0670d96-b06e-446b-a07e-6b5eeebc59d7","system_id":"levelo_inurba_marseille","lat":43.274948,"lon":5.424466,"is_reserved":false,"is_disabled":false,"rental_uris":{"android":"levelo://app?vid=c0670d96-b06e-446b-a07e-6b5eeebc59d7","ios":"levelo://app?vid=c0670d96-b06e-446b-a07e-6b5eeebc59d7"},"vehicle_type_id":"4","last_reported":1729004996,"current_range_meters":11600,"station_id":"ce4bhn92rcd13ifvqgrg","pricing_plan_id":"cebpf4jnsgd1na2vs0mg"},{"bike_id":"9b6690b0-2390-4c78-82e7-fc67cfc7d33a","system_id":"levelo_inurba_marseille","lat":43.29197,"lon":5.39329,"is_reserved":false,"is_disabled":false,"rental_uris":{"android":"levelo://app?vid=9b6690b0-2390-4c78-82e7-fc67cfc7d33a","ios":"levelo://app?vid=9b6690b0-2390-4c78-82e7-fc67cfc7d33a"},"vehicle_type_id":"4","last_reported":1729004996,"current_range_meters":3600,"station_id":"ce4bh192rcd13ifvqdd0","pricing_plan_id":"cebpf4jnsgd1na2vs0mg"},{"bike_id":"02c903ab-53e0-41d9-a4f7-29b840913cfb","system_id":"levelo_inurba_marseille","lat":43.25091,"lon":5.39518,"is_reserved":false,"is_disabled":false,"rental_uris":{"android":"levelo://app?vid=02c903ab-53e0-41d9-a4f7-29b840913cfb","ios":"levelo://app?vid=02c903ab-53e0-41d9-a4f7-29b840913cfb"},"vehicle_type_id":"4","last_reported":1729004996,"current_range_meters":14400,"station_id":"ce4bhm12rcd13ifvqgkg","pricing_plan_id":"cebpf4jnsgd1na2vs0mg"},{"bike_id":"a0d3d324-fa7e-4417-aee7-85012ecab44e","system_id":"levelo_inurba_marseille","lat":43.34188,"lon":5.44503,"is_reserved":false,"is_disabled":false,"rental_uris":{"android":"levelo://app?vid=a0d3d324-fa7e-4417-aee7-85012ecab44e","ios":"levelo://app?vid=a0d3d324-fa7e-4417-aee7-85012ecab44e"},"vehicle_type_id":"4","last_reported":1729004996,"current_range_meters":24000,"station_id":"","pricing_plan_id":"cebpf4jnsgd1na2vs0mg"},{"bike_id":"3607930c-b7d9-458b-8602-adffde93ceaa","system_id":"levelo_inurba_marseille","lat":43.31326,"lon":5.39692,"is_reserved":false,"is_disabled":false,"rental_uris":{"android":"levelo://app?vid=3607930c-b7d9-458b-8602-adffde93ceaa","ios":"levelo://app?vid=3607930c-b7d9-458b-8602-adffde93ceaa"},"vehicle_type_id":"4","last_reported":1729004996,"current_range_meters":29600,"station_id":"ce4bgvp2rcd13ifvqcu0","pricing_plan_id":"cebpf4jnsgd1na2vs0mg"},{"bike_id":"685f9e1b-a07e-431c-b9bc-2f76325b3736","system_id":"levelo_inurba_marseille","lat":43.30796,"lon":5.3765,"is_reserved":false,"is_disabled":false,"rental_uris":{"android":"levelo://app?vid=685f9e1b-a07e-431c-b9bc-2f76325b3736","ios":"levelo://app?vid=685f9e1b-a07e-431c-b9bc-2f76325b3736"},"vehicle_type_id":"4","last_reported":1729004996,"current_range_meters":29600,"station_id":"ce4bgv92rcd13ifvqcq0","pricing_plan_id":"cebpf4jnsgd1na2vs0mg"},{"bike_id":"677458ea-d3b4-448c-ad9b-192f712c185b","system_id":"levelo_inurba_marseille","lat":43.28936,"lon":5.36645,"is_reserved":false,"is_disabled":false,"rental_uris":{"android":"levelo://app?vid=677458ea-d3b4-448c-ad9b-192f712c185b","ios":"levelo://app?vid=677458ea-d3b4-448c-ad9b-192f712c185b"},"vehicle_type_id":"4","last_reported":1729004996,"current_range_meters":36400,"station_id":"ce4bhap2rcd13ifvqek0","pricing_plan_id":"cebpf4jnsgd1na2vs0mg"},{"bike_id":"52f79488-82a8-4ae8-ad58-27d91d161bf2","system_id":"levelo_inurba_marseille","lat":43.28428,"lon":5.34992,"is_reserved":false,"is_disabled":false,"rental_uris":{"android":"levelo://app?vid=52f79488-82a8-4ae8-ad58-27d91d161bf2","ios":"levelo://app?vid=52f79488-82a8-4ae8-ad58-27d91d161bf2"},"vehicle_type_id":"4","last_reported":1729004996,"current_range_meters":4800,"station_id":"ce4bhbh2rcd13ifvqepg","pricing_plan_id":"cebpf4jnsgd1na2vs0mg"},{"bike_id":"10f52a16-e568-4658-a763-708ce98a665a","system_id":"levelo_inurba_marseille","lat":43.311768,"lon":5.387128,"is_reserved":false,"is_disabled":false,"rental_uris":{"android":"levelo://app?vid=10f52a16-e568-4658-a763-708ce98a665a","ios":"levelo://app?vid=10f52a16-e568-4658-a763-708ce98a665a"},"vehicle_type_id":"4","last_reported":1729004996,"current_range_meters":17200,"station_id":"ce4bgv12rcd13ifvqcp0","pricing_plan_id":"cebpf4jnsgd1na2vs0mg"},{"bike_id":"3ae02cff-df96-4ee2-b0ce-80c0f14f35c1","system_id":"levelo_inurba_marseille","lat":43.28422,"lon":5.35,"is_reserved":false,"is_disabled":false,"rental_uris":{"android":"levelo://app?vid=3ae02cff-df96-4ee2-b0ce-80c0f14f35c1","ios":"levelo://app?vid=3ae02cff-df96-4ee2-b0ce-80c0f14f35c1"},"vehicle_type_id":"4","last_reported":1729004996,"current_range_meters":38800,"station_id":"ce4bhbh2rcd13ifvqepg","pricing_plan_id":"cebpf4jnsgd1na2vs0mg"},{"bike_id":"34ada314-9e34-4263-801e-9bbd7758a9ff","system_id":"levelo_inurba_marseille","lat":43.31486,"lon":5.37309,"is_reserved":false,"is_disabled":false,"rental_uris":{"android":"levelo://app?vid=34ada314-9e34-4263-801e-9bbd7758a9ff","ios":"levelo://app?vid=34ada314-9e34-4263-801e-9bbd7758a9ff"},"vehicle_type_id":"4","last_reported":1729004996,"current_range_meters":7200,"station_id":"ce4bgt12rcd13ifvqcd0","pricing_plan_id":"cebpf4jnsgd1na2vs0mg"},{"bike_id":"0994d7f0-fa2e-480f-b967-2b1e1b476b78","system_id":"levelo_inurba_marseille","lat":43.2319,"lon":5.35556,"is_reserved":false,"is_disabled":false,"rental_uris":{"android":"levelo://app?vid=0994d7f0-fa2e-480f-b967-2b1e1b476b78","ios":"levelo://app?vid=0994d7f0-fa2e-480f-b967-2b1e1b476b78"},"vehicle_type_id":"4","last_reported":1729004996,"current_range_meters":26000,"station_id":"ce4bhu92rcd13ifvqi70","pricing_plan_id":"cebpf4jnsgd1na2vs0mg"},{"bike_id":"fc645823-397f-4420-9f89-fcbdaebd98f8","system_id":"levelo_inurba_marseille","lat":43.32111,"lon":5.36784,"is_reserved":false,"is_disabled":false,"rental_uris":{"android":"levelo://app?vid=fc645823-397f-4420-9f89-fcbdaebd98f8","ios":"levelo://app?vid=fc645823-397f-4420-9f89-fcbdaebd98f8"},"vehicle_type_id":"4","last_reported":1729004996,"current_range_meters":35200,"station_id":"ce4bhrh2rcd13ifvqhug","pricing_plan_id":"cebpf4jnsgd1na2vs0mg"},{"bike_id":"4d423de8-5e22-441a-8848-ae5dc9d8eb39","system_id":"levelo_inurba_marseille","lat":43.33726,"lon":5.37455,"is_reserved":false,"is_disabled":false,"rental_uris":{"android":"levelo://app?vid=4d423de8-5e22-441a-8848-ae5dc9d8eb39","ios":"levelo://app?vid=4d423de8-5e22-441a-8848-ae5dc9d8eb39"},"vehicle_type_id":"4","last_reported":1729004996,"current_range_meters":9600,"station_id":"","pricing_plan_id":"cebpf4jnsgd1na2vs0mg"},{"bike_id":"4797564a-effd-45d2-b2fe-02d1b7f531c1","system_id":"levelo_inurba_marseille","lat":43.24387,"lon":5.37064,"is_reserved":false,"is_disabled":false,"rental_uris":{"android":"levelo://app?vid=4797564a-effd-45d2-b2fe-02d1b7f531c1","ios":"levelo://app?vid=4797564a-effd-45d2-b2fe-02d1b7f531c1"},"vehicle_type_id":"4","last_reported":1729004996,"current_range_meters":38800,"station_id":"ce4bhhh2rcd13ifvqfk0","pricing_plan_id":"cebpf4jnsgd1na2vs0mg"},{"bike_id":"8f1473c8-5614-4fe5-9a08-5f8d5d6a0adb","system_id":"levelo_inurba_marseille","lat":43.32108,"lon":5.36778,"is_reserved":false,"is_disabled":false,"rental_uris":{"android":"levelo://app?vid=8f1473c8-5614-4fe5-9a08-5f8d5d6a0adb","ios":"levelo://app?vid=8f1473c8-5614-4fe5-9a08-5f8d5d6a0adb"},"vehicle_type_id":"4","last_reported":1729004996,"current_range_meters":26000,"station_id":"ce4bhrh2rcd13ifvqhug","pricing_plan_id":"cebpf4jnsgd1na2vs0mg"},{"bike_id":"309d8eee-7f02-4317-bce5-0dc624e6b716","system_id":"levelo_inurba_marseille","lat":43.28273,"lon":5.35077,"is_reserved":false,"is_disabled":false,"rental_uris":{"android":"levelo://app?vid=309d8eee-7f02-4317-bce5-0dc624e6b716","ios":"levelo://app?vid=309d8eee-7f02-4317-bce5-0dc624e6b716"},"vehicle_type_id":"4","last_reported":1729004996,"current_range_meters":20000,"station_id":"ce4bhbp2rcd13ifvqerg","pricing_plan_id":"cebpf4jnsgd1na2vs0mg"},{"bike_id":"1b87d622-eb4f-4722-8846-829ec9efe7d0","system_id":"levelo_inurba_marseille","lat":43.29421,"lon":5.38629,"is_reserved":false,"is_disabled":false,"rental_uris":{"android":"levelo://app?vid=1b87d622-eb4f-4722-8846-829ec9efe7d0","ios":"levelo://app?vid=1b87d622-eb4f-4722-8846-829ec9efe7d0"},"vehicle_type_id":"4","last_reported":1729004996,"current_range_meters":26800,"station_id":"ce4bh2h2rcd13ifvqdh0","pricing_plan_id":"cebpf4jnsgd1na2vs0mg"},{"bike_id":"bd391cf2-447e-4a41-af6b-1e995770300a","system_id":"levelo_inurba_marseille","lat":43.23196,"lon":5.35547,"is_reserved":false,"is_disabled":false,"rental_uris":{"android":"levelo://app?vid=bd391cf2-447e-4a41-af6b-1e995770300a","ios":"levelo://app?vid=bd391cf2-447e-4a41-af6b-1e995770300a"},"vehicle_type_id":"4","last_reported":1729004996,"current_range_meters":2800,"station_id":"ce4bhu92rcd13ifvqi70","pricing_plan_id":"cebpf4jnsgd1na2vs0mg"},{"bike_id":"4e12036b-208c-4fcb-a056-726eac6e1a24","system_id":"levelo_inurba_marseille","lat":43.2735,"lon":5.40659,"is_reserved":false,"is_disabled":false,"rental_uris":{"android":"levelo://app?vid=4e12036b-208c-4fcb-a056-726eac6e1a24","ios":"levelo://app?vid=4e12036b-208c-4fcb-a056-726eac6e1a24"},"vehicle_type_id":"4","last_reported":1729004996,"current_range_meters":12800,"station_id":"","pricing_plan_id":"cebpf4jnsgd1na2vs0mg"},{"bike_id":"138bd2ca-c4ff-4dab-9e15-1a9906b30021","system_id":"levelo_inurba_marseille","lat":43.27272,"lon":5.38704,"is_reserved":false,"is_disabled":false,"rental_uris":{"android":"levelo://app?vid=138bd2ca-c4ff-4dab-9e15-1a9906b30021","ios":"levelo://app?vid=138bd2ca-c4ff-4dab-9e15-1a9906b30021"},"vehicle_type_id":"4","last_reported":1729004996,"current_range_meters":27600,"station_id":"","pricing_plan_id":"cebpf4jnsgd1na2vs0mg"},{"bike_id":"96092fee-06da-45b2-86fa-47241d3901c7","system_id":"levelo_inurba_marseille","lat":43.33776,"lon":5.3747,"is_reserved":false,"is_disabled":false,"rental_uris":{"android":"levelo://app?vid=96092fee-06da-45b2-86fa-47241d3901c7","ios":"levelo://app?vid=96092fee-06da-45b2-86fa-47241d3901c7"},"vehicle_type_id":"4","last_reported":1729004996,"current_range_meters":36800,"station_id":"","pricing_plan_id":"cebpf4jnsgd1na2vs0mg"},{"bike_id":"68feb18a-64ff-4a0e-ac27-8530ff76c845","system_id":"levelo_inurba_marseille","lat":43.28277,"lon":5.35083,"is_reserved":false,"is_disabled":false,"rental_uris":{"android":"levelo://app?vid=68feb18a-64ff-4a0e-ac27-8530ff76c845","ios":"levelo://app?vid=68feb18a-64ff-4a0e-ac27-8530ff76c845"},"vehicle_type_id":"4","last_reported":1729004996,"current_range_meters":12400,"station_id":"ce4bhbp2rcd13ifvqerg","pricing_plan_id":"cebpf4jnsgd1na2vs0mg"},{"bike_id":"592668b5-5ac0-4ec3-8995-0e758218ad26","system_id":"levelo_inurba_marseille","lat":43.32364,"lon":5.38882,"is_reserved":false,"is_disabled":false,"rental_uris":{"android":"levelo://app?vid=592668b5-5ac0-4ec3-8995-0e758218ad26","ios":"levelo://app?vid=592668b5-5ac0-4ec3-8995-0e758218ad26"},"vehicle_type_id":"4","last_reported":1729004996,"current_range_meters":16000,"station_id":"ce4bhqp2rcd13ifvqhog","pricing_plan_id":"cebpf4jnsgd1na2vs0mg"},{"bike_id":"336876b1-e78e-46eb-bbdc-d5b26f37fc99","system_id":"levelo_inurba_marseille","lat":43.28266,"lon":5.35064,"is_reserved":false,"is_disabled":false,"rental_uris":{"android":"levelo://app?vid=336876b1-e78e-46eb-bbdc-d5b26f37fc99","ios":"levelo://app?vid=336876b1-e78e-46eb-bbdc-d5b26f37fc99"},"vehicle_type_id":"4","last_reported":1729004996,"current_range_meters":30400,"station_id":"ce4bhbp2rcd13ifvqerg","pricing_plan_id":"cebpf4jnsgd1na2vs0mg"},{"bike_id":"2140b6a3-5118-4150-823e-9225aeb56201","system_id":"levelo_inurba_marseille","lat":43.23195,"lon":5.3555,"is_reserved":false,"is_disabled":false,"rental_uris":{"android":"levelo://app?vid=2140b6a3-5118-4150-823e-9225aeb56201","ios":"levelo://app?vid=2140b6a3-5118-4150-823e-9225aeb56201"},"vehicle_type_id":"4","last_reported":1729004996,"current_range_meters":8400,"station_id":"ce4bhu92rcd13ifvqi70","pricing_plan_id":"cebpf4jnsgd1na2vs0mg"},{"bike_id":"b9aafc66-3c0e-4261-a303-2fa90f872e20","system_id":"levelo_inurba_marseille","lat":43.28275,"lon":5.35074,"is_reserved":false,"is_disabled":false,"rental_uris":{"android":"levelo://app?vid=b9aafc66-3c0e-4261-a303-2fa90f872e20","ios":"levelo://app?vid=b9aafc66-3c0e-4261-a303-2fa90f872e20"},"vehicle_type_id":"4","last_reported":1729004996,"current_range_meters":36000,"station_id":"ce4bhbp2rcd13ifvqerg","pricing_plan_id":"cebpf4jnsgd1na2vs0mg"},{"bike_id":"3535e9f5-f9fb-49dd-9c21-f549edafad0d","system_id":"levelo_inurba_marseille","lat":43.2481,"lon":5.37459,"is_reserved":false,"is_disabled":false,"rental_uris":{"android":"levelo://app?vid=3535e9f5-f9fb-49dd-9c21-f549edafad0d","ios":"levelo://app?vid=3535e9f5-f9fb-49dd-9c21-f549edafad0d"},"vehicle_type_id":"4","last_reported":1729004996,"current_range_meters":12000,"station_id":"ce4bhgh2rcd13ifvqfb0","pricing_plan_id":"cebpf4jnsgd1na2vs0mg"},{"bike_id":"32f57965-98a3-4347-b445-344deea3b5b5","system_id":"levelo_inurba_marseille","lat":43.28284,"lon":5.35083,"is_reserved":false,"is_disabled":false,"rental_uris":{"android":"levelo://app?vid=32f57965-98a3-4347-b445-344deea3b5b5","ios":"levelo://app?vid=32f57965-98a3-4347-b445-344deea3b5b5"},"vehicle_type_id":"4","last_reported":1729004996,"current_range_meters":13600,"station_id":"ce4bhbp2rcd13ifvqerg","pricing_plan_id":"cebpf4jnsgd1na2vs0mg"},{"bike_id":"3cae6dbf-2f90-4eb1-a647-739d29c4291d","system_id":"levelo_inurba_marseille","lat":43.27057,"lon":5.40263,"is_reserved":false,"is_disabled":false,"rental_uris":{"android":"levelo://app?vid=3cae6dbf-2f90-4eb1-a647-739d29c4291d","ios":"levelo://app?vid=3cae6dbf-2f90-4eb1-a647-739d29c4291d"},"vehicle_type_id":"4","last_reported":1729004996,"current_range_meters":36800,"station_id":"ce4bhk92rcd13ifvqgc0","pricing_plan_id":"cebpf4jnsgd1na2vs0mg"},{"bike_id":"2ad82e8a-f389-459d-84fb-b14536bf0d1c","system_id":"levelo_inurba_marseille","lat":43.28288,"lon":5.35076,"is_reserved":false,"is_disabled":false,"rental_uris":{"android":"levelo://app?vid=2ad82e8a-f389-459d-84fb-b14536bf0d1c","ios":"levelo://app?vid=2ad82e8a-f389-459d-84fb-b14536bf0d1c"},"vehicle_type_id":"4","last_reported":1729004996,"current_range_meters":8400,"station_id":"ce4bhbp2rcd13ifvqerg","pricing_plan_id":"cebpf4jnsgd1na2vs0mg"},{"bike_id":"c41c4bd6-4e68-420e-b205-f8c962247a74","system_id":"levelo_inurba_marseille","lat":43.24387,"lon":5.37052,"is_reserved":false,"is_disabled":false,"rental_uris":{"android":"levelo://app?vid=c41c4bd6-4e68-420e-b205-f8c962247a74","ios":"levelo://app?vid=c41c4bd6-4e68-420e-b205-f8c962247a74"},"vehicle_type_id":"4","last_reported":1729004996,"current_range_meters":12800,"station_id":"ce4bhhh2rcd13ifvqfk0","pricing_plan_id":"cebpf4jnsgd1na2vs0mg"},{"bike_id":"08a911ec-ce5a-4ced-a6b0-aa79294606c1","system_id":"levelo_inurba_marseille","lat":43.31173,"lon":5.38716,"is_reserved":false,"is_disabled":false,"rental_uris":{"android":"levelo://app?vid=08a911ec-ce5a-4ced-a6b0-aa79294606c1","ios":"levelo://app?vid=08a911ec-ce5a-4ced-a6b0-aa79294606c1"},"vehicle_type_id":"4","last_reported":1729004996,"current_range_meters":26000,"station_id":"ce4bgv12rcd13ifvqcp0","pricing_plan_id":"cebpf4jnsgd1na2vs0mg"},{"bike_id":"728973a7-fffc-4dcb-a566-e76afa5087d5","system_id":"levelo_inurba_marseille","lat":43.24385,"lon":5.37059,"is_reserved":false,"is_disabled":false,"rental_uris":{"android":"levelo://app?vid=728973a7-fffc-4dcb-a566-e76afa5087d5","ios":"levelo://app?vid=728973a7-fffc-4dcb-a566-e76afa5087d5"},"vehicle_type_id":"4","last_reported":1729004996,"current_range_meters":39200,"station_id":"ce4bhhh2rcd13ifvqfk0","pricing_plan_id":"cebpf4jnsgd1na2vs0mg"},{"bike_id":"e01e41b6-906b-4d38-bd47-8409331ef9cb","system_id":"levelo_inurba_marseille","lat":43.24168,"lon":5.36388,"is_reserved":false,"is_disabled":false,"rental_uris":{"android":"levelo://app?vid=e01e41b6-906b-4d38-bd47-8409331ef9cb","ios":"levelo://app?vid=e01e41b6-906b-4d38-bd47-8409331ef9cb"},"vehicle_type_id":"4","last_reported":1729004996,"current_range_meters":32400,"station_id":"cpo36qri1sfpv3e86is0","pricing_plan_id":"cebpf4jnsgd1na2vs0mg"},{"bike_id":"89211ee2-076f-4df3-92bd-cd8885f2e76d","system_id":"levelo_inurba_marseille","lat":43.23194,"lon":5.35557,"is_reserved":false,"is_disabled":false,"rental_uris":{"android":"levelo://app?vid=89211ee2-076f-4df3-92bd-cd8885f2e76d","ios":"levelo://app?vid=89211ee2-076f-4df3-92bd-cd8885f2e76d"},"vehicle_type_id":"4","last_reported":1729004996,"current_range_meters":38800,"station_id":"ce4bhu92rcd13ifvqi70","pricing_plan_id":"cebpf4jnsgd1na2vs0mg"},{"bike_id":"174c21c7-8d74-4b8b-8600-dbf70f4125ee","system_id":"levelo_inurba_marseille","lat":43.24566,"lon":5.41608,"is_reserved":false,"is_disabled":false,"rental_uris":{"android":"levelo://app?vid=174c21c7-8d74-4b8b-8600-dbf70f4125ee","ios":"levelo://app?vid=174c21c7-8d74-4b8b-8600-dbf70f4125ee"},"vehicle_type_id":"4","last_reported":1729004996,"current_range_meters":3200,"station_id":"","pricing_plan_id":"cebpf4jnsgd1na2vs0mg"},{"bike_id":"9dabbb9f-2820-49db-acc7-73662a324005","system_id":"levelo_inurba_marseille","lat":43.33724,"lon":5.39202,"is_reserved":false,"is_disabled":false,"rental_uris":{"android":"levelo://app?vid=9dabbb9f-2820-49db-acc7-73662a324005","ios":"levelo://app?vid=9dabbb9f-2820-49db-acc7-73662a324005"},"vehicle_type_id":"4","last_reported":1729004996,"current_range_meters":36800,"station_id":"ce4bhr92rcd13ifvqhsg","pricing_plan_id":"cebpf4jnsgd1na2vs0mg"},{"bike_id":"c44448ae-ce3f-4e2e-aee0-3ab3e118394a","system_id":"levelo_inurba_marseille","lat":43.2509,"lon":5.39524,"is_reserved":false,"is_disabled":false,"rental_uris":{"android":"levelo://app?vid=c44448ae-ce3f-4e2e-aee0-3ab3e118394a","ios":"levelo://app?vid=c44448ae-ce3f-4e2e-aee0-3ab3e118394a"},"vehicle_type_id":"4","last_reported":1729004996,"current_range_meters":38800,"station_id":"ce4bhm12rcd13ifvqgkg","pricing_plan_id":"cebpf4jnsgd1na2vs0mg"},{"bike_id":"9f2260d3-2033-43b8-8a21-3a3341713904","system_id":"levelo_inurba_marseille","lat":43.30786,"lon":5.37648,"is_reserved":false,"is_disabled":false,"rental_uris":{"android":"levelo://app?vid=9f2260d3-2033-43b8-8a21-3a3341713904","ios":"levelo://app?vid=9f2260d3-2033-43b8-8a21-3a3341713904"},"vehicle_type_id":"4","last_reported":1729004996,"current_range_meters":28000,"station_id":"ce4bgv92rcd13ifvqcq0","pricing_plan_id":"cebpf4jnsgd1na2vs0mg"},{"bike_id":"c8f92c04-6184-4570-9838-06d33c421e92","system_id":"levelo_inurba_marseille","lat":43.26366,"lon":5.39622,"is_reserved":false,"is_disabled":false,"rental_uris":{"android":"levelo://app?vid=c8f92c04-6184-4570-9838-06d33c421e92","ios":"levelo://app?vid=c8f92c04-6184-4570-9838-06d33c421e92"},"vehicle_type_id":"4","last_reported":1729004996,"current_range_meters":27200,"station_id":"ce4bhl92rcd13ifvqghg","pricing_plan_id":"cebpf4jnsgd1na2vs0mg"},{"bike_id":"d5d3b254-974e-4fcc-aa50-1c9b1f2e2054","system_id":"levelo_inurba_marseille","lat":43.31999,"lon":5.38159,"is_reserved":false,"is_disabled":false,"rental_uris":{"android":"levelo://app?vid=d5d3b254-974e-4fcc-aa50-1c9b1f2e2054","ios":"levelo://app?vid=d5d3b254-974e-4fcc-aa50-1c9b1f2e2054"},"vehicle_type_id":"4","last_reported":1729004996,"current_range_meters":17200,"station_id":"ce4bhr12rcd13ifvqhpg","pricing_plan_id":"cebpf4jnsgd1na2vs0mg"},{"bike_id":"954b8cef-91ce-45b3-9e0e-f6e6ba4bb22f","system_id":"levelo_inurba_marseille","lat":43.30303,"lon":5.39211,"is_reserved":false,"is_disabled":false,"rental_uris":{"android":"levelo://app?vid=954b8cef-91ce-45b3-9e0e-f6e6ba4bb22f","ios":"levelo://app?vid=954b8cef-91ce-45b3-9e0e-f6e6ba4bb22f"},"vehicle_type_id":"4","last_reported":1729004996,"current_range_meters":22800,"station_id":"ce4bgkh2rcd13ifvqbk0","pricing_plan_id":"cebpf4jnsgd1na2vs0mg"},{"bike_id":"6805e279-dd49-41bf-b594-46922953a007","system_id":"levelo_inurba_marseille","lat":43.28277,"lon":5.35081,"is_reserved":false,"is_disabled":false,"rental_uris":{"android":"levelo://app?vid=6805e279-dd49-41bf-b594-46922953a007","ios":"levelo://app?vid=6805e279-dd49-41bf-b594-46922953a007"},"vehicle_type_id":"4","last_reported":1729004996,"current_range_meters":17200,"station_id":"ce4bhbp2rcd13ifvqerg","pricing_plan_id":"cebpf4jnsgd1na2vs0mg"},{"bike_id":"05768fcd-4c88-46a5-a28b-8fab8f860baa","system_id":"levelo_inurba_marseille","lat":43.27804,"lon":5.40701,"is_reserved":false,"is_disabled":false,"rental_uris":{"android":"levelo://app?vid=05768fcd-4c88-46a5-a28b-8fab8f860baa","ios":"levelo://app?vid=05768fcd-4c88-46a5-a28b-8fab8f860baa"},"vehicle_type_id":"4","last_reported":1729004996,"current_range_meters":38400,"station_id":"ce4bhnh2rcd13ifvqgtg","pricing_plan_id":"cebpf4jnsgd1na2vs0mg"},{"bike_id":"246a2644-90db-451b-919c-cf0ebdd93883","system_id":"levelo_inurba_marseille","lat":43.24392,"lon":5.37065,"is_reserved":false,"is_disabled":false,"rental_uris":{"android":"levelo://app?vid=246a2644-90db-451b-919c-cf0ebdd93883","ios":"levelo://app?vid=246a2644-90db-451b-919c-cf0ebdd93883"},"vehicle_type_id":"4","last_reported":1729004996,"current_range_meters":14800,"station_id":"ce4bhhh2rcd13ifvqfk0","pricing_plan_id":"cebpf4jnsgd1na2vs0mg"},{"bike_id":"eac4aedb-cb5f-4186-b682-a76337c006a6","system_id":"levelo_inurba_marseille","lat":43.33024,"lon":5.39045,"is_reserved":false,"is_disabled":false,"rental_uris":{"android":"levelo://app?vid=eac4aedb-cb5f-4186-b682-a76337c006a6","ios":"levelo://app?vid=eac4aedb-cb5f-4186-b682-a76337c006a6"},"vehicle_type_id":"4","last_reported":1729004996,"current_range_meters":9200,"station_id":"ce4bhr92rcd13ifvqhrg","pricing_plan_id":"cebpf4jnsgd1na2vs0mg"},{"bike_id":"6f47d289-9895-46aa-a611-f5456497740e","system_id":"levelo_inurba_marseille","lat":43.29618,"lon":5.37149,"is_reserved":false,"is_disabled":false,"rental_uris":{"android":"levelo://app?vid=6f47d289-9895-46aa-a611-f5456497740e","ios":"levelo://app?vid=6f47d289-9895-46aa-a611-f5456497740e"},"vehicle_type_id":"4","last_reported":1729004996,"current_range_meters":38800,"station_id":"ce4bgnh2rcd13ifvqc0g","pricing_plan_id":"cebpf4jnsgd1na2vs0mg"},{"bike_id":"60c81bb7-d3a1-4d71-8880-70d4228acb84","system_id":"levelo_inurba_marseille","lat":43.27688,"lon":5.38876,"is_reserved":false,"is_disabled":false,"rental_uris":{"android":"levelo://app?vid=60c81bb7-d3a1-4d71-8880-70d4228acb84","ios":"levelo://app?vid=60c81bb7-d3a1-4d71-8880-70d4228acb84"},"vehicle_type_id":"4","last_reported":1729004996,"current_range_meters":38800,"station_id":"ce4bhi12rcd13ifvqfo0","pricing_plan_id":"cebpf4jnsgd1na2vs0mg"},{"bike_id":"ff96eee3-1ac8-4888-9ae7-e4b6cc8154af","system_id":"levelo_inurba_marseille","lat":43.33739,"lon":5.3746,"is_reserved":false,"is_disabled":false,"rental_uris":{"android":"levelo://app?vid=ff96eee3-1ac8-4888-9ae7-e4b6cc8154af","ios":"levelo://app?vid=ff96eee3-1ac8-4888-9ae7-e4b6cc8154af"},"vehicle_type_id":"4","last_reported":1729004996,"current_range_meters":33200,"station_id":"","pricing_plan_id":"cebpf4jnsgd1na2vs0mg"},{"bike_id":"ddd5af8a-0f19-49e8-b291-d1408413b89e","system_id":"levelo_inurba_marseille","lat":43.24183,"lon":5.3973,"is_reserved":false,"is_disabled":false,"rental_uris":{"android":"levelo://app?vid=ddd5af8a-0f19-49e8-b291-d1408413b89e","ios":"levelo://app?vid=ddd5af8a-0f19-49e8-b291-d1408413b89e"},"vehicle_type_id":"4","last_reported":1729004996,"current_range_meters":16400,"station_id":"ce4bhn12rcd13ifvqgpg","pricing_plan_id":"cebpf4jnsgd1na2vs0mg"},{"bike_id":"6fd011cd-9bc9-4cd6-bd8c-523d97b5ad24","system_id":"levelo_inurba_marseille","lat":43.30904,"lon":5.36867,"is_reserved":false,"is_disabled":false,"rental_uris":{"android":"levelo://app?vid=6fd011cd-9bc9-4cd6-bd8c-523d97b5ad24","ios":"levelo://app?vid=6fd011cd-9bc9-4cd6-bd8c-523d97b5ad24"},"vehicle_type_id":"4","last_reported":1729004996,"current_range_meters":38000,"station_id":"ce4bgn92rcd13ifvqbvg","pricing_plan_id":"cebpf4jnsgd1na2vs0mg"},{"bike_id":"b12eb05d-abfa-4a30-bbad-9e31b12be630","system_id":"levelo_inurba_marseille","lat":43.33749,"lon":5.37444,"is_reserved":false,"is_disabled":false,"rental_uris":{"android":"levelo://app?vid=b12eb05d-abfa-4a30-bbad-9e31b12be630","ios":"levelo://app?vid=b12eb05d-abfa-4a30-bbad-9e31b12be630"},"vehicle_type_id":"4","last_reported":1729004996,"current_range_meters":28800,"station_id":"","pricing_plan_id":"cebpf4jnsgd1na2vs0mg"},{"bike_id":"047158ab-ff39-430d-97df-28da85d9c811","system_id":"levelo_inurba_marseille","lat":43.26944,"lon":5.40253,"is_reserved":false,"is_disabled":false,"rental_uris":{"android":"levelo://app?vid=047158ab-ff39-430d-97df-28da85d9c811","ios":"levelo://app?vid=047158ab-ff39-430d-97df-28da85d9c811"},"vehicle_type_id":"4","last_reported":1729004996,"current_range_meters":30400,"station_id":"cjm6bp8fraef2m0cb0m0","pricing_plan_id":"cebpf4jnsgd1na2vs0mg"},{"bike_id":"934f77df-bca4-4cef-ace6-15580fdd27cc","system_id":"levelo_inurba_marseille","lat":43.25117,"lon":5.40318,"is_reserved":false,"is_disabled":false,"rental_uris":{"android":"levelo://app?vid=934f77df-bca4-4cef-ace6-15580fdd27cc","ios":"levelo://app?vid=934f77df-bca4-4cef-ace6-15580fdd27cc"},"vehicle_type_id":"4","last_reported":1729004996,"current_range_meters":20400,"station_id":"ce4bhlh2rcd13ifvqgig","pricing_plan_id":"cebpf4jnsgd1na2vs0mg"},{"bike_id":"6eec72a2-099e-405e-bce3-4af0d9049b8f","system_id":"levelo_inurba_marseille","lat":43.27416,"lon":5.362,"is_reserved":false,"is_disabled":false,"rental_uris":{"android":"levelo://app?vid=6eec72a2-099e-405e-bce3-4af0d9049b8f","ios":"levelo://app?vid=6eec72a2-099e-405e-bce3-4af0d9049b8f"},"vehicle_type_id":"4","last_reported":1729004996,"current_range_meters":19200,"station_id":"","pricing_plan_id":"cebpf4jnsgd1na2vs0mg"},{"bike_id":"5f45750b-8f2c-4623-92b4-548b434eedfd","system_id":"levelo_inurba_marseille","lat":43.28406,"lon":5.37512,"is_reserved":false,"is_disabled":false,"rental_uris":{"android":"levelo://app?vid=5f45750b-8f2c-4623-92b4-548b434eedfd","ios":"levelo://app?vid=5f45750b-8f2c-4623-92b4-548b434eedfd"},"vehicle_type_id":"4","last_reported":1729004996,"current_range_meters":20400,"station_id":"ce4bh412rcd13ifvqds0","pricing_plan_id":"cebpf4jnsgd1na2vs0mg"},{"bike_id":"1f12a327-7628-4fa4-860e-6622089b207c","system_id":"levelo_inurba_marseille","lat":43.28668,"lon":5.36354,"is_reserved":false,"is_disabled":false,"rental_uris":{"android":"levelo://app?vid=1f12a327-7628-4fa4-860e-6622089b207c","ios":"levelo://app?vid=1f12a327-7628-4fa4-860e-6622089b207c"},"vehicle_type_id":"4","last_reported":1729004996,"current_range_meters":8800,"station_id":"ce4bhah2rcd13ifvqej0","pricing_plan_id":"cebpf4jnsgd1na2vs0mg"},{"bike_id":"acf5376f-aa68-4f4e-ba04-752434237ed2","system_id":"levelo_inurba_marseille","lat":43.29623,"lon":5.37167,"is_reserved":false,"is_disabled":false,"rental_uris":{"android":"levelo://app?vid=acf5376f-aa68-4f4e-ba04-752434237ed2","ios":"levelo://app?vid=acf5376f-aa68-4f4e-ba04-752434237ed2"},"vehicle_type_id":"4","last_reported":1729004996,"current_range_meters":28400,"station_id":"ce4bgnh2rcd13ifvqc0g","pricing_plan_id":"cebpf4jnsgd1na2vs0mg"},{"bike_id":"e53adfd7-df6c-4a01-ad12-6f2e1b7ea121","system_id":"levelo_inurba_marseille","lat":43.30535,"lon":5.36719,"is_reserved":false,"is_disabled":false,"rental_uris":{"android":"levelo://app?vid=e53adfd7-df6c-4a01-ad12-6f2e1b7ea121","ios":"levelo://app?vid=e53adfd7-df6c-4a01-ad12-6f2e1b7ea121"},"vehicle_type_id":"4","last_reported":1729004996,"current_range_meters":23200,"station_id":"ce4bgrp2rcd13ifvqc9g","pricing_plan_id":"cebpf4jnsgd1na2vs0mg"},{"bike_id":"292b9425-1372-40d4-bf0a-fe57aa779a41","system_id":"levelo_inurba_marseille","lat":43.23063,"lon":5.35495,"is_reserved":false,"is_disabled":false,"rental_uris":{"android":"levelo://app?vid=292b9425-1372-40d4-bf0a-fe57aa779a41","ios":"levelo://app?vid=292b9425-1372-40d4-bf0a-fe57aa779a41"},"vehicle_type_id":"4","last_reported":1729004996,"current_range_meters":32800,"station_id":"cpo3342slgdg3j2ifvpg","pricing_plan_id":"cebpf4jnsgd1na2vs0mg"},{"bike_id":"f1baba50-f384-4335-a052-af9eda4a52f0","system_id":"levelo_inurba_marseille","lat":43.24391,"lon":5.37053,"is_reserved":false,"is_disabled":false,"rental_uris":{"android":"levelo://app?vid=f1baba50-f384-4335-a052-af9eda4a52f0","ios":"levelo://app?vid=f1baba50-f384-4335-a052-af9eda4a52f0"},"vehicle_type_id":"4","last_reported":1729004996,"current_range_meters":39200,"station_id":"ce4bhhh2rcd13ifvqfk0","pricing_plan_id":"cebpf4jnsgd1na2vs0mg"},{"bike_id":"56f16af0-aae9-463b-b538-2dcaa9dfce56","system_id":"levelo_inurba_marseille","lat":43.2884,"lon":5.39302,"is_reserved":false,"is_disabled":false,"rental_uris":{"android":"levelo://app?vid=56f16af0-aae9-463b-b538-2dcaa9dfce56","ios":"levelo://app?vid=56f16af0-aae9-463b-b538-2dcaa9dfce56"},"vehicle_type_id":"4","last_reported":1729004996,"current_range_meters":32800,"station_id":"ce4bh2p2rcd13ifvqdi0","pricing_plan_id":"cebpf4jnsgd1na2vs0mg"},{"bike_id":"e1d315a9-818f-42ee-a1ff-f0147df88741","system_id":"levelo_inurba_marseille","lat":43.25931,"lon":5.40921,"is_reserved":false,"is_disabled":false,"rental_uris":{"android":"levelo://app?vid=e1d315a9-818f-42ee-a1ff-f0147df88741","ios":"levelo://app?vid=e1d315a9-818f-42ee-a1ff-f0147df88741"},"vehicle_type_id":"4","last_reported":1729004996,"current_range_meters":4800,"station_id":"ce4bhm92rcd13ifvqglg","pricing_plan_id":"cebpf4jnsgd1na2vs0mg"},{"bike_id":"c70a1e62-6d47-4a53-bad4-feb697051e9e","system_id":"levelo_inurba_marseille","lat":43.28067,"lon":5.39656,"is_reserved":false,"is_disabled":false,"rental_uris":{"android":"levelo://app?vid=c70a1e62-6d47-4a53-bad4-feb697051e9e","ios":"levelo://app?vid=c70a1e62-6d47-4a53-bad4-feb697051e9e"},"vehicle_type_id":"4","last_reported":1729004996,"current_range_meters":32000,"station_id":"ce4bho12rcd13ifvqh2g","pricing_plan_id":"cebpf4jnsgd1na2vs0mg"},{"bike_id":"0313d44d-431b-4f8c-901c-86f3da352514","system_id":"levelo_inurba_marseille","lat":43.27817,"lon":5.40368,"is_reserved":false,"is_disabled":false,"rental_uris":{"android":"levelo://app?vid=0313d44d-431b-4f8c-901c-86f3da352514","ios":"levelo://app?vid=0313d44d-431b-4f8c-901c-86f3da352514"},"vehicle_type_id":"4","last_reported":1729004996,"current_range_meters":7200,"station_id":"ce4bhnh2rcd13ifvqgtg","pricing_plan_id":"cebpf4jnsgd1na2vs0mg"},{"bike_id":"d8597bf4-185f-46b0-9306-434905261110","system_id":"levelo_inurba_marseille","lat":43.282752,"lon":5.350746,"is_reserved":false,"is_disabled":false,"rental_uris":{"android":"levelo://app?vid=d8597bf4-185f-46b0-9306-434905261110","ios":"levelo://app?vid=d8597bf4-185f-46b0-9306-434905261110"},"vehicle_type_id":"4","last_reported":1729004996,"current_range_meters":38800,"station_id":"ce4bhbp2rcd13ifvqerg","pricing_plan_id":"cebpf4jnsgd1na2vs0mg"},{"bike_id":"1837187a-440c-4858-8edc-ab196a473b34","system_id":"levelo_inurba_marseille","lat":43.30556,"lon":5.36542,"is_reserved":false,"is_disabled":false,"rental_uris":{"android":"levelo://app?vid=1837187a-440c-4858-8edc-ab196a473b34","ios":"levelo://app?vid=1837187a-440c-4858-8edc-ab196a473b34"},"vehicle_type_id":"4","last_reported":1729004996,"current_range_meters":22800,"station_id":"ce4bgs12rcd13ifvqcag","pricing_plan_id":"cebpf4jnsgd1na2vs0mg"},{"bike_id":"9db01595-f218-4d96-b008-b773b4943803","system_id":"levelo_inurba_marseille","lat":43.2827,"lon":5.35074,"is_reserved":false,"is_disabled":false,"rental_uris":{"android":"levelo://app?vid=9db01595-f218-4d96-b008-b773b4943803","ios":"levelo://app?vid=9db01595-f218-4d96-b008-b773b4943803"},"vehicle_type_id":"4","last_reported":1729004996,"current_range_meters":28800,"station_id":"ce4bhbp2rcd13ifvqerg","pricing_plan_id":"cebpf4jnsgd1na2vs0mg"},{"bike_id":"a419c54d-cbb3-4a18-a3e9-292979ae8859","system_id":"levelo_inurba_marseille","lat":43.30191,"lon":5.36621,"is_reserved":false,"is_disabled":false,"rental_uris":{"android":"levelo://app?vid=a419c54d-cbb3-4a18-a3e9-292979ae8859","ios":"levelo://app?vid=a419c54d-cbb3-4a18-a3e9-292979ae8859"},"vehicle_type_id":"4","last_reported":1729004996,"current_range_meters":29600,"station_id":"ce4bgrh2rcd13ifvqc8g","pricing_plan_id":"cebpf4jnsgd1na2vs0mg"},{"bike_id":"e42a5c5b-19d2-48bc-8dfc-c8514ef28621","system_id":"levelo_inurba_marseille","lat":43.24169,"lon":5.36399,"is_reserved":false,"is_disabled":false,"rental_uris":{"android":"levelo://app?vid=e42a5c5b-19d2-48bc-8dfc-c8514ef28621","ios":"levelo://app?vid=e42a5c5b-19d2-48bc-8dfc-c8514ef28621"},"vehicle_type_id":"4","last_reported":1729004996,"current_range_meters":25200,"station_id":"cpo36qri1sfpv3e86is0","pricing_plan_id":"cebpf4jnsgd1na2vs0mg"},{"bike_id":"10d82534-a77c-4708-9dcc-66ad19dddabb","system_id":"levelo_inurba_marseille","lat":43.30529,"lon":5.36537,"is_reserved":false,"is_disabled":false,"rental_uris":{"android":"levelo://app?vid=10d82534-a77c-4708-9dcc-66ad19dddabb","ios":"levelo://app?vid=10d82534-a77c-4708-9dcc-66ad19dddabb"},"vehicle_type_id":"4","last_reported":1729004996,"current_range_meters":10000,"station_id":"ce4bgs12rcd13ifvqcag","pricing_plan_id":"cebpf4jnsgd1na2vs0mg"},{"bike_id":"bdf2a4d4-e8c9-49b5-8fef-9e8342b09fe7","system_id":"levelo_inurba_marseille","lat":43.23966,"lon":5.36643,"is_reserved":false,"is_disabled":false,"rental_uris":{"android":"levelo://app?vid=bdf2a4d4-e8c9-49b5-8fef-9e8342b09fe7","ios":"levelo://app?vid=bdf2a4d4-e8c9-49b5-8fef-9e8342b09fe7"},"vehicle_type_id":"4","last_reported":1729004996,"current_range_meters":18800,"station_id":"ce4bhi12rcd13ifvqfp0","pricing_plan_id":"cebpf4jnsgd1na2vs0mg"},{"bike_id":"d17a8af0-abbe-4543-a7ad-66e6719bd38c","system_id":"levelo_inurba_marseille","lat":43.28415,"lon":5.37515,"is_reserved":false,"is_disabled":false,"rental_uris":{"android":"levelo://app?vid=d17a8af0-abbe-4543-a7ad-66e6719bd38c","ios":"levelo://app?vid=d17a8af0-abbe-4543-a7ad-66e6719bd38c"},"vehicle_type_id":"4","last_reported":1729004996,"current_range_meters":10000,"station_id":"ce4bh412rcd13ifvqds0","pricing_plan_id":"cebpf4jnsgd1na2vs0mg"},{"bike_id":"478294ba-37af-4e62-8636-600e5d568ace","system_id":"levelo_inurba_marseille","lat":43.25728,"lon":5.4111,"is_reserved":false,"is_disabled":false,"rental_uris":{"android":"levelo://app?vid=478294ba-37af-4e62-8636-600e5d568ace","ios":"levelo://app?vid=478294ba-37af-4e62-8636-600e5d568ace"},"vehicle_type_id":"4","last_reported":1729004996,"current_range_meters":30000,"station_id":"ce4bhkp2rcd13ifvqgd0","pricing_plan_id":"cebpf4jnsgd1na2vs0mg"},{"bike_id":"dd688303-8935-43a0-b5eb-1dc53a9f11de","system_id":"levelo_inurba_marseille","lat":43.29226,"lon":5.36065,"is_reserved":false,"is_disabled":false,"rental_uris":{"android":"levelo://app?vid=dd688303-8935-43a0-b5eb-1dc53a9f11de","ios":"levelo://app?vid=dd688303-8935-43a0-b5eb-1dc53a9f11de"},"vehicle_type_id":"4","last_reported":1729004996,"current_range_meters":38000,"station_id":"ce4bhbh2rcd13ifvqeqg","pricing_plan_id":"cebpf4jnsgd1na2vs0mg"},{"bike_id":"c0467a11-fd71-4600-bbb9-a33dc008e8ef","system_id":"levelo_inurba_marseille","lat":43.300117,"lon":5.400865,"is_reserved":false,"is_disabled":false,"rental_uris":{"android":"levelo://app?vid=c0467a11-fd71-4600-bbb9-a33dc008e8ef","ios":"levelo://app?vid=c0467a11-fd71-4600-bbb9-a33dc008e8ef"},"vehicle_type_id":"4","last_reported":1729004996,"current_range_meters":20800,"station_id":"ce4bh112rcd13ifvqd90","pricing_plan_id":"cebpf4jnsgd1na2vs0mg"},{"bike_id":"d06f24f3-1961-4c39-8b26-c72733863fe9","system_id":"levelo_inurba_marseille","lat":43.33781,"lon":5.37443,"is_reserved":false,"is_disabled":false,"rental_uris":{"android":"levelo://app?vid=d06f24f3-1961-4c39-8b26-c72733863fe9","ios":"levelo://app?vid=d06f24f3-1961-4c39-8b26-c72733863fe9"},"vehicle_type_id":"4","last_reported":1729004996,"current_range_meters":24000,"station_id":"","pricing_plan_id":"cebpf4jnsgd1na2vs0mg"},{"bike_id":"440d1160-e0c7-4a4e-bea7-c5d290f2cd3e","system_id":"levelo_inurba_marseille","lat":43.31715,"lon":5.37746,"is_reserved":false,"is_disabled":false,"rental_uris":{"android":"levelo://app?vid=440d1160-e0c7-4a4e-bea7-c5d290f2cd3e","ios":"levelo://app?vid=440d1160-e0c7-4a4e-bea7-c5d290f2cd3e"},"vehicle_type_id":"4","last_reported":1729004996,"current_range_meters":28000,"station_id":"ce4bgth2rcd13ifvqch0","pricing_plan_id":"cebpf4jnsgd1na2vs0mg"},{"bike_id":"ae29a4d3-43f1-4cc7-a9f3-c165558ad83a","system_id":"levelo_inurba_marseille","lat":43.242798,"lon":5.379701,"is_reserved":false,"is_disabled":false,"rental_uris":{"android":"levelo://app?vid=ae29a4d3-43f1-4cc7-a9f3-c165558ad83a","ios":"levelo://app?vid=ae29a4d3-43f1-4cc7-a9f3-c165558ad83a"},"vehicle_type_id":"4","last_reported":1729004996,"current_range_meters":19200,"station_id":"","pricing_plan_id":"cebpf4jnsgd1na2vs0mg"},{"bike_id":"b3540a48-b930-4f1f-8764-644ac9839ef9","system_id":"levelo_inurba_marseille","lat":43.27618,"lon":5.3612,"is_reserved":false,"is_disabled":false,"rental_uris":{"android":"levelo://app?vid=b3540a48-b930-4f1f-8764-644ac9839ef9","ios":"levelo://app?vid=b3540a48-b930-4f1f-8764-644ac9839ef9"},"vehicle_type_id":"4","last_reported":1729004996,"current_range_meters":39200,"station_id":"ce4bgj92rcd13ifvqbe0","pricing_plan_id":"cebpf4jnsgd1na2vs0mg"},{"bike_id":"561b83e1-2686-484d-9044-2f417a54250f","system_id":"levelo_inurba_marseille","lat":43.28106,"lon":5.37835,"is_reserved":false,"is_disabled":false,"rental_uris":{"android":"levelo://app?vid=561b83e1-2686-484d-9044-2f417a54250f","ios":"levelo://app?vid=561b83e1-2686-484d-9044-2f417a54250f"},"vehicle_type_id":"4","last_reported":1729004996,"current_range_meters":6400,"station_id":"ce4bha12rcd13ifvqee0","pricing_plan_id":"cebpf4jnsgd1na2vs0mg"},{"bike_id":"d41309ab-1a1f-4395-acaa-455483c3f8e1","system_id":"levelo_inurba_marseille","lat":43.23195,"lon":5.3555,"is_reserved":false,"is_disabled":false,"rental_uris":{"android":"levelo://app?vid=d41309ab-1a1f-4395-acaa-455483c3f8e1","ios":"levelo://app?vid=d41309ab-1a1f-4395-acaa-455483c3f8e1"},"vehicle_type_id":"4","last_reported":1729004996,"current_range_meters":32000,"station_id":"ce4bhu92rcd13ifvqi70","pricing_plan_id":"cebpf4jnsgd1na2vs0mg"},{"bike_id":"12821703-290e-40a1-84ef-df3ec89aed1f","system_id":"levelo_inurba_marseille","lat":43.28557,"lon":5.39495,"is_reserved":false,"is_disabled":false,"rental_uris":{"android":"levelo://app?vid=12821703-290e-40a1-84ef-df3ec89aed1f","ios":"levelo://app?vid=12821703-290e-40a1-84ef-df3ec89aed1f"},"vehicle_type_id":"4","last_reported":1729004996,"current_range_meters":8400,"station_id":"ce4bh292rcd13ifvqdg0","pricing_plan_id":"cebpf4jnsgd1na2vs0mg"},{"bike_id":"fb53d12b-e382-42c0-9dec-a4d7f296df78","system_id":"levelo_inurba_marseille","lat":43.29541,"lon":5.374975,"is_reserved":false,"is_disabled":false,"rental_uris":{"android":"levelo://app?vid=fb53d12b-e382-42c0-9dec-a4d7f296df78","ios":"levelo://app?vid=fb53d12b-e382-42c0-9dec-a4d7f296df78"},"vehicle_type_id":"4","last_reported":1729004996,"current_range_meters":36400,"station_id":"ce4bgkp2rcd13ifvqbmg","pricing_plan_id":"cebpf4jnsgd1na2vs0mg"},{"bike_id":"1236bbf7-ed03-4263-9ab4-884e4d68a5c4","system_id":"levelo_inurba_marseille","lat":43.32478,"lon":5.3657,"is_reserved":false,"is_disabled":false,"rental_uris":{"android":"levelo://app?vid=1236bbf7-ed03-4263-9ab4-884e4d68a5c4","ios":"levelo://app?vid=1236bbf7-ed03-4263-9ab4-884e4d68a5c4"},"vehicle_type_id":"4","last_reported":1729004996,"current_range_meters":39200,"station_id":"ce4bhs12rcd13ifvqhvg","pricing_plan_id":"cebpf4jnsgd1na2vs0mg"},{"bike_id":"00580030-e939-4f91-a036-9143e8555b37","system_id":"levelo_inurba_marseille","lat":43.27059,"lon":5.40266,"is_reserved":false,"is_disabled":false,"rental_uris":{"android":"levelo://app?vid=00580030-e939-4f91-a036-9143e8555b37","ios":"levelo://app?vid=00580030-e939-4f91-a036-9143e8555b37"},"vehicle_type_id":"4","last_reported":1729004996,"current_range_meters":22800,"station_id":"ce4bhk92rcd13ifvqgc0","pricing_plan_id":"cebpf4jnsgd1na2vs0mg"},{"bike_id":"5902d4e2-c1e7-4051-89a5-ad7c37184a86","system_id":"levelo_inurba_marseille","lat":43.29884,"lon":5.38905,"is_reserved":false,"is_disabled":false,"rental_uris":{"android":"levelo://app?vid=5902d4e2-c1e7-4051-89a5-ad7c37184a86","ios":"levelo://app?vid=5902d4e2-c1e7-4051-89a5-ad7c37184a86"},"vehicle_type_id":"4","last_reported":1729004996,"current_range_meters":27200,"station_id":"ce4bh392rcd13ifvqdl0","pricing_plan_id":"cebpf4jnsgd1na2vs0mg"},{"bike_id":"dac617bd-3784-423e-8674-e55e8cd97419","system_id":"levelo_inurba_marseille","lat":43.30651,"lon":5.40084,"is_reserved":false,"is_disabled":false,"rental_uris":{"android":"levelo://app?vid=dac617bd-3784-423e-8674-e55e8cd97419","ios":"levelo://app?vid=dac617bd-3784-423e-8674-e55e8cd97419"},"vehicle_type_id":"4","last_reported":1729004996,"current_range_meters":35200,"station_id":"ce4bh112rcd13ifvqda0","pricing_plan_id":"cebpf4jnsgd1na2vs0mg"},{"bike_id":"9f02082c-c716-444a-b3e5-48ca4fb4b84f","system_id":"levelo_inurba_marseille","lat":43.30544,"lon":5.36553,"is_reserved":false,"is_disabled":false,"rental_uris":{"android":"levelo://app?vid=9f02082c-c716-444a-b3e5-48ca4fb4b84f","ios":"levelo://app?vid=9f02082c-c716-444a-b3e5-48ca4fb4b84f"},"vehicle_type_id":"4","last_reported":1729004996,"current_range_meters":39200,"station_id":"ce4bgs12rcd13ifvqcag","pricing_plan_id":"cebpf4jnsgd1na2vs0mg"},{"bike_id":"36305db5-5383-4724-a84f-9618a3d5c3db","system_id":"levelo_inurba_marseille","lat":43.27057,"lon":5.40258,"is_reserved":false,"is_disabled":false,"rental_uris":{"android":"levelo://app?vid=36305db5-5383-4724-a84f-9618a3d5c3db","ios":"levelo://app?vid=36305db5-5383-4724-a84f-9618a3d5c3db"},"vehicle_type_id":"4","last_reported":1729004996,"current_range_meters":17200,"station_id":"ce4bhk92rcd13ifvqgc0","pricing_plan_id":"cebpf4jnsgd1na2vs0mg"},{"bike_id":"b29ecf1c-29c9-42bd-a1b6-0a2acec2e4c2","system_id":"levelo_inurba_marseille","lat":43.27614,"lon":5.36104,"is_reserved":false,"is_disabled":false,"rental_uris":{"android":"levelo://app?vid=b29ecf1c-29c9-42bd-a1b6-0a2acec2e4c2","ios":"levelo://app?vid=b29ecf1c-29c9-42bd-a1b6-0a2acec2e4c2"},"vehicle_type_id":"4","last_reported":1729004996,"current_range_meters":3200,"station_id":"ce4bgj92rcd13ifvqbe0","pricing_plan_id":"cebpf4jnsgd1na2vs0mg"},{"bike_id":"9c3924a0-7772-4540-9d08-03db3f5ab423","system_id":"levelo_inurba_marseille","lat":43.2741,"lon":5.39067,"is_reserved":false,"is_disabled":false,"rental_uris":{"android":"levelo://app?vid=9c3924a0-7772-4540-9d08-03db3f5ab423","ios":"levelo://app?vid=9c3924a0-7772-4540-9d08-03db3f5ab423"},"vehicle_type_id":"4","last_reported":1729004996,"current_range_meters":36000,"station_id":"ce4bh412rcd13ifvqdr0","pricing_plan_id":"cebpf4jnsgd1na2vs0mg"},{"bike_id":"1af2813b-98a0-4b62-aaf8-89652b30f639","system_id":"levelo_inurba_marseille","lat":43.22933,"lon":5.35381,"is_reserved":false,"is_disabled":false,"rental_uris":{"android":"levelo://app?vid=1af2813b-98a0-4b62-aaf8-89652b30f639","ios":"levelo://app?vid=1af2813b-98a0-4b62-aaf8-89652b30f639"},"vehicle_type_id":"4","last_reported":1729004996,"current_range_meters":29600,"station_id":"cpo3532slgdg3j2ikp40","pricing_plan_id":"cebpf4jnsgd1na2vs0mg"},{"bike_id":"c518c0ad-ff11-4118-99a7-cda4d00057bb","system_id":"levelo_inurba_marseille","lat":43.29625,"lon":5.37155,"is_reserved":false,"is_disabled":false,"rental_uris":{"android":"levelo://app?vid=c518c0ad-ff11-4118-99a7-cda4d00057bb","ios":"levelo://app?vid=c518c0ad-ff11-4118-99a7-cda4d00057bb"},"vehicle_type_id":"4","last_reported":1729004996,"current_range_meters":38800,"station_id":"ce4bgnh2rcd13ifvqc0g","pricing_plan_id":"cebpf4jnsgd1na2vs0mg"},{"bike_id":"f93454e1-a669-4c63-a4ca-b572042c7971","system_id":"levelo_inurba_marseille","lat":43.23192,"lon":5.35558,"is_reserved":false,"is_disabled":false,"rental_uris":{"android":"levelo://app?vid=f93454e1-a669-4c63-a4ca-b572042c7971","ios":"levelo://app?vid=f93454e1-a669-4c63-a4ca-b572042c7971"},"vehicle_type_id":"4","last_reported":1729004996,"current_range_meters":25200,"station_id":"ce4bhu92rcd13ifvqi70","pricing_plan_id":"cebpf4jnsgd1na2vs0mg"},{"bike_id":"ecbe4e62-7d43-40bf-8510-ec181d405e03","system_id":"levelo_inurba_marseille","lat":43.2417,"lon":5.36395,"is_reserved":false,"is_disabled":false,"rental_uris":{"android":"levelo://app?vid=ecbe4e62-7d43-40bf-8510-ec181d405e03","ios":"levelo://app?vid=ecbe4e62-7d43-40bf-8510-ec181d405e03"},"vehicle_type_id":"4","last_reported":1729004996,"current_range_meters":24000,"station_id":"cpo36qri1sfpv3e86is0","pricing_plan_id":"cebpf4jnsgd1na2vs0mg"},{"bike_id":"167a3dcd-afcd-457e-8998-67360ace43c0","system_id":"levelo_inurba_marseille","lat":43.3375,"lon":5.37436,"is_reserved":false,"is_disabled":false,"rental_uris":{"android":"levelo://app?vid=167a3dcd-afcd-457e-8998-67360ace43c0","ios":"levelo://app?vid=167a3dcd-afcd-457e-8998-67360ace43c0"},"vehicle_type_id":"4","last_reported":1729004996,"current_range_meters":34000,"station_id":"","pricing_plan_id":"cebpf4jnsgd1na2vs0mg"},{"bike_id":"e890e235-e2ff-4a16-a8bd-4258b9a5605c","system_id":"levelo_inurba_marseille","lat":43.28279,"lon":5.3508,"is_reserved":false,"is_disabled":false,"rental_uris":{"android":"levelo://app?vid=e890e235-e2ff-4a16-a8bd-4258b9a5605c","ios":"levelo://app?vid=e890e235-e2ff-4a16-a8bd-4258b9a5605c"},"vehicle_type_id":"4","last_reported":1729004996,"current_range_meters":27200,"station_id":"ce4bhbp2rcd13ifvqerg","pricing_plan_id":"cebpf4jnsgd1na2vs0mg"},{"bike_id":"11af4c56-3918-45fe-865d-9cf9acc3a4ad","system_id":"levelo_inurba_marseille","lat":43.29581,"lon":5.36743,"is_reserved":false,"is_disabled":false,"rental_uris":{"android":"levelo://app?vid=11af4c56-3918-45fe-865d-9cf9acc3a4ad","ios":"levelo://app?vid=11af4c56-3918-45fe-865d-9cf9acc3a4ad"},"vehicle_type_id":"4","last_reported":1729004996,"current_range_meters":28000,"station_id":"ce4bgph2rcd13ifvqc2g","pricing_plan_id":"cebpf4jnsgd1na2vs0mg"},{"bike_id":"982702e0-e3ed-4c76-9014-7f4427361df7","system_id":"levelo_inurba_marseille","lat":43.25714,"lon":5.41112,"is_reserved":false,"is_disabled":false,"rental_uris":{"android":"levelo://app?vid=982702e0-e3ed-4c76-9014-7f4427361df7","ios":"levelo://app?vid=982702e0-e3ed-4c76-9014-7f4427361df7"},"vehicle_type_id":"4","last_reported":1729004996,"current_range_meters":15200,"station_id":"ce4bhkp2rcd13ifvqgd0","pricing_plan_id":"cebpf4jnsgd1na2vs0mg"},{"bike_id":"206cea7b-8426-4b27-b16f-74468c4a3732","system_id":"levelo_inurba_marseille","lat":43.24804,"lon":5.37454,"is_reserved":false,"is_disabled":false,"rental_uris":{"android":"levelo://app?vid=206cea7b-8426-4b27-b16f-74468c4a3732","ios":"levelo://app?vid=206cea7b-8426-4b27-b16f-74468c4a3732"},"vehicle_type_id":"4","last_reported":1729004996,"current_range_meters":14400,"station_id":"ce4bhgh2rcd13ifvqfb0","pricing_plan_id":"cebpf4jnsgd1na2vs0mg"},{"bike_id":"ff4334c5-6df2-43fa-b038-2826f72dc78f","system_id":"levelo_inurba_marseille","lat":43.2418,"lon":5.3973,"is_reserved":false,"is_disabled":false,"rental_uris":{"android":"levelo://app?vid=ff4334c5-6df2-43fa-b038-2826f72dc78f","ios":"levelo://app?vid=ff4334c5-6df2-43fa-b038-2826f72dc78f"},"vehicle_type_id":"4","last_reported":1729004996,"current_range_meters":31200,"station_id":"ce4bhn12rcd13ifvqgpg","pricing_plan_id":"cebpf4jnsgd1na2vs0mg"},{"bike_id":"08a86694-f9eb-427e-8050-e61a1004db93","system_id":"levelo_inurba_marseille","lat":43.306221,"lon":5.400609,"is_reserved":false,"is_disabled":false,"rental_uris":{"android":"levelo://app?vid=08a86694-f9eb-427e-8050-e61a1004db93","ios":"levelo://app?vid=08a86694-f9eb-427e-8050-e61a1004db93"},"vehicle_type_id":"4","last_reported":1729004996,"current_range_meters":38800,"station_id":"ce4bhop2rcd13ifvqh7g","pricing_plan_id":"cebpf4jnsgd1na2vs0mg"},{"bike_id":"fa60f5b8-7624-461c-b085-94c38192671d","system_id":"levelo_inurba_marseille","lat":43.27074,"lon":5.40759,"is_reserved":false,"is_disabled":false,"rental_uris":{"android":"levelo://app?vid=fa60f5b8-7624-461c-b085-94c38192671d","ios":"levelo://app?vid=fa60f5b8-7624-461c-b085-94c38192671d"},"vehicle_type_id":"4","last_reported":1729004996,"current_range_meters":33200,"station_id":"ce4bhl12rcd13ifvqgf0","pricing_plan_id":"cebpf4jnsgd1na2vs0mg"},{"bike_id":"4a1bb39f-6446-490b-92ae-3898cb1a89ed","system_id":"levelo_inurba_marseille","lat":43.29915,"lon":5.38132,"is_reserved":false,"is_disabled":false,"rental_uris":{"android":"levelo://app?vid=4a1bb39f-6446-490b-92ae-3898cb1a89ed","ios":"levelo://app?vid=4a1bb39f-6446-490b-92ae-3898cb1a89ed"},"vehicle_type_id":"4","last_reported":1729004996,"current_range_meters":38400,"station_id":"ce4bgj12rcd13ifvqbc0","pricing_plan_id":"cebpf4jnsgd1na2vs0mg"},{"bike_id":"1b87c42d-7c50-4b92-8a66-53344aea6fcd","system_id":"levelo_inurba_marseille","lat":43.29896,"lon":5.4367,"is_reserved":false,"is_disabled":false,"rental_uris":{"android":"levelo://app?vid=1b87c42d-7c50-4b92-8a66-53344aea6fcd","ios":"levelo://app?vid=1b87c42d-7c50-4b92-8a66-53344aea6fcd"},"vehicle_type_id":"4","last_reported":1729004996,"current_range_meters":27200,"station_id":"ce4bhpp2rcd13ifvqhfg","pricing_plan_id":"cebpf4jnsgd1na2vs0mg"},{"bike_id":"7dcb3bba-20f4-44c1-b614-f92b714c7908","system_id":"levelo_inurba_marseille","lat":43.28274,"lon":5.35071,"is_reserved":false,"is_disabled":false,"rental_uris":{"android":"levelo://app?vid=7dcb3bba-20f4-44c1-b614-f92b714c7908","ios":"levelo://app?vid=7dcb3bba-20f4-44c1-b614-f92b714c7908"},"vehicle_type_id":"4","last_reported":1729004996,"current_range_meters":8800,"station_id":"ce4bhbp2rcd13ifvqerg","pricing_plan_id":"cebpf4jnsgd1na2vs0mg"},{"bike_id":"654078bf-52ce-4cd7-9fb8-b05f8c2ddc6f","system_id":"levelo_inurba_marseille","lat":43.27059,"lon":5.40263,"is_reserved":false,"is_disabled":false,"rental_uris":{"android":"levelo://app?vid=654078bf-52ce-4cd7-9fb8-b05f8c2ddc6f","ios":"levelo://app?vid=654078bf-52ce-4cd7-9fb8-b05f8c2ddc6f"},"vehicle_type_id":"4","last_reported":1729004996,"current_range_meters":16800,"station_id":"ce4bhk92rcd13ifvqgc0","pricing_plan_id":"cebpf4jnsgd1na2vs0mg"},{"bike_id":"5f1b45ed-ae41-4418-9b9f-2b9eac4fafcd","system_id":"levelo_inurba_marseille","lat":43.2993,"lon":5.37468,"is_reserved":false,"is_disabled":false,"rental_uris":{"android":"levelo://app?vid=5f1b45ed-ae41-4418-9b9f-2b9eac4fafcd","ios":"levelo://app?vid=5f1b45ed-ae41-4418-9b9f-2b9eac4fafcd"},"vehicle_type_id":"4","last_reported":1729004996,"current_range_meters":10800,"station_id":"ce4bgjh2rcd13ifvqbg0","pricing_plan_id":"cebpf4jnsgd1na2vs0mg"},{"bike_id":"35079bfa-9f11-43bd-97f8-36d54bf92833","system_id":"levelo_inurba_marseille","lat":43.33758,"lon":5.37454,"is_reserved":false,"is_disabled":false,"rental_uris":{"android":"levelo://app?vid=35079bfa-9f11-43bd-97f8-36d54bf92833","ios":"levelo://app?vid=35079bfa-9f11-43bd-97f8-36d54bf92833"},"vehicle_type_id":"4","last_reported":1729004996,"current_range_meters":36400,"station_id":"","pricing_plan_id":"cebpf4jnsgd1na2vs0mg"},{"bike_id":"f89d27eb-34ff-4c5e-a463-4b44dea93d4e","system_id":"levelo_inurba_marseille","lat":43.22929,"lon":5.35377,"is_reserved":false,"is_disabled":false,"rental_uris":{"android":"levelo://app?vid=f89d27eb-34ff-4c5e-a463-4b44dea93d4e","ios":"levelo://app?vid=f89d27eb-34ff-4c5e-a463-4b44dea93d4e"},"vehicle_type_id":"4","last_reported":1729004996,"current_range_meters":12800,"station_id":"cpo3532slgdg3j2ikp40","pricing_plan_id":"cebpf4jnsgd1na2vs0mg"},{"bike_id":"98de3cae-4984-4435-bbd9-3f7502c7c48b","system_id":"levelo_inurba_marseille","lat":43.27059,"lon":5.40255,"is_reserved":false,"is_disabled":false,"rental_uris":{"android":"levelo://app?vid=98de3cae-4984-4435-bbd9-3f7502c7c48b","ios":"levelo://app?vid=98de3cae-4984-4435-bbd9-3f7502c7c48b"},"vehicle_type_id":"4","last_reported":1729004996,"current_range_meters":10800,"station_id":"ce4bhk92rcd13ifvqgc0","pricing_plan_id":"cebpf4jnsgd1na2vs0mg"},{"bike_id":"11379aa6-17d9-45c7-8539-abb4d1c50ddc","system_id":"levelo_inurba_marseille","lat":43.28569,"lon":5.39505,"is_reserved":false,"is_disabled":false,"rental_uris":{"android":"levelo://app?vid=11379aa6-17d9-45c7-8539-abb4d1c50ddc","ios":"levelo://app?vid=11379aa6-17d9-45c7-8539-abb4d1c50ddc"},"vehicle_type_id":"4","last_reported":1729004996,"current_range_meters":38800,"station_id":"ce4bh292rcd13ifvqdg0","pricing_plan_id":"cebpf4jnsgd1na2vs0mg"},{"bike_id":"f269126c-1b0b-4a1a-a1d6-f8c3716f5336","system_id":"levelo_inurba_marseille","lat":43.23197,"lon":5.35554,"is_reserved":false,"is_disabled":false,"rental_uris":{"android":"levelo://app?vid=f269126c-1b0b-4a1a-a1d6-f8c3716f5336","ios":"levelo://app?vid=f269126c-1b0b-4a1a-a1d6-f8c3716f5336"},"vehicle_type_id":"4","last_reported":1729004996,"current_range_meters":32400,"station_id":"ce4bhu92rcd13ifvqi70","pricing_plan_id":"cebpf4jnsgd1na2vs0mg"},{"bike_id":"94d48054-be54-488d-a425-2deb433f452c","system_id":"levelo_inurba_marseille","lat":43.29804,"lon":5.36433,"is_reserved":false,"is_disabled":false,"rental_uris":{"android":"levelo://app?vid=94d48054-be54-488d-a425-2deb433f452c","ios":"levelo://app?vid=94d48054-be54-488d-a425-2deb433f452c"},"vehicle_type_id":"4","last_reported":1729004996,"current_range_meters":24400,"station_id":"ce4bgnh2rcd13ifvqc0g","pricing_plan_id":"cebpf4jnsgd1na2vs0mg"},{"bike_id":"e21f31db-12b1-4f12-94d0-b134dd1309cc","system_id":"levelo_inurba_marseille","lat":43.30798,"lon":5.38154,"is_reserved":false,"is_disabled":false,"rental_uris":{"android":"levelo://app?vid=e21f31db-12b1-4f12-94d0-b134dd1309cc","ios":"levelo://app?vid=e21f31db-12b1-4f12-94d0-b134dd1309cc"},"vehicle_type_id":"4","last_reported":1729004996,"current_range_meters":26800,"station_id":"ce4bgt12rcd13ifvqce0","pricing_plan_id":"cebpf4jnsgd1na2vs0mg"},{"bike_id":"1dc45833-2cc0-45f6-8023-b2a9962a7033","system_id":"levelo_inurba_marseille","lat":43.27599,"lon":5.384,"is_reserved":false,"is_disabled":false,"rental_uris":{"android":"levelo://app?vid=1dc45833-2cc0-45f6-8023-b2a9962a7033","ios":"levelo://app?vid=1dc45833-2cc0-45f6-8023-b2a9962a7033"},"vehicle_type_id":"4","last_reported":1729004996,"current_range_meters":4000,"station_id":"ce4bhh92rcd13ifvqfi0","pricing_plan_id":"cebpf4jnsgd1na2vs0mg"},{"bike_id":"14ec08ed-3803-4409-89e3-ad9283233d7d","system_id":"levelo_inurba_marseille","lat":43.25725,"lon":5.41106,"is_reserved":false,"is_disabled":false,"rental_uris":{"android":"levelo://app?vid=14ec08ed-3803-4409-89e3-ad9283233d7d","ios":"levelo://app?vid=14ec08ed-3803-4409-89e3-ad9283233d7d"},"vehicle_type_id":"4","last_reported":1729004996,"current_range_meters":35600,"station_id":"ce4bhkp2rcd13ifvqgd0","pricing_plan_id":"cebpf4jnsgd1na2vs0mg"},{"bike_id":"1616c9ce-4d58-4b41-a0ce-686df9d6f698","system_id":"levelo_inurba_marseille","lat":43.27811,"lon":5.40718,"is_reserved":false,"is_disabled":false,"rental_uris":{"android":"levelo://app?vid=1616c9ce-4d58-4b41-a0ce-686df9d6f698","ios":"levelo://app?vid=1616c9ce-4d58-4b41-a0ce-686df9d6f698"},"vehicle_type_id":"4","last_reported":1729004996,"current_range_meters":19200,"station_id":"ce4bhnh2rcd13ifvqgtg","pricing_plan_id":"cebpf4jnsgd1na2vs0mg"},{"bike_id":"33708869-c44a-4453-a0af-f4a6d0851ea1","system_id":"levelo_inurba_marseille","lat":43.2958,"lon":5.36742,"is_reserved":false,"is_disabled":false,"rental_uris":{"android":"levelo://app?vid=33708869-c44a-4453-a0af-f4a6d0851ea1","ios":"levelo://app?vid=33708869-c44a-4453-a0af-f4a6d0851ea1"},"vehicle_type_id":"4","last_reported":1729004996,"current_range_meters":25200,"station_id":"ce4bgph2rcd13ifvqc2g","pricing_plan_id":"cebpf4jnsgd1na2vs0mg"},{"bike_id":"ef2ad08a-39d0-4e7d-b2bd-cd4032a1a622","system_id":"levelo_inurba_marseille","lat":43.26205,"lon":5.37928,"is_reserved":false,"is_disabled":false,"rental_uris":{"android":"levelo://app?vid=ef2ad08a-39d0-4e7d-b2bd-cd4032a1a622","ios":"levelo://app?vid=ef2ad08a-39d0-4e7d-b2bd-cd4032a1a622"},"vehicle_type_id":"4","last_reported":1729004996,"current_range_meters":6000,"station_id":"ce4bhjp2rcd13ifvqg90","pricing_plan_id":"cebpf4jnsgd1na2vs0mg"},{"bike_id":"6e5c46e3-b28c-43fc-a8d5-1f3cb78768d4","system_id":"levelo_inurba_marseille","lat":43.30539,"lon":5.36544,"is_reserved":false,"is_disabled":false,"rental_uris":{"android":"levelo://app?vid=6e5c46e3-b28c-43fc-a8d5-1f3cb78768d4","ios":"levelo://app?vid=6e5c46e3-b28c-43fc-a8d5-1f3cb78768d4"},"vehicle_type_id":"4","last_reported":1729004996,"current_range_meters":38000,"station_id":"ce4bgs12rcd13ifvqcag","pricing_plan_id":"cebpf4jnsgd1na2vs0mg"},{"bike_id":"82c8f8bb-158e-4bba-a201-36794094dfd3","system_id":"levelo_inurba_marseille","lat":43.290527,"lon":5.380114,"is_reserved":false,"is_disabled":false,"rental_uris":{"android":"levelo://app?vid=82c8f8bb-158e-4bba-a201-36794094dfd3","ios":"levelo://app?vid=82c8f8bb-158e-4bba-a201-36794094dfd3"},"vehicle_type_id":"4","last_reported":1729004996,"current_range_meters":3600,"station_id":"ce4bh4p2rcd13ifvqe1g","pricing_plan_id":"cebpf4jnsgd1na2vs0mg"},{"bike_id":"5b7a7e19-1574-4a51-a31f-dcb7ed0f613d","system_id":"levelo_inurba_marseille","lat":43.29198,"lon":5.35794,"is_reserved":false,"is_disabled":false,"rental_uris":{"android":"levelo://app?vid=5b7a7e19-1574-4a51-a31f-dcb7ed0f613d","ios":"levelo://app?vid=5b7a7e19-1574-4a51-a31f-dcb7ed0f613d"},"vehicle_type_id":"4","last_reported":1729004996,"current_range_meters":30000,"station_id":"ce4bhb12rcd13ifvqel0","pricing_plan_id":"cebpf4jnsgd1na2vs0mg"},{"bike_id":"584d1158-e8cf-456b-8583-c037a78c8485","system_id":"levelo_inurba_marseille","lat":43.29693,"lon":5.373,"is_reserved":false,"is_disabled":false,"rental_uris":{"android":"levelo://app?vid=584d1158-e8cf-456b-8583-c037a78c8485","ios":"levelo://app?vid=584d1158-e8cf-456b-8583-c037a78c8485"},"vehicle_type_id":"4","last_reported":1729004996,"current_range_meters":24000,"station_id":"ce4bgk12rcd13ifvqbj0","pricing_plan_id":"cebpf4jnsgd1na2vs0mg"},{"bike_id":"0e41df3a-0ace-488c-be65-6a9fd2305448","system_id":"levelo_inurba_marseille","lat":43.33756,"lon":5.37448,"is_reserved":false,"is_disabled":false,"rental_uris":{"android":"levelo://app?vid=0e41df3a-0ace-488c-be65-6a9fd2305448","ios":"levelo://app?vid=0e41df3a-0ace-488c-be65-6a9fd2305448"},"vehicle_type_id":"4","last_reported":1729004996,"current_range_meters":34800,"station_id":"","pricing_plan_id":"cebpf4jnsgd1na2vs0mg"},{"bike_id":"c59a639a-2965-4ef8-98f3-9d4e5a9cb991","system_id":"levelo_inurba_marseille","lat":43.29618,"lon":5.38115,"is_reserved":false,"is_disabled":false,"rental_uris":{"android":"levelo://app?vid=c59a639a-2965-4ef8-98f3-9d4e5a9cb991","ios":"levelo://app?vid=c59a639a-2965-4ef8-98f3-9d4e5a9cb991"},"vehicle_type_id":"4","last_reported":1729004996,"current_range_meters":32800,"station_id":"ce4bgl12rcd13ifvqbo0","pricing_plan_id":"cebpf4jnsgd1na2vs0mg"},{"bike_id":"e9a9d914-07d4-4e81-a9ad-1707a37b3037","system_id":"levelo_inurba_marseille","lat":43.29421,"lon":5.38621,"is_reserved":false,"is_disabled":false,"rental_uris":{"android":"levelo://app?vid=e9a9d914-07d4-4e81-a9ad-1707a37b3037","ios":"levelo://app?vid=e9a9d914-07d4-4e81-a9ad-1707a37b3037"},"vehicle_type_id":"4","last_reported":1729004996,"current_range_meters":4800,"station_id":"ce4bh2h2rcd13ifvqdh0","pricing_plan_id":"cebpf4jnsgd1na2vs0mg"},{"bike_id":"a9e0b30b-4ab6-4186-ae96-498a29877d64","system_id":"levelo_inurba_marseille","lat":43.28276,"lon":5.35083,"is_reserved":false,"is_disabled":false,"rental_uris":{"android":"levelo://app?vid=a9e0b30b-4ab6-4186-ae96-498a29877d64","ios":"levelo://app?vid=a9e0b30b-4ab6-4186-ae96-498a29877d64"},"vehicle_type_id":"4","last_reported":1729004996,"current_range_meters":23200,"station_id":"ce4bhbp2rcd13ifvqerg","pricing_plan_id":"cebpf4jnsgd1na2vs0mg"},{"bike_id":"74795cd8-9876-4fcf-9964-e574483d722c","system_id":"levelo_inurba_marseille","lat":43.31713,"lon":5.37731,"is_reserved":false,"is_disabled":false,"rental_uris":{"android":"levelo://app?vid=74795cd8-9876-4fcf-9964-e574483d722c","ios":"levelo://app?vid=74795cd8-9876-4fcf-9964-e574483d722c"},"vehicle_type_id":"4","last_reported":1729004996,"current_range_meters":35200,"station_id":"ce4bgth2rcd13ifvqch0","pricing_plan_id":"cebpf4jnsgd1na2vs0mg"},{"bike_id":"01ec7bdc-2aea-4cff-ba98-ca3293592064","system_id":"levelo_inurba_marseille","lat":43.33749,"lon":5.37443,"is_reserved":false,"is_disabled":false,"rental_uris":{"android":"levelo://app?vid=01ec7bdc-2aea-4cff-ba98-ca3293592064","ios":"levelo://app?vid=01ec7bdc-2aea-4cff-ba98-ca3293592064"},"vehicle_type_id":"4","last_reported":1729004996,"current_range_meters":37600,"station_id":"","pricing_plan_id":"cebpf4jnsgd1na2vs0mg"},{"bike_id":"d03e56ad-2f49-4139-bd6a-81c717898584","system_id":"levelo_inurba_marseille","lat":43.24171,"lon":5.364,"is_reserved":false,"is_disabled":false,"rental_uris":{"android":"levelo://app?vid=d03e56ad-2f49-4139-bd6a-81c717898584","ios":"levelo://app?vid=d03e56ad-2f49-4139-bd6a-81c717898584"},"vehicle_type_id":"4","last_reported":1729004996,"current_range_meters":6000,"station_id":"cpo36qri1sfpv3e86is0","pricing_plan_id":"cebpf4jnsgd1na2vs0mg"},{"bike_id":"22238b4f-3695-4944-ab94-2c0b6aa63273","system_id":"levelo_inurba_marseille","lat":43.232,"lon":5.35545,"is_reserved":false,"is_disabled":false,"rental_uris":{"android":"levelo://app?vid=22238b4f-3695-4944-ab94-2c0b6aa63273","ios":"levelo://app?vid=22238b4f-3695-4944-ab94-2c0b6aa63273"},"vehicle_type_id":"4","last_reported":1729004996,"current_range_meters":17600,"station_id":"ce4bhu92rcd13ifvqi70","pricing_plan_id":"cebpf4jnsgd1na2vs0mg"},{"bike_id":"3dd0eabc-5267-4f80-a595-8c868b1c3429","system_id":"levelo_inurba_marseille","lat":43.283498,"lon":5.380986,"is_reserved":false,"is_disabled":false,"rental_uris":{"android":"levelo://app?vid=3dd0eabc-5267-4f80-a595-8c868b1c3429","ios":"levelo://app?vid=3dd0eabc-5267-4f80-a595-8c868b1c3429"},"vehicle_type_id":"4","last_reported":1729004996,"current_range_meters":33600,"station_id":"ce4bh312rcd13ifvqdk0","pricing_plan_id":"cebpf4jnsgd1na2vs0mg"},{"bike_id":"16536088-98ad-4cd9-bc0e-ef079b4784b5","system_id":"levelo_inurba_marseille","lat":43.28055,"lon":5.40978,"is_reserved":false,"is_disabled":false,"rental_uris":{"android":"levelo://app?vid=16536088-98ad-4cd9-bc0e-ef079b4784b5","ios":"levelo://app?vid=16536088-98ad-4cd9-bc0e-ef079b4784b5"},"vehicle_type_id":"4","last_reported":1729004996,"current_range_meters":20400,"station_id":"","pricing_plan_id":"cebpf4jnsgd1na2vs0mg"},{"bike_id":"1b5795e9-268a-4cac-8032-ec4ad6269f71","system_id":"levelo_inurba_marseille","lat":43.2989,"lon":5.43677,"is_reserved":false,"is_disabled":false,"rental_uris":{"android":"levelo://app?vid=1b5795e9-268a-4cac-8032-ec4ad6269f71","ios":"levelo://app?vid=1b5795e9-268a-4cac-8032-ec4ad6269f71"},"vehicle_type_id":"4","last_reported":1729004996,"current_range_meters":16800,"station_id":"ce4bhpp2rcd13ifvqhfg","pricing_plan_id":"cebpf4jnsgd1na2vs0mg"},{"bike_id":"d72be875-9b26-484e-8097-a17621361f7b","system_id":"levelo_inurba_marseille","lat":43.29628,"lon":5.37162,"is_reserved":false,"is_disabled":false,"rental_uris":{"android":"levelo://app?vid=d72be875-9b26-484e-8097-a17621361f7b","ios":"levelo://app?vid=d72be875-9b26-484e-8097-a17621361f7b"},"vehicle_type_id":"4","last_reported":1729004996,"current_range_meters":6000,"station_id":"ce4bgnh2rcd13ifvqc0g","pricing_plan_id":"cebpf4jnsgd1na2vs0mg"},{"bike_id":"d58bcc7f-0e4b-4606-a8e8-146e51cab76c","system_id":"levelo_inurba_marseille","lat":43.31532,"lon":5.38024,"is_reserved":false,"is_disabled":false,"rental_uris":{"android":"levelo://app?vid=d58bcc7f-0e4b-4606-a8e8-146e51cab76c","ios":"levelo://app?vid=d58bcc7f-0e4b-4606-a8e8-146e51cab76c"},"vehicle_type_id":"4","last_reported":1729004996,"current_range_meters":32800,"station_id":"ce4bhsp2rcd13ifvqi50","pricing_plan_id":"cebpf4jnsgd1na2vs0mg"},{"bike_id":"6501a2d8-5cbc-4e89-934e-b3df000d258c","system_id":"levelo_inurba_marseille","lat":43.2846,"lon":5.35898,"is_reserved":false,"is_disabled":false,"rental_uris":{"android":"levelo://app?vid=6501a2d8-5cbc-4e89-934e-b3df000d258c","ios":"levelo://app?vid=6501a2d8-5cbc-4e89-934e-b3df000d258c"},"vehicle_type_id":"4","last_reported":1729004996,"current_range_meters":3200,"station_id":"ce4bhah2rcd13ifvqei0","pricing_plan_id":"cebpf4jnsgd1na2vs0mg"},{"bike_id":"a747b1c9-7d15-42b4-afab-3a41ec55256d","system_id":"levelo_inurba_marseille","lat":43.31706,"lon":5.37732,"is_reserved":false,"is_disabled":false,"rental_uris":{"android":"levelo://app?vid=a747b1c9-7d15-42b4-afab-3a41ec55256d","ios":"levelo://app?vid=a747b1c9-7d15-42b4-afab-3a41ec55256d"},"vehicle_type_id":"4","last_reported":1729004996,"current_range_meters":18000,"station_id":"ce4bgth2rcd13ifvqch0","pricing_plan_id":"cebpf4jnsgd1na2vs0mg"},{"bike_id":"a1e0278e-920e-4eea-a381-891331e8e403","system_id":"levelo_inurba_marseille","lat":43.23205,"lon":5.35559,"is_reserved":false,"is_disabled":false,"rental_uris":{"android":"levelo://app?vid=a1e0278e-920e-4eea-a381-891331e8e403","ios":"levelo://app?vid=a1e0278e-920e-4eea-a381-891331e8e403"},"vehicle_type_id":"4","last_reported":1729004996,"current_range_meters":6000,"station_id":"ce4bhu92rcd13ifvqi70","pricing_plan_id":"cebpf4jnsgd1na2vs0mg"},{"bike_id":"3051d44c-df94-4318-9962-50d5c812202d","system_id":"levelo_inurba_marseille","lat":43.29198,"lon":5.3581,"is_reserved":false,"is_disabled":false,"rental_uris":{"android":"levelo://app?vid=3051d44c-df94-4318-9962-50d5c812202d","ios":"levelo://app?vid=3051d44c-df94-4318-9962-50d5c812202d"},"vehicle_type_id":"4","last_reported":1729004996,"current_range_meters":28000,"station_id":"ce4bhb12rcd13ifvqel0","pricing_plan_id":"cebpf4jnsgd1na2vs0mg"},{"bike_id":"bce25917-99a1-43df-9571-7cb8519a59d0","system_id":"levelo_inurba_marseille","lat":43.28422,"lon":5.35,"is_reserved":false,"is_disabled":false,"rental_uris":{"android":"levelo://app?vid=bce25917-99a1-43df-9571-7cb8519a59d0","ios":"levelo://app?vid=bce25917-99a1-43df-9571-7cb8519a59d0"},"vehicle_type_id":"4","last_reported":1729004996,"current_range_meters":26800,"station_id":"ce4bhbh2rcd13ifvqepg","pricing_plan_id":"cebpf4jnsgd1na2vs0mg"},{"bike_id":"b13ae64d-4ccc-4491-b4b2-38be1874bb74","system_id":"levelo_inurba_marseille","lat":43.27811,"lon":5.40716,"is_reserved":false,"is_disabled":false,"rental_uris":{"android":"levelo://app?vid=b13ae64d-4ccc-4491-b4b2-38be1874bb74","ios":"levelo://app?vid=b13ae64d-4ccc-4491-b4b2-38be1874bb74"},"vehicle_type_id":"4","last_reported":1729004996,"current_range_meters":2000,"station_id":"ce4bhnh2rcd13ifvqgtg","pricing_plan_id":"cebpf4jnsgd1na2vs0mg"},{"bike_id":"a25f3797-3c3d-48bd-8f3d-b410c751045d","system_id":"levelo_inurba_marseille","lat":43.28003,"lon":5.40012,"is_reserved":false,"is_disabled":false,"rental_uris":{"android":"levelo://app?vid=a25f3797-3c3d-48bd-8f3d-b410c751045d","ios":"levelo://app?vid=a25f3797-3c3d-48bd-8f3d-b410c751045d"},"vehicle_type_id":"4","last_reported":1729004996,"current_range_meters":6800,"station_id":"ce4bho92rcd13ifvqh4g","pricing_plan_id":"cebpf4jnsgd1na2vs0mg"},{"bike_id":"61ec12ae-6e54-4401-988a-e258541f9a87","system_id":"levelo_inurba_marseille","lat":43.28454,"lon":5.35882,"is_reserved":false,"is_disabled":false,"rental_uris":{"android":"levelo://app?vid=61ec12ae-6e54-4401-988a-e258541f9a87","ios":"levelo://app?vid=61ec12ae-6e54-4401-988a-e258541f9a87"},"vehicle_type_id":"4","last_reported":1729004996,"current_range_meters":38800,"station_id":"ce4bhah2rcd13ifvqei0","pricing_plan_id":"cebpf4jnsgd1na2vs0mg"},{"bike_id":"d806e63c-fe49-420b-bd7f-148e55503d81","system_id":"levelo_inurba_marseille","lat":43.24525,"lon":5.37609,"is_reserved":false,"is_disabled":false,"rental_uris":{"android":"levelo://app?vid=d806e63c-fe49-420b-bd7f-148e55503d81","ios":"levelo://app?vid=d806e63c-fe49-420b-bd7f-148e55503d81"},"vehicle_type_id":"4","last_reported":1729004996,"current_range_meters":20800,"station_id":"ce4bhhh2rcd13ifvqfk0","pricing_plan_id":"cebpf4jnsgd1na2vs0mg"},{"bike_id":"de3df712-0f12-4cf7-8b7c-28a6807abddf","system_id":"levelo_inurba_marseille","lat":43.24554,"lon":5.39524,"is_reserved":false,"is_disabled":false,"rental_uris":{"android":"levelo://app?vid=de3df712-0f12-4cf7-8b7c-28a6807abddf","ios":"levelo://app?vid=de3df712-0f12-4cf7-8b7c-28a6807abddf"},"vehicle_type_id":"4","last_reported":1729004996,"current_range_meters":5600,"station_id":"ce4bhlp2rcd13ifvqgjg","pricing_plan_id":"cebpf4jnsgd1na2vs0mg"},{"bike_id":"27fd1f3f-e197-4004-ab35-772f6114ddbe","system_id":"levelo_inurba_marseille","lat":43.31079,"lon":5.38357,"is_reserved":false,"is_disabled":false,"rental_uris":{"android":"levelo://app?vid=27fd1f3f-e197-4004-ab35-772f6114ddbe","ios":"levelo://app?vid=27fd1f3f-e197-4004-ab35-772f6114ddbe"},"vehicle_type_id":"4","last_reported":1729004996,"current_range_meters":4800,"station_id":"ce4bgv92rcd13ifvqcr0","pricing_plan_id":"cebpf4jnsgd1na2vs0mg"},{"bike_id":"d522fa5c-8e1d-48df-a9b0-870868a6117b","system_id":"levelo_inurba_marseille","lat":43.30541,"lon":5.36526,"is_reserved":false,"is_disabled":false,"rental_uris":{"android":"levelo://app?vid=d522fa5c-8e1d-48df-a9b0-870868a6117b","ios":"levelo://app?vid=d522fa5c-8e1d-48df-a9b0-870868a6117b"},"vehicle_type_id":"4","last_reported":1729004996,"current_range_meters":38800,"station_id":"ce4bgs12rcd13ifvqcag","pricing_plan_id":"cebpf4jnsgd1na2vs0mg"},{"bike_id":"06db9d89-df69-438d-abac-ff0d660c9055","system_id":"levelo_inurba_marseille","lat":43.31289,"lon":5.388497,"is_reserved":false,"is_disabled":false,"rental_uris":{"android":"levelo://app?vid=06db9d89-df69-438d-abac-ff0d660c9055","ios":"levelo://app?vid=06db9d89-df69-438d-abac-ff0d660c9055"},"vehicle_type_id":"4","last_reported":1729004996,"current_range_meters":8000,"station_id":"ce4bgt92rcd13ifvqcg0","pricing_plan_id":"cebpf4jnsgd1na2vs0mg"},{"bike_id":"41a678d9-c1de-497c-be20-260670ab2dfa","system_id":"levelo_inurba_marseille","lat":43.29535,"lon":5.39035,"is_reserved":false,"is_disabled":false,"rental_uris":{"android":"levelo://app?vid=41a678d9-c1de-497c-be20-260670ab2dfa","ios":"levelo://app?vid=41a678d9-c1de-497c-be20-260670ab2dfa"},"vehicle_type_id":"4","last_reported":1729004996,"current_range_meters":5600,"station_id":"ce4bh3p2rcd13ifvqdp0","pricing_plan_id":"cebpf4jnsgd1na2vs0mg"},{"bike_id":"027030c6-7894-4c24-91c0-027d2db300e4","system_id":"levelo_inurba_marseille","lat":43.27178,"lon":5.40994,"is_reserved":false,"is_disabled":false,"rental_uris":{"android":"levelo://app?vid=027030c6-7894-4c24-91c0-027d2db300e4","ios":"levelo://app?vid=027030c6-7894-4c24-91c0-027d2db300e4"},"vehicle_type_id":"4","last_reported":1729004996,"current_range_meters":6400,"station_id":"ce4bhl12rcd13ifvqgf0","pricing_plan_id":"cebpf4jnsgd1na2vs0mg"},{"bike_id":"9e077f7d-37e0-4a1d-a837-f50fc6d884ba","system_id":"levelo_inurba_marseille","lat":43.28422,"lon":5.34988,"is_reserved":false,"is_disabled":false,"rental_uris":{"android":"levelo://app?vid=9e077f7d-37e0-4a1d-a837-f50fc6d884ba","ios":"levelo://app?vid=9e077f7d-37e0-4a1d-a837-f50fc6d884ba"},"vehicle_type_id":"4","last_reported":1729004996,"current_range_meters":38800,"station_id":"ce4bhbh2rcd13ifvqepg","pricing_plan_id":"cebpf4jnsgd1na2vs0mg"},{"bike_id":"c51acaa7-841b-4493-b304-9dd21e124b21","system_id":"levelo_inurba_marseille","lat":43.30359,"lon":5.4188,"is_reserved":false,"is_disabled":false,"rental_uris":{"android":"levelo://app?vid=c51acaa7-841b-4493-b304-9dd21e124b21","ios":"levelo://app?vid=c51acaa7-841b-4493-b304-9dd21e124b21"},"vehicle_type_id":"4","last_reported":1729004996,"current_range_meters":33600,"station_id":"ce4bhop2rcd13ifvqh7g","pricing_plan_id":"cebpf4jnsgd1na2vs0mg"},{"bike_id":"4eefa1ec-0d89-406a-9ba6-ab04341864b0","system_id":"levelo_inurba_marseille","lat":43.23197,"lon":5.35548,"is_reserved":false,"is_disabled":false,"rental_uris":{"android":"levelo://app?vid=4eefa1ec-0d89-406a-9ba6-ab04341864b0","ios":"levelo://app?vid=4eefa1ec-0d89-406a-9ba6-ab04341864b0"},"vehicle_type_id":"4","last_reported":1729004996,"current_range_meters":38800,"station_id":"ce4bhu92rcd13ifvqi70","pricing_plan_id":"cebpf4jnsgd1na2vs0mg"},{"bike_id":"18930db9-8c02-4d44-8398-39527665227e","system_id":"levelo_inurba_marseille","lat":43.27176,"lon":5.40998,"is_reserved":false,"is_disabled":false,"rental_uris":{"android":"levelo://app?vid=18930db9-8c02-4d44-8398-39527665227e","ios":"levelo://app?vid=18930db9-8c02-4d44-8398-39527665227e"},"vehicle_type_id":"4","last_reported":1729004996,"current_range_meters":16400,"station_id":"ce4bhl12rcd13ifvqgf0","pricing_plan_id":"cebpf4jnsgd1na2vs0mg"},{"bike_id":"97d1dfd2-d619-4ba4-8746-c46b808ed6ea","system_id":"levelo_inurba_marseille","lat":43.29037,"lon":5.38646,"is_reserved":false,"is_disabled":false,"rental_uris":{"android":"levelo://app?vid=97d1dfd2-d619-4ba4-8746-c46b808ed6ea","ios":"levelo://app?vid=97d1dfd2-d619-4ba4-8746-c46b808ed6ea"},"vehicle_type_id":"4","last_reported":1729004996,"current_range_meters":6000,"station_id":"ce4bh4p2rcd13ifvqe0g","pricing_plan_id":"cebpf4jnsgd1na2vs0mg"},{"bike_id":"745cb2d4-2172-480a-b892-f555e08e7589","system_id":"levelo_inurba_marseille","lat":43.337444,"lon":5.374475,"is_reserved":false,"is_disabled":false,"rental_uris":{"android":"levelo://app?vid=745cb2d4-2172-480a-b892-f555e08e7589","ios":"levelo://app?vid=745cb2d4-2172-480a-b892-f555e08e7589"},"vehicle_type_id":"4","last_reported":1729004996,"current_range_meters":36000,"station_id":"","pricing_plan_id":"cebpf4jnsgd1na2vs0mg"},{"bike_id":"f1c3a0b7-2056-41bc-bb71-e9c41210036b","system_id":"levelo_inurba_marseille","lat":43.29559,"lon":5.42292,"is_reserved":false,"is_disabled":false,"rental_uris":{"android":"levelo://app?vid=f1c3a0b7-2056-41bc-bb71-e9c41210036b","ios":"levelo://app?vid=f1c3a0b7-2056-41bc-bb71-e9c41210036b"},"vehicle_type_id":"4","last_reported":1729004996,"current_range_meters":4400,"station_id":"ce4bhph2rcd13ifvqhdg","pricing_plan_id":"cebpf4jnsgd1na2vs0mg"},{"bike_id":"961ea9d3-6bda-45cb-9501-d565585d1565","system_id":"levelo_inurba_marseille","lat":43.22929,"lon":5.35376,"is_reserved":false,"is_disabled":false,"rental_uris":{"android":"levelo://app?vid=961ea9d3-6bda-45cb-9501-d565585d1565","ios":"levelo://app?vid=961ea9d3-6bda-45cb-9501-d565585d1565"},"vehicle_type_id":"4","last_reported":1729004996,"current_range_meters":28000,"station_id":"cpo3532slgdg3j2ikp40","pricing_plan_id":"cebpf4jnsgd1na2vs0mg"},{"bike_id":"8a49d4ec-2af3-4cb3-9303-07d6e5123f1c","system_id":"levelo_inurba_marseille","lat":43.29231,"lon":5.3606,"is_reserved":false,"is_disabled":false,"rental_uris":{"android":"levelo://app?vid=8a49d4ec-2af3-4cb3-9303-07d6e5123f1c","ios":"levelo://app?vid=8a49d4ec-2af3-4cb3-9303-07d6e5123f1c"},"vehicle_type_id":"4","last_reported":1729004996,"current_range_meters":32000,"station_id":"ce4bhbh2rcd13ifvqeqg","pricing_plan_id":"cebpf4jnsgd1na2vs0mg"},{"bike_id":"10ddb4eb-df58-4950-939e-313048bf08cd","system_id":"levelo_inurba_marseille","lat":43.33021,"lon":5.3896,"is_reserved":false,"is_disabled":false,"rental_uris":{"android":"levelo://app?vid=10ddb4eb-df58-4950-939e-313048bf08cd","ios":"levelo://app?vid=10ddb4eb-df58-4950-939e-313048bf08cd"},"vehicle_type_id":"4","last_reported":1729004996,"current_range_meters":11200,"station_id":"ce4bhr92rcd13ifvqhrg","pricing_plan_id":"cebpf4jnsgd1na2vs0mg"},{"bike_id":"cb1cac74-8842-4ee2-840f-e2f35d711368","system_id":"levelo_inurba_marseille","lat":43.3128,"lon":5.40172,"is_reserved":false,"is_disabled":false,"rental_uris":{"android":"levelo://app?vid=cb1cac74-8842-4ee2-840f-e2f35d711368","ios":"levelo://app?vid=cb1cac74-8842-4ee2-840f-e2f35d711368"},"vehicle_type_id":"4","last_reported":1729004996,"current_range_meters":14800,"station_id":"ce4bh092rcd13ifvqd30","pricing_plan_id":"cebpf4jnsgd1na2vs0mg"},{"bike_id":"ed3e4131-5ef7-4b41-b31a-5c5a108e222c","system_id":"levelo_inurba_marseille","lat":43.31167,"lon":5.38726,"is_reserved":false,"is_disabled":false,"rental_uris":{"android":"levelo://app?vid=ed3e4131-5ef7-4b41-b31a-5c5a108e222c","ios":"levelo://app?vid=ed3e4131-5ef7-4b41-b31a-5c5a108e222c"},"vehicle_type_id":"4","last_reported":1729004996,"current_range_meters":12400,"station_id":"ce4bgv12rcd13ifvqcp0","pricing_plan_id":"cebpf4jnsgd1na2vs0mg"},{"bike_id":"08c25fc7-561d-40a4-a81e-da255ae99e16","system_id":"levelo_inurba_marseille","lat":43.28283,"lon":5.35083,"is_reserved":false,"is_disabled":false,"rental_uris":{"android":"levelo://app?vid=08c25fc7-561d-40a4-a81e-da255ae99e16","ios":"levelo://app?vid=08c25fc7-561d-40a4-a81e-da255ae99e16"},"vehicle_type_id":"4","last_reported":1729004996,"current_range_meters":18800,"station_id":"ce4bhbp2rcd13ifvqerg","pricing_plan_id":"cebpf4jnsgd1na2vs0mg"},{"bike_id":"90a02ae3-df96-4a7c-8153-0e518e11a8db","system_id":"levelo_inurba_marseille","lat":43.2694,"lon":5.40259,"is_reserved":false,"is_disabled":false,"rental_uris":{"android":"levelo://app?vid=90a02ae3-df96-4a7c-8153-0e518e11a8db","ios":"levelo://app?vid=90a02ae3-df96-4a7c-8153-0e518e11a8db"},"vehicle_type_id":"4","last_reported":1729004996,"current_range_meters":19600,"station_id":"cjm6bp8fraef2m0cb0m0","pricing_plan_id":"cebpf4jnsgd1na2vs0mg"},{"bike_id":"9cb53da8-a7b2-493f-99c0-87b276f9a2fc","system_id":"levelo_inurba_marseille","lat":43.27676,"lon":5.38872,"is_reserved":false,"is_disabled":false,"rental_uris":{"android":"levelo://app?vid=9cb53da8-a7b2-493f-99c0-87b276f9a2fc","ios":"levelo://app?vid=9cb53da8-a7b2-493f-99c0-87b276f9a2fc"},"vehicle_type_id":"4","last_reported":1729004996,"current_range_meters":29600,"station_id":"ce4bhi12rcd13ifvqfo0","pricing_plan_id":"cebpf4jnsgd1na2vs0mg"},