{"last_updated":1728821717,"ttl":60,"version":"2.2","data":{"bikes":[{"bike_id":"8a36bb65-dd05-437f-adaf-66c35c91f8ff","system_id":"levelo_inurba_marseille","lat":43.24172,"lon":5.36399,"is_reserved":false,"is_disabled":false,"rental_uris":{"android":"levelo://app?vid=8a36bb65-dd05-437f-adaf-66c35c91f8ff","ios":"levelo://app?vid=8a36bb65-dd05-437f-adaf-66c35c91f8ff"},"vehicle_type_id":"4","last_reported":1728821717,"current_range_meters":36000,"station_id":"cpo36qri1sfpv3e86is0","pricing_plan_id":"cebpf4jnsgd1na2vs0mg"},{"bike_id":"d885d96e-d926-4227-9eec-639d1069044e","system_id":"levelo_inurba_marseille","lat":43.23203,"lon":5.35552,"is_reserved":false,"is_disabled":false,"rental_uris":{"android":"levelo://app?vid=d885d96e-d926-4227-9eec-639d1069044e","ios":"levelo://app?vid=d885d96e-d926-4227-9eec-639d1069044e"},"vehicle_type_id":"4","last_reported":1728821717,"current_range_meters":10000,"station_id":"ce4bhu92rcd13ifvqi70","pricing_plan_id":"cebpf4jnsgd1na2vs0mg"},{"bike_id":"f2d8b749-4dbc-4d66-a0f4-61b41648b43c","system_id":"levelo_inurba_marseille","lat":43.24669,"lon":5.38155,"is_reserved":false,"is_disabled":false,"rental_uris":{"android":"levelo://app?vid=f2d8b749-4dbc-4d66-a0f4-61b41648b43c","ios":"levelo://app?vid=f2d8b749-4dbc-4d66-a0f4-61b41648b43c"},"vehicle_type_id":"4","last_reported":1728821717,"current_range_meters":24800,"station_id":"ce4bhih2rcd13ifvqfr0","pricing_plan_id":"cebpf4jnsgd1na2vs0mg"},{"bike_id":"480c36bc-dd66-41df-b09a-76735c76211b","system_id":"levelo_inurba_marseille","lat":43.27995,"lon":5.41656,"is_reserved":false,"is_disabled":false,"rental_uris":{"android":"levelo://app?vid=480c36bc-dd66-41df-b09a-76735c76211b","ios":"levelo://app?vid=480c36bc-dd66-41df-b09a-76735c76211b"},"vehicle_type_id":"4","last_reported":1728821717,"current_range_meters":36000,"station_id":"ce4bho12rcd13ifvqh1g","pricing_plan_id":"cebpf4jnsgd1na2vs0mg"},{"bike_id":"41b4be40-3534-430a-aa76-0d9a1d7bcff2","system_id":"levelo_inurba_marseille","lat":43.2842,"lon":5.34984,"is_reserved":false,"is_disabled":false,"rental_uris":{"android":"levelo://app?vid=41b4be40-3534-430a-aa76-0d9a1d7bcff2","ios":"levelo://app?vid=41b4be40-3534-430a-aa76-0d9a1d7bcff2"},"vehicle_type_id":"4","last_reported":1728821717,"current_range_meters":19600,"station_id":"ce4bhbh2rcd13ifvqepg","pricing_plan_id":"cebpf4jnsgd1na2vs0mg"},{"bike_id":"e49be7dd-1e95-4af1-8431-31f4173ce85d","system_id":"levelo_inurba_marseille","lat":43.3211,"lon":5.3677,"is_reserved":false,"is_disabled":false,"rental_uris":{"android":"levelo://app?vid=e49be7dd-1e95-4af1-8431-31f4173ce85d","ios":"levelo://app?vid=e49be7dd-1e95-4af1-8431-31f4173ce85d"},"vehicle_type_id":"4","last_reported":1728821717,"current_range_meters":36800,"station_id":"ce4bhrh2rcd13ifvqhug","pricing_plan_id":"cebpf4jnsgd1na2vs0mg"},{"bike_id":"61432fa4-e69a-43e1-a752-60da459a1e2e","system_id":"levelo_inurba_marseille","lat":43.33733,"lon":5.39186,"is_reserved":false,"is_disabled":false,"rental_uris":{"android":"levelo://app?vid=61432fa4-e69a-43e1-a752-60da459a1e2e","ios":"levelo://app?vid=61432fa4-e69a-43e1-a752-60da459a1e2e"},"vehicle_type_id":"4","last_reported":1728821717,"current_range_meters":32400,"station_id":"ce4bhr92rcd13ifvqhsg","pricing_plan_id":"cebpf4jnsgd1na2vs0mg"},{"bike_id":"e573a2e2-a73b-41a9-870a-dde4a05efe9c","system_id":"levelo_inurba_marseille","lat":43.30796,"lon":5.43525,"is_reserved":false,"is_disabled":false,"rental_uris":{"android":"levelo://app?vid=e573a2e2-a73b-41a9-870a-dde4a05efe9c","ios":"levelo://app?vid=e573a2e2-a73b-41a9-870a-dde4a05efe9c"},"vehicle_type_id":"4","last_reported":1728821717,"current_range_meters":11600,"station_id":"ce4bhph2rcd13ifvqheg","pricing_plan_id":"cebpf4jnsgd1na2vs0mg"},{"bike_id":"1459997f-b102-4b03-ad36-5a925141abec","system_id":"levelo_inurba_marseille","lat":43.26941,"lon":5.40252,"is_reserved":false,"is_disabled":false,"rental_uris":{"android":"levelo://app?vid=1459997f-b102-4b03-ad36-5a925141abec","ios":"levelo://app?vid=1459997f-b102-4b03-ad36-5a925141abec"},"vehicle_type_id":"4","last_reported":1728821717,"current_range_meters":37600,"station_id":"cjm6bp8fraef2m0cb0m0","pricing_plan_id":"cebpf4jnsgd1na2vs0mg"},{"bike_id":"c5c33660-077d-4f97-b2f0-40691ac09116","system_id":"levelo_inurba_marseille","lat":43.2439,"lon":5.37064,"is_reserved":false,"is_disabled":false,"rental_uris":{"android":"levelo://app?vid=c5c33660-077d-4f97-b2f0-40691ac09116","ios":"levelo://app?vid=c5c33660-077d-4f97-b2f0-40691ac09116"},"vehicle_type_id":"4","last_reported":1728821717,"current_range_meters":34000,"station_id":"ce4bhhh2rcd13ifvqfk0","pricing_plan_id":"cebpf4jnsgd1na2vs0mg"},{"bike_id":"931d1f9c-4cb2-40a2-a856-914a1c55fcf3","system_id":"levelo_inurba_marseille","lat":43.24571,"lon":5.41662,"is_reserved":false,"is_disabled":false,"rental_uris":{"android":"levelo://app?vid=931d1f9c-4cb2-40a2-a856-914a1c55fcf3","ios":"levelo://app?vid=931d1f9c-4cb2-40a2-a856-914a1c55fcf3"},"vehicle_type_id":"4","last_reported":1728821717,"current_range_meters":7200,"station_id":"","pricing_plan_id":"cebpf4jnsgd1na2vs0mg"},{"bike_id":"b8d3e178-77e6-4b2b-b8de-85af06fa4430","system_id":"levelo_inurba_marseille","lat":43.23065,"lon":5.35496,"is_reserved":false,"is_disabled":false,"rental_uris":{"android":"levelo://app?vid=b8d3e178-77e6-4b2b-b8de-85af06fa4430","ios":"levelo://app?vid=b8d3e178-77e6-4b2b-b8de-85af06fa4430"},"vehicle_type_id":"4","last_reported":1728821717,"current_range_meters":38800,"station_id":"cpo3342slgdg3j2ifvpg","pricing_plan_id":"cebpf4jnsgd1na2vs0mg"},{"bike_id":"56529199-b18a-4213-b005-2f4cf2a5c278","system_id":"levelo_inurba_marseille","lat":43.29226,"lon":5.36061,"is_reserved":false,"is_disabled":false,"rental_uris":{"android":"levelo://app?vid=56529199-b18a-4213-b005-2f4cf2a5c278","ios":"levelo://app?vid=56529199-b18a-4213-b005-2f4cf2a5c278"},"vehicle_type_id":"4","last_reported":1728821717,"current_range_meters":21600,"station_id":"ce4bhbh2rcd13ifvqeqg","pricing_plan_id":"cebpf4jnsgd1na2vs0mg"},{"bike_id":"75efc51b-6166-4fdc-80d2-eb74770eab95","system_id":"levelo_inurba_marseille","lat":43.27072,"lon":5.42281,"is_reserved":false,"is_disabled":false,"rental_uris":{"android":"levelo://app?vid=75efc51b-6166-4fdc-80d2-eb74770eab95","ios":"levelo://app?vid=75efc51b-6166-4fdc-80d2-eb74770eab95"},"vehicle_type_id":"4","last_reported":1728821717,"current_range_meters":28400,"station_id":"ce4bhk92rcd13ifvqgb0","pricing_plan_id":"cebpf4jnsgd1na2vs0mg"},{"bike_id":"2f497378-f33c-41a1-b3e1-b0ed73ef1be9","system_id":"levelo_inurba_marseille","lat":43.22935,"lon":5.35374,"is_reserved":false,"is_disabled":false,"rental_uris":{"android":"levelo://app?vid=2f497378-f33c-41a1-b3e1-b0ed73ef1be9","ios":"levelo://app?vid=2f497378-f33c-41a1-b3e1-b0ed73ef1be9"},"vehicle_type_id":"4","last_reported":1728821717,"current_range_meters":34000,"station_id":"cpo3532slgdg3j2ikp40","pricing_plan_id":"cebpf4jnsgd1na2vs0mg"},{"bike_id":"dee41c9d-caa5-4b3f-857d-6226540d0c76","system_id":"levelo_inurba_marseille","lat":43.29056,"lon":5.35913,"is_reserved":false,"is_disabled":false,"rental_uris":{"android":"levelo://app?vid=dee41c9d-caa5-4b3f-857d-6226540d0c76","ios":"levelo://app?vid=dee41c9d-caa5-4b3f-857d-6226540d0c76"},"vehicle_type_id":"4","last_reported":1728821717,"current_range_meters":38800,"station_id":"ce4bha92rcd13ifvqeg0","pricing_plan_id":"cebpf4jnsgd1na2vs0mg"},{"bike_id":"6905c5d3-8624-4dea-b3a0-3fea8278ff35","system_id":"levelo_inurba_marseille","lat":43.2956,"lon":5.42283,"is_reserved":false,"is_disabled":false,"rental_uris":{"android":"levelo://app?vid=6905c5d3-8624-4dea-b3a0-3fea8278ff35","ios":"levelo://app?vid=6905c5d3-8624-4dea-b3a0-3fea8278ff35"},"vehicle_type_id":"4","last_reported":1728821717,"current_range_meters":9200,"station_id":"ce4bhph2rcd13ifvqhdg","pricing_plan_id":"cebpf4jnsgd1na2vs0mg"},{"bike_id":"86b146c1-399c-485f-bcc4-f7be66774c7b","system_id":"levelo_inurba_marseille","lat":43.29229,"lon":5.36052,"is_reserved":false,"is_disabled":false,"rental_uris":{"android":"levelo://app?vid=86b146c1-399c-485f-bcc4-f7be66774c7b","ios":"levelo://app?vid=86b146c1-399c-485f-bcc4-f7be66774c7b"},"vehicle_type_id":"4","last_reported":1728821717,"current_range_meters":30800,"station_id":"ce4bhbh2rcd13ifvqeqg","pricing_plan_id":"cebpf4jnsgd1na2vs0mg"},{"bike_id":"8afe2e29-8db4-45c8-a405-eeb23a71e607","system_id":"levelo_inurba_marseille","lat":43.30602,"lon":5.37218,"is_reserved":false,"is_disabled":false,"rental_uris":{"android":"levelo://app?vid=8afe2e29-8db4-45c8-a405-eeb23a71e607","ios":"levelo://app?vid=8afe2e29-8db4-45c8-a405-eeb23a71e607"},"vehicle_type_id":"4","last_reported":1728821717,"current_range_meters":28000,"station_id":"ce4bgth2rcd13ifvqch0","pricing_plan_id":"cebpf4jnsgd1na2vs0mg"},{"bike_id":"6b2daff3-9851-4dff-9081-e0ec010599e4","system_id":"levelo_inurba_marseille","lat":43.314515,"lon":5.37384,"is_reserved":false,"is_disabled":false,"rental_uris":{"android":"levelo://app?vid=6b2daff3-9851-4dff-9081-e0ec010599e4","ios":"levelo://app?vid=6b2daff3-9851-4dff-9081-e0ec010599e4"},"vehicle_type_id":"4","last_reported":1728821717,"current_range_meters":32800,"station_id":"","pricing_plan_id":"cebpf4jnsgd1na2vs0mg"},{"bike_id":"3f3b7010-e9d4-41f2-a1b3-8178a2b81157","system_id":"levelo_inurba_marseille","lat":43.24672,"lon":5.38169,"is_reserved":false,"is_disabled":false,"rental_uris":{"android":"levelo://app?vid=3f3b7010-e9d4-41f2-a1b3-8178a2b81157","ios":"levelo://app?vid=3f3b7010-e9d4-41f2-a1b3-8178a2b81157"},"vehicle_type_id":"4","last_reported":1728821717,"current_range_meters":11600,"station_id":"ce4bhih2rcd13ifvqfr0","pricing_plan_id":"cebpf4jnsgd1na2vs0mg"},{"bike_id":"914ddad8-71fa-47e5-b15e-9fec58054a4d","system_id":"levelo_inurba_marseille","lat":43.29842,"lon":5.36263,"is_reserved":false,"is_disabled":false,"rental_uris":{"android":"levelo://app?vid=914ddad8-71fa-47e5-b15e-9fec58054a4d","ios":"levelo://app?vid=914ddad8-71fa-47e5-b15e-9fec58054a4d"},"vehicle_type_id":"4","last_reported":1728821717,"current_range_meters":38800,"station_id":"ce4bgpp2rcd13ifvqc3g","pricing_plan_id":"cebpf4jnsgd1na2vs0mg"},{"bike_id":"f8fd929e-ef12-4998-8e1d-12522bd05de2","system_id":"levelo_inurba_marseille","lat":43.33024,"lon":5.3904,"is_reserved":false,"is_disabled":false,"rental_uris":{"android":"levelo://app?vid=f8fd929e-ef12-4998-8e1d-12522bd05de2","ios":"levelo://app?vid=f8fd929e-ef12-4998-8e1d-12522bd05de2"},"vehicle_type_id":"4","last_reported":1728821717,"current_range_meters":37600,"station_id":"ce4bhr92rcd13ifvqhrg","pricing_plan_id":"cebpf4jnsgd1na2vs0mg"},{"bike_id":"02ce7391-a945-4a10-9c54-c841b5ef35ec","system_id":"levelo_inurba_marseille","lat":43.29221,"lon":5.36043,"is_reserved":false,"is_disabled":false,"rental_uris":{"android":"levelo://app?vid=02ce7391-a945-4a10-9c54-c841b5ef35ec","ios":"levelo://app?vid=02ce7391-a945-4a10-9c54-c841b5ef35ec"},"vehicle_type_id":"4","last_reported":1728821717,"current_range_meters":28400,"station_id":"ce4bhbh2rcd13ifvqeqg","pricing_plan_id":"cebpf4jnsgd1na2vs0mg"},{"bike_id":"a403f554-9df9-4644-97ff-df347e122731","system_id":"levelo_inurba_marseille","lat":43.232,"lon":5.35559,"is_reserved":false,"is_disabled":false,"rental_uris":{"android":"levelo://app?vid=a403f554-9df9-4644-97ff-df347e122731","ios":"levelo://app?vid=a403f554-9df9-4644-97ff-df347e122731"},"vehicle_type_id":"4","last_reported":1728821717,"current_range_meters":20800,"station_id":"ce4bhu92rcd13ifvqi70","pricing_plan_id":"cebpf4jnsgd1na2vs0mg"},{"bike_id":"fa08456f-0316-46ca-b497-6c7d63a7f841","system_id":"levelo_inurba_marseille","lat":43.23196,"lon":5.35547,"is_reserved":false,"is_disabled":false,"rental_uris":{"android":"levelo://app?vid=fa08456f-0316-46ca-b497-6c7d63a7f841","ios":"levelo://app?vid=fa08456f-0316-46ca-b497-6c7d63a7f841"},"vehicle_type_id":"4","last_reported":1728821717,"current_range_meters":35200,"station_id":"ce4bhu92rcd13ifvqi70","pricing_plan_id":"cebpf4jnsgd1na2vs0mg"},{"bike_id":"86851483-6460-4f2a-8d92-b3b47e5c55aa","system_id":"levelo_inurba_marseille","lat":43.23969,"lon":5.36615,"is_reserved":false,"is_disabled":false,"rental_uris":{"android":"levelo://app?vid=86851483-6460-4f2a-8d92-b3b47e5c55aa","ios":"levelo://app?vid=86851483-6460-4f2a-8d92-b3b47e5c55aa"},"vehicle_type_id":"4","last_reported":1728821717,"current_range_meters":38800,"station_id":"ce4bhi12rcd13ifvqfp0","pricing_plan_id":"cebpf4jnsgd1na2vs0mg"},{"bike_id":"900d410e-a263-4441-80a1-af67345a66d2","system_id":"levelo_inurba_marseille","lat":43.24391,"lon":5.37062,"is_reserved":false,"is_disabled":false,"rental_uris":{"android":"levelo://app?vid=900d410e-a263-4441-80a1-af67345a66d2","ios":"levelo://app?vid=900d410e-a263-4441-80a1-af67345a66d2"},"vehicle_type_id":"4","last_reported":1728821717,"current_range_meters":11600,"station_id":"ce4bhhh2rcd13ifvqfk0","pricing_plan_id":"cebpf4jnsgd1na2vs0mg"},{"bike_id":"a9a9a4b5-5c49-474f-8f41-09f9027f45b4","system_id":"levelo_inurba_marseille","lat":43.22935,"lon":5.35376,"is_reserved":false,"is_disabled":false,"rental_uris":{"android":"levelo://app?vid=a9a9a4b5-5c49-474f-8f41-09f9027f45b4","ios":"levelo://app?vid=a9a9a4b5-5c49-474f-8f41-09f9027f45b4"},"vehicle_type_id":"4","last_reported":1728821717,"current_range_meters":17200,"station_id":"cpo3532slgdg3j2ikp40","pricing_plan_id":"cebpf4jnsgd1na2vs0mg"},{"bike_id":"584fe302-518e-4cfa-ad58-8adf0107e0e3","system_id":"levelo_inurba_marseille","lat":43.29959,"lon":5.41326,"is_reserved":false,"is_disabled":false,"rental_uris":{"android":"levelo://app?vid=584fe302-518e-4cfa-ad58-8adf0107e0e3","ios":"levelo://app?vid=584fe302-518e-4cfa-ad58-8adf0107e0e3"},"vehicle_type_id":"4","last_reported":1728821717,"current_range_meters":20400,"station_id":"ce4bhp12rcd13ifvqh9g","pricing_plan_id":"cebpf4jnsgd1na2vs0mg"},{"bike_id":"3e4f306a-0193-49a5-ae54-ea2787574907","system_id":"levelo_inurba_marseille","lat":43.24399,"lon":5.37063,"is_reserved":false,"is_disabled":false,"rental_uris":{"android":"levelo://app?vid=3e4f306a-0193-49a5-ae54-ea2787574907","ios":"levelo://app?vid=3e4f306a-0193-49a5-ae54-ea2787574907"},"vehicle_type_id":"4","last_reported":1728821717,"current_range_meters":36000,"station_id":"ce4bhhh2rcd13ifvqfk0","pricing_plan_id":"cebpf4jnsgd1na2vs0mg"},{"bike_id":"15c9ec7f-d6f1-4977-b1bb-d59ba7e51931","system_id":"levelo_inurba_marseille","lat":43.26053,"lon":5.39398,"is_reserved":false,"is_disabled":false,"rental_uris":{"android":"levelo://app?vid=15c9ec7f-d6f1-4977-b1bb-d59ba7e51931","ios":"levelo://app?vid=15c9ec7f-d6f1-4977-b1bb-d59ba7e51931"},"vehicle_type_id":"4","last_reported":1728821717,"current_range_meters":38800,"station_id":"ce4bhh92rcd13ifvqfj0","pricing_plan_id":"cebpf4jnsgd1na2vs0mg"},{"bike_id":"a2cc4af4-c475-4c55-b025-fb35bb1c3dce","system_id":"levelo_inurba_marseille","lat":43.28417,"lon":5.34985,"is_reserved":false,"is_disabled":false,"rental_uris":{"android":"levelo://app?vid=a2cc4af4-c475-4c55-b025-fb35bb1c3dce","ios":"levelo://app?vid=a2cc4af4-c475-4c55-b025-fb35bb1c3dce"},"vehicle_type_id":"4","last_reported":1728821717,"current_range_meters":10800,"station_id":"ce4bhbh2rcd13ifvqepg","pricing_plan_id":"cebpf4jnsgd1na2vs0mg"},{"bike_id":"99c49ab5-e0f8-4316-b25d-a08466a70f4c","system_id":"levelo_inurba_marseille","lat":43.28416,"lon":5.349807,"is_reserved":false,"is_disabled":false,"rental_uris":{"android":"levelo://app?vid=99c49ab5-e0f8-4316-b25d-a08466a70f4c","ios":"levelo://app?vid=99c49ab5-e0f8-4316-b25d-a08466a70f4c"},"vehicle_type_id":"4","last_reported":1728821717,"current_range_meters":38800,"station_id":"ce4bhbh2rcd13ifvqepg","pricing_plan_id":"cebpf4jnsgd1na2vs0mg"},{"bike_id":"7d4f48b2-d661-4e97-a925-aa9cd2c46aef","system_id":"levelo_inurba_marseille","lat":43.29,"lon":5.35609,"is_reserved":false,"is_disabled":false,"rental_uris":{"android":"levelo://app?vid=7d4f48b2-d661-4e97-a925-aa9cd2c46aef","ios":"levelo://app?vid=7d4f48b2-d661-4e97-a925-aa9cd2c46aef"},"vehicle_type_id":"4","last_reported":1728821717,"current_range_meters":25600,"station_id":"ce4bhb92rcd13ifvqen0","pricing_plan_id":"cebpf4jnsgd1na2vs0mg"},{"bike_id":"b1a48f92-9b1a-4876-a847-d8db7dcf42e4","system_id":"levelo_inurba_marseille","lat":43.24808,"lon":5.37458,"is_reserved":false,"is_disabled":false,"rental_uris":{"android":"levelo://app?vid=b1a48f92-9b1a-4876-a847-d8db7dcf42e4","ios":"levelo://app?vid=b1a48f92-9b1a-4876-a847-d8db7dcf42e4"},"vehicle_type_id":"4","last_reported":1728821717,"current_range_meters":38800,"station_id":"ce4bhgh2rcd13ifvqfb0","pricing_plan_id":"cebpf4jnsgd1na2vs0mg"},{"bike_id":"1faf5929-d207-48dc-8def-a8b0678810d5","system_id":"levelo_inurba_marseille","lat":43.29226,"lon":5.36064,"is_reserved":false,"is_disabled":false,"rental_uris":{"android":"levelo://app?vid=1faf5929-d207-48dc-8def-a8b0678810d5","ios":"levelo://app?vid=1faf5929-d207-48dc-8def-a8b0678810d5"},"vehicle_type_id":"4","last_reported":1728821717,"current_range_meters":36000,"station_id":"ce4bhbh2rcd13ifvqeqg","pricing_plan_id":"cebpf4jnsgd1na2vs0mg"},{"bike_id":"0c40993a-50a6-47ff-8efc-744051d6b397","system_id":"levelo_inurba_marseille","lat":43.24996,"lon":5.38932,"is_reserved":false,"is_disabled":false,"rental_uris":{"android":"levelo://app?vid=0c40993a-50a6-47ff-8efc-744051d6b397","ios":"levelo://app?vid=0c40993a-50a6-47ff-8efc-744051d6b397"},"vehicle_type_id":"4","last_reported":1728821717,"current_range_meters":14400,"station_id":"ce4bhgp2rcd13ifvqfd0","pricing_plan_id":"cebpf4jnsgd1na2vs0mg"},{"bike_id":"fce64ce7-88b3-471b-aac0-f30f3e66d244","system_id":"levelo_inurba_marseille","lat":43.25087,"lon":5.39512,"is_reserved":false,"is_disabled":false,"rental_uris":{"android":"levelo://app?vid=fce64ce7-88b3-471b-aac0-f30f3e66d244","ios":"levelo://app?vid=fce64ce7-88b3-471b-aac0-f30f3e66d244"},"vehicle_type_id":"4","last_reported":1728821717,"current_range_meters":30800,"station_id":"ce4bhm12rcd13ifvqgkg","pricing_plan_id":"cebpf4jnsgd1na2vs0mg"},{"bike_id":"5521ca22-4378-4274-a76f-684e061d8b63","system_id":"levelo_inurba_marseille","lat":43.2985,"lon":5.36275,"is_reserved":false,"is_disabled":false,"rental_uris":{"android":"levelo://app?vid=5521ca22-4378-4274-a76f-684e061d8b63","ios":"levelo://app?vid=5521ca22-4378-4274-a76f-684e061d8b63"},"vehicle_type_id":"4","last_reported":1728821717,"current_range_meters":11600,"station_id":"ce4bgpp2rcd13ifvqc3g","pricing_plan_id":"cebpf4jnsgd1na2vs0mg"},{"bike_id":"641676b7-6e8f-4699-8e5b-db70501c6b86","system_id":"levelo_inurba_marseille","lat":43.28614,"lon":5.35097,"is_reserved":false,"is_disabled":false,"rental_uris":{"android":"levelo://app?vid=641676b7-6e8f-4699-8e5b-db70501c6b86","ios":"levelo://app?vid=641676b7-6e8f-4699-8e5b-db70501c6b86"},"vehicle_type_id":"4","last_reported":1728821717,"current_range_meters":38800,"station_id":"ce4bhch2rcd13ifvqeug","pricing_plan_id":"cebpf4jnsgd1na2vs0mg"},{"bike_id":"3545951b-894d-4495-afdf-84cb7b3b25b3","system_id":"levelo_inurba_marseille","lat":43.23198,"lon":5.35557,"is_reserved":false,"is_disabled":false,"rental_uris":{"android":"levelo://app?vid=3545951b-894d-4495-afdf-84cb7b3b25b3","ios":"levelo://app?vid=3545951b-894d-4495-afdf-84cb7b3b25b3"},"vehicle_type_id":"4","last_reported":1728821717,"current_range_meters":36000,"station_id":"ce4bhu92rcd13ifvqi70","pricing_plan_id":"cebpf4jnsgd1na2vs0mg"},{"bike_id":"aad84887-0705-4b96-9d58-37d178000e37","system_id":"levelo_inurba_marseille","lat":43.23966,"lon":5.3662,"is_reserved":false,"is_disabled":false,"rental_uris":{"android":"levelo://app?vid=aad84887-0705-4b96-9d58-37d178000e37","ios":"levelo://app?vid=aad84887-0705-4b96-9d58-37d178000e37"},"vehicle_type_id":"4","last_reported":1728821717,"current_range_meters":38800,"station_id":"ce4bhi12rcd13ifvqfp0","pricing_plan_id":"cebpf4jnsgd1na2vs0mg"},{"bike_id":"19767c7e-4ed0-457f-bcde-dbef8a4b6308","system_id":"levelo_inurba_marseille","lat":43.24386,"lon":5.3706,"is_reserved":false,"is_disabled":false,"rental_uris":{"android":"levelo://app?vid=19767c7e-4ed0-457f-bcde-dbef8a4b6308","ios":"levelo://app?vid=19767c7e-4ed0-457f-bcde-dbef8a4b6308"},"vehicle_type_id":"4","last_reported":1728821717,"current_range_meters":32800,"station_id":"ce4bhhh2rcd13ifvqfk0","pricing_plan_id":"cebpf4jnsgd1na2vs0mg"},{"bike_id":"ddd8071c-e197-43f6-b7d5-51b8315e08bd","system_id":"levelo_inurba_marseille","lat":43.23194,"lon":5.35563,"is_reserved":false,"is_disabled":false,"rental_uris":{"android":"levelo://app?vid=ddd8071c-e197-43f6-b7d5-51b8315e08bd","ios":"levelo://app?vid=ddd8071c-e197-43f6-b7d5-51b8315e08bd"},"vehicle_type_id":"4","last_reported":1728821717,"current_range_meters":14800,"station_id":"ce4bhu92rcd13ifvqi70","pricing_plan_id":"cebpf4jnsgd1na2vs0mg"},{"bike_id":"6bd13d82-f155-4f47-a46d-1bea849ea499","system_id":"levelo_inurba_marseille","lat":43.28268,"lon":5.35071,"is_reserved":false,"is_disabled":false,"rental_uris":{"android":"levelo://app?vid=6bd13d82-f155-4f47-a46d-1bea849ea499","ios":"levelo://app?vid=6bd13d82-f155-4f47-a46d-1bea849ea499"},"vehicle_type_id":"4","last_reported":1728821717,"current_range_meters":34000,"station_id":"ce4bhbp2rcd13ifvqerg","pricing_plan_id":"cebpf4jnsgd1na2vs0mg"},{"bike_id":"25ed2710-8c35-44e6-81fd-8fc7cf6b54a8","system_id":"levelo_inurba_marseille","lat":43.274948,"lon":5.424466,"is_reserved":false,"is_disabled":false,"rental_uris":{"android":"levelo://app?vid=25ed2710-8c35-44e6-81fd-8fc7cf6b54a8","ios":"levelo://app?vid=25ed2710-8c35-44e6-81fd-8fc7cf6b54a8"},"vehicle_type_id":"4","last_reported":1728821717,"current_range_meters":21600,"station_id":"ce4bhn92rcd13ifvqgrg","pricing_plan_id":"cebpf4jnsgd1na2vs0mg"},{"bike_id":"2466f4c3-c67d-4142-a37d-6dce87bba5ea","system_id":"levelo_inurba_marseille","lat":43.29006,"lon":5.35608,"is_reserved":false,"is_disabled":false,"rental_uris":{"android":"levelo://app?vid=2466f4c3-c67d-4142-a37d-6dce87bba5ea","ios":"levelo://app?vid=2466f4c3-c67d-4142-a37d-6dce87bba5ea"},"vehicle_type_id":"4","last_reported":1728821717,"current_range_meters":9200,"station_id":"ce4bhb92rcd13ifvqen0","pricing_plan_id":"cebpf4jnsgd1na2vs0mg"},{"bike_id":"3568bb6a-ff56-4932-b065-3f63a3c1d59e","system_id":"levelo_inurba_marseille","lat":43.26806,"lon":5.40265,"is_reserved":false,"is_disabled":false,"rental_uris":{"android":"levelo://app?vid=3568bb6a-ff56-4932-b065-3f63a3c1d59e","ios":"levelo://app?vid=3568bb6a-ff56-4932-b065-3f63a3c1d59e"},"vehicle_type_id":"4","last_reported":1728821717,"current_range_meters":38000,"station_id":"ce501612rcd8frsf0b60","pricing_plan_id":"cebpf4jnsgd1na2vs0mg"},{"bike_id":"85482c86-edc2-493a-a3a9-3820de066abd","system_id":"levelo_inurba_marseille","lat":43.29225,"lon":5.36067,"is_reserved":false,"is_disabled":false,"rental_uris":{"android":"levelo://app?vid=85482c86-edc2-493a-a3a9-3820de066abd","ios":"levelo://app?vid=85482c86-edc2-493a-a3a9-3820de066abd"},"vehicle_type_id":"4","last_reported":1728821717,"current_range_meters":31200,"station_id":"ce4bhbh2rcd13ifvqeqg","pricing_plan_id":"cebpf4jnsgd1na2vs0mg"},{"bike_id":"41d9e61a-42d4-4324-b02f-9fca96ad5ea5","system_id":"levelo_inurba_marseille","lat":43.29975,"lon":5.37182,"is_reserved":false,"is_disabled":false,"rental_uris":{"android":"levelo://app?vid=41d9e61a-42d4-4324-b02f-9fca96ad5ea5","ios":"levelo://app?vid=41d9e61a-42d4-4324-b02f-9fca96ad5ea5"},"vehicle_type_id":"4","last_reported":1728821717,"current_range_meters":8000,"station_id":"ce4bgr92rcd13ifvqc7g","pricing_plan_id":"cebpf4jnsgd1na2vs0mg"},{"bike_id":"12202b11-bbbd-45ba-9f81-2f5642aaedde","system_id":"levelo_inurba_marseille","lat":43.28274,"lon":5.35067,"is_reserved":false,"is_disabled":false,"rental_uris":{"android":"levelo://app?vid=12202b11-bbbd-45ba-9f81-2f5642aaedde","ios":"levelo://app?vid=12202b11-bbbd-45ba-9f81-2f5642aaedde"},"vehicle_type_id":"4","last_reported":1728821717,"current_range_meters":20800,"station_id":"ce4bhbp2rcd13ifvqerg","pricing_plan_id":"cebpf4jnsgd1na2vs0mg"},{"bike_id":"109d18b6-bfcf-4cff-85dc-bd512ce6fb2f","system_id":"levelo_inurba_marseille","lat":43.23192,"lon":5.35553,"is_reserved":false,"is_disabled":false,"rental_uris":{"android":"levelo://app?vid=109d18b6-bfcf-4cff-85dc-bd512ce6fb2f","ios":"levelo://app?vid=109d18b6-bfcf-4cff-85dc-bd512ce6fb2f"},"vehicle_type_id":"4","last_reported":1728821717,"current_range_meters":8000,"station_id":"ce4bhu92rcd13ifvqi70","pricing_plan_id":"cebpf4jnsgd1na2vs0mg"},{"bike_id":"5ff3d339-72da-4776-b2cf-e167c0812418","system_id":"levelo_inurba_marseille","lat":43.23193,"lon":5.39977,"is_reserved":false,"is_disabled":false,"rental_uris":{"android":"levelo://app?vid=5ff3d339-72da-4776-b2cf-e167c0812418","ios":"levelo://app?vid=5ff3d339-72da-4776-b2cf-e167c0812418"},"vehicle_type_id":"4","last_reported":1728821717,"current_range_meters":12000,"station_id":"ce4bhn12rcd13ifvqgqg","pricing_plan_id":"cebpf4jnsgd1na2vs0mg"},{"bike_id":"e3cd8953-9e5a-44ad-a5cd-debf49a539ae","system_id":"levelo_inurba_marseille","lat":43.21255,"lon":5.3544,"is_reserved":false,"is_disabled":false,"rental_uris":{"android":"levelo://app?vid=e3cd8953-9e5a-44ad-a5cd-debf49a539ae","ios":"levelo://app?vid=e3cd8953-9e5a-44ad-a5cd-debf49a539ae"},"vehicle_type_id":"4","last_reported":1728821717,"current_range_meters":20800,"station_id":"","pricing_plan_id":"cebpf4jnsgd1na2vs0mg"},{"bike_id":"726ea84d-d6f3-4f63-8d10-efa74cba9883","system_id":"levelo_inurba_marseille","lat":43.24386,"lon":5.37059,"is_reserved":false,"is_disabled":false,"rental_uris":{"android":"levelo://app?vid=726ea84d-d6f3-4f63-8d10-efa74cba9883","ios":"levelo://app?vid=726ea84d-d6f3-4f63-8d10-efa74cba9883"},"vehicle_type_id":"4","last_reported":1728821717,"current_range_meters":26000,"station_id":"ce4bhhh2rcd13ifvqfk0","pricing_plan_id":"cebpf4jnsgd1na2vs0mg"},{"bike_id":"0a139836-9683-4cf3-be1b-e2097e02c0f7","system_id":"levelo_inurba_marseille","lat":43.29536,"lon":5.3854,"is_reserved":false,"is_disabled":false,"rental_uris":{"android":"levelo://app?vid=0a139836-9683-4cf3-be1b-e2097e02c0f7","ios":"levelo://app?vid=0a139836-9683-4cf3-be1b-e2097e02c0f7"},"vehicle_type_id":"4","last_reported":1728821717,"current_range_meters":4800,"station_id":"ce4bgih2rcd13ifvqba0","pricing_plan_id":"cebpf4jnsgd1na2vs0mg"},{"bike_id":"744d7d46-a030-452d-827a-600610e2a098","system_id":"levelo_inurba_marseille","lat":43.23193,"lon":5.39986,"is_reserved":false,"is_disabled":false,"rental_uris":{"android":"levelo://app?vid=744d7d46-a030-452d-827a-600610e2a098","ios":"levelo://app?vid=744d7d46-a030-452d-827a-600610e2a098"},"vehicle_type_id":"4","last_reported":1728821717,"current_range_meters":34000,"station_id":"ce4bhn12rcd13ifvqgqg","pricing_plan_id":"cebpf4jnsgd1na2vs0mg"},{"bike_id":"e6a8aec1-d448-48fb-b2d3-480453e7edf3","system_id":"levelo_inurba_marseille","lat":43.31703,"lon":5.39813,"is_reserved":false,"is_disabled":false,"rental_uris":{"android":"levelo://app?vid=e6a8aec1-d448-48fb-b2d3-480453e7edf3","ios":"levelo://app?vid=e6a8aec1-d448-48fb-b2d3-480453e7edf3"},"vehicle_type_id":"4","last_reported":1728821717,"current_range_meters":4400,"station_id":"","pricing_plan_id":"cebpf4jnsgd1na2vs0mg"},{"bike_id":"a9686cf3-6cad-4953-8dc9-f52629b54570","system_id":"levelo_inurba_marseille","lat":43.28464,"lon":5.35884,"is_reserved":false,"is_disabled":false,"rental_uris":{"android":"levelo://app?vid=a9686cf3-6cad-4953-8dc9-f52629b54570","ios":"levelo://app?vid=a9686cf3-6cad-4953-8dc9-f52629b54570"},"vehicle_type_id":"4","last_reported":1728821717,"current_range_meters":16800,"station_id":"ce4bhah2rcd13ifvqei0","pricing_plan_id":"cebpf4jnsgd1na2vs0mg"},{"bike_id":"d786daa7-6195-4ad4-9d67-6b3a9d97ab5c","system_id":"levelo_inurba_marseille","lat":43.2439,"lon":5.3705,"is_reserved":false,"is_disabled":false,"rental_uris":{"android":"levelo://app?vid=d786daa7-6195-4ad4-9d67-6b3a9d97ab5c","ios":"levelo://app?vid=d786daa7-6195-4ad4-9d67-6b3a9d97ab5c"},"vehicle_type_id":"4","last_reported":1728821717,"current_range_meters":6800,"station_id":"ce4bhhh2rcd13ifvqfk0","pricing_plan_id":"cebpf4jnsgd1na2vs0mg"},{"bike_id":"92c1af36-5649-40f5-84ed-a7b062884571","system_id":"levelo_inurba_marseille","lat":43.2397,"lon":5.36622,"is_reserved":false,"is_disabled":false,"rental_uris":{"android":"levelo://app?vid=92c1af36-5649-40f5-84ed-a7b062884571","ios":"levelo://app?vid=92c1af36-5649-40f5-84ed-a7b062884571"},"vehicle_type_id":"4","last_reported":1728821717,"current_range_meters":29600,"station_id":"ce4bhi12rcd13ifvqfp0","pricing_plan_id":"cebpf4jnsgd1na2vs0mg"},{"bike_id":"3b75fe99-810f-40ef-9f84-d5b1cf667dc9","system_id":"levelo_inurba_marseille","lat":43.23148,"lon":5.4371,"is_reserved":false,"is_disabled":false,"rental_uris":{"android":"levelo://app?vid=3b75fe99-810f-40ef-9f84-d5b1cf667dc9","ios":"levelo://app?vid=3b75fe99-810f-40ef-9f84-d5b1cf667dc9"},"vehicle_type_id":"4","last_reported":1728821717,"current_range_meters":24800,"station_id":"ce4bhmp2rcd13ifvqgog","pricing_plan_id":"cebpf4jnsgd1na2vs0mg"},{"bike_id":"6cb5b02c-2401-484a-8b7d-b4d2106d6b08","system_id":"levelo_inurba_marseille","lat":43.23193,"lon":5.35554,"is_reserved":false,"is_disabled":false,"rental_uris":{"android":"levelo://app?vid=6cb5b02c-2401-484a-8b7d-b4d2106d6b08","ios":"levelo://app?vid=6cb5b02c-2401-484a-8b7d-b4d2106d6b08"},"vehicle_type_id":"4","last_reported":1728821717,"current_range_meters":26000,"station_id":"ce4bhu92rcd13ifvqi70","pricing_plan_id":"cebpf4jnsgd1na2vs0mg"},{"bike_id":"7327928d-341b-4548-9e07-bcef13a0f9f8","system_id":"levelo_inurba_marseille","lat":43.23962,"lon":5.36637,"is_reserved":false,"is_disabled":false,"rental_uris":{"android":"levelo://app?vid=7327928d-341b-4548-9e07-bcef13a0f9f8","ios":"levelo://app?vid=7327928d-341b-4548-9e07-bcef13a0f9f8"},"vehicle_type_id":"4","last_reported":1728821717,"current_range_meters":38800,"station_id":"ce4bhi12rcd13ifvqfp0","pricing_plan_id":"cebpf4jnsgd1na2vs0mg"},{"bike_id":"921eb451-a108-4fbf-a5fa-bf0205374997","system_id":"levelo_inurba_marseille","lat":43.26058,"lon":5.39399,"is_reserved":false,"is_disabled":false,"rental_uris":{"android":"levelo://app?vid=921eb451-a108-4fbf-a5fa-bf0205374997","ios":"levelo://app?vid=921eb451-a108-4fbf-a5fa-bf0205374997"},"vehicle_type_id":"4","last_reported":1728821717,"current_range_meters":33600,"station_id":"ce4bhh92rcd13ifvqfj0","pricing_plan_id":"cebpf4jnsgd1na2vs0mg"},{"bike_id":"b1748c98-4862-4749-80ca-b35ba1e76c34","system_id":"levelo_inurba_marseille","lat":43.2958,"lon":5.37823,"is_reserved":false,"is_disabled":false,"rental_uris":{"android":"levelo://app?vid=b1748c98-4862-4749-80ca-b35ba1e76c34","ios":"levelo://app?vid=b1748c98-4862-4749-80ca-b35ba1e76c34"},"vehicle_type_id":"4","last_reported":1728821717,"current_range_meters":34800,"station_id":"","pricing_plan_id":"cebpf4jnsgd1na2vs0mg"},{"bike_id":"7d0d9152-236f-4deb-8439-625cf8f62605","system_id":"levelo_inurba_marseille","lat":43.29973,"lon":5.38491,"is_reserved":false,"is_disabled":false,"rental_uris":{"android":"levelo://app?vid=7d0d9152-236f-4deb-8439-625cf8f62605","ios":"levelo://app?vid=7d0d9152-236f-4deb-8439-625cf8f62605"},"vehicle_type_id":"4","last_reported":1728821717,"current_range_meters":38800,"station_id":"ce4bgj92rcd13ifvqbd0","pricing_plan_id":"cebpf4jnsgd1na2vs0mg"},{"bike_id":"e6fe8756-fb44-4e89-8e3f-556f2491ce4a","system_id":"levelo_inurba_marseille","lat":43.26214,"lon":5.37438,"is_reserved":false,"is_disabled":false,"rental_uris":{"android":"levelo://app?vid=e6fe8756-fb44-4e89-8e3f-556f2491ce4a","ios":"levelo://app?vid=e6fe8756-fb44-4e89-8e3f-556f2491ce4a"},"vehicle_type_id":"4","last_reported":1728821717,"current_range_meters":32800,"station_id":"ce4bhgp2rcd13ifvqfc0","pricing_plan_id":"cebpf4jnsgd1na2vs0mg"},{"bike_id":"93c67bb6-f3a7-4124-b0e0-cae02a19fde7","system_id":"levelo_inurba_marseille","lat":43.29559,"lon":5.42288,"is_reserved":false,"is_disabled":false,"rental_uris":{"android":"levelo://app?vid=93c67bb6-f3a7-4124-b0e0-cae02a19fde7","ios":"levelo://app?vid=93c67bb6-f3a7-4124-b0e0-cae02a19fde7"},"vehicle_type_id":"4","last_reported":1728821717,"current_range_meters":38800,"station_id":"ce4bhph2rcd13ifvqhdg","pricing_plan_id":"cebpf4jnsgd1na2vs0mg"},{"bike_id":"1c7f46ab-9878-4239-9653-d4c2bf952d47","system_id":"levelo_inurba_marseille","lat":43.27061,"lon":5.40255,"is_reserved":false,"is_disabled":false,"rental_uris":{"android":"levelo://app?vid=1c7f46ab-9878-4239-9653-d4c2bf952d47","ios":"levelo://app?vid=1c7f46ab-9878-4239-9653-d4c2bf952d47"},"vehicle_type_id":"4","last_reported":1728821717,"current_range_meters":38800,"station_id":"ce4bhk92rcd13ifvqgc0","pricing_plan_id":"cebpf4jnsgd1na2vs0mg"},{"bike_id":"9d671549-67ad-4eb0-ace0-50f59d8a0c79","system_id":"levelo_inurba_marseille","lat":43.31109,"lon":5.38064,"is_reserved":false,"is_disabled":false,"rental_uris":{"android":"levelo://app?vid=9d671549-67ad-4eb0-ace0-50f59d8a0c79","ios":"levelo://app?vid=9d671549-67ad-4eb0-ace0-50f59d8a0c79"},"vehicle_type_id":"4","last_reported":1728821717,"current_range_meters":24400,"station_id":"ce4bgt92rcd13ifvqcf0","pricing_plan_id":"cebpf4jnsgd1na2vs0mg"},{"bike_id":"019140ae-e316-4d6f-a884-a5f5edd517e4","system_id":"levelo_inurba_marseille","lat":43.29228,"lon":5.36053,"is_reserved":false,"is_disabled":false,"rental_uris":{"android":"levelo://app?vid=019140ae-e316-4d6f-a884-a5f5edd517e4","ios":"levelo://app?vid=019140ae-e316-4d6f-a884-a5f5edd517e4"},"vehicle_type_id":"4","last_reported":1728821717,"current_range_meters":29600,"station_id":"ce4bhbh2rcd13ifvqeqg","pricing_plan_id":"cebpf4jnsgd1na2vs0mg"},{"bike_id":"25e59862-8a09-482d-b3a5-7138deb4afc5","system_id":"levelo_inurba_marseille","lat":43.2306,"lon":5.35491,"is_reserved":false,"is_disabled":false,"rental_uris":{"android":"levelo://app?vid=25e59862-8a09-482d-b3a5-7138deb4afc5","ios":"levelo://app?vid=25e59862-8a09-482d-b3a5-7138deb4afc5"},"vehicle_type_id":"4","last_reported":1728821717,"current_range_meters":5600,"station_id":"cpo3342slgdg3j2ifvpg","pricing_plan_id":"cebpf4jnsgd1na2vs0mg"},{"bike_id":"11f3ba84-f0a8-4aaa-8ae2-a4cd79be7de4","system_id":"levelo_inurba_marseille","lat":43.25726,"lon":5.41107,"is_reserved":false,"is_disabled":false,"rental_uris":{"android":"levelo://app?vid=11f3ba84-f0a8-4aaa-8ae2-a4cd79be7de4","ios":"levelo://app?vid=11f3ba84-f0a8-4aaa-8ae2-a4cd79be7de4"},"vehicle_type_id":"4","last_reported":1728821717,"current_range_meters":20400,"station_id":"ce4bhkp2rcd13ifvqgd0","pricing_plan_id":"cebpf4jnsgd1na2vs0mg"},{"bike_id":"4f5333fa-3838-4e8f-a035-eeb1d47f3ae0","system_id":"levelo_inurba_marseille","lat":43.23058,"lon":5.35491,"is_reserved":false,"is_disabled":false,"rental_uris":{"android":"levelo://app?vid=4f5333fa-3838-4e8f-a035-eeb1d47f3ae0","ios":"levelo://app?vid=4f5333fa-3838-4e8f-a035-eeb1d47f3ae0"},"vehicle_type_id":"4","last_reported":1728821717,"current_range_meters":18800,"station_id":"cpo3342slgdg3j2ifvpg","pricing_plan_id":"cebpf4jnsgd1na2vs0mg"},{"bike_id":"b933402b-d1ca-49a8-bbf7-fb19281d941c","system_id":"levelo_inurba_marseille","lat":43.23192,"lon":5.35547,"is_reserved":false,"is_disabled":false,"rental_uris":{"android":"levelo://app?vid=b933402b-d1ca-49a8-bbf7-fb19281d941c","ios":"levelo://app?vid=b933402b-d1ca-49a8-bbf7-fb19281d941c"},"vehicle_type_id":"4","last_reported":1728821717,"current_range_meters":16000,"station_id":"ce4bhu92rcd13ifvqi70","pricing_plan_id":"cebpf4jnsgd1na2vs0mg"},{"bike_id":"0c1ecff5-69ed-46a2-bcca-316b26b87952","system_id":"levelo_inurba_marseille","lat":43.25581,"lon":5.3824,"is_reserved":false,"is_disabled":false,"rental_uris":{"android":"levelo://app?vid=0c1ecff5-69ed-46a2-bcca-316b26b87952","ios":"levelo://app?vid=0c1ecff5-69ed-46a2-bcca-316b26b87952"},"vehicle_type_id":"4","last_reported":1728821717,"current_range_meters":30800,"station_id":"ce4bhih2rcd13ifvqfs0","pricing_plan_id":"cebpf4jnsgd1na2vs0mg"},{"bike_id":"a5989fc6-7f99-4285-99f4-331f457b8817","system_id":"levelo_inurba_marseille","lat":43.25114,"lon":5.40321,"is_reserved":false,"is_disabled":false,"rental_uris":{"android":"levelo://app?vid=a5989fc6-7f99-4285-99f4-331f457b8817","ios":"levelo://app?vid=a5989fc6-7f99-4285-99f4-331f457b8817"},"vehicle_type_id":"4","last_reported":1728821717,"current_range_meters":18800,"station_id":"ce4bhlh2rcd13ifvqgig","pricing_plan_id":"cebpf4jnsgd1na2vs0mg"},{"bike_id":"0d87b2be-576b-4eb4-8f26-dbd7b9dd1336","system_id":"levelo_inurba_marseille","lat":43.23063,"lon":5.3549,"is_reserved":false,"is_disabled":false,"rental_uris":{"android":"levelo://app?vid=0d87b2be-576b-4eb4-8f26-dbd7b9dd1336","ios":"levelo://app?vid=0d87b2be-576b-4eb4-8f26-dbd7b9dd1336"},"vehicle_type_id":"4","last_reported":1728821717,"current_range_meters":22400,"station_id":"cpo3342slgdg3j2ifvpg","pricing_plan_id":"cebpf4jnsgd1na2vs0mg"},{"bike_id":"d8b1ce1d-838b-48bb-86eb-0245b55493ec","system_id":"levelo_inurba_marseille","lat":43.29849,"lon":5.36289,"is_reserved":false,"is_disabled":false,"rental_uris":{"android":"levelo://app?vid=d8b1ce1d-838b-48bb-86eb-0245b55493ec","ios":"levelo://app?vid=d8b1ce1d-838b-48bb-86eb-0245b55493ec"},"vehicle_type_id":"4","last_reported":1728821717,"current_range_meters":31200,"station_id":"ce4bgpp2rcd13ifvqc3g","pricing_plan_id":"cebpf4jnsgd1na2vs0mg"},{"bike_id":"72f5e2f0-b4cc-4c12-ba66-b5aebd8bf16b","system_id":"levelo_inurba_marseille","lat":43.31652,"lon":5.40407,"is_reserved":false,"is_disabled":false,"rental_uris":{"android":"levelo://app?vid=72f5e2f0-b4cc-4c12-ba66-b5aebd8bf16b","ios":"levelo://app?vid=72f5e2f0-b4cc-4c12-ba66-b5aebd8bf16b"},"vehicle_type_id":"4","last_reported":1728821717,"current_range_meters":38800,"station_id":"ce4bh092rcd13ifvqd30","pricing_plan_id":"cebpf4jnsgd1na2vs0mg"},{"bike_id":"9d0e307c-cca0-4b29-be05-f1dd1610130d","system_id":"levelo_inurba_marseille","lat":43.24395,"lon":5.37057,"is_reserved":false,"is_disabled":false,"rental_uris":{"android":"levelo://app?vid=9d0e307c-cca0-4b29-be05-f1dd1610130d","ios":"levelo://app?vid=9d0e307c-cca0-4b29-be05-f1dd1610130d"},"vehicle_type_id":"4","last_reported":1728821717,"current_range_meters":5600,"station_id":"ce4bhhh2rcd13ifvqfk0","pricing_plan_id":"cebpf4jnsgd1na2vs0mg"},{"bike_id":"a80b3ec3-8ad2-484d-9326-63d5d725e170","system_id":"levelo_inurba_marseille","lat":43.29559,"lon":5.42283,"is_reserved":false,"is_disabled":false,"rental_uris":{"android":"levelo://app?vid=a80b3ec3-8ad2-484d-9326-63d5d725e170","ios":"levelo://app?vid=a80b3ec3-8ad2-484d-9326-63d5d725e170"},"vehicle_type_id":"4","last_reported":1728821717,"current_range_meters":28800,"station_id":"ce4bhph2rcd13ifvqhdg","pricing_plan_id":"cebpf4jnsgd1na2vs0mg"},{"bike_id":"0a5699d7-d571-409b-ab5c-b900d43b527c","system_id":"levelo_inurba_marseille","lat":43.2511,"lon":5.40322,"is_reserved":false,"is_disabled":false,"rental_uris":{"android":"levelo://app?vid=0a5699d7-d571-409b-ab5c-b900d43b527c","ios":"levelo://app?vid=0a5699d7-d571-409b-ab5c-b900d43b527c"},"vehicle_type_id":"4","last_reported":1728821717,"current_range_meters":11600,"station_id":"ce4bhlh2rcd13ifvqgig","pricing_plan_id":"cebpf4jnsgd1na2vs0mg"},{"bike_id":"ad384203-41b2-41a3-bdd9-e89e71f4a9b5","system_id":"levelo_inurba_marseille","lat":43.24387,"lon":5.37053,"is_reserved":false,"is_disabled":false,"rental_uris":{"android":"levelo://app?vid=ad384203-41b2-41a3-bdd9-e89e71f4a9b5","ios":"levelo://app?vid=ad384203-41b2-41a3-bdd9-e89e71f4a9b5"},"vehicle_type_id":"4","last_reported":1728821717,"current_range_meters":17200,"station_id":"ce4bhhh2rcd13ifvqfk0","pricing_plan_id":"cebpf4jnsgd1na2vs0mg"},{"bike_id":"b4971d6c-9cfe-4bb0-aeda-5cdeacd0c89e","system_id":"levelo_inurba_marseille","lat":43.24387,"lon":5.37062,"is_reserved":false,"is_disabled":false,"rental_uris":{"android":"levelo://app?vid=b4971d6c-9cfe-4bb0-aeda-5cdeacd0c89e","ios":"levelo://app?vid=b4971d6c-9cfe-4bb0-aeda-5cdeacd0c89e"},"vehicle_type_id":"4","last_reported":1728821717,"current_range_meters":18800,"station_id":"ce4bhhh2rcd13ifvqfk0","pricing_plan_id":"cebpf4jnsgd1na2vs0mg"},{"bike_id":"e3a35517-da9c-47a9-a14d-764dd0d79153","system_id":"levelo_inurba_marseille","lat":43.2919,"lon":5.3932,"is_reserved":false,"is_disabled":false,"rental_uris":{"android":"levelo://app?vid=e3a35517-da9c-47a9-a14d-764dd0d79153","ios":"levelo://app?vid=e3a35517-da9c-47a9-a14d-764dd0d79153"},"vehicle_type_id":"4","last_reported":1728821717,"current_range_meters":20400,"station_id":"ce4bh192rcd13ifvqdd0","pricing_plan_id":"cebpf4jnsgd1na2vs0mg"},{"bike_id":"b7398819-ce9b-459f-830a-e50067b6bd60","system_id":"levelo_inurba_marseille","lat":43.27908,"lon":5.38003,"is_reserved":false,"is_disabled":false,"rental_uris":{"android":"levelo://app?vid=b7398819-ce9b-459f-830a-e50067b6bd60","ios":"levelo://app?vid=b7398819-ce9b-459f-830a-e50067b6bd60"},"vehicle_type_id":"4","last_reported":1728821717,"current_range_meters":30400,"station_id":"ce4bhf92rcd13ifvqf50","pricing_plan_id":"cebpf4jnsgd1na2vs0mg"},{"bike_id":"b07d947f-da80-474c-85d5-8ab68230fd90","system_id":"levelo_inurba_marseille","lat":43.33737,"lon":5.39193,"is_reserved":false,"is_disabled":false,"rental_uris":{"android":"levelo://app?vid=b07d947f-da80-474c-85d5-8ab68230fd90","ios":"levelo://app?vid=b07d947f-da80-474c-85d5-8ab68230fd90"},"vehicle_type_id":"4","last_reported":1728821717,"current_range_meters":17600,"station_id":"ce4bhr92rcd13ifvqhsg","pricing_plan_id":"cebpf4jnsgd1na2vs0mg"},{"bike_id":"96a2e8b1-3af9-43cf-80ca-bc1be9f853f8","system_id":"levelo_inurba_marseille","lat":43.27211,"lon":5.39175,"is_reserved":false,"is_disabled":false,"rental_uris":{"android":"levelo://app?vid=96a2e8b1-3af9-43cf-80ca-bc1be9f853f8","ios":"levelo://app?vid=96a2e8b1-3af9-43cf-80ca-bc1be9f853f8"},"vehicle_type_id":"4","last_reported":1728821717,"current_range_meters":33600,"station_id":"ce4bhhp2rcd13ifvqfm0","pricing_plan_id":"cebpf4jnsgd1na2vs0mg"},{"bike_id":"23d70d37-bb69-40fd-b248-120007e36f15","system_id":"levelo_inurba_marseille","lat":43.24539,"lon":5.39522,"is_reserved":false,"is_disabled":false,"rental_uris":{"android":"levelo://app?vid=23d70d37-bb69-40fd-b248-120007e36f15","ios":"levelo://app?vid=23d70d37-bb69-40fd-b248-120007e36f15"},"vehicle_type_id":"4","last_reported":1728821717,"current_range_meters":38800,"station_id":"ce4bhlp2rcd13ifvqgjg","pricing_plan_id":"cebpf4jnsgd1na2vs0mg"},{"bike_id":"da37aca6-324b-4470-a331-81423f2de521","system_id":"levelo_inurba_marseille","lat":43.27058,"lon":5.40257,"is_reserved":false,"is_disabled":false,"rental_uris":{"android":"levelo://app?vid=da37aca6-324b-4470-a331-81423f2de521","ios":"levelo://app?vid=da37aca6-324b-4470-a331-81423f2de521"},"vehicle_type_id":"4","last_reported":1728821717,"current_range_meters":2800,"station_id":"ce4bhk92rcd13ifvqgc0","pricing_plan_id":"cebpf4jnsgd1na2vs0mg"},{"bike_id":"d9f728eb-9554-4ff0-84ca-0dd225222b04","system_id":"levelo_inurba_marseille","lat":43.26936,"lon":5.38914,"is_reserved":false,"is_disabled":false,"rental_uris":{"android":"levelo://app?vid=d9f728eb-9554-4ff0-84ca-0dd225222b04","ios":"levelo://app?vid=d9f728eb-9554-4ff0-84ca-0dd225222b04"},"vehicle_type_id":"4","last_reported":1728821717,"current_range_meters":36000,"station_id":"ce4bhhh2rcd13ifvqfl0","pricing_plan_id":"cebpf4jnsgd1na2vs0mg"},{"bike_id":"562f9f05-b692-42c8-a8ae-9ad0b4efeb05","system_id":"levelo_inurba_marseille","lat":43.2417,"lon":5.36399,"is_reserved":false,"is_disabled":false,"rental_uris":{"android":"levelo://app?vid=562f9f05-b692-42c8-a8ae-9ad0b4efeb05","ios":"levelo://app?vid=562f9f05-b692-42c8-a8ae-9ad0b4efeb05"},"vehicle_type_id":"4","last_reported":1728821717,"current_range_meters":35200,"station_id":"cpo36qri1sfpv3e86is0","pricing_plan_id":"cebpf4jnsgd1na2vs0mg"},{"bike_id":"d1ccabef-980e-475a-967a-88285d3c9da2","system_id":"levelo_inurba_marseille","lat":43.2808,"lon":5.39657,"is_reserved":false,"is_disabled":false,"rental_uris":{"android":"levelo://app?vid=d1ccabef-980e-475a-967a-88285d3c9da2","ios":"levelo://app?vid=d1ccabef-980e-475a-967a-88285d3c9da2"},"vehicle_type_id":"4","last_reported":1728821717,"current_range_meters":24400,"station_id":"ce4bho12rcd13ifvqh2g","pricing_plan_id":"cebpf4jnsgd1na2vs0mg"},{"bike_id":"17289d87-c34f-4ba9-ac47-6067514ef77e","system_id":"levelo_inurba_marseille","lat":43.26058,"lon":5.39396,"is_reserved":false,"is_disabled":false,"rental_uris":{"android":"levelo://app?vid=17289d87-c34f-4ba9-ac47-6067514ef77e","ios":"levelo://app?vid=17289d87-c34f-4ba9-ac47-6067514ef77e"},"vehicle_type_id":"4","last_reported":1728821717,"current_range_meters":38800,"station_id":"ce4bhh92rcd13ifvqfj0","pricing_plan_id":"cebpf4jnsgd1na2vs0mg"},{"bike_id":"e1f9486c-3843-42a6-aacd-4c828c67520a","system_id":"levelo_inurba_marseille","lat":43.23052,"lon":5.35494,"is_reserved":false,"is_disabled":false,"rental_uris":{"android":"levelo://app?vid=e1f9486c-3843-42a6-aacd-4c828c67520a","ios":"levelo://app?vid=e1f9486c-3843-42a6-aacd-4c828c67520a"},"vehicle_type_id":"4","last_reported":1728821717,"current_range_meters":30800,"station_id":"cpo3342slgdg3j2ifvpg","pricing_plan_id":"cebpf4jnsgd1na2vs0mg"},{"bike_id":"0ed02b61-0f38-4602-830b-cbdfd1c7723f","system_id":"levelo_inurba_marseille","lat":43.29214,"lon":5.36046,"is_reserved":false,"is_disabled":false,"rental_uris":{"android":"levelo://app?vid=0ed02b61-0f38-4602-830b-cbdfd1c7723f","ios":"levelo://app?vid=0ed02b61-0f38-4602-830b-cbdfd1c7723f"},"vehicle_type_id":"4","last_reported":1728821717,"current_range_meters":31200,"station_id":"ce4bhbh2rcd13ifvqeqg","pricing_plan_id":"cebpf4jnsgd1na2vs0mg"},{"bike_id":"17f0a58b-fa96-470d-a1b0-89c2a0c2bfbe","system_id":"levelo_inurba_marseille","lat":43.23193,"lon":5.35556,"is_reserved":false,"is_disabled":false,"rental_uris":{"android":"levelo://app?vid=17f0a58b-fa96-470d-a1b0-89c2a0c2bfbe","ios":"levelo://app?vid=17f0a58b-fa96-470d-a1b0-89c2a0c2bfbe"},"vehicle_type_id":"4","last_reported":1728821717,"current_range_meters":16800,"station_id":"ce4bhu92rcd13ifvqi70","pricing_plan_id":"cebpf4jnsgd1na2vs0mg"},{"bike_id":"97505fc3-5990-4d0e-bbc3-548ba0e50482","system_id":"levelo_inurba_marseille","lat":43.26493,"lon":5.39549,"is_reserved":false,"is_disabled":false,"rental_uris":{"android":"levelo://app?vid=97505fc3-5990-4d0e-bbc3-548ba0e50482","ios":"levelo://app?vid=97505fc3-5990-4d0e-bbc3-548ba0e50482"},"vehicle_type_id":"4","last_reported":1728821717,"current_range_meters":9200,"station_id":"ce4bhi12rcd13ifvqfq0","pricing_plan_id":"cebpf4jnsgd1na2vs0mg"},{"bike_id":"1cb4369a-5cdd-4339-9263-710be3d97e9f","system_id":"levelo_inurba_marseille","lat":43.28435,"lon":5.39184,"is_reserved":false,"is_disabled":false,"rental_uris":{"android":"levelo://app?vid=1cb4369a-5cdd-4339-9263-710be3d97e9f","ios":"levelo://app?vid=1cb4369a-5cdd-4339-9263-710be3d97e9f"},"vehicle_type_id":"4","last_reported":1728821717,"current_range_meters":32000,"station_id":"ce4bhoh2rcd13ifvqh5g","pricing_plan_id":"cebpf4jnsgd1na2vs0mg"},{"bike_id":"b25409bc-df4d-476a-893e-c6a5838692b2","system_id":"levelo_inurba_marseille","lat":43.23194,"lon":5.35556,"is_reserved":false,"is_disabled":false,"rental_uris":{"android":"levelo://app?vid=b25409bc-df4d-476a-893e-c6a5838692b2","ios":"levelo://app?vid=b25409bc-df4d-476a-893e-c6a5838692b2"},"vehicle_type_id":"4","last_reported":1728821717,"current_range_meters":38800,"station_id":"ce4bhu92rcd13ifvqi70","pricing_plan_id":"cebpf4jnsgd1na2vs0mg"},{"bike_id":"c0ba6486-f212-4dcc-9e9d-0bcd4174be5f","system_id":"levelo_inurba_marseille","lat":43.25939,"lon":5.409,"is_reserved":false,"is_disabled":false,"rental_uris":{"android":"levelo://app?vid=c0ba6486-f212-4dcc-9e9d-0bcd4174be5f","ios":"levelo://app?vid=c0ba6486-f212-4dcc-9e9d-0bcd4174be5f"},"vehicle_type_id":"4","last_reported":1728821717,"current_range_meters":20400,"station_id":"ce4bhm92rcd13ifvqglg","pricing_plan_id":"cebpf4jnsgd1na2vs0mg"},{"bike_id":"8fb2b431-bcb9-46ba-80fb-e26e84592fc5","system_id":"levelo_inurba_marseille","lat":43.23193,"lon":5.35543,"is_reserved":false,"is_disabled":false,"rental_uris":{"android":"levelo://app?vid=8fb2b431-bcb9-46ba-80fb-e26e84592fc5","ios":"levelo://app?vid=8fb2b431-bcb9-46ba-80fb-e26e84592fc5"},"vehicle_type_id":"4","last_reported":1728821717,"current_range_meters":27600,"station_id":"ce4bhu92rcd13ifvqi70","pricing_plan_id":"cebpf4jnsgd1na2vs0mg"},{"bike_id":"4b92315a-a141-48c0-afb9-c6777f33d787","system_id":"levelo_inurba_marseille","lat":43.30533,"lon":5.36559,"is_reserved":false,"is_disabled":false,"rental_uris":{"android":"levelo://app?vid=4b92315a-a141-48c0-afb9-c6777f33d787","ios":"levelo://app?vid=4b92315a-a141-48c0-afb9-c6777f33d787"},"vehicle_type_id":"4","last_reported":1728821717,"current_range_meters":32000,"station_id":"ce4bgs12rcd13ifvqcag","pricing_plan_id":"cebpf4jnsgd1na2vs0mg"},{"bike_id":"e2f25126-29b7-4581-a4fe-9e458716fb1d","system_id":"levelo_inurba_marseille","lat":43.23964,"lon":5.36621,"is_reserved":false,"is_disabled":false,"rental_uris":{"android":"levelo://app?vid=e2f25126-29b7-4581-a4fe-9e458716fb1d","ios":"levelo://app?vid=e2f25126-29b7-4581-a4fe-9e458716fb1d"},"vehicle_type_id":"4","last_reported":1728821717,"current_range_meters":24400,"station_id":"ce4bhi12rcd13ifvqfp0","pricing_plan_id":"cebpf4jnsgd1na2vs0mg"},{"bike_id":"6746abcb-d28b-4802-b21a-150ec671a4ca","system_id":"levelo_inurba_marseille","lat":43.23194,"lon":5.35552,"is_reserved":false,"is_disabled":false,"rental_uris":{"android":"levelo://app?vid=6746abcb-d28b-4802-b21a-150ec671a4ca","ios":"levelo://app?vid=6746abcb-d28b-4802-b21a-150ec671a4ca"},"vehicle_type_id":"4","last_reported":1728821717,"current_range_meters":22800,"station_id":"ce4bhu92rcd13ifvqi70","pricing_plan_id":"cebpf4jnsgd1na2vs0mg"},{"bike_id":"c8a8d68b-7600-4973-b7a0-733b7b33cf83","system_id":"levelo_inurba_marseille","lat":43.248016,"lon":5.374579,"is_reserved":false,"is_disabled":false,"rental_uris":{"android":"levelo://app?vid=c8a8d68b-7600-4973-b7a0-733b7b33cf83","ios":"levelo://app?vid=c8a8d68b-7600-4973-b7a0-733b7b33cf83"},"vehicle_type_id":"4","last_reported":1728821717,"current_range_meters":38800,"station_id":"ce4bhgh2rcd13ifvqfb0","pricing_plan_id":"cebpf4jnsgd1na2vs0mg"},{"bike_id":"094b29e5-79f8-4fb1-afe4-cbfbbb1b9cd4","system_id":"levelo_inurba_marseille","lat":43.23182,"lon":5.3998,"is_reserved":false,"is_disabled":false,"rental_uris":{"android":"levelo://app?vid=094b29e5-79f8-4fb1-afe4-cbfbbb1b9cd4","ios":"levelo://app?vid=094b29e5-79f8-4fb1-afe4-cbfbbb1b9cd4"},"vehicle_type_id":"4","last_reported":1728821717,"current_range_meters":38800,"station_id":"ce4bhn12rcd13ifvqgqg","pricing_plan_id":"cebpf4jnsgd1na2vs0mg"},{"bike_id":"c0419195-57e5-40c7-aa7c-a5c918a82dd1","system_id":"levelo_inurba_marseille","lat":43.25088,"lon":5.39524,"is_reserved":false,"is_disabled":false,"rental_uris":{"android":"levelo://app?vid=c0419195-57e5-40c7-aa7c-a5c918a82dd1","ios":"levelo://app?vid=c0419195-57e5-40c7-aa7c-a5c918a82dd1"},"vehicle_type_id":"4","last_reported":1728821717,"current_range_meters":28800,"station_id":"ce4bhm12rcd13ifvqgkg","pricing_plan_id":"cebpf4jnsgd1na2vs0mg"},{"bike_id":"81cd8990-7350-4041-b029-a704423aeae9","system_id":"levelo_inurba_marseille","lat":43.24666,"lon":5.38169,"is_reserved":false,"is_disabled":false,"rental_uris":{"android":"levelo://app?vid=81cd8990-7350-4041-b029-a704423aeae9","ios":"levelo://app?vid=81cd8990-7350-4041-b029-a704423aeae9"},"vehicle_type_id":"4","last_reported":1728821717,"current_range_meters":38400,"station_id":"ce4bhih2rcd13ifvqfr0","pricing_plan_id":"cebpf4jnsgd1na2vs0mg"},{"bike_id":"8df76210-c1cb-4a21-b1a3-10b5629722e8","system_id":"levelo_inurba_marseille","lat":43.23194,"lon":5.39996,"is_reserved":false,"is_disabled":false,"rental_uris":{"android":"levelo://app?vid=8df76210-c1cb-4a21-b1a3-10b5629722e8","ios":"levelo://app?vid=8df76210-c1cb-4a21-b1a3-10b5629722e8"},"vehicle_type_id":"4","last_reported":1728821717,"current_range_meters":38800,"station_id":"ce4bhn12rcd13ifvqgqg","pricing_plan_id":"cebpf4jnsgd1na2vs0mg"},{"bike_id":"a9d8d00f-2b10-40cd-af9b-04b4ae45f2bc","system_id":"levelo_inurba_marseille","lat":43.24386,"lon":5.37054,"is_reserved":false,"is_disabled":false,"rental_uris":{"android":"levelo://app?vid=a9d8d00f-2b10-40cd-af9b-04b4ae45f2bc","ios":"levelo://app?vid=a9d8d00f-2b10-40cd-af9b-04b4ae45f2bc"},"vehicle_type_id":"4","last_reported":1728821717,"current_range_meters":23200,"station_id":"ce4bhhh2rcd13ifvqfk0","pricing_plan_id":"cebpf4jnsgd1na2vs0mg"},{"bike_id":"61d23bf9-bd58-4c6d-a3e9-e0d87525fd27","system_id":"levelo_inurba_marseille","lat":43.264846,"lon":5.395556,"is_reserved":false,"is_disabled":false,"rental_uris":{"android":"levelo://app?vid=61d23bf9-bd58-4c6d-a3e9-e0d87525fd27","ios":"levelo://app?vid=61d23bf9-bd58-4c6d-a3e9-e0d87525fd27"},"vehicle_type_id":"4","last_reported":1728821717,"current_range_meters":11200,"station_id":"ce4bhi12rcd13ifvqfq0","pricing_plan_id":"cebpf4jnsgd1na2vs0mg"},{"bike_id":"456a0760-1e50-4b5b-bea8-07738722e337","system_id":"levelo_inurba_marseille","lat":43.26552,"lon":5.37284,"is_reserved":false,"is_disabled":false,"rental_uris":{"android":"levelo://app?vid=456a0760-1e50-4b5b-bea8-07738722e337","ios":"levelo://app?vid=456a0760-1e50-4b5b-bea8-07738722e337"},"vehicle_type_id":"4","last_reported":1728821717,"current_range_meters":20400,"station_id":"ce4bhg12rcd13ifvqf70","pricing_plan_id":"cebpf4jnsgd1na2vs0mg"},{"bike_id":"aa787854-30b8-40c4-81e2-c37e761eaeef","system_id":"levelo_inurba_marseille","lat":43.28417,"lon":5.34983,"is_reserved":false,"is_disabled":false,"rental_uris":{"android":"levelo://app?vid=aa787854-30b8-40c4-81e2-c37e761eaeef","ios":"levelo://app?vid=aa787854-30b8-40c4-81e2-c37e761eaeef"},"vehicle_type_id":"4","last_reported":1728821717,"current_range_meters":21600,"station_id":"ce4bhbh2rcd13ifvqepg","pricing_plan_id":"cebpf4jnsgd1na2vs0mg"},{"bike_id":"3e2b4898-bb26-41ed-a70c-2a474867ed24","system_id":"levelo_inurba_marseille","lat":43.24802,"lon":5.37452,"is_reserved":false,"is_disabled":false,"rental_uris":{"android":"levelo://app?vid=3e2b4898-bb26-41ed-a70c-2a474867ed24","ios":"levelo://app?vid=3e2b4898-bb26-41ed-a70c-2a474867ed24"},"vehicle_type_id":"4","last_reported":1728821717,"current_range_meters":24000,"station_id":"ce4bhgh2rcd13ifvqfb0","pricing_plan_id":"cebpf4jnsgd1na2vs0mg"},{"bike_id":"49799a82-784b-40c7-9ab3-3d2a23696762","system_id":"levelo_inurba_marseille","lat":43.29233,"lon":5.36052,"is_reserved":false,"is_disabled":false,"rental_uris":{"android":"levelo://app?vid=49799a82-784b-40c7-9ab3-3d2a23696762","ios":"levelo://app?vid=49799a82-784b-40c7-9ab3-3d2a23696762"},"vehicle_type_id":"4","last_reported":1728821717,"current_range_meters":38800,"station_id":"ce4bhbh2rcd13ifvqeqg","pricing_plan_id":"cebpf4jnsgd1na2vs0mg"},{"bike_id":"e53d9dac-6d16-4334-ad56-d0d38fcf4eb7","system_id":"levelo_inurba_marseille","lat":43.27973,"lon":5.41813,"is_reserved":false,"is_disabled":false,"rental_uris":{"android":"levelo://app?vid=e53d9dac-6d16-4334-ad56-d0d38fcf4eb7","ios":"levelo://app?vid=e53d9dac-6d16-4334-ad56-d0d38fcf4eb7"},"vehicle_type_id":"4","last_reported":1728821717,"current_range_meters":24400,"station_id":"","pricing_plan_id":"cebpf4jnsgd1na2vs0mg"},{"bike_id":"c611aef4-6d5d-40aa-878f-a8ebd960836b","system_id":"levelo_inurba_marseille","lat":43.23969,"lon":5.36626,"is_reserved":false,"is_disabled":false,"rental_uris":{"android":"levelo://app?vid=c611aef4-6d5d-40aa-878f-a8ebd960836b","ios":"levelo://app?vid=c611aef4-6d5d-40aa-878f-a8ebd960836b"},"vehicle_type_id":"4","last_reported":1728821717,"current_range_meters":38800,"station_id":"ce4bhi12rcd13ifvqfp0","pricing_plan_id":"cebpf4jnsgd1na2vs0mg"},{"bike_id":"92b1213e-a8ac-46f7-9e03-575f0de9bce8","system_id":"levelo_inurba_marseille","lat":43.2985,"lon":5.36289,"is_reserved":false,"is_disabled":false,"rental_uris":{"android":"levelo://app?vid=92b1213e-a8ac-46f7-9e03-575f0de9bce8","ios":"levelo://app?vid=92b1213e-a8ac-46f7-9e03-575f0de9bce8"},"vehicle_type_id":"4","last_reported":1728821717,"current_range_meters":22000,"station_id":"ce4bgpp2rcd13ifvqc3g","pricing_plan_id":"cebpf4jnsgd1na2vs0mg"},{"bike_id":"5c66c34b-4d17-41e7-b606-fdb788ef0d6a","system_id":"levelo_inurba_marseille","lat":43.28264,"lon":5.35049,"is_reserved":false,"is_disabled":false,"rental_uris":{"android":"levelo://app?vid=5c66c34b-4d17-41e7-b606-fdb788ef0d6a","ios":"levelo://app?vid=5c66c34b-4d17-41e7-b606-fdb788ef0d6a"},"vehicle_type_id":"4","last_reported":1728821717,"current_range_meters":14400,"station_id":"ce4bhbp2rcd13ifvqerg","pricing_plan_id":"cebpf4jnsgd1na2vs0mg"},{"bike_id":"35414525-d68d-4ed5-9cac-cb8c6f762d11","system_id":"levelo_inurba_marseille","lat":43.29205,"lon":5.39323,"is_reserved":false,"is_disabled":false,"rental_uris":{"android":"levelo://app?vid=35414525-d68d-4ed5-9cac-cb8c6f762d11","ios":"levelo://app?vid=35414525-d68d-4ed5-9cac-cb8c6f762d11"},"vehicle_type_id":"4","last_reported":1728821717,"current_range_meters":39200,"station_id":"ce4bh192rcd13ifvqdd0","pricing_plan_id":"cebpf4jnsgd1na2vs0mg"},{"bike_id":"c167cdf7-5aed-449a-bdd2-8f515812e27f","system_id":"levelo_inurba_marseille","lat":43.29032,"lon":5.37567,"is_reserved":false,"is_disabled":false,"rental_uris":{"android":"levelo://app?vid=c167cdf7-5aed-449a-bdd2-8f515812e27f","ios":"levelo://app?vid=c167cdf7-5aed-449a-bdd2-8f515812e27f"},"vehicle_type_id":"4","last_reported":1728821717,"current_range_meters":35600,"station_id":"ce4bh692rcd13ifvqe90","pricing_plan_id":"cebpf4jnsgd1na2vs0mg"},{"bike_id":"cdde71fa-933f-47ef-8a23-39142a076aea","system_id":"levelo_inurba_marseille","lat":43.29557,"lon":5.42284,"is_reserved":false,"is_disabled":false,"rental_uris":{"android":"levelo://app?vid=cdde71fa-933f-47ef-8a23-39142a076aea","ios":"levelo://app?vid=cdde71fa-933f-47ef-8a23-39142a076aea"},"vehicle_type_id":"4","last_reported":1728821717,"current_range_meters":38800,"station_id":"ce4bhph2rcd13ifvqhdg","pricing_plan_id":"cebpf4jnsgd1na2vs0mg"},{"bike_id":"278635b2-5649-468e-b40a-bbe4c39122ab","system_id":"levelo_inurba_marseille","lat":43.231826,"lon":5.399949,"is_reserved":false,"is_disabled":false,"rental_uris":{"android":"levelo://app?vid=278635b2-5649-468e-b40a-bbe4c39122ab","ios":"levelo://app?vid=278635b2-5649-468e-b40a-bbe4c39122ab"},"vehicle_type_id":"4","last_reported":1728821717,"current_range_meters":11600,"station_id":"ce4bhn12rcd13ifvqgqg","pricing_plan_id":"cebpf4jnsgd1na2vs0mg"},{"bike_id":"dac0b9b6-eda6-45bb-b2be-d04b76f648db","system_id":"levelo_inurba_marseille","lat":43.30138,"lon":5.38784,"is_reserved":false,"is_disabled":false,"rental_uris":{"android":"levelo://app?vid=dac0b9b6-eda6-45bb-b2be-d04b76f648db","ios":"levelo://app?vid=dac0b9b6-eda6-45bb-b2be-d04b76f648db"},"vehicle_type_id":"4","last_reported":1728821717,"current_range_meters":38400,"station_id":"ce4bghh2rcd13ifvqb60","pricing_plan_id":"cebpf4jnsgd1na2vs0mg"},{"bike_id":"f5f4bcc9-b87f-44ae-b45e-8fc105691959","system_id":"levelo_inurba_marseille","lat":43.325672,"lon":5.399877,"is_reserved":false,"is_disabled":false,"rental_uris":{"android":"levelo://app?vid=f5f4bcc9-b87f-44ae-b45e-8fc105691959","ios":"levelo://app?vid=f5f4bcc9-b87f-44ae-b45e-8fc105691959"},"vehicle_type_id":"4","last_reported":1728821717,"current_range_meters":16000,"station_id":"","pricing_plan_id":"cebpf4jnsgd1na2vs0mg"},{"bike_id":"d04c3a25-9e86-42a0-833a-b06bd4f0b4bd","system_id":"levelo_inurba_marseille","lat":43.24174,"lon":5.36388,"is_reserved":false,"is_disabled":false,"rental_uris":{"android":"levelo://app?vid=d04c3a25-9e86-42a0-833a-b06bd4f0b4bd","ios":"levelo://app?vid=d04c3a25-9e86-42a0-833a-b06bd4f0b4bd"},"vehicle_type_id":"4","last_reported":1728821717,"current_range_meters":18000,"station_id":"cpo36qri1sfpv3e86is0","pricing_plan_id":"cebpf4jnsgd1na2vs0mg"},{"bike_id":"49316722-f5ca-469e-b328-cdeaebfb0c7f","system_id":"levelo_inurba_marseille","lat":43.23963,"lon":5.36627,"is_reserved":false,"is_disabled":false,"rental_uris":{"android":"levelo://app?vid=49316722-f5ca-469e-b328-cdeaebfb0c7f","ios":"levelo://app?vid=49316722-f5ca-469e-b328-cdeaebfb0c7f"},"vehicle_type_id":"4","last_reported":1728821717,"current_range_meters":38800,"station_id":"ce4bhi12rcd13ifvqfp0","pricing_plan_id":"cebpf4jnsgd1na2vs0mg"},{"bike_id":"68733efd-6b5e-4f5e-b6a7-90a506e949e8","system_id":"levelo_inurba_marseille","lat":43.30209,"lon":5.39457,"is_reserved":false,"is_disabled":false,"rental_uris":{"android":"levelo://app?vid=68733efd-6b5e-4f5e-b6a7-90a506e949e8","ios":"levelo://app?vid=68733efd-6b5e-4f5e-b6a7-90a506e949e8"},"vehicle_type_id":"4","last_reported":1728821717,"current_range_meters":38800,"station_id":"ce4bh0p2rcd13ifvqd70","pricing_plan_id":"cebpf4jnsgd1na2vs0mg"},{"bike_id":"4d34eb46-754b-4623-aedd-7323639c1240","system_id":"levelo_inurba_marseille","lat":43.28439,"lon":5.39188,"is_reserved":false,"is_disabled":false,"rental_uris":{"android":"levelo://app?vid=4d34eb46-754b-4623-aedd-7323639c1240","ios":"levelo://app?vid=4d34eb46-754b-4623-aedd-7323639c1240"},"vehicle_type_id":"4","last_reported":1728821717,"current_range_meters":38000,"station_id":"ce4bhoh2rcd13ifvqh5g","pricing_plan_id":"cebpf4jnsgd1na2vs0mg"},{"bike_id":"96d2c9a4-9402-4bde-9375-4e11e68c1dad","system_id":"levelo_inurba_marseille","lat":43.2921,"lon":5.35798,"is_reserved":false,"is_disabled":false,"rental_uris":{"android":"levelo://app?vid=96d2c9a4-9402-4bde-9375-4e11e68c1dad","ios":"levelo://app?vid=96d2c9a4-9402-4bde-9375-4e11e68c1dad"},"vehicle_type_id":"4","last_reported":1728821717,"current_range_meters":38000,"station_id":"ce4bhb12rcd13ifvqel0","pricing_plan_id":"cebpf4jnsgd1na2vs0mg"},{"bike_id":"c6110eb3-3ad5-4d51-b618-fbe94e154c9a","system_id":"levelo_inurba_marseille","lat":43.30139,"lon":5.37416,"is_reserved":false,"is_disabled":false,"rental_uris":{"android":"levelo://app?vid=c6110eb3-3ad5-4d51-b618-fbe94e154c9a","ios":"levelo://app?vid=c6110eb3-3ad5-4d51-b618-fbe94e154c9a"},"vehicle_type_id":"4","last_reported":1728821717,"current_range_meters":16400,"station_id":"ce4bgs92rcd13ifvqcc0","pricing_plan_id":"cebpf4jnsgd1na2vs0mg"},{"bike_id":"7b20509d-3e68-45a9-908c-1764325c91a4","system_id":"levelo_inurba_marseille","lat":43.23195,"lon":5.3555,"is_reserved":false,"is_disabled":false,"rental_uris":{"android":"levelo://app?vid=7b20509d-3e68-45a9-908c-1764325c91a4","ios":"levelo://app?vid=7b20509d-3e68-45a9-908c-1764325c91a4"},"vehicle_type_id":"4","last_reported":1728821717,"current_range_meters":5600,"station_id":"ce4bhu92rcd13ifvqi70","pricing_plan_id":"cebpf4jnsgd1na2vs0mg"},{"bike_id":"aad69708-28ac-43e6-945e-619f5a7c6bfd","system_id":"levelo_inurba_marseille","lat":43.33781,"lon":5.37443,"is_reserved":false,"is_disabled":false,"rental_uris":{"android":"levelo://app?vid=aad69708-28ac-43e6-945e-619f5a7c6bfd","ios":"levelo://app?vid=aad69708-28ac-43e6-945e-619f5a7c6bfd"},"vehicle_type_id":"4","last_reported":1728821717,"current_range_meters":33600,"station_id":"","pricing_plan_id":"cebpf4jnsgd1na2vs0mg"},{"bike_id":"910f0a68-95fb-43ae-b392-326545b415eb","system_id":"levelo_inurba_marseille","lat":43.28268,"lon":5.350693,"is_reserved":false,"is_disabled":false,"rental_uris":{"android":"levelo://app?vid=910f0a68-95fb-43ae-b392-326545b415eb","ios":"levelo://app?vid=910f0a68-95fb-43ae-b392-326545b415eb"},"vehicle_type_id":"4","last_reported":1728821717,"current_range_meters":32000,"station_id":"ce4bhbp2rcd13ifvqerg","pricing_plan_id":"cebpf4jnsgd1na2vs0mg"},{"bike_id":"0ce4ea9c-f2c7-4066-b887-16aa93675e94","system_id":"levelo_inurba_marseille","lat":43.27814,"lon":5.40712,"is_reserved":false,"is_disabled":false,"rental_uris":{"android":"levelo://app?vid=0ce4ea9c-f2c7-4066-b887-16aa93675e94","ios":"levelo://app?vid=0ce4ea9c-f2c7-4066-b887-16aa93675e94"},"vehicle_type_id":"4","last_reported":1728821717,"current_range_meters":5600,"station_id":"ce4bhnh2rcd13ifvqgtg","pricing_plan_id":"cebpf4jnsgd1na2vs0mg"},{"bike_id":"e53a035d-faea-4db0-b754-4b419f7ae012","system_id":"levelo_inurba_marseille","lat":43.27058,"lon":5.40261,"is_reserved":false,"is_disabled":false,"rental_uris":{"android":"levelo://app?vid=e53a035d-faea-4db0-b754-4b419f7ae012","ios":"levelo://app?vid=e53a035d-faea-4db0-b754-4b419f7ae012"},"vehicle_type_id":"4","last_reported":1728821717,"current_range_meters":16000,"station_id":"ce4bhk92rcd13ifvqgc0","pricing_plan_id":"cebpf4jnsgd1na2vs0mg"},{"bike_id":"71cf7286-1207-48ea-9905-84e8b1d59926","system_id":"levelo_inurba_marseille","lat":43.23155,"lon":5.43702,"is_reserved":false,"is_disabled":false,"rental_uris":{"android":"levelo://app?vid=71cf7286-1207-48ea-9905-84e8b1d59926","ios":"levelo://app?vid=71cf7286-1207-48ea-9905-84e8b1d59926"},"vehicle_type_id":"4","last_reported":1728821717,"current_range_meters":32000,"station_id":"ce4bhmp2rcd13ifvqgog","pricing_plan_id":"cebpf4jnsgd1na2vs0mg"},{"bike_id":"dfeff48d-a0d8-4dbb-843c-7bbfef2b619d","system_id":"levelo_inurba_marseille","lat":43.2905,"lon":5.38777,"is_reserved":false,"is_disabled":false,"rental_uris":{"android":"levelo://app?vid=dfeff48d-a0d8-4dbb-843c-7bbfef2b619d","ios":"levelo://app?vid=dfeff48d-a0d8-4dbb-843c-7bbfef2b619d"},"vehicle_type_id":"4","last_reported":1728821717,"current_range_meters":35200,"station_id":"ce4bh2p2rcd13ifvqdi0","pricing_plan_id":"cebpf4jnsgd1na2vs0mg"},{"bike_id":"08dcee72-42fb-4bea-b663-b225d8d1b4c5","system_id":"levelo_inurba_marseille","lat":43.27828,"lon":5.39197,"is_reserved":false,"is_disabled":false,"rental_uris":{"android":"levelo://app?vid=08dcee72-42fb-4bea-b663-b225d8d1b4c5","ios":"levelo://app?vid=08dcee72-42fb-4bea-b663-b225d8d1b4c5"},"vehicle_type_id":"4","last_reported":1728821717,"current_range_meters":38800,"station_id":"ce4bhjp2rcd13ifvqga0","pricing_plan_id":"cebpf4jnsgd1na2vs0mg"},{"bike_id":"9b63e08c-92a9-474f-94c2-a5402b510f01","system_id":"levelo_inurba_marseille","lat":43.2319,"lon":5.35556,"is_reserved":false,"is_disabled":false,"rental_uris":{"android":"levelo://app?vid=9b63e08c-92a9-474f-94c2-a5402b510f01","ios":"levelo://app?vid=9b63e08c-92a9-474f-94c2-a5402b510f01"},"vehicle_type_id":"4","last_reported":1728821717,"current_range_meters":3200,"station_id":"ce4bhu92rcd13ifvqi70","pricing_plan_id":"cebpf4jnsgd1na2vs0mg"},{"bike_id":"8509fa5d-c6d9-4cb2-b4b1-4f2065b2666e","system_id":"levelo_inurba_marseille","lat":43.28344,"lon":5.41016,"is_reserved":false,"is_disabled":false,"rental_uris":{"android":"levelo://app?vid=8509fa5d-c6d9-4cb2-b4b1-4f2065b2666e","ios":"levelo://app?vid=8509fa5d-c6d9-4cb2-b4b1-4f2065b2666e"},"vehicle_type_id":"4","last_reported":1728821717,"current_range_meters":3600,"station_id":"","pricing_plan_id":"cebpf4jnsgd1na2vs0mg"},{"bike_id":"16a14b49-4758-47c2-8aba-768c60fbef18","system_id":"levelo_inurba_marseille","lat":43.24178,"lon":5.39714,"is_reserved":false,"is_disabled":false,"rental_uris":{"android":"levelo://app?vid=16a14b49-4758-47c2-8aba-768c60fbef18","ios":"levelo://app?vid=16a14b49-4758-47c2-8aba-768c60fbef18"},"vehicle_type_id":"4","last_reported":1728821717,"current_range_meters":28800,"station_id":"ce4bhn12rcd13ifvqgpg","pricing_plan_id":"cebpf4jnsgd1na2vs0mg"},{"bike_id":"dc2d540f-87b6-4ba1-8b22-79e895e3daba","system_id":"levelo_inurba_marseille","lat":43.2842,"lon":5.34981,"is_reserved":false,"is_disabled":false,"rental_uris":{"android":"levelo://app?vid=dc2d540f-87b6-4ba1-8b22-79e895e3daba","ios":"levelo://app?vid=dc2d540f-87b6-4ba1-8b22-79e895e3daba"},"vehicle_type_id":"4","last_reported":1728821717,"current_range_meters":37600,"station_id":"ce4bhbh2rcd13ifvqepg","pricing_plan_id":"cebpf4jnsgd1na2vs0mg"},{"bike_id":"f9deceb6-28a5-4114-9300-91a207614eec","system_id":"levelo_inurba_marseille","lat":43.24662,"lon":5.38152,"is_reserved":false,"is_disabled":false,"rental_uris":{"android":"levelo://app?vid=f9deceb6-28a5-4114-9300-91a207614eec","ios":"levelo://app?vid=f9deceb6-28a5-4114-9300-91a207614eec"},"vehicle_type_id":"4","last_reported":1728821717,"current_range_meters":18800,"station_id":"ce4bhih2rcd13ifvqfr0","pricing_plan_id":"cebpf4jnsgd1na2vs0mg"},{"bike_id":"df4355c8-f6a4-424f-b7e6-34059e05bb79","system_id":"levelo_inurba_marseille","lat":43.245433,"lon":5.395244,"is_reserved":false,"is_disabled":false,"rental_uris":{"android":"levelo://app?vid=df4355c8-f6a4-424f-b7e6-34059e05bb79","ios":"levelo://app?vid=df4355c8-f6a4-424f-b7e6-34059e05bb79"},"vehicle_type_id":"4","last_reported":1728821717,"current_range_meters":35600,"station_id":"ce4bhlp2rcd13ifvqgjg","pricing_plan_id":"cebpf4jnsgd1na2vs0mg"},{"bike_id":"152e98bb-1551-4eeb-9e40-8143aa1bccc5","system_id":"levelo_inurba_marseille","lat":43.2706,"lon":5.40264,"is_reserved":false,"is_disabled":false,"rental_uris":{"android":"levelo://app?vid=152e98bb-1551-4eeb-9e40-8143aa1bccc5","ios":"levelo://app?vid=152e98bb-1551-4eeb-9e40-8143aa1bccc5"},"vehicle_type_id":"4","last_reported":1728821717,"current_range_meters":27200,"station_id":"ce4bhk92rcd13ifvqgc0","pricing_plan_id":"cebpf4jnsgd1na2vs0mg"},{"bike_id":"27311a75-ebb6-43d6-9fb5-f3ba72a10e0e","system_id":"levelo_inurba_marseille","lat":43.29908,"lon":5.43663,"is_reserved":false,"is_disabled":false,"rental_uris":{"android":"levelo://app?vid=27311a75-ebb6-43d6-9fb5-f3ba72a10e0e","ios":"levelo://app?vid=27311a75-ebb6-43d6-9fb5-f3ba72a10e0e"},"vehicle_type_id":"4","last_reported":1728821717,"current_range_meters":17200,"station_id":"ce4bhpp2rcd13ifvqhfg","pricing_plan_id":"cebpf4jnsgd1na2vs0mg"},{"bike_id":"53117131-c264-4282-93cb-9ea8ef15b2d9","system_id":"levelo_inurba_marseille","lat":43.310638,"lon":5.38343,"is_reserved":false,"is_disabled":false,"rental_uris":{"android":"levelo://app?vid=53117131-c264-4282-93cb-9ea8ef15b2d9","ios":"levelo://app?vid=53117131-c264-4282-93cb-9ea8ef15b2d9"},"vehicle_type_id":"4","last_reported":1728821717,"current_range_meters":17200,"station_id":"ce4bgv92rcd13ifvqcr0","pricing_plan_id":"cebpf4jnsgd1na2vs0mg"},{"bike_id":"992944b9-d550-41f2-8b48-4c62892e4026","system_id":"levelo_inurba_marseille","lat":43.29222,"lon":5.36073,"is_reserved":false,"is_disabled":false,"rental_uris":{"android":"levelo://app?vid=992944b9-d550-41f2-8b48-4c62892e4026","ios":"levelo://app?vid=992944b9-d550-41f2-8b48-4c62892e4026"},"vehicle_type_id":"4","last_reported":1728821717,"current_range_meters":38800,"station_id":"ce4bhbh2rcd13ifvqeqg","pricing_plan_id":"cebpf4jnsgd1na2vs0mg"},{"bike_id":"4e28be52-5ccc-4188-b6d4-f6fd8ee4c8c3","system_id":"levelo_inurba_marseille","lat":43.22935,"lon":5.35375,"is_reserved":false,"is_disabled":false,"rental_uris":{"android":"levelo://app?vid=4e28be52-5ccc-4188-b6d4-f6fd8ee4c8c3","ios":"levelo://app?vid=4e28be52-5ccc-4188-b6d4-f6fd8ee4c8c3"},"vehicle_type_id":"4","last_reported":1728821717,"current_range_meters":22400,"station_id":"cpo3532slgdg3j2ikp40","pricing_plan_id":"cebpf4jnsgd1na2vs0mg"},{"bike_id":"eb05ecaa-6a97-434f-9e0e-36d3b3230ae7","system_id":"levelo_inurba_marseille","lat":43.24651,"lon":5.38892,"is_reserved":false,"is_disabled":false,"rental_uris":{"android":"levelo://app?vid=eb05ecaa-6a97-434f-9e0e-36d3b3230ae7","ios":"levelo://app?vid=eb05ecaa-6a97-434f-9e0e-36d3b3230ae7"},"vehicle_type_id":"4","last_reported":1728821717,"current_range_meters":28800,"station_id":"ce4bhg12rcd13ifvqf60","pricing_plan_id":"cebpf4jnsgd1na2vs0mg"},{"bike_id":"be362dab-09bb-4610-a83d-44e44280a165","system_id":"levelo_inurba_marseille","lat":43.23061,"lon":5.35489,"is_reserved":false,"is_disabled":false,"rental_uris":{"android":"levelo://app?vid=be362dab-09bb-4610-a83d-44e44280a165","ios":"levelo://app?vid=be362dab-09bb-4610-a83d-44e44280a165"},"vehicle_type_id":"4","last_reported":1728821717,"current_range_meters":7200,"station_id":"cpo3342slgdg3j2ifvpg","pricing_plan_id":"cebpf4jnsgd1na2vs0mg"},{"bike_id":"6777e9a2-2ff2-4572-aac6-2bfb87f0751d","system_id":"levelo_inurba_marseille","lat":43.28268,"lon":5.35073,"is_reserved":false,"is_disabled":false,"rental_uris":{"android":"levelo://app?vid=6777e9a2-2ff2-4572-aac6-2bfb87f0751d","ios":"levelo://app?vid=6777e9a2-2ff2-4572-aac6-2bfb87f0751d"},"vehicle_type_id":"4","last_reported":1728821717,"current_range_meters":23200,"station_id":"ce4bhbp2rcd13ifvqerg","pricing_plan_id":"cebpf4jnsgd1na2vs0mg"},{"bike_id":"c125659c-958d-46e0-903b-368579960dd5","system_id":"levelo_inurba_marseille","lat":43.24389,"lon":5.37052,"is_reserved":false,"is_disabled":false,"rental_uris":{"android":"levelo://app?vid=c125659c-958d-46e0-903b-368579960dd5","ios":"levelo://app?vid=c125659c-958d-46e0-903b-368579960dd5"},"vehicle_type_id":"4","last_reported":1728821717,"current_range_meters":27600,"station_id":"ce4bhhh2rcd13ifvqfk0","pricing_plan_id":"cebpf4jnsgd1na2vs0mg"},{"bike_id":"d3cecb91-2976-4d2d-a848-8c8b16ea17c1","system_id":"levelo_inurba_marseille","lat":43.255,"lon":5.3765,"is_reserved":false,"is_disabled":false,"rental_uris":{"android":"levelo://app?vid=d3cecb91-2976-4d2d-a848-8c8b16ea17c1","ios":"levelo://app?vid=d3cecb91-2976-4d2d-a848-8c8b16ea17c1"},"vehicle_type_id":"4","last_reported":1728821717,"current_range_meters":33600,"station_id":"ce4bhh12rcd13ifvqff0","pricing_plan_id":"cebpf4jnsgd1na2vs0mg"},{"bike_id":"51397a06-4aa6-4537-8b53-47367b527c2d","system_id":"levelo_inurba_marseille","lat":43.278126,"lon":5.407194,"is_reserved":false,"is_disabled":false,"rental_uris":{"android":"levelo://app?vid=51397a06-4aa6-4537-8b53-47367b527c2d","ios":"levelo://app?vid=51397a06-4aa6-4537-8b53-47367b527c2d"},"vehicle_type_id":"4","last_reported":1728821717,"current_range_meters":37600,"station_id":"ce4bhnh2rcd13ifvqgtg","pricing_plan_id":"cebpf4jnsgd1na2vs0mg"},{"bike_id":"3caf68e8-3d29-4273-afe3-ba07e63f6407","system_id":"levelo_inurba_marseille","lat":43.23053,"lon":5.35492,"is_reserved":false,"is_disabled":false,"rental_uris":{"android":"levelo://app?vid=3caf68e8-3d29-4273-afe3-ba07e63f6407","ios":"levelo://app?vid=3caf68e8-3d29-4273-afe3-ba07e63f6407"},"vehicle_type_id":"4","last_reported":1728821717,"current_range_meters":7200,"station_id":"cpo3342slgdg3j2ifvpg","pricing_plan_id":"cebpf4jnsgd1na2vs0mg"},{"bike_id":"c5a187db-e278-4e0a-b184-28c59c5e6a1a","system_id":"levelo_inurba_marseille","lat":43.32535,"lon":5.4145,"is_reserved":false,"is_disabled":false,"rental_uris":{"android":"levelo://app?vid=c5a187db-e278-4e0a-b184-28c59c5e6a1a","ios":"levelo://app?vid=c5a187db-e278-4e0a-b184-28c59c5e6a1a"},"vehicle_type_id":"4","last_reported":1728821717,"current_range_meters":36800,"station_id":"ce4bhq12rcd13ifvqhhg","pricing_plan_id":"cebpf4jnsgd1na2vs0mg"},{"bike_id":"cba59919-95e6-42ff-83c9-6bcf45674d60","system_id":"levelo_inurba_marseille","lat":43.32288,"lon":5.38267,"is_reserved":false,"is_disabled":false,"rental_uris":{"android":"levelo://app?vid=cba59919-95e6-42ff-83c9-6bcf45674d60","ios":"levelo://app?vid=cba59919-95e6-42ff-83c9-6bcf45674d60"},"vehicle_type_id":"4","last_reported":1728821717,"current_range_meters":38000,"station_id":"ce4bhr12rcd13ifvqhqg","pricing_plan_id":"cebpf4jnsgd1na2vs0mg"},{"bike_id":"610bfb8b-3e91-4e90-b1f9-7f3d953e2cb4","system_id":"levelo_inurba_marseille","lat":43.24393,"lon":5.37066,"is_reserved":false,"is_disabled":false,"rental_uris":{"android":"levelo://app?vid=610bfb8b-3e91-4e90-b1f9-7f3d953e2cb4","ios":"levelo://app?vid=610bfb8b-3e91-4e90-b1f9-7f3d953e2cb4"},"vehicle_type_id":"4","last_reported":1728821717,"current_range_meters":22000,"station_id":"ce4bhhh2rcd13ifvqfk0","pricing_plan_id":"cebpf4jnsgd1na2vs0mg"},{"bike_id":"42006aa6-7aec-4704-bb84-014f53bba7f6","system_id":"levelo_inurba_marseille","lat":43.33026,"lon":5.39038,"is_reserved":false,"is_disabled":false,"rental_uris":{"android":"levelo://app?vid=42006aa6-7aec-4704-bb84-014f53bba7f6","ios":"levelo://app?vid=42006aa6-7aec-4704-bb84-014f53bba7f6"},"vehicle_type_id":"4","last_reported":1728821717,"current_range_meters":29600,"station_id":"ce4bhr92rcd13ifvqhrg","pricing_plan_id":"cebpf4jnsgd1na2vs0mg"},{"bike_id":"647bac96-d218-47f5-8924-439a651635df","system_id":"levelo_inurba_marseille","lat":43.26487,"lon":5.39548,"is_reserved":false,"is_disabled":false,"rental_uris":{"android":"levelo://app?vid=647bac96-d218-47f5-8924-439a651635df","ios":"levelo://app?vid=647bac96-d218-47f5-8924-439a651635df"},"vehicle_type_id":"4","last_reported":1728821717,"current_range_meters":6400,"station_id":"ce4bhi12rcd13ifvqfq0","pricing_plan_id":"cebpf4jnsgd1na2vs0mg"},{"bike_id":"b0685f0b-a65d-412f-9834-673d98a45357","system_id":"levelo_inurba_marseille","lat":43.23195,"lon":5.35544,"is_reserved":false,"is_disabled":false,"rental_uris":{"android":"levelo://app?vid=b0685f0b-a65d-412f-9834-673d98a45357","ios":"levelo://app?vid=b0685f0b-a65d-412f-9834-673d98a45357"},"vehicle_type_id":"4","last_reported":1728821717,"current_range_meters":16000,"station_id":"ce4bhu92rcd13ifvqi70","pricing_plan_id":"cebpf4jnsgd1na2vs0mg"},{"bike_id":"de511b08-20cb-4c36-bbd7-f8a8394049a3","system_id":"levelo_inurba_marseille","lat":43.29897,"lon":5.43657,"is_reserved":false,"is_disabled":false,"rental_uris":{"android":"levelo://app?vid=de511b08-20cb-4c36-bbd7-f8a8394049a3","ios":"levelo://app?vid=de511b08-20cb-4c36-bbd7-f8a8394049a3"},"vehicle_type_id":"4","last_reported":1728821717,"current_range_meters":17600,"station_id":"ce4bhpp2rcd13ifvqhfg","pricing_plan_id":"cebpf4jnsgd1na2vs0mg"},{"bike_id":"564a4b27-59f6-4f89-a473-6341b2cdbeec","system_id":"levelo_inurba_marseille","lat":43.28422,"lon":5.34975,"is_reserved":false,"is_disabled":false,"rental_uris":{"android":"levelo://app?vid=564a4b27-59f6-4f89-a473-6341b2cdbeec","ios":"levelo://app?vid=564a4b27-59f6-4f89-a473-6341b2cdbeec"},"vehicle_type_id":"4","last_reported":1728821717,"current_range_meters":9200,"station_id":"ce4bhbh2rcd13ifvqepg","pricing_plan_id":"cebpf4jnsgd1na2vs0mg"},{"bike_id":"51a92f36-8e84-42f8-b4dc-91b34d11f764","system_id":"levelo_inurba_marseille","lat":43.24168,"lon":5.36393,"is_reserved":false,"is_disabled":false,"rental_uris":{"android":"levelo://app?vid=51a92f36-8e84-42f8-b4dc-91b34d11f764","ios":"levelo://app?vid=51a92f36-8e84-42f8-b4dc-91b34d11f764"},"vehicle_type_id":"4","last_reported":1728821717,"current_range_meters":24800,"station_id":"cpo36qri1sfpv3e86is0","pricing_plan_id":"cebpf4jnsgd1na2vs0mg"},{"bike_id":"099d3b80-1f23-4f46-ba66-ae8aba144658","system_id":"levelo_inurba_marseille","lat":43.2901,"lon":5.35613,"is_reserved":false,"is_disabled":false,"rental_uris":{"android":"levelo://app?vid=099d3b80-1f23-4f46-ba66-ae8aba144658","ios":"levelo://app?vid=099d3b80-1f23-4f46-ba66-ae8aba144658"},"vehicle_type_id":"4","last_reported":1728821717,"current_range_meters":7200,"station_id":"ce4bhb92rcd13ifvqen0","pricing_plan_id":"cebpf4jnsgd1na2vs0mg"},{"bike_id":"1ae36fd0-99ad-4e19-806f-4defcbb6689a","system_id":"levelo_inurba_marseille","lat":43.29233,"lon":5.36061,"is_reserved":false,"is_disabled":false,"rental_uris":{"android":"levelo://app?vid=1ae36fd0-99ad-4e19-806f-4defcbb6689a","ios":"levelo://app?vid=1ae36fd0-99ad-4e19-806f-4defcbb6689a"},"vehicle_type_id":"4","last_reported":1728821717,"current_range_meters":33600,"station_id":"ce4bhbh2rcd13ifvqeqg","pricing_plan_id":"cebpf4jnsgd1na2vs0mg"},{"bike_id":"462a3896-9d65-4e0e-98f4-e59d9ad14514","system_id":"levelo_inurba_marseille","lat":43.27064,"lon":5.40262,"is_reserved":false,"is_disabled":false,"rental_uris":{"android":"levelo://app?vid=462a3896-9d65-4e0e-98f4-e59d9ad14514","ios":"levelo://app?vid=462a3896-9d65-4e0e-98f4-e59d9ad14514"},"vehicle_type_id":"4","last_reported":1728821717,"current_range_meters":36800,"station_id":"ce4bhk92rcd13ifvqgc0","pricing_plan_id":"cebpf4jnsgd1na2vs0mg"},{"bike_id":"8eb5e8c7-5ba5-4d04-9248-917b20970616","system_id":"levelo_inurba_marseille","lat":43.24178,"lon":5.36393,"is_reserved":false,"is_disabled":false,"rental_uris":{"android":"levelo://app?vid=8eb5e8c7-5ba5-4d04-9248-917b20970616","ios":"levelo://app?vid=8eb5e8c7-5ba5-4d04-9248-917b20970616"},"vehicle_type_id":"4","last_reported":1728821717,"current_range_meters":33600,"station_id":"cpo36qri1sfpv3e86is0","pricing_plan_id":"cebpf4jnsgd1na2vs0mg"},{"bike_id":"adf7f252-dbc1-459a-8043-ad1f1eca0157","system_id":"levelo_inurba_marseille","lat":43.337224,"lon":5.391796,"is_reserved":false,"is_disabled":false,"rental_uris":{"android":"levelo://app?vid=adf7f252-dbc1-459a-8043-ad1f1eca0157","ios":"levelo://app?vid=adf7f252-dbc1-459a-8043-ad1f1eca0157"},"vehicle_type_id":"4","last_reported":1728821717,"current_range_meters":34000,"station_id":"ce4bhr92rcd13ifvqhsg","pricing_plan_id":"cebpf4jnsgd1na2vs0mg"},{"bike_id":"0b4afb29-37be-41d6-88fa-21e23bce8b94","system_id":"levelo_inurba_marseille","lat":43.24173,"lon":5.36396,"is_reserved":false,"is_disabled":false,"rental_uris":{"android":"levelo://app?vid=0b4afb29-37be-41d6-88fa-21e23bce8b94","ios":"levelo://app?vid=0b4afb29-37be-41d6-88fa-21e23bce8b94"},"vehicle_type_id":"4","last_reported":1728821717,"current_range_meters":11600,"station_id":"cpo36qri1sfpv3e86is0","pricing_plan_id":"cebpf4jnsgd1na2vs0mg"},{"bike_id":"7368293e-5deb-41c7-9a13-c579bb677748","system_id":"levelo_inurba_marseille","lat":43.28282,"lon":5.35074,"is_reserved":false,"is_disabled":false,"rental_uris":{"android":"levelo://app?vid=7368293e-5deb-41c7-9a13-c579bb677748","ios":"levelo://app?vid=7368293e-5deb-41c7-9a13-c579bb677748"},"vehicle_type_id":"4","last_reported":1728821717,"current_range_meters":30400,"station_id":"ce4bhbp2rcd13ifvqerg","pricing_plan_id":"cebpf4jnsgd1na2vs0mg"},{"bike_id":"580cde0e-306f-4cce-af59-0e197f00aff2","system_id":"levelo_inurba_marseille","lat":43.30356,"lon":5.41875,"is_reserved":false,"is_disabled":false,"rental_uris":{"android":"levelo://app?vid=580cde0e-306f-4cce-af59-0e197f00aff2","ios":"levelo://app?vid=580cde0e-306f-4cce-af59-0e197f00aff2"},"vehicle_type_id":"4","last_reported":1728821717,"current_range_meters":8800,"station_id":"ce4bhop2rcd13ifvqh7g","pricing_plan_id":"cebpf4jnsgd1na2vs0mg"},{"bike_id":"e12cfa40-a007-4b37-a4ab-ca80d746c598","system_id":"levelo_inurba_marseille","lat":43.26777,"lon":5.39423,"is_reserved":false,"is_disabled":false,"rental_uris":{"android":"levelo://app?vid=e12cfa40-a007-4b37-a4ab-ca80d746c598","ios":"levelo://app?vid=e12cfa40-a007-4b37-a4ab-ca80d746c598"},"vehicle_type_id":"4","last_reported":1728821717,"current_range_meters":38800,"station_id":"ce4bhh12rcd13ifvqfg0","pricing_plan_id":"cebpf4jnsgd1na2vs0mg"},{"bike_id":"75a9ec36-d628-425b-8f28-3dfba3d5b08e","system_id":"levelo_inurba_marseille","lat":43.3146,"lon":5.37217,"is_reserved":false,"is_disabled":false,"rental_uris":{"android":"levelo://app?vid=75a9ec36-d628-425b-8f28-3dfba3d5b08e","ios":"levelo://app?vid=75a9ec36-d628-425b-8f28-3dfba3d5b08e"},"vehicle_type_id":"4","last_reported":1728821717,"current_range_meters":38800,"station_id":"","pricing_plan_id":"cebpf4jnsgd1na2vs0mg"},{"bike_id":"48bee974-2478-4b0e-9a82-077c2715cd44","system_id":"levelo_inurba_marseille","lat":43.314758,"lon":5.37306,"is_reserved":false,"is_disabled":false,"rental_uris":{"android":"levelo://app?vid=48bee974-2478-4b0e-9a82-077c2715cd44","ios":"levelo://app?vid=48bee974-2478-4b0e-9a82-077c2715cd44"},"vehicle_type_id":"4","last_reported":1728821717,"current_range_meters":22000,"station_id":"ce4bgt12rcd13ifvqcd0","pricing_plan_id":"cebpf4jnsgd1na2vs0mg"},{"bike_id":"8d4052fb-8a56-429d-ac05-87002c2d82d4","system_id":"levelo_inurba_marseille","lat":43.23967,"lon":5.3663,"is_reserved":false,"is_disabled":false,"rental_uris":{"android":"levelo://app?vid=8d4052fb-8a56-429d-ac05-87002c2d82d4","ios":"levelo://app?vid=8d4052fb-8a56-429d-ac05-87002c2d82d4"},"vehicle_type_id":"4","last_reported":1728821717,"current_range_meters":19200,"station_id":"ce4bhi12rcd13ifvqfp0","pricing_plan_id":"cebpf4jnsgd1na2vs0mg"},{"bike_id":"40f4a0a9-e4f3-46a2-a2da-83ab9f6b18da","system_id":"levelo_inurba_marseille","lat":43.30356,"lon":5.41888,"is_reserved":false,"is_disabled":false,"rental_uris":{"android":"levelo://app?vid=40f4a0a9-e4f3-46a2-a2da-83ab9f6b18da","ios":"levelo://app?vid=40f4a0a9-e4f3-46a2-a2da-83ab9f6b18da"},"vehicle_type_id":"4","last_reported":1728821717,"current_range_meters":27200,"station_id":"ce4bhop2rcd13ifvqh7g","pricing_plan_id":"cebpf4jnsgd1na2vs0mg"},{"bike_id":"7bd0f43a-c864-4e1d-8875-a9d9ff24f2d2","system_id":"levelo_inurba_marseille","lat":43.25583,"lon":5.38238,"is_reserved":false,"is_disabled":false,"rental_uris":{"android":"levelo://app?vid=7bd0f43a-c864-4e1d-8875-a9d9ff24f2d2","ios":"levelo://app?vid=7bd0f43a-c864-4e1d-8875-a9d9ff24f2d2"},"vehicle_type_id":"4","last_reported":1728821717,"current_range_meters":8000,"station_id":"ce4bhih2rcd13ifvqfs0","pricing_plan_id":"cebpf4jnsgd1na2vs0mg"},{"bike_id":"a2aa03b3-6d60-4984-bb2c-2820dc923b23","system_id":"levelo_inurba_marseille","lat":43.27828,"lon":5.39202,"is_reserved":false,"is_disabled":false,"rental_uris":{"android":"levelo://app?vid=a2aa03b3-6d60-4984-bb2c-2820dc923b23","ios":"levelo://app?vid=a2aa03b3-6d60-4984-bb2c-2820dc923b23"},"vehicle_type_id":"4","last_reported":1728821717,"current_range_meters":8400,"station_id":"ce4bhjp2rcd13ifvqga0","pricing_plan_id":"cebpf4jnsgd1na2vs0mg"},{"bike_id":"a594e22e-33d5-43be-a042-89a8449ae9e0","system_id":"levelo_inurba_marseille","lat":43.241785,"lon":5.397262,"is_reserved":false,"is_disabled":false,"rental_uris":{"android":"levelo://app?vid=a594e22e-33d5-43be-a042-89a8449ae9e0","ios":"levelo://app?vid=a594e22e-33d5-43be-a042-89a8449ae9e0"},"vehicle_type_id":"4","last_reported":1728821717,"current_range_meters":38400,"station_id":"ce4bhn12rcd13ifvqgpg","pricing_plan_id":"cebpf4jnsgd1na2vs0mg"},{"bike_id":"55a4524d-82e2-494f-827b-96f16356b1f1","system_id":"levelo_inurba_marseille","lat":43.28444,"lon":5.3919,"is_reserved":false,"is_disabled":false,"rental_uris":{"android":"levelo://app?vid=55a4524d-82e2-494f-827b-96f16356b1f1","ios":"levelo://app?vid=55a4524d-82e2-494f-827b-96f16356b1f1"},"vehicle_type_id":"4","last_reported":1728821717,"current_range_meters":38000,"station_id":"ce4bhoh2rcd13ifvqh5g","pricing_plan_id":"cebpf4jnsgd1na2vs0mg"},{"bike_id":"904466af-25d0-423c-9edb-fb7fc8114abe","system_id":"levelo_inurba_marseille","lat":43.23196,"lon":5.3555,"is_reserved":false,"is_disabled":false,"rental_uris":{"android":"levelo://app?vid=904466af-25d0-423c-9edb-fb7fc8114abe","ios":"levelo://app?vid=904466af-25d0-423c-9edb-fb7fc8114abe"},"vehicle_type_id":"4","last_reported":1728821717,"current_range_meters":10800,"station_id":"ce4bhu92rcd13ifvqi70","pricing_plan_id":"cebpf4jnsgd1na2vs0mg"},{"bike_id":"7083f00c-46c1-459e-8543-ac14c251567a","system_id":"levelo_inurba_marseille","lat":43.300293,"lon":5.379988,"is_reserved":false,"is_disabled":false,"rental_uris":{"android":"levelo://app?vid=7083f00c-46c1-459e-8543-ac14c251567a","ios":"levelo://app?vid=7083f00c-46c1-459e-8543-ac14c251567a"},"vehicle_type_id":"4","last_reported":1728821717,"current_range_meters":24400,"station_id":"ce4bgop2rcd13ifvqc1g","pricing_plan_id":"cebpf4jnsgd1na2vs0mg"},{"bike_id":"e417769b-5374-4d69-8046-9be2e4363abe","system_id":"levelo_inurba_marseille","lat":43.24648,"lon":5.38894,"is_reserved":false,"is_disabled":false,"rental_uris":{"android":"levelo://app?vid=e417769b-5374-4d69-8046-9be2e4363abe","ios":"levelo://app?vid=e417769b-5374-4d69-8046-9be2e4363abe"},"vehicle_type_id":"4","last_reported":1728821717,"current_range_meters":20000,"station_id":"ce4bhg12rcd13ifvqf60","pricing_plan_id":"cebpf4jnsgd1na2vs0mg"},{"bike_id":"7b44e1ad-e3d4-449d-a4f2-c264fde8bb79","system_id":"levelo_inurba_marseille","lat":43.24813,"lon":5.37458,"is_reserved":false,"is_disabled":false,"rental_uris":{"android":"levelo://app?vid=7b44e1ad-e3d4-449d-a4f2-c264fde8bb79","ios":"levelo://app?vid=7b44e1ad-e3d4-449d-a4f2-c264fde8bb79"},"vehicle_type_id":"4","last_reported":1728821717,"current_range_meters":22400,"station_id":"ce4bhgh2rcd13ifvqfb0","pricing_plan_id":"cebpf4jnsgd1na2vs0mg"},{"bike_id":"125e11af-d227-4903-9022-a159fdb505aa","system_id":"levelo_inurba_marseille","lat":43.29227,"lon":5.36052,"is_reserved":false,"is_disabled":false,"rental_uris":{"android":"levelo://app?vid=125e11af-d227-4903-9022-a159fdb505aa","ios":"levelo://app?vid=125e11af-d227-4903-9022-a159fdb505aa"},"vehicle_type_id":"4","last_reported":1728821717,"current_range_meters":33600,"station_id":"ce4bhbh2rcd13ifvqeqg","pricing_plan_id":"cebpf4jnsgd1na2vs0mg"},{"bike_id":"d7f6ce64-5303-4fe5-b946-55314c4a7157","system_id":"levelo_inurba_marseille","lat":43.27059,"lon":5.38649,"is_reserved":false,"is_disabled":false,"rental_uris":{"android":"levelo://app?vid=d7f6ce64-5303-4fe5-b946-55314c4a7157","ios":"levelo://app?vid=d7f6ce64-5303-4fe5-b946-55314c4a7157"},"vehicle_type_id":"4","last_reported":1728821717,"current_range_meters":8800,"station_id":"ce4bhh92rcd13ifvqfi0","pricing_plan_id":"cebpf4jnsgd1na2vs0mg"},{"bike_id":"c3196472-dfd3-492a-b752-fa951f0b426d","system_id":"levelo_inurba_marseille","lat":43.24547,"lon":5.39529,"is_reserved":false,"is_disabled":false,"rental_uris":{"android":"levelo://app?vid=c3196472-dfd3-492a-b752-fa951f0b426d","ios":"levelo://app?vid=c3196472-dfd3-492a-b752-fa951f0b426d"},"vehicle_type_id":"4","last_reported":1728821717,"current_range_meters":18800,"station_id":"ce4bhlp2rcd13ifvqgjg","pricing_plan_id":"cebpf4jnsgd1na2vs0mg"},{"bike_id":"be4a8e29-a02b-4745-9ba8-a537d03afd89","system_id":"levelo_inurba_marseille","lat":43.29225,"lon":5.36066,"is_reserved":false,"is_disabled":false,"rental_uris":{"android":"levelo://app?vid=be4a8e29-a02b-4745-9ba8-a537d03afd89","ios":"levelo://app?vid=be4a8e29-a02b-4745-9ba8-a537d03afd89"},"vehicle_type_id":"4","last_reported":1728821717,"current_range_meters":19200,"station_id":"ce4bhbh2rcd13ifvqeqg","pricing_plan_id":"cebpf4jnsgd1na2vs0mg"},{"bike_id":"600a6ea5-5c70-4f25-9b57-c621b8210681","system_id":"levelo_inurba_marseille","lat":43.32657,"lon":5.40982,"is_reserved":false,"is_disabled":false,"rental_uris":{"android":"levelo://app?vid=600a6ea5-5c70-4f25-9b57-c621b8210681","ios":"levelo://app?vid=600a6ea5-5c70-4f25-9b57-c621b8210681"},"vehicle_type_id":"4","last_reported":1728821717,"current_range_meters":28400,"station_id":"ce4bhpp2rcd13ifvqhgg","pricing_plan_id":"cebpf4jnsgd1na2vs0mg"},{"bike_id":"925fa3fd-01d7-49ed-b3c9-0b7e20f0b862","system_id":"levelo_inurba_marseille","lat":43.23956,"lon":5.36623,"is_reserved":false,"is_disabled":false,"rental_uris":{"android":"levelo://app?vid=925fa3fd-01d7-49ed-b3c9-0b7e20f0b862","ios":"levelo://app?vid=925fa3fd-01d7-49ed-b3c9-0b7e20f0b862"},"vehicle_type_id":"4","last_reported":1728821717,"current_range_meters":27200,"station_id":"ce4bhi12rcd13ifvqfp0","pricing_plan_id":"cebpf4jnsgd1na2vs0mg"},{"bike_id":"93df53b0-093d-43c5-88bb-312a178b1d07","system_id":"levelo_inurba_marseille","lat":43.29715,"lon":5.36619,"is_reserved":false,"is_disabled":false,"rental_uris":{"android":"levelo://app?vid=93df53b0-093d-43c5-88bb-312a178b1d07","ios":"levelo://app?vid=93df53b0-093d-43c5-88bb-312a178b1d07"},"vehicle_type_id":"4","last_reported":1728821717,"current_range_meters":22800,"station_id":"ce4bgn12rcd13ifvqbt0","pricing_plan_id":"cebpf4jnsgd1na2vs0mg"},{"bike_id":"6624b9d8-1734-4c69-b27b-12ce48cf311f","system_id":"levelo_inurba_marseille","lat":43.23194,"lon":5.35556,"is_reserved":false,"is_disabled":false,"rental_uris":{"android":"levelo://app?vid=6624b9d8-1734-4c69-b27b-12ce48cf311f","ios":"levelo://app?vid=6624b9d8-1734-4c69-b27b-12ce48cf311f"},"vehicle_type_id":"4","last_reported":1728821717,"current_range_meters":13600,"station_id":"ce4bhu92rcd13ifvqi70","pricing_plan_id":"cebpf4jnsgd1na2vs0mg"},{"bike_id":"e1cd8c1d-7ea5-46e6-8858-6043e1473645","system_id":"levelo_inurba_marseille","lat":43.28567,"lon":5.39489,"is_reserved":false,"is_disabled":false,"rental_uris":{"android":"levelo://app?vid=e1cd8c1d-7ea5-46e6-8858-6043e1473645","ios":"levelo://app?vid=e1cd8c1d-7ea5-46e6-8858-6043e1473645"},"vehicle_type_id":"4","last_reported":1728821717,"current_range_meters":16800,"station_id":"ce4bh292rcd13ifvqdg0","pricing_plan_id":"cebpf4jnsgd1na2vs0mg"},{"bike_id":"a2fc6420-e6e2-4d43-8ba7-53dda70baa83","system_id":"levelo_inurba_marseille","lat":43.22927,"lon":5.35374,"is_reserved":false,"is_disabled":false,"rental_uris":{"android":"levelo://app?vid=a2fc6420-e6e2-4d43-8ba7-53dda70baa83","ios":"levelo://app?vid=a2fc6420-e6e2-4d43-8ba7-53dda70baa83"},"vehicle_type_id":"4","last_reported":1728821717,"current_range_meters":25200,"station_id":"cpo3532slgdg3j2ikp40","pricing_plan_id":"cebpf4jnsgd1na2vs0mg"},{"bike_id":"ec459838-8836-4c06-b999-7605dedea091","system_id":"levelo_inurba_marseille","lat":43.23197,"lon":5.35547,"is_reserved":false,"is_disabled":false,"rental_uris":{"android":"levelo://app?vid=ec459838-8836-4c06-b999-7605dedea091","ios":"levelo://app?vid=ec459838-8836-4c06-b999-7605dedea091"},"vehicle_type_id":"4","last_reported":1728821717,"current_range_meters":25600,"station_id":"ce4bhu92rcd13ifvqi70","pricing_plan_id":"cebpf4jnsgd1na2vs0mg"},{"bike_id":"fe4241cf-7145-46e7-b4f2-8a6d046d65d1","system_id":"levelo_inurba_marseille","lat":43.27632,"lon":5.38846,"is_reserved":false,"is_disabled":false,"rental_uris":{"android":"levelo://app?vid=fe4241cf-7145-46e7-b4f2-8a6d046d65d1","ios":"levelo://app?vid=fe4241cf-7145-46e7-b4f2-8a6d046d65d1"},"vehicle_type_id":"4","last_reported":1728821717,"current_range_meters":3200,"station_id":"ce4bhi12rcd13ifvqfo0","pricing_plan_id":"cebpf4jnsgd1na2vs0mg"},{"bike_id":"c00e9734-93f5-44e3-aeea-92def048b7ff","system_id":"levelo_inurba_marseille","lat":43.25121,"lon":5.40328,"is_reserved":false,"is_disabled":false,"rental_uris":{"android":"levelo://app?vid=c00e9734-93f5-44e3-aeea-92def048b7ff","ios":"levelo://app?vid=c00e9734-93f5-44e3-aeea-92def048b7ff"},"vehicle_type_id":"4","last_reported":1728821717,"current_range_meters":38400,"station_id":"ce4bhlh2rcd13ifvqgig","pricing_plan_id":"cebpf4jnsgd1na2vs0mg"},{"bike_id":"93ab220b-5fd2-4771-8768-d1d30cc73d39","system_id":"levelo_inurba_marseille","lat":43.29221,"lon":5.36054,"is_reserved":false,"is_disabled":false,"rental_uris":{"android":"levelo://app?vid=93ab220b-5fd2-4771-8768-d1d30cc73d39","ios":"levelo://app?vid=93ab220b-5fd2-4771-8768-d1d30cc73d39"},"vehicle_type_id":"4","last_reported":1728821717,"current_range_meters":38800,"station_id":"ce4bhbh2rcd13ifvqeqg","pricing_plan_id":"cebpf4jnsgd1na2vs0mg"},{"bike_id":"a0690487-65a6-4c60-bdae-b04f7554cb23","system_id":"levelo_inurba_marseille","lat":43.29555,"lon":5.42292,"is_reserved":false,"is_disabled":false,"rental_uris":{"android":"levelo://app?vid=a0690487-65a6-4c60-bdae-b04f7554cb23","ios":"levelo://app?vid=a0690487-65a6-4c60-bdae-b04f7554cb23"},"vehicle_type_id":"4","last_reported":1728821717,"current_range_meters":24400,"station_id":"ce4bhph2rcd13ifvqhdg","pricing_plan_id":"cebpf4jnsgd1na2vs0mg"},{"bike_id":"936a1da4-2f7e-49c2-9513-44155230faaa","system_id":"levelo_inurba_marseille","lat":43.28617,"lon":5.35104,"is_reserved":false,"is_disabled":false,"rental_uris":{"android":"levelo://app?vid=936a1da4-2f7e-49c2-9513-44155230faaa","ios":"levelo://app?vid=936a1da4-2f7e-49c2-9513-44155230faaa"},"vehicle_type_id":"4","last_reported":1728821717,"current_range_meters":27200,"station_id":"ce4bhch2rcd13ifvqeug","pricing_plan_id":"cebpf4jnsgd1na2vs0mg"},{"bike_id":"3c25dded-f8d5-4193-a336-9fad641c4aac","system_id":"levelo_inurba_marseille","lat":43.33752,"lon":5.3748,"is_reserved":false,"is_disabled":false,"rental_uris":{"android":"levelo://app?vid=3c25dded-f8d5-4193-a336-9fad641c4aac","ios":"levelo://app?vid=3c25dded-f8d5-4193-a336-9fad641c4aac"},"vehicle_type_id":"4","last_reported":1728821717,"current_range_meters":30000,"station_id":"","pricing_plan_id":"cebpf4jnsgd1na2vs0mg"},{"bike_id":"68e2454f-1b8e-4d31-a5eb-f9e7a89ece4e","system_id":"levelo_inurba_marseille","lat":43.29008,"lon":5.35613,"is_reserved":false,"is_disabled":false,"rental_uris":{"android":"levelo://app?vid=68e2454f-1b8e-4d31-a5eb-f9e7a89ece4e","ios":"levelo://app?vid=68e2454f-1b8e-4d31-a5eb-f9e7a89ece4e"},"vehicle_type_id":"4","last_reported":1728821717,"current_range_meters":2800,"station_id":"ce4bhb92rcd13ifvqen0","pricing_plan_id":"cebpf4jnsgd1na2vs0mg"},{"bike_id":"e944c81a-c0ad-4254-a427-0f1ddcfa2844","system_id":"levelo_inurba_marseille","lat":43.33024,"lon":5.39045,"is_reserved":false,"is_disabled":false,"rental_uris":{"android":"levelo://app?vid=e944c81a-c0ad-4254-a427-0f1ddcfa2844","ios":"levelo://app?vid=e944c81a-c0ad-4254-a427-0f1ddcfa2844"},"vehicle_type_id":"4","last_reported":1728821717,"current_range_meters":28400,"station_id":"ce4bhr92rcd13ifvqhrg","pricing_plan_id":"cebpf4jnsgd1na2vs0mg"},{"bike_id":"7975faaf-f260-41c7-87cd-147b9a3b3ebf","system_id":"levelo_inurba_marseille","lat":43.23057,"lon":5.35494,"is_reserved":false,"is_disabled":false,"rental_uris":{"android":"levelo://app?vid=7975faaf-f260-41c7-87cd-147b9a3b3ebf","ios":"levelo://app?vid=7975faaf-f260-41c7-87cd-147b9a3b3ebf"},"vehicle_type_id":"4","last_reported":1728821717,"current_range_meters":30000,"station_id":"cpo3342slgdg3j2ifvpg","pricing_plan_id":"cebpf4jnsgd1na2vs0mg"},{"bike_id":"cc450442-09b5-48c3-8d85-f842dcc424ec","system_id":"levelo_inurba_marseille","lat":43.28421,"lon":5.34974,"is_reserved":false,"is_disabled":false,"rental_uris":{"android":"levelo://app?vid=cc450442-09b5-48c3-8d85-f842dcc424ec","ios":"levelo://app?vid=cc450442-09b5-48c3-8d85-f842dcc424ec"},"vehicle_type_id":"4","last_reported":1728821717,"current_range_meters":6000,"station_id":"ce4bhbh2rcd13ifvqepg","pricing_plan_id":"cebpf4jnsgd1na2vs0mg"},{"bike_id":"208e043b-f932-4a94-a56c-83231da92c43","system_id":"levelo_inurba_marseille","lat":43.23196,"lon":5.35557,"is_reserved":false,"is_disabled":false,"rental_uris":{"android":"levelo://app?vid=208e043b-f932-4a94-a56c-83231da92c43","ios":"levelo://app?vid=208e043b-f932-4a94-a56c-83231da92c43"},"vehicle_type_id":"4","last_reported":1728821717,"current_range_meters":17200,"station_id":"ce4bhu92rcd13ifvqi70","pricing_plan_id":"cebpf4jnsgd1na2vs0mg"},{"bike_id":"4f8108ef-68a4-47e5-b2e4-74634e125398","system_id":"levelo_inurba_marseille","lat":43.3093,"lon":5.40144,"is_reserved":false,"is_disabled":false,"rental_uris":{"android":"levelo://app?vid=4f8108ef-68a4-47e5-b2e4-74634e125398","ios":"levelo://app?vid=4f8108ef-68a4-47e5-b2e4-74634e125398"},"vehicle_type_id":"4","last_reported":1728821717,"current_range_meters":22000,"station_id":"ce4bgvp2rcd13ifvqct0","pricing_plan_id":"cebpf4jnsgd1na2vs0mg"},{"bike_id":"f674ab6a-eab1-453b-a2b5-511c9029322b","system_id":"levelo_inurba_marseille","lat":43.28276,"lon":5.35078,"is_reserved":false,"is_disabled":false,"rental_uris":{"android":"levelo://app?vid=f674ab6a-eab1-453b-a2b5-511c9029322b","ios":"levelo://app?vid=f674ab6a-eab1-453b-a2b5-511c9029322b"},"vehicle_type_id":"4","last_reported":1728821717,"current_range_meters":16800,"station_id":"ce4bhbp2rcd13ifvqerg","pricing_plan_id":"cebpf4jnsgd1na2vs0mg"},{"bike_id":"deb62c9e-acb4-4b40-8262-f4faae509174","system_id":"levelo_inurba_marseille","lat":43.24386,"lon":5.37062,"is_reserved":false,"is_disabled":false,"rental_uris":{"android":"levelo://app?vid=deb62c9e-acb4-4b40-8262-f4faae509174","ios":"levelo://app?vid=deb62c9e-acb4-4b40-8262-f4faae509174"},"vehicle_type_id":"4","last_reported":1728821717,"current_range_meters":28000,"station_id":"ce4bhhh2rcd13ifvqfk0","pricing_plan_id":"cebpf4jnsgd1na2vs0mg"},{"bike_id":"29ea3e8a-81b9-4f1c-9149-12ed0171591e","system_id":"levelo_inurba_marseille","lat":43.26563,"lon":5.39006,"is_reserved":false,"is_disabled":false,"rental_uris":{"android":"levelo://app?vid=29ea3e8a-81b9-4f1c-9149-12ed0171591e","ios":"levelo://app?vid=29ea3e8a-81b9-4f1c-9149-12ed0171591e"},"vehicle_type_id":"4","last_reported":1728821717,"current_range_meters":20000,"station_id":"ce4bhe12rcd13ifvqf30","pricing_plan_id":"cebpf4jnsgd1na2vs0mg"},{"bike_id":"2a765ae6-f691-44cd-8cef-3099a18fd173","system_id":"levelo_inurba_marseille","lat":43.23197,"lon":5.35551,"is_reserved":false,"is_disabled":false,"rental_uris":{"android":"levelo://app?vid=2a765ae6-f691-44cd-8cef-3099a18fd173","ios":"levelo://app?vid=2a765ae6-f691-44cd-8cef-3099a18fd173"},"vehicle_type_id":"4","last_reported":1728821717,"current_range_meters":16000,"station_id":"ce4bhu92rcd13ifvqi70","pricing_plan_id":"cebpf4jnsgd1na2vs0mg"},{"bike_id":"cc96abe7-3517-4d70-b664-67b2b19f5661","system_id":"levelo_inurba_marseille","lat":43.27999,"lon":5.40008,"is_reserved":false,"is_disabled":false,"rental_uris":{"android":"levelo://app?vid=cc96abe7-3517-4d70-b664-67b2b19f5661","ios":"levelo://app?vid=cc96abe7-3517-4d70-b664-67b2b19f5661"},"vehicle_type_id":"4","last_reported":1728821717,"current_range_meters":38400,"station_id":"ce4bho92rcd13ifvqh4g","pricing_plan_id":"cebpf4jnsgd1na2vs0mg"},