{"last_updated":1738771877,"ttl":60,"version":"2.2","data":{"bikes":[{"bike_id":"1c9a3abb-9e2d-4f8c-a07d-54cb262909a1","system_id":"levelo_inurba_marseille","lat":43.30528,"lon":5.36711,"is_reserved":false,"is_disabled":false,"rental_uris":{"android":"levelo://app?vid=1c9a3abb-9e2d-4f8c-a07d-54cb262909a1","ios":"levelo://app?vid=1c9a3abb-9e2d-4f8c-a07d-54cb262909a1"},"vehicle_type_id":"4","last_reported":1738771877,"current_range_meters":36000,"station_id":"ce4bgrp2rcd13ifvqc9g","pricing_plan_id":"cebpf4jnsgd1na2vs0mg"},{"bike_id":"a5f7c4f5-34ee-4436-8ad6-ab0e42629126","system_id":"levelo_inurba_marseille","lat":43.31337,"lon":5.39709,"is_reserved":false,"is_disabled":false,"rental_uris":{"android":"levelo://app?vid=a5f7c4f5-34ee-4436-8ad6-ab0e42629126","ios":"levelo://app?vid=a5f7c4f5-34ee-4436-8ad6-ab0e42629126"},"vehicle_type_id":"4","last_reported":1738771877,"current_range_meters":26000,"station_id":"ce4bgvp2rcd13ifvqcu0","pricing_plan_id":"cebpf4jnsgd1na2vs0mg"},{"bike_id":"419c8c22-86a4-4ef5-91f4-a06b4c2e4bba","system_id":"levelo_inurba_marseille","lat":43.2293,"lon":5.3537,"is_reserved":false,"is_disabled":false,"rental_uris":{"android":"levelo://app?vid=419c8c22-86a4-4ef5-91f4-a06b4c2e4bba","ios":"levelo://app?vid=419c8c22-86a4-4ef5-91f4-a06b4c2e4bba"},"vehicle_type_id":"4","last_reported":1738771877,"current_range_meters":26000,"station_id":"cpo3532slgdg3j2ikp40","pricing_plan_id":"cebpf4jnsgd1na2vs0mg"},{"bike_id":"b01e969a-d1ae-41b3-ae26-0fb666c87dc5","system_id":"levelo_inurba_marseille","lat":43.29419,"lon":5.3862,"is_reserved":false,"is_disabled":false,"rental_uris":{"android":"levelo://app?vid=b01e969a-d1ae-41b3-ae26-0fb666c87dc5","ios":"levelo://app?vid=b01e969a-d1ae-41b3-ae26-0fb666c87dc5"},"vehicle_type_id":"4","last_reported":1738771877,"current_range_meters":4000,"station_id":"ce4bh2h2rcd13ifvqdh0","pricing_plan_id":"cebpf4jnsgd1na2vs0mg"},{"bike_id":"ba05dbef-cf19-40fa-8248-bd31b49bcc49","system_id":"levelo_inurba_marseille","lat":43.25914,"lon":5.40892,"is_reserved":false,"is_disabled":false,"rental_uris":{"android":"levelo://app?vid=ba05dbef-cf19-40fa-8248-bd31b49bcc49","ios":"levelo://app?vid=ba05dbef-cf19-40fa-8248-bd31b49bcc49"},"vehicle_type_id":"4","last_reported":1738771877,"current_range_meters":38000,"station_id":"ce4bhm92rcd13ifvqglg","pricing_plan_id":"cebpf4jnsgd1na2vs0mg"},{"bike_id":"4fd3878f-4d69-4c60-955c-cd9cc4a3cc12","system_id":"levelo_inurba_marseille","lat":43.30314,"lon":5.39215,"is_reserved":false,"is_disabled":false,"rental_uris":{"android":"levelo://app?vid=4fd3878f-4d69-4c60-955c-cd9cc4a3cc12","ios":"levelo://app?vid=4fd3878f-4d69-4c60-955c-cd9cc4a3cc12"},"vehicle_type_id":"4","last_reported":1738771877,"current_range_meters":37600,"station_id":"ce4bgkh2rcd13ifvqbk0","pricing_plan_id":"cebpf4jnsgd1na2vs0mg"},{"bike_id":"0d32ebb8-7019-4347-8cf0-8c89b4bf211d","system_id":"levelo_inurba_marseille","lat":43.28615,"lon":5.35102,"is_reserved":false,"is_disabled":false,"rental_uris":{"android":"levelo://app?vid=0d32ebb8-7019-4347-8cf0-8c89b4bf211d","ios":"levelo://app?vid=0d32ebb8-7019-4347-8cf0-8c89b4bf211d"},"vehicle_type_id":"4","last_reported":1738771877,"current_range_meters":32800,"station_id":"ce4bhch2rcd13ifvqeug","pricing_plan_id":"cebpf4jnsgd1na2vs0mg"},{"bike_id":"f416047e-91b8-4236-925d-2cf08814eeb0","system_id":"levelo_inurba_marseille","lat":43.25723,"lon":5.411,"is_reserved":false,"is_disabled":false,"rental_uris":{"android":"levelo://app?vid=f416047e-91b8-4236-925d-2cf08814eeb0","ios":"levelo://app?vid=f416047e-91b8-4236-925d-2cf08814eeb0"},"vehicle_type_id":"4","last_reported":1738771877,"current_range_meters":6800,"station_id":"ce4bhkp2rcd13ifvqgd0","pricing_plan_id":"cebpf4jnsgd1na2vs0mg"},{"bike_id":"5337f0f7-e042-4e5e-a327-fb2925b1b328","system_id":"levelo_inurba_marseille","lat":43.269327,"lon":5.38907,"is_reserved":false,"is_disabled":false,"rental_uris":{"android":"levelo://app?vid=5337f0f7-e042-4e5e-a327-fb2925b1b328","ios":"levelo://app?vid=5337f0f7-e042-4e5e-a327-fb2925b1b328"},"vehicle_type_id":"4","last_reported":1738771877,"current_range_meters":22800,"station_id":"ce4bhhh2rcd13ifvqfl0","pricing_plan_id":"cebpf4jnsgd1na2vs0mg"},{"bike_id":"05a739cb-4359-4133-b031-8b236131c9e5","system_id":"levelo_inurba_marseille","lat":43.24144,"lon":5.39693,"is_reserved":false,"is_disabled":false,"rental_uris":{"android":"levelo://app?vid=05a739cb-4359-4133-b031-8b236131c9e5","ios":"levelo://app?vid=05a739cb-4359-4133-b031-8b236131c9e5"},"vehicle_type_id":"4","last_reported":1738771877,"current_range_meters":24800,"station_id":"ce4bhn12rcd13ifvqgpg","pricing_plan_id":"cebpf4jnsgd1na2vs0mg"},{"bike_id":"ec472da9-ca27-47fe-8fa3-1a619abaed2e","system_id":"levelo_inurba_marseille","lat":43.25122,"lon":5.40328,"is_reserved":false,"is_disabled":false,"rental_uris":{"android":"levelo://app?vid=ec472da9-ca27-47fe-8fa3-1a619abaed2e","ios":"levelo://app?vid=ec472da9-ca27-47fe-8fa3-1a619abaed2e"},"vehicle_type_id":"4","last_reported":1738771877,"current_range_meters":30800,"station_id":"ce4bhlh2rcd13ifvqgig","pricing_plan_id":"cebpf4jnsgd1na2vs0mg"},{"bike_id":"3b3750dc-9cdb-41a8-a721-f3277ba575c5","system_id":"levelo_inurba_marseille","lat":43.29696,"lon":5.37287,"is_reserved":false,"is_disabled":false,"rental_uris":{"android":"levelo://app?vid=3b3750dc-9cdb-41a8-a721-f3277ba575c5","ios":"levelo://app?vid=3b3750dc-9cdb-41a8-a721-f3277ba575c5"},"vehicle_type_id":"4","last_reported":1738771877,"current_range_meters":39200,"station_id":"ce4bgk12rcd13ifvqbj0","pricing_plan_id":"cebpf4jnsgd1na2vs0mg"},{"bike_id":"9010bdf7-5b3c-4fd0-bb0c-e513bae24df7","system_id":"levelo_inurba_marseille","lat":43.29278,"lon":5.40116,"is_reserved":false,"is_disabled":false,"rental_uris":{"android":"levelo://app?vid=9010bdf7-5b3c-4fd0-bb0c-e513bae24df7","ios":"levelo://app?vid=9010bdf7-5b3c-4fd0-bb0c-e513bae24df7"},"vehicle_type_id":"4","last_reported":1738771877,"current_range_meters":28400,"station_id":"ce4bh312rcd13ifvqdk0","pricing_plan_id":"cebpf4jnsgd1na2vs0mg"},{"bike_id":"27788668-d35d-4e3b-b85e-35c52733c3a9","system_id":"levelo_inurba_marseille","lat":43.24397,"lon":5.37059,"is_reserved":false,"is_disabled":false,"rental_uris":{"android":"levelo://app?vid=27788668-d35d-4e3b-b85e-35c52733c3a9","ios":"levelo://app?vid=27788668-d35d-4e3b-b85e-35c52733c3a9"},"vehicle_type_id":"4","last_reported":1738771877,"current_range_meters":6400,"station_id":"ce4bhhh2rcd13ifvqfk0","pricing_plan_id":"cebpf4jnsgd1na2vs0mg"},{"bike_id":"976402a2-3f16-4b2f-918a-9360d0672c4a","system_id":"levelo_inurba_marseille","lat":43.27998,"lon":5.40011,"is_reserved":false,"is_disabled":false,"rental_uris":{"android":"levelo://app?vid=976402a2-3f16-4b2f-918a-9360d0672c4a","ios":"levelo://app?vid=976402a2-3f16-4b2f-918a-9360d0672c4a"},"vehicle_type_id":"4","last_reported":1738771877,"current_range_meters":37600,"station_id":"ce4bho92rcd13ifvqh4g","pricing_plan_id":"cebpf4jnsgd1na2vs0mg"},{"bike_id":"5242d6df-e767-47b2-8f2a-81182fad9dcf","system_id":"levelo_inurba_marseille","lat":43.27676,"lon":5.38869,"is_reserved":false,"is_disabled":false,"rental_uris":{"android":"levelo://app?vid=5242d6df-e767-47b2-8f2a-81182fad9dcf","ios":"levelo://app?vid=5242d6df-e767-47b2-8f2a-81182fad9dcf"},"vehicle_type_id":"4","last_reported":1738771877,"current_range_meters":2000,"station_id":"ce4bhi12rcd13ifvqfo0","pricing_plan_id":"cebpf4jnsgd1na2vs0mg"},{"bike_id":"d72f401d-7e85-4e85-abe3-8fc4222030a1","system_id":"levelo_inurba_marseille","lat":43.299668,"lon":5.377582,"is_reserved":false,"is_disabled":false,"rental_uris":{"android":"levelo://app?vid=d72f401d-7e85-4e85-abe3-8fc4222030a1","ios":"levelo://app?vid=d72f401d-7e85-4e85-abe3-8fc4222030a1"},"vehicle_type_id":"4","last_reported":1738771877,"current_range_meters":25200,"station_id":"","pricing_plan_id":"cebpf4jnsgd1na2vs0mg"},{"bike_id":"f7ca84b7-5d19-47d5-9a3e-e1bee41b6bf9","system_id":"levelo_inurba_marseille","lat":43.29593,"lon":5.37754,"is_reserved":false,"is_disabled":false,"rental_uris":{"android":"levelo://app?vid=f7ca84b7-5d19-47d5-9a3e-e1bee41b6bf9","ios":"levelo://app?vid=f7ca84b7-5d19-47d5-9a3e-e1bee41b6bf9"},"vehicle_type_id":"4","last_reported":1738771877,"current_range_meters":35200,"station_id":"","pricing_plan_id":"cebpf4jnsgd1na2vs0mg"},{"bike_id":"0901932d-5867-4260-96f8-90d226d2b23f","system_id":"levelo_inurba_marseille","lat":43.28974,"lon":5.37847,"is_reserved":false,"is_disabled":false,"rental_uris":{"android":"levelo://app?vid=0901932d-5867-4260-96f8-90d226d2b23f","ios":"levelo://app?vid=0901932d-5867-4260-96f8-90d226d2b23f"},"vehicle_type_id":"4","last_reported":1738771877,"current_range_meters":37600,"station_id":"ce4bh9p2rcd13ifvqed0","pricing_plan_id":"cebpf4jnsgd1na2vs0mg"},{"bike_id":"f82e75bb-05c8-4514-8636-5b38ab41787f","system_id":"levelo_inurba_marseille","lat":43.33022,"lon":5.39039,"is_reserved":false,"is_disabled":false,"rental_uris":{"android":"levelo://app?vid=f82e75bb-05c8-4514-8636-5b38ab41787f","ios":"levelo://app?vid=f82e75bb-05c8-4514-8636-5b38ab41787f"},"vehicle_type_id":"4","last_reported":1738771877,"current_range_meters":29600,"station_id":"ce4bhr92rcd13ifvqhrg","pricing_plan_id":"cebpf4jnsgd1na2vs0mg"},{"bike_id":"11f8bc54-d94d-4946-8124-81cdfb17c44e","system_id":"levelo_inurba_marseille","lat":43.29532,"lon":5.38547,"is_reserved":false,"is_disabled":false,"rental_uris":{"android":"levelo://app?vid=11f8bc54-d94d-4946-8124-81cdfb17c44e","ios":"levelo://app?vid=11f8bc54-d94d-4946-8124-81cdfb17c44e"},"vehicle_type_id":"4","last_reported":1738771877,"current_range_meters":39200,"station_id":"ce4bgih2rcd13ifvqba0","pricing_plan_id":"cebpf4jnsgd1na2vs0mg"},{"bike_id":"7eaacd34-10f9-4246-8aa1-4a22e07a7c06","system_id":"levelo_inurba_marseille","lat":43.31652,"lon":5.37437,"is_reserved":false,"is_disabled":false,"rental_uris":{"android":"levelo://app?vid=7eaacd34-10f9-4246-8aa1-4a22e07a7c06","ios":"levelo://app?vid=7eaacd34-10f9-4246-8aa1-4a22e07a7c06"},"vehicle_type_id":"4","last_reported":1738771877,"current_range_meters":26000,"station_id":"","pricing_plan_id":"cebpf4jnsgd1na2vs0mg"},{"bike_id":"65e49eee-6681-49d5-bfdb-52c2466f9d4c","system_id":"levelo_inurba_marseille","lat":43.24178,"lon":5.39736,"is_reserved":false,"is_disabled":false,"rental_uris":{"android":"levelo://app?vid=65e49eee-6681-49d5-bfdb-52c2466f9d4c","ios":"levelo://app?vid=65e49eee-6681-49d5-bfdb-52c2466f9d4c"},"vehicle_type_id":"4","last_reported":1738771877,"current_range_meters":14800,"station_id":"ce4bhn12rcd13ifvqgpg","pricing_plan_id":"cebpf4jnsgd1na2vs0mg"},{"bike_id":"695c8159-ac4a-408d-a3d5-26e203af1693","system_id":"levelo_inurba_marseille","lat":43.33025,"lon":5.3904,"is_reserved":false,"is_disabled":false,"rental_uris":{"android":"levelo://app?vid=695c8159-ac4a-408d-a3d5-26e203af1693","ios":"levelo://app?vid=695c8159-ac4a-408d-a3d5-26e203af1693"},"vehicle_type_id":"4","last_reported":1738771877,"current_range_meters":38000,"station_id":"ce4bhr92rcd13ifvqhrg","pricing_plan_id":"cebpf4jnsgd1na2vs0mg"},{"bike_id":"beab8110-bb52-4054-a9d0-82e8f7ebbcf8","system_id":"levelo_inurba_marseille","lat":43.29276,"lon":5.40123,"is_reserved":false,"is_disabled":false,"rental_uris":{"android":"levelo://app?vid=beab8110-bb52-4054-a9d0-82e8f7ebbcf8","ios":"levelo://app?vid=beab8110-bb52-4054-a9d0-82e8f7ebbcf8"},"vehicle_type_id":"4","last_reported":1738771877,"current_range_meters":38000,"station_id":"ce4bh312rcd13ifvqdk0","pricing_plan_id":"cebpf4jnsgd1na2vs0mg"},{"bike_id":"bd42563d-6ded-4a27-8446-f13fff32889d","system_id":"levelo_inurba_marseille","lat":43.31761,"lon":5.39012,"is_reserved":false,"is_disabled":false,"rental_uris":{"android":"levelo://app?vid=bd42563d-6ded-4a27-8446-f13fff32889d","ios":"levelo://app?vid=bd42563d-6ded-4a27-8446-f13fff32889d"},"vehicle_type_id":"4","last_reported":1738771877,"current_range_meters":39200,"station_id":"ce4bhqp2rcd13ifvqhng","pricing_plan_id":"cebpf4jnsgd1na2vs0mg"},{"bike_id":"2d6c6b6a-5007-4e69-b036-af3e1004e938","system_id":"levelo_inurba_marseille","lat":43.29292,"lon":5.40115,"is_reserved":false,"is_disabled":false,"rental_uris":{"android":"levelo://app?vid=2d6c6b6a-5007-4e69-b036-af3e1004e938","ios":"levelo://app?vid=2d6c6b6a-5007-4e69-b036-af3e1004e938"},"vehicle_type_id":"4","last_reported":1738771877,"current_range_meters":22800,"station_id":"ce4bh312rcd13ifvqdk0","pricing_plan_id":"cebpf4jnsgd1na2vs0mg"},{"bike_id":"a31da492-d404-42a4-a173-3e8c75aeef5d","system_id":"levelo_inurba_marseille","lat":43.243898,"lon":5.370624,"is_reserved":false,"is_disabled":false,"rental_uris":{"android":"levelo://app?vid=a31da492-d404-42a4-a173-3e8c75aeef5d","ios":"levelo://app?vid=a31da492-d404-42a4-a173-3e8c75aeef5d"},"vehicle_type_id":"4","last_reported":1738771877,"current_range_meters":39200,"station_id":"ce4bhhh2rcd13ifvqfk0","pricing_plan_id":"cebpf4jnsgd1na2vs0mg"},{"bike_id":"85506d97-0f87-4df9-ad07-8dd2dedad0b3","system_id":"levelo_inurba_marseille","lat":43.27218,"lon":5.39194,"is_reserved":false,"is_disabled":true,"rental_uris":{"android":"levelo://app?vid=85506d97-0f87-4df9-ad07-8dd2dedad0b3","ios":"levelo://app?vid=85506d97-0f87-4df9-ad07-8dd2dedad0b3"},"vehicle_type_id":"4","last_reported":1738771877,"current_range_meters":36800,"station_id":"ce4bhhp2rcd13ifvqfm0","pricing_plan_id":"cebpf4jnsgd1na2vs0mg"},{"bike_id":"a1a7079b-68b5-45ca-9af8-b6bc9f7cd559","system_id":"levelo_inurba_marseille","lat":43.22924,"lon":5.35383,"is_reserved":false,"is_disabled":false,"rental_uris":{"android":"levelo://app?vid=a1a7079b-68b5-45ca-9af8-b6bc9f7cd559","ios":"levelo://app?vid=a1a7079b-68b5-45ca-9af8-b6bc9f7cd559"},"vehicle_type_id":"4","last_reported":1738771877,"current_range_meters":38800,"station_id":"cpo3532slgdg3j2ikp40","pricing_plan_id":"cebpf4jnsgd1na2vs0mg"},{"bike_id":"6836e24b-a357-4de8-871a-b15a44f6e538","system_id":"levelo_inurba_marseille","lat":43.30435,"lon":5.38882,"is_reserved":false,"is_disabled":false,"rental_uris":{"android":"levelo://app?vid=6836e24b-a357-4de8-871a-b15a44f6e538","ios":"levelo://app?vid=6836e24b-a357-4de8-871a-b15a44f6e538"},"vehicle_type_id":"4","last_reported":1738771877,"current_range_meters":20000,"station_id":"ce4bgk12rcd13ifvqbi0","pricing_plan_id":"cebpf4jnsgd1na2vs0mg"},{"bike_id":"29805978-3f90-4e1f-a2f8-4f8391d994c3","system_id":"levelo_inurba_marseille","lat":43.24191,"lon":5.39665,"is_reserved":false,"is_disabled":false,"rental_uris":{"android":"levelo://app?vid=29805978-3f90-4e1f-a2f8-4f8391d994c3","ios":"levelo://app?vid=29805978-3f90-4e1f-a2f8-4f8391d994c3"},"vehicle_type_id":"4","last_reported":1738771877,"current_range_meters":17200,"station_id":"ce4bhn12rcd13ifvqgpg","pricing_plan_id":"cebpf4jnsgd1na2vs0mg"},{"bike_id":"9bed730f-1adf-4444-a5ac-fa2d282ef048","system_id":"levelo_inurba_marseille","lat":43.31715,"lon":5.43709,"is_reserved":false,"is_disabled":false,"rental_uris":{"android":"levelo://app?vid=9bed730f-1adf-4444-a5ac-fa2d282ef048","ios":"levelo://app?vid=9bed730f-1adf-4444-a5ac-fa2d282ef048"},"vehicle_type_id":"4","last_reported":1738771877,"current_range_meters":25200,"station_id":"ce4bhp92rcd13ifvqhcg","pricing_plan_id":"cebpf4jnsgd1na2vs0mg"},{"bike_id":"c7a0391b-d44b-4591-aedf-ffae0dacdacb","system_id":"levelo_inurba_marseille","lat":43.29697,"lon":5.37292,"is_reserved":false,"is_disabled":false,"rental_uris":{"android":"levelo://app?vid=c7a0391b-d44b-4591-aedf-ffae0dacdacb","ios":"levelo://app?vid=c7a0391b-d44b-4591-aedf-ffae0dacdacb"},"vehicle_type_id":"4","last_reported":1738771877,"current_range_meters":36800,"station_id":"ce4bgk12rcd13ifvqbj0","pricing_plan_id":"cebpf4jnsgd1na2vs0mg"},{"bike_id":"429cf0b8-b89a-4aaa-a81b-b9e637978f08","system_id":"levelo_inurba_marseille","lat":43.26691,"lon":5.38248,"is_reserved":false,"is_disabled":false,"rental_uris":{"android":"levelo://app?vid=429cf0b8-b89a-4aaa-a81b-b9e637978f08","ios":"levelo://app?vid=429cf0b8-b89a-4aaa-a81b-b9e637978f08"},"vehicle_type_id":"4","last_reported":1738771877,"current_range_meters":36800,"station_id":"ce4bhg92rcd13ifvqf90","pricing_plan_id":"cebpf4jnsgd1na2vs0mg"},{"bike_id":"f423adf0-93aa-4c47-9d8a-b1e2e7e85005","system_id":"levelo_inurba_marseille","lat":43.28422,"lon":5.34986,"is_reserved":false,"is_disabled":true,"rental_uris":{"android":"levelo://app?vid=f423adf0-93aa-4c47-9d8a-b1e2e7e85005","ios":"levelo://app?vid=f423adf0-93aa-4c47-9d8a-b1e2e7e85005"},"vehicle_type_id":"4","last_reported":1738771877,"current_range_meters":10800,"station_id":"ce4bhbh2rcd13ifvqepg","pricing_plan_id":"cebpf4jnsgd1na2vs0mg"},{"bike_id":"f7024f0f-fe0a-49f6-9100-74d0a3ed39e9","system_id":"levelo_inurba_marseille","lat":43.30302,"lon":5.39205,"is_reserved":false,"is_disabled":false,"rental_uris":{"android":"levelo://app?vid=f7024f0f-fe0a-49f6-9100-74d0a3ed39e9","ios":"levelo://app?vid=f7024f0f-fe0a-49f6-9100-74d0a3ed39e9"},"vehicle_type_id":"4","last_reported":1738771877,"current_range_meters":17600,"station_id":"ce4bgkh2rcd13ifvqbk0","pricing_plan_id":"cebpf4jnsgd1na2vs0mg"},{"bike_id":"8b01a0d6-c3a8-4233-8272-6cd6a57ab835","system_id":"levelo_inurba_marseille","lat":43.2894,"lon":5.36643,"is_reserved":false,"is_disabled":false,"rental_uris":{"android":"levelo://app?vid=8b01a0d6-c3a8-4233-8272-6cd6a57ab835","ios":"levelo://app?vid=8b01a0d6-c3a8-4233-8272-6cd6a57ab835"},"vehicle_type_id":"4","last_reported":1738771877,"current_range_meters":36800,"station_id":"ce4bhap2rcd13ifvqek0","pricing_plan_id":"cebpf4jnsgd1na2vs0mg"},{"bike_id":"6bba36c7-75a6-4b1b-96cb-c03d219a6faa","system_id":"levelo_inurba_marseille","lat":43.33024,"lon":5.39045,"is_reserved":false,"is_disabled":false,"rental_uris":{"android":"levelo://app?vid=6bba36c7-75a6-4b1b-96cb-c03d219a6faa","ios":"levelo://app?vid=6bba36c7-75a6-4b1b-96cb-c03d219a6faa"},"vehicle_type_id":"4","last_reported":1738771877,"current_range_meters":36800,"station_id":"ce4bhr92rcd13ifvqhrg","pricing_plan_id":"cebpf4jnsgd1na2vs0mg"},{"bike_id":"5010ca19-df83-42ac-9a06-ec42d2768688","system_id":"levelo_inurba_marseille","lat":43.26051,"lon":5.39406,"is_reserved":false,"is_disabled":false,"rental_uris":{"android":"levelo://app?vid=5010ca19-df83-42ac-9a06-ec42d2768688","ios":"levelo://app?vid=5010ca19-df83-42ac-9a06-ec42d2768688"},"vehicle_type_id":"4","last_reported":1738771877,"current_range_meters":4400,"station_id":"ce4bhh92rcd13ifvqfj0","pricing_plan_id":"cebpf4jnsgd1na2vs0mg"},{"bike_id":"f307f8ea-df8b-425d-97d7-c4f570c0ee32","system_id":"levelo_inurba_marseille","lat":43.23968,"lon":5.36598,"is_reserved":false,"is_disabled":false,"rental_uris":{"android":"levelo://app?vid=f307f8ea-df8b-425d-97d7-c4f570c0ee32","ios":"levelo://app?vid=f307f8ea-df8b-425d-97d7-c4f570c0ee32"},"vehicle_type_id":"4","last_reported":1738771877,"current_range_meters":20400,"station_id":"ce4bhi12rcd13ifvqfp0","pricing_plan_id":"cebpf4jnsgd1na2vs0mg"},{"bike_id":"7a87dee5-d36c-42e8-a03c-4badbb443213","system_id":"levelo_inurba_marseille","lat":43.267837,"lon":5.39421,"is_reserved":false,"is_disabled":false,"rental_uris":{"android":"levelo://app?vid=7a87dee5-d36c-42e8-a03c-4badbb443213","ios":"levelo://app?vid=7a87dee5-d36c-42e8-a03c-4badbb443213"},"vehicle_type_id":"4","last_reported":1738771877,"current_range_meters":38800,"station_id":"ce4bhh12rcd13ifvqfg0","pricing_plan_id":"cebpf4jnsgd1na2vs0mg"},{"bike_id":"c90bee22-93e6-4769-a402-7c2dd626c38f","system_id":"levelo_inurba_marseille","lat":43.2762,"lon":5.36102,"is_reserved":false,"is_disabled":false,"rental_uris":{"android":"levelo://app?vid=c90bee22-93e6-4769-a402-7c2dd626c38f","ios":"levelo://app?vid=c90bee22-93e6-4769-a402-7c2dd626c38f"},"vehicle_type_id":"4","last_reported":1738771877,"current_range_meters":36800,"station_id":"ce4bgj92rcd13ifvqbe0","pricing_plan_id":"cebpf4jnsgd1na2vs0mg"},{"bike_id":"865da38e-7662-4cd0-8259-ddab14436918","system_id":"levelo_inurba_marseille","lat":43.2844,"lon":5.39185,"is_reserved":false,"is_disabled":false,"rental_uris":{"android":"levelo://app?vid=865da38e-7662-4cd0-8259-ddab14436918","ios":"levelo://app?vid=865da38e-7662-4cd0-8259-ddab14436918"},"vehicle_type_id":"4","last_reported":1738771877,"current_range_meters":38800,"station_id":"ce4bhoh2rcd13ifvqh5g","pricing_plan_id":"cebpf4jnsgd1na2vs0mg"},{"bike_id":"bc4a06dd-ed55-477b-aea6-1cfb1ec60200","system_id":"levelo_inurba_marseille","lat":43.30809,"lon":5.38179,"is_reserved":false,"is_disabled":false,"rental_uris":{"android":"levelo://app?vid=bc4a06dd-ed55-477b-aea6-1cfb1ec60200","ios":"levelo://app?vid=bc4a06dd-ed55-477b-aea6-1cfb1ec60200"},"vehicle_type_id":"4","last_reported":1738771877,"current_range_meters":39200,"station_id":"ce4bgt12rcd13ifvqce0","pricing_plan_id":"cebpf4jnsgd1na2vs0mg"},{"bike_id":"18d09656-3c78-4944-b8dc-3a3bb900a5ee","system_id":"levelo_inurba_marseille","lat":43.30308,"lon":5.39205,"is_reserved":false,"is_disabled":false,"rental_uris":{"android":"levelo://app?vid=18d09656-3c78-4944-b8dc-3a3bb900a5ee","ios":"levelo://app?vid=18d09656-3c78-4944-b8dc-3a3bb900a5ee"},"vehicle_type_id":"4","last_reported":1738771877,"current_range_meters":38800,"station_id":"ce4bgkh2rcd13ifvqbk0","pricing_plan_id":"cebpf4jnsgd1na2vs0mg"},{"bike_id":"1e67bfb5-56eb-4a10-9fae-2c98be47e5a8","system_id":"levelo_inurba_marseille","lat":43.28487,"lon":5.3841,"is_reserved":false,"is_disabled":false,"rental_uris":{"android":"levelo://app?vid=1e67bfb5-56eb-4a10-9fae-2c98be47e5a8","ios":"levelo://app?vid=1e67bfb5-56eb-4a10-9fae-2c98be47e5a8"},"vehicle_type_id":"4","last_reported":1738771877,"current_range_meters":6400,"station_id":"ce4bh512rcd13ifvqe3g","pricing_plan_id":"cebpf4jnsgd1na2vs0mg"},{"bike_id":"110bfca6-531b-49f9-befd-326177884f9d","system_id":"levelo_inurba_marseille","lat":43.29574,"lon":5.37511,"is_reserved":false,"is_disabled":false,"rental_uris":{"android":"levelo://app?vid=110bfca6-531b-49f9-befd-326177884f9d","ios":"levelo://app?vid=110bfca6-531b-49f9-befd-326177884f9d"},"vehicle_type_id":"4","last_reported":1738771877,"current_range_meters":36800,"station_id":"ce4bgh92rcd13ifvqb50","pricing_plan_id":"cebpf4jnsgd1na2vs0mg"},{"bike_id":"91916b0c-94d0-4d7f-98a2-f866d141c828","system_id":"levelo_inurba_marseille","lat":43.29972,"lon":5.37177,"is_reserved":false,"is_disabled":false,"rental_uris":{"android":"levelo://app?vid=91916b0c-94d0-4d7f-98a2-f866d141c828","ios":"levelo://app?vid=91916b0c-94d0-4d7f-98a2-f866d141c828"},"vehicle_type_id":"4","last_reported":1738771877,"current_range_meters":38400,"station_id":"ce4bgr92rcd13ifvqc7g","pricing_plan_id":"cebpf4jnsgd1na2vs0mg"},{"bike_id":"284c68da-e33e-4eaa-ba2f-b5d1cdfe27c1","system_id":"levelo_inurba_marseille","lat":43.29908,"lon":5.38165,"is_reserved":false,"is_disabled":false,"rental_uris":{"android":"levelo://app?vid=284c68da-e33e-4eaa-ba2f-b5d1cdfe27c1","ios":"levelo://app?vid=284c68da-e33e-4eaa-ba2f-b5d1cdfe27c1"},"vehicle_type_id":"4","last_reported":1738771877,"current_range_meters":19200,"station_id":"ce4bgj12rcd13ifvqbc0","pricing_plan_id":"cebpf4jnsgd1na2vs0mg"},{"bike_id":"2cd60774-c2f8-4e8f-9236-a6b0c03a1062","system_id":"levelo_inurba_marseille","lat":43.28082,"lon":5.39651,"is_reserved":false,"is_disabled":false,"rental_uris":{"android":"levelo://app?vid=2cd60774-c2f8-4e8f-9236-a6b0c03a1062","ios":"levelo://app?vid=2cd60774-c2f8-4e8f-9236-a6b0c03a1062"},"vehicle_type_id":"4","last_reported":1738771877,"current_range_meters":13600,"station_id":"ce4bho12rcd13ifvqh2g","pricing_plan_id":"cebpf4jnsgd1na2vs0mg"},{"bike_id":"3b62a1d1-371b-463d-86ca-c84c4531f3cd","system_id":"levelo_inurba_marseille","lat":43.28611,"lon":5.35109,"is_reserved":false,"is_disabled":false,"rental_uris":{"android":"levelo://app?vid=3b62a1d1-371b-463d-86ca-c84c4531f3cd","ios":"levelo://app?vid=3b62a1d1-371b-463d-86ca-c84c4531f3cd"},"vehicle_type_id":"4","last_reported":1738771877,"current_range_meters":29600,"station_id":"ce4bhch2rcd13ifvqeug","pricing_plan_id":"cebpf4jnsgd1na2vs0mg"},{"bike_id":"58ab78f5-67e4-4251-b69d-a8899c0ee627","system_id":"levelo_inurba_marseille","lat":43.27945,"lon":5.41047,"is_reserved":false,"is_disabled":false,"rental_uris":{"android":"levelo://app?vid=58ab78f5-67e4-4251-b69d-a8899c0ee627","ios":"levelo://app?vid=58ab78f5-67e4-4251-b69d-a8899c0ee627"},"vehicle_type_id":"4","last_reported":1738771877,"current_range_meters":23200,"station_id":"ce4bhnp2rcd13ifvqh0g","pricing_plan_id":"cebpf4jnsgd1na2vs0mg"},{"bike_id":"e040da88-b421-4173-9ede-61ba1a6ca5b4","system_id":"levelo_inurba_marseille","lat":43.24189,"lon":5.39726,"is_reserved":false,"is_disabled":false,"rental_uris":{"android":"levelo://app?vid=e040da88-b421-4173-9ede-61ba1a6ca5b4","ios":"levelo://app?vid=e040da88-b421-4173-9ede-61ba1a6ca5b4"},"vehicle_type_id":"4","last_reported":1738771877,"current_range_meters":17200,"station_id":"ce4bhn12rcd13ifvqgpg","pricing_plan_id":"cebpf4jnsgd1na2vs0mg"},{"bike_id":"6712f04b-f35d-4e3a-a70d-c89aec85d9b2","system_id":"levelo_inurba_marseille","lat":43.22954,"lon":5.35364,"is_reserved":false,"is_disabled":false,"rental_uris":{"android":"levelo://app?vid=6712f04b-f35d-4e3a-a70d-c89aec85d9b2","ios":"levelo://app?vid=6712f04b-f35d-4e3a-a70d-c89aec85d9b2"},"vehicle_type_id":"4","last_reported":1738771877,"current_range_meters":38800,"station_id":"cpo3532slgdg3j2ikp40","pricing_plan_id":"cebpf4jnsgd1na2vs0mg"},{"bike_id":"ebd64dda-c2dc-4a27-8d05-783341907132","system_id":"levelo_inurba_marseille","lat":43.24192,"lon":5.39695,"is_reserved":false,"is_disabled":false,"rental_uris":{"android":"levelo://app?vid=ebd64dda-c2dc-4a27-8d05-783341907132","ios":"levelo://app?vid=ebd64dda-c2dc-4a27-8d05-783341907132"},"vehicle_type_id":"4","last_reported":1738771877,"current_range_meters":22000,"station_id":"ce4bhn12rcd13ifvqgpg","pricing_plan_id":"cebpf4jnsgd1na2vs0mg"},{"bike_id":"b8bfdb84-1f8b-4add-b3f1-3525f376a115","system_id":"levelo_inurba_marseille","lat":43.2916,"lon":5.37159,"is_reserved":false,"is_disabled":false,"rental_uris":{"android":"levelo://app?vid=b8bfdb84-1f8b-4add-b3f1-3525f376a115","ios":"levelo://app?vid=b8bfdb84-1f8b-4add-b3f1-3525f376a115"},"vehicle_type_id":"4","last_reported":1738771877,"current_range_meters":36800,"station_id":"ce4bha92rcd13ifvqeh0","pricing_plan_id":"cebpf4jnsgd1na2vs0mg"},{"bike_id":"0a340a50-c9b3-4c87-88da-a62208ff40c7","system_id":"levelo_inurba_marseille","lat":43.3056,"lon":5.36684,"is_reserved":false,"is_disabled":false,"rental_uris":{"android":"levelo://app?vid=0a340a50-c9b3-4c87-88da-a62208ff40c7","ios":"levelo://app?vid=0a340a50-c9b3-4c87-88da-a62208ff40c7"},"vehicle_type_id":"4","last_reported":1738771877,"current_range_meters":37600,"station_id":"ce4bgrp2rcd13ifvqc9g","pricing_plan_id":"cebpf4jnsgd1na2vs0mg"},{"bike_id":"931f6fa9-72f3-4626-9565-c64193deadb4","system_id":"levelo_inurba_marseille","lat":43.29096,"lon":5.38122,"is_reserved":false,"is_disabled":false,"rental_uris":{"android":"levelo://app?vid=931f6fa9-72f3-4626-9565-c64193deadb4","ios":"levelo://app?vid=931f6fa9-72f3-4626-9565-c64193deadb4"},"vehicle_type_id":"4","last_reported":1738771877,"current_range_meters":7200,"station_id":"ce4bh512rcd13ifvqe2g","pricing_plan_id":"cebpf4jnsgd1na2vs0mg"},{"bike_id":"b6602c4d-c98e-4a7e-9bf4-7d27c345f82b","system_id":"levelo_inurba_marseille","lat":43.31325,"lon":5.397,"is_reserved":false,"is_disabled":false,"rental_uris":{"android":"levelo://app?vid=b6602c4d-c98e-4a7e-9bf4-7d27c345f82b","ios":"levelo://app?vid=b6602c4d-c98e-4a7e-9bf4-7d27c345f82b"},"vehicle_type_id":"4","last_reported":1738771877,"current_range_meters":36000,"station_id":"ce4bgvp2rcd13ifvqcu0","pricing_plan_id":"cebpf4jnsgd1na2vs0mg"},{"bike_id":"ea6a0107-0e7d-4623-b11a-745cc879d3a0","system_id":"levelo_inurba_marseille","lat":43.26686,"lon":5.38265,"is_reserved":false,"is_disabled":false,"rental_uris":{"android":"levelo://app?vid=ea6a0107-0e7d-4623-b11a-745cc879d3a0","ios":"levelo://app?vid=ea6a0107-0e7d-4623-b11a-745cc879d3a0"},"vehicle_type_id":"4","last_reported":1738771877,"current_range_meters":19200,"station_id":"ce4bhg92rcd13ifvqf90","pricing_plan_id":"cebpf4jnsgd1na2vs0mg"},{"bike_id":"bdf70224-63a9-4409-8dea-7caf726ef405","system_id":"levelo_inurba_marseille","lat":43.30476,"lon":5.36677,"is_reserved":false,"is_disabled":false,"rental_uris":{"android":"levelo://app?vid=bdf70224-63a9-4409-8dea-7caf726ef405","ios":"levelo://app?vid=bdf70224-63a9-4409-8dea-7caf726ef405"},"vehicle_type_id":"4","last_reported":1738771877,"current_range_meters":27200,"station_id":"","pricing_plan_id":"cebpf4jnsgd1na2vs0mg"},{"bike_id":"484d7315-5fe4-493a-bc2b-20af29cfd756","system_id":"levelo_inurba_marseille","lat":43.290287,"lon":5.399672,"is_reserved":false,"is_disabled":false,"rental_uris":{"android":"levelo://app?vid=484d7315-5fe4-493a-bc2b-20af29cfd756","ios":"levelo://app?vid=484d7315-5fe4-493a-bc2b-20af29cfd756"},"vehicle_type_id":"4","last_reported":1738771877,"current_range_meters":8000,"station_id":"ce4bhr12rcd13ifvqhpg","pricing_plan_id":"cebpf4jnsgd1na2vs0mg"},{"bike_id":"9fa6de76-e609-4c72-8e60-948046040770","system_id":"levelo_inurba_marseille","lat":43.26675,"lon":5.38251,"is_reserved":false,"is_disabled":false,"rental_uris":{"android":"levelo://app?vid=9fa6de76-e609-4c72-8e60-948046040770","ios":"levelo://app?vid=9fa6de76-e609-4c72-8e60-948046040770"},"vehicle_type_id":"4","last_reported":1738771877,"current_range_meters":38800,"station_id":"ce4bhg92rcd13ifvqf90","pricing_plan_id":"cebpf4jnsgd1na2vs0mg"},{"bike_id":"a6b2428a-7d23-4892-a3bf-86cc25978b7a","system_id":"levelo_inurba_marseille","lat":43.25497,"lon":5.37636,"is_reserved":false,"is_disabled":true,"rental_uris":{"android":"levelo://app?vid=a6b2428a-7d23-4892-a3bf-86cc25978b7a","ios":"levelo://app?vid=a6b2428a-7d23-4892-a3bf-86cc25978b7a"},"vehicle_type_id":"4","last_reported":1738771877,"current_range_meters":26000,"station_id":"ce4bhh12rcd13ifvqff0","pricing_plan_id":"cebpf4jnsgd1na2vs0mg"},{"bike_id":"f37f9444-ebfc-4dee-8692-4ad986b1d70f","system_id":"levelo_inurba_marseille","lat":43.29305,"lon":5.37177,"is_reserved":false,"is_disabled":false,"rental_uris":{"android":"levelo://app?vid=f37f9444-ebfc-4dee-8692-4ad986b1d70f","ios":"levelo://app?vid=f37f9444-ebfc-4dee-8692-4ad986b1d70f"},"vehicle_type_id":"4","last_reported":1738771877,"current_range_meters":6800,"station_id":"ce4bgh92rcd13ifvqb40","pricing_plan_id":"cebpf4jnsgd1na2vs0mg"},{"bike_id":"11992c2b-c508-42fa-80e1-08c156396d10","system_id":"levelo_inurba_marseille","lat":43.27424,"lon":5.39418,"is_reserved":false,"is_disabled":false,"rental_uris":{"android":"levelo://app?vid=11992c2b-c508-42fa-80e1-08c156396d10","ios":"levelo://app?vid=11992c2b-c508-42fa-80e1-08c156396d10"},"vehicle_type_id":"4","last_reported":1738771877,"current_range_meters":29600,"station_id":"ce4bhdp2rcd13ifvqf20","pricing_plan_id":"cebpf4jnsgd1na2vs0mg"},{"bike_id":"f2960150-896e-43f8-a8b1-34e079d43e2e","system_id":"levelo_inurba_marseille","lat":43.26804,"lon":5.4027,"is_reserved":false,"is_disabled":false,"rental_uris":{"android":"levelo://app?vid=f2960150-896e-43f8-a8b1-34e079d43e2e","ios":"levelo://app?vid=f2960150-896e-43f8-a8b1-34e079d43e2e"},"vehicle_type_id":"4","last_reported":1738771877,"current_range_meters":22400,"station_id":"ce501612rcd8frsf0b60","pricing_plan_id":"cebpf4jnsgd1na2vs0mg"},{"bike_id":"c85a26e1-f53e-4ec1-b1ea-8b32d23f1f4d","system_id":"levelo_inurba_marseille","lat":43.23062,"lon":5.35503,"is_reserved":false,"is_disabled":false,"rental_uris":{"android":"levelo://app?vid=c85a26e1-f53e-4ec1-b1ea-8b32d23f1f4d","ios":"levelo://app?vid=c85a26e1-f53e-4ec1-b1ea-8b32d23f1f4d"},"vehicle_type_id":"4","last_reported":1738771877,"current_range_meters":22000,"station_id":"cpo3342slgdg3j2ifvpg","pricing_plan_id":"cebpf4jnsgd1na2vs0mg"},{"bike_id":"befc3649-499d-44b0-a222-974182e94149","system_id":"levelo_inurba_marseille","lat":43.26934,"lon":5.40258,"is_reserved":false,"is_disabled":false,"rental_uris":{"android":"levelo://app?vid=befc3649-499d-44b0-a222-974182e94149","ios":"levelo://app?vid=befc3649-499d-44b0-a222-974182e94149"},"vehicle_type_id":"4","last_reported":1738771877,"current_range_meters":17600,"station_id":"cjm6bp8fraef2m0cb0m0","pricing_plan_id":"cebpf4jnsgd1na2vs0mg"},{"bike_id":"512a3a23-b079-4568-bc04-d9235c65b5d3","system_id":"levelo_inurba_marseille","lat":43.23959,"lon":5.36652,"is_reserved":false,"is_disabled":false,"rental_uris":{"android":"levelo://app?vid=512a3a23-b079-4568-bc04-d9235c65b5d3","ios":"levelo://app?vid=512a3a23-b079-4568-bc04-d9235c65b5d3"},"vehicle_type_id":"4","last_reported":1738771877,"current_range_meters":38800,"station_id":"ce4bhi12rcd13ifvqfp0","pricing_plan_id":"cebpf4jnsgd1na2vs0mg"},{"bike_id":"67f7594f-7da2-4de4-b1d6-a36e1f115737","system_id":"levelo_inurba_marseille","lat":43.29872,"lon":5.3973,"is_reserved":false,"is_disabled":false,"rental_uris":{"android":"levelo://app?vid=67f7594f-7da2-4de4-b1d6-a36e1f115737","ios":"levelo://app?vid=67f7594f-7da2-4de4-b1d6-a36e1f115737"},"vehicle_type_id":"4","last_reported":1738771877,"current_range_meters":16400,"station_id":"ce4bh0h2rcd13ifvqd50","pricing_plan_id":"cebpf4jnsgd1na2vs0mg"},{"bike_id":"4f51af64-f1c1-41a3-b101-04b38f39610e","system_id":"levelo_inurba_marseille","lat":43.27914,"lon":5.39578,"is_reserved":false,"is_disabled":false,"rental_uris":{"android":"levelo://app?vid=4f51af64-f1c1-41a3-b101-04b38f39610e","ios":"levelo://app?vid=4f51af64-f1c1-41a3-b101-04b38f39610e"},"vehicle_type_id":"4","last_reported":1738771877,"current_range_meters":28400,"station_id":"ce4bhf92rcd13ifvqf40","pricing_plan_id":"cebpf4jnsgd1na2vs0mg"},{"bike_id":"9c207c45-ddb2-4217-8d34-079a5658cd14","system_id":"levelo_inurba_marseille","lat":43.32288,"lon":5.38265,"is_reserved":false,"is_disabled":false,"rental_uris":{"android":"levelo://app?vid=9c207c45-ddb2-4217-8d34-079a5658cd14","ios":"levelo://app?vid=9c207c45-ddb2-4217-8d34-079a5658cd14"},"vehicle_type_id":"4","last_reported":1738771877,"current_range_meters":38000,"station_id":"ce4bhr12rcd13ifvqhqg","pricing_plan_id":"cebpf4jnsgd1na2vs0mg"},{"bike_id":"9b943d7c-6298-4c71-b91b-50a6d7a5595d","system_id":"levelo_inurba_marseille","lat":43.31074,"lon":5.38354,"is_reserved":false,"is_disabled":true,"rental_uris":{"android":"levelo://app?vid=9b943d7c-6298-4c71-b91b-50a6d7a5595d","ios":"levelo://app?vid=9b943d7c-6298-4c71-b91b-50a6d7a5595d"},"vehicle_type_id":"4","last_reported":1738771877,"current_range_meters":0,"station_id":"ce4bgv92rcd13ifvqcr0","pricing_plan_id":"cebpf4jnsgd1na2vs0mg"},{"bike_id":"b9797b67-c327-4a18-844a-b7255fd6b837","system_id":"levelo_inurba_marseille","lat":43.27995,"lon":5.40003,"is_reserved":false,"is_disabled":false,"rental_uris":{"android":"levelo://app?vid=b9797b67-c327-4a18-844a-b7255fd6b837","ios":"levelo://app?vid=b9797b67-c327-4a18-844a-b7255fd6b837"},"vehicle_type_id":"4","last_reported":1738771877,"current_range_meters":5600,"station_id":"ce4bho92rcd13ifvqh4g","pricing_plan_id":"cebpf4jnsgd1na2vs0mg"},{"bike_id":"e58c59fa-307d-423f-afe4-9807ea6c8b21","system_id":"levelo_inurba_marseille","lat":43.29633,"lon":5.40622,"is_reserved":false,"is_disabled":false,"rental_uris":{"android":"levelo://app?vid=e58c59fa-307d-423f-afe4-9807ea6c8b21","ios":"levelo://app?vid=e58c59fa-307d-423f-afe4-9807ea6c8b21"},"vehicle_type_id":"4","last_reported":1738771877,"current_range_meters":34800,"station_id":"ce4bh0h2rcd13ifvqd60","pricing_plan_id":"cebpf4jnsgd1na2vs0mg"},{"bike_id":"6fae6ca7-ff86-44da-bcb8-6ce76ab7b550","system_id":"levelo_inurba_marseille","lat":43.30783,"lon":5.37645,"is_reserved":false,"is_disabled":false,"rental_uris":{"android":"levelo://app?vid=6fae6ca7-ff86-44da-bcb8-6ce76ab7b550","ios":"levelo://app?vid=6fae6ca7-ff86-44da-bcb8-6ce76ab7b550"},"vehicle_type_id":"4","last_reported":1738771877,"current_range_meters":8800,"station_id":"ce4bgv92rcd13ifvqcq0","pricing_plan_id":"cebpf4jnsgd1na2vs0mg"},{"bike_id":"c94cd6d2-9b0a-4dda-abf9-fd60587ae93a","system_id":"levelo_inurba_marseille","lat":43.25003,"lon":5.38926,"is_reserved":false,"is_disabled":false,"rental_uris":{"android":"levelo://app?vid=c94cd6d2-9b0a-4dda-abf9-fd60587ae93a","ios":"levelo://app?vid=c94cd6d2-9b0a-4dda-abf9-fd60587ae93a"},"vehicle_type_id":"4","last_reported":1738771877,"current_range_meters":38400,"station_id":"ce4bhgp2rcd13ifvqfd0","pricing_plan_id":"cebpf4jnsgd1na2vs0mg"},{"bike_id":"9479867b-cf18-49b0-916d-020de5d78688","system_id":"levelo_inurba_marseille","lat":43.28704,"lon":5.37401,"is_reserved":false,"is_disabled":false,"rental_uris":{"android":"levelo://app?vid=9479867b-cf18-49b0-916d-020de5d78688","ios":"levelo://app?vid=9479867b-cf18-49b0-916d-020de5d78688"},"vehicle_type_id":"4","last_reported":1738771877,"current_range_meters":18000,"station_id":"ce4bh3p2rcd13ifvqdq0","pricing_plan_id":"cebpf4jnsgd1na2vs0mg"},{"bike_id":"35b0fbe6-22db-46fb-a54a-76af362a8729","system_id":"levelo_inurba_marseille","lat":43.29974,"lon":5.41316,"is_reserved":false,"is_disabled":false,"rental_uris":{"android":"levelo://app?vid=35b0fbe6-22db-46fb-a54a-76af362a8729","ios":"levelo://app?vid=35b0fbe6-22db-46fb-a54a-76af362a8729"},"vehicle_type_id":"4","last_reported":1738771877,"current_range_meters":36800,"station_id":"ce4bhp12rcd13ifvqh9g","pricing_plan_id":"cebpf4jnsgd1na2vs0mg"},{"bike_id":"e0f7f9ed-22a0-47a7-b08f-334aecb96c7a","system_id":"levelo_inurba_marseille","lat":43.30317,"lon":5.36927,"is_reserved":false,"is_disabled":false,"rental_uris":{"android":"levelo://app?vid=e0f7f9ed-22a0-47a7-b08f-334aecb96c7a","ios":"levelo://app?vid=e0f7f9ed-22a0-47a7-b08f-334aecb96c7a"},"vehicle_type_id":"4","last_reported":1738771877,"current_range_meters":10000,"station_id":"ce4bgqh2rcd13ifvqc5g","pricing_plan_id":"cebpf4jnsgd1na2vs0mg"},{"bike_id":"c7d18899-1b89-475f-9983-d5282911e538","system_id":"levelo_inurba_marseille","lat":43.27414,"lon":5.39418,"is_reserved":false,"is_disabled":false,"rental_uris":{"android":"levelo://app?vid=c7d18899-1b89-475f-9983-d5282911e538","ios":"levelo://app?vid=c7d18899-1b89-475f-9983-d5282911e538"},"vehicle_type_id":"4","last_reported":1738771877,"current_range_meters":38800,"station_id":"ce4bhdp2rcd13ifvqf20","pricing_plan_id":"cebpf4jnsgd1na2vs0mg"},{"bike_id":"b82843bd-b98b-479e-ab7d-b31b4c9b2997","system_id":"levelo_inurba_marseille","lat":43.303258,"lon":5.40434,"is_reserved":false,"is_disabled":false,"rental_uris":{"android":"levelo://app?vid=b82843bd-b98b-479e-ab7d-b31b4c9b2997","ios":"levelo://app?vid=b82843bd-b98b-479e-ab7d-b31b4c9b2997"},"vehicle_type_id":"4","last_reported":1738771877,"current_range_meters":6400,"station_id":"ce4bh012rcd13ifvqd10","pricing_plan_id":"cebpf4jnsgd1na2vs0mg"},{"bike_id":"3e433557-b45b-4725-918f-38743fd6d93b","system_id":"levelo_inurba_marseille","lat":43.25716,"lon":5.41104,"is_reserved":false,"is_disabled":false,"rental_uris":{"android":"levelo://app?vid=3e433557-b45b-4725-918f-38743fd6d93b","ios":"levelo://app?vid=3e433557-b45b-4725-918f-38743fd6d93b"},"vehicle_type_id":"4","last_reported":1738771877,"current_range_meters":22400,"station_id":"ce4bhkp2rcd13ifvqgd0","pricing_plan_id":"cebpf4jnsgd1na2vs0mg"},{"bike_id":"2f9a6647-bfb0-4c5f-b2d5-6b23d0794b76","system_id":"levelo_inurba_marseille","lat":43.25581,"lon":5.38233,"is_reserved":false,"is_disabled":true,"rental_uris":{"android":"levelo://app?vid=2f9a6647-bfb0-4c5f-b2d5-6b23d0794b76","ios":"levelo://app?vid=2f9a6647-bfb0-4c5f-b2d5-6b23d0794b76"},"vehicle_type_id":"4","last_reported":1738771877,"current_range_meters":38000,"station_id":"ce4bhih2rcd13ifvqfs0","pricing_plan_id":"cebpf4jnsgd1na2vs0mg"},{"bike_id":"b946d3b0-e93c-4d2e-9a90-71f1aa3e99c0","system_id":"levelo_inurba_marseille","lat":43.30539,"lon":5.36691,"is_reserved":false,"is_disabled":false,"rental_uris":{"android":"levelo://app?vid=b946d3b0-e93c-4d2e-9a90-71f1aa3e99c0","ios":"levelo://app?vid=b946d3b0-e93c-4d2e-9a90-71f1aa3e99c0"},"vehicle_type_id":"4","last_reported":1738771877,"current_range_meters":31200,"station_id":"ce4bgrp2rcd13ifvqc9g","pricing_plan_id":"cebpf4jnsgd1na2vs0mg"},{"bike_id":"786af5a6-7181-4746-8e7c-5055a97f6274","system_id":"levelo_inurba_marseille","lat":43.28154,"lon":5.42634,"is_reserved":false,"is_disabled":true,"rental_uris":{"android":"levelo://app?vid=786af5a6-7181-4746-8e7c-5055a97f6274","ios":"levelo://app?vid=786af5a6-7181-4746-8e7c-5055a97f6274"},"vehicle_type_id":"4","last_reported":1738771877,"current_range_meters":32000,"station_id":"ce4bhnh2rcd13ifvqgug","pricing_plan_id":"cebpf4jnsgd1na2vs0mg"},{"bike_id":"a54aae3b-7caa-4cca-94ea-ac3f5ee99db7","system_id":"levelo_inurba_marseille","lat":43.28858,"lon":5.3586,"is_reserved":false,"is_disabled":false,"rental_uris":{"android":"levelo://app?vid=a54aae3b-7caa-4cca-94ea-ac3f5ee99db7","ios":"levelo://app?vid=a54aae3b-7caa-4cca-94ea-ac3f5ee99db7"},"vehicle_type_id":"4","last_reported":1738771877,"current_range_meters":38000,"station_id":"ce4bhb12rcd13ifvqem0","pricing_plan_id":"cebpf4jnsgd1na2vs0mg"},{"bike_id":"50b15991-9296-4df6-b1a6-725aba7e366c","system_id":"levelo_inurba_marseille","lat":43.25877,"lon":5.39898,"is_reserved":false,"is_disabled":true,"rental_uris":{"android":"levelo://app?vid=50b15991-9296-4df6-b1a6-725aba7e366c","ios":"levelo://app?vid=50b15991-9296-4df6-b1a6-725aba7e366c"},"vehicle_type_id":"4","last_reported":1738771877,"current_range_meters":1200,"station_id":"ce4bhl92rcd13ifvqghg","pricing_plan_id":"cebpf4jnsgd1na2vs0mg"},{"bike_id":"da4184ae-45e5-4997-8a3f-d0a7996a0181","system_id":"levelo_inurba_marseille","lat":43.30528,"lon":5.36545,"is_reserved":false,"is_disabled":false,"rental_uris":{"android":"levelo://app?vid=da4184ae-45e5-4997-8a3f-d0a7996a0181","ios":"levelo://app?vid=da4184ae-45e5-4997-8a3f-d0a7996a0181"},"vehicle_type_id":"4","last_reported":1738771877,"current_range_meters":32800,"station_id":"ce4bgs12rcd13ifvqcag","pricing_plan_id":"cebpf4jnsgd1na2vs0mg"},{"bike_id":"ebb6e997-80cb-4899-a3f2-23186dc1fe48","system_id":"levelo_inurba_marseille","lat":43.33017,"lon":5.38696,"is_reserved":false,"is_disabled":false,"rental_uris":{"android":"levelo://app?vid=ebb6e997-80cb-4899-a3f2-23186dc1fe48","ios":"levelo://app?vid=ebb6e997-80cb-4899-a3f2-23186dc1fe48"},"vehicle_type_id":"4","last_reported":1738771877,"current_range_meters":22400,"station_id":"","pricing_plan_id":"cebpf4jnsgd1na2vs0mg"},{"bike_id":"43dbcacd-347c-4beb-a600-5c3d96b4b244","system_id":"levelo_inurba_marseille","lat":43.23176,"lon":5.39991,"is_reserved":false,"is_disabled":false,"rental_uris":{"android":"levelo://app?vid=43dbcacd-347c-4beb-a600-5c3d96b4b244","ios":"levelo://app?vid=43dbcacd-347c-4beb-a600-5c3d96b4b244"},"vehicle_type_id":"4","last_reported":1738771877,"current_range_meters":27600,"station_id":"ce4bhn12rcd13ifvqgqg","pricing_plan_id":"cebpf4jnsgd1na2vs0mg"},{"bike_id":"209cba90-c7a6-4f4b-be2b-550153199cc2","system_id":"levelo_inurba_marseille","lat":43.30412,"lon":5.39751,"is_reserved":false,"is_disabled":false,"rental_uris":{"android":"levelo://app?vid=209cba90-c7a6-4f4b-be2b-550153199cc2","ios":"levelo://app?vid=209cba90-c7a6-4f4b-be2b-550153199cc2"},"vehicle_type_id":"4","last_reported":1738771877,"current_range_meters":4800,"station_id":"ce4bh092rcd13ifvqd20","pricing_plan_id":"cebpf4jnsgd1na2vs0mg"},{"bike_id":"9b7355dc-7165-40f0-8cd2-81f22484ab5d","system_id":"levelo_inurba_marseille","lat":43.23961,"lon":5.36626,"is_reserved":false,"is_disabled":false,"rental_uris":{"android":"levelo://app?vid=9b7355dc-7165-40f0-8cd2-81f22484ab5d","ios":"levelo://app?vid=9b7355dc-7165-40f0-8cd2-81f22484ab5d"},"vehicle_type_id":"4","last_reported":1738771877,"current_range_meters":36400,"station_id":"ce4bhi12rcd13ifvqfp0","pricing_plan_id":"cebpf4jnsgd1na2vs0mg"},{"bike_id":"9fe637f3-2908-4169-b9bf-d726f0cd4dd1","system_id":"levelo_inurba_marseille","lat":43.31324,"lon":5.39686,"is_reserved":false,"is_disabled":false,"rental_uris":{"android":"levelo://app?vid=9fe637f3-2908-4169-b9bf-d726f0cd4dd1","ios":"levelo://app?vid=9fe637f3-2908-4169-b9bf-d726f0cd4dd1"},"vehicle_type_id":"4","last_reported":1738771877,"current_range_meters":4400,"station_id":"ce4bgvp2rcd13ifvqcu0","pricing_plan_id":"cebpf4jnsgd1na2vs0mg"},{"bike_id":"7a0dded7-5e6f-4210-833a-2b4bf80dc6d4","system_id":"levelo_inurba_marseille","lat":43.30414,"lon":5.39766,"is_reserved":false,"is_disabled":false,"rental_uris":{"android":"levelo://app?vid=7a0dded7-5e6f-4210-833a-2b4bf80dc6d4","ios":"levelo://app?vid=7a0dded7-5e6f-4210-833a-2b4bf80dc6d4"},"vehicle_type_id":"4","last_reported":1738771877,"current_range_meters":36000,"station_id":"ce4bh092rcd13ifvqd20","pricing_plan_id":"cebpf4jnsgd1na2vs0mg"},{"bike_id":"931c3b97-cce1-4ebe-a291-6c50a6f2810e","system_id":"levelo_inurba_marseille","lat":43.31802,"lon":5.37397,"is_reserved":false,"is_disabled":false,"rental_uris":{"android":"levelo://app?vid=931c3b97-cce1-4ebe-a291-6c50a6f2810e","ios":"levelo://app?vid=931c3b97-cce1-4ebe-a291-6c50a6f2810e"},"vehicle_type_id":"4","last_reported":1738771877,"current_range_meters":6400,"station_id":"","pricing_plan_id":"cebpf4jnsgd1na2vs0mg"},{"bike_id":"3460e9d1-8304-4126-8bfc-ca809a328b91","system_id":"levelo_inurba_marseille","lat":43.30784,"lon":5.3765,"is_reserved":false,"is_disabled":false,"rental_uris":{"android":"levelo://app?vid=3460e9d1-8304-4126-8bfc-ca809a328b91","ios":"levelo://app?vid=3460e9d1-8304-4126-8bfc-ca809a328b91"},"vehicle_type_id":"4","last_reported":1738771877,"current_range_meters":28800,"station_id":"ce4bgv92rcd13ifvqcq0","pricing_plan_id":"cebpf4jnsgd1na2vs0mg"},{"bike_id":"d1d51ec2-e1ab-4b92-9a4b-f935b04ef436","system_id":"levelo_inurba_marseille","lat":43.2501,"lon":5.38915,"is_reserved":false,"is_disabled":false,"rental_uris":{"android":"levelo://app?vid=d1d51ec2-e1ab-4b92-9a4b-f935b04ef436","ios":"levelo://app?vid=d1d51ec2-e1ab-4b92-9a4b-f935b04ef436"},"vehicle_type_id":"4","last_reported":1738771877,"current_range_meters":18000,"station_id":"ce4bhgp2rcd13ifvqfd0","pricing_plan_id":"cebpf4jnsgd1na2vs0mg"},{"bike_id":"7a2080c9-d44a-471c-9acd-526428e8e5dc","system_id":"levelo_inurba_marseille","lat":43.229383,"lon":5.353863,"is_reserved":false,"is_disabled":false,"rental_uris":{"android":"levelo://app?vid=7a2080c9-d44a-471c-9acd-526428e8e5dc","ios":"levelo://app?vid=7a2080c9-d44a-471c-9acd-526428e8e5dc"},"vehicle_type_id":"4","last_reported":1738771877,"current_range_meters":38800,"station_id":"cpo3532slgdg3j2ikp40","pricing_plan_id":"cebpf4jnsgd1na2vs0mg"},{"bike_id":"5e7872bf-6d44-4209-9e94-a728a908b09f","system_id":"levelo_inurba_marseille","lat":43.31333,"lon":5.39697,"is_reserved":false,"is_disabled":false,"rental_uris":{"android":"levelo://app?vid=5e7872bf-6d44-4209-9e94-a728a908b09f","ios":"levelo://app?vid=5e7872bf-6d44-4209-9e94-a728a908b09f"},"vehicle_type_id":"4","last_reported":1738771877,"current_range_meters":18000,"station_id":"ce4bgvp2rcd13ifvqcu0","pricing_plan_id":"cebpf4jnsgd1na2vs0mg"},{"bike_id":"6100990f-c4b7-4419-ab12-3d9c2a9f7c81","system_id":"levelo_inurba_marseille","lat":43.28268,"lon":5.35078,"is_reserved":false,"is_disabled":false,"rental_uris":{"android":"levelo://app?vid=6100990f-c4b7-4419-ab12-3d9c2a9f7c81","ios":"levelo://app?vid=6100990f-c4b7-4419-ab12-3d9c2a9f7c81"},"vehicle_type_id":"4","last_reported":1738771877,"current_range_meters":37600,"station_id":"ce4bhbp2rcd13ifvqerg","pricing_plan_id":"cebpf4jnsgd1na2vs0mg"},{"bike_id":"f307dfc9-492f-427c-886b-0aebd0c4a217","system_id":"levelo_inurba_marseille","lat":43.24162,"lon":5.36401,"is_reserved":false,"is_disabled":false,"rental_uris":{"android":"levelo://app?vid=f307dfc9-492f-427c-886b-0aebd0c4a217","ios":"levelo://app?vid=f307dfc9-492f-427c-886b-0aebd0c4a217"},"vehicle_type_id":"4","last_reported":1738771877,"current_range_meters":38400,"station_id":"cpo36qri1sfpv3e86is0","pricing_plan_id":"cebpf4jnsgd1na2vs0mg"},{"bike_id":"5d53f9ea-d789-449f-8c2d-5410ac186cf7","system_id":"levelo_inurba_marseille","lat":43.28709,"lon":5.40002,"is_reserved":false,"is_disabled":false,"rental_uris":{"android":"levelo://app?vid=5d53f9ea-d789-449f-8c2d-5410ac186cf7","ios":"levelo://app?vid=5d53f9ea-d789-449f-8c2d-5410ac186cf7"},"vehicle_type_id":"4","last_reported":1738771877,"current_range_meters":38800,"station_id":"ce4bho92rcd13ifvqh3g","pricing_plan_id":"cebpf4jnsgd1na2vs0mg"},{"bike_id":"b1bbfb42-ae0a-4349-8d68-57ce8059fc76","system_id":"levelo_inurba_marseille","lat":43.28857,"lon":5.35873,"is_reserved":false,"is_disabled":false,"rental_uris":{"android":"levelo://app?vid=b1bbfb42-ae0a-4349-8d68-57ce8059fc76","ios":"levelo://app?vid=b1bbfb42-ae0a-4349-8d68-57ce8059fc76"},"vehicle_type_id":"4","last_reported":1738771877,"current_range_meters":34800,"station_id":"ce4bhb12rcd13ifvqem0","pricing_plan_id":"cebpf4jnsgd1na2vs0mg"},{"bike_id":"2b81159b-9997-4b68-bd02-00893c72da6c","system_id":"levelo_inurba_marseille","lat":43.29533,"lon":5.39053,"is_reserved":false,"is_disabled":false,"rental_uris":{"android":"levelo://app?vid=2b81159b-9997-4b68-bd02-00893c72da6c","ios":"levelo://app?vid=2b81159b-9997-4b68-bd02-00893c72da6c"},"vehicle_type_id":"4","last_reported":1738771877,"current_range_meters":38400,"station_id":"ce4bh3p2rcd13ifvqdp0","pricing_plan_id":"cebpf4jnsgd1na2vs0mg"},{"bike_id":"f046ced8-2f62-49e0-91a8-2c413ad2e3a7","system_id":"levelo_inurba_marseille","lat":43.28447,"lon":5.392,"is_reserved":false,"is_disabled":true,"rental_uris":{"android":"levelo://app?vid=f046ced8-2f62-49e0-91a8-2c413ad2e3a7","ios":"levelo://app?vid=f046ced8-2f62-49e0-91a8-2c413ad2e3a7"},"vehicle_type_id":"4","last_reported":1738771877,"current_range_meters":4000,"station_id":"ce4bhoh2rcd13ifvqh5g","pricing_plan_id":"cebpf4jnsgd1na2vs0mg"},{"bike_id":"abd07a97-530b-4fc0-93db-ff4b041bb8b9","system_id":"levelo_inurba_marseille","lat":43.30201,"lon":5.366,"is_reserved":false,"is_disabled":false,"rental_uris":{"android":"levelo://app?vid=abd07a97-530b-4fc0-93db-ff4b041bb8b9","ios":"levelo://app?vid=abd07a97-530b-4fc0-93db-ff4b041bb8b9"},"vehicle_type_id":"4","last_reported":1738771877,"current_range_meters":30000,"station_id":"ce4bgrh2rcd13ifvqc8g","pricing_plan_id":"cebpf4jnsgd1na2vs0mg"},{"bike_id":"e425eb01-9ac7-4302-8b07-34d0b6e9a76e","system_id":"levelo_inurba_marseille","lat":43.30535,"lon":5.38431,"is_reserved":false,"is_disabled":false,"rental_uris":{"android":"levelo://app?vid=e425eb01-9ac7-4302-8b07-34d0b6e9a76e","ios":"levelo://app?vid=e425eb01-9ac7-4302-8b07-34d0b6e9a76e"},"vehicle_type_id":"4","last_reported":1738771877,"current_range_meters":28000,"station_id":"ce4bgg92rcd13ifvqb30","pricing_plan_id":"cebpf4jnsgd1na2vs0mg"},{"bike_id":"3ed2f346-3cdc-4051-b18a-2a05168e6e32","system_id":"levelo_inurba_marseille","lat":43.31073,"lon":5.40101,"is_reserved":false,"is_disabled":false,"rental_uris":{"android":"levelo://app?vid=3ed2f346-3cdc-4051-b18a-2a05168e6e32","ios":"levelo://app?vid=3ed2f346-3cdc-4051-b18a-2a05168e6e32"},"vehicle_type_id":"4","last_reported":1738771877,"current_range_meters":32400,"station_id":"","pricing_plan_id":"cebpf4jnsgd1na2vs0mg"},{"bike_id":"2d3ab029-0757-42af-b315-ae61d77c962f","system_id":"levelo_inurba_marseille","lat":43.26215,"lon":5.37445,"is_reserved":false,"is_disabled":false,"rental_uris":{"android":"levelo://app?vid=2d3ab029-0757-42af-b315-ae61d77c962f","ios":"levelo://app?vid=2d3ab029-0757-42af-b315-ae61d77c962f"},"vehicle_type_id":"4","last_reported":1738771877,"current_range_meters":20400,"station_id":"ce4bhgp2rcd13ifvqfc0","pricing_plan_id":"cebpf4jnsgd1na2vs0mg"},{"bike_id":"bc4186b3-1073-492b-ab95-0326a7b12d0e","system_id":"levelo_inurba_marseille","lat":43.28425,"lon":5.3497,"is_reserved":false,"is_disabled":false,"rental_uris":{"android":"levelo://app?vid=bc4186b3-1073-492b-ab95-0326a7b12d0e","ios":"levelo://app?vid=bc4186b3-1073-492b-ab95-0326a7b12d0e"},"vehicle_type_id":"4","last_reported":1738771877,"current_range_meters":36000,"station_id":"ce4bhbh2rcd13ifvqepg","pricing_plan_id":"cebpf4jnsgd1na2vs0mg"},{"bike_id":"c4833bfc-538d-493b-94d2-ac9ac9cac0a4","system_id":"levelo_inurba_marseille","lat":43.27622,"lon":5.36104,"is_reserved":false,"is_disabled":false,"rental_uris":{"android":"levelo://app?vid=c4833bfc-538d-493b-94d2-ac9ac9cac0a4","ios":"levelo://app?vid=c4833bfc-538d-493b-94d2-ac9ac9cac0a4"},"vehicle_type_id":"4","last_reported":1738771877,"current_range_meters":20000,"station_id":"ce4bgj92rcd13ifvqbe0","pricing_plan_id":"cebpf4jnsgd1na2vs0mg"},{"bike_id":"ca548841-038a-498c-a964-8af9b79f0f47","system_id":"levelo_inurba_marseille","lat":43.280329,"lon":5.369491,"is_reserved":false,"is_disabled":false,"rental_uris":{"android":"levelo://app?vid=ca548841-038a-498c-a964-8af9b79f0f47","ios":"levelo://app?vid=ca548841-038a-498c-a964-8af9b79f0f47"},"vehicle_type_id":"4","last_reported":1738771877,"current_range_meters":39200,"station_id":"ce4bha12rcd13ifvqef0","pricing_plan_id":"cebpf4jnsgd1na2vs0mg"},{"bike_id":"a6d0cad2-4c79-4fd5-97af-09c3bd20a120","system_id":"levelo_inurba_marseille","lat":43.298477,"lon":5.36274,"is_reserved":false,"is_disabled":false,"rental_uris":{"android":"levelo://app?vid=a6d0cad2-4c79-4fd5-97af-09c3bd20a120","ios":"levelo://app?vid=a6d0cad2-4c79-4fd5-97af-09c3bd20a120"},"vehicle_type_id":"4","last_reported":1738771877,"current_range_meters":39200,"station_id":"ce4bgpp2rcd13ifvqc3g","pricing_plan_id":"cebpf4jnsgd1na2vs0mg"},{"bike_id":"2b52254f-933d-4903-ac07-21eb27a1e798","system_id":"levelo_inurba_marseille","lat":43.27191,"lon":5.40974,"is_reserved":false,"is_disabled":false,"rental_uris":{"android":"levelo://app?vid=2b52254f-933d-4903-ac07-21eb27a1e798","ios":"levelo://app?vid=2b52254f-933d-4903-ac07-21eb27a1e798"},"vehicle_type_id":"4","last_reported":1738771877,"current_range_meters":38800,"station_id":"ce4bhl12rcd13ifvqgf0","pricing_plan_id":"cebpf4jnsgd1na2vs0mg"},{"bike_id":"ea6e3a5c-2334-4106-b4ff-2794b9ac1def","system_id":"levelo_inurba_marseille","lat":43.28846,"lon":5.39327,"is_reserved":false,"is_disabled":false,"rental_uris":{"android":"levelo://app?vid=ea6e3a5c-2334-4106-b4ff-2794b9ac1def","ios":"levelo://app?vid=ea6e3a5c-2334-4106-b4ff-2794b9ac1def"},"vehicle_type_id":"4","last_reported":1738771877,"current_range_meters":36800,"station_id":"ce4bh2p2rcd13ifvqdi0","pricing_plan_id":"cebpf4jnsgd1na2vs0mg"},{"bike_id":"2b861e24-52a2-4c3e-ac32-2a2535ddbb64","system_id":"levelo_inurba_marseille","lat":43.28415,"lon":5.37521,"is_reserved":false,"is_disabled":false,"rental_uris":{"android":"levelo://app?vid=2b861e24-52a2-4c3e-ac32-2a2535ddbb64","ios":"levelo://app?vid=2b861e24-52a2-4c3e-ac32-2a2535ddbb64"},"vehicle_type_id":"4","last_reported":1738771877,"current_range_meters":12800,"station_id":"ce4bh412rcd13ifvqds0","pricing_plan_id":"cebpf4jnsgd1na2vs0mg"},{"bike_id":"d5085458-1377-4d23-af37-222a5e9fad38","system_id":"levelo_inurba_marseille","lat":43.29972,"lon":5.3718,"is_reserved":false,"is_disabled":false,"rental_uris":{"android":"levelo://app?vid=d5085458-1377-4d23-af37-222a5e9fad38","ios":"levelo://app?vid=d5085458-1377-4d23-af37-222a5e9fad38"},"vehicle_type_id":"4","last_reported":1738771877,"current_range_meters":6000,"station_id":"ce4bgr92rcd13ifvqc7g","pricing_plan_id":"cebpf4jnsgd1na2vs0mg"},{"bike_id":"d9c9c7a1-08d0-4528-8bf3-54e33152b52c","system_id":"levelo_inurba_marseille","lat":43.32109,"lon":5.36757,"is_reserved":false,"is_disabled":false,"rental_uris":{"android":"levelo://app?vid=d9c9c7a1-08d0-4528-8bf3-54e33152b52c","ios":"levelo://app?vid=d9c9c7a1-08d0-4528-8bf3-54e33152b52c"},"vehicle_type_id":"4","last_reported":1738771877,"current_range_meters":21600,"station_id":"ce4bhrh2rcd13ifvqhug","pricing_plan_id":"cebpf4jnsgd1na2vs0mg"},{"bike_id":"65364f52-f4e9-4224-bf62-24d52e1416c9","system_id":"levelo_inurba_marseille","lat":43.31075,"lon":5.38357,"is_reserved":false,"is_disabled":false,"rental_uris":{"android":"levelo://app?vid=65364f52-f4e9-4224-bf62-24d52e1416c9","ios":"levelo://app?vid=65364f52-f4e9-4224-bf62-24d52e1416c9"},"vehicle_type_id":"4","last_reported":1738771877,"current_range_meters":24000,"station_id":"ce4bgv92rcd13ifvqcr0","pricing_plan_id":"cebpf4jnsgd1na2vs0mg"},{"bike_id":"460ea0f1-b131-4b5f-b1dc-d54b70763fbe","system_id":"levelo_inurba_marseille","lat":43.29316,"lon":5.37464,"is_reserved":false,"is_disabled":false,"rental_uris":{"android":"levelo://app?vid=460ea0f1-b131-4b5f-b1dc-d54b70763fbe","ios":"levelo://app?vid=460ea0f1-b131-4b5f-b1dc-d54b70763fbe"},"vehicle_type_id":"4","last_reported":1738771877,"current_range_meters":16400,"station_id":"ce4bgi12rcd13ifvqb70","pricing_plan_id":"cebpf4jnsgd1na2vs0mg"},{"bike_id":"dcbd0276-bbbe-4d9f-a46e-4b4cd5e36252","system_id":"levelo_inurba_marseille","lat":43.26942,"lon":5.40252,"is_reserved":false,"is_disabled":false,"rental_uris":{"android":"levelo://app?vid=dcbd0276-bbbe-4d9f-a46e-4b4cd5e36252","ios":"levelo://app?vid=dcbd0276-bbbe-4d9f-a46e-4b4cd5e36252"},"vehicle_type_id":"4","last_reported":1738771877,"current_range_meters":27600,"station_id":"cjm6bp8fraef2m0cb0m0","pricing_plan_id":"cebpf4jnsgd1na2vs0mg"},{"bike_id":"829e24bb-ddc5-4c71-b55d-a6ec96d1ab1a","system_id":"levelo_inurba_marseille","lat":43.29388,"lon":5.37848,"is_reserved":false,"is_disabled":false,"rental_uris":{"android":"levelo://app?vid=829e24bb-ddc5-4c71-b55d-a6ec96d1ab1a","ios":"levelo://app?vid=829e24bb-ddc5-4c71-b55d-a6ec96d1ab1a"},"vehicle_type_id":"4","last_reported":1738771877,"current_range_meters":38800,"station_id":"ce4bgjh2rcd13ifvqbf0","pricing_plan_id":"cebpf4jnsgd1na2vs0mg"},{"bike_id":"afb24665-29eb-4b84-b727-dcf974a337f4","system_id":"levelo_inurba_marseille","lat":43.29232,"lon":5.360577,"is_reserved":false,"is_disabled":false,"rental_uris":{"android":"levelo://app?vid=afb24665-29eb-4b84-b727-dcf974a337f4","ios":"levelo://app?vid=afb24665-29eb-4b84-b727-dcf974a337f4"},"vehicle_type_id":"4","last_reported":1738771877,"current_range_meters":38400,"station_id":"ce4bhbh2rcd13ifvqeqg","pricing_plan_id":"cebpf4jnsgd1na2vs0mg"},{"bike_id":"ac0e0335-9e9d-4332-addd-ad0511e84cfe","system_id":"levelo_inurba_marseille","lat":43.29807,"lon":5.37111,"is_reserved":false,"is_disabled":false,"rental_uris":{"android":"levelo://app?vid=ac0e0335-9e9d-4332-addd-ad0511e84cfe","ios":"levelo://app?vid=ac0e0335-9e9d-4332-addd-ad0511e84cfe"},"vehicle_type_id":"4","last_reported":1738771877,"current_range_meters":39200,"station_id":"ce4bgop2rcd13ifvqc1g","pricing_plan_id":"cebpf4jnsgd1na2vs0mg"},{"bike_id":"09f862ca-83a2-4801-b7f5-d63f02260ed6","system_id":"levelo_inurba_marseille","lat":43.29286,"lon":5.37131,"is_reserved":false,"is_disabled":false,"rental_uris":{"android":"levelo://app?vid=09f862ca-83a2-4801-b7f5-d63f02260ed6","ios":"levelo://app?vid=09f862ca-83a2-4801-b7f5-d63f02260ed6"},"vehicle_type_id":"4","last_reported":1738771877,"current_range_meters":14000,"station_id":"","pricing_plan_id":"cebpf4jnsgd1na2vs0mg"},{"bike_id":"8dcb5648-f815-40ee-a1ef-63cb7b60c563","system_id":"levelo_inurba_marseille","lat":43.31981,"lon":5.38113,"is_reserved":false,"is_disabled":false,"rental_uris":{"android":"levelo://app?vid=8dcb5648-f815-40ee-a1ef-63cb7b60c563","ios":"levelo://app?vid=8dcb5648-f815-40ee-a1ef-63cb7b60c563"},"vehicle_type_id":"4","last_reported":1738771877,"current_range_meters":32400,"station_id":"ce4bhr12rcd13ifvqhpg","pricing_plan_id":"cebpf4jnsgd1na2vs0mg"},{"bike_id":"a43d3c84-a09e-45cc-ac2d-d398e1ea4772","system_id":"levelo_inurba_marseille","lat":43.28728,"lon":5.36091,"is_reserved":false,"is_disabled":false,"rental_uris":{"android":"levelo://app?vid=a43d3c84-a09e-45cc-ac2d-d398e1ea4772","ios":"levelo://app?vid=a43d3c84-a09e-45cc-ac2d-d398e1ea4772"},"vehicle_type_id":"4","last_reported":1738771877,"current_range_meters":26000,"station_id":"cki0cbj6b192h4jlfktg","pricing_plan_id":"cebpf4jnsgd1na2vs0mg"},{"bike_id":"a9ee38d0-21e8-4d99-8e3f-cc643e32473e","system_id":"levelo_inurba_marseille","lat":43.27825,"lon":5.40724,"is_reserved":false,"is_disabled":false,"rental_uris":{"android":"levelo://app?vid=a9ee38d0-21e8-4d99-8e3f-cc643e32473e","ios":"levelo://app?vid=a9ee38d0-21e8-4d99-8e3f-cc643e32473e"},"vehicle_type_id":"4","last_reported":1738771877,"current_range_meters":37600,"station_id":"ce4bhnh2rcd13ifvqgtg","pricing_plan_id":"cebpf4jnsgd1na2vs0mg"},{"bike_id":"d2b5c6fa-6f87-4e3e-9108-aa62ff6a3846","system_id":"levelo_inurba_marseille","lat":43.2466,"lon":5.38165,"is_reserved":false,"is_disabled":false,"rental_uris":{"android":"levelo://app?vid=d2b5c6fa-6f87-4e3e-9108-aa62ff6a3846","ios":"levelo://app?vid=d2b5c6fa-6f87-4e3e-9108-aa62ff6a3846"},"vehicle_type_id":"4","last_reported":1738771877,"current_range_meters":22400,"station_id":"ce4bhih2rcd13ifvqfr0","pricing_plan_id":"cebpf4jnsgd1na2vs0mg"},{"bike_id":"c2401133-0769-414e-9fac-4c457ed08d26","system_id":"levelo_inurba_marseille","lat":43.30555,"lon":5.36527,"is_reserved":false,"is_disabled":true,"rental_uris":{"android":"levelo://app?vid=c2401133-0769-414e-9fac-4c457ed08d26","ios":"levelo://app?vid=c2401133-0769-414e-9fac-4c457ed08d26"},"vehicle_type_id":"4","last_reported":1738771877,"current_range_meters":2000,"station_id":"ce4bgs12rcd13ifvqcag","pricing_plan_id":"cebpf4jnsgd1na2vs0mg"},{"bike_id":"3d1d38d7-e37e-41a9-9885-0f5e96cdb53e","system_id":"levelo_inurba_marseille","lat":43.28455,"lon":5.35887,"is_reserved":false,"is_disabled":false,"rental_uris":{"android":"levelo://app?vid=3d1d38d7-e37e-41a9-9885-0f5e96cdb53e","ios":"levelo://app?vid=3d1d38d7-e37e-41a9-9885-0f5e96cdb53e"},"vehicle_type_id":"4","last_reported":1738771877,"current_range_meters":17200,"station_id":"ce4bhah2rcd13ifvqei0","pricing_plan_id":"cebpf4jnsgd1na2vs0mg"},{"bike_id":"ede1b66a-e9f6-448e-afce-7fab50d2df55","system_id":"levelo_inurba_marseille","lat":43.24663,"lon":5.38161,"is_reserved":false,"is_disabled":true,"rental_uris":{"android":"levelo://app?vid=ede1b66a-e9f6-448e-afce-7fab50d2df55","ios":"levelo://app?vid=ede1b66a-e9f6-448e-afce-7fab50d2df55"},"vehicle_type_id":"4","last_reported":1738771877,"current_range_meters":0,"station_id":"ce4bhih2rcd13ifvqfr0","pricing_plan_id":"cebpf4jnsgd1na2vs0mg"},{"bike_id":"0c79d67c-a067-425d-b9c7-01a9196ea8df","system_id":"levelo_inurba_marseille","lat":43.29628,"lon":5.40596,"is_reserved":false,"is_disabled":false,"rental_uris":{"android":"levelo://app?vid=0c79d67c-a067-425d-b9c7-01a9196ea8df","ios":"levelo://app?vid=0c79d67c-a067-425d-b9c7-01a9196ea8df"},"vehicle_type_id":"4","last_reported":1738771877,"current_range_meters":6400,"station_id":"ce4bh0h2rcd13ifvqd60","pricing_plan_id":"cebpf4jnsgd1na2vs0mg"},{"bike_id":"41ad3d36-51d8-4204-ae3d-d7c8884b6fab","system_id":"levelo_inurba_marseille","lat":43.25575,"lon":5.38213,"is_reserved":false,"is_disabled":false,"rental_uris":{"android":"levelo://app?vid=41ad3d36-51d8-4204-ae3d-d7c8884b6fab","ios":"levelo://app?vid=41ad3d36-51d8-4204-ae3d-d7c8884b6fab"},"vehicle_type_id":"4","last_reported":1738771877,"current_range_meters":36400,"station_id":"ce4bhih2rcd13ifvqfs0","pricing_plan_id":"cebpf4jnsgd1na2vs0mg"},{"bike_id":"de392a4a-8794-4cd3-8b89-a5ff8b5f1518","system_id":"levelo_inurba_marseille","lat":43.28426,"lon":5.34988,"is_reserved":false,"is_disabled":false,"rental_uris":{"android":"levelo://app?vid=de392a4a-8794-4cd3-8b89-a5ff8b5f1518","ios":"levelo://app?vid=de392a4a-8794-4cd3-8b89-a5ff8b5f1518"},"vehicle_type_id":"4","last_reported":1738771877,"current_range_meters":27600,"station_id":"ce4bhbh2rcd13ifvqepg","pricing_plan_id":"cebpf4jnsgd1na2vs0mg"},{"bike_id":"a2ba7768-e6f8-4ccb-9b3a-ceb62a2b692a","system_id":"levelo_inurba_marseille","lat":43.28613,"lon":5.35094,"is_reserved":false,"is_disabled":false,"rental_uris":{"android":"levelo://app?vid=a2ba7768-e6f8-4ccb-9b3a-ceb62a2b692a","ios":"levelo://app?vid=a2ba7768-e6f8-4ccb-9b3a-ceb62a2b692a"},"vehicle_type_id":"4","last_reported":1738771877,"current_range_meters":38400,"station_id":"ce4bhch2rcd13ifvqeug","pricing_plan_id":"cebpf4jnsgd1na2vs0mg"},{"bike_id":"2170c933-3add-45ef-ab33-d936e464f15f","system_id":"levelo_inurba_marseille","lat":43.30431,"lon":5.39762,"is_reserved":false,"is_disabled":false,"rental_uris":{"android":"levelo://app?vid=2170c933-3add-45ef-ab33-d936e464f15f","ios":"levelo://app?vid=2170c933-3add-45ef-ab33-d936e464f15f"},"vehicle_type_id":"4","last_reported":1738771877,"current_range_meters":26800,"station_id":"ce4bh092rcd13ifvqd20","pricing_plan_id":"cebpf4jnsgd1na2vs0mg"},{"bike_id":"ddb48a2e-0e7a-4db9-bb08-d15c6b7ecf4a","system_id":"levelo_inurba_marseille","lat":43.2762,"lon":5.36109,"is_reserved":false,"is_disabled":true,"rental_uris":{"android":"levelo://app?vid=ddb48a2e-0e7a-4db9-bb08-d15c6b7ecf4a","ios":"levelo://app?vid=ddb48a2e-0e7a-4db9-bb08-d15c6b7ecf4a"},"vehicle_type_id":"4","last_reported":1738771877,"current_range_meters":0,"station_id":"ce4bgj92rcd13ifvqbe0","pricing_plan_id":"cebpf4jnsgd1na2vs0mg"},{"bike_id":"1723f417-eeff-4a71-ad2f-ad7ed6d627d4","system_id":"levelo_inurba_marseille","lat":43.26214,"lon":5.37445,"is_reserved":false,"is_disabled":false,"rental_uris":{"android":"levelo://app?vid=1723f417-eeff-4a71-ad2f-ad7ed6d627d4","ios":"levelo://app?vid=1723f417-eeff-4a71-ad2f-ad7ed6d627d4"},"vehicle_type_id":"4","last_reported":1738771877,"current_range_meters":38400,"station_id":"ce4bhgp2rcd13ifvqfc0","pricing_plan_id":"cebpf4jnsgd1na2vs0mg"},{"bike_id":"e7d31327-323a-443c-bb67-39186722e63f","system_id":"levelo_inurba_marseille","lat":43.33786,"lon":5.37431,"is_reserved":false,"is_disabled":false,"rental_uris":{"android":"levelo://app?vid=e7d31327-323a-443c-bb67-39186722e63f","ios":"levelo://app?vid=e7d31327-323a-443c-bb67-39186722e63f"},"vehicle_type_id":"4","last_reported":1738771877,"current_range_meters":16000,"station_id":"","pricing_plan_id":"cebpf4jnsgd1na2vs0mg"},{"bike_id":"8a76b1d1-c035-4d88-98d6-c1b1f27a1c8c","system_id":"levelo_inurba_marseille","lat":43.29005,"lon":5.38123,"is_reserved":false,"is_disabled":false,"rental_uris":{"android":"levelo://app?vid=8a76b1d1-c035-4d88-98d6-c1b1f27a1c8c","ios":"levelo://app?vid=8a76b1d1-c035-4d88-98d6-c1b1f27a1c8c"},"vehicle_type_id":"4","last_reported":1738771877,"current_range_meters":14800,"station_id":"ce4bh4p2rcd13ifvqe1g","pricing_plan_id":"cebpf4jnsgd1na2vs0mg"},{"bike_id":"fbe3d96d-7f67-4a55-abf8-9c8cb85f4aa3","system_id":"levelo_inurba_marseille","lat":43.28271,"lon":5.35064,"is_reserved":false,"is_disabled":false,"rental_uris":{"android":"levelo://app?vid=fbe3d96d-7f67-4a55-abf8-9c8cb85f4aa3","ios":"levelo://app?vid=fbe3d96d-7f67-4a55-abf8-9c8cb85f4aa3"},"vehicle_type_id":"4","last_reported":1738771877,"current_range_meters":25600,"station_id":"ce4bhbp2rcd13ifvqerg","pricing_plan_id":"cebpf4jnsgd1na2vs0mg"},{"bike_id":"b9bfb74a-176a-4cd6-8e59-4fc84d6fb701","system_id":"levelo_inurba_marseille","lat":43.28624,"lon":5.35111,"is_reserved":false,"is_disabled":false,"rental_uris":{"android":"levelo://app?vid=b9bfb74a-176a-4cd6-8e59-4fc84d6fb701","ios":"levelo://app?vid=b9bfb74a-176a-4cd6-8e59-4fc84d6fb701"},"vehicle_type_id":"4","last_reported":1738771877,"current_range_meters":19600,"station_id":"ce4bhch2rcd13ifvqeug","pricing_plan_id":"cebpf4jnsgd1na2vs0mg"},{"bike_id":"93cab8cc-c77b-4201-82ee-38a96f1e3bc5","system_id":"levelo_inurba_marseille","lat":43.27954,"lon":5.4104,"is_reserved":false,"is_disabled":false,"rental_uris":{"android":"levelo://app?vid=93cab8cc-c77b-4201-82ee-38a96f1e3bc5","ios":"levelo://app?vid=93cab8cc-c77b-4201-82ee-38a96f1e3bc5"},"vehicle_type_id":"4","last_reported":1738771877,"current_range_meters":8000,"station_id":"ce4bhnp2rcd13ifvqh0g","pricing_plan_id":"cebpf4jnsgd1na2vs0mg"},{"bike_id":"8fa93e3c-256e-4a91-ab0e-2a4edaffec54","system_id":"levelo_inurba_marseille","lat":43.31082,"lon":5.42429,"is_reserved":false,"is_disabled":false,"rental_uris":{"android":"levelo://app?vid=8fa93e3c-256e-4a91-ab0e-2a4edaffec54","ios":"levelo://app?vid=8fa93e3c-256e-4a91-ab0e-2a4edaffec54"},"vehicle_type_id":"4","last_reported":1738771877,"current_range_meters":20400,"station_id":"ce4bhp92rcd13ifvqhag","pricing_plan_id":"cebpf4jnsgd1na2vs0mg"},{"bike_id":"3b450266-aab2-4b96-a0ff-00ef580d661d","system_id":"levelo_inurba_marseille","lat":43.28726,"lon":5.36096,"is_reserved":false,"is_disabled":false,"rental_uris":{"android":"levelo://app?vid=3b450266-aab2-4b96-a0ff-00ef580d661d","ios":"levelo://app?vid=3b450266-aab2-4b96-a0ff-00ef580d661d"},"vehicle_type_id":"4","last_reported":1738771877,"current_range_meters":38800,"station_id":"cki0cbj6b192h4jlfktg","pricing_plan_id":"cebpf4jnsgd1na2vs0mg"},{"bike_id":"5d4ee07c-4f42-433d-8cfa-07fb5bf2f858","system_id":"levelo_inurba_marseille","lat":43.2872,"lon":5.36092,"is_reserved":false,"is_disabled":false,"rental_uris":{"android":"levelo://app?vid=5d4ee07c-4f42-433d-8cfa-07fb5bf2f858","ios":"levelo://app?vid=5d4ee07c-4f42-433d-8cfa-07fb5bf2f858"},"vehicle_type_id":"4","last_reported":1738771877,"current_range_meters":9200,"station_id":"cki0cbj6b192h4jlfktg","pricing_plan_id":"cebpf4jnsgd1na2vs0mg"},{"bike_id":"258f9419-b9bf-47ce-b44f-cba55c3791e7","system_id":"levelo_inurba_marseille","lat":43.29886,"lon":5.39724,"is_reserved":false,"is_disabled":false,"rental_uris":{"android":"levelo://app?vid=258f9419-b9bf-47ce-b44f-cba55c3791e7","ios":"levelo://app?vid=258f9419-b9bf-47ce-b44f-cba55c3791e7"},"vehicle_type_id":"4","last_reported":1738771877,"current_range_meters":19200,"station_id":"ce4bh0h2rcd13ifvqd50","pricing_plan_id":"cebpf4jnsgd1na2vs0mg"},{"bike_id":"cd07e062-2af1-406e-bcb9-5f1ec4730937","system_id":"levelo_inurba_marseille","lat":43.23066,"lon":5.35498,"is_reserved":false,"is_disabled":false,"rental_uris":{"android":"levelo://app?vid=cd07e062-2af1-406e-bcb9-5f1ec4730937","ios":"levelo://app?vid=cd07e062-2af1-406e-bcb9-5f1ec4730937"},"vehicle_type_id":"4","last_reported":1738771877,"current_range_meters":38400,"station_id":"cpo3342slgdg3j2ifvpg","pricing_plan_id":"cebpf4jnsgd1na2vs0mg"},{"bike_id":"c3644d12-8427-4602-9945-9ef42c46feca","system_id":"levelo_inurba_marseille","lat":43.2417,"lon":5.364,"is_reserved":false,"is_disabled":false,"rental_uris":{"android":"levelo://app?vid=c3644d12-8427-4602-9945-9ef42c46feca","ios":"levelo://app?vid=c3644d12-8427-4602-9945-9ef42c46feca"},"vehicle_type_id":"4","last_reported":1738771877,"current_range_meters":38400,"station_id":"cpo36qri1sfpv3e86is0","pricing_plan_id":"cebpf4jnsgd1na2vs0mg"},{"bike_id":"6b38d43d-337c-4149-9167-ccfdd61c33a4","system_id":"levelo_inurba_marseille","lat":43.29221,"lon":5.36053,"is_reserved":false,"is_disabled":false,"rental_uris":{"android":"levelo://app?vid=6b38d43d-337c-4149-9167-ccfdd61c33a4","ios":"levelo://app?vid=6b38d43d-337c-4149-9167-ccfdd61c33a4"},"vehicle_type_id":"4","last_reported":1738771877,"current_range_meters":36000,"station_id":"ce4bhbh2rcd13ifvqeqg","pricing_plan_id":"cebpf4jnsgd1na2vs0mg"},{"bike_id":"1e7bde43-ab8f-4755-b59a-acd0a53ae759","system_id":"levelo_inurba_marseille","lat":43.31721,"lon":5.42396,"is_reserved":false,"is_disabled":true,"rental_uris":{"android":"levelo://app?vid=1e7bde43-ab8f-4755-b59a-acd0a53ae759","ios":"levelo://app?vid=1e7bde43-ab8f-4755-b59a-acd0a53ae759"},"vehicle_type_id":"4","last_reported":1738771877,"current_range_meters":0,"station_id":"ce4bhp92rcd13ifvqhbg","pricing_plan_id":"cebpf4jnsgd1na2vs0mg"},{"bike_id":"d0bff36a-f9fc-475a-a0f6-7cff1975ff51","system_id":"levelo_inurba_marseille","lat":43.32658,"lon":5.40993,"is_reserved":false,"is_disabled":false,"rental_uris":{"android":"levelo://app?vid=d0bff36a-f9fc-475a-a0f6-7cff1975ff51","ios":"levelo://app?vid=d0bff36a-f9fc-475a-a0f6-7cff1975ff51"},"vehicle_type_id":"4","last_reported":1738771877,"current_range_meters":26800,"station_id":"ce4bhpp2rcd13ifvqhgg","pricing_plan_id":"cebpf4jnsgd1na2vs0mg"},{"bike_id":"38dc156a-4db3-4b53-b455-b55e2281775f","system_id":"levelo_inurba_marseille","lat":43.30554,"lon":5.36696,"is_reserved":false,"is_disabled":false,"rental_uris":{"android":"levelo://app?vid=38dc156a-4db3-4b53-b455-b55e2281775f","ios":"levelo://app?vid=38dc156a-4db3-4b53-b455-b55e2281775f"},"vehicle_type_id":"4","last_reported":1738771877,"current_range_meters":8000,"station_id":"ce4bgrp2rcd13ifvqc9g","pricing_plan_id":"cebpf4jnsgd1na2vs0mg"},{"bike_id":"2f789bd7-c5d8-4bbf-b955-b8f81899cae7","system_id":"levelo_inurba_marseille","lat":43.29308,"lon":5.37459,"is_reserved":false,"is_disabled":false,"rental_uris":{"android":"levelo://app?vid=2f789bd7-c5d8-4bbf-b955-b8f81899cae7","ios":"levelo://app?vid=2f789bd7-c5d8-4bbf-b955-b8f81899cae7"},"vehicle_type_id":"4","last_reported":1738771877,"current_range_meters":38800,"station_id":"ce4bgi12rcd13ifvqb70","pricing_plan_id":"cebpf4jnsgd1na2vs0mg"},{"bike_id":"45a7daa2-2a2e-4454-90c3-1009aaecc5bd","system_id":"levelo_inurba_marseille","lat":43.23208,"lon":5.3552,"is_reserved":false,"is_disabled":true,"rental_uris":{"android":"levelo://app?vid=45a7daa2-2a2e-4454-90c3-1009aaecc5bd","ios":"levelo://app?vid=45a7daa2-2a2e-4454-90c3-1009aaecc5bd"},"vehicle_type_id":"4","last_reported":1738771877,"current_range_meters":1200,"station_id":"ce4bhu92rcd13ifvqi70","pricing_plan_id":"cebpf4jnsgd1na2vs0mg"},{"bike_id":"aece1634-918f-4f68-8bc7-9a7b7abafc1f","system_id":"levelo_inurba_marseille","lat":43.2816,"lon":5.42639,"is_reserved":false,"is_disabled":true,"rental_uris":{"android":"levelo://app?vid=aece1634-918f-4f68-8bc7-9a7b7abafc1f","ios":"levelo://app?vid=aece1634-918f-4f68-8bc7-9a7b7abafc1f"},"vehicle_type_id":"4","last_reported":1738771877,"current_range_meters":29600,"station_id":"ce4bhnh2rcd13ifvqgug","pricing_plan_id":"cebpf4jnsgd1na2vs0mg"},{"bike_id":"72e458a9-2a04-4d7d-a6ed-4033588f5b60","system_id":"levelo_inurba_marseille","lat":43.32366,"lon":5.3888,"is_reserved":false,"is_disabled":false,"rental_uris":{"android":"levelo://app?vid=72e458a9-2a04-4d7d-a6ed-4033588f5b60","ios":"levelo://app?vid=72e458a9-2a04-4d7d-a6ed-4033588f5b60"},"vehicle_type_id":"4","last_reported":1738771877,"current_range_meters":24800,"station_id":"ce4bhqp2rcd13ifvqhog","pricing_plan_id":"cebpf4jnsgd1na2vs0mg"},{"bike_id":"e4fbacd2-2c44-4b78-b9fc-d346dc2a77d1","system_id":"levelo_inurba_marseille","lat":43.32366,"lon":5.38886,"is_reserved":false,"is_disabled":false,"rental_uris":{"android":"levelo://app?vid=e4fbacd2-2c44-4b78-b9fc-d346dc2a77d1","ios":"levelo://app?vid=e4fbacd2-2c44-4b78-b9fc-d346dc2a77d1"},"vehicle_type_id":"4","last_reported":1738771877,"current_range_meters":38000,"station_id":"ce4bhqp2rcd13ifvqhog","pricing_plan_id":"cebpf4jnsgd1na2vs0mg"},{"bike_id":"3b1d5f28-8e2f-4cd2-84ee-32e60c8bc1d4","system_id":"levelo_inurba_marseille","lat":43.27943,"lon":5.38724,"is_reserved":false,"is_disabled":true,"rental_uris":{"android":"levelo://app?vid=3b1d5f28-8e2f-4cd2-84ee-32e60c8bc1d4","ios":"levelo://app?vid=3b1d5f28-8e2f-4cd2-84ee-32e60c8bc1d4"},"vehicle_type_id":"4","last_reported":1738771877,"current_range_meters":0,"station_id":"ce4bhg12rcd13ifvqf80","pricing_plan_id":"cebpf4jnsgd1na2vs0mg"},{"bike_id":"e3fec310-c9a9-42a7-b4b7-beabdc548a59","system_id":"levelo_inurba_marseille","lat":43.30554,"lon":5.38434,"is_reserved":false,"is_disabled":false,"rental_uris":{"android":"levelo://app?vid=e3fec310-c9a9-42a7-b4b7-beabdc548a59","ios":"levelo://app?vid=e3fec310-c9a9-42a7-b4b7-beabdc548a59"},"vehicle_type_id":"4","last_reported":1738771877,"current_range_meters":6800,"station_id":"ce4bgg92rcd13ifvqb30","pricing_plan_id":"cebpf4jnsgd1na2vs0mg"},{"bike_id":"a17b902b-bafc-49d0-9389-2ce74253b3a1","system_id":"levelo_inurba_marseille","lat":43.27182,"lon":5.40992,"is_reserved":false,"is_disabled":true,"rental_uris":{"android":"levelo://app?vid=a17b902b-bafc-49d0-9389-2ce74253b3a1","ios":"levelo://app?vid=a17b902b-bafc-49d0-9389-2ce74253b3a1"},"vehicle_type_id":"4","last_reported":1738771877,"current_range_meters":9600,"station_id":"ce4bhl12rcd13ifvqgf0","pricing_plan_id":"cebpf4jnsgd1na2vs0mg"},{"bike_id":"ea2c709c-2b8a-4788-a831-b19f621f95b2","system_id":"levelo_inurba_marseille","lat":43.31713,"lon":5.43705,"is_reserved":false,"is_disabled":false,"rental_uris":{"android":"levelo://app?vid=ea2c709c-2b8a-4788-a831-b19f621f95b2","ios":"levelo://app?vid=ea2c709c-2b8a-4788-a831-b19f621f95b2"},"vehicle_type_id":"4","last_reported":1738771877,"current_range_meters":9200,"station_id":"ce4bhp92rcd13ifvqhcg","pricing_plan_id":"cebpf4jnsgd1na2vs0mg"},{"bike_id":"9d71d304-2002-4ef9-bd23-de48bc17ac77","system_id":"levelo_inurba_marseille","lat":43.24085,"lon":5.37749,"is_reserved":false,"is_disabled":true,"rental_uris":{"android":"levelo://app?vid=9d71d304-2002-4ef9-bd23-de48bc17ac77","ios":"levelo://app?vid=9d71d304-2002-4ef9-bd23-de48bc17ac77"},"vehicle_type_id":"4","last_reported":1738771877,"current_range_meters":1200,"station_id":"ce4bhnp2rcd13ifvqgvg","pricing_plan_id":"cebpf4jnsgd1na2vs0mg"},{"bike_id":"09bfd0b5-ea9d-40d2-b9e3-c178be46bfd6","system_id":"levelo_inurba_marseille","lat":43.27214,"lon":5.39174,"is_reserved":false,"is_disabled":true,"rental_uris":{"android":"levelo://app?vid=09bfd0b5-ea9d-40d2-b9e3-c178be46bfd6","ios":"levelo://app?vid=09bfd0b5-ea9d-40d2-b9e3-c178be46bfd6"},"vehicle_type_id":"4","last_reported":1738771877,"current_range_meters":400,"station_id":"ce4bhhp2rcd13ifvqfm0","pricing_plan_id":"cebpf4jnsgd1na2vs0mg"},{"bike_id":"85d197af-7492-45d8-a8f0-3b3d28b89974","system_id":"levelo_inurba_marseille","lat":43.29204,"lon":5.35803,"is_reserved":false,"is_disabled":false,"rental_uris":{"android":"levelo://app?vid=85d197af-7492-45d8-a8f0-3b3d28b89974","ios":"levelo://app?vid=85d197af-7492-45d8-a8f0-3b3d28b89974"},"vehicle_type_id":"4","last_reported":1738771877,"current_range_meters":22000,"station_id":"ce4bhb12rcd13ifvqel0","pricing_plan_id":"cebpf4jnsgd1na2vs0mg"},{"bike_id":"f6c7df42-0938-4aa0-9781-85de44d3b4c7","system_id":"levelo_inurba_marseille","lat":43.26495,"lon":5.39549,"is_reserved":false,"is_disabled":false,"rental_uris":{"android":"levelo://app?vid=f6c7df42-0938-4aa0-9781-85de44d3b4c7","ios":"levelo://app?vid=f6c7df42-0938-4aa0-9781-85de44d3b4c7"},"vehicle_type_id":"4","last_reported":1738771877,"current_range_meters":22000,"station_id":"ce4bhi12rcd13ifvqfq0","pricing_plan_id":"cebpf4jnsgd1na2vs0mg"},{"bike_id":"e7bcffbf-9bc5-436f-a200-37ad1492bc3d","system_id":"levelo_inurba_marseille","lat":43.31116,"lon":5.37758,"is_reserved":false,"is_disabled":false,"rental_uris":{"android":"levelo://app?vid=e7bcffbf-9bc5-436f-a200-37ad1492bc3d","ios":"levelo://app?vid=e7bcffbf-9bc5-436f-a200-37ad1492bc3d"},"vehicle_type_id":"4","last_reported":1738771877,"current_range_meters":28800,"station_id":"ce4bgt92rcd13ifvqcg0","pricing_plan_id":"cebpf4jnsgd1na2vs0mg"},{"bike_id":"853c5528-321f-4078-9263-1a387120e184","system_id":"levelo_inurba_marseille","lat":43.28613,"lon":5.37062,"is_reserved":false,"is_disabled":false,"rental_uris":{"android":"levelo://app?vid=853c5528-321f-4078-9263-1a387120e184","ios":"levelo://app?vid=853c5528-321f-4078-9263-1a387120e184"},"vehicle_type_id":"4","last_reported":1738771877,"current_range_meters":38000,"station_id":"ce4bht12rcd13ifvqi60","pricing_plan_id":"cebpf4jnsgd1na2vs0mg"},{"bike_id":"b849152c-fc19-4c48-bfbe-c7499c5450c1","system_id":"levelo_inurba_marseille","lat":43.33724,"lon":5.39186,"is_reserved":false,"is_disabled":false,"rental_uris":{"android":"levelo://app?vid=b849152c-fc19-4c48-bfbe-c7499c5450c1","ios":"levelo://app?vid=b849152c-fc19-4c48-bfbe-c7499c5450c1"},"vehicle_type_id":"4","last_reported":1738771877,"current_range_meters":36400,"station_id":"ce4bhr92rcd13ifvqhsg","pricing_plan_id":"cebpf4jnsgd1na2vs0mg"},{"bike_id":"2118c82d-0143-415d-aaf1-22408e5c55b9","system_id":"levelo_inurba_marseille","lat":43.28431,"lon":5.39201,"is_reserved":false,"is_disabled":false,"rental_uris":{"android":"levelo://app?vid=2118c82d-0143-415d-aaf1-22408e5c55b9","ios":"levelo://app?vid=2118c82d-0143-415d-aaf1-22408e5c55b9"},"vehicle_type_id":"4","last_reported":1738771877,"current_range_meters":37600,"station_id":"ce4bhoh2rcd13ifvqh5g","pricing_plan_id":"cebpf4jnsgd1na2vs0mg"},{"bike_id":"0a1d80a5-8567-473e-862c-e2d2e710157a","system_id":"levelo_inurba_marseille","lat":43.2842,"lon":5.34984,"is_reserved":false,"is_disabled":false,"rental_uris":{"android":"levelo://app?vid=0a1d80a5-8567-473e-862c-e2d2e710157a","ios":"levelo://app?vid=0a1d80a5-8567-473e-862c-e2d2e710157a"},"vehicle_type_id":"4","last_reported":1738771877,"current_range_meters":33600,"station_id":"ce4bhbh2rcd13ifvqepg","pricing_plan_id":"cebpf4jnsgd1na2vs0mg"},{"bike_id":"4c839c0b-1a55-4049-a6b7-539e9eff03cf","system_id":"levelo_inurba_marseille","lat":43.29008,"lon":5.35608,"is_reserved":false,"is_disabled":false,"rental_uris":{"android":"levelo://app?vid=4c839c0b-1a55-4049-a6b7-539e9eff03cf","ios":"levelo://app?vid=4c839c0b-1a55-4049-a6b7-539e9eff03cf"},"vehicle_type_id":"4","last_reported":1738771877,"current_range_meters":22000,"station_id":"ce4bhb92rcd13ifvqen0","pricing_plan_id":"cebpf4jnsgd1na2vs0mg"},{"bike_id":"99564e06-144c-4120-8262-8feb82471b05","system_id":"levelo_inurba_marseille","lat":43.28628,"lon":5.35083,"is_reserved":false,"is_disabled":false,"rental_uris":{"android":"levelo://app?vid=99564e06-144c-4120-8262-8feb82471b05","ios":"levelo://app?vid=99564e06-144c-4120-8262-8feb82471b05"},"vehicle_type_id":"4","last_reported":1738771877,"current_range_meters":27600,"station_id":"ce4bhch2rcd13ifvqeug","pricing_plan_id":"cebpf4jnsgd1na2vs0mg"},{"bike_id":"efc75f68-c0e7-4c38-a126-0f2ae1afe39d","system_id":"levelo_inurba_marseille","lat":43.27174,"lon":5.41001,"is_reserved":false,"is_disabled":false,"rental_uris":{"android":"levelo://app?vid=efc75f68-c0e7-4c38-a126-0f2ae1afe39d","ios":"levelo://app?vid=efc75f68-c0e7-4c38-a126-0f2ae1afe39d"},"vehicle_type_id":"4","last_reported":1738771877,"current_range_meters":20800,"station_id":"ce4bhl12rcd13ifvqgf0","pricing_plan_id":"cebpf4jnsgd1na2vs0mg"},{"bike_id":"3ce9be42-ab76-43a9-bf8b-31b97f0d14a1","system_id":"levelo_inurba_marseille","lat":43.28466,"lon":5.35891,"is_reserved":false,"is_disabled":false,"rental_uris":{"android":"levelo://app?vid=3ce9be42-ab76-43a9-bf8b-31b97f0d14a1","ios":"levelo://app?vid=3ce9be42-ab76-43a9-bf8b-31b97f0d14a1"},"vehicle_type_id":"4","last_reported":1738771877,"current_range_meters":30000,"station_id":"ce4bhah2rcd13ifvqei0","pricing_plan_id":"cebpf4jnsgd1na2vs0mg"},{"bike_id":"25d556ce-3f32-408f-bbd6-29b976ef448a","system_id":"levelo_inurba_marseille","lat":43.23183,"lon":5.39988,"is_reserved":false,"is_disabled":false,"rental_uris":{"android":"levelo://app?vid=25d556ce-3f32-408f-bbd6-29b976ef448a","ios":"levelo://app?vid=25d556ce-3f32-408f-bbd6-29b976ef448a"},"vehicle_type_id":"4","last_reported":1738771877,"current_range_meters":12000,"station_id":"ce4bhn12rcd13ifvqgqg","pricing_plan_id":"cebpf4jnsgd1na2vs0mg"},{"bike_id":"d4b7bc29-f3f5-4570-b8fd-2f94fabc73a5","system_id":"levelo_inurba_marseille","lat":43.30145,"lon":5.38791,"is_reserved":false,"is_disabled":false,"rental_uris":{"android":"levelo://app?vid=d4b7bc29-f3f5-4570-b8fd-2f94fabc73a5","ios":"levelo://app?vid=d4b7bc29-f3f5-4570-b8fd-2f94fabc73a5"},"vehicle_type_id":"4","last_reported":1738771877,"current_range_meters":39200,"station_id":"ce4bghh2rcd13ifvqb60","pricing_plan_id":"cebpf4jnsgd1na2vs0mg"},{"bike_id":"2a082110-ec64-442b-bf51-ca20b1b29252","system_id":"levelo_inurba_marseille","lat":43.29031,"lon":5.38648,"is_reserved":false,"is_disabled":true,"rental_uris":{"android":"levelo://app?vid=2a082110-ec64-442b-bf51-ca20b1b29252","ios":"levelo://app?vid=2a082110-ec64-442b-bf51-ca20b1b29252"},"vehicle_type_id":"4","last_reported":1738771877,"current_range_meters":0,"station_id":"ce4bh4p2rcd13ifvqe0g","pricing_plan_id":"cebpf4jnsgd1na2vs0mg"},{"bike_id":"97e3f16d-c680-499c-b7df-c4ab9d43861c","system_id":"levelo_inurba_marseille","lat":43.23184,"lon":5.39989,"is_reserved":false,"is_disabled":false,"rental_uris":{"android":"levelo://app?vid=97e3f16d-c680-499c-b7df-c4ab9d43861c","ios":"levelo://app?vid=97e3f16d-c680-499c-b7df-c4ab9d43861c"},"vehicle_type_id":"4","last_reported":1738771877,"current_range_meters":22400,"station_id":"ce4bhn12rcd13ifvqgqg","pricing_plan_id":"cebpf4jnsgd1na2vs0mg"},{"bike_id":"fcc68369-14a1-4e20-8e44-c3aefe1c9fae","system_id":"levelo_inurba_marseille","lat":43.2998,"lon":5.37178,"is_reserved":false,"is_disabled":false,"rental_uris":{"android":"levelo://app?vid=fcc68369-14a1-4e20-8e44-c3aefe1c9fae","ios":"levelo://app?vid=fcc68369-14a1-4e20-8e44-c3aefe1c9fae"},"vehicle_type_id":"4","last_reported":1738771877,"current_range_meters":18000,"station_id":"ce4bgr92rcd13ifvqc7g","pricing_plan_id":"cebpf4jnsgd1na2vs0mg"},{"bike_id":"1fb8f6bd-b62d-4511-96dd-a147d6b5e2ae","system_id":"levelo_inurba_marseille","lat":43.280793,"lon":5.396487,"is_reserved":false,"is_disabled":false,"rental_uris":{"android":"levelo://app?vid=1fb8f6bd-b62d-4511-96dd-a147d6b5e2ae","ios":"levelo://app?vid=1fb8f6bd-b62d-4511-96dd-a147d6b5e2ae"},"vehicle_type_id":"4","last_reported":1738771877,"current_range_meters":39200,"station_id":"ce4bho12rcd13ifvqh2g","pricing_plan_id":"cebpf4jnsgd1na2vs0mg"},{"bike_id":"eac8e106-76e0-4f1b-81af-4eaefecd2501","system_id":"levelo_inurba_marseille","lat":43.250142,"lon":5.389098,"is_reserved":false,"is_disabled":false,"rental_uris":{"android":"levelo://app?vid=eac8e106-76e0-4f1b-81af-4eaefecd2501","ios":"levelo://app?vid=eac8e106-76e0-4f1b-81af-4eaefecd2501"},"vehicle_type_id":"4","last_reported":1738771877,"current_range_meters":10800,"station_id":"ce4bhgp2rcd13ifvqfd0","pricing_plan_id":"cebpf4jnsgd1na2vs0mg"},{"bike_id":"61ceb31b-03f6-4213-9b34-0374ee45b479","system_id":"levelo_inurba_marseille","lat":43.32102,"lon":5.36773,"is_reserved":false,"is_disabled":false,"rental_uris":{"android":"levelo://app?vid=61ceb31b-03f6-4213-9b34-0374ee45b479","ios":"levelo://app?vid=61ceb31b-03f6-4213-9b34-0374ee45b479"},"vehicle_type_id":"4","last_reported":1738771877,"current_range_meters":20400,"station_id":"ce4bhrh2rcd13ifvqhug","pricing_plan_id":"cebpf4jnsgd1na2vs0mg"},{"bike_id":"1489c8c8-a04b-479f-95b4-a81e60a2c685","system_id":"levelo_inurba_marseille","lat":43.31185,"lon":5.38702,"is_reserved":false,"is_disabled":false,"rental_uris":{"android":"levelo://app?vid=1489c8c8-a04b-479f-95b4-a81e60a2c685","ios":"levelo://app?vid=1489c8c8-a04b-479f-95b4-a81e60a2c685"},"vehicle_type_id":"4","last_reported":1738771877,"current_range_meters":37600,"station_id":"ce4bgv12rcd13ifvqcp0","pricing_plan_id":"cebpf4jnsgd1na2vs0mg"},{"bike_id":"5bcce1d3-b97f-43a2-9f8d-3cbe970191fe","system_id":"levelo_inurba_marseille","lat":43.29202,"lon":5.35808,"is_reserved":false,"is_disabled":false,"rental_uris":{"android":"levelo://app?vid=5bcce1d3-b97f-43a2-9f8d-3cbe970191fe","ios":"levelo://app?vid=5bcce1d3-b97f-43a2-9f8d-3cbe970191fe"},"vehicle_type_id":"4","last_reported":1738771877,"current_range_meters":27600,"station_id":"ce4bhb12rcd13ifvqel0","pricing_plan_id":"cebpf4jnsgd1na2vs0mg"},{"bike_id":"ca69550f-8f0e-44ef-8d09-9d5918efb9b8","system_id":"levelo_inurba_marseille","lat":43.290463,"lon":5.359163,"is_reserved":false,"is_disabled":false,"rental_uris":{"android":"levelo://app?vid=ca69550f-8f0e-44ef-8d09-9d5918efb9b8","ios":"levelo://app?vid=ca69550f-8f0e-44ef-8d09-9d5918efb9b8"},"vehicle_type_id":"4","last_reported":1738771877,"current_range_meters":36000,"station_id":"ce4bha92rcd13ifvqeg0","pricing_plan_id":"cebpf4jnsgd1na2vs0mg"},{"bike_id":"cd603e46-cb29-4f84-93f3-9fe98a5e8786","system_id":"levelo_inurba_marseille","lat":43.24656,"lon":5.38896,"is_reserved":false,"is_disabled":false,"rental_uris":{"android":"levelo://app?vid=cd603e46-cb29-4f84-93f3-9fe98a5e8786","ios":"levelo://app?vid=cd603e46-cb29-4f84-93f3-9fe98a5e8786"},"vehicle_type_id":"4","last_reported":1738771877,"current_range_meters":36400,"station_id":"ce4bhg12rcd13ifvqf60","pricing_plan_id":"cebpf4jnsgd1na2vs0mg"},{"bike_id":"c8ffe9be-377a-43f5-a46e-5bb988f47175","system_id":"levelo_inurba_marseille","lat":43.26196,"lon":5.37448,"is_reserved":false,"is_disabled":false,"rental_uris":{"android":"levelo://app?vid=c8ffe9be-377a-43f5-a46e-5bb988f47175","ios":"levelo://app?vid=c8ffe9be-377a-43f5-a46e-5bb988f47175"},"vehicle_type_id":"4","last_reported":1738771877,"current_range_meters":8800,"station_id":"ce4bhgp2rcd13ifvqfc0","pricing_plan_id":"cebpf4jnsgd1na2vs0mg"},{"bike_id":"7e8456fe-87a1-42ce-849b-e94f7316dad5","system_id":"levelo_inurba_marseille","lat":43.2668,"lon":5.3828,"is_reserved":false,"is_disabled":false,"rental_uris":{"android":"levelo://app?vid=7e8456fe-87a1-42ce-849b-e94f7316dad5","ios":"levelo://app?vid=7e8456fe-87a1-42ce-849b-e94f7316dad5"},"vehicle_type_id":"4","last_reported":1738771877,"current_range_meters":20800,"station_id":"ce4bhg92rcd13ifvqf90","pricing_plan_id":"cebpf4jnsgd1na2vs0mg"},{"bike_id":"64b66b49-7c45-45d0-9ec8-d891c36c65d0","system_id":"levelo_inurba_marseille","lat":43.28941,"lon":5.3664,"is_reserved":false,"is_disabled":false,"rental_uris":{"android":"levelo://app?vid=64b66b49-7c45-45d0-9ec8-d891c36c65d0","ios":"levelo://app?vid=64b66b49-7c45-45d0-9ec8-d891c36c65d0"},"vehicle_type_id":"4","last_reported":1738771877,"current_range_meters":15200,"station_id":"ce4bhap2rcd13ifvqek0","pricing_plan_id":"cebpf4jnsgd1na2vs0mg"},{"bike_id":"ec58a886-eddf-413c-9588-048d119536b0","system_id":"levelo_inurba_marseille","lat":43.28007,"lon":5.40009,"is_reserved":false,"is_disabled":true,"rental_uris":{"android":"levelo://app?vid=ec58a886-eddf-413c-9588-048d119536b0","ios":"levelo://app?vid=ec58a886-eddf-413c-9588-048d119536b0"},"vehicle_type_id":"4","last_reported":1738771877,"current_range_meters":8000,"station_id":"ce4bho92rcd13ifvqh4g","pricing_plan_id":"cebpf4jnsgd1na2vs0mg"},{"bike_id":"8226fb24-e480-428d-a4fc-0075407812e2","system_id":"levelo_inurba_marseille","lat":43.30198,"lon":5.36606,"is_reserved":false,"is_disabled":true,"rental_uris":{"android":"levelo://app?vid=8226fb24-e480-428d-a4fc-0075407812e2","ios":"levelo://app?vid=8226fb24-e480-428d-a4fc-0075407812e2"},"vehicle_type_id":"4","last_reported":1738771877,"current_range_meters":3200,"station_id":"ce4bgrh2rcd13ifvqc8g","pricing_plan_id":"cebpf4jnsgd1na2vs0mg"},{"bike_id":"915c02a9-43eb-435e-93bf-81a431a741d0","system_id":"levelo_inurba_marseille","lat":43.30696,"lon":5.36808,"is_reserved":false,"is_disabled":false,"rental_uris":{"android":"levelo://app?vid=915c02a9-43eb-435e-93bf-81a431a741d0","ios":"levelo://app?vid=915c02a9-43eb-435e-93bf-81a431a741d0"},"vehicle_type_id":"4","last_reported":1738771877,"current_range_meters":34800,"station_id":"","pricing_plan_id":"cebpf4jnsgd1na2vs0mg"},{"bike_id":"9596cacb-8f48-4b08-8219-0a76cb2ddb16","system_id":"levelo_inurba_marseille","lat":43.250867,"lon":5.395292,"is_reserved":false,"is_disabled":false,"rental_uris":{"android":"levelo://app?vid=9596cacb-8f48-4b08-8219-0a76cb2ddb16","ios":"levelo://app?vid=9596cacb-8f48-4b08-8219-0a76cb2ddb16"},"vehicle_type_id":"4","last_reported":1738771877,"current_range_meters":38000,"station_id":"ce4bhm12rcd13ifvqgkg","pricing_plan_id":"cebpf4jnsgd1na2vs0mg"},{"bike_id":"f959e12c-7756-429d-ac8f-f51977963103","system_id":"levelo_inurba_marseille","lat":43.32115,"lon":5.36768,"is_reserved":false,"is_disabled":false,"rental_uris":{"android":"levelo://app?vid=f959e12c-7756-429d-ac8f-f51977963103","ios":"levelo://app?vid=f959e12c-7756-429d-ac8f-f51977963103"},"vehicle_type_id":"4","last_reported":1738771877,"current_range_meters":25600,"station_id":"ce4bhrh2rcd13ifvqhug","pricing_plan_id":"cebpf4jnsgd1na2vs0mg"},{"bike_id":"691db9e3-4219-4d87-a399-2a33ed3587de","system_id":"levelo_inurba_marseille","lat":43.30142,"lon":5.37414,"is_reserved":false,"is_disabled":true,"rental_uris":{"android":"levelo://app?vid=691db9e3-4219-4d87-a399-2a33ed3587de","ios":"levelo://app?vid=691db9e3-4219-4d87-a399-2a33ed3587de"},"vehicle_type_id":"4","last_reported":1738771877,"current_range_meters":1600,"station_id":"ce4bgs92rcd13ifvqcc0","pricing_plan_id":"cebpf4jnsgd1na2vs0mg"},{"bike_id":"ba929682-8fe6-4366-8390-b2fc9d77712a","system_id":"levelo_inurba_marseille","lat":43.28606,"lon":5.37061,"is_reserved":false,"is_disabled":false,"rental_uris":{"android":"levelo://app?vid=ba929682-8fe6-4366-8390-b2fc9d77712a","ios":"levelo://app?vid=ba929682-8fe6-4366-8390-b2fc9d77712a"},"vehicle_type_id":"4","last_reported":1738771877,"current_range_meters":3600,"station_id":"ce4bht12rcd13ifvqi60","pricing_plan_id":"cebpf4jnsgd1na2vs0mg"},{"bike_id":"7b39ed00-86df-4303-bda1-bfc0fee1e7e2","system_id":"levelo_inurba_marseille","lat":43.32446,"lon":5.45546,"is_reserved":false,"is_disabled":false,"rental_uris":{"android":"levelo://app?vid=7b39ed00-86df-4303-bda1-bfc0fee1e7e2","ios":"levelo://app?vid=7b39ed00-86df-4303-bda1-bfc0fee1e7e2"},"vehicle_type_id":"4","last_reported":1738771877,"current_range_meters":19200,"station_id":"","pricing_plan_id":"cebpf4jnsgd1na2vs0mg"},{"bike_id":"6b96fecf-757d-40de-8dd6-b21f4a7b3b71","system_id":"levelo_inurba_marseille","lat":43.28278,"lon":5.3506,"is_reserved":false,"is_disabled":false,"rental_uris":{"android":"levelo://app?vid=6b96fecf-757d-40de-8dd6-b21f4a7b3b71","ios":"levelo://app?vid=6b96fecf-757d-40de-8dd6-b21f4a7b3b71"},"vehicle_type_id":"4","last_reported":1738771877,"current_range_meters":38800,"station_id":"ce4bhbp2rcd13ifvqerg","pricing_plan_id":"cebpf4jnsgd1na2vs0mg"},{"bike_id":"9736f717-5d6f-4dd2-a7f1-bb087b3e9e13","system_id":"levelo_inurba_marseille","lat":43.28149,"lon":5.42637,"is_reserved":false,"is_disabled":true,"rental_uris":{"android":"levelo://app?vid=9736f717-5d6f-4dd2-a7f1-bb087b3e9e13","ios":"levelo://app?vid=9736f717-5d6f-4dd2-a7f1-bb087b3e9e13"},"vehicle_type_id":"4","last_reported":1738771877,"current_range_meters":38800,"station_id":"ce4bhnh2rcd13ifvqgug","pricing_plan_id":"cebpf4jnsgd1na2vs0mg"},{"bike_id":"c0de8ee1-d04b-4efc-9054-176f69ff97fb","system_id":"levelo_inurba_marseille","lat":43.27374,"lon":5.36241,"is_reserved":false,"is_disabled":false,"rental_uris":{"android":"levelo://app?vid=c0de8ee1-d04b-4efc-9054-176f69ff97fb","ios":"levelo://app?vid=c0de8ee1-d04b-4efc-9054-176f69ff97fb"},"vehicle_type_id":"4","last_reported":1738771877,"current_range_meters":6800,"station_id":"ce4bhbh2rcd13ifvqeo0","pricing_plan_id":"cebpf4jnsgd1na2vs0mg"},{"bike_id":"60428419-ffe6-4103-8ee7-c319086f2d92","system_id":"levelo_inurba_marseille","lat":43.24391,"lon":5.3705,"is_reserved":false,"is_disabled":false,"rental_uris":{"android":"levelo://app?vid=60428419-ffe6-4103-8ee7-c319086f2d92","ios":"levelo://app?vid=60428419-ffe6-4103-8ee7-c319086f2d92"},"vehicle_type_id":"4","last_reported":1738771877,"current_range_meters":38800,"station_id":"ce4bhhh2rcd13ifvqfk0","pricing_plan_id":"cebpf4jnsgd1na2vs0mg"},{"bike_id":"3f3f5c20-2ddd-4ea5-96df-9d3954a21063","system_id":"levelo_inurba_marseille","lat":43.30215,"lon":5.39475,"is_reserved":false,"is_disabled":false,"rental_uris":{"android":"levelo://app?vid=3f3f5c20-2ddd-4ea5-96df-9d3954a21063","ios":"levelo://app?vid=3f3f5c20-2ddd-4ea5-96df-9d3954a21063"},"vehicle_type_id":"4","last_reported":1738771877,"current_range_meters":25600,"station_id":"ce4bh0p2rcd13ifvqd70","pricing_plan_id":"cebpf4jnsgd1na2vs0mg"},{"bike_id":"c7efea0b-41ab-47c4-93f0-43a53000a63b","system_id":"levelo_inurba_marseille","lat":43.23082,"lon":5.35485,"is_reserved":false,"is_disabled":false,"rental_uris":{"android":"levelo://app?vid=c7efea0b-41ab-47c4-93f0-43a53000a63b","ios":"levelo://app?vid=c7efea0b-41ab-47c4-93f0-43a53000a63b"},"vehicle_type_id":"4","last_reported":1738771877,"current_range_meters":30800,"station_id":"cpo3342slgdg3j2ifvpg","pricing_plan_id":"cebpf4jnsgd1na2vs0mg"},{"bike_id":"1d6479a6-269a-4f33-a831-690bed541790","system_id":"levelo_inurba_marseille","lat":43.34141,"lon":5.40892,"is_reserved":false,"is_disabled":false,"rental_uris":{"android":"levelo://app?vid=1d6479a6-269a-4f33-a831-690bed541790","ios":"levelo://app?vid=1d6479a6-269a-4f33-a831-690bed541790"},"vehicle_type_id":"4","last_reported":1738771877,"current_range_meters":24000,"station_id":"ce4bhqh2rcd13ifvqhlg","pricing_plan_id":"cebpf4jnsgd1na2vs0mg"},{"bike_id":"10ef2b4e-bf70-4341-809a-c57f629cf9a5","system_id":"levelo_inurba_marseille","lat":43.28445,"lon":5.39204,"is_reserved":false,"is_disabled":true,"rental_uris":{"android":"levelo://app?vid=10ef2b4e-bf70-4341-809a-c57f629cf9a5","ios":"levelo://app?vid=10ef2b4e-bf70-4341-809a-c57f629cf9a5"},"vehicle_type_id":"4","last_reported":1738771877,"current_range_meters":2800,"station_id":"ce4bhoh2rcd13ifvqh5g","pricing_plan_id":"cebpf4jnsgd1na2vs0mg"},{"bike_id":"a4e54579-97a0-4f95-8e0f-bbb70fc85246","system_id":"levelo_inurba_marseille","lat":43.29522,"lon":5.37419,"is_reserved":false,"is_disabled":false,"rental_uris":{"android":"levelo://app?vid=a4e54579-97a0-4f95-8e0f-bbb70fc85246","ios":"levelo://app?vid=a4e54579-97a0-4f95-8e0f-bbb70fc85246"},"vehicle_type_id":"4","last_reported":1738771877,"current_range_meters":18800,"station_id":"","pricing_plan_id":"cebpf4jnsgd1na2vs0mg"},{"bike_id":"f44a6f33-bc15-4d7b-8778-ca8bb30db003","system_id":"levelo_inurba_marseille","lat":43.30313,"lon":5.39211,"is_reserved":false,"is_disabled":false,"rental_uris":{"android":"levelo://app?vid=f44a6f33-bc15-4d7b-8778-ca8bb30db003","ios":"levelo://app?vid=f44a6f33-bc15-4d7b-8778-ca8bb30db003"},"vehicle_type_id":"4","last_reported":1738771877,"current_range_meters":29600,"station_id":"ce4bgkh2rcd13ifvqbk0","pricing_plan_id":"cebpf4jnsgd1na2vs0mg"},{"bike_id":"08167544-ace1-401f-833e-f9d63a1f447c","system_id":"levelo_inurba_marseille","lat":43.29201,"lon":5.35806,"is_reserved":false,"is_disabled":false,"rental_uris":{"android":"levelo://app?vid=08167544-ace1-401f-833e-f9d63a1f447c","ios":"levelo://app?vid=08167544-ace1-401f-833e-f9d63a1f447c"},"vehicle_type_id":"4","last_reported":1738771877,"current_range_meters":23200,"station_id":"ce4bhb12rcd13ifvqel0","pricing_plan_id":"cebpf4jnsgd1na2vs0mg"},{"bike_id":"f834ef75-2925-4fe2-b5cb-792355378d78","system_id":"levelo_inurba_marseille","lat":43.28954,"lon":5.36396,"is_reserved":false,"is_disabled":false,"rental_uris":{"android":"levelo://app?vid=f834ef75-2925-4fe2-b5cb-792355378d78","ios":"levelo://app?vid=f834ef75-2925-4fe2-b5cb-792355378d78"},"vehicle_type_id":"4","last_reported":1738771877,"current_range_meters":14800,"station_id":"ce4bhc92rcd13ifvqetg","pricing_plan_id":"cebpf4jnsgd1na2vs0mg"},{"bike_id":"fa6e2df9-5ecb-4a83-bf4d-d62189e02171","system_id":"levelo_inurba_marseille","lat":43.26034,"lon":5.37551,"is_reserved":false,"is_disabled":false,"rental_uris":{"android":"levelo://app?vid=fa6e2df9-5ecb-4a83-bf4d-d62189e02171","ios":"levelo://app?vid=fa6e2df9-5ecb-4a83-bf4d-d62189e02171"},"vehicle_type_id":"4","last_reported":1738771877,"current_range_meters":38800,"station_id":"ce4bhgh2rcd13ifvqfa0","pricing_plan_id":"cebpf4jnsgd1na2vs0mg"},{"bike_id":"2c8a8af3-1f8b-4972-9823-01cc65beee13","system_id":"levelo_inurba_marseille","lat":43.29197,"lon":5.35811,"is_reserved":false,"is_disabled":false,"rental_uris":{"android":"levelo://app?vid=2c8a8af3-1f8b-4972-9823-01cc65beee13","ios":"levelo://app?vid=2c8a8af3-1f8b-4972-9823-01cc65beee13"},"vehicle_type_id":"4","last_reported":1738771877,"current_range_meters":38800,"station_id":"ce4bhb12rcd13ifvqel0","pricing_plan_id":"cebpf4jnsgd1na2vs0mg"},{"bike_id":"95b0b6eb-8d42-4230-9dac-845ea42327b7","system_id":"levelo_inurba_marseille","lat":43.30598,"lon":5.3712,"is_reserved":false,"is_disabled":false,"rental_uris":{"android":"levelo://app?vid=95b0b6eb-8d42-4230-9dac-845ea42327b7","ios":"levelo://app?vid=95b0b6eb-8d42-4230-9dac-845ea42327b7"},"vehicle_type_id":"4","last_reported":1738771877,"current_range_meters":14400,"station_id":"","pricing_plan_id":"cebpf4jnsgd1na2vs0mg"},{"bike_id":"25c1b995-7302-4596-9add-a62b9a59fcc0","system_id":"levelo_inurba_marseille","lat":43.30807,"lon":5.43545,"is_reserved":false,"is_disabled":false,"rental_uris":{"android":"levelo://app?vid=25c1b995-7302-4596-9add-a62b9a59fcc0","ios":"levelo://app?vid=25c1b995-7302-4596-9add-a62b9a59fcc0"},"vehicle_type_id":"4","last_reported":1738771877,"current_range_meters":28000,"station_id":"ce4bhph2rcd13ifvqheg","pricing_plan_id":"cebpf4jnsgd1na2vs0mg"},{"bike_id":"fc582206-7b97-4fd2-955d-6b3f74b57cb6","system_id":"levelo_inurba_marseille","lat":43.29194,"lon":5.36018,"is_reserved":false,"is_disabled":false,"rental_uris":{"android":"levelo://app?vid=fc582206-7b97-4fd2-955d-6b3f74b57cb6","ios":"levelo://app?vid=fc582206-7b97-4fd2-955d-6b3f74b57cb6"},"vehicle_type_id":"4","last_reported":1738771877,"current_range_meters":38800,"station_id":"","pricing_plan_id":"cebpf4jnsgd1na2vs0mg"},