{"last_updated":1716231957,"ttl":30,"version":"2.2","data":{"bikes":[{"bike_id":"daa61f29-b38e-498f-a9aa-0fdedae27b7b","system_id":"levelo_inurba_marseille","lat":43.312239,"lon":5.368562,"is_reserved":false,"is_disabled":false,"rental_uris":{"android":"levelo://app?vid=daa61f29-b38e-498f-a9aa-0fdedae27b7b","ios":"levelo://app?vid=daa61f29-b38e-498f-a9aa-0fdedae27b7b"},"vehicle_type_id":"4","last_reported":1716231957,"current_range_meters":5600,"station_id":"ce4bgl92rcd13ifvqbq0","pricing_plan_id":"cebpf4jnsgd1na2vs0mg"},{"bike_id":"1b9b0074-aff1-4c76-a0db-3d2b4e95dc13","system_id":"levelo_inurba_marseille","lat":43.31218,"lon":5.36849,"is_reserved":false,"is_disabled":false,"rental_uris":{"android":"levelo://app?vid=1b9b0074-aff1-4c76-a0db-3d2b4e95dc13","ios":"levelo://app?vid=1b9b0074-aff1-4c76-a0db-3d2b4e95dc13"},"vehicle_type_id":"4","last_reported":1716231957,"current_range_meters":3200,"station_id":"ce4bgl92rcd13ifvqbq0","pricing_plan_id":"cebpf4jnsgd1na2vs0mg"},{"bike_id":"a392a47f-9744-48bb-99f3-7a26df099201","system_id":"levelo_inurba_marseille","lat":43.3115,"lon":5.368234,"is_reserved":false,"is_disabled":false,"rental_uris":{"android":"levelo://app?vid=a392a47f-9744-48bb-99f3-7a26df099201","ios":"levelo://app?vid=a392a47f-9744-48bb-99f3-7a26df099201"},"vehicle_type_id":"4","last_reported":1716231957,"current_range_meters":9600,"station_id":"","pricing_plan_id":"cebpf4jnsgd1na2vs0mg"},{"bike_id":"ab3d66a1-12f6-4ea7-952f-6cad01a2fc6e","system_id":"levelo_inurba_marseille","lat":43.309076,"lon":5.368465,"is_reserved":false,"is_disabled":false,"rental_uris":{"android":"levelo://app?vid=ab3d66a1-12f6-4ea7-952f-6cad01a2fc6e","ios":"levelo://app?vid=ab3d66a1-12f6-4ea7-952f-6cad01a2fc6e"},"vehicle_type_id":"4","last_reported":1716231957,"current_range_meters":10000,"station_id":"ce4bgn92rcd13ifvqbvg","pricing_plan_id":"cebpf4jnsgd1na2vs0mg"},{"bike_id":"c662a90b-2667-4cb1-a408-d3a70db59c26","system_id":"levelo_inurba_marseille","lat":43.309076,"lon":5.368465,"is_reserved":false,"is_disabled":false,"rental_uris":{"android":"levelo://app?vid=c662a90b-2667-4cb1-a408-d3a70db59c26","ios":"levelo://app?vid=c662a90b-2667-4cb1-a408-d3a70db59c26"},"vehicle_type_id":"4","last_reported":1716231957,"current_range_meters":29600,"station_id":"ce4bgn92rcd13ifvqbvg","pricing_plan_id":"cebpf4jnsgd1na2vs0mg"},{"bike_id":"7202cb7f-bc8a-4d36-a9a4-bbadf2067fa2","system_id":"levelo_inurba_marseille","lat":43.309076,"lon":5.368465,"is_reserved":false,"is_disabled":false,"rental_uris":{"android":"levelo://app?vid=7202cb7f-bc8a-4d36-a9a4-bbadf2067fa2","ios":"levelo://app?vid=7202cb7f-bc8a-4d36-a9a4-bbadf2067fa2"},"vehicle_type_id":"4","last_reported":1716231957,"current_range_meters":12800,"station_id":"ce4bgn92rcd13ifvqbvg","pricing_plan_id":"cebpf4jnsgd1na2vs0mg"},{"bike_id":"d708bf73-474b-4e0f-8818-399d8592c219","system_id":"levelo_inurba_marseille","lat":43.3093,"lon":5.37077,"is_reserved":false,"is_disabled":false,"rental_uris":{"android":"levelo://app?vid=d708bf73-474b-4e0f-8818-399d8592c219","ios":"levelo://app?vid=d708bf73-474b-4e0f-8818-399d8592c219"},"vehicle_type_id":"4","last_reported":1716231957,"current_range_meters":4800,"station_id":"ce4bgn92rcd13ifvqbvg","pricing_plan_id":"cebpf4jnsgd1na2vs0mg"},{"bike_id":"99973f3f-7e21-4849-84ab-fe5c539eacfe","system_id":"levelo_inurba_marseille","lat":43.314811,"lon":5.373103,"is_reserved":false,"is_disabled":false,"rental_uris":{"android":"levelo://app?vid=99973f3f-7e21-4849-84ab-fe5c539eacfe","ios":"levelo://app?vid=99973f3f-7e21-4849-84ab-fe5c539eacfe"},"vehicle_type_id":"4","last_reported":1716231957,"current_range_meters":2000,"station_id":"ce4bgt12rcd13ifvqcd0","pricing_plan_id":"cebpf4jnsgd1na2vs0mg"},{"bike_id":"5b098cd5-0830-4cbd-8e04-db0e814f8651","system_id":"levelo_inurba_marseille","lat":43.314811,"lon":5.373103,"is_reserved":false,"is_disabled":false,"rental_uris":{"android":"levelo://app?vid=5b098cd5-0830-4cbd-8e04-db0e814f8651","ios":"levelo://app?vid=5b098cd5-0830-4cbd-8e04-db0e814f8651"},"vehicle_type_id":"4","last_reported":1716231957,"current_range_meters":22000,"station_id":"ce4bgt12rcd13ifvqcd0","pricing_plan_id":"cebpf4jnsgd1na2vs0mg"},{"bike_id":"4df13c4a-f069-4272-9f0e-f8e2ae7cd8fc","system_id":"levelo_inurba_marseille","lat":43.314811,"lon":5.373104,"is_reserved":false,"is_disabled":false,"rental_uris":{"android":"levelo://app?vid=4df13c4a-f069-4272-9f0e-f8e2ae7cd8fc","ios":"levelo://app?vid=4df13c4a-f069-4272-9f0e-f8e2ae7cd8fc"},"vehicle_type_id":"4","last_reported":1716231957,"current_range_meters":3600,"station_id":"ce4bgt12rcd13ifvqcd0","pricing_plan_id":"cebpf4jnsgd1na2vs0mg"},{"bike_id":"f546551d-60a6-4a83-8f09-47479d0df0e3","system_id":"levelo_inurba_marseille","lat":43.309039,"lon":5.371797,"is_reserved":false,"is_disabled":false,"rental_uris":{"android":"levelo://app?vid=f546551d-60a6-4a83-8f09-47479d0df0e3","ios":"levelo://app?vid=f546551d-60a6-4a83-8f09-47479d0df0e3"},"vehicle_type_id":"4","last_reported":1716231957,"current_range_meters":13600,"station_id":"ce4bguh2rcd13ifvqckg","pricing_plan_id":"cebpf4jnsgd1na2vs0mg"},{"bike_id":"bd57975b-c5df-45e2-b93a-e04fe2d3659b","system_id":"levelo_inurba_marseille","lat":43.309039,"lon":5.371797,"is_reserved":false,"is_disabled":false,"rental_uris":{"android":"levelo://app?vid=bd57975b-c5df-45e2-b93a-e04fe2d3659b","ios":"levelo://app?vid=bd57975b-c5df-45e2-b93a-e04fe2d3659b"},"vehicle_type_id":"4","last_reported":1716231957,"current_range_meters":23200,"station_id":"ce4bguh2rcd13ifvqckg","pricing_plan_id":"cebpf4jnsgd1na2vs0mg"},{"bike_id":"6249f435-5173-4e62-b96f-577969a92f81","system_id":"levelo_inurba_marseille","lat":43.309034,"lon":5.371783,"is_reserved":false,"is_disabled":false,"rental_uris":{"android":"levelo://app?vid=6249f435-5173-4e62-b96f-577969a92f81","ios":"levelo://app?vid=6249f435-5173-4e62-b96f-577969a92f81"},"vehicle_type_id":"4","last_reported":1716231957,"current_range_meters":23600,"station_id":"ce4bguh2rcd13ifvqckg","pricing_plan_id":"cebpf4jnsgd1na2vs0mg"},{"bike_id":"a29a03bd-5b77-4849-9eb2-2f31d0a6646c","system_id":"levelo_inurba_marseille","lat":43.309034,"lon":5.371783,"is_reserved":false,"is_disabled":false,"rental_uris":{"android":"levelo://app?vid=a29a03bd-5b77-4849-9eb2-2f31d0a6646c","ios":"levelo://app?vid=a29a03bd-5b77-4849-9eb2-2f31d0a6646c"},"vehicle_type_id":"4","last_reported":1716231957,"current_range_meters":13600,"station_id":"ce4bguh2rcd13ifvqckg","pricing_plan_id":"cebpf4jnsgd1na2vs0mg"},{"bike_id":"e4632e7a-2deb-48a7-808d-6c5307f12802","system_id":"levelo_inurba_marseille","lat":43.31672,"lon":5.3722,"is_reserved":false,"is_disabled":false,"rental_uris":{"android":"levelo://app?vid=e4632e7a-2deb-48a7-808d-6c5307f12802","ios":"levelo://app?vid=e4632e7a-2deb-48a7-808d-6c5307f12802"},"vehicle_type_id":"4","last_reported":1716231957,"current_range_meters":17600,"station_id":"","pricing_plan_id":"cebpf4jnsgd1na2vs0mg"},{"bike_id":"c5475b79-ba31-4c85-bb68-4a0e798c5d37","system_id":"levelo_inurba_marseille","lat":43.306692,"lon":5.36919,"is_reserved":false,"is_disabled":false,"rental_uris":{"android":"levelo://app?vid=c5475b79-ba31-4c85-bb68-4a0e798c5d37","ios":"levelo://app?vid=c5475b79-ba31-4c85-bb68-4a0e798c5d37"},"vehicle_type_id":"4","last_reported":1716231957,"current_range_meters":21600,"station_id":"","pricing_plan_id":"cebpf4jnsgd1na2vs0mg"},{"bike_id":"56f3b279-d1c4-40bb-9f30-958eca5c1d1d","system_id":"levelo_inurba_marseille","lat":43.314811,"lon":5.373103,"is_reserved":false,"is_disabled":false,"rental_uris":{"android":"levelo://app?vid=56f3b279-d1c4-40bb-9f30-958eca5c1d1d","ios":"levelo://app?vid=56f3b279-d1c4-40bb-9f30-958eca5c1d1d"},"vehicle_type_id":"4","last_reported":1716231957,"current_range_meters":9200,"station_id":"ce4bgt12rcd13ifvqcd0","pricing_plan_id":"cebpf4jnsgd1na2vs0mg"},{"bike_id":"6e054a2d-fec8-4e6f-85d5-a94481591460","system_id":"levelo_inurba_marseille","lat":43.318309,"lon":5.373849,"is_reserved":false,"is_disabled":false,"rental_uris":{"android":"levelo://app?vid=6e054a2d-fec8-4e6f-85d5-a94481591460","ios":"levelo://app?vid=6e054a2d-fec8-4e6f-85d5-a94481591460"},"vehicle_type_id":"4","last_reported":1716231957,"current_range_meters":30800,"station_id":"","pricing_plan_id":"cebpf4jnsgd1na2vs0mg"},{"bike_id":"e05f1546-052c-4af2-a9f5-1d76acc8158b","system_id":"levelo_inurba_marseille","lat":43.305989,"lon":5.37225,"is_reserved":false,"is_disabled":false,"rental_uris":{"android":"levelo://app?vid=e05f1546-052c-4af2-a9f5-1d76acc8158b","ios":"levelo://app?vid=e05f1546-052c-4af2-a9f5-1d76acc8158b"},"vehicle_type_id":"4","last_reported":1716231957,"current_range_meters":16800,"station_id":"ce4bgqh2rcd13ifvqc4g","pricing_plan_id":"cebpf4jnsgd1na2vs0mg"},{"bike_id":"0e9e97ed-8c4c-466d-8a82-d149528a9b86","system_id":"levelo_inurba_marseille","lat":43.311125,"lon":5.377624,"is_reserved":false,"is_disabled":false,"rental_uris":{"android":"levelo://app?vid=0e9e97ed-8c4c-466d-8a82-d149528a9b86","ios":"levelo://app?vid=0e9e97ed-8c4c-466d-8a82-d149528a9b86"},"vehicle_type_id":"4","last_reported":1716231957,"current_range_meters":4400,"station_id":"ce4bgt92rcd13ifvqcg0","pricing_plan_id":"cebpf4jnsgd1na2vs0mg"},{"bike_id":"261f641c-11c1-4c9e-b8be-123cafa0ed9c","system_id":"levelo_inurba_marseille","lat":43.311131,"lon":5.377651,"is_reserved":false,"is_disabled":false,"rental_uris":{"android":"levelo://app?vid=261f641c-11c1-4c9e-b8be-123cafa0ed9c","ios":"levelo://app?vid=261f641c-11c1-4c9e-b8be-123cafa0ed9c"},"vehicle_type_id":"4","last_reported":1716231957,"current_range_meters":2800,"station_id":"ce4bgt92rcd13ifvqcg0","pricing_plan_id":"cebpf4jnsgd1na2vs0mg"},{"bike_id":"eefd1e91-3262-4eff-b4ef-f3a4746753fb","system_id":"levelo_inurba_marseille","lat":43.307945,"lon":5.376487,"is_reserved":false,"is_disabled":false,"rental_uris":{"android":"levelo://app?vid=eefd1e91-3262-4eff-b4ef-f3a4746753fb","ios":"levelo://app?vid=eefd1e91-3262-4eff-b4ef-f3a4746753fb"},"vehicle_type_id":"4","last_reported":1716231957,"current_range_meters":1600,"station_id":"ce4bgv92rcd13ifvqcq0","pricing_plan_id":"cebpf4jnsgd1na2vs0mg"},{"bike_id":"32416bf5-95b5-4232-ab40-8c6713fb100a","system_id":"levelo_inurba_marseille","lat":43.307712,"lon":5.376174,"is_reserved":false,"is_disabled":false,"rental_uris":{"android":"levelo://app?vid=32416bf5-95b5-4232-ab40-8c6713fb100a","ios":"levelo://app?vid=32416bf5-95b5-4232-ab40-8c6713fb100a"},"vehicle_type_id":"4","last_reported":1716231957,"current_range_meters":9600,"station_id":"ce4bgv92rcd13ifvqcq0","pricing_plan_id":"cebpf4jnsgd1na2vs0mg"},{"bike_id":"4aed50b3-14e6-4c16-bf4a-562412ee672c","system_id":"levelo_inurba_marseille","lat":43.307945,"lon":5.376487,"is_reserved":false,"is_disabled":false,"rental_uris":{"android":"levelo://app?vid=4aed50b3-14e6-4c16-bf4a-562412ee672c","ios":"levelo://app?vid=4aed50b3-14e6-4c16-bf4a-562412ee672c"},"vehicle_type_id":"4","last_reported":1716231957,"current_range_meters":12800,"station_id":"ce4bgv92rcd13ifvqcq0","pricing_plan_id":"cebpf4jnsgd1na2vs0mg"},{"bike_id":"c08a1818-8fb4-4e1d-9996-ae83ab3ce274","system_id":"levelo_inurba_marseille","lat":43.307798,"lon":5.376399,"is_reserved":false,"is_disabled":false,"rental_uris":{"android":"levelo://app?vid=c08a1818-8fb4-4e1d-9996-ae83ab3ce274","ios":"levelo://app?vid=c08a1818-8fb4-4e1d-9996-ae83ab3ce274"},"vehicle_type_id":"4","last_reported":1716231957,"current_range_meters":2800,"station_id":"ce4bgv92rcd13ifvqcq0","pricing_plan_id":"cebpf4jnsgd1na2vs0mg"},{"bike_id":"d50ac615-3fb0-4570-9667-9099c4fdee1f","system_id":"levelo_inurba_marseille","lat":43.307945,"lon":5.376487,"is_reserved":false,"is_disabled":false,"rental_uris":{"android":"levelo://app?vid=d50ac615-3fb0-4570-9667-9099c4fdee1f","ios":"levelo://app?vid=d50ac615-3fb0-4570-9667-9099c4fdee1f"},"vehicle_type_id":"4","last_reported":1716231957,"current_range_meters":14000,"station_id":"ce4bgv92rcd13ifvqcq0","pricing_plan_id":"cebpf4jnsgd1na2vs0mg"},{"bike_id":"0228e0b2-26e6-44a7-a7c5-d840e01c3c89","system_id":"levelo_inurba_marseille","lat":43.307945,"lon":5.376487,"is_reserved":false,"is_disabled":false,"rental_uris":{"android":"levelo://app?vid=0228e0b2-26e6-44a7-a7c5-d840e01c3c89","ios":"levelo://app?vid=0228e0b2-26e6-44a7-a7c5-d840e01c3c89"},"vehicle_type_id":"4","last_reported":1716231957,"current_range_meters":18400,"station_id":"ce4bgv92rcd13ifvqcq0","pricing_plan_id":"cebpf4jnsgd1na2vs0mg"},{"bike_id":"64923f40-89d5-4795-bf16-e5419f1d81d2","system_id":"levelo_inurba_marseille","lat":43.307885,"lon":5.376535,"is_reserved":false,"is_disabled":false,"rental_uris":{"android":"levelo://app?vid=64923f40-89d5-4795-bf16-e5419f1d81d2","ios":"levelo://app?vid=64923f40-89d5-4795-bf16-e5419f1d81d2"},"vehicle_type_id":"4","last_reported":1716231957,"current_range_meters":17600,"station_id":"ce4bgv92rcd13ifvqcq0","pricing_plan_id":"cebpf4jnsgd1na2vs0mg"},{"bike_id":"bad6f265-d313-4080-9207-0fa43c575b5b","system_id":"levelo_inurba_marseille","lat":43.307945,"lon":5.376487,"is_reserved":false,"is_disabled":false,"rental_uris":{"android":"levelo://app?vid=bad6f265-d313-4080-9207-0fa43c575b5b","ios":"levelo://app?vid=bad6f265-d313-4080-9207-0fa43c575b5b"},"vehicle_type_id":"4","last_reported":1716231957,"current_range_meters":23200,"station_id":"ce4bgv92rcd13ifvqcq0","pricing_plan_id":"cebpf4jnsgd1na2vs0mg"},{"bike_id":"d51f934b-d136-4de4-8805-dc91c4ec23b3","system_id":"levelo_inurba_marseille","lat":43.309039,"lon":5.371797,"is_reserved":false,"is_disabled":false,"rental_uris":{"android":"levelo://app?vid=d51f934b-d136-4de4-8805-dc91c4ec23b3","ios":"levelo://app?vid=d51f934b-d136-4de4-8805-dc91c4ec23b3"},"vehicle_type_id":"4","last_reported":1716231957,"current_range_meters":26400,"station_id":"ce4bguh2rcd13ifvqckg","pricing_plan_id":"cebpf4jnsgd1na2vs0mg"},{"bike_id":"79f6ce24-1393-4167-b356-96aaa14637d9","system_id":"levelo_inurba_marseille","lat":43.31639,"lon":5.37996,"is_reserved":false,"is_disabled":false,"rental_uris":{"android":"levelo://app?vid=79f6ce24-1393-4167-b356-96aaa14637d9","ios":"levelo://app?vid=79f6ce24-1393-4167-b356-96aaa14637d9"},"vehicle_type_id":"4","last_reported":1716231957,"current_range_meters":14000,"station_id":"","pricing_plan_id":"cebpf4jnsgd1na2vs0mg"},{"bike_id":"393ce26c-82b9-4091-8bb3-11a195c521c7","system_id":"levelo_inurba_marseille","lat":43.299243,"lon":5.37481,"is_reserved":false,"is_disabled":false,"rental_uris":{"android":"levelo://app?vid=393ce26c-82b9-4091-8bb3-11a195c521c7","ios":"levelo://app?vid=393ce26c-82b9-4091-8bb3-11a195c521c7"},"vehicle_type_id":"4","last_reported":1716231957,"current_range_meters":22800,"station_id":"ce4bgjh2rcd13ifvqbg0","pricing_plan_id":"cebpf4jnsgd1na2vs0mg"},{"bike_id":"e7672a27-c1d4-4e65-8bfc-37f47b79eca9","system_id":"levelo_inurba_marseille","lat":43.308012,"lon":5.381511,"is_reserved":false,"is_disabled":false,"rental_uris":{"android":"levelo://app?vid=e7672a27-c1d4-4e65-8bfc-37f47b79eca9","ios":"levelo://app?vid=e7672a27-c1d4-4e65-8bfc-37f47b79eca9"},"vehicle_type_id":"4","last_reported":1716231957,"current_range_meters":21600,"station_id":"ce4bgt12rcd13ifvqce0","pricing_plan_id":"cebpf4jnsgd1na2vs0mg"},{"bike_id":"7118c79d-2b19-4ddb-a8d5-6a373303c839","system_id":"levelo_inurba_marseille","lat":43.324771,"lon":5.36557,"is_reserved":false,"is_disabled":false,"rental_uris":{"android":"levelo://app?vid=7118c79d-2b19-4ddb-a8d5-6a373303c839","ios":"levelo://app?vid=7118c79d-2b19-4ddb-a8d5-6a373303c839"},"vehicle_type_id":"4","last_reported":1716231957,"current_range_meters":18800,"station_id":"ce4bhs12rcd13ifvqhvg","pricing_plan_id":"cebpf4jnsgd1na2vs0mg"},{"bike_id":"58dbd84f-2d92-4e09-9fa4-28bb801b229a","system_id":"levelo_inurba_marseille","lat":43.308091,"lon":5.381439,"is_reserved":false,"is_disabled":false,"rental_uris":{"android":"levelo://app?vid=58dbd84f-2d92-4e09-9fa4-28bb801b229a","ios":"levelo://app?vid=58dbd84f-2d92-4e09-9fa4-28bb801b229a"},"vehicle_type_id":"4","last_reported":1716231957,"current_range_meters":0,"station_id":"ce4bgt12rcd13ifvqce0","pricing_plan_id":"cebpf4jnsgd1na2vs0mg"},{"bike_id":"f5a40247-d87b-4952-b902-b0945ddc366c","system_id":"levelo_inurba_marseille","lat":43.30789,"lon":5.38142,"is_reserved":false,"is_disabled":false,"rental_uris":{"android":"levelo://app?vid=f5a40247-d87b-4952-b902-b0945ddc366c","ios":"levelo://app?vid=f5a40247-d87b-4952-b902-b0945ddc366c"},"vehicle_type_id":"4","last_reported":1716231957,"current_range_meters":0,"station_id":"ce4bgt12rcd13ifvqce0","pricing_plan_id":"cebpf4jnsgd1na2vs0mg"},{"bike_id":"80782073-65b8-488a-baae-96876462db9d","system_id":"levelo_inurba_marseille","lat":43.308009,"lon":5.381638,"is_reserved":false,"is_disabled":false,"rental_uris":{"android":"levelo://app?vid=80782073-65b8-488a-baae-96876462db9d","ios":"levelo://app?vid=80782073-65b8-488a-baae-96876462db9d"},"vehicle_type_id":"4","last_reported":1716231957,"current_range_meters":13600,"station_id":"ce4bgt12rcd13ifvqce0","pricing_plan_id":"cebpf4jnsgd1na2vs0mg"},{"bike_id":"f31a700c-b835-4af4-9a07-c9b10b2f5e57","system_id":"levelo_inurba_marseille","lat":43.308012,"lon":5.381511,"is_reserved":false,"is_disabled":false,"rental_uris":{"android":"levelo://app?vid=f31a700c-b835-4af4-9a07-c9b10b2f5e57","ios":"levelo://app?vid=f31a700c-b835-4af4-9a07-c9b10b2f5e57"},"vehicle_type_id":"4","last_reported":1716231957,"current_range_meters":6800,"station_id":"ce4bgt12rcd13ifvqce0","pricing_plan_id":"cebpf4jnsgd1na2vs0mg"},{"bike_id":"03b2d0ac-4855-463a-a2f0-be21041dc802","system_id":"levelo_inurba_marseille","lat":43.304606,"lon":5.379026,"is_reserved":false,"is_disabled":false,"rental_uris":{"android":"levelo://app?vid=03b2d0ac-4855-463a-a2f0-be21041dc802","ios":"levelo://app?vid=03b2d0ac-4855-463a-a2f0-be21041dc802"},"vehicle_type_id":"4","last_reported":1716231957,"current_range_meters":28400,"station_id":"ce4bgup2rcd13ifvqcn0","pricing_plan_id":"cebpf4jnsgd1na2vs0mg"},{"bike_id":"15619fa8-6a3e-49a4-a4eb-33ce7d274f9c","system_id":"levelo_inurba_marseille","lat":43.310804,"lon":5.38359,"is_reserved":false,"is_disabled":false,"rental_uris":{"android":"levelo://app?vid=15619fa8-6a3e-49a4-a4eb-33ce7d274f9c","ios":"levelo://app?vid=15619fa8-6a3e-49a4-a4eb-33ce7d274f9c"},"vehicle_type_id":"4","last_reported":1716231957,"current_range_meters":20000,"station_id":"ce4bgv92rcd13ifvqcr0","pricing_plan_id":"cebpf4jnsgd1na2vs0mg"},{"bike_id":"ec35004e-cd23-4d19-8b19-e9db1012251f","system_id":"levelo_inurba_marseille","lat":43.324771,"lon":5.36557,"is_reserved":false,"is_disabled":false,"rental_uris":{"android":"levelo://app?vid=ec35004e-cd23-4d19-8b19-e9db1012251f","ios":"levelo://app?vid=ec35004e-cd23-4d19-8b19-e9db1012251f"},"vehicle_type_id":"4","last_reported":1716231957,"current_range_meters":0,"station_id":"ce4bhs12rcd13ifvqhvg","pricing_plan_id":"cebpf4jnsgd1na2vs0mg"},{"bike_id":"e47bcb64-aec4-4fcd-96fc-83ec348237d4","system_id":"levelo_inurba_marseille","lat":43.324771,"lon":5.36557,"is_reserved":false,"is_disabled":false,"rental_uris":{"android":"levelo://app?vid=e47bcb64-aec4-4fcd-96fc-83ec348237d4","ios":"levelo://app?vid=e47bcb64-aec4-4fcd-96fc-83ec348237d4"},"vehicle_type_id":"4","last_reported":1716231957,"current_range_meters":20800,"station_id":"ce4bhs12rcd13ifvqhvg","pricing_plan_id":"cebpf4jnsgd1na2vs0mg"},{"bike_id":"0dd97c26-11f4-41b6-8a12-71b4006f110c","system_id":"levelo_inurba_marseille","lat":43.324771,"lon":5.36557,"is_reserved":false,"is_disabled":false,"rental_uris":{"android":"levelo://app?vid=0dd97c26-11f4-41b6-8a12-71b4006f110c","ios":"levelo://app?vid=0dd97c26-11f4-41b6-8a12-71b4006f110c"},"vehicle_type_id":"4","last_reported":1716231957,"current_range_meters":4000,"station_id":"ce4bhs12rcd13ifvqhvg","pricing_plan_id":"cebpf4jnsgd1na2vs0mg"},{"bike_id":"b99aa1e8-09cd-4123-9ef7-7c407553b0f6","system_id":"levelo_inurba_marseille","lat":43.324771,"lon":5.36557,"is_reserved":false,"is_disabled":false,"rental_uris":{"android":"levelo://app?vid=b99aa1e8-09cd-4123-9ef7-7c407553b0f6","ios":"levelo://app?vid=b99aa1e8-09cd-4123-9ef7-7c407553b0f6"},"vehicle_type_id":"4","last_reported":1716231957,"current_range_meters":18400,"station_id":"ce4bhs12rcd13ifvqhvg","pricing_plan_id":"cebpf4jnsgd1na2vs0mg"},{"bike_id":"8d19f1f7-399c-4660-a909-af251e74e49d","system_id":"levelo_inurba_marseille","lat":43.310804,"lon":5.38359,"is_reserved":false,"is_disabled":false,"rental_uris":{"android":"levelo://app?vid=8d19f1f7-399c-4660-a909-af251e74e49d","ios":"levelo://app?vid=8d19f1f7-399c-4660-a909-af251e74e49d"},"vehicle_type_id":"4","last_reported":1716231957,"current_range_meters":2400,"station_id":"ce4bgv92rcd13ifvqcr0","pricing_plan_id":"cebpf4jnsgd1na2vs0mg"},{"bike_id":"64ac31c0-9fd4-45a3-b155-d4ce7b4f67ae","system_id":"levelo_inurba_marseille","lat":43.30143,"lon":5.37413,"is_reserved":false,"is_disabled":false,"rental_uris":{"android":"levelo://app?vid=64ac31c0-9fd4-45a3-b155-d4ce7b4f67ae","ios":"levelo://app?vid=64ac31c0-9fd4-45a3-b155-d4ce7b4f67ae"},"vehicle_type_id":"4","last_reported":1716231957,"current_range_meters":30400,"station_id":"ce4bgs92rcd13ifvqcc0","pricing_plan_id":"cebpf4jnsgd1na2vs0mg"},{"bike_id":"b2567934-18fa-4795-93c7-10b1b33198e1","system_id":"levelo_inurba_marseille","lat":43.3014,"lon":5.37417,"is_reserved":false,"is_disabled":false,"rental_uris":{"android":"levelo://app?vid=b2567934-18fa-4795-93c7-10b1b33198e1","ios":"levelo://app?vid=b2567934-18fa-4795-93c7-10b1b33198e1"},"vehicle_type_id":"4","last_reported":1716231957,"current_range_meters":14800,"station_id":"ce4bgs92rcd13ifvqcc0","pricing_plan_id":"cebpf4jnsgd1na2vs0mg"},{"bike_id":"0d7aa2ea-b87e-409c-873c-8fd16113138d","system_id":"levelo_inurba_marseille","lat":43.31988,"lon":5.38151,"is_reserved":false,"is_disabled":false,"rental_uris":{"android":"levelo://app?vid=0d7aa2ea-b87e-409c-873c-8fd16113138d","ios":"levelo://app?vid=0d7aa2ea-b87e-409c-873c-8fd16113138d"},"vehicle_type_id":"4","last_reported":1716231957,"current_range_meters":800,"station_id":"ce4bhr12rcd13ifvqhpg","pricing_plan_id":"cebpf4jnsgd1na2vs0mg"},{"bike_id":"1a461672-3ddf-4776-9dfe-de340757f8f0","system_id":"levelo_inurba_marseille","lat":43.301429,"lon":5.37413,"is_reserved":false,"is_disabled":false,"rental_uris":{"android":"levelo://app?vid=1a461672-3ddf-4776-9dfe-de340757f8f0","ios":"levelo://app?vid=1a461672-3ddf-4776-9dfe-de340757f8f0"},"vehicle_type_id":"4","last_reported":1716231957,"current_range_meters":400,"station_id":"ce4bgs92rcd13ifvqcc0","pricing_plan_id":"cebpf4jnsgd1na2vs0mg"},{"bike_id":"8bee0baa-dad9-4b21-bd9c-610860cfb183","system_id":"levelo_inurba_marseille","lat":43.313571,"lon":5.384829,"is_reserved":false,"is_disabled":false,"rental_uris":{"android":"levelo://app?vid=8bee0baa-dad9-4b21-bd9c-610860cfb183","ios":"levelo://app?vid=8bee0baa-dad9-4b21-bd9c-610860cfb183"},"vehicle_type_id":"4","last_reported":1716231957,"current_range_meters":25600,"station_id":"ce4bgt92rcd13ifvqcf0","pricing_plan_id":"cebpf4jnsgd1na2vs0mg"},{"bike_id":"15a9e50b-f382-40d4-9fc5-29a9af232a32","system_id":"levelo_inurba_marseille","lat":43.313571,"lon":5.384829,"is_reserved":false,"is_disabled":false,"rental_uris":{"android":"levelo://app?vid=15a9e50b-f382-40d4-9fc5-29a9af232a32","ios":"levelo://app?vid=15a9e50b-f382-40d4-9fc5-29a9af232a32"},"vehicle_type_id":"4","last_reported":1716231957,"current_range_meters":5200,"station_id":"ce4bgt92rcd13ifvqcf0","pricing_plan_id":"cebpf4jnsgd1na2vs0mg"},{"bike_id":"5f546e44-1be1-436d-94cf-4715b29e40c4","system_id":"levelo_inurba_marseille","lat":43.313571,"lon":5.384829,"is_reserved":false,"is_disabled":false,"rental_uris":{"android":"levelo://app?vid=5f546e44-1be1-436d-94cf-4715b29e40c4","ios":"levelo://app?vid=5f546e44-1be1-436d-94cf-4715b29e40c4"},"vehicle_type_id":"4","last_reported":1716231957,"current_range_meters":7200,"station_id":"ce4bgt92rcd13ifvqcf0","pricing_plan_id":"cebpf4jnsgd1na2vs0mg"},{"bike_id":"4a0ecf53-448b-46f9-8fa2-882c4d310c6b","system_id":"levelo_inurba_marseille","lat":43.313571,"lon":5.384829,"is_reserved":false,"is_disabled":false,"rental_uris":{"android":"levelo://app?vid=4a0ecf53-448b-46f9-8fa2-882c4d310c6b","ios":"levelo://app?vid=4a0ecf53-448b-46f9-8fa2-882c4d310c6b"},"vehicle_type_id":"4","last_reported":1716231957,"current_range_meters":9200,"station_id":"ce4bgt92rcd13ifvqcf0","pricing_plan_id":"cebpf4jnsgd1na2vs0mg"},{"bike_id":"d811ae23-9564-47c1-9249-10f0f4eb173d","system_id":"levelo_inurba_marseille","lat":43.299222,"lon":5.365554,"is_reserved":false,"is_disabled":false,"rental_uris":{"android":"levelo://app?vid=d811ae23-9564-47c1-9249-10f0f4eb173d","ios":"levelo://app?vid=d811ae23-9564-47c1-9249-10f0f4eb173d"},"vehicle_type_id":"4","last_reported":1716231957,"current_range_meters":10000,"station_id":"ce4bgm92rcd13ifvqbr0","pricing_plan_id":"cebpf4jnsgd1na2vs0mg"},{"bike_id":"0bf4751b-ee4c-4d4a-bfbf-d3824c33769e","system_id":"levelo_inurba_marseille","lat":43.299222,"lon":5.365554,"is_reserved":false,"is_disabled":false,"rental_uris":{"android":"levelo://app?vid=0bf4751b-ee4c-4d4a-bfbf-d3824c33769e","ios":"levelo://app?vid=0bf4751b-ee4c-4d4a-bfbf-d3824c33769e"},"vehicle_type_id":"4","last_reported":1716231957,"current_range_meters":13600,"station_id":"ce4bgm92rcd13ifvqbr0","pricing_plan_id":"cebpf4jnsgd1na2vs0mg"},{"bike_id":"5cd7b7f2-6e1e-4904-a7c0-a444acddac9a","system_id":"levelo_inurba_marseille","lat":43.313571,"lon":5.384829,"is_reserved":false,"is_disabled":false,"rental_uris":{"android":"levelo://app?vid=5cd7b7f2-6e1e-4904-a7c0-a444acddac9a","ios":"levelo://app?vid=5cd7b7f2-6e1e-4904-a7c0-a444acddac9a"},"vehicle_type_id":"4","last_reported":1716231957,"current_range_meters":3200,"station_id":"ce4bgt92rcd13ifvqcf0","pricing_plan_id":"cebpf4jnsgd1na2vs0mg"},{"bike_id":"a2406b9b-fad5-4b4b-9c10-7c6a9bab1f64","system_id":"levelo_inurba_marseille","lat":43.299724,"lon":5.371829,"is_reserved":false,"is_disabled":false,"rental_uris":{"android":"levelo://app?vid=a2406b9b-fad5-4b4b-9c10-7c6a9bab1f64","ios":"levelo://app?vid=a2406b9b-fad5-4b4b-9c10-7c6a9bab1f64"},"vehicle_type_id":"4","last_reported":1716231957,"current_range_meters":6000,"station_id":"ce4bgr92rcd13ifvqc7g","pricing_plan_id":"cebpf4jnsgd1na2vs0mg"},{"bike_id":"f389eeab-5ff5-452c-8d4e-db5de0cac162","system_id":"levelo_inurba_marseille","lat":43.299724,"lon":5.371829,"is_reserved":false,"is_disabled":false,"rental_uris":{"android":"levelo://app?vid=f389eeab-5ff5-452c-8d4e-db5de0cac162","ios":"levelo://app?vid=f389eeab-5ff5-452c-8d4e-db5de0cac162"},"vehicle_type_id":"4","last_reported":1716231957,"current_range_meters":26800,"station_id":"ce4bgr92rcd13ifvqc7g","pricing_plan_id":"cebpf4jnsgd1na2vs0mg"},{"bike_id":"448849b7-a431-46f4-8684-a030c551850d","system_id":"levelo_inurba_marseille","lat":43.299243,"lon":5.374807,"is_reserved":false,"is_disabled":false,"rental_uris":{"android":"levelo://app?vid=448849b7-a431-46f4-8684-a030c551850d","ios":"levelo://app?vid=448849b7-a431-46f4-8684-a030c551850d"},"vehicle_type_id":"4","last_reported":1716231957,"current_range_meters":6400,"station_id":"ce4bgjh2rcd13ifvqbg0","pricing_plan_id":"cebpf4jnsgd1na2vs0mg"},{"bike_id":"593097dc-7331-4994-ad86-2734efeca35e","system_id":"levelo_inurba_marseille","lat":43.311722,"lon":5.387247,"is_reserved":false,"is_disabled":false,"rental_uris":{"android":"levelo://app?vid=593097dc-7331-4994-ad86-2734efeca35e","ios":"levelo://app?vid=593097dc-7331-4994-ad86-2734efeca35e"},"vehicle_type_id":"4","last_reported":1716231957,"current_range_meters":21600,"station_id":"ce4bgv12rcd13ifvqcp0","pricing_plan_id":"cebpf4jnsgd1na2vs0mg"},{"bike_id":"ed492a4e-944e-43b3-bd26-4581a8e6f7a8","system_id":"levelo_inurba_marseille","lat":43.297794,"lon":5.370888,"is_reserved":false,"is_disabled":false,"rental_uris":{"android":"levelo://app?vid=ed492a4e-944e-43b3-bd26-4581a8e6f7a8","ios":"levelo://app?vid=ed492a4e-944e-43b3-bd26-4581a8e6f7a8"},"vehicle_type_id":"4","last_reported":1716231957,"current_range_meters":30000,"station_id":"ce4bgop2rcd13ifvqc1g","pricing_plan_id":"cebpf4jnsgd1na2vs0mg"},{"bike_id":"4db12bb2-047c-428a-addf-22fa2d72f822","system_id":"levelo_inurba_marseille","lat":43.297774,"lon":5.370875,"is_reserved":false,"is_disabled":false,"rental_uris":{"android":"levelo://app?vid=4db12bb2-047c-428a-addf-22fa2d72f822","ios":"levelo://app?vid=4db12bb2-047c-428a-addf-22fa2d72f822"},"vehicle_type_id":"4","last_reported":1716231957,"current_range_meters":30400,"station_id":"ce4bgop2rcd13ifvqc1g","pricing_plan_id":"cebpf4jnsgd1na2vs0mg"},{"bike_id":"b488fd65-bd5a-457c-b330-5026f2e0d6ea","system_id":"levelo_inurba_marseille","lat":43.322872,"lon":5.382756,"is_reserved":false,"is_disabled":false,"rental_uris":{"android":"levelo://app?vid=b488fd65-bd5a-457c-b330-5026f2e0d6ea","ios":"levelo://app?vid=b488fd65-bd5a-457c-b330-5026f2e0d6ea"},"vehicle_type_id":"4","last_reported":1716231957,"current_range_meters":11200,"station_id":"ce4bhr12rcd13ifvqhqg","pricing_plan_id":"cebpf4jnsgd1na2vs0mg"},{"bike_id":"d39db37c-9f78-4b03-a1c5-3ec323bb42fe","system_id":"levelo_inurba_marseille","lat":43.322904,"lon":5.382636,"is_reserved":false,"is_disabled":false,"rental_uris":{"android":"levelo://app?vid=d39db37c-9f78-4b03-a1c5-3ec323bb42fe","ios":"levelo://app?vid=d39db37c-9f78-4b03-a1c5-3ec323bb42fe"},"vehicle_type_id":"4","last_reported":1716231957,"current_range_meters":5600,"station_id":"ce4bhr12rcd13ifvqhqg","pricing_plan_id":"cebpf4jnsgd1na2vs0mg"},{"bike_id":"04b3bd69-520d-4b77-a1dc-7eea88528e9c","system_id":"levelo_inurba_marseille","lat":43.32282,"lon":5.38275,"is_reserved":false,"is_disabled":false,"rental_uris":{"android":"levelo://app?vid=04b3bd69-520d-4b77-a1dc-7eea88528e9c","ios":"levelo://app?vid=04b3bd69-520d-4b77-a1dc-7eea88528e9c"},"vehicle_type_id":"4","last_reported":1716231957,"current_range_meters":13200,"station_id":"ce4bhlh2rcd13ifvqgig","pricing_plan_id":"cebpf4jnsgd1na2vs0mg"},{"bike_id":"5702a311-fa87-4cde-9866-039042e1b456","system_id":"levelo_inurba_marseille","lat":43.29774,"lon":5.37127,"is_reserved":false,"is_disabled":false,"rental_uris":{"android":"levelo://app?vid=5702a311-fa87-4cde-9866-039042e1b456","ios":"levelo://app?vid=5702a311-fa87-4cde-9866-039042e1b456"},"vehicle_type_id":"4","last_reported":1716231957,"current_range_meters":5600,"station_id":"ce4bgop2rcd13ifvqc1g","pricing_plan_id":"cebpf4jnsgd1na2vs0mg"},{"bike_id":"16f66172-cfd1-4966-8e04-6218a5cde7c9","system_id":"levelo_inurba_marseille","lat":43.32287,"lon":5.38282,"is_reserved":false,"is_disabled":false,"rental_uris":{"android":"levelo://app?vid=16f66172-cfd1-4966-8e04-6218a5cde7c9","ios":"levelo://app?vid=16f66172-cfd1-4966-8e04-6218a5cde7c9"},"vehicle_type_id":"4","last_reported":1716231957,"current_range_meters":400,"station_id":"ce4bhr12rcd13ifvqhqg","pricing_plan_id":"cebpf4jnsgd1na2vs0mg"},{"bike_id":"c67fe492-8c66-4e0f-b450-e2efa3b5948a","system_id":"levelo_inurba_marseille","lat":43.322872,"lon":5.382756,"is_reserved":false,"is_disabled":false,"rental_uris":{"android":"levelo://app?vid=c67fe492-8c66-4e0f-b450-e2efa3b5948a","ios":"levelo://app?vid=c67fe492-8c66-4e0f-b450-e2efa3b5948a"},"vehicle_type_id":"4","last_reported":1716231957,"current_range_meters":31200,"station_id":"ce4bhr12rcd13ifvqhqg","pricing_plan_id":"cebpf4jnsgd1na2vs0mg"},{"bike_id":"96be48d4-83f2-4ac0-be05-cabccec59de6","system_id":"levelo_inurba_marseille","lat":43.297163,"lon":5.365866,"is_reserved":false,"is_disabled":false,"rental_uris":{"android":"levelo://app?vid=96be48d4-83f2-4ac0-be05-cabccec59de6","ios":"levelo://app?vid=96be48d4-83f2-4ac0-be05-cabccec59de6"},"vehicle_type_id":"4","last_reported":1716231957,"current_range_meters":0,"station_id":"ce4bgn12rcd13ifvqbt0","pricing_plan_id":"cebpf4jnsgd1na2vs0mg"},{"bike_id":"d69697d9-a7f5-4486-974b-dd9fd4768a96","system_id":"levelo_inurba_marseille","lat":43.297163,"lon":5.365866,"is_reserved":false,"is_disabled":false,"rental_uris":{"android":"levelo://app?vid=d69697d9-a7f5-4486-974b-dd9fd4768a96","ios":"levelo://app?vid=d69697d9-a7f5-4486-974b-dd9fd4768a96"},"vehicle_type_id":"4","last_reported":1716231957,"current_range_meters":4400,"station_id":"ce4bgn12rcd13ifvqbt0","pricing_plan_id":"cebpf4jnsgd1na2vs0mg"},{"bike_id":"00503ce8-9edf-4f9b-a51c-7b767c9d3bd2","system_id":"levelo_inurba_marseille","lat":43.29908,"lon":5.38071,"is_reserved":false,"is_disabled":false,"rental_uris":{"android":"levelo://app?vid=00503ce8-9edf-4f9b-a51c-7b767c9d3bd2","ios":"levelo://app?vid=00503ce8-9edf-4f9b-a51c-7b767c9d3bd2"},"vehicle_type_id":"4","last_reported":1716231957,"current_range_meters":28800,"station_id":"","pricing_plan_id":"cebpf4jnsgd1na2vs0mg"},{"bike_id":"feff1c34-a5cc-4d4d-94d9-7b41868f6a4e","system_id":"levelo_inurba_marseille","lat":43.29573,"lon":5.367355,"is_reserved":false,"is_disabled":false,"rental_uris":{"android":"levelo://app?vid=feff1c34-a5cc-4d4d-94d9-7b41868f6a4e","ios":"levelo://app?vid=feff1c34-a5cc-4d4d-94d9-7b41868f6a4e"},"vehicle_type_id":"4","last_reported":1716231957,"current_range_meters":3600,"station_id":"ce4bgph2rcd13ifvqc2g","pricing_plan_id":"cebpf4jnsgd1na2vs0mg"},{"bike_id":"6ac192c4-45a3-4f5b-a7e1-82d31d08f855","system_id":"levelo_inurba_marseille","lat":43.296921,"lon":5.376579,"is_reserved":false,"is_disabled":false,"rental_uris":{"android":"levelo://app?vid=6ac192c4-45a3-4f5b-a7e1-82d31d08f855","ios":"levelo://app?vid=6ac192c4-45a3-4f5b-a7e1-82d31d08f855"},"vehicle_type_id":"4","last_reported":1716231957,"current_range_meters":4000,"station_id":"ce4bgkh2rcd13ifvqbl0","pricing_plan_id":"cebpf4jnsgd1na2vs0mg"},{"bike_id":"d3224183-7115-4ec9-ac70-c07c1f764813","system_id":"levelo_inurba_marseille","lat":43.299028,"lon":5.381509,"is_reserved":false,"is_disabled":false,"rental_uris":{"android":"levelo://app?vid=d3224183-7115-4ec9-ac70-c07c1f764813","ios":"levelo://app?vid=d3224183-7115-4ec9-ac70-c07c1f764813"},"vehicle_type_id":"4","last_reported":1716231957,"current_range_meters":20400,"station_id":"ce4bgj12rcd13ifvqbc0","pricing_plan_id":"cebpf4jnsgd1na2vs0mg"},{"bike_id":"68f0ee61-3957-44f9-a0d2-96dee0cc2b93","system_id":"levelo_inurba_marseille","lat":43.299028,"lon":5.381509,"is_reserved":false,"is_disabled":false,"rental_uris":{"android":"levelo://app?vid=68f0ee61-3957-44f9-a0d2-96dee0cc2b93","ios":"levelo://app?vid=68f0ee61-3957-44f9-a0d2-96dee0cc2b93"},"vehicle_type_id":"4","last_reported":1716231957,"current_range_meters":13200,"station_id":"ce4bgj12rcd13ifvqbc0","pricing_plan_id":"cebpf4jnsgd1na2vs0mg"},{"bike_id":"23174f41-dc9f-408c-b9bf-21d8864695e2","system_id":"levelo_inurba_marseille","lat":43.299028,"lon":5.381509,"is_reserved":false,"is_disabled":false,"rental_uris":{"android":"levelo://app?vid=23174f41-dc9f-408c-b9bf-21d8864695e2","ios":"levelo://app?vid=23174f41-dc9f-408c-b9bf-21d8864695e2"},"vehicle_type_id":"4","last_reported":1716231957,"current_range_meters":2800,"station_id":"ce4bgj12rcd13ifvqbc0","pricing_plan_id":"cebpf4jnsgd1na2vs0mg"},{"bike_id":"3ac2f96a-7f67-4460-8cab-51aeb90d5afb","system_id":"levelo_inurba_marseille","lat":43.317557,"lon":5.390173,"is_reserved":false,"is_disabled":false,"rental_uris":{"android":"levelo://app?vid=3ac2f96a-7f67-4460-8cab-51aeb90d5afb","ios":"levelo://app?vid=3ac2f96a-7f67-4460-8cab-51aeb90d5afb"},"vehicle_type_id":"4","last_reported":1716231957,"current_range_meters":5600,"station_id":"ce4bhqp2rcd13ifvqhng","pricing_plan_id":"cebpf4jnsgd1na2vs0mg"},{"bike_id":"18457902-2c5a-49ad-a101-d44b53ee181d","system_id":"levelo_inurba_marseille","lat":43.309589,"lon":5.390258,"is_reserved":false,"is_disabled":false,"rental_uris":{"android":"levelo://app?vid=18457902-2c5a-49ad-a101-d44b53ee181d","ios":"levelo://app?vid=18457902-2c5a-49ad-a101-d44b53ee181d"},"vehicle_type_id":"4","last_reported":1716231957,"current_range_meters":400,"station_id":"ce4bgup2rcd13ifvqco0","pricing_plan_id":"cebpf4jnsgd1na2vs0mg"},{"bike_id":"1644fc64-f522-4b3e-aab6-db9b22d56ff0","system_id":"levelo_inurba_marseille","lat":43.317557,"lon":5.390173,"is_reserved":false,"is_disabled":false,"rental_uris":{"android":"levelo://app?vid=1644fc64-f522-4b3e-aab6-db9b22d56ff0","ios":"levelo://app?vid=1644fc64-f522-4b3e-aab6-db9b22d56ff0"},"vehicle_type_id":"4","last_reported":1716231957,"current_range_meters":800,"station_id":"ce4bhqp2rcd13ifvqhng","pricing_plan_id":"cebpf4jnsgd1na2vs0mg"},{"bike_id":"81147314-bcd0-4df2-b23d-e070c4e37416","system_id":"levelo_inurba_marseille","lat":43.317557,"lon":5.390173,"is_reserved":false,"is_disabled":false,"rental_uris":{"android":"levelo://app?vid=81147314-bcd0-4df2-b23d-e070c4e37416","ios":"levelo://app?vid=81147314-bcd0-4df2-b23d-e070c4e37416"},"vehicle_type_id":"4","last_reported":1716231957,"current_range_meters":3600,"station_id":"ce4bhqp2rcd13ifvqhng","pricing_plan_id":"cebpf4jnsgd1na2vs0mg"},{"bike_id":"4a30287a-307d-45f1-af6e-bf21b88c8550","system_id":"levelo_inurba_marseille","lat":43.317557,"lon":5.390173,"is_reserved":false,"is_disabled":false,"rental_uris":{"android":"levelo://app?vid=4a30287a-307d-45f1-af6e-bf21b88c8550","ios":"levelo://app?vid=4a30287a-307d-45f1-af6e-bf21b88c8550"},"vehicle_type_id":"4","last_reported":1716231957,"current_range_meters":7600,"station_id":"ce4bhqp2rcd13ifvqhng","pricing_plan_id":"cebpf4jnsgd1na2vs0mg"},{"bike_id":"148c282e-efc1-44e6-addb-133c50df5c83","system_id":"levelo_inurba_marseille","lat":43.317557,"lon":5.390173,"is_reserved":false,"is_disabled":false,"rental_uris":{"android":"levelo://app?vid=148c282e-efc1-44e6-addb-133c50df5c83","ios":"levelo://app?vid=148c282e-efc1-44e6-addb-133c50df5c83"},"vehicle_type_id":"4","last_reported":1716231957,"current_range_meters":19200,"station_id":"ce4bhqp2rcd13ifvqhng","pricing_plan_id":"cebpf4jnsgd1na2vs0mg"},{"bike_id":"98f62e5f-759b-4c94-93ef-c3f2a16730ea","system_id":"levelo_inurba_marseille","lat":43.298037,"lon":5.381066,"is_reserved":false,"is_disabled":false,"rental_uris":{"android":"levelo://app?vid=98f62e5f-759b-4c94-93ef-c3f2a16730ea","ios":"levelo://app?vid=98f62e5f-759b-4c94-93ef-c3f2a16730ea"},"vehicle_type_id":"4","last_reported":1716231957,"current_range_meters":3200,"station_id":"ce4bgip2rcd13ifvqbb0","pricing_plan_id":"cebpf4jnsgd1na2vs0mg"},{"bike_id":"42843c4e-f8b8-4f72-9ae2-e4e98c26a6c0","system_id":"levelo_inurba_marseille","lat":43.304274,"lon":5.388873,"is_reserved":false,"is_disabled":false,"rental_uris":{"android":"levelo://app?vid=42843c4e-f8b8-4f72-9ae2-e4e98c26a6c0","ios":"levelo://app?vid=42843c4e-f8b8-4f72-9ae2-e4e98c26a6c0"},"vehicle_type_id":"4","last_reported":1716231957,"current_range_meters":0,"station_id":"ce4bgk12rcd13ifvqbi0","pricing_plan_id":"cebpf4jnsgd1na2vs0mg"},{"bike_id":"083f5871-2128-4eb5-84cb-99805f61b06d","system_id":"levelo_inurba_marseille","lat":43.296277,"lon":5.377108,"is_reserved":false,"is_disabled":false,"rental_uris":{"android":"levelo://app?vid=083f5871-2128-4eb5-84cb-99805f61b06d","ios":"levelo://app?vid=083f5871-2128-4eb5-84cb-99805f61b06d"},"vehicle_type_id":"4","last_reported":1716231957,"current_range_meters":26000,"station_id":"ce4bgi92rcd13ifvqb90","pricing_plan_id":"cebpf4jnsgd1na2vs0mg"},{"bike_id":"94e03997-1440-4568-beff-c3f948ca0859","system_id":"levelo_inurba_marseille","lat":43.298037,"lon":5.381066,"is_reserved":false,"is_disabled":false,"rental_uris":{"android":"levelo://app?vid=94e03997-1440-4568-beff-c3f948ca0859","ios":"levelo://app?vid=94e03997-1440-4568-beff-c3f948ca0859"},"vehicle_type_id":"4","last_reported":1716231957,"current_range_meters":6000,"station_id":"ce4bgip2rcd13ifvqbb0","pricing_plan_id":"cebpf4jnsgd1na2vs0mg"},{"bike_id":"8f6fd4a0-4d43-4eb6-a874-31ef4beb3b31","system_id":"levelo_inurba_marseille","lat":43.304278,"lon":5.388868,"is_reserved":false,"is_disabled":false,"rental_uris":{"android":"levelo://app?vid=8f6fd4a0-4d43-4eb6-a874-31ef4beb3b31","ios":"levelo://app?vid=8f6fd4a0-4d43-4eb6-a874-31ef4beb3b31"},"vehicle_type_id":"4","last_reported":1716231957,"current_range_meters":26800,"station_id":"ce4bgk12rcd13ifvqbi0","pricing_plan_id":"cebpf4jnsgd1na2vs0mg"},{"bike_id":"dfb1e901-4795-4cba-8b3a-1dc5b86ec48e","system_id":"levelo_inurba_marseille","lat":43.304278,"lon":5.388868,"is_reserved":false,"is_disabled":false,"rental_uris":{"android":"levelo://app?vid=dfb1e901-4795-4cba-8b3a-1dc5b86ec48e","ios":"levelo://app?vid=dfb1e901-4795-4cba-8b3a-1dc5b86ec48e"},"vehicle_type_id":"4","last_reported":1716231957,"current_range_meters":0,"station_id":"ce4bgk12rcd13ifvqbi0","pricing_plan_id":"cebpf4jnsgd1na2vs0mg"},{"bike_id":"e8d58c16-481b-40cb-8022-47e085a46cf7","system_id":"levelo_inurba_marseille","lat":43.304274,"lon":5.388873,"is_reserved":false,"is_disabled":false,"rental_uris":{"android":"levelo://app?vid=e8d58c16-481b-40cb-8022-47e085a46cf7","ios":"levelo://app?vid=e8d58c16-481b-40cb-8022-47e085a46cf7"},"vehicle_type_id":"4","last_reported":1716231957,"current_range_meters":4800,"station_id":"ce4bgk12rcd13ifvqbi0","pricing_plan_id":"cebpf4jnsgd1na2vs0mg"},{"bike_id":"8c41bf50-2c70-4d40-933d-cc3ea8e02a76","system_id":"levelo_inurba_marseille","lat":43.304278,"lon":5.388868,"is_reserved":false,"is_disabled":false,"rental_uris":{"android":"levelo://app?vid=8c41bf50-2c70-4d40-933d-cc3ea8e02a76","ios":"levelo://app?vid=8c41bf50-2c70-4d40-933d-cc3ea8e02a76"},"vehicle_type_id":"4","last_reported":1716231957,"current_range_meters":13600,"station_id":"ce4bgk12rcd13ifvqbi0","pricing_plan_id":"cebpf4jnsgd1na2vs0mg"},{"bike_id":"72358e5f-3307-43ad-aaaa-c9d950f062c9","system_id":"levelo_inurba_marseille","lat":43.304274,"lon":5.388873,"is_reserved":false,"is_disabled":false,"rental_uris":{"android":"levelo://app?vid=72358e5f-3307-43ad-aaaa-c9d950f062c9","ios":"levelo://app?vid=72358e5f-3307-43ad-aaaa-c9d950f062c9"},"vehicle_type_id":"4","last_reported":1716231957,"current_range_meters":26800,"station_id":"ce4bgk12rcd13ifvqbi0","pricing_plan_id":"cebpf4jnsgd1na2vs0mg"},{"bike_id":"32bdaa35-4d41-40a3-8dda-42b79dd7c6b9","system_id":"levelo_inurba_marseille","lat":43.304274,"lon":5.388873,"is_reserved":false,"is_disabled":false,"rental_uris":{"android":"levelo://app?vid=32bdaa35-4d41-40a3-8dda-42b79dd7c6b9","ios":"levelo://app?vid=32bdaa35-4d41-40a3-8dda-42b79dd7c6b9"},"vehicle_type_id":"4","last_reported":1716231957,"current_range_meters":6800,"station_id":"ce4bgk12rcd13ifvqbi0","pricing_plan_id":"cebpf4jnsgd1na2vs0mg"},{"bike_id":"d19bf2aa-30a8-4327-9796-2b7810879811","system_id":"levelo_inurba_marseille","lat":43.304278,"lon":5.388868,"is_reserved":false,"is_disabled":false,"rental_uris":{"android":"levelo://app?vid=d19bf2aa-30a8-4327-9796-2b7810879811","ios":"levelo://app?vid=d19bf2aa-30a8-4327-9796-2b7810879811"},"vehicle_type_id":"4","last_reported":1716231957,"current_range_meters":3200,"station_id":"ce4bgk12rcd13ifvqbi0","pricing_plan_id":"cebpf4jnsgd1na2vs0mg"},{"bike_id":"66e58e78-e7b0-40d9-8c45-e6ecb3878c4e","system_id":"levelo_inurba_marseille","lat":43.296277,"lon":5.377108,"is_reserved":false,"is_disabled":false,"rental_uris":{"android":"levelo://app?vid=66e58e78-e7b0-40d9-8c45-e6ecb3878c4e","ios":"levelo://app?vid=66e58e78-e7b0-40d9-8c45-e6ecb3878c4e"},"vehicle_type_id":"4","last_reported":1716231957,"current_range_meters":21200,"station_id":"ce4bgi92rcd13ifvqb90","pricing_plan_id":"cebpf4jnsgd1na2vs0mg"},{"bike_id":"0dce7918-5769-461c-aaa7-3e3b6e4cba1e","system_id":"levelo_inurba_marseille","lat":43.296263,"lon":5.377094,"is_reserved":false,"is_disabled":false,"rental_uris":{"android":"levelo://app?vid=0dce7918-5769-461c-aaa7-3e3b6e4cba1e","ios":"levelo://app?vid=0dce7918-5769-461c-aaa7-3e3b6e4cba1e"},"vehicle_type_id":"4","last_reported":1716231957,"current_range_meters":20800,"station_id":"ce4bgi92rcd13ifvqb90","pricing_plan_id":"cebpf4jnsgd1na2vs0mg"},{"bike_id":"c26244a8-a764-4afd-ba1e-3e8ba01f68f6","system_id":"levelo_inurba_marseille","lat":43.304278,"lon":5.388868,"is_reserved":false,"is_disabled":false,"rental_uris":{"android":"levelo://app?vid=c26244a8-a764-4afd-ba1e-3e8ba01f68f6","ios":"levelo://app?vid=c26244a8-a764-4afd-ba1e-3e8ba01f68f6"},"vehicle_type_id":"4","last_reported":1716231957,"current_range_meters":8000,"station_id":"ce4bgk12rcd13ifvqbi0","pricing_plan_id":"cebpf4jnsgd1na2vs0mg"},{"bike_id":"f72192d3-33c0-4549-b980-7371b7df68b4","system_id":"levelo_inurba_marseille","lat":43.297641,"lon":5.380794,"is_reserved":false,"is_disabled":false,"rental_uris":{"android":"levelo://app?vid=f72192d3-33c0-4549-b980-7371b7df68b4","ios":"levelo://app?vid=f72192d3-33c0-4549-b980-7371b7df68b4"},"vehicle_type_id":"4","last_reported":1716231957,"current_range_meters":2400,"station_id":"ce4bgip2rcd13ifvqbb0","pricing_plan_id":"cebpf4jnsgd1na2vs0mg"},{"bike_id":"29000bb3-5722-4f33-80e2-9151475be32e","system_id":"levelo_inurba_marseille","lat":43.296263,"lon":5.377094,"is_reserved":false,"is_disabled":false,"rental_uris":{"android":"levelo://app?vid=29000bb3-5722-4f33-80e2-9151475be32e","ios":"levelo://app?vid=29000bb3-5722-4f33-80e2-9151475be32e"},"vehicle_type_id":"4","last_reported":1716231957,"current_range_meters":3200,"station_id":"ce4bgi92rcd13ifvqb90","pricing_plan_id":"cebpf4jnsgd1na2vs0mg"},{"bike_id":"97c9ddf4-2377-45eb-a93f-81515f627b1a","system_id":"levelo_inurba_marseille","lat":43.299724,"lon":5.384848,"is_reserved":false,"is_disabled":false,"rental_uris":{"android":"levelo://app?vid=97c9ddf4-2377-45eb-a93f-81515f627b1a","ios":"levelo://app?vid=97c9ddf4-2377-45eb-a93f-81515f627b1a"},"vehicle_type_id":"4","last_reported":1716231957,"current_range_meters":19600,"station_id":"ce4bgj92rcd13ifvqbd0","pricing_plan_id":"cebpf4jnsgd1na2vs0mg"},{"bike_id":"7abfba5c-e619-421a-aa14-ce5ecbb9f2bb","system_id":"levelo_inurba_marseille","lat":43.29977,"lon":5.38488,"is_reserved":false,"is_disabled":false,"rental_uris":{"android":"levelo://app?vid=7abfba5c-e619-421a-aa14-ce5ecbb9f2bb","ios":"levelo://app?vid=7abfba5c-e619-421a-aa14-ce5ecbb9f2bb"},"vehicle_type_id":"4","last_reported":1716231957,"current_range_meters":0,"station_id":"ce4bgj92rcd13ifvqbd0","pricing_plan_id":"cebpf4jnsgd1na2vs0mg"},{"bike_id":"15431e62-0d6f-411d-a559-fee7612eb52c","system_id":"levelo_inurba_marseille","lat":43.299707,"lon":5.384859,"is_reserved":false,"is_disabled":false,"rental_uris":{"android":"levelo://app?vid=15431e62-0d6f-411d-a559-fee7612eb52c","ios":"levelo://app?vid=15431e62-0d6f-411d-a559-fee7612eb52c"},"vehicle_type_id":"4","last_reported":1716231957,"current_range_meters":7600,"station_id":"ce4bgj92rcd13ifvqbd0","pricing_plan_id":"cebpf4jnsgd1na2vs0mg"},{"bike_id":"d50f15da-2c53-407d-8856-d2b302e6190b","system_id":"levelo_inurba_marseille","lat":43.299707,"lon":5.384859,"is_reserved":false,"is_disabled":false,"rental_uris":{"android":"levelo://app?vid=d50f15da-2c53-407d-8856-d2b302e6190b","ios":"levelo://app?vid=d50f15da-2c53-407d-8856-d2b302e6190b"},"vehicle_type_id":"4","last_reported":1716231957,"current_range_meters":27600,"station_id":"ce4bgj92rcd13ifvqbd0","pricing_plan_id":"cebpf4jnsgd1na2vs0mg"},{"bike_id":"d014cf3e-048b-41f0-8f75-4b7171a47831","system_id":"levelo_inurba_marseille","lat":43.299717,"lon":5.384845,"is_reserved":false,"is_disabled":false,"rental_uris":{"android":"levelo://app?vid=d014cf3e-048b-41f0-8f75-4b7171a47831","ios":"levelo://app?vid=d014cf3e-048b-41f0-8f75-4b7171a47831"},"vehicle_type_id":"4","last_reported":1716231957,"current_range_meters":31200,"station_id":"ce4bgj92rcd13ifvqbd0","pricing_plan_id":"cebpf4jnsgd1na2vs0mg"},{"bike_id":"2cd8a158-5652-4359-b895-fc6954b90f21","system_id":"levelo_inurba_marseille","lat":43.299717,"lon":5.384845,"is_reserved":false,"is_disabled":false,"rental_uris":{"android":"levelo://app?vid=2cd8a158-5652-4359-b895-fc6954b90f21","ios":"levelo://app?vid=2cd8a158-5652-4359-b895-fc6954b90f21"},"vehicle_type_id":"4","last_reported":1716231957,"current_range_meters":4800,"station_id":"ce4bgj92rcd13ifvqbd0","pricing_plan_id":"cebpf4jnsgd1na2vs0mg"},{"bike_id":"e1086ef2-5ef8-4e21-b868-a72fc58b18f4","system_id":"levelo_inurba_marseille","lat":43.29648,"lon":5.37968,"is_reserved":false,"is_disabled":false,"rental_uris":{"android":"levelo://app?vid=e1086ef2-5ef8-4e21-b868-a72fc58b18f4","ios":"levelo://app?vid=e1086ef2-5ef8-4e21-b868-a72fc58b18f4"},"vehicle_type_id":"4","last_reported":1716231957,"current_range_meters":6400,"station_id":"","pricing_plan_id":"cebpf4jnsgd1na2vs0mg"},{"bike_id":"73d24a53-7f1e-447f-b1f1-5ed5cee06552","system_id":"levelo_inurba_marseille","lat":43.30083,"lon":5.386867,"is_reserved":false,"is_disabled":false,"rental_uris":{"android":"levelo://app?vid=73d24a53-7f1e-447f-b1f1-5ed5cee06552","ios":"levelo://app?vid=73d24a53-7f1e-447f-b1f1-5ed5cee06552"},"vehicle_type_id":"4","last_reported":1716231957,"current_range_meters":0,"station_id":"","pricing_plan_id":"cebpf4jnsgd1na2vs0mg"},{"bike_id":"78252e3e-8eff-4ccb-a142-6526e4cc39f4","system_id":"levelo_inurba_marseille","lat":43.30089,"lon":5.38729,"is_reserved":false,"is_disabled":false,"rental_uris":{"android":"levelo://app?vid=78252e3e-8eff-4ccb-a142-6526e4cc39f4","ios":"levelo://app?vid=78252e3e-8eff-4ccb-a142-6526e4cc39f4"},"vehicle_type_id":"4","last_reported":1716231957,"current_range_meters":18800,"station_id":"","pricing_plan_id":"cebpf4jnsgd1na2vs0mg"},{"bike_id":"cabc6c92-4d0d-43b8-823b-0e53a898c88b","system_id":"levelo_inurba_marseille","lat":43.32366,"lon":5.38884,"is_reserved":false,"is_disabled":false,"rental_uris":{"android":"levelo://app?vid=cabc6c92-4d0d-43b8-823b-0e53a898c88b","ios":"levelo://app?vid=cabc6c92-4d0d-43b8-823b-0e53a898c88b"},"vehicle_type_id":"4","last_reported":1716231957,"current_range_meters":0,"station_id":"ce4bhqp2rcd13ifvqhog","pricing_plan_id":"cebpf4jnsgd1na2vs0mg"},{"bike_id":"25500253-68b7-4ebf-9386-366bfd0fc124","system_id":"levelo_inurba_marseille","lat":43.29601,"lon":5.381084,"is_reserved":false,"is_disabled":false,"rental_uris":{"android":"levelo://app?vid=25500253-68b7-4ebf-9386-366bfd0fc124","ios":"levelo://app?vid=25500253-68b7-4ebf-9386-366bfd0fc124"},"vehicle_type_id":"4","last_reported":1716231957,"current_range_meters":0,"station_id":"ce4bgl12rcd13ifvqbo0","pricing_plan_id":"cebpf4jnsgd1na2vs0mg"},{"bike_id":"01a9e91c-78f3-4576-8872-934b4da53e38","system_id":"levelo_inurba_marseille","lat":43.29346,"lon":5.37162,"is_reserved":false,"is_disabled":false,"rental_uris":{"android":"levelo://app?vid=01a9e91c-78f3-4576-8872-934b4da53e38","ios":"levelo://app?vid=01a9e91c-78f3-4576-8872-934b4da53e38"},"vehicle_type_id":"4","last_reported":1716231957,"current_range_meters":15200,"station_id":"ce4bgh92rcd13ifvqb40","pricing_plan_id":"cebpf4jnsgd1na2vs0mg"},{"bike_id":"a922f7ed-527d-43a3-b996-342d1d6e6163","system_id":"levelo_inurba_marseille","lat":43.29601,"lon":5.381084,"is_reserved":false,"is_disabled":false,"rental_uris":{"android":"levelo://app?vid=a922f7ed-527d-43a3-b996-342d1d6e6163","ios":"levelo://app?vid=a922f7ed-527d-43a3-b996-342d1d6e6163"},"vehicle_type_id":"4","last_reported":1716231957,"current_range_meters":30400,"station_id":"ce4bgl12rcd13ifvqbo0","pricing_plan_id":"cebpf4jnsgd1na2vs0mg"},{"bike_id":"d6ae23ae-c4c9-414d-9f31-2ff4066ccbfb","system_id":"levelo_inurba_marseille","lat":43.29601,"lon":5.381084,"is_reserved":false,"is_disabled":false,"rental_uris":{"android":"levelo://app?vid=d6ae23ae-c4c9-414d-9f31-2ff4066ccbfb","ios":"levelo://app?vid=d6ae23ae-c4c9-414d-9f31-2ff4066ccbfb"},"vehicle_type_id":"4","last_reported":1716231957,"current_range_meters":6800,"station_id":"ce4bgl12rcd13ifvqbo0","pricing_plan_id":"cebpf4jnsgd1na2vs0mg"},{"bike_id":"f8cb2af5-aa25-4bb0-8dbc-24186adca1ce","system_id":"levelo_inurba_marseille","lat":43.29602,"lon":5.381084,"is_reserved":false,"is_disabled":false,"rental_uris":{"android":"levelo://app?vid=f8cb2af5-aa25-4bb0-8dbc-24186adca1ce","ios":"levelo://app?vid=f8cb2af5-aa25-4bb0-8dbc-24186adca1ce"},"vehicle_type_id":"4","last_reported":1716231957,"current_range_meters":4800,"station_id":"ce4bgl12rcd13ifvqbo0","pricing_plan_id":"cebpf4jnsgd1na2vs0mg"},{"bike_id":"57e13463-8ab6-4eb5-ac06-d3084a7dd520","system_id":"levelo_inurba_marseille","lat":43.29601,"lon":5.381084,"is_reserved":false,"is_disabled":false,"rental_uris":{"android":"levelo://app?vid=57e13463-8ab6-4eb5-ac06-d3084a7dd520","ios":"levelo://app?vid=57e13463-8ab6-4eb5-ac06-d3084a7dd520"},"vehicle_type_id":"4","last_reported":1716231957,"current_range_meters":12800,"station_id":"ce4bgl12rcd13ifvqbo0","pricing_plan_id":"cebpf4jnsgd1na2vs0mg"},{"bike_id":"bbd5e0f3-8b7a-4680-8298-eae37a3f3905","system_id":"levelo_inurba_marseille","lat":43.29602,"lon":5.381084,"is_reserved":false,"is_disabled":false,"rental_uris":{"android":"levelo://app?vid=bbd5e0f3-8b7a-4680-8298-eae37a3f3905","ios":"levelo://app?vid=bbd5e0f3-8b7a-4680-8298-eae37a3f3905"},"vehicle_type_id":"4","last_reported":1716231957,"current_range_meters":10400,"station_id":"ce4bgl12rcd13ifvqbo0","pricing_plan_id":"cebpf4jnsgd1na2vs0mg"},{"bike_id":"74fbbd0e-65a6-4bb9-96db-0a24be01618c","system_id":"levelo_inurba_marseille","lat":43.293259,"lon":5.371586,"is_reserved":false,"is_disabled":false,"rental_uris":{"android":"levelo://app?vid=74fbbd0e-65a6-4bb9-96db-0a24be01618c","ios":"levelo://app?vid=74fbbd0e-65a6-4bb9-96db-0a24be01618c"},"vehicle_type_id":"4","last_reported":1716231957,"current_range_meters":17200,"station_id":"ce4bgh92rcd13ifvqb40","pricing_plan_id":"cebpf4jnsgd1na2vs0mg"},{"bike_id":"5903b1ea-cded-46af-b727-3b289670e02e","system_id":"levelo_inurba_marseille","lat":43.29278,"lon":5.36845,"is_reserved":false,"is_disabled":false,"rental_uris":{"android":"levelo://app?vid=5903b1ea-cded-46af-b727-3b289670e02e","ios":"levelo://app?vid=5903b1ea-cded-46af-b727-3b289670e02e"},"vehicle_type_id":"4","last_reported":1716231957,"current_range_meters":12800,"station_id":"ce4bhbp2rcd13ifvqesg","pricing_plan_id":"cebpf4jnsgd1na2vs0mg"},{"bike_id":"0b969e03-47ac-4c9c-8e7b-9cdff8c0bca4","system_id":"levelo_inurba_marseille","lat":43.305904,"lon":5.392843,"is_reserved":false,"is_disabled":false,"rental_uris":{"android":"levelo://app?vid=0b969e03-47ac-4c9c-8e7b-9cdff8c0bca4","ios":"levelo://app?vid=0b969e03-47ac-4c9c-8e7b-9cdff8c0bca4"},"vehicle_type_id":"4","last_reported":1716231957,"current_range_meters":400,"station_id":"ce4bgup2rcd13ifvqco0","pricing_plan_id":"cebpf4jnsgd1na2vs0mg"},{"bike_id":"cc072177-069a-47d7-881c-6daaf3867b80","system_id":"levelo_inurba_marseille","lat":43.305994,"lon":5.393687,"is_reserved":false,"is_disabled":false,"rental_uris":{"android":"levelo://app?vid=cc072177-069a-47d7-881c-6daaf3867b80","ios":"levelo://app?vid=cc072177-069a-47d7-881c-6daaf3867b80"},"vehicle_type_id":"4","last_reported":1716231957,"current_range_meters":30800,"station_id":"ce4bh0p2rcd13ifvqd80","pricing_plan_id":"cebpf4jnsgd1na2vs0mg"},{"bike_id":"ab151fd1-72f7-41c0-90da-84022dc44d36","system_id":"levelo_inurba_marseille","lat":43.305994,"lon":5.393687,"is_reserved":false,"is_disabled":false,"rental_uris":{"android":"levelo://app?vid=ab151fd1-72f7-41c0-90da-84022dc44d36","ios":"levelo://app?vid=ab151fd1-72f7-41c0-90da-84022dc44d36"},"vehicle_type_id":"4","last_reported":1716231957,"current_range_meters":0,"station_id":"ce4bh0p2rcd13ifvqd80","pricing_plan_id":"cebpf4jnsgd1na2vs0mg"},{"bike_id":"56c353f8-b39d-413b-a970-4f5bc71ea6b1","system_id":"levelo_inurba_marseille","lat":43.293009,"lon":5.374584,"is_reserved":false,"is_disabled":false,"rental_uris":{"android":"levelo://app?vid=56c353f8-b39d-413b-a970-4f5bc71ea6b1","ios":"levelo://app?vid=56c353f8-b39d-413b-a970-4f5bc71ea6b1"},"vehicle_type_id":"4","last_reported":1716231957,"current_range_meters":26800,"station_id":"ce4bgi12rcd13ifvqb70","pricing_plan_id":"cebpf4jnsgd1na2vs0mg"},{"bike_id":"9a2d5191-9053-4be9-8137-a57ac57ebaf2","system_id":"levelo_inurba_marseille","lat":43.305994,"lon":5.393687,"is_reserved":false,"is_disabled":false,"rental_uris":{"android":"levelo://app?vid=9a2d5191-9053-4be9-8137-a57ac57ebaf2","ios":"levelo://app?vid=9a2d5191-9053-4be9-8137-a57ac57ebaf2"},"vehicle_type_id":"4","last_reported":1716231957,"current_range_meters":18800,"station_id":"ce4bh0p2rcd13ifvqd80","pricing_plan_id":"cebpf4jnsgd1na2vs0mg"},{"bike_id":"cf0f9f2b-e31f-4bd3-b64f-f091360fad58","system_id":"levelo_inurba_marseille","lat":43.305994,"lon":5.393687,"is_reserved":false,"is_disabled":false,"rental_uris":{"android":"levelo://app?vid=cf0f9f2b-e31f-4bd3-b64f-f091360fad58","ios":"levelo://app?vid=cf0f9f2b-e31f-4bd3-b64f-f091360fad58"},"vehicle_type_id":"4","last_reported":1716231957,"current_range_meters":15200,"station_id":"ce4bh0p2rcd13ifvqd80","pricing_plan_id":"cebpf4jnsgd1na2vs0mg"},{"bike_id":"cb404cc4-7a0d-4ee9-b42d-83fc50b556df","system_id":"levelo_inurba_marseille","lat":43.305994,"lon":5.393687,"is_reserved":false,"is_disabled":false,"rental_uris":{"android":"levelo://app?vid=cb404cc4-7a0d-4ee9-b42d-83fc50b556df","ios":"levelo://app?vid=cb404cc4-7a0d-4ee9-b42d-83fc50b556df"},"vehicle_type_id":"4","last_reported":1716231957,"current_range_meters":2000,"station_id":"ce4bh0p2rcd13ifvqd80","pricing_plan_id":"cebpf4jnsgd1na2vs0mg"},{"bike_id":"3e53f41c-ebdf-42b2-b76c-d847a2389485","system_id":"levelo_inurba_marseille","lat":43.298764,"lon":5.388973,"is_reserved":false,"is_disabled":false,"rental_uris":{"android":"levelo://app?vid=3e53f41c-ebdf-42b2-b76c-d847a2389485","ios":"levelo://app?vid=3e53f41c-ebdf-42b2-b76c-d847a2389485"},"vehicle_type_id":"4","last_reported":1716231957,"current_range_meters":14000,"station_id":"ce4bh392rcd13ifvqdl0","pricing_plan_id":"cebpf4jnsgd1na2vs0mg"},{"bike_id":"84b8c4df-46b4-4d0a-bda3-dbc48def70be","system_id":"levelo_inurba_marseille","lat":43.302992,"lon":5.392136,"is_reserved":false,"is_disabled":false,"rental_uris":{"android":"levelo://app?vid=84b8c4df-46b4-4d0a-bda3-dbc48def70be","ios":"levelo://app?vid=84b8c4df-46b4-4d0a-bda3-dbc48def70be"},"vehicle_type_id":"4","last_reported":1716231957,"current_range_meters":18800,"station_id":"ce4bgkh2rcd13ifvqbk0","pricing_plan_id":"cebpf4jnsgd1na2vs0mg"},{"bike_id":"fa212183-5626-4166-97bf-51226aafbc41","system_id":"levelo_inurba_marseille","lat":43.302992,"lon":5.392136,"is_reserved":false,"is_disabled":false,"rental_uris":{"android":"levelo://app?vid=fa212183-5626-4166-97bf-51226aafbc41","ios":"levelo://app?vid=fa212183-5626-4166-97bf-51226aafbc41"},"vehicle_type_id":"4","last_reported":1716231957,"current_range_meters":14400,"station_id":"ce4bgkh2rcd13ifvqbk0","pricing_plan_id":"cebpf4jnsgd1na2vs0mg"},{"bike_id":"217395df-717a-475a-90f7-53d1c9cbcaa8","system_id":"levelo_inurba_marseille","lat":43.303002,"lon":5.392142,"is_reserved":false,"is_disabled":false,"rental_uris":{"android":"levelo://app?vid=217395df-717a-475a-90f7-53d1c9cbcaa8","ios":"levelo://app?vid=217395df-717a-475a-90f7-53d1c9cbcaa8"},"vehicle_type_id":"4","last_reported":1716231957,"current_range_meters":5600,"station_id":"ce4bgkh2rcd13ifvqbk0","pricing_plan_id":"cebpf4jnsgd1na2vs0mg"},{"bike_id":"75e8c185-e0b1-4819-b0e7-c51026abb44a","system_id":"levelo_inurba_marseille","lat":43.302992,"lon":5.392136,"is_reserved":false,"is_disabled":false,"rental_uris":{"android":"levelo://app?vid=75e8c185-e0b1-4819-b0e7-c51026abb44a","ios":"levelo://app?vid=75e8c185-e0b1-4819-b0e7-c51026abb44a"},"vehicle_type_id":"4","last_reported":1716231957,"current_range_meters":7200,"station_id":"ce4bgkh2rcd13ifvqbk0","pricing_plan_id":"cebpf4jnsgd1na2vs0mg"},{"bike_id":"3a916f00-9ac6-49ea-917c-c0c3e5315df5","system_id":"levelo_inurba_marseille","lat":43.2936,"lon":5.37835,"is_reserved":false,"is_disabled":false,"rental_uris":{"android":"levelo://app?vid=3a916f00-9ac6-49ea-917c-c0c3e5315df5","ios":"levelo://app?vid=3a916f00-9ac6-49ea-917c-c0c3e5315df5"},"vehicle_type_id":"4","last_reported":1716231957,"current_range_meters":16000,"station_id":"ce4bgjh2rcd13ifvqbf0","pricing_plan_id":"cebpf4jnsgd1na2vs0mg"},{"bike_id":"9402ceed-2868-4843-883c-d4dbbe45132a","system_id":"levelo_inurba_marseille","lat":43.2936,"lon":5.37835,"is_reserved":false,"is_disabled":false,"rental_uris":{"android":"levelo://app?vid=9402ceed-2868-4843-883c-d4dbbe45132a","ios":"levelo://app?vid=9402ceed-2868-4843-883c-d4dbbe45132a"},"vehicle_type_id":"4","last_reported":1716231957,"current_range_meters":7200,"station_id":"ce4bgjh2rcd13ifvqbf0","pricing_plan_id":"cebpf4jnsgd1na2vs0mg"},{"bike_id":"58562b16-65d7-4b4c-846c-e74e26a135bc","system_id":"levelo_inurba_marseille","lat":43.2936,"lon":5.37835,"is_reserved":false,"is_disabled":false,"rental_uris":{"android":"levelo://app?vid=58562b16-65d7-4b4c-846c-e74e26a135bc","ios":"levelo://app?vid=58562b16-65d7-4b4c-846c-e74e26a135bc"},"vehicle_type_id":"4","last_reported":1716231957,"current_range_meters":18400,"station_id":"ce4bgjh2rcd13ifvqbf0","pricing_plan_id":"cebpf4jnsgd1na2vs0mg"},{"bike_id":"f1c1f6a0-120b-4873-9cfd-1b4466b90d9a","system_id":"levelo_inurba_marseille","lat":43.30085,"lon":5.390856,"is_reserved":false,"is_disabled":false,"rental_uris":{"android":"levelo://app?vid=f1c1f6a0-120b-4873-9cfd-1b4466b90d9a","ios":"levelo://app?vid=f1c1f6a0-120b-4873-9cfd-1b4466b90d9a"},"vehicle_type_id":"4","last_reported":1716231957,"current_range_meters":30800,"station_id":"ce4bh192rcd13ifvqdb0","pricing_plan_id":"cebpf4jnsgd1na2vs0mg"},{"bike_id":"1f8b358c-ec6c-4384-8c5c-ae3a0c057e57","system_id":"levelo_inurba_marseille","lat":43.300989,"lon":5.390795,"is_reserved":false,"is_disabled":false,"rental_uris":{"android":"levelo://app?vid=1f8b358c-ec6c-4384-8c5c-ae3a0c057e57","ios":"levelo://app?vid=1f8b358c-ec6c-4384-8c5c-ae3a0c057e57"},"vehicle_type_id":"4","last_reported":1716231957,"current_range_meters":24800,"station_id":"","pricing_plan_id":"cebpf4jnsgd1na2vs0mg"},{"bike_id":"7e6e9748-74c0-4fbb-a9aa-c056bd0989ca","system_id":"levelo_inurba_marseille","lat":43.30085,"lon":5.390856,"is_reserved":false,"is_disabled":false,"rental_uris":{"android":"levelo://app?vid=7e6e9748-74c0-4fbb-a9aa-c056bd0989ca","ios":"levelo://app?vid=7e6e9748-74c0-4fbb-a9aa-c056bd0989ca"},"vehicle_type_id":"4","last_reported":1716231957,"current_range_meters":2000,"station_id":"ce4bh192rcd13ifvqdb0","pricing_plan_id":"cebpf4jnsgd1na2vs0mg"},{"bike_id":"e161245c-deb3-452f-b664-475113bc7f78","system_id":"levelo_inurba_marseille","lat":43.30085,"lon":5.390856,"is_reserved":false,"is_disabled":false,"rental_uris":{"android":"levelo://app?vid=e161245c-deb3-452f-b664-475113bc7f78","ios":"levelo://app?vid=e161245c-deb3-452f-b664-475113bc7f78"},"vehicle_type_id":"4","last_reported":1716231957,"current_range_meters":18400,"station_id":"ce4bh192rcd13ifvqdb0","pricing_plan_id":"cebpf4jnsgd1na2vs0mg"},{"bike_id":"0e1ae9f2-3dac-4ee8-97a0-9b69380d56b6","system_id":"levelo_inurba_marseille","lat":43.30085,"lon":5.390856,"is_reserved":false,"is_disabled":false,"rental_uris":{"android":"levelo://app?vid=0e1ae9f2-3dac-4ee8-97a0-9b69380d56b6","ios":"levelo://app?vid=0e1ae9f2-3dac-4ee8-97a0-9b69380d56b6"},"vehicle_type_id":"4","last_reported":1716231957,"current_range_meters":21200,"station_id":"ce4bh192rcd13ifvqdb0","pricing_plan_id":"cebpf4jnsgd1na2vs0mg"},{"bike_id":"da6346ec-dc51-43c5-8f2c-d2e2b085820c","system_id":"levelo_inurba_marseille","lat":43.292311,"lon":5.360731,"is_reserved":false,"is_disabled":false,"rental_uris":{"android":"levelo://app?vid=da6346ec-dc51-43c5-8f2c-d2e2b085820c","ios":"levelo://app?vid=da6346ec-dc51-43c5-8f2c-d2e2b085820c"},"vehicle_type_id":"4","last_reported":1716231957,"current_range_meters":10800,"station_id":"ce4bhbh2rcd13ifvqeqg","pricing_plan_id":"cebpf4jnsgd1na2vs0mg"},{"bike_id":"c56842c6-26cd-4e4e-a9d7-c97acf3b9001","system_id":"levelo_inurba_marseille","lat":43.30085,"lon":5.390856,"is_reserved":false,"is_disabled":false,"rental_uris":{"android":"levelo://app?vid=c56842c6-26cd-4e4e-a9d7-c97acf3b9001","ios":"levelo://app?vid=c56842c6-26cd-4e4e-a9d7-c97acf3b9001"},"vehicle_type_id":"4","last_reported":1716231957,"current_range_meters":24000,"station_id":"ce4bh192rcd13ifvqdb0","pricing_plan_id":"cebpf4jnsgd1na2vs0mg"},{"bike_id":"6d5f8ce5-d46b-46bc-9f73-e60439e555f6","system_id":"levelo_inurba_marseille","lat":43.292205,"lon":5.359754,"is_reserved":false,"is_disabled":false,"rental_uris":{"android":"levelo://app?vid=6d5f8ce5-d46b-46bc-9f73-e60439e555f6","ios":"levelo://app?vid=6d5f8ce5-d46b-46bc-9f73-e60439e555f6"},"vehicle_type_id":"4","last_reported":1716231957,"current_range_meters":20000,"station_id":"","pricing_plan_id":"cebpf4jnsgd1na2vs0mg"},{"bike_id":"9677228e-b2eb-42ad-88ec-c47c22b7101f","system_id":"levelo_inurba_marseille","lat":43.298764,"lon":5.388973,"is_reserved":false,"is_disabled":false,"rental_uris":{"android":"levelo://app?vid=9677228e-b2eb-42ad-88ec-c47c22b7101f","ios":"levelo://app?vid=9677228e-b2eb-42ad-88ec-c47c22b7101f"},"vehicle_type_id":"4","last_reported":1716231957,"current_range_meters":4400,"station_id":"ce4bh392rcd13ifvqdl0","pricing_plan_id":"cebpf4jnsgd1na2vs0mg"},{"bike_id":"fe1786a0-b2f9-48ca-8b4a-88294c165a2f","system_id":"levelo_inurba_marseille","lat":43.298764,"lon":5.388973,"is_reserved":false,"is_disabled":false,"rental_uris":{"android":"levelo://app?vid=fe1786a0-b2f9-48ca-8b4a-88294c165a2f","ios":"levelo://app?vid=fe1786a0-b2f9-48ca-8b4a-88294c165a2f"},"vehicle_type_id":"4","last_reported":1716231957,"current_range_meters":4000,"station_id":"ce4bh392rcd13ifvqdl0","pricing_plan_id":"cebpf4jnsgd1na2vs0mg"},{"bike_id":"d577fbf8-d170-401c-8aa7-41407284ed2d","system_id":"levelo_inurba_marseille","lat":43.298764,"lon":5.388973,"is_reserved":false,"is_disabled":false,"rental_uris":{"android":"levelo://app?vid=d577fbf8-d170-401c-8aa7-41407284ed2d","ios":"levelo://app?vid=d577fbf8-d170-401c-8aa7-41407284ed2d"},"vehicle_type_id":"4","last_reported":1716231957,"current_range_meters":14000,"station_id":"ce4bh392rcd13ifvqdl0","pricing_plan_id":"cebpf4jnsgd1na2vs0mg"},{"bike_id":"5f7d5467-24c5-471a-970a-9bcf09ea56f7","system_id":"levelo_inurba_marseille","lat":43.291671,"lon":5.371575,"is_reserved":false,"is_disabled":false,"rental_uris":{"android":"levelo://app?vid=5f7d5467-24c5-471a-970a-9bcf09ea56f7","ios":"levelo://app?vid=5f7d5467-24c5-471a-970a-9bcf09ea56f7"},"vehicle_type_id":"4","last_reported":1716231957,"current_range_meters":26400,"station_id":"ce4bha92rcd13ifvqeh0","pricing_plan_id":"cebpf4jnsgd1na2vs0mg"},{"bike_id":"4fb60f9e-f0b7-46af-ab66-b2508195f22a","system_id":"levelo_inurba_marseille","lat":43.291671,"lon":5.371575,"is_reserved":false,"is_disabled":false,"rental_uris":{"android":"levelo://app?vid=4fb60f9e-f0b7-46af-ab66-b2508195f22a","ios":"levelo://app?vid=4fb60f9e-f0b7-46af-ab66-b2508195f22a"},"vehicle_type_id":"4","last_reported":1716231957,"current_range_meters":31200,"station_id":"ce4bha92rcd13ifvqeh0","pricing_plan_id":"cebpf4jnsgd1na2vs0mg"},{"bike_id":"2fe778b5-444d-43ff-91fd-e65d147d0932","system_id":"levelo_inurba_marseille","lat":43.291675,"lon":5.371583,"is_reserved":false,"is_disabled":false,"rental_uris":{"android":"levelo://app?vid=2fe778b5-444d-43ff-91fd-e65d147d0932","ios":"levelo://app?vid=2fe778b5-444d-43ff-91fd-e65d147d0932"},"vehicle_type_id":"4","last_reported":1716231957,"current_range_meters":11200,"station_id":"ce4bha92rcd13ifvqeh0","pricing_plan_id":"cebpf4jnsgd1na2vs0mg"},{"bike_id":"bd6d4c02-caf5-43d5-bd6a-3bb888fb82dd","system_id":"levelo_inurba_marseille","lat":43.29867,"lon":5.38908,"is_reserved":false,"is_disabled":false,"rental_uris":{"android":"levelo://app?vid=bd6d4c02-caf5-43d5-bd6a-3bb888fb82dd","ios":"levelo://app?vid=bd6d4c02-caf5-43d5-bd6a-3bb888fb82dd"},"vehicle_type_id":"4","last_reported":1716231957,"current_range_meters":15600,"station_id":"ce4bh392rcd13ifvqdl0","pricing_plan_id":"cebpf4jnsgd1na2vs0mg"},{"bike_id":"e4502312-9069-41c4-81c9-3ce3e7906bbd","system_id":"levelo_inurba_marseille","lat":43.29529,"lon":5.385581,"is_reserved":false,"is_disabled":false,"rental_uris":{"android":"levelo://app?vid=e4502312-9069-41c4-81c9-3ce3e7906bbd","ios":"levelo://app?vid=e4502312-9069-41c4-81c9-3ce3e7906bbd"},"vehicle_type_id":"4","last_reported":1716231957,"current_range_meters":20800,"station_id":"ce4bgih2rcd13ifvqba0","pricing_plan_id":"cebpf4jnsgd1na2vs0mg"},{"bike_id":"3f8789b8-8734-4430-be1a-d31cd1b3ccff","system_id":"levelo_inurba_marseille","lat":43.309038,"lon":5.396546,"is_reserved":false,"is_disabled":false,"rental_uris":{"android":"levelo://app?vid=3f8789b8-8734-4430-be1a-d31cd1b3ccff","ios":"levelo://app?vid=3f8789b8-8734-4430-be1a-d31cd1b3ccff"},"vehicle_type_id":"4","last_reported":1716231957,"current_range_meters":400,"station_id":"ce4bh012rcd13ifvqcv0","pricing_plan_id":"cebpf4jnsgd1na2vs0mg"},{"bike_id":"be9c4b68-c0bc-4260-b2c4-b238275ba2c4","system_id":"levelo_inurba_marseille","lat":43.30887,"lon":5.39632,"is_reserved":false,"is_disabled":false,"rental_uris":{"android":"levelo://app?vid=be9c4b68-c0bc-4260-b2c4-b238275ba2c4","ios":"levelo://app?vid=be9c4b68-c0bc-4260-b2c4-b238275ba2c4"},"vehicle_type_id":"4","last_reported":1716231957,"current_range_meters":25200,"station_id":"ce4bh012rcd13ifvqcv0","pricing_plan_id":"cebpf4jnsgd1na2vs0mg"},{"bike_id":"27f89cec-ec73-4e81-8ecb-e931afcdef17","system_id":"levelo_inurba_marseille","lat":43.308971,"lon":5.396353,"is_reserved":false,"is_disabled":false,"rental_uris":{"android":"levelo://app?vid=27f89cec-ec73-4e81-8ecb-e931afcdef17","ios":"levelo://app?vid=27f89cec-ec73-4e81-8ecb-e931afcdef17"},"vehicle_type_id":"4","last_reported":1716231957,"current_range_meters":6800,"station_id":"ce4bh012rcd13ifvqcv0","pricing_plan_id":"cebpf4jnsgd1na2vs0mg"},{"bike_id":"597affba-b0c2-4ae8-97a1-0cd6d4876419","system_id":"levelo_inurba_marseille","lat":43.291994,"lon":5.357886,"is_reserved":false,"is_disabled":false,"rental_uris":{"android":"levelo://app?vid=597affba-b0c2-4ae8-97a1-0cd6d4876419","ios":"levelo://app?vid=597affba-b0c2-4ae8-97a1-0cd6d4876419"},"vehicle_type_id":"4","last_reported":1716231957,"current_range_meters":9600,"station_id":"ce4bhb12rcd13ifvqel0","pricing_plan_id":"cebpf4jnsgd1na2vs0mg"},{"bike_id":"29874e61-b4bb-4dc3-9a75-43e214f827f6","system_id":"levelo_inurba_marseille","lat":43.309038,"lon":5.396546,"is_reserved":false,"is_disabled":false,"rental_uris":{"android":"levelo://app?vid=29874e61-b4bb-4dc3-9a75-43e214f827f6","ios":"levelo://app?vid=29874e61-b4bb-4dc3-9a75-43e214f827f6"},"vehicle_type_id":"4","last_reported":1716231957,"current_range_meters":22400,"station_id":"ce4bh012rcd13ifvqcv0","pricing_plan_id":"cebpf4jnsgd1na2vs0mg"},{"bike_id":"0fb2c701-a185-4671-8941-e4d39be2a461","system_id":"levelo_inurba_marseille","lat":43.292005,"lon":5.357875,"is_reserved":false,"is_disabled":false,"rental_uris":{"android":"levelo://app?vid=0fb2c701-a185-4671-8941-e4d39be2a461","ios":"levelo://app?vid=0fb2c701-a185-4671-8941-e4d39be2a461"},"vehicle_type_id":"4","last_reported":1716231957,"current_range_meters":4800,"station_id":"ce4bhb12rcd13ifvqel0","pricing_plan_id":"cebpf4jnsgd1na2vs0mg"},{"bike_id":"2affbb5f-e3ec-4785-9458-ac8b83ed9da0","system_id":"levelo_inurba_marseille","lat":43.309038,"lon":5.396546,"is_reserved":false,"is_disabled":false,"rental_uris":{"android":"levelo://app?vid=2affbb5f-e3ec-4785-9458-ac8b83ed9da0","ios":"levelo://app?vid=2affbb5f-e3ec-4785-9458-ac8b83ed9da0"},"vehicle_type_id":"4","last_reported":1716231957,"current_range_meters":22400,"station_id":"ce4bh012rcd13ifvqcv0","pricing_plan_id":"cebpf4jnsgd1na2vs0mg"},{"bike_id":"6f66324f-dfbb-4ca9-9496-1bd161a0f17a","system_id":"levelo_inurba_marseille","lat":43.292005,"lon":5.357875,"is_reserved":false,"is_disabled":false,"rental_uris":{"android":"levelo://app?vid=6f66324f-dfbb-4ca9-9496-1bd161a0f17a","ios":"levelo://app?vid=6f66324f-dfbb-4ca9-9496-1bd161a0f17a"},"vehicle_type_id":"4","last_reported":1716231957,"current_range_meters":3600,"station_id":"ce4bhb12rcd13ifvqel0","pricing_plan_id":"cebpf4jnsgd1na2vs0mg"},{"bike_id":"d2037d00-d2e7-46b2-baa3-e940441b9098","system_id":"levelo_inurba_marseille","lat":43.291994,"lon":5.357886,"is_reserved":false,"is_disabled":false,"rental_uris":{"android":"levelo://app?vid=d2037d00-d2e7-46b2-baa3-e940441b9098","ios":"levelo://app?vid=d2037d00-d2e7-46b2-baa3-e940441b9098"},"vehicle_type_id":"4","last_reported":1716231957,"current_range_meters":0,"station_id":"ce4bhb12rcd13ifvqel0","pricing_plan_id":"cebpf4jnsgd1na2vs0mg"},{"bike_id":"8440e83a-48d4-4ccb-8c32-d6320acff015","system_id":"levelo_inurba_marseille","lat":43.313291,"lon":5.396838,"is_reserved":false,"is_disabled":false,"rental_uris":{"android":"levelo://app?vid=8440e83a-48d4-4ccb-8c32-d6320acff015","ios":"levelo://app?vid=8440e83a-48d4-4ccb-8c32-d6320acff015"},"vehicle_type_id":"4","last_reported":1716231957,"current_range_meters":20400,"station_id":"ce4bgvp2rcd13ifvqcu0","pricing_plan_id":"cebpf4jnsgd1na2vs0mg"},{"bike_id":"529852d2-afd8-4a33-86fd-b55517fd063e","system_id":"levelo_inurba_marseille","lat":43.313291,"lon":5.396838,"is_reserved":false,"is_disabled":false,"rental_uris":{"android":"levelo://app?vid=529852d2-afd8-4a33-86fd-b55517fd063e","ios":"levelo://app?vid=529852d2-afd8-4a33-86fd-b55517fd063e"},"vehicle_type_id":"4","last_reported":1716231957,"current_range_meters":7600,"station_id":"ce4bgvp2rcd13ifvqcu0","pricing_plan_id":"cebpf4jnsgd1na2vs0mg"},{"bike_id":"5ce8be43-9e96-4c04-84d6-ff3875da247a","system_id":"levelo_inurba_marseille","lat":43.313291,"lon":5.396838,"is_reserved":false,"is_disabled":false,"rental_uris":{"android":"levelo://app?vid=5ce8be43-9e96-4c04-84d6-ff3875da247a","ios":"levelo://app?vid=5ce8be43-9e96-4c04-84d6-ff3875da247a"},"vehicle_type_id":"4","last_reported":1716231957,"current_range_meters":26400,"station_id":"ce4bgvp2rcd13ifvqcu0","pricing_plan_id":"cebpf4jnsgd1na2vs0mg"},{"bike_id":"8856ad23-83f4-4971-a8c5-1329f8425f3f","system_id":"levelo_inurba_marseille","lat":43.309047,"lon":5.396551,"is_reserved":false,"is_disabled":false,"rental_uris":{"android":"levelo://app?vid=8856ad23-83f4-4971-a8c5-1329f8425f3f","ios":"levelo://app?vid=8856ad23-83f4-4971-a8c5-1329f8425f3f"},"vehicle_type_id":"4","last_reported":1716231957,"current_range_meters":26400,"station_id":"ce4bh012rcd13ifvqcv0","pricing_plan_id":"cebpf4jnsgd1na2vs0mg"},{"bike_id":"c148bad8-e871-4237-9410-bc1de049a9bd","system_id":"levelo_inurba_marseille","lat":43.308797,"lon":5.396499,"is_reserved":false,"is_disabled":false,"rental_uris":{"android":"levelo://app?vid=c148bad8-e871-4237-9410-bc1de049a9bd","ios":"levelo://app?vid=c148bad8-e871-4237-9410-bc1de049a9bd"},"vehicle_type_id":"4","last_reported":1716231957,"current_range_meters":19600,"station_id":"ce4bh012rcd13ifvqcv0","pricing_plan_id":"cebpf4jnsgd1na2vs0mg"},{"bike_id":"63add58d-c501-4845-8795-9c941b6b7b7a","system_id":"levelo_inurba_marseille","lat":43.313291,"lon":5.396838,"is_reserved":false,"is_disabled":false,"rental_uris":{"android":"levelo://app?vid=63add58d-c501-4845-8795-9c941b6b7b7a","ios":"levelo://app?vid=63add58d-c501-4845-8795-9c941b6b7b7a"},"vehicle_type_id":"4","last_reported":1716231957,"current_range_meters":24400,"station_id":"ce4bgvp2rcd13ifvqcu0","pricing_plan_id":"cebpf4jnsgd1na2vs0mg"},{"bike_id":"b03850d4-2525-4483-bf41-ed760dcf92dd","system_id":"levelo_inurba_marseille","lat":43.313291,"lon":5.396838,"is_reserved":false,"is_disabled":false,"rental_uris":{"android":"levelo://app?vid=b03850d4-2525-4483-bf41-ed760dcf92dd","ios":"levelo://app?vid=b03850d4-2525-4483-bf41-ed760dcf92dd"},"vehicle_type_id":"4","last_reported":1716231957,"current_range_meters":12400,"station_id":"ce4bgvp2rcd13ifvqcu0","pricing_plan_id":"cebpf4jnsgd1na2vs0mg"},{"bike_id":"7f182f90-ee13-4500-b46c-2b4aaf8dea57","system_id":"levelo_inurba_marseille","lat":43.309038,"lon":5.396546,"is_reserved":false,"is_disabled":false,"rental_uris":{"android":"levelo://app?vid=7f182f90-ee13-4500-b46c-2b4aaf8dea57","ios":"levelo://app?vid=7f182f90-ee13-4500-b46c-2b4aaf8dea57"},"vehicle_type_id":"4","last_reported":1716231957,"current_range_meters":4000,"station_id":"ce4bh012rcd13ifvqcv0","pricing_plan_id":"cebpf4jnsgd1na2vs0mg"},{"bike_id":"20795824-3eb6-41e5-bab8-562a7a838bea","system_id":"levelo_inurba_marseille","lat":43.309038,"lon":5.396546,"is_reserved":false,"is_disabled":false,"rental_uris":{"android":"levelo://app?vid=20795824-3eb6-41e5-bab8-562a7a838bea","ios":"levelo://app?vid=20795824-3eb6-41e5-bab8-562a7a838bea"},"vehicle_type_id":"4","last_reported":1716231957,"current_range_meters":23200,"station_id":"ce4bh012rcd13ifvqcv0","pricing_plan_id":"cebpf4jnsgd1na2vs0mg"},{"bike_id":"b3999ba4-9974-4044-88ab-9bc902c3dd58","system_id":"levelo_inurba_marseille","lat":43.308872,"lon":5.396544,"is_reserved":false,"is_disabled":false,"rental_uris":{"android":"levelo://app?vid=b3999ba4-9974-4044-88ab-9bc902c3dd58","ios":"levelo://app?vid=b3999ba4-9974-4044-88ab-9bc902c3dd58"},"vehicle_type_id":"4","last_reported":1716231957,"current_range_meters":5200,"station_id":"ce4bh012rcd13ifvqcv0","pricing_plan_id":"cebpf4jnsgd1na2vs0mg"},{"bike_id":"4b90ca5d-d9b8-4490-ba92-803e63181438","system_id":"levelo_inurba_marseille","lat":43.309038,"lon":5.396546,"is_reserved":false,"is_disabled":false,"rental_uris":{"android":"levelo://app?vid=4b90ca5d-d9b8-4490-ba92-803e63181438","ios":"levelo://app?vid=4b90ca5d-d9b8-4490-ba92-803e63181438"},"vehicle_type_id":"4","last_reported":1716231957,"current_range_meters":18000,"station_id":"ce4bh012rcd13ifvqcv0","pricing_plan_id":"cebpf4jnsgd1na2vs0mg"},{"bike_id":"4c8960ce-efea-4863-916c-5b6e6ef3666e","system_id":"levelo_inurba_marseille","lat":43.309038,"lon":5.396546,"is_reserved":false,"is_disabled":false,"rental_uris":{"android":"levelo://app?vid=4c8960ce-efea-4863-916c-5b6e6ef3666e","ios":"levelo://app?vid=4c8960ce-efea-4863-916c-5b6e6ef3666e"},"vehicle_type_id":"4","last_reported":1716231957,"current_range_meters":5600,"station_id":"ce4bh012rcd13ifvqcv0","pricing_plan_id":"cebpf4jnsgd1na2vs0mg"},{"bike_id":"4d147f01-fdbc-4de7-acd7-941ed977fd9e","system_id":"levelo_inurba_marseille","lat":43.309038,"lon":5.396546,"is_reserved":false,"is_disabled":false,"rental_uris":{"android":"levelo://app?vid=4d147f01-fdbc-4de7-acd7-941ed977fd9e","ios":"levelo://app?vid=4d147f01-fdbc-4de7-acd7-941ed977fd9e"},"vehicle_type_id":"4","last_reported":1716231957,"current_range_meters":24800,"station_id":"ce4bh012rcd13ifvqcv0","pricing_plan_id":"cebpf4jnsgd1na2vs0mg"},{"bike_id":"ca26142b-3189-488d-be31-bc7ce2731b4c","system_id":"levelo_inurba_marseille","lat":43.29529,"lon":5.385581,"is_reserved":false,"is_disabled":false,"rental_uris":{"android":"levelo://app?vid=ca26142b-3189-488d-be31-bc7ce2731b4c","ios":"levelo://app?vid=ca26142b-3189-488d-be31-bc7ce2731b4c"},"vehicle_type_id":"4","last_reported":1716231957,"current_range_meters":10800,"station_id":"ce4bgih2rcd13ifvqba0","pricing_plan_id":"cebpf4jnsgd1na2vs0mg"},{"bike_id":"9df6c7ef-283e-4426-aa39-7c54f4d12d6b","system_id":"levelo_inurba_marseille","lat":43.29529,"lon":5.385581,"is_reserved":false,"is_disabled":false,"rental_uris":{"android":"levelo://app?vid=9df6c7ef-283e-4426-aa39-7c54f4d12d6b","ios":"levelo://app?vid=9df6c7ef-283e-4426-aa39-7c54f4d12d6b"},"vehicle_type_id":"4","last_reported":1716231957,"current_range_meters":4000,"station_id":"ce4bgih2rcd13ifvqba0","pricing_plan_id":"cebpf4jnsgd1na2vs0mg"},{"bike_id":"5a3f0cd8-724b-47c9-931f-f84837e4f224","system_id":"levelo_inurba_marseille","lat":43.29529,"lon":5.385581,"is_reserved":false,"is_disabled":false,"rental_uris":{"android":"levelo://app?vid=5a3f0cd8-724b-47c9-931f-f84837e4f224","ios":"levelo://app?vid=5a3f0cd8-724b-47c9-931f-f84837e4f224"},"vehicle_type_id":"4","last_reported":1716231957,"current_range_meters":23600,"station_id":"ce4bgih2rcd13ifvqba0","pricing_plan_id":"cebpf4jnsgd1na2vs0mg"},{"bike_id":"735c5c3d-68db-422d-bd31-5aaac407e883","system_id":"levelo_inurba_marseille","lat":43.29529,"lon":5.385581,"is_reserved":false,"is_disabled":false,"rental_uris":{"android":"levelo://app?vid=735c5c3d-68db-422d-bd31-5aaac407e883","ios":"levelo://app?vid=735c5c3d-68db-422d-bd31-5aaac407e883"},"vehicle_type_id":"4","last_reported":1716231957,"current_range_meters":31600,"station_id":"ce4bgih2rcd13ifvqba0","pricing_plan_id":"cebpf4jnsgd1na2vs0mg"},{"bike_id":"03d2c921-2f68-4f1e-9c28-830aa7076ede","system_id":"levelo_inurba_marseille","lat":43.29529,"lon":5.385581,"is_reserved":false,"is_disabled":false,"rental_uris":{"android":"levelo://app?vid=03d2c921-2f68-4f1e-9c28-830aa7076ede","ios":"levelo://app?vid=03d2c921-2f68-4f1e-9c28-830aa7076ede"},"vehicle_type_id":"4","last_reported":1716231957,"current_range_meters":31200,"station_id":"ce4bgih2rcd13ifvqba0","pricing_plan_id":"cebpf4jnsgd1na2vs0mg"},{"bike_id":"091b4b5e-da0e-48d7-9e77-d8f7d04dca7e","system_id":"levelo_inurba_marseille","lat":43.29529,"lon":5.385581,"is_reserved":false,"is_disabled":false,"rental_uris":{"android":"levelo://app?vid=091b4b5e-da0e-48d7-9e77-d8f7d04dca7e","ios":"levelo://app?vid=091b4b5e-da0e-48d7-9e77-d8f7d04dca7e"},"vehicle_type_id":"4","last_reported":1716231957,"current_range_meters":21600,"station_id":"ce4bgih2rcd13ifvqba0","pricing_plan_id":"cebpf4jnsgd1na2vs0mg"},{"bike_id":"9df56f76-143a-4bc3-a6eb-287f0f1b9797","system_id":"levelo_inurba_marseille","lat":43.29529,"lon":5.385581,"is_reserved":false,"is_disabled":false,"rental_uris":{"android":"levelo://app?vid=9df56f76-143a-4bc3-a6eb-287f0f1b9797","ios":"levelo://app?vid=9df56f76-143a-4bc3-a6eb-287f0f1b9797"},"vehicle_type_id":"4","last_reported":1716231957,"current_range_meters":24400,"station_id":"ce4bgih2rcd13ifvqba0","pricing_plan_id":"cebpf4jnsgd1na2vs0mg"},{"bike_id":"06c6329b-cdd0-4336-b083-ae20d1a8df0a","system_id":"levelo_inurba_marseille","lat":43.29529,"lon":5.385581,"is_reserved":false,"is_disabled":false,"rental_uris":{"android":"levelo://app?vid=06c6329b-cdd0-4336-b083-ae20d1a8df0a","ios":"levelo://app?vid=06c6329b-cdd0-4336-b083-ae20d1a8df0a"},"vehicle_type_id":"4","last_reported":1716231957,"current_range_meters":6000,"station_id":"ce4bgih2rcd13ifvqba0","pricing_plan_id":"cebpf4jnsgd1na2vs0mg"},{"bike_id":"1c046ec5-1bec-4dd0-a1b5-d2275c9a99df","system_id":"levelo_inurba_marseille","lat":43.29529,"lon":5.385581,"is_reserved":false,"is_disabled":false,"rental_uris":{"android":"levelo://app?vid=1c046ec5-1bec-4dd0-a1b5-d2275c9a99df","ios":"levelo://app?vid=1c046ec5-1bec-4dd0-a1b5-d2275c9a99df"},"vehicle_type_id":"4","last_reported":1716231957,"current_range_meters":13200,"station_id":"ce4bgih2rcd13ifvqba0","pricing_plan_id":"cebpf4jnsgd1na2vs0mg"},{"bike_id":"b0ca0454-7648-4b92-b946-4e0927479102","system_id":"levelo_inurba_marseille","lat":43.29529,"lon":5.385581,"is_reserved":false,"is_disabled":false,"rental_uris":{"android":"levelo://app?vid=b0ca0454-7648-4b92-b946-4e0927479102","ios":"levelo://app?vid=b0ca0454-7648-4b92-b946-4e0927479102"},"vehicle_type_id":"4","last_reported":1716231957,"current_range_meters":12800,"station_id":"ce4bgih2rcd13ifvqba0","pricing_plan_id":"cebpf4jnsgd1na2vs0mg"},{"bike_id":"cb92d645-ca99-44dc-ab2f-f638e2d3cc36","system_id":"levelo_inurba_marseille","lat":43.29529,"lon":5.385581,"is_reserved":false,"is_disabled":false,"rental_uris":{"android":"levelo://app?vid=cb92d645-ca99-44dc-ab2f-f638e2d3cc36","ios":"levelo://app?vid=cb92d645-ca99-44dc-ab2f-f638e2d3cc36"},"vehicle_type_id":"4","last_reported":1716231957,"current_range_meters":26000,"station_id":"ce4bgih2rcd13ifvqba0","pricing_plan_id":"cebpf4jnsgd1na2vs0mg"},{"bike_id":"203a189d-f310-463f-bd66-d2dfd3fadfea","system_id":"levelo_inurba_marseille","lat":43.29529,"lon":5.385581,"is_reserved":false,"is_disabled":false,"rental_uris":{"android":"levelo://app?vid=203a189d-f310-463f-bd66-d2dfd3fadfea","ios":"levelo://app?vid=203a189d-f310-463f-bd66-d2dfd3fadfea"},"vehicle_type_id":"4","last_reported":1716231957,"current_range_meters":4400,"station_id":"ce4bgih2rcd13ifvqba0","pricing_plan_id":"cebpf4jnsgd1na2vs0mg"},{"bike_id":"c7709e16-78bf-4d56-abf9-29319947abe5","system_id":"levelo_inurba_marseille","lat":43.29529,"lon":5.385581,"is_reserved":false,"is_disabled":false,"rental_uris":{"android":"levelo://app?vid=c7709e16-78bf-4d56-abf9-29319947abe5","ios":"levelo://app?vid=c7709e16-78bf-4d56-abf9-29319947abe5"},"vehicle_type_id":"4","last_reported":1716231957,"current_range_meters":0,"station_id":"ce4bgih2rcd13ifvqba0","pricing_plan_id":"cebpf4jnsgd1na2vs0mg"},{"bike_id":"f4a13afd-69bd-46f1-886f-a1ab52ad7f85","system_id":"levelo_inurba_marseille","lat":43.29529,"lon":5.385581,"is_reserved":false,"is_disabled":false,"rental_uris":{"android":"levelo://app?vid=f4a13afd-69bd-46f1-886f-a1ab52ad7f85","ios":"levelo://app?vid=f4a13afd-69bd-46f1-886f-a1ab52ad7f85"},"vehicle_type_id":"4","last_reported":1716231957,"current_range_meters":20800,"station_id":"ce4bgih2rcd13ifvqba0","pricing_plan_id":"cebpf4jnsgd1na2vs0mg"},{"bike_id":"085743a2-f40b-488b-a9ab-3b3a243ad595","system_id":"levelo_inurba_marseille","lat":43.29529,"lon":5.385581,"is_reserved":false,"is_disabled":false,"rental_uris":{"android":"levelo://app?vid=085743a2-f40b-488b-a9ab-3b3a243ad595","ios":"levelo://app?vid=085743a2-f40b-488b-a9ab-3b3a243ad595"},"vehicle_type_id":"4","last_reported":1716231957,"current_range_meters":18000,"station_id":"ce4bgih2rcd13ifvqba0","pricing_plan_id":"cebpf4jnsgd1na2vs0mg"},{"bike_id":"9f927b45-bedd-4b4b-9a30-c37768a22c27","system_id":"levelo_inurba_marseille","lat":43.29529,"lon":5.385581,"is_reserved":false,"is_disabled":false,"rental_uris":{"android":"levelo://app?vid=9f927b45-bedd-4b4b-9a30-c37768a22c27","ios":"levelo://app?vid=9f927b45-bedd-4b4b-9a30-c37768a22c27"},"vehicle_type_id":"4","last_reported":1716231957,"current_range_meters":15200,"station_id":"ce4bgih2rcd13ifvqba0","pricing_plan_id":"cebpf4jnsgd1na2vs0mg"},{"bike_id":"23f57e40-fe83-49e5-a796-529faf2d95ef","system_id":"levelo_inurba_marseille","lat":43.29529,"lon":5.385581,"is_reserved":false,"is_disabled":false,"rental_uris":{"android":"levelo://app?vid=23f57e40-fe83-49e5-a796-529faf2d95ef","ios":"levelo://app?vid=23f57e40-fe83-49e5-a796-529faf2d95ef"},"vehicle_type_id":"4","last_reported":1716231957,"current_range_meters":30000,"station_id":"ce4bgih2rcd13ifvqba0","pricing_plan_id":"cebpf4jnsgd1na2vs0mg"},{"bike_id":"d620b3d0-1e3e-4eb3-b6d7-2a02ebf7093d","system_id":"levelo_inurba_marseille","lat":43.29529,"lon":5.385581,"is_reserved":false,"is_disabled":false,"rental_uris":{"android":"levelo://app?vid=d620b3d0-1e3e-4eb3-b6d7-2a02ebf7093d","ios":"levelo://app?vid=d620b3d0-1e3e-4eb3-b6d7-2a02ebf7093d"},"vehicle_type_id":"4","last_reported":1716231957,"current_range_meters":24000,"station_id":"ce4bgih2rcd13ifvqba0","pricing_plan_id":"cebpf4jnsgd1na2vs0mg"},{"bike_id":"ef36d4eb-3548-46e8-9234-96b9f9d81799","system_id":"levelo_inurba_marseille","lat":43.293742,"lon":5.382352,"is_reserved":false,"is_disabled":false,"rental_uris":{"android":"levelo://app?vid=ef36d4eb-3548-46e8-9234-96b9f9d81799","ios":"levelo://app?vid=ef36d4eb-3548-46e8-9234-96b9f9d81799"},"vehicle_type_id":"4","last_reported":1716231957,"current_range_meters":0,"station_id":"","pricing_plan_id":"cebpf4jnsgd1na2vs0mg"},{"bike_id":"750b4586-c013-47dd-ab99-7664c5ded4a5","system_id":"levelo_inurba_marseille","lat":43.29529,"lon":5.385581,"is_reserved":false,"is_disabled":false,"rental_uris":{"android":"levelo://app?vid=750b4586-c013-47dd-ab99-7664c5ded4a5","ios":"levelo://app?vid=750b4586-c013-47dd-ab99-7664c5ded4a5"},"vehicle_type_id":"4","last_reported":1716231957,"current_range_meters":25200,"station_id":"ce4bgih2rcd13ifvqba0","pricing_plan_id":"cebpf4jnsgd1na2vs0mg"},{"bike_id":"562f76c3-c67d-4beb-a7a6-fee64dd9f160","system_id":"levelo_inurba_marseille","lat":43.29529,"lon":5.385581,"is_reserved":false,"is_disabled":false,"rental_uris":{"android":"levelo://app?vid=562f76c3-c67d-4beb-a7a6-fee64dd9f160","ios":"levelo://app?vid=562f76c3-c67d-4beb-a7a6-fee64dd9f160"},"vehicle_type_id":"4","last_reported":1716231957,"current_range_meters":7200,"station_id":"ce4bgih2rcd13ifvqba0","pricing_plan_id":"cebpf4jnsgd1na2vs0mg"},{"bike_id":"eee78c18-83e1-4e58-a38e-84cf00e567f7","system_id":"levelo_inurba_marseille","lat":43.29529,"lon":5.385581,"is_reserved":false,"is_disabled":false,"rental_uris":{"android":"levelo://app?vid=eee78c18-83e1-4e58-a38e-84cf00e567f7","ios":"levelo://app?vid=eee78c18-83e1-4e58-a38e-84cf00e567f7"},"vehicle_type_id":"4","last_reported":1716231957,"current_range_meters":21600,"station_id":"ce4bgih2rcd13ifvqba0","pricing_plan_id":"cebpf4jnsgd1na2vs0mg"},{"bike_id":"23da4f5d-a86c-4ba3-ae5c-9b1dfeadf367","system_id":"levelo_inurba_marseille","lat":43.290779,"lon":5.371482,"is_reserved":false,"is_disabled":false,"rental_uris":{"android":"levelo://app?vid=23da4f5d-a86c-4ba3-ae5c-9b1dfeadf367","ios":"levelo://app?vid=23da4f5d-a86c-4ba3-ae5c-9b1dfeadf367"},"vehicle_type_id":"4","last_reported":1716231957,"current_range_meters":23600,"station_id":"ce4bh5p2rcd13ifvqe4g","pricing_plan_id":"cebpf4jnsgd1na2vs0mg"},{"bike_id":"172c1eb8-263b-4ab5-afce-332e745a9500","system_id":"levelo_inurba_marseille","lat":43.290779,"lon":5.371482,"is_reserved":false,"is_disabled":false,"rental_uris":{"android":"levelo://app?vid=172c1eb8-263b-4ab5-afce-332e745a9500","ios":"levelo://app?vid=172c1eb8-263b-4ab5-afce-332e745a9500"},"vehicle_type_id":"4","last_reported":1716231957,"current_range_meters":4000,"station_id":"ce4bh5p2rcd13ifvqe4g","pricing_plan_id":"cebpf4jnsgd1na2vs0mg"},{"bike_id":"a4a27501-fb54-4f3f-8bec-b00f8bc1bc7a","system_id":"levelo_inurba_marseille","lat":43.290779,"lon":5.371482,"is_reserved":false,"is_disabled":false,"rental_uris":{"android":"levelo://app?vid=a4a27501-fb54-4f3f-8bec-b00f8bc1bc7a","ios":"levelo://app?vid=a4a27501-fb54-4f3f-8bec-b00f8bc1bc7a"},"vehicle_type_id":"4","last_reported":1716231957,"current_range_meters":19600,"station_id":"ce4bh5p2rcd13ifvqe4g","pricing_plan_id":"cebpf4jnsgd1na2vs0mg"},{"bike_id":"81ba84df-fa1a-4dd9-8f9d-f48f04d63f21","system_id":"levelo_inurba_marseille","lat":43.290779,"lon":5.371482,"is_reserved":false,"is_disabled":false,"rental_uris":{"android":"levelo://app?vid=81ba84df-fa1a-4dd9-8f9d-f48f04d63f21","ios":"levelo://app?vid=81ba84df-fa1a-4dd9-8f9d-f48f04d63f21"},"vehicle_type_id":"4","last_reported":1716231957,"current_range_meters":8000,"station_id":"ce4bh5p2rcd13ifvqe4g","pricing_plan_id":"cebpf4jnsgd1na2vs0mg"},{"bike_id":"671da71f-7346-43c2-8004-2b9d32090c03","system_id":"levelo_inurba_marseille","lat":43.290624,"lon":5.359245,"is_reserved":false,"is_disabled":false,"rental_uris":{"android":"levelo://app?vid=671da71f-7346-43c2-8004-2b9d32090c03","ios":"levelo://app?vid=671da71f-7346-43c2-8004-2b9d32090c03"},"vehicle_type_id":"4","last_reported":1716231957,"current_range_meters":17600,"station_id":"ce4bha92rcd13ifvqeg0","pricing_plan_id":"cebpf4jnsgd1na2vs0mg"},{"bike_id":"05d242ae-9a13-4c4e-adbb-ac908637dd62","system_id":"levelo_inurba_marseille","lat":43.290779,"lon":5.371482,"is_reserved":false,"is_disabled":false,"rental_uris":{"android":"levelo://app?vid=05d242ae-9a13-4c4e-adbb-ac908637dd62","ios":"levelo://app?vid=05d242ae-9a13-4c4e-adbb-ac908637dd62"},"vehicle_type_id":"4","last_reported":1716231957,"current_range_meters":0,"station_id":"ce4bh5p2rcd13ifvqe4g","pricing_plan_id":"cebpf4jnsgd1na2vs0mg"},{"bike_id":"ed447cc0-586a-4620-b9bd-8a588dd8c30f","system_id":"levelo_inurba_marseille","lat":43.302008,"lon":5.394694,"is_reserved":false,"is_disabled":false,"rental_uris":{"android":"levelo://app?vid=ed447cc0-586a-4620-b9bd-8a588dd8c30f","ios":"levelo://app?vid=ed447cc0-586a-4620-b9bd-8a588dd8c30f"},"vehicle_type_id":"4","last_reported":1716231957,"current_range_meters":1600,"station_id":"ce4bh0p2rcd13ifvqd70","pricing_plan_id":"cebpf4jnsgd1na2vs0mg"},{"bike_id":"e813c5c2-1bd9-479d-b376-7590702f7510","system_id":"levelo_inurba_marseille","lat":43.302008,"lon":5.394694,"is_reserved":false,"is_disabled":false,"rental_uris":{"android":"levelo://app?vid=e813c5c2-1bd9-479d-b376-7590702f7510","ios":"levelo://app?vid=e813c5c2-1bd9-479d-b376-7590702f7510"},"vehicle_type_id":"4","last_reported":1716231957,"current_range_meters":2400,"station_id":"ce4bh0p2rcd13ifvqd70","pricing_plan_id":"cebpf4jnsgd1na2vs0mg"},{"bike_id":"4adc29b1-6db0-4fb6-991d-cd27cce6d2ea","system_id":"levelo_inurba_marseille","lat":43.3021,"lon":5.3947,"is_reserved":false,"is_disabled":false,"rental_uris":{"android":"levelo://app?vid=4adc29b1-6db0-4fb6-991d-cd27cce6d2ea","ios":"levelo://app?vid=4adc29b1-6db0-4fb6-991d-cd27cce6d2ea"},"vehicle_type_id":"4","last_reported":1716231957,"current_range_meters":0,"station_id":"ce4bh0p2rcd13ifvqd70","pricing_plan_id":"cebpf4jnsgd1na2vs0mg"},{"bike_id":"fe4076db-d026-49b9-a9bc-f40a8f2979bc","system_id":"levelo_inurba_marseille","lat":43.302008,"lon":5.394694,"is_reserved":false,"is_disabled":false,"rental_uris":{"android":"levelo://app?vid=fe4076db-d026-49b9-a9bc-f40a8f2979bc","ios":"levelo://app?vid=fe4076db-d026-49b9-a9bc-f40a8f2979bc"},"vehicle_type_id":"4","last_reported":1716231957,"current_range_meters":28400,"station_id":"ce4bh0p2rcd13ifvqd70","pricing_plan_id":"cebpf4jnsgd1na2vs0mg"},{"bike_id":"765b9854-f9e3-47fa-a8b4-199d65732eae","system_id":"levelo_inurba_marseille","lat":43.289184,"lon":5.366408,"is_reserved":false,"is_disabled":false,"rental_uris":{"android":"levelo://app?vid=765b9854-f9e3-47fa-a8b4-199d65732eae","ios":"levelo://app?vid=765b9854-f9e3-47fa-a8b4-199d65732eae"},"vehicle_type_id":"4","last_reported":1716231957,"current_range_meters":1600,"station_id":"ce4bhap2rcd13ifvqek0","pricing_plan_id":"cebpf4jnsgd1na2vs0mg"},{"bike_id":"b2508cd9-ea21-409e-801f-03bb8b457615","system_id":"levelo_inurba_marseille","lat":43.290624,"lon":5.359245,"is_reserved":false,"is_disabled":false,"rental_uris":{"android":"levelo://app?vid=b2508cd9-ea21-409e-801f-03bb8b457615","ios":"levelo://app?vid=b2508cd9-ea21-409e-801f-03bb8b457615"},"vehicle_type_id":"4","last_reported":1716231957,"current_range_meters":2000,"station_id":"ce4bha92rcd13ifvqeg0","pricing_plan_id":"cebpf4jnsgd1na2vs0mg"},{"bike_id":"b127dd6d-91ce-40cc-b059-385d2f6e6263","system_id":"levelo_inurba_marseille","lat":43.302008,"lon":5.394694,"is_reserved":false,"is_disabled":false,"rental_uris":{"android":"levelo://app?vid=b127dd6d-91ce-40cc-b059-385d2f6e6263","ios":"levelo://app?vid=b127dd6d-91ce-40cc-b059-385d2f6e6263"},"vehicle_type_id":"4","last_reported":1716231957,"current_range_meters":24800,"station_id":"ce4bh0p2rcd13ifvqd70","pricing_plan_id":"cebpf4jnsgd1na2vs0mg"},{"bike_id":"5a7b268d-50c6-49ec-a7f1-03123063d381","system_id":"levelo_inurba_marseille","lat":43.293009,"lon":5.374584,"is_reserved":false,"is_disabled":false,"rental_uris":{"android":"levelo://app?vid=5a7b268d-50c6-49ec-a7f1-03123063d381","ios":"levelo://app?vid=5a7b268d-50c6-49ec-a7f1-03123063d381"},"vehicle_type_id":"4","last_reported":1716231957,"current_range_meters":0,"station_id":"ce4bgi12rcd13ifvqb70","pricing_plan_id":"cebpf4jnsgd1na2vs0mg"},{"bike_id":"c93f37b7-5a53-41d6-9b12-600e47305c2b","system_id":"levelo_inurba_marseille","lat":43.29053,"lon":5.375655,"is_reserved":false,"is_disabled":false,"rental_uris":{"android":"levelo://app?vid=c93f37b7-5a53-41d6-9b12-600e47305c2b","ios":"levelo://app?vid=c93f37b7-5a53-41d6-9b12-600e47305c2b"},"vehicle_type_id":"4","last_reported":1716231957,"current_range_meters":20000,"station_id":"ce4bh692rcd13ifvqe90","pricing_plan_id":"cebpf4jnsgd1na2vs0mg"},{"bike_id":"d9cdec5d-4e4e-4dda-8538-e061c9684118","system_id":"levelo_inurba_marseille","lat":43.294153,"lon":5.386305,"is_reserved":false,"is_disabled":false,"rental_uris":{"android":"levelo://app?vid=d9cdec5d-4e4e-4dda-8538-e061c9684118","ios":"levelo://app?vid=d9cdec5d-4e4e-4dda-8538-e061c9684118"},"vehicle_type_id":"4","last_reported":1716231957,"current_range_meters":5600,"station_id":"ce4bh2h2rcd13ifvqdh0","pricing_plan_id":"cebpf4jnsgd1na2vs0mg"},{"bike_id":"4e12e163-c474-406f-8a15-7072643b1d1e","system_id":"levelo_inurba_marseille","lat":43.294153,"lon":5.386305,"is_reserved":false,"is_disabled":false,"rental_uris":{"android":"levelo://app?vid=4e12e163-c474-406f-8a15-7072643b1d1e","ios":"levelo://app?vid=4e12e163-c474-406f-8a15-7072643b1d1e"},"vehicle_type_id":"4","last_reported":1716231957,"current_range_meters":31200,"station_id":"ce4bh2h2rcd13ifvqdh0","pricing_plan_id":"cebpf4jnsgd1na2vs0mg"},{"bike_id":"ad8f488a-7827-49cd-968e-47abe4c75f41","system_id":"levelo_inurba_marseille","lat":43.294162,"lon":5.386292,"is_reserved":false,"is_disabled":false,"rental_uris":{"android":"levelo://app?vid=ad8f488a-7827-49cd-968e-47abe4c75f41","ios":"levelo://app?vid=ad8f488a-7827-49cd-968e-47abe4c75f41"},"vehicle_type_id":"4","last_reported":1716231957,"current_range_meters":30400,"station_id":"ce4bh2h2rcd13ifvqdh0","pricing_plan_id":"cebpf4jnsgd1na2vs0mg"},{"bike_id":"610e572a-c552-4af8-8342-5da849d2159a","system_id":"levelo_inurba_marseille","lat":43.294196,"lon":5.386139,"is_reserved":false,"is_disabled":false,"rental_uris":{"android":"levelo://app?vid=610e572a-c552-4af8-8342-5da849d2159a","ios":"levelo://app?vid=610e572a-c552-4af8-8342-5da849d2159a"},"vehicle_type_id":"4","last_reported":1716231957,"current_range_meters":20800,"station_id":"ce4bh2h2rcd13ifvqdh0","pricing_plan_id":"cebpf4jnsgd1na2vs0mg"},{"bike_id":"fcae6539-63da-483d-bd46-e3dfb987aa07","system_id":"levelo_inurba_marseille","lat":43.294153,"lon":5.386305,"is_reserved":false,"is_disabled":false,"rental_uris":{"android":"levelo://app?vid=fcae6539-63da-483d-bd46-e3dfb987aa07","ios":"levelo://app?vid=fcae6539-63da-483d-bd46-e3dfb987aa07"},"vehicle_type_id":"4","last_reported":1716231957,"current_range_meters":25600,"station_id":"ce4bh2h2rcd13ifvqdh0","pricing_plan_id":"cebpf4jnsgd1na2vs0mg"},{"bike_id":"5efe9cbe-9808-4f7d-94fe-99e73060eb78","system_id":"levelo_inurba_marseille","lat":43.289184,"lon":5.366408,"is_reserved":false,"is_disabled":false,"rental_uris":{"android":"levelo://app?vid=5efe9cbe-9808-4f7d-94fe-99e73060eb78","ios":"levelo://app?vid=5efe9cbe-9808-4f7d-94fe-99e73060eb78"},"vehicle_type_id":"4","last_reported":1716231957,"current_range_meters":10400,"station_id":"ce4bhap2rcd13ifvqek0","pricing_plan_id":"cebpf4jnsgd1na2vs0mg"},{"bike_id":"92b6026b-226e-4d00-9537-6a2e2bb5f740","system_id":"levelo_inurba_marseille","lat":43.294153,"lon":5.386305,"is_reserved":false,"is_disabled":false,"rental_uris":{"android":"levelo://app?vid=92b6026b-226e-4d00-9537-6a2e2bb5f740","ios":"levelo://app?vid=92b6026b-226e-4d00-9537-6a2e2bb5f740"},"vehicle_type_id":"4","last_reported":1716231957,"current_range_meters":14800,"station_id":"ce4bh2h2rcd13ifvqdh0","pricing_plan_id":"cebpf4jnsgd1na2vs0mg"},{"bike_id":"d94b097c-f6b8-4d3b-93a1-e50da99ced17","system_id":"levelo_inurba_marseille","lat":43.294153,"lon":5.386305,"is_reserved":false,"is_disabled":false,"rental_uris":{"android":"levelo://app?vid=d94b097c-f6b8-4d3b-93a1-e50da99ced17","ios":"levelo://app?vid=d94b097c-f6b8-4d3b-93a1-e50da99ced17"},"vehicle_type_id":"4","last_reported":1716231957,"current_range_meters":16000,"station_id":"ce4bh2h2rcd13ifvqdh0","pricing_plan_id":"cebpf4jnsgd1na2vs0mg"},{"bike_id":"4d743d84-a1e4-4b53-809a-8a50c907a1e9","system_id":"levelo_inurba_marseille","lat":43.294153,"lon":5.386305,"is_reserved":false,"is_disabled":false,"rental_uris":{"android":"levelo://app?vid=4d743d84-a1e4-4b53-809a-8a50c907a1e9","ios":"levelo://app?vid=4d743d84-a1e4-4b53-809a-8a50c907a1e9"},"vehicle_type_id":"4","last_reported":1716231957,"current_range_meters":6800,"station_id":"ce4bh2h2rcd13ifvqdh0","pricing_plan_id":"cebpf4jnsgd1na2vs0mg"},{"bike_id":"03f173c5-59bb-43e6-a5ee-09ccd6b7ab5d","system_id":"levelo_inurba_marseille","lat":43.294153,"lon":5.386305,"is_reserved":false,"is_disabled":false,"rental_uris":{"android":"levelo://app?vid=03f173c5-59bb-43e6-a5ee-09ccd6b7ab5d","ios":"levelo://app?vid=03f173c5-59bb-43e6-a5ee-09ccd6b7ab5d"},"vehicle_type_id":"4","last_reported":1716231957,"current_range_meters":31600,"station_id":"ce4bh2h2rcd13ifvqdh0","pricing_plan_id":"cebpf4jnsgd1na2vs0mg"},{"bike_id":"327041bf-5c80-4309-a21d-f3a4927355a8","system_id":"levelo_inurba_marseille","lat":43.294153,"lon":5.386305,"is_reserved":false,"is_disabled":false,"rental_uris":{"android":"levelo://app?vid=327041bf-5c80-4309-a21d-f3a4927355a8","ios":"levelo://app?vid=327041bf-5c80-4309-a21d-f3a4927355a8"},"vehicle_type_id":"4","last_reported":1716231957,"current_range_meters":14800,"station_id":"ce4bh2h2rcd13ifvqdh0","pricing_plan_id":"cebpf4jnsgd1na2vs0mg"},{"bike_id":"25654102-84b2-475b-b54d-672420a6992b","system_id":"levelo_inurba_marseille","lat":43.29418,"lon":5.38623,"is_reserved":false,"is_disabled":false,"rental_uris":{"android":"levelo://app?vid=25654102-84b2-475b-b54d-672420a6992b","ios":"levelo://app?vid=25654102-84b2-475b-b54d-672420a6992b"},