{"last_updated":1737500902,"ttl":60,"version":"2.2","data":{"bikes":[{"bike_id":"7426e5d7-ef23-48f2-8bc1-17f3f5acaa9b","system_id":"levelo_inurba_marseille","lat":43.28335,"lon":5.39267,"is_reserved":false,"is_disabled":false,"rental_uris":{"android":"levelo://app?vid=7426e5d7-ef23-48f2-8bc1-17f3f5acaa9b","ios":"levelo://app?vid=7426e5d7-ef23-48f2-8bc1-17f3f5acaa9b"},"vehicle_type_id":"4","last_reported":1737500902,"current_range_meters":16000,"station_id":"","pricing_plan_id":"cebpf4jnsgd1na2vs0mg"},{"bike_id":"a319178b-5f98-41a6-9d48-283823ef5830","system_id":"levelo_inurba_marseille","lat":43.31711,"lon":5.4047,"is_reserved":false,"is_disabled":false,"rental_uris":{"android":"levelo://app?vid=a319178b-5f98-41a6-9d48-283823ef5830","ios":"levelo://app?vid=a319178b-5f98-41a6-9d48-283823ef5830"},"vehicle_type_id":"4","last_reported":1737500902,"current_range_meters":29600,"station_id":"ce4bh012rcd13ifvqd00","pricing_plan_id":"cebpf4jnsgd1na2vs0mg"},{"bike_id":"0fcc71e3-2624-43dd-986b-24fced952228","system_id":"levelo_inurba_marseille","lat":43.31716,"lon":5.42424,"is_reserved":false,"is_disabled":false,"rental_uris":{"android":"levelo://app?vid=0fcc71e3-2624-43dd-986b-24fced952228","ios":"levelo://app?vid=0fcc71e3-2624-43dd-986b-24fced952228"},"vehicle_type_id":"4","last_reported":1737500902,"current_range_meters":38800,"station_id":"ce4bhp92rcd13ifvqhbg","pricing_plan_id":"cebpf4jnsgd1na2vs0mg"},{"bike_id":"fa304f3c-d4fa-4290-8be9-dffa828b30cf","system_id":"levelo_inurba_marseille","lat":43.29,"lon":5.35601,"is_reserved":false,"is_disabled":false,"rental_uris":{"android":"levelo://app?vid=fa304f3c-d4fa-4290-8be9-dffa828b30cf","ios":"levelo://app?vid=fa304f3c-d4fa-4290-8be9-dffa828b30cf"},"vehicle_type_id":"4","last_reported":1737500902,"current_range_meters":24800,"station_id":"ce4bhb92rcd13ifvqen0","pricing_plan_id":"cebpf4jnsgd1na2vs0mg"},{"bike_id":"d3702038-bd9f-4bca-898b-6971e8b60969","system_id":"levelo_inurba_marseille","lat":43.27645,"lon":5.36105,"is_reserved":false,"is_disabled":false,"rental_uris":{"android":"levelo://app?vid=d3702038-bd9f-4bca-898b-6971e8b60969","ios":"levelo://app?vid=d3702038-bd9f-4bca-898b-6971e8b60969"},"vehicle_type_id":"4","last_reported":1737500902,"current_range_meters":38000,"station_id":"ce4bgj92rcd13ifvqbe0","pricing_plan_id":"cebpf4jnsgd1na2vs0mg"},{"bike_id":"3948ea88-cf3f-4efe-ace3-cb99aab83717","system_id":"levelo_inurba_marseille","lat":43.28629,"lon":5.35097,"is_reserved":false,"is_disabled":false,"rental_uris":{"android":"levelo://app?vid=3948ea88-cf3f-4efe-ace3-cb99aab83717","ios":"levelo://app?vid=3948ea88-cf3f-4efe-ace3-cb99aab83717"},"vehicle_type_id":"4","last_reported":1737500902,"current_range_meters":24800,"station_id":"ce4bhch2rcd13ifvqeug","pricing_plan_id":"cebpf4jnsgd1na2vs0mg"},{"bike_id":"55dbad9e-5e23-4ba1-9963-87f7576ac874","system_id":"levelo_inurba_marseille","lat":43.28168,"lon":5.42653,"is_reserved":false,"is_disabled":false,"rental_uris":{"android":"levelo://app?vid=55dbad9e-5e23-4ba1-9963-87f7576ac874","ios":"levelo://app?vid=55dbad9e-5e23-4ba1-9963-87f7576ac874"},"vehicle_type_id":"4","last_reported":1737500902,"current_range_meters":38800,"station_id":"ce4bhnh2rcd13ifvqgug","pricing_plan_id":"cebpf4jnsgd1na2vs0mg"},{"bike_id":"3bb29123-3b02-470e-916b-1b1db8992d5e","system_id":"levelo_inurba_marseille","lat":43.29911,"lon":5.38537,"is_reserved":false,"is_disabled":false,"rental_uris":{"android":"levelo://app?vid=3bb29123-3b02-470e-916b-1b1db8992d5e","ios":"levelo://app?vid=3bb29123-3b02-470e-916b-1b1db8992d5e"},"vehicle_type_id":"4","last_reported":1737500902,"current_range_meters":14000,"station_id":"ce4bh192rcd13ifvqdd0","pricing_plan_id":"cebpf4jnsgd1na2vs0mg"},{"bike_id":"61aa1f1e-08bf-47e0-9ef8-f4c88863cb4e","system_id":"levelo_inurba_marseille","lat":43.313285,"lon":5.396915,"is_reserved":false,"is_disabled":false,"rental_uris":{"android":"levelo://app?vid=61aa1f1e-08bf-47e0-9ef8-f4c88863cb4e","ios":"levelo://app?vid=61aa1f1e-08bf-47e0-9ef8-f4c88863cb4e"},"vehicle_type_id":"4","last_reported":1737500902,"current_range_meters":36400,"station_id":"ce4bgvp2rcd13ifvqcu0","pricing_plan_id":"cebpf4jnsgd1na2vs0mg"},{"bike_id":"579da97f-04e4-4a85-bf0e-7715dc714586","system_id":"levelo_inurba_marseille","lat":43.28702,"lon":5.37397,"is_reserved":false,"is_disabled":false,"rental_uris":{"android":"levelo://app?vid=579da97f-04e4-4a85-bf0e-7715dc714586","ios":"levelo://app?vid=579da97f-04e4-4a85-bf0e-7715dc714586"},"vehicle_type_id":"4","last_reported":1737500902,"current_range_meters":38800,"station_id":"ce4bh3p2rcd13ifvqdq0","pricing_plan_id":"cebpf4jnsgd1na2vs0mg"},{"bike_id":"0845fe4f-7ffa-4dd6-b73a-50813739ec76","system_id":"levelo_inurba_marseille","lat":43.2978,"lon":5.37111,"is_reserved":false,"is_disabled":false,"rental_uris":{"android":"levelo://app?vid=0845fe4f-7ffa-4dd6-b73a-50813739ec76","ios":"levelo://app?vid=0845fe4f-7ffa-4dd6-b73a-50813739ec76"},"vehicle_type_id":"4","last_reported":1737500902,"current_range_meters":8800,"station_id":"ce4bgop2rcd13ifvqc1g","pricing_plan_id":"cebpf4jnsgd1na2vs0mg"},{"bike_id":"98113193-d55f-4844-8e82-17b825168790","system_id":"levelo_inurba_marseille","lat":43.31763,"lon":5.39023,"is_reserved":false,"is_disabled":false,"rental_uris":{"android":"levelo://app?vid=98113193-d55f-4844-8e82-17b825168790","ios":"levelo://app?vid=98113193-d55f-4844-8e82-17b825168790"},"vehicle_type_id":"4","last_reported":1737500902,"current_range_meters":31200,"station_id":"ce4bhqp2rcd13ifvqhng","pricing_plan_id":"cebpf4jnsgd1na2vs0mg"},{"bike_id":"d828c6c0-2857-4d4f-a9aa-7c7d934ecae7","system_id":"levelo_inurba_marseille","lat":43.25089,"lon":5.3949,"is_reserved":false,"is_disabled":false,"rental_uris":{"android":"levelo://app?vid=d828c6c0-2857-4d4f-a9aa-7c7d934ecae7","ios":"levelo://app?vid=d828c6c0-2857-4d4f-a9aa-7c7d934ecae7"},"vehicle_type_id":"4","last_reported":1737500902,"current_range_meters":9600,"station_id":"ce4bhm12rcd13ifvqgkg","pricing_plan_id":"cebpf4jnsgd1na2vs0mg"},{"bike_id":"93758c01-1aec-4c96-80c8-828c00c25e49","system_id":"levelo_inurba_marseille","lat":43.2844,"lon":5.39192,"is_reserved":false,"is_disabled":false,"rental_uris":{"android":"levelo://app?vid=93758c01-1aec-4c96-80c8-828c00c25e49","ios":"levelo://app?vid=93758c01-1aec-4c96-80c8-828c00c25e49"},"vehicle_type_id":"4","last_reported":1737500902,"current_range_meters":12000,"station_id":"ce4bhoh2rcd13ifvqh5g","pricing_plan_id":"cebpf4jnsgd1na2vs0mg"},{"bike_id":"ab85e102-e8bc-48d9-ac36-4d53a9a08718","system_id":"levelo_inurba_marseille","lat":43.29917,"lon":5.39748,"is_reserved":false,"is_disabled":false,"rental_uris":{"android":"levelo://app?vid=ab85e102-e8bc-48d9-ac36-4d53a9a08718","ios":"levelo://app?vid=ab85e102-e8bc-48d9-ac36-4d53a9a08718"},"vehicle_type_id":"4","last_reported":1737500902,"current_range_meters":38800,"station_id":"ce4bh0h2rcd13ifvqd50","pricing_plan_id":"cebpf4jnsgd1na2vs0mg"},{"bike_id":"cca8a109-82e5-40c8-8a56-303ec8342189","system_id":"levelo_inurba_marseille","lat":43.30189,"lon":5.37425,"is_reserved":false,"is_disabled":false,"rental_uris":{"android":"levelo://app?vid=cca8a109-82e5-40c8-8a56-303ec8342189","ios":"levelo://app?vid=cca8a109-82e5-40c8-8a56-303ec8342189"},"vehicle_type_id":"4","last_reported":1737500902,"current_range_meters":16000,"station_id":"ce4bgs92rcd13ifvqcc0","pricing_plan_id":"cebpf4jnsgd1na2vs0mg"},{"bike_id":"2948c027-3674-4ca2-a017-33393e39f681","system_id":"levelo_inurba_marseille","lat":43.27996,"lon":5.40031,"is_reserved":false,"is_disabled":false,"rental_uris":{"android":"levelo://app?vid=2948c027-3674-4ca2-a017-33393e39f681","ios":"levelo://app?vid=2948c027-3674-4ca2-a017-33393e39f681"},"vehicle_type_id":"4","last_reported":1737500902,"current_range_meters":8400,"station_id":"ce4bho92rcd13ifvqh4g","pricing_plan_id":"cebpf4jnsgd1na2vs0mg"},{"bike_id":"8216b7cc-ec43-4f59-a3d8-b1c4b0f595fd","system_id":"levelo_inurba_marseille","lat":43.31172,"lon":5.3871,"is_reserved":false,"is_disabled":false,"rental_uris":{"android":"levelo://app?vid=8216b7cc-ec43-4f59-a3d8-b1c4b0f595fd","ios":"levelo://app?vid=8216b7cc-ec43-4f59-a3d8-b1c4b0f595fd"},"vehicle_type_id":"4","last_reported":1737500902,"current_range_meters":22800,"station_id":"ce4bgv12rcd13ifvqcp0","pricing_plan_id":"cebpf4jnsgd1na2vs0mg"},{"bike_id":"ba124148-e04c-4eac-8662-cf0199cf57b4","system_id":"levelo_inurba_marseille","lat":43.25873,"lon":5.39923,"is_reserved":false,"is_disabled":false,"rental_uris":{"android":"levelo://app?vid=ba124148-e04c-4eac-8662-cf0199cf57b4","ios":"levelo://app?vid=ba124148-e04c-4eac-8662-cf0199cf57b4"},"vehicle_type_id":"4","last_reported":1737500902,"current_range_meters":35200,"station_id":"ce4bhl92rcd13ifvqghg","pricing_plan_id":"cebpf4jnsgd1na2vs0mg"},{"bike_id":"73b5b8fa-af4d-461f-91e2-112593d8066e","system_id":"levelo_inurba_marseille","lat":43.24091,"lon":5.3774,"is_reserved":false,"is_disabled":false,"rental_uris":{"android":"levelo://app?vid=73b5b8fa-af4d-461f-91e2-112593d8066e","ios":"levelo://app?vid=73b5b8fa-af4d-461f-91e2-112593d8066e"},"vehicle_type_id":"4","last_reported":1737500902,"current_range_meters":38800,"station_id":"ce4bhnp2rcd13ifvqgvg","pricing_plan_id":"cebpf4jnsgd1na2vs0mg"},{"bike_id":"a2771881-b956-4a9a-9bc9-a89642d437c9","system_id":"levelo_inurba_marseille","lat":43.2323,"lon":5.35552,"is_reserved":false,"is_disabled":false,"rental_uris":{"android":"levelo://app?vid=a2771881-b956-4a9a-9bc9-a89642d437c9","ios":"levelo://app?vid=a2771881-b956-4a9a-9bc9-a89642d437c9"},"vehicle_type_id":"4","last_reported":1737500902,"current_range_meters":38800,"station_id":"ce4bhu92rcd13ifvqi70","pricing_plan_id":"cebpf4jnsgd1na2vs0mg"},{"bike_id":"51bbe694-80b7-449b-97a3-938a54cb94ff","system_id":"levelo_inurba_marseille","lat":43.3089,"lon":5.39617,"is_reserved":false,"is_disabled":false,"rental_uris":{"android":"levelo://app?vid=51bbe694-80b7-449b-97a3-938a54cb94ff","ios":"levelo://app?vid=51bbe694-80b7-449b-97a3-938a54cb94ff"},"vehicle_type_id":"4","last_reported":1737500902,"current_range_meters":30800,"station_id":"ce4bh012rcd13ifvqcv0","pricing_plan_id":"cebpf4jnsgd1na2vs0mg"},{"bike_id":"4d071c99-59bc-4138-8b76-2f04d780bbaa","system_id":"levelo_inurba_marseille","lat":43.26244,"lon":5.40465,"is_reserved":false,"is_disabled":false,"rental_uris":{"android":"levelo://app?vid=4d071c99-59bc-4138-8b76-2f04d780bbaa","ios":"levelo://app?vid=4d071c99-59bc-4138-8b76-2f04d780bbaa"},"vehicle_type_id":"4","last_reported":1737500902,"current_range_meters":16400,"station_id":"","pricing_plan_id":"cebpf4jnsgd1na2vs0mg"},{"bike_id":"3354b627-59df-404b-be4b-16d179a7492d","system_id":"levelo_inurba_marseille","lat":43.28858,"lon":5.35841,"is_reserved":false,"is_disabled":false,"rental_uris":{"android":"levelo://app?vid=3354b627-59df-404b-be4b-16d179a7492d","ios":"levelo://app?vid=3354b627-59df-404b-be4b-16d179a7492d"},"vehicle_type_id":"4","last_reported":1737500902,"current_range_meters":35600,"station_id":"ce4bhb12rcd13ifvqem0","pricing_plan_id":"cebpf4jnsgd1na2vs0mg"},{"bike_id":"7ce5f3ae-f11d-44d2-bfe6-e002ad3396be","system_id":"levelo_inurba_marseille","lat":43.23197,"lon":5.39984,"is_reserved":false,"is_disabled":false,"rental_uris":{"android":"levelo://app?vid=7ce5f3ae-f11d-44d2-bfe6-e002ad3396be","ios":"levelo://app?vid=7ce5f3ae-f11d-44d2-bfe6-e002ad3396be"},"vehicle_type_id":"4","last_reported":1737500902,"current_range_meters":18800,"station_id":"ce4bhn12rcd13ifvqgqg","pricing_plan_id":"cebpf4jnsgd1na2vs0mg"},{"bike_id":"48646053-32fc-4975-9af3-6eb74098e911","system_id":"levelo_inurba_marseille","lat":43.280768,"lon":5.396455,"is_reserved":false,"is_disabled":false,"rental_uris":{"android":"levelo://app?vid=48646053-32fc-4975-9af3-6eb74098e911","ios":"levelo://app?vid=48646053-32fc-4975-9af3-6eb74098e911"},"vehicle_type_id":"4","last_reported":1737500902,"current_range_meters":39200,"station_id":"ce4bho12rcd13ifvqh2g","pricing_plan_id":"cebpf4jnsgd1na2vs0mg"},{"bike_id":"a4bc6297-d54e-4545-9c09-c5e842578138","system_id":"levelo_inurba_marseille","lat":43.30229,"lon":5.39493,"is_reserved":false,"is_disabled":false,"rental_uris":{"android":"levelo://app?vid=a4bc6297-d54e-4545-9c09-c5e842578138","ios":"levelo://app?vid=a4bc6297-d54e-4545-9c09-c5e842578138"},"vehicle_type_id":"4","last_reported":1737500902,"current_range_meters":6000,"station_id":"ce4bh0p2rcd13ifvqd70","pricing_plan_id":"cebpf4jnsgd1na2vs0mg"},{"bike_id":"01fd2aea-dcbc-456e-8ea4-4bd7074979b4","system_id":"levelo_inurba_marseille","lat":43.23193,"lon":5.39973,"is_reserved":false,"is_disabled":false,"rental_uris":{"android":"levelo://app?vid=01fd2aea-dcbc-456e-8ea4-4bd7074979b4","ios":"levelo://app?vid=01fd2aea-dcbc-456e-8ea4-4bd7074979b4"},"vehicle_type_id":"4","last_reported":1737500902,"current_range_meters":24400,"station_id":"ce4bhn12rcd13ifvqgqg","pricing_plan_id":"cebpf4jnsgd1na2vs0mg"},{"bike_id":"43fa238f-a73a-40de-98ea-4c841e83691e","system_id":"levelo_inurba_marseille","lat":43.31538,"lon":5.38022,"is_reserved":false,"is_disabled":false,"rental_uris":{"android":"levelo://app?vid=43fa238f-a73a-40de-98ea-4c841e83691e","ios":"levelo://app?vid=43fa238f-a73a-40de-98ea-4c841e83691e"},"vehicle_type_id":"4","last_reported":1737500902,"current_range_meters":38800,"station_id":"ce4bhsp2rcd13ifvqi50","pricing_plan_id":"cebpf4jnsgd1na2vs0mg"},{"bike_id":"0c5ad6b7-3862-4c1f-ae20-eed2815f3aa4","system_id":"levelo_inurba_marseille","lat":43.31365,"lon":5.384898,"is_reserved":false,"is_disabled":false,"rental_uris":{"android":"levelo://app?vid=0c5ad6b7-3862-4c1f-ae20-eed2815f3aa4","ios":"levelo://app?vid=0c5ad6b7-3862-4c1f-ae20-eed2815f3aa4"},"vehicle_type_id":"4","last_reported":1737500902,"current_range_meters":13600,"station_id":"ce4bgt92rcd13ifvqcf0","pricing_plan_id":"cebpf4jnsgd1na2vs0mg"},{"bike_id":"3102a72b-882b-4111-af7e-422cd2d2818d","system_id":"levelo_inurba_marseille","lat":43.29598,"lon":5.37137,"is_reserved":false,"is_disabled":false,"rental_uris":{"android":"levelo://app?vid=3102a72b-882b-4111-af7e-422cd2d2818d","ios":"levelo://app?vid=3102a72b-882b-4111-af7e-422cd2d2818d"},"vehicle_type_id":"4","last_reported":1737500902,"current_range_meters":36800,"station_id":"ce4bgnh2rcd13ifvqc0g","pricing_plan_id":"cebpf4jnsgd1na2vs0mg"},{"bike_id":"4f97d1f0-7806-4b18-ae7c-e5e126ff158f","system_id":"levelo_inurba_marseille","lat":43.29518,"lon":5.39403,"is_reserved":false,"is_disabled":false,"rental_uris":{"android":"levelo://app?vid=4f97d1f0-7806-4b18-ae7c-e5e126ff158f","ios":"levelo://app?vid=4f97d1f0-7806-4b18-ae7c-e5e126ff158f"},"vehicle_type_id":"4","last_reported":1737500902,"current_range_meters":12800,"station_id":"ce4bh292rcd13ifvqdf0","pricing_plan_id":"cebpf4jnsgd1na2vs0mg"},{"bike_id":"bdb93c4b-46b0-4c28-be56-ea07106c8f39","system_id":"levelo_inurba_marseille","lat":43.30255,"lon":5.4008,"is_reserved":false,"is_disabled":false,"rental_uris":{"android":"levelo://app?vid=bdb93c4b-46b0-4c28-be56-ea07106c8f39","ios":"levelo://app?vid=bdb93c4b-46b0-4c28-be56-ea07106c8f39"},"vehicle_type_id":"4","last_reported":1737500902,"current_range_meters":38800,"station_id":"ce4bgvh2rcd13ifvqcs0","pricing_plan_id":"cebpf4jnsgd1na2vs0mg"},{"bike_id":"9fe52d5e-ddc1-4789-af0b-e4e236251844","system_id":"levelo_inurba_marseille","lat":43.30591,"lon":5.38466,"is_reserved":false,"is_disabled":false,"rental_uris":{"android":"levelo://app?vid=9fe52d5e-ddc1-4789-af0b-e4e236251844","ios":"levelo://app?vid=9fe52d5e-ddc1-4789-af0b-e4e236251844"},"vehicle_type_id":"4","last_reported":1737500902,"current_range_meters":24400,"station_id":"ce4bgg92rcd13ifvqb30","pricing_plan_id":"cebpf4jnsgd1na2vs0mg"},{"bike_id":"8315f532-82b1-4fc0-a47f-244de634de20","system_id":"levelo_inurba_marseille","lat":43.30781,"lon":5.3765,"is_reserved":false,"is_disabled":false,"rental_uris":{"android":"levelo://app?vid=8315f532-82b1-4fc0-a47f-244de634de20","ios":"levelo://app?vid=8315f532-82b1-4fc0-a47f-244de634de20"},"vehicle_type_id":"4","last_reported":1737500902,"current_range_meters":10000,"station_id":"ce4bgv92rcd13ifvqcq0","pricing_plan_id":"cebpf4jnsgd1na2vs0mg"},{"bike_id":"63ac8898-13b7-41ff-9418-e58ae0dbf1ba","system_id":"levelo_inurba_marseille","lat":43.27815,"lon":5.40723,"is_reserved":false,"is_disabled":true,"rental_uris":{"android":"levelo://app?vid=63ac8898-13b7-41ff-9418-e58ae0dbf1ba","ios":"levelo://app?vid=63ac8898-13b7-41ff-9418-e58ae0dbf1ba"},"vehicle_type_id":"4","last_reported":1737500902,"current_range_meters":26800,"station_id":"ce4bhnh2rcd13ifvqgtg","pricing_plan_id":"cebpf4jnsgd1na2vs0mg"},{"bike_id":"2cd09bcd-fa88-406c-b41c-af7ac5ef527d","system_id":"levelo_inurba_marseille","lat":43.30359,"lon":5.39281,"is_reserved":false,"is_disabled":false,"rental_uris":{"android":"levelo://app?vid=2cd09bcd-fa88-406c-b41c-af7ac5ef527d","ios":"levelo://app?vid=2cd09bcd-fa88-406c-b41c-af7ac5ef527d"},"vehicle_type_id":"4","last_reported":1737500902,"current_range_meters":24400,"station_id":"","pricing_plan_id":"cebpf4jnsgd1na2vs0mg"},{"bike_id":"b9774d04-993a-4f5c-a9a7-0f9ad4017906","system_id":"levelo_inurba_marseille","lat":43.311716,"lon":5.387178,"is_reserved":false,"is_disabled":false,"rental_uris":{"android":"levelo://app?vid=b9774d04-993a-4f5c-a9a7-0f9ad4017906","ios":"levelo://app?vid=b9774d04-993a-4f5c-a9a7-0f9ad4017906"},"vehicle_type_id":"4","last_reported":1737500902,"current_range_meters":39200,"station_id":"ce4bgv12rcd13ifvqcp0","pricing_plan_id":"cebpf4jnsgd1na2vs0mg"},{"bike_id":"56c16567-a209-442e-b152-823591129e8b","system_id":"levelo_inurba_marseille","lat":43.28275,"lon":5.35076,"is_reserved":false,"is_disabled":false,"rental_uris":{"android":"levelo://app?vid=56c16567-a209-442e-b152-823591129e8b","ios":"levelo://app?vid=56c16567-a209-442e-b152-823591129e8b"},"vehicle_type_id":"4","last_reported":1737500902,"current_range_meters":38400,"station_id":"ce4bhbp2rcd13ifvqerg","pricing_plan_id":"cebpf4jnsgd1na2vs0mg"},{"bike_id":"bda5c3c5-1ce2-40be-87ca-14619f5b97ef","system_id":"levelo_inurba_marseille","lat":43.3134,"lon":5.39674,"is_reserved":false,"is_disabled":false,"rental_uris":{"android":"levelo://app?vid=bda5c3c5-1ce2-40be-87ca-14619f5b97ef","ios":"levelo://app?vid=bda5c3c5-1ce2-40be-87ca-14619f5b97ef"},"vehicle_type_id":"4","last_reported":1737500902,"current_range_meters":38800,"station_id":"ce4bgvp2rcd13ifvqcu0","pricing_plan_id":"cebpf4jnsgd1na2vs0mg"},{"bike_id":"6f655533-f48b-46fe-b6f4-aad1464756c8","system_id":"levelo_inurba_marseille","lat":43.30789,"lon":5.37651,"is_reserved":false,"is_disabled":false,"rental_uris":{"android":"levelo://app?vid=6f655533-f48b-46fe-b6f4-aad1464756c8","ios":"levelo://app?vid=6f655533-f48b-46fe-b6f4-aad1464756c8"},"vehicle_type_id":"4","last_reported":1737500902,"current_range_meters":39200,"station_id":"ce4bgv92rcd13ifvqcq0","pricing_plan_id":"cebpf4jnsgd1na2vs0mg"},{"bike_id":"ef2c1b03-bd1f-4a60-b621-61f7751b628d","system_id":"levelo_inurba_marseille","lat":43.29428,"lon":5.39801,"is_reserved":false,"is_disabled":true,"rental_uris":{"android":"levelo://app?vid=ef2c1b03-bd1f-4a60-b621-61f7751b628d","ios":"levelo://app?vid=ef2c1b03-bd1f-4a60-b621-61f7751b628d"},"vehicle_type_id":"4","last_reported":1737500902,"current_range_meters":4400,"station_id":"ce4bh3h2rcd13ifvqdo0","pricing_plan_id":"cebpf4jnsgd1na2vs0mg"},{"bike_id":"4933a00c-bf24-481b-abc9-f28e89fde20a","system_id":"levelo_inurba_marseille","lat":43.307982,"lon":5.381463,"is_reserved":false,"is_disabled":false,"rental_uris":{"android":"levelo://app?vid=4933a00c-bf24-481b-abc9-f28e89fde20a","ios":"levelo://app?vid=4933a00c-bf24-481b-abc9-f28e89fde20a"},"vehicle_type_id":"4","last_reported":1737500902,"current_range_meters":3200,"station_id":"ce4bgt12rcd13ifvqce0","pricing_plan_id":"cebpf4jnsgd1na2vs0mg"},{"bike_id":"5abf3f81-8b66-4826-861d-55abbb651539","system_id":"levelo_inurba_marseille","lat":43.337444,"lon":5.374475,"is_reserved":false,"is_disabled":true,"rental_uris":{"android":"levelo://app?vid=5abf3f81-8b66-4826-861d-55abbb651539","ios":"levelo://app?vid=5abf3f81-8b66-4826-861d-55abbb651539"},"vehicle_type_id":"4","last_reported":1737500902,"current_range_meters":0,"station_id":"","pricing_plan_id":"cebpf4jnsgd1na2vs0mg"},{"bike_id":"1eb2452e-9527-4cc7-99f1-3114fdf5918d","system_id":"levelo_inurba_marseille","lat":43.25691,"lon":5.40979,"is_reserved":false,"is_disabled":false,"rental_uris":{"android":"levelo://app?vid=1eb2452e-9527-4cc7-99f1-3114fdf5918d","ios":"levelo://app?vid=1eb2452e-9527-4cc7-99f1-3114fdf5918d"},"vehicle_type_id":"4","last_reported":1737500902,"current_range_meters":19200,"station_id":"","pricing_plan_id":"cebpf4jnsgd1na2vs0mg"},{"bike_id":"9bc726c4-f0ae-46a7-9894-3042b33f1aaf","system_id":"levelo_inurba_marseille","lat":43.23153,"lon":5.43711,"is_reserved":false,"is_disabled":false,"rental_uris":{"android":"levelo://app?vid=9bc726c4-f0ae-46a7-9894-3042b33f1aaf","ios":"levelo://app?vid=9bc726c4-f0ae-46a7-9894-3042b33f1aaf"},"vehicle_type_id":"4","last_reported":1737500902,"current_range_meters":38800,"station_id":"ce4bhmp2rcd13ifvqgog","pricing_plan_id":"cebpf4jnsgd1na2vs0mg"},{"bike_id":"04656797-d164-454b-8244-55edc7fec428","system_id":"levelo_inurba_marseille","lat":43.31728,"lon":5.42415,"is_reserved":false,"is_disabled":false,"rental_uris":{"android":"levelo://app?vid=04656797-d164-454b-8244-55edc7fec428","ios":"levelo://app?vid=04656797-d164-454b-8244-55edc7fec428"},"vehicle_type_id":"4","last_reported":1737500902,"current_range_meters":38800,"station_id":"ce4bhp92rcd13ifvqhbg","pricing_plan_id":"cebpf4jnsgd1na2vs0mg"},{"bike_id":"8f0e139a-dde3-4169-8e33-598bfa2994af","system_id":"levelo_inurba_marseille","lat":43.29551,"lon":5.39055,"is_reserved":false,"is_disabled":false,"rental_uris":{"android":"levelo://app?vid=8f0e139a-dde3-4169-8e33-598bfa2994af","ios":"levelo://app?vid=8f0e139a-dde3-4169-8e33-598bfa2994af"},"vehicle_type_id":"4","last_reported":1737500902,"current_range_meters":39200,"station_id":"ce4bh3p2rcd13ifvqdp0","pricing_plan_id":"cebpf4jnsgd1na2vs0mg"},{"bike_id":"1f16ad06-6773-4946-8305-97dc88287b9f","system_id":"levelo_inurba_marseille","lat":43.3081,"lon":5.37338,"is_reserved":false,"is_disabled":false,"rental_uris":{"android":"levelo://app?vid=1f16ad06-6773-4946-8305-97dc88287b9f","ios":"levelo://app?vid=1f16ad06-6773-4946-8305-97dc88287b9f"},"vehicle_type_id":"4","last_reported":1737500902,"current_range_meters":24800,"station_id":"","pricing_plan_id":"cebpf4jnsgd1na2vs0mg"},{"bike_id":"08498b64-c464-4119-afb2-6f220d6847bc","system_id":"levelo_inurba_marseille","lat":43.2827,"lon":5.35075,"is_reserved":false,"is_disabled":false,"rental_uris":{"android":"levelo://app?vid=08498b64-c464-4119-afb2-6f220d6847bc","ios":"levelo://app?vid=08498b64-c464-4119-afb2-6f220d6847bc"},"vehicle_type_id":"4","last_reported":1737500902,"current_range_meters":37600,"station_id":"ce4bhbp2rcd13ifvqerg","pricing_plan_id":"cebpf4jnsgd1na2vs0mg"},{"bike_id":"72c6a75a-dcec-4bc7-8f9e-96be42e21f17","system_id":"levelo_inurba_marseille","lat":43.25108,"lon":5.40435,"is_reserved":false,"is_disabled":false,"rental_uris":{"android":"levelo://app?vid=72c6a75a-dcec-4bc7-8f9e-96be42e21f17","ios":"levelo://app?vid=72c6a75a-dcec-4bc7-8f9e-96be42e21f17"},"vehicle_type_id":"4","last_reported":1737500902,"current_range_meters":38800,"station_id":"ce4bhlh2rcd13ifvqgig","pricing_plan_id":"cebpf4jnsgd1na2vs0mg"},{"bike_id":"b2c0c058-aa1a-4ce5-ab53-69ad5224fa65","system_id":"levelo_inurba_marseille","lat":43.241783,"lon":5.397214,"is_reserved":false,"is_disabled":false,"rental_uris":{"android":"levelo://app?vid=b2c0c058-aa1a-4ce5-ab53-69ad5224fa65","ios":"levelo://app?vid=b2c0c058-aa1a-4ce5-ab53-69ad5224fa65"},"vehicle_type_id":"4","last_reported":1737500902,"current_range_meters":16800,"station_id":"ce4bhn12rcd13ifvqgpg","pricing_plan_id":"cebpf4jnsgd1na2vs0mg"},{"bike_id":"564a0b96-7782-45b3-aae3-4737f6c778c8","system_id":"levelo_inurba_marseille","lat":43.25859,"lon":5.39928,"is_reserved":false,"is_disabled":false,"rental_uris":{"android":"levelo://app?vid=564a0b96-7782-45b3-aae3-4737f6c778c8","ios":"levelo://app?vid=564a0b96-7782-45b3-aae3-4737f6c778c8"},"vehicle_type_id":"4","last_reported":1737500902,"current_range_meters":28000,"station_id":"ce4bhl92rcd13ifvqghg","pricing_plan_id":"cebpf4jnsgd1na2vs0mg"},{"bike_id":"74aa2cd9-5408-4b97-9ed0-299cf590f8db","system_id":"levelo_inurba_marseille","lat":43.28264,"lon":5.35069,"is_reserved":false,"is_disabled":false,"rental_uris":{"android":"levelo://app?vid=74aa2cd9-5408-4b97-9ed0-299cf590f8db","ios":"levelo://app?vid=74aa2cd9-5408-4b97-9ed0-299cf590f8db"},"vehicle_type_id":"4","last_reported":1737500902,"current_range_meters":38800,"station_id":"ce4bhbp2rcd13ifvqerg","pricing_plan_id":"cebpf4jnsgd1na2vs0mg"},{"bike_id":"70a10306-ca4a-4519-8b12-cb9b41ee892b","system_id":"levelo_inurba_marseille","lat":43.26701,"lon":5.38253,"is_reserved":false,"is_disabled":false,"rental_uris":{"android":"levelo://app?vid=70a10306-ca4a-4519-8b12-cb9b41ee892b","ios":"levelo://app?vid=70a10306-ca4a-4519-8b12-cb9b41ee892b"},"vehicle_type_id":"4","last_reported":1737500902,"current_range_meters":38800,"station_id":"ce4bhg92rcd13ifvqf90","pricing_plan_id":"cebpf4jnsgd1na2vs0mg"},{"bike_id":"2dba50ed-3ea3-4236-9c91-49787f02ddd5","system_id":"levelo_inurba_marseille","lat":43.27182,"lon":5.40993,"is_reserved":false,"is_disabled":false,"rental_uris":{"android":"levelo://app?vid=2dba50ed-3ea3-4236-9c91-49787f02ddd5","ios":"levelo://app?vid=2dba50ed-3ea3-4236-9c91-49787f02ddd5"},"vehicle_type_id":"4","last_reported":1737500902,"current_range_meters":38800,"station_id":"ce4bhl12rcd13ifvqgf0","pricing_plan_id":"cebpf4jnsgd1na2vs0mg"},{"bike_id":"b8f1278b-77a8-4c2f-bbb0-1316413368b6","system_id":"levelo_inurba_marseille","lat":43.28425,"lon":5.37539,"is_reserved":false,"is_disabled":false,"rental_uris":{"android":"levelo://app?vid=b8f1278b-77a8-4c2f-bbb0-1316413368b6","ios":"levelo://app?vid=b8f1278b-77a8-4c2f-bbb0-1316413368b6"},"vehicle_type_id":"4","last_reported":1737500902,"current_range_meters":18800,"station_id":"ce4bh412rcd13ifvqds0","pricing_plan_id":"cebpf4jnsgd1na2vs0mg"},{"bike_id":"1f6dc155-db14-4993-a445-66a4306b1945","system_id":"levelo_inurba_marseille","lat":43.28434,"lon":5.3751,"is_reserved":false,"is_disabled":false,"rental_uris":{"android":"levelo://app?vid=1f6dc155-db14-4993-a445-66a4306b1945","ios":"levelo://app?vid=1f6dc155-db14-4993-a445-66a4306b1945"},"vehicle_type_id":"4","last_reported":1737500902,"current_range_meters":27200,"station_id":"ce4bh412rcd13ifvqds0","pricing_plan_id":"cebpf4jnsgd1na2vs0mg"},{"bike_id":"fb051a1b-f405-4fb7-8edb-82e638aff8f9","system_id":"levelo_inurba_marseille","lat":43.29803,"lon":5.36128,"is_reserved":false,"is_disabled":false,"rental_uris":{"android":"levelo://app?vid=fb051a1b-f405-4fb7-8edb-82e638aff8f9","ios":"levelo://app?vid=fb051a1b-f405-4fb7-8edb-82e638aff8f9"},"vehicle_type_id":"4","last_reported":1737500902,"current_range_meters":37600,"station_id":"","pricing_plan_id":"cebpf4jnsgd1na2vs0mg"},{"bike_id":"63468950-507d-45fc-b23b-b241b7129b89","system_id":"levelo_inurba_marseille","lat":43.23187,"lon":5.39996,"is_reserved":false,"is_disabled":false,"rental_uris":{"android":"levelo://app?vid=63468950-507d-45fc-b23b-b241b7129b89","ios":"levelo://app?vid=63468950-507d-45fc-b23b-b241b7129b89"},"vehicle_type_id":"4","last_reported":1737500902,"current_range_meters":35200,"station_id":"ce4bhn12rcd13ifvqgqg","pricing_plan_id":"cebpf4jnsgd1na2vs0mg"},{"bike_id":"b5194e6a-1715-496d-8b54-aa7aba7add7e","system_id":"levelo_inurba_marseille","lat":43.25722,"lon":5.41114,"is_reserved":false,"is_disabled":false,"rental_uris":{"android":"levelo://app?vid=b5194e6a-1715-496d-8b54-aa7aba7add7e","ios":"levelo://app?vid=b5194e6a-1715-496d-8b54-aa7aba7add7e"},"vehicle_type_id":"4","last_reported":1737500902,"current_range_meters":28800,"station_id":"ce4bhkp2rcd13ifvqgd0","pricing_plan_id":"cebpf4jnsgd1na2vs0mg"},{"bike_id":"784fcd02-af4a-49d3-b9c1-fa449d5816b4","system_id":"levelo_inurba_marseille","lat":43.28476,"lon":5.3586,"is_reserved":false,"is_disabled":false,"rental_uris":{"android":"levelo://app?vid=784fcd02-af4a-49d3-b9c1-fa449d5816b4","ios":"levelo://app?vid=784fcd02-af4a-49d3-b9c1-fa449d5816b4"},"vehicle_type_id":"4","last_reported":1737500902,"current_range_meters":29600,"station_id":"ce4bhah2rcd13ifvqei0","pricing_plan_id":"cebpf4jnsgd1na2vs0mg"},{"bike_id":"4fcbfa2f-f45b-4d35-a9ff-02c82eeaea19","system_id":"levelo_inurba_marseille","lat":43.23967,"lon":5.36639,"is_reserved":false,"is_disabled":false,"rental_uris":{"android":"levelo://app?vid=4fcbfa2f-f45b-4d35-a9ff-02c82eeaea19","ios":"levelo://app?vid=4fcbfa2f-f45b-4d35-a9ff-02c82eeaea19"},"vehicle_type_id":"4","last_reported":1737500902,"current_range_meters":26000,"station_id":"ce4bhi12rcd13ifvqfp0","pricing_plan_id":"cebpf4jnsgd1na2vs0mg"},{"bike_id":"02a965a5-78ce-45cb-a3f6-7cd3e9e84d73","system_id":"levelo_inurba_marseille","lat":43.28659,"lon":5.36373,"is_reserved":false,"is_disabled":false,"rental_uris":{"android":"levelo://app?vid=02a965a5-78ce-45cb-a3f6-7cd3e9e84d73","ios":"levelo://app?vid=02a965a5-78ce-45cb-a3f6-7cd3e9e84d73"},"vehicle_type_id":"4","last_reported":1737500902,"current_range_meters":28800,"station_id":"ce4bhah2rcd13ifvqej0","pricing_plan_id":"cebpf4jnsgd1na2vs0mg"},{"bike_id":"f6132854-ba8b-4268-9a7d-378c728dd4c5","system_id":"levelo_inurba_marseille","lat":43.30602,"lon":5.39342,"is_reserved":false,"is_disabled":false,"rental_uris":{"android":"levelo://app?vid=f6132854-ba8b-4268-9a7d-378c728dd4c5","ios":"levelo://app?vid=f6132854-ba8b-4268-9a7d-378c728dd4c5"},"vehicle_type_id":"4","last_reported":1737500902,"current_range_meters":32000,"station_id":"ce4bh0p2rcd13ifvqd80","pricing_plan_id":"cebpf4jnsgd1na2vs0mg"},{"bike_id":"6f00d69b-b2d3-4318-adb7-41466e202420","system_id":"levelo_inurba_marseille","lat":43.30594,"lon":5.39354,"is_reserved":false,"is_disabled":false,"rental_uris":{"android":"levelo://app?vid=6f00d69b-b2d3-4318-adb7-41466e202420","ios":"levelo://app?vid=6f00d69b-b2d3-4318-adb7-41466e202420"},"vehicle_type_id":"4","last_reported":1737500902,"current_range_meters":22400,"station_id":"ce4bh0p2rcd13ifvqd80","pricing_plan_id":"cebpf4jnsgd1na2vs0mg"},{"bike_id":"ddf6e991-554f-45c5-93a5-1d644f846a2a","system_id":"levelo_inurba_marseille","lat":43.28536,"lon":5.395,"is_reserved":false,"is_disabled":false,"rental_uris":{"android":"levelo://app?vid=ddf6e991-554f-45c5-93a5-1d644f846a2a","ios":"levelo://app?vid=ddf6e991-554f-45c5-93a5-1d644f846a2a"},"vehicle_type_id":"4","last_reported":1737500902,"current_range_meters":37600,"station_id":"ce4bh292rcd13ifvqdg0","pricing_plan_id":"cebpf4jnsgd1na2vs0mg"},{"bike_id":"25cce461-9c2a-4621-ab6f-7612add39744","system_id":"levelo_inurba_marseille","lat":43.3133,"lon":5.39692,"is_reserved":false,"is_disabled":false,"rental_uris":{"android":"levelo://app?vid=25cce461-9c2a-4621-ab6f-7612add39744","ios":"levelo://app?vid=25cce461-9c2a-4621-ab6f-7612add39744"},"vehicle_type_id":"4","last_reported":1737500902,"current_range_meters":38800,"station_id":"ce4bgvp2rcd13ifvqcu0","pricing_plan_id":"cebpf4jnsgd1na2vs0mg"},{"bike_id":"6f287a1d-efa4-4c14-b01a-f96e3d7ad51d","system_id":"levelo_inurba_marseille","lat":43.31066,"lon":5.38346,"is_reserved":false,"is_disabled":false,"rental_uris":{"android":"levelo://app?vid=6f287a1d-efa4-4c14-b01a-f96e3d7ad51d","ios":"levelo://app?vid=6f287a1d-efa4-4c14-b01a-f96e3d7ad51d"},"vehicle_type_id":"4","last_reported":1737500902,"current_range_meters":32400,"station_id":"ce4bgv92rcd13ifvqcr0","pricing_plan_id":"cebpf4jnsgd1na2vs0mg"},{"bike_id":"b78817bb-8b38-40a4-9ee4-06d60470606b","system_id":"levelo_inurba_marseille","lat":43.29562,"lon":5.42271,"is_reserved":false,"is_disabled":false,"rental_uris":{"android":"levelo://app?vid=b78817bb-8b38-40a4-9ee4-06d60470606b","ios":"levelo://app?vid=b78817bb-8b38-40a4-9ee4-06d60470606b"},"vehicle_type_id":"4","last_reported":1737500902,"current_range_meters":38000,"station_id":"ce4bhph2rcd13ifvqhdg","pricing_plan_id":"cebpf4jnsgd1na2vs0mg"},{"bike_id":"2018f599-f9d7-4784-afba-6b6a89abd359","system_id":"levelo_inurba_marseille","lat":43.31533,"lon":5.38043,"is_reserved":false,"is_disabled":false,"rental_uris":{"android":"levelo://app?vid=2018f599-f9d7-4784-afba-6b6a89abd359","ios":"levelo://app?vid=2018f599-f9d7-4784-afba-6b6a89abd359"},"vehicle_type_id":"4","last_reported":1737500902,"current_range_meters":20000,"station_id":"ce4bhsp2rcd13ifvqi50","pricing_plan_id":"cebpf4jnsgd1na2vs0mg"},{"bike_id":"229dd1d5-aa46-48d3-b747-f187a4236bff","system_id":"levelo_inurba_marseille","lat":43.3236,"lon":5.38889,"is_reserved":false,"is_disabled":false,"rental_uris":{"android":"levelo://app?vid=229dd1d5-aa46-48d3-b747-f187a4236bff","ios":"levelo://app?vid=229dd1d5-aa46-48d3-b747-f187a4236bff"},"vehicle_type_id":"4","last_reported":1737500902,"current_range_meters":25600,"station_id":"ce4bhqp2rcd13ifvqhog","pricing_plan_id":"cebpf4jnsgd1na2vs0mg"},{"bike_id":"dcc387f2-c20c-48ff-875e-e9256a855bca","system_id":"levelo_inurba_marseille","lat":43.32045,"lon":5.41497,"is_reserved":false,"is_disabled":false,"rental_uris":{"android":"levelo://app?vid=dcc387f2-c20c-48ff-875e-e9256a855bca","ios":"levelo://app?vid=dcc387f2-c20c-48ff-875e-e9256a855bca"},"vehicle_type_id":"4","last_reported":1737500902,"current_range_meters":37600,"station_id":"ce4bhq92rcd13ifvqhkg","pricing_plan_id":"cebpf4jnsgd1na2vs0mg"},{"bike_id":"9c1dde72-24cb-4d53-9206-666c0da7a1ce","system_id":"levelo_inurba_marseille","lat":43.30616,"lon":5.39332,"is_reserved":false,"is_disabled":false,"rental_uris":{"android":"levelo://app?vid=9c1dde72-24cb-4d53-9206-666c0da7a1ce","ios":"levelo://app?vid=9c1dde72-24cb-4d53-9206-666c0da7a1ce"},"vehicle_type_id":"4","last_reported":1737500902,"current_range_meters":23200,"station_id":"ce4bh0p2rcd13ifvqd80","pricing_plan_id":"cebpf4jnsgd1na2vs0mg"},{"bike_id":"699b2aaa-b5e3-4f45-805d-1bb84d4edf0f","system_id":"levelo_inurba_marseille","lat":43.29438,"lon":5.39751,"is_reserved":false,"is_disabled":false,"rental_uris":{"android":"levelo://app?vid=699b2aaa-b5e3-4f45-805d-1bb84d4edf0f","ios":"levelo://app?vid=699b2aaa-b5e3-4f45-805d-1bb84d4edf0f"},"vehicle_type_id":"4","last_reported":1737500902,"current_range_meters":32800,"station_id":"ce4bh3h2rcd13ifvqdo0","pricing_plan_id":"cebpf4jnsgd1na2vs0mg"},{"bike_id":"396c193e-3b4d-4ca8-93b1-c27fbfad46b3","system_id":"levelo_inurba_marseille","lat":43.25868,"lon":5.39903,"is_reserved":false,"is_disabled":false,"rental_uris":{"android":"levelo://app?vid=396c193e-3b4d-4ca8-93b1-c27fbfad46b3","ios":"levelo://app?vid=396c193e-3b4d-4ca8-93b1-c27fbfad46b3"},"vehicle_type_id":"4","last_reported":1737500902,"current_range_meters":24000,"station_id":"ce4bhl92rcd13ifvqghg","pricing_plan_id":"cebpf4jnsgd1na2vs0mg"},{"bike_id":"b6cc31be-151e-4d56-8839-e71a9cd45b18","system_id":"levelo_inurba_marseille","lat":43.23193,"lon":5.35575,"is_reserved":false,"is_disabled":false,"rental_uris":{"android":"levelo://app?vid=b6cc31be-151e-4d56-8839-e71a9cd45b18","ios":"levelo://app?vid=b6cc31be-151e-4d56-8839-e71a9cd45b18"},"vehicle_type_id":"4","last_reported":1737500902,"current_range_meters":36400,"station_id":"ce4bhu92rcd13ifvqi70","pricing_plan_id":"cebpf4jnsgd1na2vs0mg"},{"bike_id":"2799c8cc-756c-4aea-b7b0-0c1669879e7b","system_id":"levelo_inurba_marseille","lat":43.28832,"lon":5.35856,"is_reserved":false,"is_disabled":false,"rental_uris":{"android":"levelo://app?vid=2799c8cc-756c-4aea-b7b0-0c1669879e7b","ios":"levelo://app?vid=2799c8cc-756c-4aea-b7b0-0c1669879e7b"},"vehicle_type_id":"4","last_reported":1737500902,"current_range_meters":39200,"station_id":"ce4bhb12rcd13ifvqem0","pricing_plan_id":"cebpf4jnsgd1na2vs0mg"},{"bike_id":"90d63685-1ffd-496c-b460-653208dabac5","system_id":"levelo_inurba_marseille","lat":43.29594,"lon":5.40015,"is_reserved":false,"is_disabled":false,"rental_uris":{"android":"levelo://app?vid=90d63685-1ffd-496c-b460-653208dabac5","ios":"levelo://app?vid=90d63685-1ffd-496c-b460-653208dabac5"},"vehicle_type_id":"4","last_reported":1737500902,"current_range_meters":21600,"station_id":"ce4bh312rcd13ifvqdj0","pricing_plan_id":"cebpf4jnsgd1na2vs0mg"},{"bike_id":"4f848a4c-bebd-437a-a9b0-eb4a022da79b","system_id":"levelo_inurba_marseille","lat":43.3023,"lon":5.37441,"is_reserved":false,"is_disabled":false,"rental_uris":{"android":"levelo://app?vid=4f848a4c-bebd-437a-a9b0-eb4a022da79b","ios":"levelo://app?vid=4f848a4c-bebd-437a-a9b0-eb4a022da79b"},"vehicle_type_id":"4","last_reported":1737500902,"current_range_meters":39200,"station_id":"ce4bgs92rcd13ifvqcc0","pricing_plan_id":"cebpf4jnsgd1na2vs0mg"},{"bike_id":"bef6c1af-f80b-4a93-9039-cf48e3f45fa6","system_id":"levelo_inurba_marseille","lat":43.23969,"lon":5.36651,"is_reserved":false,"is_disabled":false,"rental_uris":{"android":"levelo://app?vid=bef6c1af-f80b-4a93-9039-cf48e3f45fa6","ios":"levelo://app?vid=bef6c1af-f80b-4a93-9039-cf48e3f45fa6"},"vehicle_type_id":"4","last_reported":1737500902,"current_range_meters":28800,"station_id":"ce4bhi12rcd13ifvqfp0","pricing_plan_id":"cebpf4jnsgd1na2vs0mg"},{"bike_id":"b8326767-38d7-4d98-88f0-b00c234d69f9","system_id":"levelo_inurba_marseille","lat":43.31049,"lon":5.38363,"is_reserved":false,"is_disabled":false,"rental_uris":{"android":"levelo://app?vid=b8326767-38d7-4d98-88f0-b00c234d69f9","ios":"levelo://app?vid=b8326767-38d7-4d98-88f0-b00c234d69f9"},"vehicle_type_id":"4","last_reported":1737500902,"current_range_meters":25200,"station_id":"ce4bgv92rcd13ifvqcr0","pricing_plan_id":"cebpf4jnsgd1na2vs0mg"},{"bike_id":"7913d9ce-121f-49fa-9a7c-09d5d8f80136","system_id":"levelo_inurba_marseille","lat":43.27861,"lon":5.38004,"is_reserved":false,"is_disabled":false,"rental_uris":{"android":"levelo://app?vid=7913d9ce-121f-49fa-9a7c-09d5d8f80136","ios":"levelo://app?vid=7913d9ce-121f-49fa-9a7c-09d5d8f80136"},"vehicle_type_id":"4","last_reported":1737500902,"current_range_meters":38800,"station_id":"ce4bhf92rcd13ifvqf50","pricing_plan_id":"cebpf4jnsgd1na2vs0mg"},{"bike_id":"ca4e2281-1e7c-4eca-9f47-e69a0874cdb3","system_id":"levelo_inurba_marseille","lat":43.31271,"lon":5.40169,"is_reserved":false,"is_disabled":false,"rental_uris":{"android":"levelo://app?vid=ca4e2281-1e7c-4eca-9f47-e69a0874cdb3","ios":"levelo://app?vid=ca4e2281-1e7c-4eca-9f47-e69a0874cdb3"},"vehicle_type_id":"4","last_reported":1737500902,"current_range_meters":36000,"station_id":"ce4bh092rcd13ifvqd30","pricing_plan_id":"cebpf4jnsgd1na2vs0mg"},{"bike_id":"c85f11a4-b14f-4870-bf7e-35c3397c1129","system_id":"levelo_inurba_marseille","lat":43.29241,"lon":5.40891,"is_reserved":false,"is_disabled":false,"rental_uris":{"android":"levelo://app?vid=c85f11a4-b14f-4870-bf7e-35c3397c1129","ios":"levelo://app?vid=c85f11a4-b14f-4870-bf7e-35c3397c1129"},"vehicle_type_id":"4","last_reported":1737500902,"current_range_meters":26000,"station_id":"ce4bh192rcd13ifvqdc0","pricing_plan_id":"cebpf4jnsgd1na2vs0mg"},{"bike_id":"7f389e7a-ade1-4b76-bf3a-bd5bf61f3d42","system_id":"levelo_inurba_marseille","lat":43.30937,"lon":5.40149,"is_reserved":false,"is_disabled":false,"rental_uris":{"android":"levelo://app?vid=7f389e7a-ade1-4b76-bf3a-bd5bf61f3d42","ios":"levelo://app?vid=7f389e7a-ade1-4b76-bf3a-bd5bf61f3d42"},"vehicle_type_id":"4","last_reported":1737500902,"current_range_meters":39200,"station_id":"","pricing_plan_id":"cebpf4jnsgd1na2vs0mg"},{"bike_id":"aac71eed-fec9-4f89-95a8-f2df692ed8b3","system_id":"levelo_inurba_marseille","lat":43.30947,"lon":5.40156,"is_reserved":false,"is_disabled":false,"rental_uris":{"android":"levelo://app?vid=aac71eed-fec9-4f89-95a8-f2df692ed8b3","ios":"levelo://app?vid=aac71eed-fec9-4f89-95a8-f2df692ed8b3"},"vehicle_type_id":"4","last_reported":1737500902,"current_range_meters":26800,"station_id":"ce4bgvp2rcd13ifvqct0","pricing_plan_id":"cebpf4jnsgd1na2vs0mg"},{"bike_id":"b9fcb3d5-fb1e-4426-9971-37664a09d2b1","system_id":"levelo_inurba_marseille","lat":43.28278,"lon":5.35082,"is_reserved":false,"is_disabled":false,"rental_uris":{"android":"levelo://app?vid=b9fcb3d5-fb1e-4426-9971-37664a09d2b1","ios":"levelo://app?vid=b9fcb3d5-fb1e-4426-9971-37664a09d2b1"},"vehicle_type_id":"4","last_reported":1737500902,"current_range_meters":32800,"station_id":"ce4bhbp2rcd13ifvqerg","pricing_plan_id":"cebpf4jnsgd1na2vs0mg"},{"bike_id":"d21d64cf-90d3-480c-9952-5bd962d7ca84","system_id":"levelo_inurba_marseille","lat":43.31468,"lon":5.383317,"is_reserved":false,"is_disabled":false,"rental_uris":{"android":"levelo://app?vid=d21d64cf-90d3-480c-9952-5bd962d7ca84","ios":"levelo://app?vid=d21d64cf-90d3-480c-9952-5bd962d7ca84"},"vehicle_type_id":"4","last_reported":1737500902,"current_range_meters":32000,"station_id":"","pricing_plan_id":"cebpf4jnsgd1na2vs0mg"},{"bike_id":"2512448d-137b-4c58-a2dc-a8485ce50ee5","system_id":"levelo_inurba_marseille","lat":43.27829,"lon":5.40774,"is_reserved":false,"is_disabled":false,"rental_uris":{"android":"levelo://app?vid=2512448d-137b-4c58-a2dc-a8485ce50ee5","ios":"levelo://app?vid=2512448d-137b-4c58-a2dc-a8485ce50ee5"},"vehicle_type_id":"4","last_reported":1737500902,"current_range_meters":38800,"station_id":"ce4bhnh2rcd13ifvqgtg","pricing_plan_id":"cebpf4jnsgd1na2vs0mg"},{"bike_id":"02143793-f6bb-48e1-a3b8-c36d6792db34","system_id":"levelo_inurba_marseille","lat":43.29285,"lon":5.409,"is_reserved":false,"is_disabled":false,"rental_uris":{"android":"levelo://app?vid=02143793-f6bb-48e1-a3b8-c36d6792db34","ios":"levelo://app?vid=02143793-f6bb-48e1-a3b8-c36d6792db34"},"vehicle_type_id":"4","last_reported":1737500902,"current_range_meters":17200,"station_id":"ce4bh192rcd13ifvqdc0","pricing_plan_id":"cebpf4jnsgd1na2vs0mg"},{"bike_id":"78f7382e-8fcb-4578-a536-bdfffeb211df","system_id":"levelo_inurba_marseille","lat":43.29944,"lon":5.36545,"is_reserved":false,"is_disabled":false,"rental_uris":{"android":"levelo://app?vid=78f7382e-8fcb-4578-a536-bdfffeb211df","ios":"levelo://app?vid=78f7382e-8fcb-4578-a536-bdfffeb211df"},"vehicle_type_id":"4","last_reported":1737500902,"current_range_meters":38800,"station_id":"ce4bgm92rcd13ifvqbr0","pricing_plan_id":"cebpf4jnsgd1na2vs0mg"},{"bike_id":"f74368c7-d357-4224-9e6d-5e00530203e7","system_id":"levelo_inurba_marseille","lat":43.28079,"lon":5.39651,"is_reserved":false,"is_disabled":false,"rental_uris":{"android":"levelo://app?vid=f74368c7-d357-4224-9e6d-5e00530203e7","ios":"levelo://app?vid=f74368c7-d357-4224-9e6d-5e00530203e7"},"vehicle_type_id":"4","last_reported":1737500902,"current_range_meters":38800,"station_id":"ce4bho12rcd13ifvqh2g","pricing_plan_id":"cebpf4jnsgd1na2vs0mg"},{"bike_id":"b0c9e352-eae2-43a2-b561-77e71d1530c6","system_id":"levelo_inurba_marseille","lat":43.24078,"lon":5.3775,"is_reserved":false,"is_disabled":false,"rental_uris":{"android":"levelo://app?vid=b0c9e352-eae2-43a2-b561-77e71d1530c6","ios":"levelo://app?vid=b0c9e352-eae2-43a2-b561-77e71d1530c6"},"vehicle_type_id":"4","last_reported":1737500902,"current_range_meters":39200,"station_id":"ce4bhnp2rcd13ifvqgvg","pricing_plan_id":"cebpf4jnsgd1na2vs0mg"},{"bike_id":"b87c34aa-43bd-43a3-8b9d-d6b39d365422","system_id":"levelo_inurba_marseille","lat":43.287041,"lon":5.373937,"is_reserved":false,"is_disabled":false,"rental_uris":{"android":"levelo://app?vid=b87c34aa-43bd-43a3-8b9d-d6b39d365422","ios":"levelo://app?vid=b87c34aa-43bd-43a3-8b9d-d6b39d365422"},"vehicle_type_id":"4","last_reported":1737500902,"current_range_meters":10000,"station_id":"ce4bh3p2rcd13ifvqdq0","pricing_plan_id":"cebpf4jnsgd1na2vs0mg"},{"bike_id":"1f5cb474-798b-4357-9d76-fbb42e648fb5","system_id":"levelo_inurba_marseille","lat":43.28624,"lon":5.35126,"is_reserved":false,"is_disabled":false,"rental_uris":{"android":"levelo://app?vid=1f5cb474-798b-4357-9d76-fbb42e648fb5","ios":"levelo://app?vid=1f5cb474-798b-4357-9d76-fbb42e648fb5"},"vehicle_type_id":"4","last_reported":1737500902,"current_range_meters":12400,"station_id":"ce4bhch2rcd13ifvqeug","pricing_plan_id":"cebpf4jnsgd1na2vs0mg"},{"bike_id":"7602ec5e-b6be-4286-8ae1-0dcc95a85012","system_id":"levelo_inurba_marseille","lat":43.273753,"lon":5.362447,"is_reserved":false,"is_disabled":false,"rental_uris":{"android":"levelo://app?vid=7602ec5e-b6be-4286-8ae1-0dcc95a85012","ios":"levelo://app?vid=7602ec5e-b6be-4286-8ae1-0dcc95a85012"},"vehicle_type_id":"4","last_reported":1737500902,"current_range_meters":28000,"station_id":"ce4bhbh2rcd13ifvqeo0","pricing_plan_id":"cebpf4jnsgd1na2vs0mg"},{"bike_id":"1f219d1f-61b4-4ad6-a93d-3ad92b5ab97c","system_id":"levelo_inurba_marseille","lat":43.2732,"lon":5.39073,"is_reserved":false,"is_disabled":false,"rental_uris":{"android":"levelo://app?vid=1f219d1f-61b4-4ad6-a93d-3ad92b5ab97c","ios":"levelo://app?vid=1f219d1f-61b4-4ad6-a93d-3ad92b5ab97c"},"vehicle_type_id":"4","last_reported":1737500902,"current_range_meters":24400,"station_id":"ce4bhgp2rcd13ifvqfe0","pricing_plan_id":"cebpf4jnsgd1na2vs0mg"},{"bike_id":"3a05c01c-3fe9-4c05-bddb-752aa75a3511","system_id":"levelo_inurba_marseille","lat":43.28122,"lon":5.3789,"is_reserved":false,"is_disabled":false,"rental_uris":{"android":"levelo://app?vid=3a05c01c-3fe9-4c05-bddb-752aa75a3511","ios":"levelo://app?vid=3a05c01c-3fe9-4c05-bddb-752aa75a3511"},"vehicle_type_id":"4","last_reported":1737500902,"current_range_meters":39200,"station_id":"ce4bha12rcd13ifvqee0","pricing_plan_id":"cebpf4jnsgd1na2vs0mg"},{"bike_id":"a5fb094f-c563-46a7-8a76-54204734f670","system_id":"levelo_inurba_marseille","lat":43.30602,"lon":5.39348,"is_reserved":false,"is_disabled":false,"rental_uris":{"android":"levelo://app?vid=a5fb094f-c563-46a7-8a76-54204734f670","ios":"levelo://app?vid=a5fb094f-c563-46a7-8a76-54204734f670"},"vehicle_type_id":"4","last_reported":1737500902,"current_range_meters":21600,"station_id":"ce4bh0p2rcd13ifvqd80","pricing_plan_id":"cebpf4jnsgd1na2vs0mg"},{"bike_id":"065f4811-bbda-4fa3-9aef-98a88a93c377","system_id":"levelo_inurba_marseille","lat":43.25731,"lon":5.41111,"is_reserved":false,"is_disabled":false,"rental_uris":{"android":"levelo://app?vid=065f4811-bbda-4fa3-9aef-98a88a93c377","ios":"levelo://app?vid=065f4811-bbda-4fa3-9aef-98a88a93c377"},"vehicle_type_id":"4","last_reported":1737500902,"current_range_meters":38400,"station_id":"ce4bhkp2rcd13ifvqgd0","pricing_plan_id":"cebpf4jnsgd1na2vs0mg"},{"bike_id":"8e7f04d3-65ad-47a4-aea0-00bc1e348077","system_id":"levelo_inurba_marseille","lat":43.27371,"lon":5.36256,"is_reserved":false,"is_disabled":false,"rental_uris":{"android":"levelo://app?vid=8e7f04d3-65ad-47a4-aea0-00bc1e348077","ios":"levelo://app?vid=8e7f04d3-65ad-47a4-aea0-00bc1e348077"},"vehicle_type_id":"4","last_reported":1737500902,"current_range_meters":38000,"station_id":"ce4bhbh2rcd13ifvqeo0","pricing_plan_id":"cebpf4jnsgd1na2vs0mg"},{"bike_id":"31cb70a6-5f0a-4cdd-9bd0-366e299d710e","system_id":"levelo_inurba_marseille","lat":43.2846,"lon":5.35879,"is_reserved":false,"is_disabled":false,"rental_uris":{"android":"levelo://app?vid=31cb70a6-5f0a-4cdd-9bd0-366e299d710e","ios":"levelo://app?vid=31cb70a6-5f0a-4cdd-9bd0-366e299d710e"},"vehicle_type_id":"4","last_reported":1737500902,"current_range_meters":38400,"station_id":"ce4bhah2rcd13ifvqei0","pricing_plan_id":"cebpf4jnsgd1na2vs0mg"},{"bike_id":"bb5de0e2-b96a-4ca1-9b62-ec4b7f2effce","system_id":"levelo_inurba_marseille","lat":43.28437,"lon":5.391833,"is_reserved":false,"is_disabled":false,"rental_uris":{"android":"levelo://app?vid=bb5de0e2-b96a-4ca1-9b62-ec4b7f2effce","ios":"levelo://app?vid=bb5de0e2-b96a-4ca1-9b62-ec4b7f2effce"},"vehicle_type_id":"4","last_reported":1737500902,"current_range_meters":6400,"station_id":"ce4bhoh2rcd13ifvqh5g","pricing_plan_id":"cebpf4jnsgd1na2vs0mg"},{"bike_id":"a710decb-e465-45b0-8743-9598eed3ef1a","system_id":"levelo_inurba_marseille","lat":43.28707,"lon":5.37394,"is_reserved":false,"is_disabled":false,"rental_uris":{"android":"levelo://app?vid=a710decb-e465-45b0-8743-9598eed3ef1a","ios":"levelo://app?vid=a710decb-e465-45b0-8743-9598eed3ef1a"},"vehicle_type_id":"4","last_reported":1737500902,"current_range_meters":28800,"station_id":"ce4bh3p2rcd13ifvqdq0","pricing_plan_id":"cebpf4jnsgd1na2vs0mg"},{"bike_id":"af9d6b5c-7f34-43ce-af10-19d080bc69b2","system_id":"levelo_inurba_marseille","lat":43.25514,"lon":5.37669,"is_reserved":false,"is_disabled":false,"rental_uris":{"android":"levelo://app?vid=af9d6b5c-7f34-43ce-af10-19d080bc69b2","ios":"levelo://app?vid=af9d6b5c-7f34-43ce-af10-19d080bc69b2"},"vehicle_type_id":"4","last_reported":1737500902,"current_range_meters":4400,"station_id":"ce4bhh12rcd13ifvqff0","pricing_plan_id":"cebpf4jnsgd1na2vs0mg"},{"bike_id":"f542ccc3-203e-41c0-bd66-f7c023f2d04d","system_id":"levelo_inurba_marseille","lat":43.280812,"lon":5.396619,"is_reserved":false,"is_disabled":false,"rental_uris":{"android":"levelo://app?vid=f542ccc3-203e-41c0-bd66-f7c023f2d04d","ios":"levelo://app?vid=f542ccc3-203e-41c0-bd66-f7c023f2d04d"},"vehicle_type_id":"4","last_reported":1737500902,"current_range_meters":38800,"station_id":"ce4bho12rcd13ifvqh2g","pricing_plan_id":"cebpf4jnsgd1na2vs0mg"},{"bike_id":"d4d1764d-04ec-465c-a2de-8d50196cdd08","system_id":"levelo_inurba_marseille","lat":43.2396,"lon":5.36661,"is_reserved":false,"is_disabled":false,"rental_uris":{"android":"levelo://app?vid=d4d1764d-04ec-465c-a2de-8d50196cdd08","ios":"levelo://app?vid=d4d1764d-04ec-465c-a2de-8d50196cdd08"},"vehicle_type_id":"4","last_reported":1737500902,"current_range_meters":11600,"station_id":"ce4bhi12rcd13ifvqfp0","pricing_plan_id":"cebpf4jnsgd1na2vs0mg"},{"bike_id":"51f18ef2-87ea-47fa-bbdc-b18149212c4f","system_id":"levelo_inurba_marseille","lat":43.30815,"lon":5.38152,"is_reserved":false,"is_disabled":true,"rental_uris":{"android":"levelo://app?vid=51f18ef2-87ea-47fa-bbdc-b18149212c4f","ios":"levelo://app?vid=51f18ef2-87ea-47fa-bbdc-b18149212c4f"},"vehicle_type_id":"4","last_reported":1737500902,"current_range_meters":400,"station_id":"ce4bgt12rcd13ifvqce0","pricing_plan_id":"cebpf4jnsgd1na2vs0mg"},{"bike_id":"3d820e8e-c6f2-48ec-a860-b74a27bf9146","system_id":"levelo_inurba_marseille","lat":43.28617,"lon":5.35108,"is_reserved":false,"is_disabled":false,"rental_uris":{"android":"levelo://app?vid=3d820e8e-c6f2-48ec-a860-b74a27bf9146","ios":"levelo://app?vid=3d820e8e-c6f2-48ec-a860-b74a27bf9146"},"vehicle_type_id":"4","last_reported":1737500902,"current_range_meters":33200,"station_id":"ce4bhch2rcd13ifvqeug","pricing_plan_id":"cebpf4jnsgd1na2vs0mg"},{"bike_id":"8e404ec1-5836-412e-958b-106dc9330f26","system_id":"levelo_inurba_marseille","lat":43.2871,"lon":5.3794,"is_reserved":false,"is_disabled":false,"rental_uris":{"android":"levelo://app?vid=8e404ec1-5836-412e-958b-106dc9330f26","ios":"levelo://app?vid=8e404ec1-5836-412e-958b-106dc9330f26"},"vehicle_type_id":"4","last_reported":1737500902,"current_range_meters":8400,"station_id":"ce4bh9p2rcd13ifvqec0","pricing_plan_id":"cebpf4jnsgd1na2vs0mg"},{"bike_id":"3915da4d-e8a0-4a92-9c20-853e3b42fcbe","system_id":"levelo_inurba_marseille","lat":43.29891,"lon":5.38884,"is_reserved":false,"is_disabled":false,"rental_uris":{"android":"levelo://app?vid=3915da4d-e8a0-4a92-9c20-853e3b42fcbe","ios":"levelo://app?vid=3915da4d-e8a0-4a92-9c20-853e3b42fcbe"},"vehicle_type_id":"4","last_reported":1737500902,"current_range_meters":39200,"station_id":"ce4bh392rcd13ifvqdl0","pricing_plan_id":"cebpf4jnsgd1na2vs0mg"},{"bike_id":"966632b3-ddbb-42a2-879d-3bf9ebee52b0","system_id":"levelo_inurba_marseille","lat":43.30587,"lon":5.39323,"is_reserved":false,"is_disabled":false,"rental_uris":{"android":"levelo://app?vid=966632b3-ddbb-42a2-879d-3bf9ebee52b0","ios":"levelo://app?vid=966632b3-ddbb-42a2-879d-3bf9ebee52b0"},"vehicle_type_id":"4","last_reported":1737500902,"current_range_meters":26000,"station_id":"ce4bh0p2rcd13ifvqd80","pricing_plan_id":"cebpf4jnsgd1na2vs0mg"},{"bike_id":"6e1433da-ca9f-4090-b658-fb877339609a","system_id":"levelo_inurba_marseille","lat":43.27827,"lon":5.4071,"is_reserved":false,"is_disabled":false,"rental_uris":{"android":"levelo://app?vid=6e1433da-ca9f-4090-b658-fb877339609a","ios":"levelo://app?vid=6e1433da-ca9f-4090-b658-fb877339609a"},"vehicle_type_id":"4","last_reported":1737500902,"current_range_meters":36400,"station_id":"ce4bhnh2rcd13ifvqgtg","pricing_plan_id":"cebpf4jnsgd1na2vs0mg"},{"bike_id":"48178648-a5cc-49a7-a582-fb3aa5589302","system_id":"levelo_inurba_marseille","lat":43.25028,"lon":5.3819,"is_reserved":false,"is_disabled":true,"rental_uris":{"android":"levelo://app?vid=48178648-a5cc-49a7-a582-fb3aa5589302","ios":"levelo://app?vid=48178648-a5cc-49a7-a582-fb3aa5589302"},"vehicle_type_id":"4","last_reported":1737500902,"current_range_meters":0,"station_id":"","pricing_plan_id":"cebpf4jnsgd1na2vs0mg"},{"bike_id":"e58f4812-b92f-4cca-b6a0-4a5d31618098","system_id":"levelo_inurba_marseille","lat":43.27923,"lon":5.39584,"is_reserved":false,"is_disabled":true,"rental_uris":{"android":"levelo://app?vid=e58f4812-b92f-4cca-b6a0-4a5d31618098","ios":"levelo://app?vid=e58f4812-b92f-4cca-b6a0-4a5d31618098"},"vehicle_type_id":"4","last_reported":1737500902,"current_range_meters":1600,"station_id":"ce4bhf92rcd13ifvqf40","pricing_plan_id":"cebpf4jnsgd1na2vs0mg"},{"bike_id":"2501ae24-5703-45d3-ac01-dec581041e28","system_id":"levelo_inurba_marseille","lat":43.2865,"lon":5.36283,"is_reserved":false,"is_disabled":false,"rental_uris":{"android":"levelo://app?vid=2501ae24-5703-45d3-ac01-dec581041e28","ios":"levelo://app?vid=2501ae24-5703-45d3-ac01-dec581041e28"},"vehicle_type_id":"4","last_reported":1737500902,"current_range_meters":9600,"station_id":"ce4bhah2rcd13ifvqej0","pricing_plan_id":"cebpf4jnsgd1na2vs0mg"},{"bike_id":"741aa226-41f7-40d7-9698-9eb35a5fef23","system_id":"levelo_inurba_marseille","lat":43.25116,"lon":5.40321,"is_reserved":false,"is_disabled":false,"rental_uris":{"android":"levelo://app?vid=741aa226-41f7-40d7-9698-9eb35a5fef23","ios":"levelo://app?vid=741aa226-41f7-40d7-9698-9eb35a5fef23"},"vehicle_type_id":"4","last_reported":1737500902,"current_range_meters":23200,"station_id":"ce4bhlh2rcd13ifvqgig","pricing_plan_id":"cebpf4jnsgd1na2vs0mg"},{"bike_id":"e57ac2e9-58d0-4a9e-8d12-cff43a720915","system_id":"levelo_inurba_marseille","lat":43.30937,"lon":5.40142,"is_reserved":false,"is_disabled":false,"rental_uris":{"android":"levelo://app?vid=e57ac2e9-58d0-4a9e-8d12-cff43a720915","ios":"levelo://app?vid=e57ac2e9-58d0-4a9e-8d12-cff43a720915"},"vehicle_type_id":"4","last_reported":1737500902,"current_range_meters":36800,"station_id":"ce4bgvp2rcd13ifvqct0","pricing_plan_id":"cebpf4jnsgd1na2vs0mg"},{"bike_id":"a858181c-287f-411d-8c00-36df8d78bf00","system_id":"levelo_inurba_marseille","lat":43.31398,"lon":5.38495,"is_reserved":false,"is_disabled":false,"rental_uris":{"android":"levelo://app?vid=a858181c-287f-411d-8c00-36df8d78bf00","ios":"levelo://app?vid=a858181c-287f-411d-8c00-36df8d78bf00"},"vehicle_type_id":"4","last_reported":1737500902,"current_range_meters":37600,"station_id":"ce4bgt92rcd13ifvqcf0","pricing_plan_id":"cebpf4jnsgd1na2vs0mg"},{"bike_id":"18775a3e-ea0d-4999-9c10-11481e6258ef","system_id":"levelo_inurba_marseille","lat":43.28866,"lon":5.35889,"is_reserved":false,"is_disabled":false,"rental_uris":{"android":"levelo://app?vid=18775a3e-ea0d-4999-9c10-11481e6258ef","ios":"levelo://app?vid=18775a3e-ea0d-4999-9c10-11481e6258ef"},"vehicle_type_id":"4","last_reported":1737500902,"current_range_meters":22800,"station_id":"ce4bhb12rcd13ifvqem0","pricing_plan_id":"cebpf4jnsgd1na2vs0mg"},{"bike_id":"24afdfab-37c4-4735-92c6-d449a19a0169","system_id":"levelo_inurba_marseille","lat":43.28154,"lon":5.42677,"is_reserved":false,"is_disabled":false,"rental_uris":{"android":"levelo://app?vid=24afdfab-37c4-4735-92c6-d449a19a0169","ios":"levelo://app?vid=24afdfab-37c4-4735-92c6-d449a19a0169"},"vehicle_type_id":"4","last_reported":1737500902,"current_range_meters":38000,"station_id":"ce4bhnh2rcd13ifvqgug","pricing_plan_id":"cebpf4jnsgd1na2vs0mg"},{"bike_id":"ecb5b041-6b5e-4078-9351-03e340d23225","system_id":"levelo_inurba_marseille","lat":43.25585,"lon":5.38227,"is_reserved":false,"is_disabled":false,"rental_uris":{"android":"levelo://app?vid=ecb5b041-6b5e-4078-9351-03e340d23225","ios":"levelo://app?vid=ecb5b041-6b5e-4078-9351-03e340d23225"},"vehicle_type_id":"4","last_reported":1737500902,"current_range_meters":38800,"station_id":"ce4bhih2rcd13ifvqfs0","pricing_plan_id":"cebpf4jnsgd1na2vs0mg"},{"bike_id":"3e2413f1-be2a-4539-9db1-7ce3307c11de","system_id":"levelo_inurba_marseille","lat":43.30677,"lon":5.40094,"is_reserved":false,"is_disabled":false,"rental_uris":{"android":"levelo://app?vid=3e2413f1-be2a-4539-9db1-7ce3307c11de","ios":"levelo://app?vid=3e2413f1-be2a-4539-9db1-7ce3307c11de"},"vehicle_type_id":"4","last_reported":1737500902,"current_range_meters":36000,"station_id":"ce4bh112rcd13ifvqda0","pricing_plan_id":"cebpf4jnsgd1na2vs0mg"},{"bike_id":"37ddfd41-7f7e-494f-9e56-ed907731cc38","system_id":"levelo_inurba_marseille","lat":43.29962,"lon":5.41325,"is_reserved":false,"is_disabled":false,"rental_uris":{"android":"levelo://app?vid=37ddfd41-7f7e-494f-9e56-ed907731cc38","ios":"levelo://app?vid=37ddfd41-7f7e-494f-9e56-ed907731cc38"},"vehicle_type_id":"4","last_reported":1737500902,"current_range_meters":10800,"station_id":"ce4bhp12rcd13ifvqh9g","pricing_plan_id":"cebpf4jnsgd1na2vs0mg"},{"bike_id":"91fa54a2-f5cb-4c04-a2a2-02cd589ea675","system_id":"levelo_inurba_marseille","lat":43.290271,"lon":5.386401,"is_reserved":false,"is_disabled":true,"rental_uris":{"android":"levelo://app?vid=91fa54a2-f5cb-4c04-a2a2-02cd589ea675","ios":"levelo://app?vid=91fa54a2-f5cb-4c04-a2a2-02cd589ea675"},"vehicle_type_id":"4","last_reported":1737500902,"current_range_meters":8800,"station_id":"ce4bh4p2rcd13ifvqe0g","pricing_plan_id":"cebpf4jnsgd1na2vs0mg"},{"bike_id":"d5b436b2-f12b-4b14-903e-3514e55b73b3","system_id":"levelo_inurba_marseille","lat":43.28262,"lon":5.35072,"is_reserved":false,"is_disabled":false,"rental_uris":{"android":"levelo://app?vid=d5b436b2-f12b-4b14-903e-3514e55b73b3","ios":"levelo://app?vid=d5b436b2-f12b-4b14-903e-3514e55b73b3"},"vehicle_type_id":"4","last_reported":1737500902,"current_range_meters":38800,"station_id":"ce4bhbp2rcd13ifvqerg","pricing_plan_id":"cebpf4jnsgd1na2vs0mg"},{"bike_id":"fb351521-7339-453e-ad06-c068124edeec","system_id":"levelo_inurba_marseille","lat":43.23191,"lon":5.39998,"is_reserved":false,"is_disabled":false,"rental_uris":{"android":"levelo://app?vid=fb351521-7339-453e-ad06-c068124edeec","ios":"levelo://app?vid=fb351521-7339-453e-ad06-c068124edeec"},"vehicle_type_id":"4","last_reported":1737500902,"current_range_meters":38800,"station_id":"ce4bhn12rcd13ifvqgqg","pricing_plan_id":"cebpf4jnsgd1na2vs0mg"},{"bike_id":"b1754825-52ac-4dfb-a18b-b5a11527f15f","system_id":"levelo_inurba_marseille","lat":43.29273,"lon":5.40165,"is_reserved":false,"is_disabled":false,"rental_uris":{"android":"levelo://app?vid=b1754825-52ac-4dfb-a18b-b5a11527f15f","ios":"levelo://app?vid=b1754825-52ac-4dfb-a18b-b5a11527f15f"},"vehicle_type_id":"4","last_reported":1737500902,"current_range_meters":22800,"station_id":"ce4bh312rcd13ifvqdk0","pricing_plan_id":"cebpf4jnsgd1na2vs0mg"},{"bike_id":"833045f4-099f-4af9-b38b-8b486a525dd4","system_id":"levelo_inurba_marseille","lat":43.2731,"lon":5.39073,"is_reserved":false,"is_disabled":false,"rental_uris":{"android":"levelo://app?vid=833045f4-099f-4af9-b38b-8b486a525dd4","ios":"levelo://app?vid=833045f4-099f-4af9-b38b-8b486a525dd4"},"vehicle_type_id":"4","last_reported":1737500902,"current_range_meters":24800,"station_id":"ce4bhgp2rcd13ifvqfe0","pricing_plan_id":"cebpf4jnsgd1na2vs0mg"},{"bike_id":"46be7323-ba6d-499a-a4b3-2fb0f86c46da","system_id":"levelo_inurba_marseille","lat":43.27676,"lon":5.3887,"is_reserved":false,"is_disabled":false,"rental_uris":{"android":"levelo://app?vid=46be7323-ba6d-499a-a4b3-2fb0f86c46da","ios":"levelo://app?vid=46be7323-ba6d-499a-a4b3-2fb0f86c46da"},"vehicle_type_id":"4","last_reported":1737500902,"current_range_meters":18800,"station_id":"ce4bhi12rcd13ifvqfo0","pricing_plan_id":"cebpf4jnsgd1na2vs0mg"},{"bike_id":"50348d1e-afd5-4713-af14-072368523fb3","system_id":"levelo_inurba_marseille","lat":43.27496,"lon":5.42465,"is_reserved":false,"is_disabled":false,"rental_uris":{"android":"levelo://app?vid=50348d1e-afd5-4713-af14-072368523fb3","ios":"levelo://app?vid=50348d1e-afd5-4713-af14-072368523fb3"},"vehicle_type_id":"4","last_reported":1737500902,"current_range_meters":5600,"station_id":"ce4bhn92rcd13ifvqgrg","pricing_plan_id":"cebpf4jnsgd1na2vs0mg"},{"bike_id":"04b87d48-bb8f-46c9-acee-6d1144ad1e24","system_id":"levelo_inurba_marseille","lat":43.26808,"lon":5.40265,"is_reserved":false,"is_disabled":false,"rental_uris":{"android":"levelo://app?vid=04b87d48-bb8f-46c9-acee-6d1144ad1e24","ios":"levelo://app?vid=04b87d48-bb8f-46c9-acee-6d1144ad1e24"},"vehicle_type_id":"4","last_reported":1737500902,"current_range_meters":14000,"station_id":"ce501612rcd8frsf0b60","pricing_plan_id":"cebpf4jnsgd1na2vs0mg"},{"bike_id":"5f8e19c0-9d34-400f-8357-29490985c9f2","system_id":"levelo_inurba_marseille","lat":43.27376,"lon":5.36266,"is_reserved":false,"is_disabled":false,"rental_uris":{"android":"levelo://app?vid=5f8e19c0-9d34-400f-8357-29490985c9f2","ios":"levelo://app?vid=5f8e19c0-9d34-400f-8357-29490985c9f2"},"vehicle_type_id":"4","last_reported":1737500902,"current_range_meters":38800,"station_id":"ce4bhbh2rcd13ifvqeo0","pricing_plan_id":"cebpf4jnsgd1na2vs0mg"},{"bike_id":"f4b1265a-ddff-4304-a4ea-740216989f25","system_id":"levelo_inurba_marseille","lat":43.26942,"lon":5.40252,"is_reserved":false,"is_disabled":false,"rental_uris":{"android":"levelo://app?vid=f4b1265a-ddff-4304-a4ea-740216989f25","ios":"levelo://app?vid=f4b1265a-ddff-4304-a4ea-740216989f25"},"vehicle_type_id":"4","last_reported":1737500902,"current_range_meters":17600,"station_id":"cjm6bp8fraef2m0cb0m0","pricing_plan_id":"cebpf4jnsgd1na2vs0mg"},{"bike_id":"782a366d-5b51-4864-8e8d-a63bbed1e20d","system_id":"levelo_inurba_marseille","lat":43.2594,"lon":5.40909,"is_reserved":false,"is_disabled":false,"rental_uris":{"android":"levelo://app?vid=782a366d-5b51-4864-8e8d-a63bbed1e20d","ios":"levelo://app?vid=782a366d-5b51-4864-8e8d-a63bbed1e20d"},"vehicle_type_id":"4","last_reported":1737500902,"current_range_meters":8800,"station_id":"ce4bhm92rcd13ifvqglg","pricing_plan_id":"cebpf4jnsgd1na2vs0mg"},{"bike_id":"041da02b-9c7e-425f-8720-65c9a3555272","system_id":"levelo_inurba_marseille","lat":43.31759,"lon":5.39029,"is_reserved":false,"is_disabled":false,"rental_uris":{"android":"levelo://app?vid=041da02b-9c7e-425f-8720-65c9a3555272","ios":"levelo://app?vid=041da02b-9c7e-425f-8720-65c9a3555272"},"vehicle_type_id":"4","last_reported":1737500902,"current_range_meters":21600,"station_id":"ce4bhqp2rcd13ifvqhng","pricing_plan_id":"cebpf4jnsgd1na2vs0mg"},{"bike_id":"a546c9b0-986b-47f8-b1d7-665e2fa1229f","system_id":"levelo_inurba_marseille","lat":43.28109,"lon":5.37906,"is_reserved":false,"is_disabled":true,"rental_uris":{"android":"levelo://app?vid=a546c9b0-986b-47f8-b1d7-665e2fa1229f","ios":"levelo://app?vid=a546c9b0-986b-47f8-b1d7-665e2fa1229f"},"vehicle_type_id":"4","last_reported":1737500902,"current_range_meters":38400,"station_id":"ce4bha12rcd13ifvqee0","pricing_plan_id":"cebpf4jnsgd1na2vs0mg"},{"bike_id":"74113b61-d3c1-4228-9386-61d8005c6b84","system_id":"levelo_inurba_marseille","lat":43.30801,"lon":5.38159,"is_reserved":false,"is_disabled":false,"rental_uris":{"android":"levelo://app?vid=74113b61-d3c1-4228-9386-61d8005c6b84","ios":"levelo://app?vid=74113b61-d3c1-4228-9386-61d8005c6b84"},"vehicle_type_id":"4","last_reported":1737500902,"current_range_meters":24800,"station_id":"ce4bgt12rcd13ifvqce0","pricing_plan_id":"cebpf4jnsgd1na2vs0mg"},{"bike_id":"8e1d8b51-c006-49e9-90af-c6bd66e9af45","system_id":"levelo_inurba_marseille","lat":43.31723,"lon":5.40471,"is_reserved":false,"is_disabled":false,"rental_uris":{"android":"levelo://app?vid=8e1d8b51-c006-49e9-90af-c6bd66e9af45","ios":"levelo://app?vid=8e1d8b51-c006-49e9-90af-c6bd66e9af45"},"vehicle_type_id":"4","last_reported":1737500902,"current_range_meters":38800,"station_id":"ce4bh012rcd13ifvqd00","pricing_plan_id":"cebpf4jnsgd1na2vs0mg"},{"bike_id":"e7760743-a58c-4262-bea6-c4ca337337d0","system_id":"levelo_inurba_marseille","lat":43.337261,"lon":5.391871,"is_reserved":false,"is_disabled":false,"rental_uris":{"android":"levelo://app?vid=e7760743-a58c-4262-bea6-c4ca337337d0","ios":"levelo://app?vid=e7760743-a58c-4262-bea6-c4ca337337d0"},"vehicle_type_id":"4","last_reported":1737500902,"current_range_meters":22400,"station_id":"ce4bhr92rcd13ifvqhsg","pricing_plan_id":"cebpf4jnsgd1na2vs0mg"},{"bike_id":"5bc55e98-e67e-42e5-ae2a-43409348dcdd","system_id":"levelo_inurba_marseille","lat":43.32341,"lon":5.40634,"is_reserved":false,"is_disabled":false,"rental_uris":{"android":"levelo://app?vid=5bc55e98-e67e-42e5-ae2a-43409348dcdd","ios":"levelo://app?vid=5bc55e98-e67e-42e5-ae2a-43409348dcdd"},"vehicle_type_id":"4","last_reported":1737500902,"current_range_meters":38800,"station_id":"ce4bhq92rcd13ifvqhjg","pricing_plan_id":"cebpf4jnsgd1na2vs0mg"},{"bike_id":"d8249565-da62-4270-ace9-31e23b9afbc4","system_id":"levelo_inurba_marseille","lat":43.25115,"lon":5.40321,"is_reserved":false,"is_disabled":false,"rental_uris":{"android":"levelo://app?vid=d8249565-da62-4270-ace9-31e23b9afbc4","ios":"levelo://app?vid=d8249565-da62-4270-ace9-31e23b9afbc4"},"vehicle_type_id":"4","last_reported":1737500902,"current_range_meters":23200,"station_id":"ce4bhlh2rcd13ifvqgig","pricing_plan_id":"cebpf4jnsgd1na2vs0mg"},{"bike_id":"0b9b413f-7704-4860-841a-7f725dbde95d","system_id":"levelo_inurba_marseille","lat":43.2509,"lon":5.395,"is_reserved":false,"is_disabled":true,"rental_uris":{"android":"levelo://app?vid=0b9b413f-7704-4860-841a-7f725dbde95d","ios":"levelo://app?vid=0b9b413f-7704-4860-841a-7f725dbde95d"},"vehicle_type_id":"4","last_reported":1737500902,"current_range_meters":3200,"station_id":"ce4bhm12rcd13ifvqgkg","pricing_plan_id":"cebpf4jnsgd1na2vs0mg"},{"bike_id":"c57d151d-e636-4d91-adf9-2819f04f7ca4","system_id":"levelo_inurba_marseille","lat":43.27886,"lon":5.37991,"is_reserved":false,"is_disabled":true,"rental_uris":{"android":"levelo://app?vid=c57d151d-e636-4d91-adf9-2819f04f7ca4","ios":"levelo://app?vid=c57d151d-e636-4d91-adf9-2819f04f7ca4"},"vehicle_type_id":"4","last_reported":1737500902,"current_range_meters":0,"station_id":"ce4bhf92rcd13ifvqf50","pricing_plan_id":"cebpf4jnsgd1na2vs0mg"},{"bike_id":"0f081bdf-06ec-4b16-8769-afec1d097756","system_id":"levelo_inurba_marseille","lat":43.3089,"lon":5.39657,"is_reserved":false,"is_disabled":false,"rental_uris":{"android":"levelo://app?vid=0f081bdf-06ec-4b16-8769-afec1d097756","ios":"levelo://app?vid=0f081bdf-06ec-4b16-8769-afec1d097756"},"vehicle_type_id":"4","last_reported":1737500902,"current_range_meters":12000,"station_id":"ce4bh012rcd13ifvqcv0","pricing_plan_id":"cebpf4jnsgd1na2vs0mg"},{"bike_id":"eb0fa629-f4ed-42bc-ac5e-d6439a5d6620","system_id":"levelo_inurba_marseille","lat":43.28355,"lon":5.38114,"is_reserved":false,"is_disabled":false,"rental_uris":{"android":"levelo://app?vid=eb0fa629-f4ed-42bc-ac5e-d6439a5d6620","ios":"levelo://app?vid=eb0fa629-f4ed-42bc-ac5e-d6439a5d6620"},"vehicle_type_id":"4","last_reported":1737500902,"current_range_meters":33600,"station_id":"ce4bh412rcd13ifvqdr0","pricing_plan_id":"cebpf4jnsgd1na2vs0mg"},{"bike_id":"f6d34ec5-9a82-496d-91e1-3e7f8d04fbfb","system_id":"levelo_inurba_marseille","lat":43.297718,"lon":5.371144,"is_reserved":false,"is_disabled":false,"rental_uris":{"android":"levelo://app?vid=f6d34ec5-9a82-496d-91e1-3e7f8d04fbfb","ios":"levelo://app?vid=f6d34ec5-9a82-496d-91e1-3e7f8d04fbfb"},"vehicle_type_id":"4","last_reported":1737500902,"current_range_meters":38800,"station_id":"ce4bgop2rcd13ifvqc1g","pricing_plan_id":"cebpf4jnsgd1na2vs0mg"},{"bike_id":"f7ff9809-554a-403c-a5f6-8cd0fbc6d406","system_id":"levelo_inurba_marseille","lat":43.30661,"lon":5.40088,"is_reserved":false,"is_disabled":false,"rental_uris":{"android":"levelo://app?vid=f7ff9809-554a-403c-a5f6-8cd0fbc6d406","ios":"levelo://app?vid=f7ff9809-554a-403c-a5f6-8cd0fbc6d406"},"vehicle_type_id":"4","last_reported":1737500902,"current_range_meters":38800,"station_id":"ce4bh112rcd13ifvqda0","pricing_plan_id":"cebpf4jnsgd1na2vs0mg"},{"bike_id":"fc9b4ce7-d310-48aa-a626-198321e80594","system_id":"levelo_inurba_marseille","lat":43.28723,"lon":5.36094,"is_reserved":false,"is_disabled":false,"rental_uris":{"android":"levelo://app?vid=fc9b4ce7-d310-48aa-a626-198321e80594","ios":"levelo://app?vid=fc9b4ce7-d310-48aa-a626-198321e80594"},"vehicle_type_id":"4","last_reported":1737500902,"current_range_meters":24400,"station_id":"cki0cbj6b192h4jlfktg","pricing_plan_id":"cebpf4jnsgd1na2vs0mg"},{"bike_id":"670bd003-0359-4e84-ae3b-6cfe023d8a61","system_id":"levelo_inurba_marseille","lat":43.26474,"lon":5.37296,"is_reserved":false,"is_disabled":false,"rental_uris":{"android":"levelo://app?vid=670bd003-0359-4e84-ae3b-6cfe023d8a61","ios":"levelo://app?vid=670bd003-0359-4e84-ae3b-6cfe023d8a61"},"vehicle_type_id":"4","last_reported":1737500902,"current_range_meters":28000,"station_id":"ce4bhg12rcd13ifvqf70","pricing_plan_id":"cebpf4jnsgd1na2vs0mg"},{"bike_id":"0b90088b-7166-4b5c-ad33-ceb9c824a968","system_id":"levelo_inurba_marseille","lat":43.28726,"lon":5.36101,"is_reserved":false,"is_disabled":false,"rental_uris":{"android":"levelo://app?vid=0b90088b-7166-4b5c-ad33-ceb9c824a968","ios":"levelo://app?vid=0b90088b-7166-4b5c-ad33-ceb9c824a968"},"vehicle_type_id":"4","last_reported":1737500902,"current_range_meters":27600,"station_id":"cki0cbj6b192h4jlfktg","pricing_plan_id":"cebpf4jnsgd1na2vs0mg"},{"bike_id":"b5c70387-0da9-4ce9-a50d-f5788754fc10","system_id":"levelo_inurba_marseille","lat":43.28713,"lon":5.37411,"is_reserved":false,"is_disabled":false,"rental_uris":{"android":"levelo://app?vid=b5c70387-0da9-4ce9-a50d-f5788754fc10","ios":"levelo://app?vid=b5c70387-0da9-4ce9-a50d-f5788754fc10"},"vehicle_type_id":"4","last_reported":1737500902,"current_range_meters":20400,"station_id":"ce4bh3p2rcd13ifvqdq0","pricing_plan_id":"cebpf4jnsgd1na2vs0mg"},{"bike_id":"c4a7c9be-7b43-41c5-9ca3-6e88060abb2b","system_id":"levelo_inurba_marseille","lat":43.28701,"lon":5.39984,"is_reserved":false,"is_disabled":false,"rental_uris":{"android":"levelo://app?vid=c4a7c9be-7b43-41c5-9ca3-6e88060abb2b","ios":"levelo://app?vid=c4a7c9be-7b43-41c5-9ca3-6e88060abb2b"},"vehicle_type_id":"4","last_reported":1737500902,"current_range_meters":27600,"station_id":"ce4bho92rcd13ifvqh3g","pricing_plan_id":"cebpf4jnsgd1na2vs0mg"},{"bike_id":"2fc90e2b-7bc3-4c1c-b9a1-54e988a74917","system_id":"levelo_inurba_marseille","lat":43.279439,"lon":5.389008,"is_reserved":false,"is_disabled":true,"rental_uris":{"android":"levelo://app?vid=2fc90e2b-7bc3-4c1c-b9a1-54e988a74917","ios":"levelo://app?vid=2fc90e2b-7bc3-4c1c-b9a1-54e988a74917"},"vehicle_type_id":"4","last_reported":1737500902,"current_range_meters":32000,"station_id":"","pricing_plan_id":"cebpf4jnsgd1na2vs0mg"},{"bike_id":"6afeeefa-11c0-4f74-82c2-cb592a43a0b2","system_id":"levelo_inurba_marseille","lat":43.281509,"lon":5.426446,"is_reserved":false,"is_disabled":false,"rental_uris":{"android":"levelo://app?vid=6afeeefa-11c0-4f74-82c2-cb592a43a0b2","ios":"levelo://app?vid=6afeeefa-11c0-4f74-82c2-cb592a43a0b2"},"vehicle_type_id":"4","last_reported":1737500902,"current_range_meters":38800,"station_id":"ce4bhnh2rcd13ifvqgug","pricing_plan_id":"cebpf4jnsgd1na2vs0mg"},{"bike_id":"c7ddd3a4-15e8-495a-88c8-c9e8be4fd358","system_id":"levelo_inurba_marseille","lat":43.28637,"lon":5.35085,"is_reserved":false,"is_disabled":false,"rental_uris":{"android":"levelo://app?vid=c7ddd3a4-15e8-495a-88c8-c9e8be4fd358","ios":"levelo://app?vid=c7ddd3a4-15e8-495a-88c8-c9e8be4fd358"},"vehicle_type_id":"4","last_reported":1737500902,"current_range_meters":9600,"station_id":"ce4bhch2rcd13ifvqeug","pricing_plan_id":"cebpf4jnsgd1na2vs0mg"},{"bike_id":"bd3fc15b-802a-4797-9c22-b8f6e7d61297","system_id":"levelo_inurba_marseille","lat":43.31194,"lon":5.38666,"is_reserved":false,"is_disabled":false,"rental_uris":{"android":"levelo://app?vid=bd3fc15b-802a-4797-9c22-b8f6e7d61297","ios":"levelo://app?vid=bd3fc15b-802a-4797-9c22-b8f6e7d61297"},"vehicle_type_id":"4","last_reported":1737500902,"current_range_meters":38800,"station_id":"","pricing_plan_id":"cebpf4jnsgd1na2vs0mg"},{"bike_id":"a33c20bb-cefc-4363-8525-97f6d877ea04","system_id":"levelo_inurba_marseille","lat":43.25159,"lon":5.39613,"is_reserved":false,"is_disabled":false,"rental_uris":{"android":"levelo://app?vid=a33c20bb-cefc-4363-8525-97f6d877ea04","ios":"levelo://app?vid=a33c20bb-cefc-4363-8525-97f6d877ea04"},"vehicle_type_id":"4","last_reported":1737500902,"current_range_meters":38000,"station_id":"","pricing_plan_id":"cebpf4jnsgd1na2vs0mg"},{"bike_id":"6ad4ce4e-7f96-45d7-80ea-5b19a44b34c3","system_id":"levelo_inurba_marseille","lat":43.31329,"lon":5.39707,"is_reserved":false,"is_disabled":false,"rental_uris":{"android":"levelo://app?vid=6ad4ce4e-7f96-45d7-80ea-5b19a44b34c3","ios":"levelo://app?vid=6ad4ce4e-7f96-45d7-80ea-5b19a44b34c3"},"vehicle_type_id":"4","last_reported":1737500902,"current_range_meters":15200,"station_id":"ce4bgvp2rcd13ifvqcu0","pricing_plan_id":"cebpf4jnsgd1na2vs0mg"},{"bike_id":"227e78bf-cdca-4dfa-9c62-95921093e4a7","system_id":"levelo_inurba_marseille","lat":43.2843,"lon":5.34993,"is_reserved":false,"is_disabled":false,"rental_uris":{"android":"levelo://app?vid=227e78bf-cdca-4dfa-9c62-95921093e4a7","ios":"levelo://app?vid=227e78bf-cdca-4dfa-9c62-95921093e4a7"},"vehicle_type_id":"4","last_reported":1737500902,"current_range_meters":13600,"station_id":"ce4bhbh2rcd13ifvqepg","pricing_plan_id":"cebpf4jnsgd1na2vs0mg"},{"bike_id":"3fc74b94-ed11-4e63-a3db-79791383adef","system_id":"levelo_inurba_marseille","lat":43.30602,"lon":5.39374,"is_reserved":false,"is_disabled":false,"rental_uris":{"android":"levelo://app?vid=3fc74b94-ed11-4e63-a3db-79791383adef","ios":"levelo://app?vid=3fc74b94-ed11-4e63-a3db-79791383adef"},"vehicle_type_id":"4","last_reported":1737500902,"current_range_meters":28000,"station_id":"ce4bh0p2rcd13ifvqd80","pricing_plan_id":"cebpf4jnsgd1na2vs0mg"},{"bike_id":"14bf62af-c950-435b-82dd-0bca67231add","system_id":"levelo_inurba_marseille","lat":43.25711,"lon":5.41127,"is_reserved":false,"is_disabled":false,"rental_uris":{"android":"levelo://app?vid=14bf62af-c950-435b-82dd-0bca67231add","ios":"levelo://app?vid=14bf62af-c950-435b-82dd-0bca67231add"},"vehicle_type_id":"4","last_reported":1737500902,"current_range_meters":38800,"station_id":"ce4bhkp2rcd13ifvqgd0","pricing_plan_id":"cebpf4jnsgd1na2vs0mg"},{"bike_id":"509edcb3-c5bb-4913-aeae-8110c0663740","system_id":"levelo_inurba_marseille","lat":43.29566,"lon":5.3997,"is_reserved":false,"is_disabled":true,"rental_uris":{"android":"levelo://app?vid=509edcb3-c5bb-4913-aeae-8110c0663740","ios":"levelo://app?vid=509edcb3-c5bb-4913-aeae-8110c0663740"},"vehicle_type_id":"4","last_reported":1737500902,"current_range_meters":24000,"station_id":"ce4bh312rcd13ifvqdj0","pricing_plan_id":"cebpf4jnsgd1na2vs0mg"},{"bike_id":"9b26c5c9-d99a-4c20-b25f-8bb8d66e9ea8","system_id":"levelo_inurba_marseille","lat":43.28705,"lon":5.37396,"is_reserved":false,"is_disabled":false,"rental_uris":{"android":"levelo://app?vid=9b26c5c9-d99a-4c20-b25f-8bb8d66e9ea8","ios":"levelo://app?vid=9b26c5c9-d99a-4c20-b25f-8bb8d66e9ea8"},"vehicle_type_id":"4","last_reported":1737500902,"current_range_meters":38800,"station_id":"ce4bh3p2rcd13ifvqdq0","pricing_plan_id":"cebpf4jnsgd1na2vs0mg"},{"bike_id":"d3c6f435-a47b-4863-a5c1-f63982402f0c","system_id":"levelo_inurba_marseille","lat":43.28462,"lon":5.35883,"is_reserved":false,"is_disabled":false,"rental_uris":{"android":"levelo://app?vid=d3c6f435-a47b-4863-a5c1-f63982402f0c","ios":"levelo://app?vid=d3c6f435-a47b-4863-a5c1-f63982402f0c"},"vehicle_type_id":"4","last_reported":1737500902,"current_range_meters":25200,"station_id":"ce4bhah2rcd13ifvqei0","pricing_plan_id":"cebpf4jnsgd1na2vs0mg"},{"bike_id":"131fc262-d7f0-46c0-a36a-b025da916368","system_id":"levelo_inurba_marseille","lat":43.28474,"lon":5.38429,"is_reserved":false,"is_disabled":true,"rental_uris":{"android":"levelo://app?vid=131fc262-d7f0-46c0-a36a-b025da916368","ios":"levelo://app?vid=131fc262-d7f0-46c0-a36a-b025da916368"},"vehicle_type_id":"4","last_reported":1737500902,"current_range_meters":26800,"station_id":"ce4bh512rcd13ifvqe3g","pricing_plan_id":"cebpf4jnsgd1na2vs0mg"},{"bike_id":"b3184ad3-1374-4a73-9b61-531eb428b928","system_id":"levelo_inurba_marseille","lat":43.32661,"lon":5.40994,"is_reserved":false,"is_disabled":false,"rental_uris":{"android":"levelo://app?vid=b3184ad3-1374-4a73-9b61-531eb428b928","ios":"levelo://app?vid=b3184ad3-1374-4a73-9b61-531eb428b928"},"vehicle_type_id":"4","last_reported":1737500902,"current_range_meters":16800,"station_id":"ce4bhpp2rcd13ifvqhgg","pricing_plan_id":"cebpf4jnsgd1na2vs0mg"},{"bike_id":"641a8296-ae52-4500-8f2d-eec6d49b0e11","system_id":"levelo_inurba_marseille","lat":43.29564,"lon":5.39076,"is_reserved":false,"is_disabled":false,"rental_uris":{"android":"levelo://app?vid=641a8296-ae52-4500-8f2d-eec6d49b0e11","ios":"levelo://app?vid=641a8296-ae52-4500-8f2d-eec6d49b0e11"},"vehicle_type_id":"4","last_reported":1737500902,"current_range_meters":9200,"station_id":"ce4bh3p2rcd13ifvqdp0","pricing_plan_id":"cebpf4jnsgd1na2vs0mg"},{"bike_id":"fbcd4685-b858-4375-937f-dfd9ecaef99e","system_id":"levelo_inurba_marseille","lat":43.29877,"lon":5.39734,"is_reserved":false,"is_disabled":false,"rental_uris":{"android":"levelo://app?vid=fbcd4685-b858-4375-937f-dfd9ecaef99e","ios":"levelo://app?vid=fbcd4685-b858-4375-937f-dfd9ecaef99e"},"vehicle_type_id":"4","last_reported":1737500902,"current_range_meters":10000,"station_id":"ce4bh0h2rcd13ifvqd50","pricing_plan_id":"cebpf4jnsgd1na2vs0mg"},{"bike_id":"02ad824b-d7dc-42dc-aeab-fa239be6d8ae","system_id":"levelo_inurba_marseille","lat":43.30355,"lon":5.40439,"is_reserved":false,"is_disabled":false,"rental_uris":{"android":"levelo://app?vid=02ad824b-d7dc-42dc-aeab-fa239be6d8ae","ios":"levelo://app?vid=02ad824b-d7dc-42dc-aeab-fa239be6d8ae"},"vehicle_type_id":"4","last_reported":1737500902,"current_range_meters":33200,"station_id":"ce4bh012rcd13ifvqd10","pricing_plan_id":"cebpf4jnsgd1na2vs0mg"},{"bike_id":"4e574611-a3f8-452a-a155-fe58a7adfdc0","system_id":"levelo_inurba_marseille","lat":43.30348,"lon":5.40441,"is_reserved":false,"is_disabled":false,"rental_uris":{"android":"levelo://app?vid=4e574611-a3f8-452a-a155-fe58a7adfdc0","ios":"levelo://app?vid=4e574611-a3f8-452a-a155-fe58a7adfdc0"},"vehicle_type_id":"4","last_reported":1737500902,"current_range_meters":37600,"station_id":"ce4bh012rcd13ifvqd10","pricing_plan_id":"cebpf4jnsgd1na2vs0mg"},{"bike_id":"8f5a6a05-9650-48fa-a6b3-45b34dac459e","system_id":"levelo_inurba_marseille","lat":43.294437,"lon":5.397614,"is_reserved":false,"is_disabled":false,"rental_uris":{"android":"levelo://app?vid=8f5a6a05-9650-48fa-a6b3-45b34dac459e","ios":"levelo://app?vid=8f5a6a05-9650-48fa-a6b3-45b34dac459e"},"vehicle_type_id":"4","last_reported":1737500902,"current_range_meters":38800,"station_id":"ce4bh3h2rcd13ifvqdo0","pricing_plan_id":"cebpf4jnsgd1na2vs0mg"},{"bike_id":"5954b14c-b84c-496e-95b6-f96cad1f6599","system_id":"levelo_inurba_marseille","lat":43.28681,"lon":5.36364,"is_reserved":false,"is_disabled":false,"rental_uris":{"android":"levelo://app?vid=5954b14c-b84c-496e-95b6-f96cad1f6599","ios":"levelo://app?vid=5954b14c-b84c-496e-95b6-f96cad1f6599"},"vehicle_type_id":"4","last_reported":1737500902,"current_range_meters":9600,"station_id":"ce4bhah2rcd13ifvqej0","pricing_plan_id":"cebpf4jnsgd1na2vs0mg"},{"bike_id":"22b82b59-eece-4b52-a23e-68da8e62dfeb","system_id":"levelo_inurba_marseille","lat":43.30894,"lon":5.39646,"is_reserved":false,"is_disabled":false,"rental_uris":{"android":"levelo://app?vid=22b82b59-eece-4b52-a23e-68da8e62dfeb","ios":"levelo://app?vid=22b82b59-eece-4b52-a23e-68da8e62dfeb"},"vehicle_type_id":"4","last_reported":1737500902,"current_range_meters":39200,"station_id":"ce4bh012rcd13ifvqcv0","pricing_plan_id":"cebpf4jnsgd1na2vs0mg"},{"bike_id":"b84be9b7-c898-41c4-bde3-471841691224","system_id":"levelo_inurba_marseille","lat":43.30871,"lon":5.39674,"is_reserved":false,"is_disabled":false,"rental_uris":{"android":"levelo://app?vid=b84be9b7-c898-41c4-bde3-471841691224","ios":"levelo://app?vid=b84be9b7-c898-41c4-bde3-471841691224"},"vehicle_type_id":"4","last_reported":1737500902,"current_range_meters":39200,"station_id":"ce4bh012rcd13ifvqcv0","pricing_plan_id":"cebpf4jnsgd1na2vs0mg"},{"bike_id":"00def93d-83d1-4cdf-899d-55bdf7bd4882","system_id":"levelo_inurba_marseille","lat":43.28569,"lon":5.39504,"is_reserved":false,"is_disabled":false,"rental_uris":{"android":"levelo://app?vid=00def93d-83d1-4cdf-899d-55bdf7bd4882","ios":"levelo://app?vid=00def93d-83d1-4cdf-899d-55bdf7bd4882"},"vehicle_type_id":"4","last_reported":1737500902,"current_range_meters":30000,"station_id":"ce4bh292rcd13ifvqdg0","pricing_plan_id":"cebpf4jnsgd1na2vs0mg"},{"bike_id":"201d9895-7e14-479b-9c2e-8a7e20caedbb","system_id":"levelo_inurba_marseille","lat":43.28107,"lon":5.37872,"is_reserved":false,"is_disabled":false,"rental_uris":{"android":"levelo://app?vid=201d9895-7e14-479b-9c2e-8a7e20caedbb","ios":"levelo://app?vid=201d9895-7e14-479b-9c2e-8a7e20caedbb"},"vehicle_type_id":"4","last_reported":1737500902,"current_range_meters":24400,"station_id":"ce4bha12rcd13ifvqee0","pricing_plan_id":"cebpf4jnsgd1na2vs0mg"},{"bike_id":"bdca0d00-e973-42d4-a818-49fef6d8f141","system_id":"levelo_inurba_marseille","lat":43.307874,"lon":5.381601,"is_reserved":false,"is_disabled":false,"rental_uris":{"android":"levelo://app?vid=bdca0d00-e973-42d4-a818-49fef6d8f141","ios":"levelo://app?vid=bdca0d00-e973-42d4-a818-49fef6d8f141"},"vehicle_type_id":"4","last_reported":1737500902,"current_range_meters":35200,"station_id":"ce4bgt12rcd13ifvqce0","pricing_plan_id":"cebpf4jnsgd1na2vs0mg"},{"bike_id":"dce3ce31-1fd3-4381-a1e9-c8e17eaf7c41","system_id":"levelo_inurba_marseille","lat":43.31271,"lon":5.40172,"is_reserved":false,"is_disabled":false,"rental_uris":{"android":"levelo://app?vid=dce3ce31-1fd3-4381-a1e9-c8e17eaf7c41","ios":"levelo://app?vid=dce3ce31-1fd3-4381-a1e9-c8e17eaf7c41"},"vehicle_type_id":"4","last_reported":1737500902,"current_range_meters":35200,"station_id":"ce4bh092rcd13ifvqd30","pricing_plan_id":"cebpf4jnsgd1na2vs0mg"},{"bike_id":"c303fa67-a6f2-4852-9b09-295f2d96d52f","system_id":"levelo_inurba_marseille","lat":43.29927,"lon":5.39737,"is_reserved":false,"is_disabled":false,"rental_uris":{"android":"levelo://app?vid=c303fa67-a6f2-4852-9b09-295f2d96d52f","ios":"levelo://app?vid=c303fa67-a6f2-4852-9b09-295f2d96d52f"},"vehicle_type_id":"4","last_reported":1737500902,"current_range_meters":38800,"station_id":"ce4bh0h2rcd13ifvqd50","pricing_plan_id":"cebpf4jnsgd1na2vs0mg"},{"bike_id":"9d50fdfc-30ec-4e65-a35c-ed011b2884ae","system_id":"levelo_inurba_marseille","lat":43.306475,"lon":5.400745,"is_reserved":false,"is_disabled":false,"rental_uris":{"android":"levelo://app?vid=9d50fdfc-30ec-4e65-a35c-ed011b2884ae","ios":"levelo://app?vid=9d50fdfc-30ec-4e65-a35c-ed011b2884ae"},"vehicle_type_id":"4","last_reported":1737500902,"current_range_meters":28800,"station_id":"ce4bh112rcd13ifvqda0","pricing_plan_id":"cebpf4jnsgd1na2vs0mg"},{"bike_id":"301ad218-79fc-4f77-96f2-3aac2d1a8ccf","system_id":"levelo_inurba_marseille","lat":43.25954,"lon":5.39447,"is_reserved":false,"is_disabled":true,"rental_uris":{"android":"levelo://app?vid=301ad218-79fc-4f77-96f2-3aac2d1a8ccf","ios":"levelo://app?vid=301ad218-79fc-4f77-96f2-3aac2d1a8ccf"},"vehicle_type_id":"4","last_reported":1737500902,"current_range_meters":6000,"station_id":"","pricing_plan_id":"cebpf4jnsgd1na2vs0mg"},{"bike_id":"586a2980-e4c2-41d5-8aec-10c6ea4c877d","system_id":"levelo_inurba_marseille","lat":43.27918,"lon":5.39585,"is_reserved":false,"is_disabled":true,"rental_uris":{"android":"levelo://app?vid=586a2980-e4c2-41d5-8aec-10c6ea4c877d","ios":"levelo://app?vid=586a2980-e4c2-41d5-8aec-10c6ea4c877d"},"vehicle_type_id":"4","last_reported":1737500902,"current_range_meters":38000,"station_id":"ce4bhf92rcd13ifvqf40","pricing_plan_id":"cebpf4jnsgd1na2vs0mg"},{"bike_id":"c2585015-904a-4609-a64e-a02117955d78","system_id":"levelo_inurba_marseille","lat":43.313549,"lon":5.384974,"is_reserved":false,"is_disabled":false,"rental_uris":{"android":"levelo://app?vid=c2585015-904a-4609-a64e-a02117955d78","ios":"levelo://app?vid=c2585015-904a-4609-a64e-a02117955d78"},"vehicle_type_id":"4","last_reported":1737500902,"current_range_meters":22000,"station_id":"ce4bgt92rcd13ifvqcf0","pricing_plan_id":"cebpf4jnsgd1na2vs0mg"},{"bike_id":"56fdefa5-69ae-4d75-904f-7c344dd1e66a","system_id":"levelo_inurba_marseille","lat":43.284,"lon":5.37533,"is_reserved":false,"is_disabled":false,"rental_uris":{"android":"levelo://app?vid=56fdefa5-69ae-4d75-904f-7c344dd1e66a","ios":"levelo://app?vid=56fdefa5-69ae-4d75-904f-7c344dd1e66a"},"vehicle_type_id":"4","last_reported":1737500902,"current_range_meters":28400,"station_id":"ce4bh412rcd13ifvqds0","pricing_plan_id":"cebpf4jnsgd1na2vs0mg"},{"bike_id":"608d68a5-2176-4ba6-af71-f4a82a52a9b4","system_id":"levelo_inurba_marseille","lat":43.31706,"lon":5.37718,"is_reserved":false,"is_disabled":false,"rental_uris":{"android":"levelo://app?vid=608d68a5-2176-4ba6-af71-f4a82a52a9b4","ios":"levelo://app?vid=608d68a5-2176-4ba6-af71-f4a82a52a9b4"},"vehicle_type_id":"4","last_reported":1737500902,"current_range_meters":38800,"station_id":"ce4bgth2rcd13ifvqch0","pricing_plan_id":"cebpf4jnsgd1na2vs0mg"},{"bike_id":"b7e76496-d67d-477e-8db4-e735910d512c","system_id":"levelo_inurba_marseille","lat":43.28706,"lon":5.37387,"is_reserved":false,"is_disabled":false,"rental_uris":{"android":"levelo://app?vid=b7e76496-d67d-477e-8db4-e735910d512c","ios":"levelo://app?vid=b7e76496-d67d-477e-8db4-e735910d512c"},"vehicle_type_id":"4","last_reported":1737500902,"current_range_meters":12000,"station_id":"ce4bh3p2rcd13ifvqdq0","pricing_plan_id":"cebpf4jnsgd1na2vs0mg"},{"bike_id":"21278822-b45f-47c8-b5ba-5a45212c8aba","system_id":"levelo_inurba_marseille","lat":43.30927,"lon":5.40137,"is_reserved":false,"is_disabled":false,"rental_uris":{"android":"levelo://app?vid=21278822-b45f-47c8-b5ba-5a45212c8aba","ios":"levelo://app?vid=21278822-b45f-47c8-b5ba-5a45212c8aba"},"vehicle_type_id":"4","last_reported":1737500902,"current_range_meters":8400,"station_id":"ce4bgvp2rcd13ifvqct0","pricing_plan_id":"cebpf4jnsgd1na2vs0mg"},{"bike_id":"a478c8e4-70f7-4330-80af-a80f08fe66b3","system_id":"levelo_inurba_marseille","lat":43.25716,"lon":5.41111,"is_reserved":false,"is_disabled":false,"rental_uris":{"android":"levelo://app?vid=a478c8e4-70f7-4330-80af-a80f08fe66b3","ios":"levelo://app?vid=a478c8e4-70f7-4330-80af-a80f08fe66b3"},"vehicle_type_id":"4","last_reported":1737500902,"current_range_meters":22800,"station_id":"ce4bhkp2rcd13ifvqgd0","pricing_plan_id":"cebpf4jnsgd1na2vs0mg"},{"bike_id":"4806a606-9d68-4dda-865e-687fe402f8eb","system_id":"levelo_inurba_marseille","lat":43.33764,"lon":5.39181,"is_reserved":false,"is_disabled":false,"rental_uris":{"android":"levelo://app?vid=4806a606-9d68-4dda-865e-687fe402f8eb","ios":"levelo://app?vid=4806a606-9d68-4dda-865e-687fe402f8eb"},"vehicle_type_id":"4","last_reported":1737500902,"current_range_meters":10800,"station_id":"ce4bhr92rcd13ifvqhsg","pricing_plan_id":"cebpf4jnsgd1na2vs0mg"},{"bike_id":"35b99832-e516-4167-b4d3-3a041a781051","system_id":"levelo_inurba_marseille","lat":43.29446,"lon":5.39769,"is_reserved":false,"is_disabled":false,"rental_uris":{"android":"levelo://app?vid=35b99832-e516-4167-b4d3-3a041a781051","ios":"levelo://app?vid=35b99832-e516-4167-b4d3-3a041a781051"},"vehicle_type_id":"4","last_reported":1737500902,"current_range_meters":9200,"station_id":"ce4bh3h2rcd13ifvqdo0","pricing_plan_id":"cebpf4jnsgd1na2vs0mg"},{"bike_id":"b33c2d39-2001-4d56-8179-360f1e396c83","system_id":"levelo_inurba_marseille","lat":43.25151,"lon":5.40222,"is_reserved":false,"is_disabled":false,"rental_uris":{"android":"levelo://app?vid=b33c2d39-2001-4d56-8179-360f1e396c83","ios":"levelo://app?vid=b33c2d39-2001-4d56-8179-360f1e396c83"},"vehicle_type_id":"4","last_reported":1737500902,"current_range_meters":8800,"station_id":"ce4bhlh2rcd13ifvqgig","pricing_plan_id":"cebpf4jnsgd1na2vs0mg"},{"bike_id":"b834a014-a9be-4559-bbaa-15aa5f1cbaa1","system_id":"levelo_inurba_marseille","lat":43.23195,"lon":5.35566,"is_reserved":false,"is_disabled":false,"rental_uris":{"android":"levelo://app?vid=b834a014-a9be-4559-bbaa-15aa5f1cbaa1","ios":"levelo://app?vid=b834a014-a9be-4559-bbaa-15aa5f1cbaa1"},"vehicle_type_id":"4","last_reported":1737500902,"current_range_meters":36400,"station_id":"ce4bhu92rcd13ifvqi70","pricing_plan_id":"cebpf4jnsgd1na2vs0mg"},{"bike_id":"e0d09fcc-cc0e-44d8-9b3a-ff430035d0bd","system_id":"levelo_inurba_marseille","lat":43.275627,"lon":5.384313,"is_reserved":false,"is_disabled":false,"rental_uris":{"android":"levelo://app?vid=e0d09fcc-cc0e-44d8-9b3a-ff430035d0bd","ios":"levelo://app?vid=e0d09fcc-cc0e-44d8-9b3a-ff430035d0bd"},"vehicle_type_id":"4","last_reported":1737500902,"current_range_meters":16400,"station_id":"ce4bhh92rcd13ifvqfi0","pricing_plan_id":"cebpf4jnsgd1na2vs0mg"},{"bike_id":"5f776b34-b727-4c57-9619-656fb56904de","system_id":"levelo_inurba_marseille","lat":43.31743,"lon":5.42401,"is_reserved":false,"is_disabled":false,"rental_uris":{"android":"levelo://app?vid=5f776b34-b727-4c57-9619-656fb56904de","ios":"levelo://app?vid=5f776b34-b727-4c57-9619-656fb56904de"},"vehicle_type_id":"4","last_reported":1737500902,"current_range_meters":36800,"station_id":"ce4bhp92rcd13ifvqhbg","pricing_plan_id":"cebpf4jnsgd1na2vs0mg"},{"bike_id":"ca0dc8e0-206b-40b7-8d43-9b4ec69057c7","system_id":"levelo_inurba_marseille","lat":43.24167,"lon":5.36403,"is_reserved":false,"is_disabled":false,"rental_uris":{"android":"levelo://app?vid=ca0dc8e0-206b-40b7-8d43-9b4ec69057c7","ios":"levelo://app?vid=ca0dc8e0-206b-40b7-8d43-9b4ec69057c7"},"vehicle_type_id":"4","last_reported":1737500902,"current_range_meters":19600,"station_id":"cpo36qri1sfpv3e86is0","pricing_plan_id":"cebpf4jnsgd1na2vs0mg"},{"bike_id":"f9cbe97e-006e-4670-930e-bd4f818e9483","system_id":"levelo_inurba_marseille","lat":43.26943,"lon":5.40255,"is_reserved":false,"is_disabled":false,"rental_uris":{"android":"levelo://app?vid=f9cbe97e-006e-4670-930e-bd4f818e9483","ios":"levelo://app?vid=f9cbe97e-006e-4670-930e-bd4f818e9483"},"vehicle_type_id":"4","last_reported":1737500902,"current_range_meters":14400,"station_id":"cjm6bp8fraef2m0cb0m0","pricing_plan_id":"cebpf4jnsgd1na2vs0mg"},{"bike_id":"748437f3-7778-48d5-a968-a6ee3b0408c7","system_id":"levelo_inurba_marseille","lat":43.28079,"lon":5.39663,"is_reserved":false,"is_disabled":false,"rental_uris":{"android":"levelo://app?vid=748437f3-7778-48d5-a968-a6ee3b0408c7","ios":"levelo://app?vid=748437f3-7778-48d5-a968-a6ee3b0408c7"},"vehicle_type_id":"4","last_reported":1737500902,"current_range_meters":38800,"station_id":"ce4bho12rcd13ifvqh2g","pricing_plan_id":"cebpf4jnsgd1na2vs0mg"},{"bike_id":"329c6c5e-931b-4dd4-bcab-827915c611dd","system_id":"levelo_inurba_marseille","lat":43.30594,"lon":5.3936,"is_reserved":false,"is_disabled":false,"rental_uris":{"android":"levelo://app?vid=329c6c5e-931b-4dd4-bcab-827915c611dd","ios":"levelo://app?vid=329c6c5e-931b-4dd4-bcab-827915c611dd"},"vehicle_type_id":"4","last_reported":1737500902,"current_range_meters":28400,"station_id":"ce4bh0p2rcd13ifvqd80","pricing_plan_id":"cebpf4jnsgd1na2vs0mg"},{"bike_id":"966a364c-1bfc-4c4c-98ea-6af60566fd45","system_id":"levelo_inurba_marseille","lat":43.29248,"lon":5.40915,"is_reserved":false,"is_disabled":false,"rental_uris":{"android":"levelo://app?vid=966a364c-1bfc-4c4c-98ea-6af60566fd45","ios":"levelo://app?vid=966a364c-1bfc-4c4c-98ea-6af60566fd45"},"vehicle_type_id":"4","last_reported":1737500902,"current_range_meters":36400,"station_id":"ce4bh192rcd13ifvqdc0","pricing_plan_id":"cebpf4jnsgd1na2vs0mg"},{"bike_id":"d8b49f42-144a-4cb8-8172-0b5099baab4f","system_id":"levelo_inurba_marseille","lat":43.23958,"lon":5.36643,"is_reserved":false,"is_disabled":false,"rental_uris":{"android":"levelo://app?vid=d8b49f42-144a-4cb8-8172-0b5099baab4f","ios":"levelo://app?vid=d8b49f42-144a-4cb8-8172-0b5099baab4f"},"vehicle_type_id":"4","last_reported":1737500902,"current_range_meters":26800,"station_id":"ce4bhi12rcd13ifvqfp0","pricing_plan_id":"cebpf4jnsgd1na2vs0mg"},{"bike_id":"df7c011c-5cd5-4fbb-8a4e-d73dd3867dd2","system_id":"levelo_inurba_marseille","lat":43.32485,"lon":5.36566,"is_reserved":false,"is_disabled":false,"rental_uris":{"android":"levelo://app?vid=df7c011c-5cd5-4fbb-8a4e-d73dd3867dd2","ios":"levelo://app?vid=df7c011c-5cd5-4fbb-8a4e-d73dd3867dd2"},"vehicle_type_id":"4","last_reported":1737500902,"current_range_meters":38800,"station_id":"ce4bhs12rcd13ifvqhvg","pricing_plan_id":"cebpf4jnsgd1na2vs0mg"},{"bike_id":"ff3e73a4-c8e1-4daa-94d5-016f46f27da1","system_id":"levelo_inurba_marseille","lat":43.31167,"lon":5.3872,"is_reserved":false,"is_disabled":false,"rental_uris":{"android":"levelo://app?vid=ff3e73a4-c8e1-4daa-94d5-016f46f27da1","ios":"levelo://app?vid=ff3e73a4-c8e1-4daa-94d5-016f46f27da1"},"vehicle_type_id":"4","last_reported":1737500902,"current_range_meters":36800,"station_id":"ce4bgv12rcd13ifvqcp0","pricing_plan_id":"cebpf4jnsgd1na2vs0mg"},{"bike_id":"2e7288cd-c73b-4c1d-ba6d-5fe723dfc5b8","system_id":"levelo_inurba_marseille","lat":43.29819,"lon":5.39384,"is_reserved":false,"is_disabled":false,"rental_uris":{"android":"levelo://app?vid=2e7288cd-c73b-4c1d-ba6d-5fe723dfc5b8","ios":"levelo://app?vid=2e7288cd-c73b-4c1d-ba6d-5fe723dfc5b8"},"vehicle_type_id":"4","last_reported":1737500902,"current_range_meters":36400,"station_id":"chh1huq6cuj3fo74tm60","pricing_plan_id":"cebpf4jnsgd1na2vs0mg"},{"bike_id":"771386bc-3163-45d6-893d-45c6797ea058","system_id":"levelo_inurba_marseille","lat":43.25868,"lon":5.39905,"is_reserved":false,"is_disabled":false,"rental_uris":{"android":"levelo://app?vid=771386bc-3163-45d6-893d-45c6797ea058","ios":"levelo://app?vid=771386bc-3163-45d6-893d-45c6797ea058"},"vehicle_type_id":"4","last_reported":1737500902,"current_range_meters":14400,"station_id":"ce4bhl92rcd13ifvqghg","pricing_plan_id":"cebpf4jnsgd1na2vs0mg"},{"bike_id":"747124dd-cec1-4745-98af-46c2e9b1fccf","system_id":"levelo_inurba_marseille","lat":43.3108,"lon":5.38364,"is_reserved":false,"is_disabled":false,"rental_uris":{"android":"levelo://app?vid=747124dd-cec1-4745-98af-46c2e9b1fccf","ios":"levelo://app?vid=747124dd-cec1-4745-98af-46c2e9b1fccf"},"vehicle_type_id":"4","last_reported":1737500902,"current_range_meters":35600,"station_id":"ce4bgv92rcd13ifvqcr0","pricing_plan_id":"cebpf4jnsgd1na2vs0mg"},{"bike_id":"4d73addb-9a2c-42ca-90aa-6fa767cadab0","system_id":"levelo_inurba_marseille","lat":43.31396,"lon":5.38501,"is_reserved":false,"is_disabled":false,"rental_uris":{"android":"levelo://app?vid=4d73addb-9a2c-42ca-90aa-6fa767cadab0","ios":"levelo://app?vid=4d73addb-9a2c-42ca-90aa-6fa767cadab0"},"vehicle_type_id":"4","last_reported":1737500902,"current_range_meters":38400,"station_id":"ce4bgt92rcd13ifvqcf0","pricing_plan_id":"cebpf4jnsgd1na2vs0mg"},{"bike_id":"103762ed-7bdc-408b-b3b3-5fc137d696f7","system_id":"levelo_inurba_marseille","lat":43.28268,"lon":5.35067,"is_reserved":false,"is_disabled":false,"rental_uris":{"android":"levelo://app?vid=103762ed-7bdc-408b-b3b3-5fc137d696f7","ios":"levelo://app?vid=103762ed-7bdc-408b-b3b3-5fc137d696f7"},"vehicle_type_id":"4","last_reported":1737500902,"current_range_meters":33600,"station_id":"ce4bhbp2rcd13ifvqerg","pricing_plan_id":"cebpf4jnsgd1na2vs0mg"},{"bike_id":"2cc6f5df-1b42-4b6d-87d2-2a8900168535","system_id":"levelo_inurba_marseille","lat":43.2981,"lon":5.40414,"is_reserved":false,"is_disabled":true,"rental_uris":{"android":"levelo://app?vid=2cc6f5df-1b42-4b6d-87d2-2a8900168535","ios":"levelo://app?vid=2cc6f5df-1b42-4b6d-87d2-2a8900168535"},"vehicle_type_id":"4","last_reported":1737500902,"current_range_meters":14800,"station_id":"ce4bh112rcd13ifvqd90","pricing_plan_id":"cebpf4jnsgd1na2vs0mg"},{"bike_id":"52b24477-8bd3-4b72-ae59-39743df5fbcf","system_id":"levelo_inurba_marseille","lat":43.28565,"lon":5.39501,"is_reserved":false,"is_disabled":false,"rental_uris":{"android":"levelo://app?vid=52b24477-8bd3-4b72-ae59-39743df5fbcf","ios":"levelo://app?vid=52b24477-8bd3-4b72-ae59-39743df5fbcf"},"vehicle_type_id":"4","last_reported":1737500902,"current_range_meters":39200,"station_id":"ce4bh292rcd13ifvqdg0","pricing_plan_id":"cebpf4jnsgd1na2vs0mg"},{"bike_id":"83fbcadc-b433-47ed-a2e1-69f5f1da58ae","system_id":"levelo_inurba_marseille","lat":43.24678,"lon":5.38153,"is_reserved":false,"is_disabled":false,"rental_uris":{"android":"levelo://app?vid=83fbcadc-b433-47ed-a2e1-69f5f1da58ae","ios":"levelo://app?vid=83fbcadc-b433-47ed-a2e1-69f5f1da58ae"},"vehicle_type_id":"4","last_reported":1737500902,"current_range_meters":34800,"station_id":"ce4bhih2rcd13ifvqfr0","pricing_plan_id":"cebpf4jnsgd1na2vs0mg"},{"bike_id":"b2598b4d-9a68-478b-8e42-9c332ae2a893","system_id":"levelo_inurba_marseille","lat":43.287238,"lon":5.360813,"is_reserved":false,"is_disabled":false,"rental_uris":{"android":"levelo://app?vid=b2598b4d-9a68-478b-8e42-9c332ae2a893","ios":"levelo://app?vid=b2598b4d-9a68-478b-8e42-9c332ae2a893"},"vehicle_type_id":"4","last_reported":1737500902,"current_range_meters":38800,"station_id":"cki0cbj6b192h4jlfktg","pricing_plan_id":"cebpf4jnsgd1na2vs0mg"},{"bike_id":"e4ac9b06-21e8-4c77-98a4-b58e3ad00cab","system_id":"levelo_inurba_marseille","lat":43.30811,"lon":5.38167,"is_reserved":false,"is_disabled":false,"rental_uris":{"android":"levelo://app?vid=e4ac9b06-21e8-4c77-98a4-b58e3ad00cab","ios":"levelo://app?vid=e4ac9b06-21e8-4c77-98a4-b58e3ad00cab"},"vehicle_type_id":"4","last_reported":1737500902,"current_range_meters":28400,"station_id":"ce4bgt12rcd13ifvqce0","pricing_plan_id":"cebpf4jnsgd1na2vs0mg"},{"bike_id":"a95c4a82-20f8-4222-b1c2-f5c9c6934a26","system_id":"levelo_inurba_marseille","lat":43.28076,"lon":5.39651,"is_reserved":false,"is_disabled":false,"rental_uris":{"android":"levelo://app?vid=a95c4a82-20f8-4222-b1c2-f5c9c6934a26","ios":"levelo://app?vid=a95c4a82-20f8-4222-b1c2-f5c9c6934a26"},"vehicle_type_id":"4","last_reported":1737500902,"current_range_meters":38800,"station_id":"ce4bho12rcd13ifvqh2g","pricing_plan_id":"cebpf4jnsgd1na2vs0mg"},{"bike_id":"dbf08948-f917-490e-8877-2f8171ef1b3d","system_id":"levelo_inurba_marseille","lat":43.324785,"lon":5.365576,"is_reserved":false,"is_disabled":false,"rental_uris":{"android":"levelo://app?vid=dbf08948-f917-490e-8877-2f8171ef1b3d","ios":"levelo://app?vid=dbf08948-f917-490e-8877-2f8171ef1b3d"},"vehicle_type_id":"4","last_reported":1737500902,"current_range_meters":26000,"station_id":"ce4bhs12rcd13ifvqhvg","pricing_plan_id":"cebpf4jnsgd1na2vs0mg"},{"bike_id":"c05d17e6-8ff9-46c6-8c1e-4a317d252d9d","system_id":"levelo_inurba_marseille","lat":43.32362,"lon":5.3675,"is_reserved":false,"is_disabled":false,"rental_uris":{"android":"levelo://app?vid=c05d17e6-8ff9-46c6-8c1e-4a317d252d9d","ios":"levelo://app?vid=c05d17e6-8ff9-46c6-8c1e-4a317d252d9d"},"vehicle_type_id":"4","last_reported":1737500902,"current_range_meters":28000,"station_id":"ce4bhsh2rcd13ifvqi2g","pricing_plan_id":"cebpf4jnsgd1na2vs0mg"},{"bike_id":"d34a24e7-388c-460a-8ce1-89a85ab2d5d6","system_id":"levelo_inurba_marseille","lat":43.29518,"lon":5.39427,"is_reserved":false,"is_disabled":false,"rental_uris":{"android":"levelo://app?vid=d34a24e7-388c-460a-8ce1-89a85ab2d5d6","ios":"levelo://app?vid=d34a24e7-388c-460a-8ce1-89a85ab2d5d6"},"vehicle_type_id":"4","last_reported":1737500902,"current_range_meters":12400,"station_id":"ce4bh292rcd13ifvqdf0","pricing_plan_id":"cebpf4jnsgd1na2vs0mg"},{"bike_id":"1860ea02-18e8-4f7a-83c0-6e16332503eb","system_id":"levelo_inurba_marseille","lat":43.30802,"lon":5.38149,"is_reserved":false,"is_disabled":false,"rental_uris":{"android":"levelo://app?vid=1860ea02-18e8-4f7a-83c0-6e16332503eb","ios":"levelo://app?vid=1860ea02-18e8-4f7a-83c0-6e16332503eb"},"vehicle_type_id":"4","last_reported":1737500902,"current_range_meters":32000,"station_id":"ce4bgt12rcd13ifvqce0","pricing_plan_id":"cebpf4jnsgd1na2vs0mg"},