{"last_updated":1745611875,"ttl":60,"version":"2.2","data":{"bikes":[{"bike_id":"fd265570-119b-4158-9264-8701f39090e6","system_id":"levelo_inurba_marseille","lat":43.29053,"lon":5.37132,"is_reserved":false,"is_disabled":true,"rental_uris":{"android":"levelo://app?vid=fd265570-119b-4158-9264-8701f39090e6","ios":"levelo://app?vid=fd265570-119b-4158-9264-8701f39090e6"},"vehicle_type_id":"4","last_reported":1745611875,"current_range_meters":2800,"station_id":"ce4bh5p2rcd13ifvqe4g","pricing_plan_id":"cebpf4jnsgd1na2vs0mg"},{"bike_id":"7bc9e0f0-1858-48cc-bec0-f8a244c96ec7","system_id":"levelo_inurba_marseille","lat":43.27501,"lon":5.42449,"is_reserved":false,"is_disabled":true,"rental_uris":{"android":"levelo://app?vid=7bc9e0f0-1858-48cc-bec0-f8a244c96ec7","ios":"levelo://app?vid=7bc9e0f0-1858-48cc-bec0-f8a244c96ec7"},"vehicle_type_id":"4","last_reported":1745611875,"current_range_meters":2800,"station_id":"ce4bhn92rcd13ifvqgrg","pricing_plan_id":"cebpf4jnsgd1na2vs0mg"},{"bike_id":"83cf408d-bd48-48dc-ac06-024e0418cc58","system_id":"levelo_inurba_marseille","lat":43.2931,"lon":5.37434,"is_reserved":false,"is_disabled":true,"rental_uris":{"android":"levelo://app?vid=83cf408d-bd48-48dc-ac06-024e0418cc58","ios":"levelo://app?vid=83cf408d-bd48-48dc-ac06-024e0418cc58"},"vehicle_type_id":"4","last_reported":1745611875,"current_range_meters":2800,"station_id":"ce4bgi12rcd13ifvqb70","pricing_plan_id":"cebpf4jnsgd1na2vs0mg"},{"bike_id":"00eee899-8cd0-468f-b09d-ba482fc1c887","system_id":"levelo_inurba_marseille","lat":43.2582,"lon":5.39433,"is_reserved":false,"is_disabled":false,"rental_uris":{"android":"levelo://app?vid=00eee899-8cd0-468f-b09d-ba482fc1c887","ios":"levelo://app?vid=00eee899-8cd0-468f-b09d-ba482fc1c887"},"vehicle_type_id":"4","last_reported":1745611875,"current_range_meters":2800,"station_id":"ce4bhip2rcd13ifvqft0","pricing_plan_id":"cebpf4jnsgd1na2vs0mg"},{"bike_id":"17212859-5048-489d-8287-c4d9619e0597","system_id":"levelo_inurba_marseille","lat":43.21214,"lon":5.35058,"is_reserved":false,"is_disabled":false,"rental_uris":{"android":"levelo://app?vid=17212859-5048-489d-8287-c4d9619e0597","ios":"levelo://app?vid=17212859-5048-489d-8287-c4d9619e0597"},"vehicle_type_id":"4","last_reported":1745611875,"current_range_meters":3200,"station_id":"st_cvj6sg6p6f1abm77japg","pricing_plan_id":"cebpf4jnsgd1na2vs0mg"},{"bike_id":"47c415eb-9c02-4094-bc4c-e5bc6add6cc6","system_id":"levelo_inurba_marseille","lat":43.21195,"lon":5.35071,"is_reserved":false,"is_disabled":false,"rental_uris":{"android":"levelo://app?vid=47c415eb-9c02-4094-bc4c-e5bc6add6cc6","ios":"levelo://app?vid=47c415eb-9c02-4094-bc4c-e5bc6add6cc6"},"vehicle_type_id":"4","last_reported":1745611875,"current_range_meters":3200,"station_id":"st_cvj6sg6p6f1abm77japg","pricing_plan_id":"cebpf4jnsgd1na2vs0mg"},{"bike_id":"864841d4-d573-470a-87c7-00ad207d699d","system_id":"levelo_inurba_marseille","lat":43.26886,"lon":5.36846,"is_reserved":false,"is_disabled":false,"rental_uris":{"android":"levelo://app?vid=864841d4-d573-470a-87c7-00ad207d699d","ios":"levelo://app?vid=864841d4-d573-470a-87c7-00ad207d699d"},"vehicle_type_id":"4","last_reported":1745611875,"current_range_meters":3200,"station_id":"","pricing_plan_id":"cebpf4jnsgd1na2vs0mg"},{"bike_id":"f1e12d85-b77b-45f2-99bb-724d322f1526","system_id":"levelo_inurba_marseille","lat":43.29416,"lon":5.386275,"is_reserved":false,"is_disabled":false,"rental_uris":{"android":"levelo://app?vid=f1e12d85-b77b-45f2-99bb-724d322f1526","ios":"levelo://app?vid=f1e12d85-b77b-45f2-99bb-724d322f1526"},"vehicle_type_id":"4","last_reported":1745611875,"current_range_meters":3200,"station_id":"ce4bh2h2rcd13ifvqdh0","pricing_plan_id":"cebpf4jnsgd1na2vs0mg"},{"bike_id":"f70c7b70-056d-42d8-a425-525b12ab6587","system_id":"levelo_inurba_marseille","lat":43.26684,"lon":5.38276,"is_reserved":false,"is_disabled":false,"rental_uris":{"android":"levelo://app?vid=f70c7b70-056d-42d8-a425-525b12ab6587","ios":"levelo://app?vid=f70c7b70-056d-42d8-a425-525b12ab6587"},"vehicle_type_id":"4","last_reported":1745611875,"current_range_meters":2800,"station_id":"ce4bhg92rcd13ifvqf90","pricing_plan_id":"cebpf4jnsgd1na2vs0mg"},{"bike_id":"e930add5-8b45-498d-aeca-dd9c292f6d85","system_id":"levelo_inurba_marseille","lat":43.25107,"lon":5.40326,"is_reserved":false,"is_disabled":false,"rental_uris":{"android":"levelo://app?vid=e930add5-8b45-498d-aeca-dd9c292f6d85","ios":"levelo://app?vid=e930add5-8b45-498d-aeca-dd9c292f6d85"},"vehicle_type_id":"4","last_reported":1745611875,"current_range_meters":3600,"station_id":"ce4bhlh2rcd13ifvqgig","pricing_plan_id":"cebpf4jnsgd1na2vs0mg"},{"bike_id":"0665421a-052d-4840-9df9-d527b568d595","system_id":"levelo_inurba_marseille","lat":43.32412,"lon":5.39086,"is_reserved":false,"is_disabled":false,"rental_uris":{"android":"levelo://app?vid=0665421a-052d-4840-9df9-d527b568d595","ios":"levelo://app?vid=0665421a-052d-4840-9df9-d527b568d595"},"vehicle_type_id":"4","last_reported":1745611875,"current_range_meters":3600,"station_id":"","pricing_plan_id":"cebpf4jnsgd1na2vs0mg"},{"bike_id":"7d05c243-3734-423f-9d51-7a4c842c6c3b","system_id":"levelo_inurba_marseille","lat":43.30539,"lon":5.3656,"is_reserved":false,"is_disabled":false,"rental_uris":{"android":"levelo://app?vid=7d05c243-3734-423f-9d51-7a4c842c6c3b","ios":"levelo://app?vid=7d05c243-3734-423f-9d51-7a4c842c6c3b"},"vehicle_type_id":"4","last_reported":1745611875,"current_range_meters":3600,"station_id":"ce4bgs12rcd13ifvqcag","pricing_plan_id":"cebpf4jnsgd1na2vs0mg"},{"bike_id":"80d93a46-4f3e-40e1-a96b-e73af299f6b6","system_id":"levelo_inurba_marseille","lat":43.29534,"lon":5.38544,"is_reserved":false,"is_disabled":false,"rental_uris":{"android":"levelo://app?vid=80d93a46-4f3e-40e1-a96b-e73af299f6b6","ios":"levelo://app?vid=80d93a46-4f3e-40e1-a96b-e73af299f6b6"},"vehicle_type_id":"4","last_reported":1745611875,"current_range_meters":3600,"station_id":"ce4bgih2rcd13ifvqba0","pricing_plan_id":"cebpf4jnsgd1na2vs0mg"},{"bike_id":"1eb3faf5-7fc7-4b89-a0dd-44765b5f2bd2","system_id":"levelo_inurba_marseille","lat":43.23063,"lon":5.35488,"is_reserved":false,"is_disabled":false,"rental_uris":{"android":"levelo://app?vid=1eb3faf5-7fc7-4b89-a0dd-44765b5f2bd2","ios":"levelo://app?vid=1eb3faf5-7fc7-4b89-a0dd-44765b5f2bd2"},"vehicle_type_id":"4","last_reported":1745611875,"current_range_meters":4000,"station_id":"cpo3342slgdg3j2ifvpg","pricing_plan_id":"cebpf4jnsgd1na2vs0mg"},{"bike_id":"b49d9890-0050-4d5a-bf2e-5224916558aa","system_id":"levelo_inurba_marseille","lat":43.295294,"lon":5.390335,"is_reserved":false,"is_disabled":false,"rental_uris":{"android":"levelo://app?vid=b49d9890-0050-4d5a-bf2e-5224916558aa","ios":"levelo://app?vid=b49d9890-0050-4d5a-bf2e-5224916558aa"},"vehicle_type_id":"4","last_reported":1745611875,"current_range_meters":4400,"station_id":"ce4bh3p2rcd13ifvqdp0","pricing_plan_id":"cebpf4jnsgd1na2vs0mg"},{"bike_id":"656fb8ee-29ba-414e-a2ff-9ead2594e81b","system_id":"levelo_inurba_marseille","lat":43.251041,"lon":5.403162,"is_reserved":false,"is_disabled":false,"rental_uris":{"android":"levelo://app?vid=656fb8ee-29ba-414e-a2ff-9ead2594e81b","ios":"levelo://app?vid=656fb8ee-29ba-414e-a2ff-9ead2594e81b"},"vehicle_type_id":"4","last_reported":1745611875,"current_range_meters":4400,"station_id":"ce4bhlh2rcd13ifvqgig","pricing_plan_id":"cebpf4jnsgd1na2vs0mg"},{"bike_id":"33073864-74bd-4cdb-b45d-bd24f5857ebf","system_id":"levelo_inurba_marseille","lat":43.29555,"lon":5.42283,"is_reserved":false,"is_disabled":false,"rental_uris":{"android":"levelo://app?vid=33073864-74bd-4cdb-b45d-bd24f5857ebf","ios":"levelo://app?vid=33073864-74bd-4cdb-b45d-bd24f5857ebf"},"vehicle_type_id":"4","last_reported":1745611875,"current_range_meters":4400,"station_id":"ce4bhph2rcd13ifvqhdg","pricing_plan_id":"cebpf4jnsgd1na2vs0mg"},{"bike_id":"0ef090c8-b30d-42aa-a986-f1a5509bf3d5","system_id":"levelo_inurba_marseille","lat":43.2599,"lon":5.37623,"is_reserved":false,"is_disabled":false,"rental_uris":{"android":"levelo://app?vid=0ef090c8-b30d-42aa-a986-f1a5509bf3d5","ios":"levelo://app?vid=0ef090c8-b30d-42aa-a986-f1a5509bf3d5"},"vehicle_type_id":"4","last_reported":1745611875,"current_range_meters":4800,"station_id":"","pricing_plan_id":"cebpf4jnsgd1na2vs0mg"},{"bike_id":"d9dfdbb7-3b56-4404-977a-51c336ac30b5","system_id":"levelo_inurba_marseille","lat":43.21193,"lon":5.35071,"is_reserved":false,"is_disabled":false,"rental_uris":{"android":"levelo://app?vid=d9dfdbb7-3b56-4404-977a-51c336ac30b5","ios":"levelo://app?vid=d9dfdbb7-3b56-4404-977a-51c336ac30b5"},"vehicle_type_id":"4","last_reported":1745611875,"current_range_meters":4800,"station_id":"st_cvj6sg6p6f1abm77japg","pricing_plan_id":"cebpf4jnsgd1na2vs0mg"},{"bike_id":"1017815c-dad7-4a95-9674-6dcbfb9d37bf","system_id":"levelo_inurba_marseille","lat":43.29422,"lon":5.3862,"is_reserved":false,"is_disabled":false,"rental_uris":{"android":"levelo://app?vid=1017815c-dad7-4a95-9674-6dcbfb9d37bf","ios":"levelo://app?vid=1017815c-dad7-4a95-9674-6dcbfb9d37bf"},"vehicle_type_id":"4","last_reported":1745611875,"current_range_meters":4800,"station_id":"ce4bh2h2rcd13ifvqdh0","pricing_plan_id":"cebpf4jnsgd1na2vs0mg"},{"bike_id":"7809b483-1dd0-4591-aea3-85c554bab46f","system_id":"levelo_inurba_marseille","lat":43.27493,"lon":5.42455,"is_reserved":false,"is_disabled":false,"rental_uris":{"android":"levelo://app?vid=7809b483-1dd0-4591-aea3-85c554bab46f","ios":"levelo://app?vid=7809b483-1dd0-4591-aea3-85c554bab46f"},"vehicle_type_id":"4","last_reported":1745611875,"current_range_meters":4800,"station_id":"ce4bhn92rcd13ifvqgrg","pricing_plan_id":"cebpf4jnsgd1na2vs0mg"},{"bike_id":"4491c70f-7b37-4729-ad9c-410b63894601","system_id":"levelo_inurba_marseille","lat":43.29414,"lon":5.3863,"is_reserved":false,"is_disabled":false,"rental_uris":{"android":"levelo://app?vid=4491c70f-7b37-4729-ad9c-410b63894601","ios":"levelo://app?vid=4491c70f-7b37-4729-ad9c-410b63894601"},"vehicle_type_id":"4","last_reported":1745611875,"current_range_meters":5600,"station_id":"ce4bh2h2rcd13ifvqdh0","pricing_plan_id":"cebpf4jnsgd1na2vs0mg"},{"bike_id":"1e5cbe88-080c-453e-8081-8037e83e00cd","system_id":"levelo_inurba_marseille","lat":43.330153,"lon":5.390222,"is_reserved":false,"is_disabled":false,"rental_uris":{"android":"levelo://app?vid=1e5cbe88-080c-453e-8081-8037e83e00cd","ios":"levelo://app?vid=1e5cbe88-080c-453e-8081-8037e83e00cd"},"vehicle_type_id":"4","last_reported":1745611875,"current_range_meters":5600,"station_id":"ce4bhr92rcd13ifvqhrg","pricing_plan_id":"cebpf4jnsgd1na2vs0mg"},{"bike_id":"46374c49-3adc-4c5a-8966-e00f056c0d57","system_id":"levelo_inurba_marseille","lat":43.27846,"lon":5.35442,"is_reserved":false,"is_disabled":false,"rental_uris":{"android":"levelo://app?vid=46374c49-3adc-4c5a-8966-e00f056c0d57","ios":"levelo://app?vid=46374c49-3adc-4c5a-8966-e00f056c0d57"},"vehicle_type_id":"4","last_reported":1745611875,"current_range_meters":6000,"station_id":"","pricing_plan_id":"cebpf4jnsgd1na2vs0mg"},{"bike_id":"b2e01794-8c3e-45a2-9cd9-5e456db72671","system_id":"levelo_inurba_marseille","lat":43.29412,"lon":5.38622,"is_reserved":false,"is_disabled":false,"rental_uris":{"android":"levelo://app?vid=b2e01794-8c3e-45a2-9cd9-5e456db72671","ios":"levelo://app?vid=b2e01794-8c3e-45a2-9cd9-5e456db72671"},"vehicle_type_id":"4","last_reported":1745611875,"current_range_meters":6000,"station_id":"ce4bh2h2rcd13ifvqdh0","pricing_plan_id":"cebpf4jnsgd1na2vs0mg"},{"bike_id":"2ca87a11-564f-4d02-9bbe-38f647a02125","system_id":"levelo_inurba_marseille","lat":43.31356,"lon":5.39684,"is_reserved":false,"is_disabled":true,"rental_uris":{"android":"levelo://app?vid=2ca87a11-564f-4d02-9bbe-38f647a02125","ios":"levelo://app?vid=2ca87a11-564f-4d02-9bbe-38f647a02125"},"vehicle_type_id":"4","last_reported":1745611875,"current_range_meters":6000,"station_id":"ce4bgvp2rcd13ifvqcu0","pricing_plan_id":"cebpf4jnsgd1na2vs0mg"},{"bike_id":"e725be89-03eb-4efa-abd9-401ea99c5e6d","system_id":"levelo_inurba_marseille","lat":43.30847,"lon":5.3784,"is_reserved":false,"is_disabled":false,"rental_uris":{"android":"levelo://app?vid=e725be89-03eb-4efa-abd9-401ea99c5e6d","ios":"levelo://app?vid=e725be89-03eb-4efa-abd9-401ea99c5e6d"},"vehicle_type_id":"4","last_reported":1745611875,"current_range_meters":6000,"station_id":"","pricing_plan_id":"cebpf4jnsgd1na2vs0mg"},{"bike_id":"f425d9cb-80e9-4b0a-9761-f26fba5018c2","system_id":"levelo_inurba_marseille","lat":43.287163,"lon":5.399903,"is_reserved":false,"is_disabled":true,"rental_uris":{"android":"levelo://app?vid=f425d9cb-80e9-4b0a-9761-f26fba5018c2","ios":"levelo://app?vid=f425d9cb-80e9-4b0a-9761-f26fba5018c2"},"vehicle_type_id":"4","last_reported":1745611875,"current_range_meters":6000,"station_id":"ce4bho92rcd13ifvqh3g","pricing_plan_id":"cebpf4jnsgd1na2vs0mg"},{"bike_id":"6e94a711-5402-4704-b611-7db8261a971d","system_id":"levelo_inurba_marseille","lat":43.25716,"lon":5.41118,"is_reserved":false,"is_disabled":false,"rental_uris":{"android":"levelo://app?vid=6e94a711-5402-4704-b611-7db8261a971d","ios":"levelo://app?vid=6e94a711-5402-4704-b611-7db8261a971d"},"vehicle_type_id":"4","last_reported":1745611875,"current_range_meters":6400,"station_id":"ce4bhkp2rcd13ifvqgd0","pricing_plan_id":"cebpf4jnsgd1na2vs0mg"},{"bike_id":"ca426fd7-13a8-4bc8-956d-367b9a5a3dde","system_id":"levelo_inurba_marseille","lat":43.30309,"lon":5.36906,"is_reserved":false,"is_disabled":false,"rental_uris":{"android":"levelo://app?vid=ca426fd7-13a8-4bc8-956d-367b9a5a3dde","ios":"levelo://app?vid=ca426fd7-13a8-4bc8-956d-367b9a5a3dde"},"vehicle_type_id":"4","last_reported":1745611875,"current_range_meters":6400,"station_id":"ce4bgqh2rcd13ifvqc5g","pricing_plan_id":"cebpf4jnsgd1na2vs0mg"},{"bike_id":"566af3c7-55e6-47d8-98d6-26dbaee4cf9e","system_id":"levelo_inurba_marseille","lat":43.3021,"lon":5.37136,"is_reserved":false,"is_disabled":false,"rental_uris":{"android":"levelo://app?vid=566af3c7-55e6-47d8-98d6-26dbaee4cf9e","ios":"levelo://app?vid=566af3c7-55e6-47d8-98d6-26dbaee4cf9e"},"vehicle_type_id":"4","last_reported":1745611875,"current_range_meters":6400,"station_id":"","pricing_plan_id":"cebpf4jnsgd1na2vs0mg"},{"bike_id":"e48a7063-8091-41b2-b278-8703f58bd9c0","system_id":"levelo_inurba_marseille","lat":43.29414,"lon":5.38631,"is_reserved":false,"is_disabled":false,"rental_uris":{"android":"levelo://app?vid=e48a7063-8091-41b2-b278-8703f58bd9c0","ios":"levelo://app?vid=e48a7063-8091-41b2-b278-8703f58bd9c0"},"vehicle_type_id":"4","last_reported":1745611875,"current_range_meters":6400,"station_id":"ce4bh2h2rcd13ifvqdh0","pricing_plan_id":"cebpf4jnsgd1na2vs0mg"},{"bike_id":"ecdd0875-7d56-4cd2-a14a-671f78e26c97","system_id":"levelo_inurba_marseille","lat":43.23059,"lon":5.35501,"is_reserved":false,"is_disabled":false,"rental_uris":{"android":"levelo://app?vid=ecdd0875-7d56-4cd2-a14a-671f78e26c97","ios":"levelo://app?vid=ecdd0875-7d56-4cd2-a14a-671f78e26c97"},"vehicle_type_id":"4","last_reported":1745611875,"current_range_meters":6800,"station_id":"cpo3342slgdg3j2ifvpg","pricing_plan_id":"cebpf4jnsgd1na2vs0mg"},{"bike_id":"6b6b84b3-e3fb-4e8a-832e-41ecf6ccd7ea","system_id":"levelo_inurba_marseille","lat":43.330292,"lon":5.390382,"is_reserved":false,"is_disabled":false,"rental_uris":{"android":"levelo://app?vid=6b6b84b3-e3fb-4e8a-832e-41ecf6ccd7ea","ios":"levelo://app?vid=6b6b84b3-e3fb-4e8a-832e-41ecf6ccd7ea"},"vehicle_type_id":"4","last_reported":1745611875,"current_range_meters":6800,"station_id":"ce4bhr92rcd13ifvqhrg","pricing_plan_id":"cebpf4jnsgd1na2vs0mg"},{"bike_id":"52cb41a7-5096-4f42-a09a-abce4785d5e2","system_id":"levelo_inurba_marseille","lat":43.27072,"lon":5.42276,"is_reserved":false,"is_disabled":true,"rental_uris":{"android":"levelo://app?vid=52cb41a7-5096-4f42-a09a-abce4785d5e2","ios":"levelo://app?vid=52cb41a7-5096-4f42-a09a-abce4785d5e2"},"vehicle_type_id":"4","last_reported":1745611875,"current_range_meters":6800,"station_id":"ce4bhk92rcd13ifvqgb0","pricing_plan_id":"cebpf4jnsgd1na2vs0mg"},{"bike_id":"85fa48a1-dbfc-4d9d-a26b-47a2a48cb4e1","system_id":"levelo_inurba_marseille","lat":43.29256,"lon":5.38447,"is_reserved":false,"is_disabled":false,"rental_uris":{"android":"levelo://app?vid=85fa48a1-dbfc-4d9d-a26b-47a2a48cb4e1","ios":"levelo://app?vid=85fa48a1-dbfc-4d9d-a26b-47a2a48cb4e1"},"vehicle_type_id":"4","last_reported":1745611875,"current_range_meters":6800,"station_id":"ce4bh692rcd13ifvqea0","pricing_plan_id":"cebpf4jnsgd1na2vs0mg"},{"bike_id":"f559c111-2224-493a-90c6-4f6e3862bdb8","system_id":"levelo_inurba_marseille","lat":43.26207,"lon":5.37443,"is_reserved":false,"is_disabled":false,"rental_uris":{"android":"levelo://app?vid=f559c111-2224-493a-90c6-4f6e3862bdb8","ios":"levelo://app?vid=f559c111-2224-493a-90c6-4f6e3862bdb8"},"vehicle_type_id":"4","last_reported":1745611875,"current_range_meters":6800,"station_id":"ce4bhgp2rcd13ifvqfc0","pricing_plan_id":"cebpf4jnsgd1na2vs0mg"},{"bike_id":"4bf0cade-afa0-4731-b40e-ef3f8f4a4fe5","system_id":"levelo_inurba_marseille","lat":43.30097,"lon":5.39091,"is_reserved":false,"is_disabled":true,"rental_uris":{"android":"levelo://app?vid=4bf0cade-afa0-4731-b40e-ef3f8f4a4fe5","ios":"levelo://app?vid=4bf0cade-afa0-4731-b40e-ef3f8f4a4fe5"},"vehicle_type_id":"4","last_reported":1745611875,"current_range_meters":7200,"station_id":"ce4bh192rcd13ifvqdb0","pricing_plan_id":"cebpf4jnsgd1na2vs0mg"},{"bike_id":"7ba11cf8-b743-47dd-ad53-ab78eda61c8a","system_id":"levelo_inurba_marseille","lat":43.29413,"lon":5.3863,"is_reserved":false,"is_disabled":false,"rental_uris":{"android":"levelo://app?vid=7ba11cf8-b743-47dd-ad53-ab78eda61c8a","ios":"levelo://app?vid=7ba11cf8-b743-47dd-ad53-ab78eda61c8a"},"vehicle_type_id":"4","last_reported":1745611875,"current_range_meters":7200,"station_id":"ce4bh2h2rcd13ifvqdh0","pricing_plan_id":"cebpf4jnsgd1na2vs0mg"},{"bike_id":"ab49b0ae-90ee-4214-bbd8-e0867a6763e8","system_id":"levelo_inurba_marseille","lat":43.31255,"lon":5.37167,"is_reserved":false,"is_disabled":false,"rental_uris":{"android":"levelo://app?vid=ab49b0ae-90ee-4214-bbd8-e0867a6763e8","ios":"levelo://app?vid=ab49b0ae-90ee-4214-bbd8-e0867a6763e8"},"vehicle_type_id":"4","last_reported":1745611875,"current_range_meters":7200,"station_id":"","pricing_plan_id":"cebpf4jnsgd1na2vs0mg"},{"bike_id":"11892210-b2a1-4212-9103-769a3c7c750f","system_id":"levelo_inurba_marseille","lat":43.29627,"lon":5.38154,"is_reserved":false,"is_disabled":false,"rental_uris":{"android":"levelo://app?vid=11892210-b2a1-4212-9103-769a3c7c750f","ios":"levelo://app?vid=11892210-b2a1-4212-9103-769a3c7c750f"},"vehicle_type_id":"4","last_reported":1745611875,"current_range_meters":7200,"station_id":"","pricing_plan_id":"cebpf4jnsgd1na2vs0mg"},{"bike_id":"1d22e340-5741-405c-9e8c-72ef42c2a6d2","system_id":"levelo_inurba_marseille","lat":43.30903,"lon":5.37188,"is_reserved":false,"is_disabled":false,"rental_uris":{"android":"levelo://app?vid=1d22e340-5741-405c-9e8c-72ef42c2a6d2","ios":"levelo://app?vid=1d22e340-5741-405c-9e8c-72ef42c2a6d2"},"vehicle_type_id":"4","last_reported":1745611875,"current_range_meters":6800,"station_id":"ce4bguh2rcd13ifvqckg","pricing_plan_id":"cebpf4jnsgd1na2vs0mg"},{"bike_id":"a449cc86-0dd4-4f62-9635-7cf0aec298dd","system_id":"levelo_inurba_marseille","lat":43.33606,"lon":5.41037,"is_reserved":false,"is_disabled":false,"rental_uris":{"android":"levelo://app?vid=a449cc86-0dd4-4f62-9635-7cf0aec298dd","ios":"levelo://app?vid=a449cc86-0dd4-4f62-9635-7cf0aec298dd"},"vehicle_type_id":"4","last_reported":1745611875,"current_range_meters":7200,"station_id":"ce4bhqh2rcd13ifvqhmg","pricing_plan_id":"cebpf4jnsgd1na2vs0mg"},{"bike_id":"2fda03a5-8996-44fc-842d-7376d8694fb5","system_id":"levelo_inurba_marseille","lat":43.2951,"lon":5.39408,"is_reserved":false,"is_disabled":false,"rental_uris":{"android":"levelo://app?vid=2fda03a5-8996-44fc-842d-7376d8694fb5","ios":"levelo://app?vid=2fda03a5-8996-44fc-842d-7376d8694fb5"},"vehicle_type_id":"4","last_reported":1745611875,"current_range_meters":7200,"station_id":"ce4bh292rcd13ifvqdf0","pricing_plan_id":"cebpf4jnsgd1na2vs0mg"},{"bike_id":"3767ba54-0ee2-464a-8805-d28bad95405b","system_id":"levelo_inurba_marseille","lat":43.25937,"lon":5.37564,"is_reserved":false,"is_disabled":false,"rental_uris":{"android":"levelo://app?vid=3767ba54-0ee2-464a-8805-d28bad95405b","ios":"levelo://app?vid=3767ba54-0ee2-464a-8805-d28bad95405b"},"vehicle_type_id":"4","last_reported":1745611875,"current_range_meters":7200,"station_id":"","pricing_plan_id":"cebpf4jnsgd1na2vs0mg"},{"bike_id":"a4249126-4b69-43e2-b3b3-90fc47b38c62","system_id":"levelo_inurba_marseille","lat":43.32468,"lon":5.36579,"is_reserved":false,"is_disabled":false,"rental_uris":{"android":"levelo://app?vid=a4249126-4b69-43e2-b3b3-90fc47b38c62","ios":"levelo://app?vid=a4249126-4b69-43e2-b3b3-90fc47b38c62"},"vehicle_type_id":"4","last_reported":1745611875,"current_range_meters":7200,"station_id":"ce4bhs12rcd13ifvqhvg","pricing_plan_id":"cebpf4jnsgd1na2vs0mg"},{"bike_id":"c1ccd199-3bfe-4293-a4cb-6829c97c125f","system_id":"levelo_inurba_marseille","lat":43.32415,"lon":5.39097,"is_reserved":false,"is_disabled":false,"rental_uris":{"android":"levelo://app?vid=c1ccd199-3bfe-4293-a4cb-6829c97c125f","ios":"levelo://app?vid=c1ccd199-3bfe-4293-a4cb-6829c97c125f"},"vehicle_type_id":"4","last_reported":1745611875,"current_range_meters":8000,"station_id":"","pricing_plan_id":"cebpf4jnsgd1na2vs0mg"},{"bike_id":"799938bb-11ab-4e7a-a851-3fac952672f8","system_id":"levelo_inurba_marseille","lat":43.28799,"lon":5.39321,"is_reserved":false,"is_disabled":false,"rental_uris":{"android":"levelo://app?vid=799938bb-11ab-4e7a-a851-3fac952672f8","ios":"levelo://app?vid=799938bb-11ab-4e7a-a851-3fac952672f8"},"vehicle_type_id":"4","last_reported":1745611875,"current_range_meters":8000,"station_id":"","pricing_plan_id":"cebpf4jnsgd1na2vs0mg"},{"bike_id":"7f1875dc-4edb-4523-acf0-cce135ae39bc","system_id":"levelo_inurba_marseille","lat":43.30358,"lon":5.41879,"is_reserved":false,"is_disabled":false,"rental_uris":{"android":"levelo://app?vid=7f1875dc-4edb-4523-acf0-cce135ae39bc","ios":"levelo://app?vid=7f1875dc-4edb-4523-acf0-cce135ae39bc"},"vehicle_type_id":"4","last_reported":1745611875,"current_range_meters":7200,"station_id":"ce4bhop2rcd13ifvqh7g","pricing_plan_id":"cebpf4jnsgd1na2vs0mg"},{"bike_id":"da1cdbd3-60c4-4501-9814-234934d34c4a","system_id":"levelo_inurba_marseille","lat":43.2926,"lon":5.38438,"is_reserved":false,"is_disabled":false,"rental_uris":{"android":"levelo://app?vid=da1cdbd3-60c4-4501-9814-234934d34c4a","ios":"levelo://app?vid=da1cdbd3-60c4-4501-9814-234934d34c4a"},"vehicle_type_id":"4","last_reported":1745611875,"current_range_meters":8000,"station_id":"ce4bh692rcd13ifvqea0","pricing_plan_id":"cebpf4jnsgd1na2vs0mg"},{"bike_id":"f1a9f5db-d774-4f36-a0be-69b289d14fd1","system_id":"levelo_inurba_marseille","lat":43.21193,"lon":5.35074,"is_reserved":false,"is_disabled":false,"rental_uris":{"android":"levelo://app?vid=f1a9f5db-d774-4f36-a0be-69b289d14fd1","ios":"levelo://app?vid=f1a9f5db-d774-4f36-a0be-69b289d14fd1"},"vehicle_type_id":"4","last_reported":1745611875,"current_range_meters":8000,"station_id":"st_cvj6sg6p6f1abm77japg","pricing_plan_id":"cebpf4jnsgd1na2vs0mg"},{"bike_id":"dceec8ca-6c2d-4af9-91fa-ec9ec02048d8","system_id":"levelo_inurba_marseille","lat":43.29521,"lon":5.38528,"is_reserved":false,"is_disabled":false,"rental_uris":{"android":"levelo://app?vid=dceec8ca-6c2d-4af9-91fa-ec9ec02048d8","ios":"levelo://app?vid=dceec8ca-6c2d-4af9-91fa-ec9ec02048d8"},"vehicle_type_id":"4","last_reported":1745611875,"current_range_meters":8000,"station_id":"ce4bgih2rcd13ifvqba0","pricing_plan_id":"cebpf4jnsgd1na2vs0mg"},{"bike_id":"8dd737a6-ed74-4f6d-918b-eb836fd23753","system_id":"levelo_inurba_marseille","lat":43.24337,"lon":5.379832,"is_reserved":false,"is_disabled":false,"rental_uris":{"android":"levelo://app?vid=8dd737a6-ed74-4f6d-918b-eb836fd23753","ios":"levelo://app?vid=8dd737a6-ed74-4f6d-918b-eb836fd23753"},"vehicle_type_id":"4","last_reported":1745611875,"current_range_meters":7200,"station_id":"ce4bhnp2rcd13ifvqgvg","pricing_plan_id":"cebpf4jnsgd1na2vs0mg"},{"bike_id":"bbbf75c1-d1a6-4017-ab68-98b27faf19a4","system_id":"levelo_inurba_marseille","lat":43.29526,"lon":5.3854,"is_reserved":false,"is_disabled":false,"rental_uris":{"android":"levelo://app?vid=bbbf75c1-d1a6-4017-ab68-98b27faf19a4","ios":"levelo://app?vid=bbbf75c1-d1a6-4017-ab68-98b27faf19a4"},"vehicle_type_id":"4","last_reported":1745611875,"current_range_meters":8000,"station_id":"ce4bgih2rcd13ifvqba0","pricing_plan_id":"cebpf4jnsgd1na2vs0mg"},{"bike_id":"79ac04a5-62dd-43e2-a4bd-10156274da1b","system_id":"levelo_inurba_marseille","lat":43.32642,"lon":5.41025,"is_reserved":false,"is_disabled":false,"rental_uris":{"android":"levelo://app?vid=79ac04a5-62dd-43e2-a4bd-10156274da1b","ios":"levelo://app?vid=79ac04a5-62dd-43e2-a4bd-10156274da1b"},"vehicle_type_id":"4","last_reported":1745611875,"current_range_meters":8000,"station_id":"ce4bhpp2rcd13ifvqhgg","pricing_plan_id":"cebpf4jnsgd1na2vs0mg"},{"bike_id":"1746265e-27ad-4913-8a06-b6dc5372d844","system_id":"levelo_inurba_marseille","lat":43.25998,"lon":5.37511,"is_reserved":false,"is_disabled":false,"rental_uris":{"android":"levelo://app?vid=1746265e-27ad-4913-8a06-b6dc5372d844","ios":"levelo://app?vid=1746265e-27ad-4913-8a06-b6dc5372d844"},"vehicle_type_id":"4","last_reported":1745611875,"current_range_meters":8400,"station_id":"ce4bhgh2rcd13ifvqfa0","pricing_plan_id":"cebpf4jnsgd1na2vs0mg"},{"bike_id":"e1f88655-5eff-45cf-b8cf-0884505a2f5e","system_id":"levelo_inurba_marseille","lat":43.29574,"lon":5.375295,"is_reserved":false,"is_disabled":false,"rental_uris":{"android":"levelo://app?vid=e1f88655-5eff-45cf-b8cf-0884505a2f5e","ios":"levelo://app?vid=e1f88655-5eff-45cf-b8cf-0884505a2f5e"},"vehicle_type_id":"4","last_reported":1745611875,"current_range_meters":8400,"station_id":"ce4bgh92rcd13ifvqb50","pricing_plan_id":"cebpf4jnsgd1na2vs0mg"},{"bike_id":"712faf1a-d477-445f-a6d0-ce8feb518892","system_id":"levelo_inurba_marseille","lat":43.266787,"lon":5.38274,"is_reserved":false,"is_disabled":false,"rental_uris":{"android":"levelo://app?vid=712faf1a-d477-445f-a6d0-ce8feb518892","ios":"levelo://app?vid=712faf1a-d477-445f-a6d0-ce8feb518892"},"vehicle_type_id":"4","last_reported":1745611875,"current_range_meters":8400,"station_id":"ce4bhg92rcd13ifvqf90","pricing_plan_id":"cebpf4jnsgd1na2vs0mg"},{"bike_id":"90b2a0c1-f5e7-4258-8b3b-6edb7873a2fc","system_id":"levelo_inurba_marseille","lat":43.29263,"lon":5.38449,"is_reserved":false,"is_disabled":false,"rental_uris":{"android":"levelo://app?vid=90b2a0c1-f5e7-4258-8b3b-6edb7873a2fc","ios":"levelo://app?vid=90b2a0c1-f5e7-4258-8b3b-6edb7873a2fc"},"vehicle_type_id":"4","last_reported":1745611875,"current_range_meters":8400,"station_id":"ce4bh692rcd13ifvqea0","pricing_plan_id":"cebpf4jnsgd1na2vs0mg"},{"bike_id":"3801de3f-1722-4ac3-951d-b4b27bd0395c","system_id":"levelo_inurba_marseille","lat":43.3404,"lon":5.37477,"is_reserved":false,"is_disabled":false,"rental_uris":{"android":"levelo://app?vid=3801de3f-1722-4ac3-951d-b4b27bd0395c","ios":"levelo://app?vid=3801de3f-1722-4ac3-951d-b4b27bd0395c"},"vehicle_type_id":"4","last_reported":1745611875,"current_range_meters":8400,"station_id":"","pricing_plan_id":"cebpf4jnsgd1na2vs0mg"},{"bike_id":"228b6590-42c7-46eb-ab0f-678013f0a9d1","system_id":"levelo_inurba_marseille","lat":43.24808,"lon":5.3746,"is_reserved":false,"is_disabled":true,"rental_uris":{"android":"levelo://app?vid=228b6590-42c7-46eb-ab0f-678013f0a9d1","ios":"levelo://app?vid=228b6590-42c7-46eb-ab0f-678013f0a9d1"},"vehicle_type_id":"4","last_reported":1745611875,"current_range_meters":8400,"station_id":"ce4bhgh2rcd13ifvqfb0","pricing_plan_id":"cebpf4jnsgd1na2vs0mg"},{"bike_id":"a6a6fa09-7e94-46f4-9587-1943517bd1ef","system_id":"levelo_inurba_marseille","lat":43.30301,"lon":5.36917,"is_reserved":false,"is_disabled":false,"rental_uris":{"android":"levelo://app?vid=a6a6fa09-7e94-46f4-9587-1943517bd1ef","ios":"levelo://app?vid=a6a6fa09-7e94-46f4-9587-1943517bd1ef"},"vehicle_type_id":"4","last_reported":1745611875,"current_range_meters":8400,"station_id":"ce4bgqh2rcd13ifvqc5g","pricing_plan_id":"cebpf4jnsgd1na2vs0mg"},{"bike_id":"69135ffd-454d-4aa0-be87-85bfa85cd7aa","system_id":"levelo_inurba_marseille","lat":43.29617,"lon":5.37147,"is_reserved":false,"is_disabled":false,"rental_uris":{"android":"levelo://app?vid=69135ffd-454d-4aa0-be87-85bfa85cd7aa","ios":"levelo://app?vid=69135ffd-454d-4aa0-be87-85bfa85cd7aa"},"vehicle_type_id":"4","last_reported":1745611875,"current_range_meters":8400,"station_id":"ce4bgnh2rcd13ifvqc0g","pricing_plan_id":"cebpf4jnsgd1na2vs0mg"},{"bike_id":"e00b26e1-645a-4906-8b57-b671c72bf613","system_id":"levelo_inurba_marseille","lat":43.2512,"lon":5.40318,"is_reserved":false,"is_disabled":false,"rental_uris":{"android":"levelo://app?vid=e00b26e1-645a-4906-8b57-b671c72bf613","ios":"levelo://app?vid=e00b26e1-645a-4906-8b57-b671c72bf613"},"vehicle_type_id":"4","last_reported":1745611875,"current_range_meters":8400,"station_id":"ce4bhlh2rcd13ifvqgig","pricing_plan_id":"cebpf4jnsgd1na2vs0mg"},{"bike_id":"d0faea86-d3cf-4c62-aa48-e0b8c95d9718","system_id":"levelo_inurba_marseille","lat":43.26793,"lon":5.39417,"is_reserved":false,"is_disabled":false,"rental_uris":{"android":"levelo://app?vid=d0faea86-d3cf-4c62-aa48-e0b8c95d9718","ios":"levelo://app?vid=d0faea86-d3cf-4c62-aa48-e0b8c95d9718"},"vehicle_type_id":"4","last_reported":1745611875,"current_range_meters":8800,"station_id":"ce4bhh12rcd13ifvqfg0","pricing_plan_id":"cebpf4jnsgd1na2vs0mg"},{"bike_id":"2c4f0672-4e08-4a85-a44b-0cfafaf0d2c7","system_id":"levelo_inurba_marseille","lat":43.292563,"lon":5.38436,"is_reserved":false,"is_disabled":false,"rental_uris":{"android":"levelo://app?vid=2c4f0672-4e08-4a85-a44b-0cfafaf0d2c7","ios":"levelo://app?vid=2c4f0672-4e08-4a85-a44b-0cfafaf0d2c7"},"vehicle_type_id":"4","last_reported":1745611875,"current_range_meters":8800,"station_id":"ce4bh692rcd13ifvqea0","pricing_plan_id":"cebpf4jnsgd1na2vs0mg"},{"bike_id":"5ec783e7-3274-4757-af9e-8f7e98e2a0c7","system_id":"levelo_inurba_marseille","lat":43.23188,"lon":5.35568,"is_reserved":false,"is_disabled":false,"rental_uris":{"android":"levelo://app?vid=5ec783e7-3274-4757-af9e-8f7e98e2a0c7","ios":"levelo://app?vid=5ec783e7-3274-4757-af9e-8f7e98e2a0c7"},"vehicle_type_id":"4","last_reported":1745611875,"current_range_meters":8800,"station_id":"ce4bhu92rcd13ifvqi70","pricing_plan_id":"cebpf4jnsgd1na2vs0mg"},{"bike_id":"b42a57f7-8fb4-4722-9fd1-48ccd8de2de1","system_id":"levelo_inurba_marseille","lat":43.29422,"lon":5.38627,"is_reserved":false,"is_disabled":false,"rental_uris":{"android":"levelo://app?vid=b42a57f7-8fb4-4722-9fd1-48ccd8de2de1","ios":"levelo://app?vid=b42a57f7-8fb4-4722-9fd1-48ccd8de2de1"},"vehicle_type_id":"4","last_reported":1745611875,"current_range_meters":8800,"station_id":"ce4bh2h2rcd13ifvqdh0","pricing_plan_id":"cebpf4jnsgd1na2vs0mg"},{"bike_id":"003b986b-9315-45ea-b46e-cb16bf3eee72","system_id":"levelo_inurba_marseille","lat":43.29533,"lon":5.38549,"is_reserved":false,"is_disabled":false,"rental_uris":{"android":"levelo://app?vid=003b986b-9315-45ea-b46e-cb16bf3eee72","ios":"levelo://app?vid=003b986b-9315-45ea-b46e-cb16bf3eee72"},"vehicle_type_id":"4","last_reported":1745611875,"current_range_meters":8800,"station_id":"ce4bgih2rcd13ifvqba0","pricing_plan_id":"cebpf4jnsgd1na2vs0mg"},{"bike_id":"468efc85-f58c-4e88-be7c-c3c9e55bbb3c","system_id":"levelo_inurba_marseille","lat":43.29435,"lon":5.38611,"is_reserved":false,"is_disabled":false,"rental_uris":{"android":"levelo://app?vid=468efc85-f58c-4e88-be7c-c3c9e55bbb3c","ios":"levelo://app?vid=468efc85-f58c-4e88-be7c-c3c9e55bbb3c"},"vehicle_type_id":"4","last_reported":1745611875,"current_range_meters":4400,"station_id":"","pricing_plan_id":"cebpf4jnsgd1na2vs0mg"},{"bike_id":"69297328-a926-4991-b5a8-9b525c2cd8ff","system_id":"levelo_inurba_marseille","lat":43.24543,"lon":5.39531,"is_reserved":false,"is_disabled":false,"rental_uris":{"android":"levelo://app?vid=69297328-a926-4991-b5a8-9b525c2cd8ff","ios":"levelo://app?vid=69297328-a926-4991-b5a8-9b525c2cd8ff"},"vehicle_type_id":"4","last_reported":1745611875,"current_range_meters":8800,"station_id":"ce4bhlp2rcd13ifvqgjg","pricing_plan_id":"cebpf4jnsgd1na2vs0mg"},{"bike_id":"92d50eb0-ca83-4825-9882-14249081fc12","system_id":"levelo_inurba_marseille","lat":43.28685,"lon":5.37914,"is_reserved":false,"is_disabled":false,"rental_uris":{"android":"levelo://app?vid=92d50eb0-ca83-4825-9882-14249081fc12","ios":"levelo://app?vid=92d50eb0-ca83-4825-9882-14249081fc12"},"vehicle_type_id":"4","last_reported":1745611875,"current_range_meters":8800,"station_id":"ce4bh9p2rcd13ifvqec0","pricing_plan_id":"cebpf4jnsgd1na2vs0mg"},{"bike_id":"cc49d7df-7ac8-4737-8445-c197f979bd4d","system_id":"levelo_inurba_marseille","lat":43.28839,"lon":5.35874,"is_reserved":false,"is_disabled":true,"rental_uris":{"android":"levelo://app?vid=cc49d7df-7ac8-4737-8445-c197f979bd4d","ios":"levelo://app?vid=cc49d7df-7ac8-4737-8445-c197f979bd4d"},"vehicle_type_id":"4","last_reported":1745611875,"current_range_meters":8800,"station_id":"ce4bhb12rcd13ifvqem0","pricing_plan_id":"cebpf4jnsgd1na2vs0mg"},{"bike_id":"a41cbd74-abc2-43f9-b491-6e11c1d27e2d","system_id":"levelo_inurba_marseille","lat":43.30325,"lon":5.40438,"is_reserved":false,"is_disabled":false,"rental_uris":{"android":"levelo://app?vid=a41cbd74-abc2-43f9-b491-6e11c1d27e2d","ios":"levelo://app?vid=a41cbd74-abc2-43f9-b491-6e11c1d27e2d"},"vehicle_type_id":"4","last_reported":1745611875,"current_range_meters":8800,"station_id":"ce4bh012rcd13ifvqd10","pricing_plan_id":"cebpf4jnsgd1na2vs0mg"},{"bike_id":"68583806-8763-4897-b085-daf102372755","system_id":"levelo_inurba_marseille","lat":43.27959,"lon":5.38765,"is_reserved":false,"is_disabled":false,"rental_uris":{"android":"levelo://app?vid=68583806-8763-4897-b085-daf102372755","ios":"levelo://app?vid=68583806-8763-4897-b085-daf102372755"},"vehicle_type_id":"4","last_reported":1745611875,"current_range_meters":8800,"station_id":"ce4bhg12rcd13ifvqf80","pricing_plan_id":"cebpf4jnsgd1na2vs0mg"},{"bike_id":"f53ca2be-5e14-4232-a442-dc2e98de0bb7","system_id":"levelo_inurba_marseille","lat":43.2732,"lon":5.39091,"is_reserved":false,"is_disabled":true,"rental_uris":{"android":"levelo://app?vid=f53ca2be-5e14-4232-a442-dc2e98de0bb7","ios":"levelo://app?vid=f53ca2be-5e14-4232-a442-dc2e98de0bb7"},"vehicle_type_id":"4","last_reported":1745611875,"current_range_meters":8800,"station_id":"ce4bhgp2rcd13ifvqfe0","pricing_plan_id":"cebpf4jnsgd1na2vs0mg"},{"bike_id":"a1cc7d6a-9e6d-4050-a3ce-2b76809b72ff","system_id":"levelo_inurba_marseille","lat":43.30182,"lon":5.36621,"is_reserved":false,"is_disabled":false,"rental_uris":{"android":"levelo://app?vid=a1cc7d6a-9e6d-4050-a3ce-2b76809b72ff","ios":"levelo://app?vid=a1cc7d6a-9e6d-4050-a3ce-2b76809b72ff"},"vehicle_type_id":"4","last_reported":1745611875,"current_range_meters":8800,"station_id":"ce4bgrh2rcd13ifvqc8g","pricing_plan_id":"cebpf4jnsgd1na2vs0mg"},{"bike_id":"7d90e5bb-25c7-4ba2-ba21-54cf338d57ef","system_id":"levelo_inurba_marseille","lat":43.29254,"lon":5.3844,"is_reserved":false,"is_disabled":false,"rental_uris":{"android":"levelo://app?vid=7d90e5bb-25c7-4ba2-ba21-54cf338d57ef","ios":"levelo://app?vid=7d90e5bb-25c7-4ba2-ba21-54cf338d57ef"},"vehicle_type_id":"4","last_reported":1745611875,"current_range_meters":9200,"station_id":"ce4bh692rcd13ifvqea0","pricing_plan_id":"cebpf4jnsgd1na2vs0mg"},{"bike_id":"a4eb122f-111a-484b-8288-555eecabfece","system_id":"levelo_inurba_marseille","lat":43.2954,"lon":5.38547,"is_reserved":false,"is_disabled":false,"rental_uris":{"android":"levelo://app?vid=a4eb122f-111a-484b-8288-555eecabfece","ios":"levelo://app?vid=a4eb122f-111a-484b-8288-555eecabfece"},"vehicle_type_id":"4","last_reported":1745611875,"current_range_meters":9200,"station_id":"ce4bgih2rcd13ifvqba0","pricing_plan_id":"cebpf4jnsgd1na2vs0mg"},{"bike_id":"dbe58fa4-fb79-48d8-81d2-9780581db0f3","system_id":"levelo_inurba_marseille","lat":43.31134,"lon":5.37755,"is_reserved":false,"is_disabled":false,"rental_uris":{"android":"levelo://app?vid=dbe58fa4-fb79-48d8-81d2-9780581db0f3","ios":"levelo://app?vid=dbe58fa4-fb79-48d8-81d2-9780581db0f3"},"vehicle_type_id":"4","last_reported":1745611875,"current_range_meters":9200,"station_id":"ce4bgt92rcd13ifvqcg0","pricing_plan_id":"cebpf4jnsgd1na2vs0mg"},{"bike_id":"305edf6c-d705-475b-881b-7340ea368c2d","system_id":"levelo_inurba_marseille","lat":43.2953,"lon":5.38541,"is_reserved":false,"is_disabled":false,"rental_uris":{"android":"levelo://app?vid=305edf6c-d705-475b-881b-7340ea368c2d","ios":"levelo://app?vid=305edf6c-d705-475b-881b-7340ea368c2d"},"vehicle_type_id":"4","last_reported":1745611875,"current_range_meters":9200,"station_id":"ce4bgih2rcd13ifvqba0","pricing_plan_id":"cebpf4jnsgd1na2vs0mg"},{"bike_id":"7f7ef8d2-9a9f-4938-a30c-31121ba70407","system_id":"levelo_inurba_marseille","lat":43.31888,"lon":5.36781,"is_reserved":false,"is_disabled":false,"rental_uris":{"android":"levelo://app?vid=7f7ef8d2-9a9f-4938-a30c-31121ba70407","ios":"levelo://app?vid=7f7ef8d2-9a9f-4938-a30c-31121ba70407"},"vehicle_type_id":"4","last_reported":1745611875,"current_range_meters":9200,"station_id":"","pricing_plan_id":"cebpf4jnsgd1na2vs0mg"},{"bike_id":"2342c4c2-2f95-467d-a8c5-90bfb52c13cf","system_id":"levelo_inurba_marseille","lat":43.309657,"lon":5.39051,"is_reserved":false,"is_disabled":false,"rental_uris":{"android":"levelo://app?vid=2342c4c2-2f95-467d-a8c5-90bfb52c13cf","ios":"levelo://app?vid=2342c4c2-2f95-467d-a8c5-90bfb52c13cf"},"vehicle_type_id":"4","last_reported":1745611875,"current_range_meters":9200,"station_id":"ce4bgup2rcd13ifvqco0","pricing_plan_id":"cebpf4jnsgd1na2vs0mg"},{"bike_id":"ae205dd9-d52c-4698-8c9d-ca8e47cfb83f","system_id":"levelo_inurba_marseille","lat":43.308,"lon":5.38156,"is_reserved":false,"is_disabled":false,"rental_uris":{"android":"levelo://app?vid=ae205dd9-d52c-4698-8c9d-ca8e47cfb83f","ios":"levelo://app?vid=ae205dd9-d52c-4698-8c9d-ca8e47cfb83f"},"vehicle_type_id":"4","last_reported":1745611875,"current_range_meters":9200,"station_id":"ce4bgt12rcd13ifvqce0","pricing_plan_id":"cebpf4jnsgd1na2vs0mg"},{"bike_id":"7f48d139-3fb9-4163-a79e-49c0a73c22c3","system_id":"levelo_inurba_marseille","lat":43.29905,"lon":5.38141,"is_reserved":false,"is_disabled":false,"rental_uris":{"android":"levelo://app?vid=7f48d139-3fb9-4163-a79e-49c0a73c22c3","ios":"levelo://app?vid=7f48d139-3fb9-4163-a79e-49c0a73c22c3"},"vehicle_type_id":"4","last_reported":1745611875,"current_range_meters":9600,"station_id":"ce4bgj12rcd13ifvqbc0","pricing_plan_id":"cebpf4jnsgd1na2vs0mg"},{"bike_id":"5c8dde23-03af-4ec7-8c64-b6a7b95cfa5a","system_id":"levelo_inurba_marseille","lat":43.337246,"lon":5.391842,"is_reserved":false,"is_disabled":false,"rental_uris":{"android":"levelo://app?vid=5c8dde23-03af-4ec7-8c64-b6a7b95cfa5a","ios":"levelo://app?vid=5c8dde23-03af-4ec7-8c64-b6a7b95cfa5a"},"vehicle_type_id":"4","last_reported":1745611875,"current_range_meters":9600,"station_id":"ce4bhr92rcd13ifvqhsg","pricing_plan_id":"cebpf4jnsgd1na2vs0mg"},{"bike_id":"e55b7fd1-db0d-4417-a85a-eee1595f4095","system_id":"levelo_inurba_marseille","lat":43.2795,"lon":5.41043,"is_reserved":false,"is_disabled":false,"rental_uris":{"android":"levelo://app?vid=e55b7fd1-db0d-4417-a85a-eee1595f4095","ios":"levelo://app?vid=e55b7fd1-db0d-4417-a85a-eee1595f4095"},"vehicle_type_id":"4","last_reported":1745611875,"current_range_meters":9600,"station_id":"ce4bhnp2rcd13ifvqh0g","pricing_plan_id":"cebpf4jnsgd1na2vs0mg"},{"bike_id":"fec9ef7e-19d6-497a-9043-03ee8ee4a4a5","system_id":"levelo_inurba_marseille","lat":43.24071,"lon":5.37763,"is_reserved":false,"is_disabled":false,"rental_uris":{"android":"levelo://app?vid=fec9ef7e-19d6-497a-9043-03ee8ee4a4a5","ios":"levelo://app?vid=fec9ef7e-19d6-497a-9043-03ee8ee4a4a5"},"vehicle_type_id":"4","last_reported":1745611875,"current_range_meters":10000,"station_id":"ce4bhnp2rcd13ifvqgvg","pricing_plan_id":"cebpf4jnsgd1na2vs0mg"},{"bike_id":"b148126a-90c8-4ca0-81d6-29bdb7841bf5","system_id":"levelo_inurba_marseille","lat":43.29418,"lon":5.3862,"is_reserved":false,"is_disabled":false,"rental_uris":{"android":"levelo://app?vid=b148126a-90c8-4ca0-81d6-29bdb7841bf5","ios":"levelo://app?vid=b148126a-90c8-4ca0-81d6-29bdb7841bf5"},"vehicle_type_id":"4","last_reported":1745611875,"current_range_meters":10000,"station_id":"ce4bh2h2rcd13ifvqdh0","pricing_plan_id":"cebpf4jnsgd1na2vs0mg"},{"bike_id":"8cb0d8e3-233e-414b-8aa9-884ca989a975","system_id":"levelo_inurba_marseille","lat":43.28347,"lon":5.381,"is_reserved":false,"is_disabled":false,"rental_uris":{"android":"levelo://app?vid=8cb0d8e3-233e-414b-8aa9-884ca989a975","ios":"levelo://app?vid=8cb0d8e3-233e-414b-8aa9-884ca989a975"},"vehicle_type_id":"4","last_reported":1745611875,"current_range_meters":10000,"station_id":"ce4bh412rcd13ifvqdr0","pricing_plan_id":"cebpf4jnsgd1na2vs0mg"},{"bike_id":"d3c936f6-240a-43d3-a5ae-1e650770fba5","system_id":"levelo_inurba_marseille","lat":43.26652,"lon":5.3825,"is_reserved":false,"is_disabled":false,"rental_uris":{"android":"levelo://app?vid=d3c936f6-240a-43d3-a5ae-1e650770fba5","ios":"levelo://app?vid=d3c936f6-240a-43d3-a5ae-1e650770fba5"},"vehicle_type_id":"4","last_reported":1745611875,"current_range_meters":10000,"station_id":"ce4bhg92rcd13ifvqf90","pricing_plan_id":"cebpf4jnsgd1na2vs0mg"},{"bike_id":"51376682-930e-45ed-90e0-b53d931ddc33","system_id":"levelo_inurba_marseille","lat":43.27496,"lon":5.42447,"is_reserved":false,"is_disabled":false,"rental_uris":{"android":"levelo://app?vid=51376682-930e-45ed-90e0-b53d931ddc33","ios":"levelo://app?vid=51376682-930e-45ed-90e0-b53d931ddc33"},"vehicle_type_id":"4","last_reported":1745611875,"current_range_meters":10000,"station_id":"ce4bhn92rcd13ifvqgrg","pricing_plan_id":"cebpf4jnsgd1na2vs0mg"},{"bike_id":"78c7f484-570c-4dec-877d-06e748e2a726","system_id":"levelo_inurba_marseille","lat":43.29788,"lon":5.38116,"is_reserved":false,"is_disabled":true,"rental_uris":{"android":"levelo://app?vid=78c7f484-570c-4dec-877d-06e748e2a726","ios":"levelo://app?vid=78c7f484-570c-4dec-877d-06e748e2a726"},"vehicle_type_id":"4","last_reported":1745611875,"current_range_meters":10000,"station_id":"ce4bgip2rcd13ifvqbb0","pricing_plan_id":"cebpf4jnsgd1na2vs0mg"},{"bike_id":"2b6ed1fe-1910-461f-a930-ed5c5edb149a","system_id":"levelo_inurba_marseille","lat":43.322907,"lon":5.382744,"is_reserved":false,"is_disabled":false,"rental_uris":{"android":"levelo://app?vid=2b6ed1fe-1910-461f-a930-ed5c5edb149a","ios":"levelo://app?vid=2b6ed1fe-1910-461f-a930-ed5c5edb149a"},"vehicle_type_id":"4","last_reported":1745611875,"current_range_meters":10000,"station_id":"ce4bgjh2rcd13ifvqbg0","pricing_plan_id":"cebpf4jnsgd1na2vs0mg"},{"bike_id":"5cdc4307-0ecf-40ba-87c7-2c7940e2e054","system_id":"levelo_inurba_marseille","lat":43.30534,"lon":5.36523,"is_reserved":false,"is_disabled":false,"rental_uris":{"android":"levelo://app?vid=5cdc4307-0ecf-40ba-87c7-2c7940e2e054","ios":"levelo://app?vid=5cdc4307-0ecf-40ba-87c7-2c7940e2e054"},"vehicle_type_id":"4","last_reported":1745611875,"current_range_meters":10000,"station_id":"ce4bgs12rcd13ifvqcag","pricing_plan_id":"cebpf4jnsgd1na2vs0mg"},{"bike_id":"6fe978e5-653f-453c-9290-dcea126c74b8","system_id":"levelo_inurba_marseille","lat":43.295927,"lon":5.380961,"is_reserved":false,"is_disabled":false,"rental_uris":{"android":"levelo://app?vid=6fe978e5-653f-453c-9290-dcea126c74b8","ios":"levelo://app?vid=6fe978e5-653f-453c-9290-dcea126c74b8"},"vehicle_type_id":"4","last_reported":1745611875,"current_range_meters":10000,"station_id":"ce4bgt92rcd13ifvqcf0","pricing_plan_id":"cebpf4jnsgd1na2vs0mg"},{"bike_id":"fcb7a518-1908-4b8b-b55b-15776cb94df4","system_id":"levelo_inurba_marseille","lat":43.29531,"lon":5.39401,"is_reserved":false,"is_disabled":false,"rental_uris":{"android":"levelo://app?vid=fcb7a518-1908-4b8b-b55b-15776cb94df4","ios":"levelo://app?vid=fcb7a518-1908-4b8b-b55b-15776cb94df4"},"vehicle_type_id":"4","last_reported":1745611875,"current_range_meters":9600,"station_id":"ce4bh292rcd13ifvqdf0","pricing_plan_id":"cebpf4jnsgd1na2vs0mg"},{"bike_id":"edbc9bff-8242-42ee-887f-3b5d28f3a582","system_id":"levelo_inurba_marseille","lat":43.29362,"lon":5.37867,"is_reserved":false,"is_disabled":true,"rental_uris":{"android":"levelo://app?vid=edbc9bff-8242-42ee-887f-3b5d28f3a582","ios":"levelo://app?vid=edbc9bff-8242-42ee-887f-3b5d28f3a582"},"vehicle_type_id":"4","last_reported":1745611875,"current_range_meters":10000,"station_id":"ce4bgjh2rcd13ifvqbf0","pricing_plan_id":"cebpf4jnsgd1na2vs0mg"},{"bike_id":"462e2c9f-17b8-41fa-9c8a-ebc957869e14","system_id":"levelo_inurba_marseille","lat":43.28716,"lon":5.37942,"is_reserved":false,"is_disabled":false,"rental_uris":{"android":"levelo://app?vid=462e2c9f-17b8-41fa-9c8a-ebc957869e14","ios":"levelo://app?vid=462e2c9f-17b8-41fa-9c8a-ebc957869e14"},"vehicle_type_id":"4","last_reported":1745611875,"current_range_meters":9600,"station_id":"ce4bh9p2rcd13ifvqec0","pricing_plan_id":"cebpf4jnsgd1na2vs0mg"},{"bike_id":"dc01f0b5-b1ff-492a-9187-c2aa24895f43","system_id":"levelo_inurba_marseille","lat":43.23204,"lon":5.39977,"is_reserved":false,"is_disabled":false,"rental_uris":{"android":"levelo://app?vid=dc01f0b5-b1ff-492a-9187-c2aa24895f43","ios":"levelo://app?vid=dc01f0b5-b1ff-492a-9187-c2aa24895f43"},"vehicle_type_id":"4","last_reported":1745611875,"current_range_meters":10000,"station_id":"ce4bhn12rcd13ifvqgqg","pricing_plan_id":"cebpf4jnsgd1na2vs0mg"},{"bike_id":"c2e89ce1-a0ae-474c-86c5-66d0f68715d6","system_id":"levelo_inurba_marseille","lat":43.29429,"lon":5.38623,"is_reserved":false,"is_disabled":false,"rental_uris":{"android":"levelo://app?vid=c2e89ce1-a0ae-474c-86c5-66d0f68715d6","ios":"levelo://app?vid=c2e89ce1-a0ae-474c-86c5-66d0f68715d6"},"vehicle_type_id":"4","last_reported":1745611875,"current_range_meters":10800,"station_id":"ce4bh2h2rcd13ifvqdh0","pricing_plan_id":"cebpf4jnsgd1na2vs0mg"},{"bike_id":"9f5578ed-5577-43eb-b8df-e2b6a45d6d89","system_id":"levelo_inurba_marseille","lat":43.28598,"lon":5.37075,"is_reserved":false,"is_disabled":false,"rental_uris":{"android":"levelo://app?vid=9f5578ed-5577-43eb-b8df-e2b6a45d6d89","ios":"levelo://app?vid=9f5578ed-5577-43eb-b8df-e2b6a45d6d89"},"vehicle_type_id":"4","last_reported":1745611875,"current_range_meters":10800,"station_id":"ce4bht12rcd13ifvqi60","pricing_plan_id":"cebpf4jnsgd1na2vs0mg"},{"bike_id":"fa72b649-3018-4187-96fe-d31c0b11e0f8","system_id":"levelo_inurba_marseille","lat":43.29694,"lon":5.37107,"is_reserved":false,"is_disabled":false,"rental_uris":{"android":"levelo://app?vid=fa72b649-3018-4187-96fe-d31c0b11e0f8","ios":"levelo://app?vid=fa72b649-3018-4187-96fe-d31c0b11e0f8"},"vehicle_type_id":"4","last_reported":1745611875,"current_range_meters":10800,"station_id":"","pricing_plan_id":"cebpf4jnsgd1na2vs0mg"},{"bike_id":"8c6d81a4-99e8-48c9-9978-034f70f4cf34","system_id":"levelo_inurba_marseille","lat":43.29571,"lon":5.37518,"is_reserved":false,"is_disabled":false,"rental_uris":{"android":"levelo://app?vid=8c6d81a4-99e8-48c9-9978-034f70f4cf34","ios":"levelo://app?vid=8c6d81a4-99e8-48c9-9978-034f70f4cf34"},"vehicle_type_id":"4","last_reported":1745611875,"current_range_meters":10800,"station_id":"ce4bgh92rcd13ifvqb50","pricing_plan_id":"cebpf4jnsgd1na2vs0mg"},{"bike_id":"fbdb7676-8966-4707-9a69-0de55aea38dd","system_id":"levelo_inurba_marseille","lat":43.29864,"lon":5.39739,"is_reserved":false,"is_disabled":false,"rental_uris":{"android":"levelo://app?vid=fbdb7676-8966-4707-9a69-0de55aea38dd","ios":"levelo://app?vid=fbdb7676-8966-4707-9a69-0de55aea38dd"},"vehicle_type_id":"4","last_reported":1745611875,"current_range_meters":11200,"station_id":"ce4bh0h2rcd13ifvqd50","pricing_plan_id":"cebpf4jnsgd1na2vs0mg"},{"bike_id":"eac4967a-aec7-4a95-91ac-4d27987a80b3","system_id":"levelo_inurba_marseille","lat":43.28008,"lon":5.38752,"is_reserved":false,"is_disabled":false,"rental_uris":{"android":"levelo://app?vid=eac4967a-aec7-4a95-91ac-4d27987a80b3","ios":"levelo://app?vid=eac4967a-aec7-4a95-91ac-4d27987a80b3"},"vehicle_type_id":"4","last_reported":1745611875,"current_range_meters":13600,"station_id":"ce4bhg12rcd13ifvqf80","pricing_plan_id":"cebpf4jnsgd1na2vs0mg"},{"bike_id":"d9ce4d6a-9801-4ad8-9a57-c1ccce5c1f30","system_id":"levelo_inurba_marseille","lat":43.2953,"lon":5.38541,"is_reserved":false,"is_disabled":false,"rental_uris":{"android":"levelo://app?vid=d9ce4d6a-9801-4ad8-9a57-c1ccce5c1f30","ios":"levelo://app?vid=d9ce4d6a-9801-4ad8-9a57-c1ccce5c1f30"},"vehicle_type_id":"4","last_reported":1745611875,"current_range_meters":11200,"station_id":"ce4bgih2rcd13ifvqba0","pricing_plan_id":"cebpf4jnsgd1na2vs0mg"},{"bike_id":"8cd50c55-e0cf-40e0-84f8-b74dc08cc852","system_id":"levelo_inurba_marseille","lat":43.29537,"lon":5.38555,"is_reserved":false,"is_disabled":false,"rental_uris":{"android":"levelo://app?vid=8cd50c55-e0cf-40e0-84f8-b74dc08cc852","ios":"levelo://app?vid=8cd50c55-e0cf-40e0-84f8-b74dc08cc852"},"vehicle_type_id":"4","last_reported":1745611875,"current_range_meters":11200,"station_id":"ce4bgih2rcd13ifvqba0","pricing_plan_id":"cebpf4jnsgd1na2vs0mg"},{"bike_id":"44258784-b35c-4d0f-b498-651d5f97cba8","system_id":"levelo_inurba_marseille","lat":43.29904,"lon":5.38581,"is_reserved":false,"is_disabled":false,"rental_uris":{"android":"levelo://app?vid=44258784-b35c-4d0f-b498-651d5f97cba8","ios":"levelo://app?vid=44258784-b35c-4d0f-b498-651d5f97cba8"},"vehicle_type_id":"4","last_reported":1745611875,"current_range_meters":11200,"station_id":"","pricing_plan_id":"cebpf4jnsgd1na2vs0mg"},{"bike_id":"3c976c1b-644c-4432-ad5a-b823ebcbcc9c","system_id":"levelo_inurba_marseille","lat":43.30143,"lon":5.37438,"is_reserved":false,"is_disabled":true,"rental_uris":{"android":"levelo://app?vid=3c976c1b-644c-4432-ad5a-b823ebcbcc9c","ios":"levelo://app?vid=3c976c1b-644c-4432-ad5a-b823ebcbcc9c"},"vehicle_type_id":"4","last_reported":1745611875,"current_range_meters":11200,"station_id":"ce4bgs92rcd13ifvqcc0","pricing_plan_id":"cebpf4jnsgd1na2vs0mg"},{"bike_id":"3955b6a0-bf05-4f8c-93aa-1e6be036b195","system_id":"levelo_inurba_marseille","lat":43.29765,"lon":5.37102,"is_reserved":false,"is_disabled":false,"rental_uris":{"android":"levelo://app?vid=3955b6a0-bf05-4f8c-93aa-1e6be036b195","ios":"levelo://app?vid=3955b6a0-bf05-4f8c-93aa-1e6be036b195"},"vehicle_type_id":"4","last_reported":1745611875,"current_range_meters":11200,"station_id":"ce4bgop2rcd13ifvqc1g","pricing_plan_id":"cebpf4jnsgd1na2vs0mg"},{"bike_id":"af4bf573-25fa-4fd8-a392-ada1858257ba","system_id":"levelo_inurba_marseille","lat":43.25863,"lon":5.399,"is_reserved":false,"is_disabled":false,"rental_uris":{"android":"levelo://app?vid=af4bf573-25fa-4fd8-a392-ada1858257ba","ios":"levelo://app?vid=af4bf573-25fa-4fd8-a392-ada1858257ba"},"vehicle_type_id":"4","last_reported":1745611875,"current_range_meters":10800,"station_id":"ce4bhl92rcd13ifvqghg","pricing_plan_id":"cebpf4jnsgd1na2vs0mg"},{"bike_id":"8a52a4a9-c8b2-4617-9ff7-4dbd4c50393f","system_id":"levelo_inurba_marseille","lat":43.284803,"lon":5.384118,"is_reserved":false,"is_disabled":false,"rental_uris":{"android":"levelo://app?vid=8a52a4a9-c8b2-4617-9ff7-4dbd4c50393f","ios":"levelo://app?vid=8a52a4a9-c8b2-4617-9ff7-4dbd4c50393f"},"vehicle_type_id":"4","last_reported":1745611875,"current_range_meters":11200,"station_id":"ce4bh512rcd13ifvqe3g","pricing_plan_id":"cebpf4jnsgd1na2vs0mg"},{"bike_id":"41dc6fea-84c2-423c-84a7-b98c6055b118","system_id":"levelo_inurba_marseille","lat":43.330141,"lon":5.390196,"is_reserved":false,"is_disabled":false,"rental_uris":{"android":"levelo://app?vid=41dc6fea-84c2-423c-84a7-b98c6055b118","ios":"levelo://app?vid=41dc6fea-84c2-423c-84a7-b98c6055b118"},"vehicle_type_id":"4","last_reported":1745611875,"current_range_meters":11200,"station_id":"ce4bhr92rcd13ifvqhrg","pricing_plan_id":"cebpf4jnsgd1na2vs0mg"},{"bike_id":"c7e902d4-412a-4856-a3cd-84294ebaed67","system_id":"levelo_inurba_marseille","lat":43.29643,"lon":5.37172,"is_reserved":false,"is_disabled":false,"rental_uris":{"android":"levelo://app?vid=c7e902d4-412a-4856-a3cd-84294ebaed67","ios":"levelo://app?vid=c7e902d4-412a-4856-a3cd-84294ebaed67"},"vehicle_type_id":"4","last_reported":1745611875,"current_range_meters":11200,"station_id":"ce4bgnh2rcd13ifvqc0g","pricing_plan_id":"cebpf4jnsgd1na2vs0mg"},{"bike_id":"b9fb7622-aef1-4f7d-a876-068441358f6c","system_id":"levelo_inurba_marseille","lat":43.3176,"lon":5.39014,"is_reserved":false,"is_disabled":false,"rental_uris":{"android":"levelo://app?vid=b9fb7622-aef1-4f7d-a876-068441358f6c","ios":"levelo://app?vid=b9fb7622-aef1-4f7d-a876-068441358f6c"},"vehicle_type_id":"4","last_reported":1745611875,"current_range_meters":11200,"station_id":"ce4bhqp2rcd13ifvqhng","pricing_plan_id":"cebpf4jnsgd1na2vs0mg"},{"bike_id":"913907d7-0113-4103-8e41-a587ec6d2a02","system_id":"levelo_inurba_marseille","lat":43.32046,"lon":5.41548,"is_reserved":false,"is_disabled":false,"rental_uris":{"android":"levelo://app?vid=913907d7-0113-4103-8e41-a587ec6d2a02","ios":"levelo://app?vid=913907d7-0113-4103-8e41-a587ec6d2a02"},"vehicle_type_id":"4","last_reported":1745611875,"current_range_meters":11200,"station_id":"ce4bhq92rcd13ifvqhkg","pricing_plan_id":"cebpf4jnsgd1na2vs0mg"},{"bike_id":"6d6ee3c4-605f-430b-8102-2c15510839e3","system_id":"levelo_inurba_marseille","lat":43.30795,"lon":5.38156,"is_reserved":false,"is_disabled":false,"rental_uris":{"android":"levelo://app?vid=6d6ee3c4-605f-430b-8102-2c15510839e3","ios":"levelo://app?vid=6d6ee3c4-605f-430b-8102-2c15510839e3"},"vehicle_type_id":"4","last_reported":1745611875,"current_range_meters":11600,"station_id":"ce4bgt12rcd13ifvqce0","pricing_plan_id":"cebpf4jnsgd1na2vs0mg"},{"bike_id":"f88df12f-812b-4ae0-b212-63beeab6a4bf","system_id":"levelo_inurba_marseille","lat":43.28929,"lon":5.36405,"is_reserved":false,"is_disabled":false,"rental_uris":{"android":"levelo://app?vid=f88df12f-812b-4ae0-b212-63beeab6a4bf","ios":"levelo://app?vid=f88df12f-812b-4ae0-b212-63beeab6a4bf"},"vehicle_type_id":"4","last_reported":1745611875,"current_range_meters":11600,"station_id":"ce4bhc92rcd13ifvqetg","pricing_plan_id":"cebpf4jnsgd1na2vs0mg"},{"bike_id":"a1f4c415-4bbc-491e-86ee-f446ca9210f3","system_id":"levelo_inurba_marseille","lat":43.31363,"lon":5.38489,"is_reserved":false,"is_disabled":false,"rental_uris":{"android":"levelo://app?vid=a1f4c415-4bbc-491e-86ee-f446ca9210f3","ios":"levelo://app?vid=a1f4c415-4bbc-491e-86ee-f446ca9210f3"},"vehicle_type_id":"4","last_reported":1745611875,"current_range_meters":11600,"station_id":"ce4bgt92rcd13ifvqcf0","pricing_plan_id":"cebpf4jnsgd1na2vs0mg"},{"bike_id":"b783073e-64d3-4d0c-a0ce-27204c5cae4d","system_id":"levelo_inurba_marseille","lat":43.30214,"lon":5.39468,"is_reserved":false,"is_disabled":false,"rental_uris":{"android":"levelo://app?vid=b783073e-64d3-4d0c-a0ce-27204c5cae4d","ios":"levelo://app?vid=b783073e-64d3-4d0c-a0ce-27204c5cae4d"},"vehicle_type_id":"4","last_reported":1745611875,"current_range_meters":11600,"station_id":"ce4bh0p2rcd13ifvqd70","pricing_plan_id":"cebpf4jnsgd1na2vs0mg"},{"bike_id":"03ec5728-5a8d-475c-be69-d63e54c8d683","system_id":"levelo_inurba_marseille","lat":43.3246,"lon":5.36729,"is_reserved":false,"is_disabled":false,"rental_uris":{"android":"levelo://app?vid=03ec5728-5a8d-475c-be69-d63e54c8d683","ios":"levelo://app?vid=03ec5728-5a8d-475c-be69-d63e54c8d683"},"vehicle_type_id":"4","last_reported":1745611875,"current_range_meters":11600,"station_id":"","pricing_plan_id":"cebpf4jnsgd1na2vs0mg"},{"bike_id":"3e1ad8a3-a958-4d00-9a56-262625ea8d0f","system_id":"levelo_inurba_marseille","lat":43.28026,"lon":5.36917,"is_reserved":false,"is_disabled":false,"rental_uris":{"android":"levelo://app?vid=3e1ad8a3-a958-4d00-9a56-262625ea8d0f","ios":"levelo://app?vid=3e1ad8a3-a958-4d00-9a56-262625ea8d0f"},"vehicle_type_id":"4","last_reported":1745611875,"current_range_meters":11600,"station_id":"ce4bha12rcd13ifvqef0","pricing_plan_id":"cebpf4jnsgd1na2vs0mg"},{"bike_id":"70aa50c7-d2d7-4429-bd6e-26bb106b9324","system_id":"levelo_inurba_marseille","lat":43.30462,"lon":5.37901,"is_reserved":false,"is_disabled":false,"rental_uris":{"android":"levelo://app?vid=70aa50c7-d2d7-4429-bd6e-26bb106b9324","ios":"levelo://app?vid=70aa50c7-d2d7-4429-bd6e-26bb106b9324"},"vehicle_type_id":"4","last_reported":1745611875,"current_range_meters":11200,"station_id":"ce4bgup2rcd13ifvqcn0","pricing_plan_id":"cebpf4jnsgd1na2vs0mg"},{"bike_id":"3ddc4fb2-bb0c-430f-a0f0-cedcb1bb47d2","system_id":"levelo_inurba_marseille","lat":43.28028,"lon":5.36954,"is_reserved":false,"is_disabled":false,"rental_uris":{"android":"levelo://app?vid=3ddc4fb2-bb0c-430f-a0f0-cedcb1bb47d2","ios":"levelo://app?vid=3ddc4fb2-bb0c-430f-a0f0-cedcb1bb47d2"},"vehicle_type_id":"4","last_reported":1745611875,"current_range_meters":11200,"station_id":"ce4bha12rcd13ifvqef0","pricing_plan_id":"cebpf4jnsgd1na2vs0mg"},{"bike_id":"4c11ff0f-a579-4f78-9960-a443174b0bdd","system_id":"levelo_inurba_marseille","lat":43.21189,"lon":5.35078,"is_reserved":false,"is_disabled":false,"rental_uris":{"android":"levelo://app?vid=4c11ff0f-a579-4f78-9960-a443174b0bdd","ios":"levelo://app?vid=4c11ff0f-a579-4f78-9960-a443174b0bdd"},"vehicle_type_id":"4","last_reported":1745611875,"current_range_meters":11600,"station_id":"st_cvj6sg6p6f1abm77japg","pricing_plan_id":"cebpf4jnsgd1na2vs0mg"},{"bike_id":"67646076-0753-4a7b-880c-a801306dcab6","system_id":"levelo_inurba_marseille","lat":43.29546,"lon":5.39991,"is_reserved":false,"is_disabled":false,"rental_uris":{"android":"levelo://app?vid=67646076-0753-4a7b-880c-a801306dcab6","ios":"levelo://app?vid=67646076-0753-4a7b-880c-a801306dcab6"},"vehicle_type_id":"4","last_reported":1745611875,"current_range_meters":11200,"station_id":"ce4bh312rcd13ifvqdj0","pricing_plan_id":"cebpf4jnsgd1na2vs0mg"},{"bike_id":"422b5989-c8b6-43aa-b2b9-3bfeb2e1ddc0","system_id":"levelo_inurba_marseille","lat":43.247093,"lon":5.411893,"is_reserved":false,"is_disabled":false,"rental_uris":{"android":"levelo://app?vid=422b5989-c8b6-43aa-b2b9-3bfeb2e1ddc0","ios":"levelo://app?vid=422b5989-c8b6-43aa-b2b9-3bfeb2e1ddc0"},"vehicle_type_id":"4","last_reported":1745611875,"current_range_meters":12000,"station_id":"","pricing_plan_id":"cebpf4jnsgd1na2vs0mg"},{"bike_id":"5935a448-c684-42b0-848d-c1b2a0161db3","system_id":"levelo_inurba_marseille","lat":43.28339,"lon":5.38114,"is_reserved":false,"is_disabled":false,"rental_uris":{"android":"levelo://app?vid=5935a448-c684-42b0-848d-c1b2a0161db3","ios":"levelo://app?vid=5935a448-c684-42b0-848d-c1b2a0161db3"},"vehicle_type_id":"4","last_reported":1745611875,"current_range_meters":12000,"station_id":"ce4bh412rcd13ifvqdr0","pricing_plan_id":"cebpf4jnsgd1na2vs0mg"},{"bike_id":"df385a08-2458-4fc0-9d41-7255a3a1eb00","system_id":"levelo_inurba_marseille","lat":43.306226,"lon":5.372183,"is_reserved":false,"is_disabled":false,"rental_uris":{"android":"levelo://app?vid=df385a08-2458-4fc0-9d41-7255a3a1eb00","ios":"levelo://app?vid=df385a08-2458-4fc0-9d41-7255a3a1eb00"},"vehicle_type_id":"4","last_reported":1745611875,"current_range_meters":12000,"station_id":"ce4bgqh2rcd13ifvqc4g","pricing_plan_id":"cebpf4jnsgd1na2vs0mg"},{"bike_id":"7d8d69b2-0147-4031-958f-236ac2917414","system_id":"levelo_inurba_marseille","lat":43.292797,"lon":5.368377,"is_reserved":false,"is_disabled":true,"rental_uris":{"android":"levelo://app?vid=7d8d69b2-0147-4031-958f-236ac2917414","ios":"levelo://app?vid=7d8d69b2-0147-4031-958f-236ac2917414"},"vehicle_type_id":"4","last_reported":1745611875,"current_range_meters":12000,"station_id":"ce4bhbp2rcd13ifvqesg","pricing_plan_id":"cebpf4jnsgd1na2vs0mg"},{"bike_id":"ae9d766e-ced2-4c47-b6c1-8e587d8350d5","system_id":"levelo_inurba_marseille","lat":43.295661,"lon":5.375145,"is_reserved":false,"is_disabled":false,"rental_uris":{"android":"levelo://app?vid=ae9d766e-ced2-4c47-b6c1-8e587d8350d5","ios":"levelo://app?vid=ae9d766e-ced2-4c47-b6c1-8e587d8350d5"},"vehicle_type_id":"4","last_reported":1745611875,"current_range_meters":12000,"station_id":"ce4bgv92rcd13ifvqcq0","pricing_plan_id":"cebpf4jnsgd1na2vs0mg"},{"bike_id":"ba6fa291-3b41-4e87-beff-f72c39c7367a","system_id":"levelo_inurba_marseille","lat":43.30321,"lon":5.36911,"is_reserved":false,"is_disabled":false,"rental_uris":{"android":"levelo://app?vid=ba6fa291-3b41-4e87-beff-f72c39c7367a","ios":"levelo://app?vid=ba6fa291-3b41-4e87-beff-f72c39c7367a"},"vehicle_type_id":"4","last_reported":1745611875,"current_range_meters":12000,"station_id":"ce4bgqh2rcd13ifvqc5g","pricing_plan_id":"cebpf4jnsgd1na2vs0mg"},{"bike_id":"e2dcabcf-64d8-4394-bb9a-ff877bee611a","system_id":"levelo_inurba_marseille","lat":43.3207,"lon":5.41549,"is_reserved":false,"is_disabled":false,"rental_uris":{"android":"levelo://app?vid=e2dcabcf-64d8-4394-bb9a-ff877bee611a","ios":"levelo://app?vid=e2dcabcf-64d8-4394-bb9a-ff877bee611a"},"vehicle_type_id":"4","last_reported":1745611875,"current_range_meters":12000,"station_id":"ce4bhq92rcd13ifvqhkg","pricing_plan_id":"cebpf4jnsgd1na2vs0mg"},{"bike_id":"86b45f0b-788d-4d11-9914-e9d0058dfa8c","system_id":"levelo_inurba_marseille","lat":43.32069,"lon":5.41548,"is_reserved":false,"is_disabled":false,"rental_uris":{"android":"levelo://app?vid=86b45f0b-788d-4d11-9914-e9d0058dfa8c","ios":"levelo://app?vid=86b45f0b-788d-4d11-9914-e9d0058dfa8c"},"vehicle_type_id":"4","last_reported":1745611875,"current_range_meters":12000,"station_id":"ce4bhq92rcd13ifvqhkg","pricing_plan_id":"cebpf4jnsgd1na2vs0mg"},{"bike_id":"efd14e2c-3eaa-4a64-a960-3b79c6bfa901","system_id":"levelo_inurba_marseille","lat":43.30889,"lon":5.39654,"is_reserved":false,"is_disabled":false,"rental_uris":{"android":"levelo://app?vid=efd14e2c-3eaa-4a64-a960-3b79c6bfa901","ios":"levelo://app?vid=efd14e2c-3eaa-4a64-a960-3b79c6bfa901"},"vehicle_type_id":"4","last_reported":1745611875,"current_range_meters":12000,"station_id":"ce4bh012rcd13ifvqcv0","pricing_plan_id":"cebpf4jnsgd1na2vs0mg"},{"bike_id":"0cb2cd67-c121-411c-90f7-72e12ffa3801","system_id":"levelo_inurba_marseille","lat":43.29529,"lon":5.38353,"is_reserved":false,"is_disabled":false,"rental_uris":{"android":"levelo://app?vid=0cb2cd67-c121-411c-90f7-72e12ffa3801","ios":"levelo://app?vid=0cb2cd67-c121-411c-90f7-72e12ffa3801"},"vehicle_type_id":"4","last_reported":1745611875,"current_range_meters":12000,"station_id":"","pricing_plan_id":"cebpf4jnsgd1na2vs0mg"},{"bike_id":"6a3b27e4-5407-4eb3-b4cb-60b4cc06ba5d","system_id":"levelo_inurba_marseille","lat":43.29407,"lon":5.38636,"is_reserved":false,"is_disabled":false,"rental_uris":{"android":"levelo://app?vid=6a3b27e4-5407-4eb3-b4cb-60b4cc06ba5d","ios":"levelo://app?vid=6a3b27e4-5407-4eb3-b4cb-60b4cc06ba5d"},"vehicle_type_id":"4","last_reported":1745611875,"current_range_meters":12000,"station_id":"ce4bh2h2rcd13ifvqdh0","pricing_plan_id":"cebpf4jnsgd1na2vs0mg"},{"bike_id":"0bfff189-ec6a-4439-b345-e9dd168ab867","system_id":"levelo_inurba_marseille","lat":43.33687,"lon":5.39216,"is_reserved":false,"is_disabled":false,"rental_uris":{"android":"levelo://app?vid=0bfff189-ec6a-4439-b345-e9dd168ab867","ios":"levelo://app?vid=0bfff189-ec6a-4439-b345-e9dd168ab867"},"vehicle_type_id":"4","last_reported":1745611875,"current_range_meters":12000,"station_id":"ce4bhr92rcd13ifvqhsg","pricing_plan_id":"cebpf4jnsgd1na2vs0mg"},{"bike_id":"ce8313d2-19ad-4f58-9afa-d7ab21db2cf1","system_id":"levelo_inurba_marseille","lat":43.29629,"lon":5.40594,"is_reserved":false,"is_disabled":false,"rental_uris":{"android":"levelo://app?vid=ce8313d2-19ad-4f58-9afa-d7ab21db2cf1","ios":"levelo://app?vid=ce8313d2-19ad-4f58-9afa-d7ab21db2cf1"},"vehicle_type_id":"4","last_reported":1745611875,"current_range_meters":12400,"station_id":"ce4bh0h2rcd13ifvqd60","pricing_plan_id":"cebpf4jnsgd1na2vs0mg"},{"bike_id":"59ca40ad-786d-41be-aedb-079d88887065","system_id":"levelo_inurba_marseille","lat":43.28362,"lon":5.38092,"is_reserved":false,"is_disabled":false,"rental_uris":{"android":"levelo://app?vid=59ca40ad-786d-41be-aedb-079d88887065","ios":"levelo://app?vid=59ca40ad-786d-41be-aedb-079d88887065"},"vehicle_type_id":"4","last_reported":1745611875,"current_range_meters":12400,"station_id":"ce4bh412rcd13ifvqdr0","pricing_plan_id":"cebpf4jnsgd1na2vs0mg"},{"bike_id":"df03089a-af70-4a73-901f-8844764aaea9","system_id":"levelo_inurba_marseille","lat":43.30923,"lon":5.36854,"is_reserved":false,"is_disabled":false,"rental_uris":{"android":"levelo://app?vid=df03089a-af70-4a73-901f-8844764aaea9","ios":"levelo://app?vid=df03089a-af70-4a73-901f-8844764aaea9"},"vehicle_type_id":"4","last_reported":1745611875,"current_range_meters":12000,"station_id":"ce4bgn92rcd13ifvqbvg","pricing_plan_id":"cebpf4jnsgd1na2vs0mg"},{"bike_id":"36f8249f-f285-4095-adeb-70499d95fb2f","system_id":"levelo_inurba_marseille","lat":43.30147,"lon":5.37421,"is_reserved":false,"is_disabled":false,"rental_uris":{"android":"levelo://app?vid=36f8249f-f285-4095-adeb-70499d95fb2f","ios":"levelo://app?vid=36f8249f-f285-4095-adeb-70499d95fb2f"},"vehicle_type_id":"4","last_reported":1745611875,"current_range_meters":12000,"station_id":"ce4bgs92rcd13ifvqcc0","pricing_plan_id":"cebpf4jnsgd1na2vs0mg"},{"bike_id":"c65adb3e-50be-42af-92da-68dd7e4eacc9","system_id":"levelo_inurba_marseille","lat":43.301618,"lon":5.380908,"is_reserved":false,"is_disabled":true,"rental_uris":{"android":"levelo://app?vid=c65adb3e-50be-42af-92da-68dd7e4eacc9","ios":"levelo://app?vid=c65adb3e-50be-42af-92da-68dd7e4eacc9"},"vehicle_type_id":"4","last_reported":1745611875,"current_range_meters":12400,"station_id":"ce4bgjp2rcd13ifvqbh0","pricing_plan_id":"cebpf4jnsgd1na2vs0mg"},{"bike_id":"35ce4f8a-b751-42a5-9dc0-c820eb978cd2","system_id":"levelo_inurba_marseille","lat":43.26065,"lon":5.39396,"is_reserved":false,"is_disabled":false,"rental_uris":{"android":"levelo://app?vid=35ce4f8a-b751-42a5-9dc0-c820eb978cd2","ios":"levelo://app?vid=35ce4f8a-b751-42a5-9dc0-c820eb978cd2"},"vehicle_type_id":"4","last_reported":1745611875,"current_range_meters":12800,"station_id":"ce4bhh92rcd13ifvqfj0","pricing_plan_id":"cebpf4jnsgd1na2vs0mg"},{"bike_id":"638b774e-4243-4fba-aff6-4b93cd794c3c","system_id":"levelo_inurba_marseille","lat":43.31077,"lon":5.38346,"is_reserved":false,"is_disabled":false,"rental_uris":{"android":"levelo://app?vid=638b774e-4243-4fba-aff6-4b93cd794c3c","ios":"levelo://app?vid=638b774e-4243-4fba-aff6-4b93cd794c3c"},"vehicle_type_id":"4","last_reported":1745611875,"current_range_meters":12800,"station_id":"ce4bgv92rcd13ifvqcr0","pricing_plan_id":"cebpf4jnsgd1na2vs0mg"},{"bike_id":"11d051c3-9f62-4b1b-8442-e63dbf8e1ae6","system_id":"levelo_inurba_marseille","lat":43.29965,"lon":5.38499,"is_reserved":false,"is_disabled":false,"rental_uris":{"android":"levelo://app?vid=11d051c3-9f62-4b1b-8442-e63dbf8e1ae6","ios":"levelo://app?vid=11d051c3-9f62-4b1b-8442-e63dbf8e1ae6"},"vehicle_type_id":"4","last_reported":1745611875,"current_range_meters":12800,"station_id":"ce4bgj92rcd13ifvqbd0","pricing_plan_id":"cebpf4jnsgd1na2vs0mg"},{"bike_id":"0a5eedbd-60ad-4136-894c-3b44902b5954","system_id":"levelo_inurba_marseille","lat":43.30153,"lon":5.37398,"is_reserved":false,"is_disabled":false,"rental_uris":{"android":"levelo://app?vid=0a5eedbd-60ad-4136-894c-3b44902b5954","ios":"levelo://app?vid=0a5eedbd-60ad-4136-894c-3b44902b5954"},"vehicle_type_id":"4","last_reported":1745611875,"current_range_meters":12800,"station_id":"ce4bgs92rcd13ifvqcc0","pricing_plan_id":"cebpf4jnsgd1na2vs0mg"},{"bike_id":"47f32fd9-3efe-4727-a807-429a46c299e1","system_id":"levelo_inurba_marseille","lat":43.303576,"lon":5.418812,"is_reserved":false,"is_disabled":false,"rental_uris":{"android":"levelo://app?vid=47f32fd9-3efe-4727-a807-429a46c299e1","ios":"levelo://app?vid=47f32fd9-3efe-4727-a807-429a46c299e1"},"vehicle_type_id":"4","last_reported":1745611875,"current_range_meters":13600,"station_id":"ce4bhph2rcd13ifvqheg","pricing_plan_id":"cebpf4jnsgd1na2vs0mg"},{"bike_id":"211384e0-cac2-49e8-ac16-db09e77e7be5","system_id":"levelo_inurba_marseille","lat":43.28153,"lon":5.42655,"is_reserved":false,"is_disabled":false,"rental_uris":{"android":"levelo://app?vid=211384e0-cac2-49e8-ac16-db09e77e7be5","ios":"levelo://app?vid=211384e0-cac2-49e8-ac16-db09e77e7be5"},"vehicle_type_id":"4","last_reported":1745611875,"current_range_meters":13600,"station_id":"ce4bhnh2rcd13ifvqgug","pricing_plan_id":"cebpf4jnsgd1na2vs0mg"},{"bike_id":"4f7032a0-b106-4672-8318-2fbb5c57d3be","system_id":"levelo_inurba_marseille","lat":43.29275,"lon":5.40118,"is_reserved":false,"is_disabled":false,"rental_uris":{"android":"levelo://app?vid=4f7032a0-b106-4672-8318-2fbb5c57d3be","ios":"levelo://app?vid=4f7032a0-b106-4672-8318-2fbb5c57d3be"},"vehicle_type_id":"4","last_reported":1745611875,"current_range_meters":13600,"station_id":"ce4bh312rcd13ifvqdk0","pricing_plan_id":"cebpf4jnsgd1na2vs0mg"},{"bike_id":"0b9a387f-ebf6-43e5-86ae-d2d23cdf0fce","system_id":"levelo_inurba_marseille","lat":43.29531,"lon":5.38549,"is_reserved":false,"is_disabled":false,"rental_uris":{"android":"levelo://app?vid=0b9a387f-ebf6-43e5-86ae-d2d23cdf0fce","ios":"levelo://app?vid=0b9a387f-ebf6-43e5-86ae-d2d23cdf0fce"},"vehicle_type_id":"4","last_reported":1745611875,"current_range_meters":13600,"station_id":"ce4bgih2rcd13ifvqba0","pricing_plan_id":"cebpf4jnsgd1na2vs0mg"},{"bike_id":"bd8d2f88-d2f5-4665-a5d8-683098684879","system_id":"levelo_inurba_marseille","lat":43.28679,"lon":5.38679,"is_reserved":false,"is_disabled":false,"rental_uris":{"android":"levelo://app?vid=bd8d2f88-d2f5-4665-a5d8-683098684879","ios":"levelo://app?vid=bd8d2f88-d2f5-4665-a5d8-683098684879"},"vehicle_type_id":"4","last_reported":1745611875,"current_range_meters":13600,"station_id":"ce4bh492rcd13ifvqdug","pricing_plan_id":"cebpf4jnsgd1na2vs0mg"},{"bike_id":"f703d4dd-44a1-4e3f-a11c-46eb7154095c","system_id":"levelo_inurba_marseille","lat":43.31889,"lon":5.40724,"is_reserved":false,"is_disabled":false,"rental_uris":{"android":"levelo://app?vid=f703d4dd-44a1-4e3f-a11c-46eb7154095c","ios":"levelo://app?vid=f703d4dd-44a1-4e3f-a11c-46eb7154095c"},"vehicle_type_id":"4","last_reported":1745611875,"current_range_meters":12800,"station_id":"ce4bhq12rcd13ifvqhig","pricing_plan_id":"cebpf4jnsgd1na2vs0mg"},{"bike_id":"51811f9b-f68a-482f-8f59-e3e461ec953d","system_id":"levelo_inurba_marseille","lat":43.2893,"lon":5.3839,"is_reserved":false,"is_disabled":false,"rental_uris":{"android":"levelo://app?vid=51811f9b-f68a-482f-8f59-e3e461ec953d","ios":"levelo://app?vid=51811f9b-f68a-482f-8f59-e3e461ec953d"},"vehicle_type_id":"4","last_reported":1745611875,"current_range_meters":13600,"station_id":"ce4bh612rcd13ifvqe6g","pricing_plan_id":"cebpf4jnsgd1na2vs0mg"},{"bike_id":"2457c165-5491-4e45-ae44-4c20d7baa8fa","system_id":"levelo_inurba_marseille","lat":43.29549,"lon":5.42281,"is_reserved":false,"is_disabled":false,"rental_uris":{"android":"levelo://app?vid=2457c165-5491-4e45-ae44-4c20d7baa8fa","ios":"levelo://app?vid=2457c165-5491-4e45-ae44-4c20d7baa8fa"},"vehicle_type_id":"4","last_reported":1745611875,"current_range_meters":14000,"station_id":"ce4bhph2rcd13ifvqhdg","pricing_plan_id":"cebpf4jnsgd1na2vs0mg"},{"bike_id":"d4c58439-9a21-4bb1-8d01-461656a2888d","system_id":"levelo_inurba_marseille","lat":43.30178,"lon":5.36611,"is_reserved":false,"is_disabled":false,"rental_uris":{"android":"levelo://app?vid=d4c58439-9a21-4bb1-8d01-461656a2888d","ios":"levelo://app?vid=d4c58439-9a21-4bb1-8d01-461656a2888d"},"vehicle_type_id":"4","last_reported":1745611875,"current_range_meters":14000,"station_id":"ce4bgrh2rcd13ifvqc8g","pricing_plan_id":"cebpf4jnsgd1na2vs0mg"},{"bike_id":"d6a0367e-0184-43af-9141-6556f39ab9a6","system_id":"levelo_inurba_marseille","lat":43.23186,"lon":5.39979,"is_reserved":false,"is_disabled":false,"rental_uris":{"android":"levelo://app?vid=d6a0367e-0184-43af-9141-6556f39ab9a6","ios":"levelo://app?vid=d6a0367e-0184-43af-9141-6556f39ab9a6"},"vehicle_type_id":"4","last_reported":1745611875,"current_range_meters":14000,"station_id":"ce4bhn12rcd13ifvqgqg","pricing_plan_id":"cebpf4jnsgd1na2vs0mg"},{"bike_id":"7b9ac92d-cf62-4d3c-a5df-d561446e341c","system_id":"levelo_inurba_marseille","lat":43.281566,"lon":5.378719,"is_reserved":false,"is_disabled":false,"rental_uris":{"android":"levelo://app?vid=7b9ac92d-cf62-4d3c-a5df-d561446e341c","ios":"levelo://app?vid=7b9ac92d-cf62-4d3c-a5df-d561446e341c"},"vehicle_type_id":"4","last_reported":1745611875,"current_range_meters":14000,"station_id":"ce4bha12rcd13ifvqee0","pricing_plan_id":"cebpf4jnsgd1na2vs0mg"},{"bike_id":"89c3afd8-2516-49aa-a859-402ffbfdc686","system_id":"levelo_inurba_marseille","lat":43.28079,"lon":5.39656,"is_reserved":false,"is_disabled":false,"rental_uris":{"android":"levelo://app?vid=89c3afd8-2516-49aa-a859-402ffbfdc686","ios":"levelo://app?vid=89c3afd8-2516-49aa-a859-402ffbfdc686"},"vehicle_type_id":"4","last_reported":1745611875,"current_range_meters":14000,"station_id":"ce4bho12rcd13ifvqh2g","pricing_plan_id":"cebpf4jnsgd1na2vs0mg"},{"bike_id":"9cf3a677-ccf1-4de9-951f-846f2d5dc3dc","system_id":"levelo_inurba_marseille","lat":43.29204,"lon":5.39324,"is_reserved":false,"is_disabled":false,"rental_uris":{"android":"levelo://app?vid=9cf3a677-ccf1-4de9-951f-846f2d5dc3dc","ios":"levelo://app?vid=9cf3a677-ccf1-4de9-951f-846f2d5dc3dc"},"vehicle_type_id":"4","last_reported":1745611875,"current_range_meters":14000,"station_id":"ce4bh192rcd13ifvqdd0","pricing_plan_id":"cebpf4jnsgd1na2vs0mg"},{"bike_id":"8d0924c1-f19e-4d31-974a-ecc2bd9fa281","system_id":"levelo_inurba_marseille","lat":43.29522,"lon":5.394,"is_reserved":false,"is_disabled":false,"rental_uris":{"android":"levelo://app?vid=8d0924c1-f19e-4d31-974a-ecc2bd9fa281","ios":"levelo://app?vid=8d0924c1-f19e-4d31-974a-ecc2bd9fa281"},"vehicle_type_id":"4","last_reported":1745611875,"current_range_meters":14000,"station_id":"ce4bh292rcd13ifvqdf0","pricing_plan_id":"cebpf4jnsgd1na2vs0mg"},{"bike_id":"568053e1-9183-4cee-acca-959027493876","system_id":"levelo_inurba_marseille","lat":43.30939,"lon":5.36845,"is_reserved":false,"is_disabled":true,"rental_uris":{"android":"levelo://app?vid=568053e1-9183-4cee-acca-959027493876","ios":"levelo://app?vid=568053e1-9183-4cee-acca-959027493876"},"vehicle_type_id":"4","last_reported":1745611875,"current_range_meters":14400,"station_id":"ce4bgn92rcd13ifvqbvg","pricing_plan_id":"cebpf4jnsgd1na2vs0mg"},{"bike_id":"5810d5a0-0de3-436f-84dd-c887bf909d42","system_id":"levelo_inurba_marseille","lat":43.30592,"lon":5.39356,"is_reserved":false,"is_disabled":false,"rental_uris":{"android":"levelo://app?vid=5810d5a0-0de3-436f-84dd-c887bf909d42","ios":"levelo://app?vid=5810d5a0-0de3-436f-84dd-c887bf909d42"},"vehicle_type_id":"4","last_reported":1745611875,"current_range_meters":14400,"station_id":"ce4bh0p2rcd13ifvqd80","pricing_plan_id":"cebpf4jnsgd1na2vs0mg"},{"bike_id":"7ac30bce-6888-4e44-a08c-c6d27fad4736","system_id":"levelo_inurba_marseille","lat":43.26208,"lon":5.37441,"is_reserved":false,"is_disabled":false,"rental_uris":{"android":"levelo://app?vid=7ac30bce-6888-4e44-a08c-c6d27fad4736","ios":"levelo://app?vid=7ac30bce-6888-4e44-a08c-c6d27fad4736"},"vehicle_type_id":"4","last_reported":1745611875,"current_range_meters":14400,"station_id":"ce4bhgp2rcd13ifvqfc0","pricing_plan_id":"cebpf4jnsgd1na2vs0mg"},{"bike_id":"b6c6d9f7-b123-42c6-8ea7-68299b7c9958","system_id":"levelo_inurba_marseille","lat":43.324,"lon":5.39156,"is_reserved":false,"is_disabled":false,"rental_uris":{"android":"levelo://app?vid=b6c6d9f7-b123-42c6-8ea7-68299b7c9958","ios":"levelo://app?vid=b6c6d9f7-b123-42c6-8ea7-68299b7c9958"},"vehicle_type_id":"4","last_reported":1745611875,"current_range_meters":14400,"station_id":"","pricing_plan_id":"cebpf4jnsgd1na2vs0mg"},{"bike_id":"606ea2db-1d65-4468-a52a-4cf3cdddb258","system_id":"levelo_inurba_marseille","lat":43.297002,"lon":5.405474,"is_reserved":false,"is_disabled":false,"rental_uris":{"android":"levelo://app?vid=606ea2db-1d65-4468-a52a-4cf3cdddb258","ios":"levelo://app?vid=606ea2db-1d65-4468-a52a-4cf3cdddb258"},"vehicle_type_id":"4","last_reported":1745611875,"current_range_meters":14800,"station_id":"ce4bh0h2rcd13ifvqd60","pricing_plan_id":"cebpf4jnsgd1na2vs0mg"},{"bike_id":"af6af1ea-83a0-4448-a6b9-d143557f7290","system_id":"levelo_inurba_marseille","lat":43.2697,"lon":5.40427,"is_reserved":false,"is_disabled":false,"rental_uris":{"android":"levelo://app?vid=af6af1ea-83a0-4448-a6b9-d143557f7290","ios":"levelo://app?vid=af6af1ea-83a0-4448-a6b9-d143557f7290"},"vehicle_type_id":"4","last_reported":1745611875,"current_range_meters":14800,"station_id":"","pricing_plan_id":"cebpf4jnsgd1na2vs0mg"},{"bike_id":"49a5be0b-2b23-4d57-a2bd-3a5d802fab0b","system_id":"levelo_inurba_marseille","lat":43.28994,"lon":5.35622,"is_reserved":false,"is_disabled":true,"rental_uris":{"android":"levelo://app?vid=49a5be0b-2b23-4d57-a2bd-3a5d802fab0b","ios":"levelo://app?vid=49a5be0b-2b23-4d57-a2bd-3a5d802fab0b"},"vehicle_type_id":"4","last_reported":1745611875,"current_range_meters":14800,"station_id":"ce4bhb92rcd13ifvqen0","pricing_plan_id":"cebpf4jnsgd1na2vs0mg"},{"bike_id":"75b0798f-4e1a-4e43-af45-d279e6716ef8","system_id":"levelo_inurba_marseille","lat":43.25092,"lon":5.39518,"is_reserved":false,"is_disabled":false,"rental_uris":{"android":"levelo://app?vid=75b0798f-4e1a-4e43-af45-d279e6716ef8","ios":"levelo://app?vid=75b0798f-4e1a-4e43-af45-d279e6716ef8"},"vehicle_type_id":"4","last_reported":1745611875,"current_range_meters":15200,"station_id":"ce4bhm12rcd13ifvqgkg","pricing_plan_id":"cebpf4jnsgd1na2vs0mg"},{"bike_id":"dc5b82cd-1b5b-4070-82af-a8860b0a811d","system_id":"levelo_inurba_marseille","lat":43.23196,"lon":5.355533,"is_reserved":false,"is_disabled":false,"rental_uris":{"android":"levelo://app?vid=dc5b82cd-1b5b-4070-82af-a8860b0a811d","ios":"levelo://app?vid=dc5b82cd-1b5b-4070-82af-a8860b0a811d"},"vehicle_type_id":"4","last_reported":1745611875,"current_range_meters":15200,"station_id":"ce4bhu92rcd13ifvqi70","pricing_plan_id":"cebpf4jnsgd1na2vs0mg"},{"bike_id":"d721dd34-165c-4212-a128-abfd72eaf4d3","system_id":"levelo_inurba_marseille","lat":43.29534,"lon":5.38566,"is_reserved":false,"is_disabled":false,"rental_uris":{"android":"levelo://app?vid=d721dd34-165c-4212-a128-abfd72eaf4d3","ios":"levelo://app?vid=d721dd34-165c-4212-a128-abfd72eaf4d3"},"vehicle_type_id":"4","last_reported":1745611875,"current_range_meters":15200,"station_id":"ce4bgih2rcd13ifvqba0","pricing_plan_id":"cebpf4jnsgd1na2vs0mg"},{"bike_id":"8bdfcae2-e67a-4369-83a7-2ea072cf5393","system_id":"levelo_inurba_marseille","lat":43.30537,"lon":5.36701,"is_reserved":false,"is_disabled":false,"rental_uris":{"android":"levelo://app?vid=8bdfcae2-e67a-4369-83a7-2ea072cf5393","ios":"levelo://app?vid=8bdfcae2-e67a-4369-83a7-2ea072cf5393"},"vehicle_type_id":"4","last_reported":1745611875,"current_range_meters":15200,"station_id":"ce4bgrp2rcd13ifvqc9g","pricing_plan_id":"cebpf4jnsgd1na2vs0mg"},{"bike_id":"d4fac4f8-0a33-4fba-a520-ef4f03ca4bb4","system_id":"levelo_inurba_marseille","lat":43.30947,"lon":5.39048,"is_reserved":false,"is_disabled":false,"rental_uris":{"android":"levelo://app?vid=d4fac4f8-0a33-4fba-a520-ef4f03ca4bb4","ios":"levelo://app?vid=d4fac4f8-0a33-4fba-a520-ef4f03ca4bb4"},"vehicle_type_id":"4","last_reported":1745611875,"current_range_meters":15200,"station_id":"ce4bgup2rcd13ifvqco0","pricing_plan_id":"cebpf4jnsgd1na2vs0mg"},{"bike_id":"b5487363-610c-4a32-a4cb-3eb0e18f5da2","system_id":"levelo_inurba_marseille","lat":43.293854,"lon":5.385822,"is_reserved":false,"is_disabled":false,"rental_uris":{"android":"levelo://app?vid=b5487363-610c-4a32-a4cb-3eb0e18f5da2","ios":"levelo://app?vid=b5487363-610c-4a32-a4cb-3eb0e18f5da2"},"vehicle_type_id":"4","last_reported":1745611875,"current_range_meters":15200,"station_id":"ce4bh9p2rcd13ifvqec0","pricing_plan_id":"cebpf4jnsgd1na2vs0mg"},{"bike_id":"e07fad7c-571f-4e9b-9314-14824ba2c010","system_id":"levelo_inurba_marseille","lat":43.26213,"lon":5.37442,"is_reserved":false,"is_disabled":false,"rental_uris":{"android":"levelo://app?vid=e07fad7c-571f-4e9b-9314-14824ba2c010","ios":"levelo://app?vid=e07fad7c-571f-4e9b-9314-14824ba2c010"},"vehicle_type_id":"4","last_reported":1745611875,"current_range_meters":16000,"station_id":"ce4bhgp2rcd13ifvqfc0","pricing_plan_id":"cebpf4jnsgd1na2vs0mg"},{"bike_id":"429c952d-b89e-489d-adff-5d8acda34a8a","system_id":"levelo_inurba_marseille","lat":43.29405,"lon":5.38631,"is_reserved":false,"is_disabled":false,"rental_uris":{"android":"levelo://app?vid=429c952d-b89e-489d-adff-5d8acda34a8a","ios":"levelo://app?vid=429c952d-b89e-489d-adff-5d8acda34a8a"},"vehicle_type_id":"4","last_reported":1745611875,"current_range_meters":16000,"station_id":"ce4bh2h2rcd13ifvqdh0","pricing_plan_id":"cebpf4jnsgd1na2vs0mg"},{"bike_id":"eb155674-27b9-4bd4-8e63-20bfba1aa855","system_id":"levelo_inurba_marseille","lat":43.29201,"lon":5.39315,"is_reserved":false,"is_disabled":false,"rental_uris":{"android":"levelo://app?vid=eb155674-27b9-4bd4-8e63-20bfba1aa855","ios":"levelo://app?vid=eb155674-27b9-4bd4-8e63-20bfba1aa855"},"vehicle_type_id":"4","last_reported":1745611875,"current_range_meters":16000,"station_id":"ce4bh192rcd13ifvqdd0","pricing_plan_id":"cebpf4jnsgd1na2vs0mg"},{"bike_id":"211a0cd0-9945-462b-b0d1-d5387e654b90","system_id":"levelo_inurba_marseille","lat":43.25112,"lon":5.40338,"is_reserved":false,"is_disabled":false,"rental_uris":{"android":"levelo://app?vid=211a0cd0-9945-462b-b0d1-d5387e654b90","ios":"levelo://app?vid=211a0cd0-9945-462b-b0d1-d5387e654b90"},"vehicle_type_id":"4","last_reported":1745611875,"current_range_meters":16000,"station_id":"ce4bhlh2rcd13ifvqgig","pricing_plan_id":"cebpf4jnsgd1na2vs0mg"},{"bike_id":"262de007-d0f9-4b5c-9db4-1c829c9329a9","system_id":"levelo_inurba_marseille","lat":43.27934,"lon":5.41028,"is_reserved":false,"is_disabled":false,"rental_uris":{"android":"levelo://app?vid=262de007-d0f9-4b5c-9db4-1c829c9329a9","ios":"levelo://app?vid=262de007-d0f9-4b5c-9db4-1c829c9329a9"},"vehicle_type_id":"4","last_reported":1745611875,"current_range_meters":16000,"station_id":"ce4bhnp2rcd13ifvqh0g","pricing_plan_id":"cebpf4jnsgd1na2vs0mg"},{"bike_id":"9938022e-8478-489a-a878-ea3fb6a686ae","system_id":"levelo_inurba_marseille","lat":43.3236,"lon":5.38891,"is_reserved":false,"is_disabled":false,"rental_uris":{"android":"levelo://app?vid=9938022e-8478-489a-a878-ea3fb6a686ae","ios":"levelo://app?vid=9938022e-8478-489a-a878-ea3fb6a686ae"},"vehicle_type_id":"4","last_reported":1745611875,"current_range_meters":16000,"station_id":"ce4bhqp2rcd13ifvqhog","pricing_plan_id":"cebpf4jnsgd1na2vs0mg"},{"bike_id":"84fbb3b0-32a6-4d2e-ae64-a58ff68e7b32","system_id":"levelo_inurba_marseille","lat":43.22929,"lon":5.35375,"is_reserved":false,"is_disabled":false,"rental_uris":{"android":"levelo://app?vid=84fbb3b0-32a6-4d2e-ae64-a58ff68e7b32","ios":"levelo://app?vid=84fbb3b0-32a6-4d2e-ae64-a58ff68e7b32"},"vehicle_type_id":"4","last_reported":1745611875,"current_range_meters":16000,"station_id":"cpo3532slgdg3j2ikp40","pricing_plan_id":"cebpf4jnsgd1na2vs0mg"},{"bike_id":"94ad63d7-0b52-443a-aaaa-273e224c7cfd","system_id":"levelo_inurba_marseille","lat":43.262077,"lon":5.374407,"is_reserved":false,"is_disabled":false,"rental_uris":{"android":"levelo://app?vid=94ad63d7-0b52-443a-aaaa-273e224c7cfd","ios":"levelo://app?vid=94ad63d7-0b52-443a-aaaa-273e224c7cfd"},"vehicle_type_id":"4","last_reported":1745611875,"current_range_meters":16000,"station_id":"ce4bhgp2rcd13ifvqfc0","pricing_plan_id":"cebpf4jnsgd1na2vs0mg"},{"bike_id":"987d7900-bb2a-45cb-bed7-6d69f6fd4fa3","system_id":"levelo_inurba_marseille","lat":43.2848,"lon":5.38427,"is_reserved":false,"is_disabled":false,"rental_uris":{"android":"levelo://app?vid=987d7900-bb2a-45cb-bed7-6d69f6fd4fa3","ios":"levelo://app?vid=987d7900-bb2a-45cb-bed7-6d69f6fd4fa3"},"vehicle_type_id":"4","last_reported":1745611875,"current_range_meters":16000,"station_id":"ce4bh512rcd13ifvqe3g","pricing_plan_id":"cebpf4jnsgd1na2vs0mg"},{"bike_id":"c4b50545-8f49-4111-825d-7271c07f265d","system_id":"levelo_inurba_marseille","lat":43.30423,"lon":5.38897,"is_reserved":false,"is_disabled":false,"rental_uris":{"android":"levelo://app?vid=c4b50545-8f49-4111-825d-7271c07f265d","ios":"levelo://app?vid=c4b50545-8f49-4111-825d-7271c07f265d"},"vehicle_type_id":"4","last_reported":1745611875,"current_range_meters":16000,"station_id":"ce4bgv12rcd13ifvqcp0","pricing_plan_id":"cebpf4jnsgd1na2vs0mg"},{"bike_id":"5c59969d-437f-43ab-990f-664c9830a931","system_id":"levelo_inurba_marseille","lat":43.31356,"lon":5.38679,"is_reserved":false,"is_disabled":false,"rental_uris":{"android":"levelo://app?vid=5c59969d-437f-43ab-990f-664c9830a931","ios":"levelo://app?vid=5c59969d-437f-43ab-990f-664c9830a931"},"vehicle_type_id":"4","last_reported":1745611875,"current_range_meters":16400,"station_id":"","pricing_plan_id":"cebpf4jnsgd1na2vs0mg"},{"bike_id":"fdbe3e4c-6069-4e16-9ae7-cb790fcbdb9e","system_id":"levelo_inurba_marseille","lat":43.24639,"lon":5.38149,"is_reserved":false,"is_disabled":false,"rental_uris":{"android":"levelo://app?vid=fdbe3e4c-6069-4e16-9ae7-cb790fcbdb9e","ios":"levelo://app?vid=fdbe3e4c-6069-4e16-9ae7-cb790fcbdb9e"},"vehicle_type_id":"4","last_reported":1745611875,"current_range_meters":16400,"station_id":"ce4bhih2rcd13ifvqfr0","pricing_plan_id":"cebpf4jnsgd1na2vs0mg"},{"bike_id":"c5af7a15-3ea8-49cc-bdc5-b0b093964bd5","system_id":"levelo_inurba_marseille","lat":43.28155,"lon":5.42655,"is_reserved":false,"is_disabled":false,"rental_uris":{"android":"levelo://app?vid=c5af7a15-3ea8-49cc-bdc5-b0b093964bd5","ios":"levelo://app?vid=c5af7a15-3ea8-49cc-bdc5-b0b093964bd5"},"vehicle_type_id":"4","last_reported":1745611875,"current_range_meters":16400,"station_id":"ce4bhnh2rcd13ifvqgug","pricing_plan_id":"cebpf4jnsgd1na2vs0mg"},{"bike_id":"9ed7f8b0-1b74-4fb2-bf17-4c079263a406","system_id":"levelo_inurba_marseille","lat":43.25488,"lon":5.37654,"is_reserved":false,"is_disabled":false,"rental_uris":{"android":"levelo://app?vid=9ed7f8b0-1b74-4fb2-bf17-4c079263a406","ios":"levelo://app?vid=9ed7f8b0-1b74-4fb2-bf17-4c079263a406"},"vehicle_type_id":"4","last_reported":1745611875,"current_range_meters":16400,"station_id":"ce4bhh12rcd13ifvqff0","pricing_plan_id":"cebpf4jnsgd1na2vs0mg"},{"bike_id":"7e5b31bf-0eda-4c16-8d35-f13e708bf69a","system_id":"levelo_inurba_marseille","lat":43.25867,"lon":5.39908,"is_reserved":false,"is_disabled":false,"rental_uris":{"android":"levelo://app?vid=7e5b31bf-0eda-4c16-8d35-f13e708bf69a","ios":"levelo://app?vid=7e5b31bf-0eda-4c16-8d35-f13e708bf69a"},"vehicle_type_id":"4","last_reported":1745611875,"current_range_meters":16400,"station_id":"ce4bhl92rcd13ifvqghg","pricing_plan_id":"cebpf4jnsgd1na2vs0mg"},{"bike_id":"97fbe862-3dc4-4ded-9569-7540ceeeffb5","system_id":"levelo_inurba_marseille","lat":43.33623,"lon":5.41018,"is_reserved":false,"is_disabled":false,"rental_uris":{"android":"levelo://app?vid=97fbe862-3dc4-4ded-9569-7540ceeeffb5","ios":"levelo://app?vid=97fbe862-3dc4-4ded-9569-7540ceeeffb5"},"vehicle_type_id":"4","last_reported":1745611875,"current_range_meters":16400,"station_id":"ce4bhqh2rcd13ifvqhmg","pricing_plan_id":"cebpf4jnsgd1na2vs0mg"},{"bike_id":"9a37b5a9-a8bb-4530-aa26-5631d9b2251d","system_id":"levelo_inurba_marseille","lat":43.29852,"lon":5.363,"is_reserved":false,"is_disabled":false,"rental_uris":{"android":"levelo://app?vid=9a37b5a9-a8bb-4530-aa26-5631d9b2251d","ios":"levelo://app?vid=9a37b5a9-a8bb-4530-aa26-5631d9b2251d"},"vehicle_type_id":"4","last_reported":1745611875,"current_range_meters":16400,"station_id":"ce4bgpp2rcd13ifvqc3g","pricing_plan_id":"cebpf4jnsgd1na2vs0mg"},{"bike_id":"b7909c30-ba33-49af-847f-4d9bd0285812","system_id":"levelo_inurba_marseille","lat":43.25494,"lon":5.37648,"is_reserved":false,"is_disabled":false,"rental_uris":{"android":"levelo://app?vid=b7909c30-ba33-49af-847f-4d9bd0285812","ios":"levelo://app?vid=b7909c30-ba33-49af-847f-4d9bd0285812"},"vehicle_type_id":"4","last_reported":1745611875,"current_range_meters":16400,"station_id":"ce4bhh12rcd13ifvqff0","pricing_plan_id":"cebpf4jnsgd1na2vs0mg"},{"bike_id":"51a4b1f4-4cfb-4b9e-b7e6-50254ee4c796","system_id":"levelo_inurba_marseille","lat":43.28602,"lon":5.3707,"is_reserved":false,"is_disabled":true,"rental_uris":{"android":"levelo://app?vid=51a4b1f4-4cfb-4b9e-b7e6-50254ee4c796","ios":"levelo://app?vid=51a4b1f4-4cfb-4b9e-b7e6-50254ee4c796"},"vehicle_type_id":"4","last_reported":1745611875,"current_range_meters":16400,"station_id":"ce4bht12rcd13ifvqi60","pricing_plan_id":"cebpf4jnsgd1na2vs0mg"},{"bike_id":"335c52a6-a579-4564-9f24-e9ae344457b0","system_id":"levelo_inurba_marseille","lat":43.30639,"lon":5.40078,"is_reserved":false,"is_disabled":false,"rental_uris":{"android":"levelo://app?vid=335c52a6-a579-4564-9f24-e9ae344457b0","ios":"levelo://app?vid=335c52a6-a579-4564-9f24-e9ae344457b0"},"vehicle_type_id":"4","last_reported":1745611875,"current_range_meters":16800,"station_id":"ce4bh112rcd13ifvqda0","pricing_plan_id":"cebpf4jnsgd1na2vs0mg"},{"bike_id":"31de0553-c9b8-4cd4-844d-7d7b36fa3ecd","system_id":"levelo_inurba_marseille","lat":43.28197,"lon":5.42627,"is_reserved":false,"is_disabled":false,"rental_uris":{"android":"levelo://app?vid=31de0553-c9b8-4cd4-844d-7d7b36fa3ecd","ios":"levelo://app?vid=31de0553-c9b8-4cd4-844d-7d7b36fa3ecd"},"vehicle_type_id":"4","last_reported":1745611875,"current_range_meters":16800,"station_id":"ce4bhnh2rcd13ifvqgug","pricing_plan_id":"cebpf4jnsgd1na2vs0mg"},{"bike_id":"6af27718-a240-4511-b105-026b1985396f","system_id":"levelo_inurba_marseille","lat":43.29603,"lon":5.36315,"is_reserved":false,"is_disabled":false,"rental_uris":{"android":"levelo://app?vid=6af27718-a240-4511-b105-026b1985396f","ios":"levelo://app?vid=6af27718-a240-4511-b105-026b1985396f"},"vehicle_type_id":"4","last_reported":1745611875,"current_range_meters":16800,"station_id":"","pricing_plan_id":"cebpf4jnsgd1na2vs0mg"},{"bike_id":"176f11fd-9165-4347-9c3a-1ad1c61f7e1a","system_id":"levelo_inurba_marseille","lat":43.27928,"lon":5.39585,"is_reserved":false,"is_disabled":false,"rental_uris":{"android":"levelo://app?vid=176f11fd-9165-4347-9c3a-1ad1c61f7e1a","ios":"levelo://app?vid=176f11fd-9165-4347-9c3a-1ad1c61f7e1a"},"vehicle_type_id":"4","last_reported":1745611875,"current_range_meters":16800,"station_id":"ce4bhf92rcd13ifvqf40","pricing_plan_id":"cebpf4jnsgd1na2vs0mg"},{"bike_id":"009b4d31-b1e1-449b-99fe-26b589d67db6","system_id":"levelo_inurba_marseille","lat":43.28602,"lon":5.37056,"is_reserved":false,"is_disabled":false,"rental_uris":{"android":"levelo://app?vid=009b4d31-b1e1-449b-99fe-26b589d67db6","ios":"levelo://app?vid=009b4d31-b1e1-449b-99fe-26b589d67db6"},"vehicle_type_id":"4","last_reported":1745611875,"current_range_meters":16800,"station_id":"ce4bht12rcd13ifvqi60","pricing_plan_id":"cebpf4jnsgd1na2vs0mg"},{"bike_id":"3bf47bf6-0094-4467-befd-6245b4cca8c5","system_id":"levelo_inurba_marseille","lat":43.31482,"lon":5.37309,"is_reserved":false,"is_disabled":false,"rental_uris":{"android":"levelo://app?vid=3bf47bf6-0094-4467-befd-6245b4cca8c5","ios":"levelo://app?vid=3bf47bf6-0094-4467-befd-6245b4cca8c5"},"vehicle_type_id":"4","last_reported":1745611875,"current_range_meters":16800,"station_id":"ce4bgt12rcd13ifvqcd0","pricing_plan_id":"cebpf4jnsgd1na2vs0mg"},{"bike_id":"bbcdc9cd-0240-4cab-816f-e56f40270ff9","system_id":"levelo_inurba_marseille","lat":43.29066,"lon":5.37157,"is_reserved":false,"is_disabled":false,"rental_uris":{"android":"levelo://app?vid=bbcdc9cd-0240-4cab-816f-e56f40270ff9","ios":"levelo://app?vid=bbcdc9cd-0240-4cab-816f-e56f40270ff9"},"vehicle_type_id":"4","last_reported":1745611875,"current_range_meters":16800,"station_id":"ce4bh5p2rcd13ifvqe4g","pricing_plan_id":"cebpf4jnsgd1na2vs0mg"},{"bike_id":"4f5910d3-b374-4b3b-9f0d-3e52e281b8ac","system_id":"levelo_inurba_marseille","lat":43.25506,"lon":5.37647,"is_reserved":false,"is_disabled":false,"rental_uris":{"android":"levelo://app?vid=4f5910d3-b374-4b3b-9f0d-3e52e281b8ac","ios":"levelo://app?vid=4f5910d3-b374-4b3b-9f0d-3e52e281b8ac"},"vehicle_type_id":"4","last_reported":1745611875,"current_range_meters":16800,"station_id":"ce4bhh12rcd13ifvqff0","pricing_plan_id":"cebpf4jnsgd1na2vs0mg"},{"bike_id":"f31c24b5-1d46-404e-b00b-3156bfee744d","system_id":"levelo_inurba_marseille","lat":43.29526,"lon":5.38542,"is_reserved":false,"is_disabled":false,"rental_uris":{"android":"levelo://app?vid=f31c24b5-1d46-404e-b00b-3156bfee744d","ios":"levelo://app?vid=f31c24b5-1d46-404e-b00b-3156bfee744d"},"vehicle_type_id":"4","last_reported":1745611875,"current_range_meters":16800,"station_id":"ce4bgih2rcd13ifvqba0","pricing_plan_id":"cebpf4jnsgd1na2vs0mg"},{"bike_id":"96733886-38eb-4a8b-9470-0c4bf645e97a","system_id":"levelo_inurba_marseille","lat":43.27942,"lon":5.41072,"is_reserved":false,"is_disabled":false,"rental_uris":{"android":"levelo://app?vid=96733886-38eb-4a8b-9470-0c4bf645e97a","ios":"levelo://app?vid=96733886-38eb-4a8b-9470-0c4bf645e97a"},"vehicle_type_id":"4","last_reported":1745611875,"current_range_meters":17200,"station_id":"ce4bhnp2rcd13ifvqh0g","pricing_plan_id":"cebpf4jnsgd1na2vs0mg"},{"bike_id":"7a0af4e9-e4db-46b6-9330-1dafdf1e5006","system_id":"levelo_inurba_marseille","lat":43.29523,"lon":5.37518,"is_reserved":false,"is_disabled":false,"rental_uris":{"android":"levelo://app?vid=7a0af4e9-e4db-46b6-9330-1dafdf1e5006","ios":"levelo://app?vid=7a0af4e9-e4db-46b6-9330-1dafdf1e5006"},"vehicle_type_id":"4","last_reported":1745611875,"current_range_meters":16800,"station_id":"ce4bgkp2rcd13ifvqbmg","pricing_plan_id":"cebpf4jnsgd1na2vs0mg"},{"bike_id":"f253dbf1-2a54-4f08-8c72-a6001f6e9588","system_id":"levelo_inurba_marseille","lat":43.31062,"lon":5.38362,"is_reserved":false,"is_disabled":false,"rental_uris":{"android":"levelo://app?vid=f253dbf1-2a54-4f08-8c72-a6001f6e9588","ios":"levelo://app?vid=f253dbf1-2a54-4f08-8c72-a6001f6e9588"},"vehicle_type_id":"4","last_reported":1745611875,"current_range_meters":17200,"station_id":"ce4bgv92rcd13ifvqcr0","pricing_plan_id":"cebpf4jnsgd1na2vs0mg"},{"bike_id":"53fe2403-e68c-4407-a6a3-38459770286a","system_id":"levelo_inurba_marseille","lat":43.25491,"lon":5.37648,"is_reserved":false,"is_disabled":false,"rental_uris":{"android":"levelo://app?vid=53fe2403-e68c-4407-a6a3-38459770286a","ios":"levelo://app?vid=53fe2403-e68c-4407-a6a3-38459770286a"},"vehicle_type_id":"4","last_reported":1745611875,"current_range_meters":17200,"station_id":"ce4bhh12rcd13ifvqff0","pricing_plan_id":"cebpf4jnsgd1na2vs0mg"},{"bike_id":"a14bf633-63fb-4610-8e37-88aae1b79910","system_id":"levelo_inurba_marseille","lat":43.29919,"lon":5.37476,"is_reserved":false,"is_disabled":false,"rental_uris":{"android":"levelo://app?vid=a14bf633-63fb-4610-8e37-88aae1b79910","ios":"levelo://app?vid=a14bf633-63fb-4610-8e37-88aae1b79910"},"vehicle_type_id":"4","last_reported":1745611875,"current_range_meters":17200,"station_id":"ce4bgjh2rcd13ifvqbg0","pricing_plan_id":"cebpf4jnsgd1na2vs0mg"},{"bike_id":"b66c9a28-2235-48d7-a322-7660d69c0076","system_id":"levelo_inurba_marseille","lat":43.32357,"lon":5.36752,"is_reserved":false,"is_disabled":false,"rental_uris":{"android":"levelo://app?vid=b66c9a28-2235-48d7-a322-7660d69c0076","ios":"levelo://app?vid=b66c9a28-2235-48d7-a322-7660d69c0076"},"vehicle_type_id":"4","last_reported":1745611875,"current_range_meters":17200,"station_id":"ce4bhsh2rcd13ifvqi2g","pricing_plan_id":"cebpf4jnsgd1na2vs0mg"},{"bike_id":"6f0d80cc-4395-4b91-a83f-2606569056e1","system_id":"levelo_inurba_marseille","lat":43.26059,"lon":5.394,"is_reserved":false,"is_disabled":false,"rental_uris":{"android":"levelo://app?vid=6f0d80cc-4395-4b91-a83f-2606569056e1","ios":"levelo://app?vid=6f0d80cc-4395-4b91-a83f-2606569056e1"},"vehicle_type_id":"4","last_reported":1745611875,"current_range_meters":17200,"station_id":"ce4bhh92rcd13ifvqfj0","pricing_plan_id":"cebpf4jnsgd1na2vs0mg"},{"bike_id":"5fb90816-dea3-4b04-ae1a-7d1802bce1ff","system_id":"levelo_inurba_marseille","lat":43.30901,"lon":5.39654,"is_reserved":false,"is_disabled":false,"rental_uris":{"android":"levelo://app?vid=5fb90816-dea3-4b04-ae1a-7d1802bce1ff","ios":"levelo://app?vid=5fb90816-dea3-4b04-ae1a-7d1802bce1ff"},"vehicle_type_id":"4","last_reported":1745611875,"current_range_meters":17200,"station_id":"ce4bh012rcd13ifvqcv0","pricing_plan_id":"cebpf4jnsgd1na2vs0mg"},{"bike_id":"e3cdf67a-5fc2-4703-9c39-57d29454c8ba","system_id":"levelo_inurba_marseille","lat":43.340425,"lon":5.386994,"is_reserved":false,"is_disabled":false,"rental_uris":{"android":"levelo://app?vid=e3cdf67a-5fc2-4703-9c39-57d29454c8ba","ios":"levelo://app?vid=e3cdf67a-5fc2-4703-9c39-57d29454c8ba"},"vehicle_type_id":"4","last_reported":1745611875,"current_range_meters":17600,"station_id":"","pricing_plan_id":"cebpf4jnsgd1na2vs0mg"},{"bike_id":"4046a82f-66e8-4b55-bd0a-356edea772d8","system_id":"levelo_inurba_marseille","lat":43.30766,"lon":5.37424,"is_reserved":false,"is_disabled":false,"rental_uris":{"android":"levelo://app?vid=4046a82f-66e8-4b55-bd0a-356edea772d8","ios":"levelo://app?vid=4046a82f-66e8-4b55-bd0a-356edea772d8"},"vehicle_type_id":"4","last_reported":1745611875,"current_range_meters":17600,"station_id":"","pricing_plan_id":"cebpf4jnsgd1na2vs0mg"},{"bike_id":"d28bf9af-5868-40cf-bc78-dd7cb5c022b5","system_id":"levelo_inurba_marseille","lat":43.30001,"lon":5.38497,"is_reserved":false,"is_disabled":true,"rental_uris":{"android":"levelo://app?vid=d28bf9af-5868-40cf-bc78-dd7cb5c022b5","ios":"levelo://app?vid=d28bf9af-5868-40cf-bc78-dd7cb5c022b5"},"vehicle_type_id":"4","last_reported":1745611875,"current_range_meters":17600,"station_id":"ce4bgj92rcd13ifvqbd0","pricing_plan_id":"cebpf4jnsgd1na2vs0mg"},{"bike_id":"9f99d773-689e-4d53-be5e-f9dcdbcc27b7","system_id":"levelo_inurba_marseille","lat":43.26934,"lon":5.38647,"is_reserved":false,"is_disabled":false,"rental_uris":{"android":"levelo://app?vid=9f99d773-689e-4d53-be5e-f9dcdbcc27b7","ios":"levelo://app?vid=9f99d773-689e-4d53-be5e-f9dcdbcc27b7"},"vehicle_type_id":"4","last_reported":1745611875,"current_range_meters":17600,"station_id":"ce4bhh92rcd13ifvqfh0","pricing_plan_id":"cebpf4jnsgd1na2vs0mg"},{"bike_id":"f752608f-bb76-420f-88f4-5be47c45fe52","system_id":"levelo_inurba_marseille","lat":43.283905,"lon":5.386079,"is_reserved":false,"is_disabled":false,"rental_uris":{"android":"levelo://app?vid=f752608f-bb76-420f-88f4-5be47c45fe52","ios":"levelo://app?vid=f752608f-bb76-420f-88f4-5be47c45fe52"},"vehicle_type_id":"4","last_reported":1745611875,"current_range_meters":17600,"station_id":"ce4bhap2rcd13ifvqek0","pricing_plan_id":"cebpf4jnsgd1na2vs0mg"},{"bike_id":"ebb9c337-7a5f-4d99-b95e-ee897039f6fe","system_id":"levelo_inurba_marseille","lat":43.29417,"lon":5.38632,"is_reserved":false,"is_disabled":false,"rental_uris":{"android":"levelo://app?vid=ebb9c337-7a5f-4d99-b95e-ee897039f6fe","ios":"levelo://app?vid=ebb9c337-7a5f-4d99-b95e-ee897039f6fe"},"vehicle_type_id":"4","last_reported":1745611875,"current_range_meters":17600,"station_id":"ce4bh2h2rcd13ifvqdh0","pricing_plan_id":"cebpf4jnsgd1na2vs0mg"},{"bike_id":"b0a57149-75b8-4a0e-ba02-9cfd72ea3ac0","system_id":"levelo_inurba_marseille","lat":43.30461,"lon":5.37902,"is_reserved":false,"is_disabled":false,"rental_uris":{"android":"levelo://app?vid=b0a57149-75b8-4a0e-ba02-9cfd72ea3ac0","ios":"levelo://app?vid=b0a57149-75b8-4a0e-ba02-9cfd72ea3ac0"},"vehicle_type_id":"4","last_reported":1745611875,"current_range_meters":17600,"station_id":"ce4bgup2rcd13ifvqcn0","pricing_plan_id":"cebpf4jnsgd1na2vs0mg"},{"bike_id":"63582950-e3df-422a-bc90-390b2e11312e","system_id":"levelo_inurba_marseille","lat":43.251173,"lon":5.403105,"is_reserved":false,"is_disabled":false,"rental_uris":{"android":"levelo://app?vid=63582950-e3df-422a-bc90-390b2e11312e","ios":"levelo://app?vid=63582950-e3df-422a-bc90-390b2e11312e"},"vehicle_type_id":"4","last_reported":1745611875,"current_range_meters":17200,"station_id":"ce4bhlh2rcd13ifvqgig","pricing_plan_id":"cebpf4jnsgd1na2vs0mg"},{"bike_id":"cc938fd4-0e68-41ee-bbf1-fcebb0c4f0d4","system_id":"levelo_inurba_marseille","lat":43.29255,"lon":5.38433,"is_reserved":false,"is_disabled":false,"rental_uris":{"android":"levelo://app?vid=cc938fd4-0e68-41ee-bbf1-fcebb0c4f0d4","ios":"levelo://app?vid=cc938fd4-0e68-41ee-bbf1-fcebb0c4f0d4"},