{"last_updated":1732478958,"ttl":60,"version":"2.2","data":{"bikes":[{"bike_id":"d9df8239-4976-4070-b26b-e224a7ef0fff","system_id":"levelo_inurba_marseille","lat":43.31154,"lon":5.36945,"is_reserved":false,"is_disabled":true,"rental_uris":{"android":"levelo://app?vid=d9df8239-4976-4070-b26b-e224a7ef0fff","ios":"levelo://app?vid=d9df8239-4976-4070-b26b-e224a7ef0fff"},"vehicle_type_id":"4","last_reported":1732478959,"current_range_meters":0,"station_id":"","pricing_plan_id":"cebpf4jnsgd1na2vs0mg"},{"bike_id":"9d22fb39-3e59-47db-ad53-0ce53f5b0557","system_id":"levelo_inurba_marseille","lat":43.2791,"lon":5.39582,"is_reserved":false,"is_disabled":false,"rental_uris":{"android":"levelo://app?vid=9d22fb39-3e59-47db-ad53-0ce53f5b0557","ios":"levelo://app?vid=9d22fb39-3e59-47db-ad53-0ce53f5b0557"},"vehicle_type_id":"4","last_reported":1732478959,"current_range_meters":37600,"station_id":"ce4bhf92rcd13ifvqf40","pricing_plan_id":"cebpf4jnsgd1na2vs0mg"},{"bike_id":"77a6b4d3-f225-40ca-b115-e0b015ca37be","system_id":"levelo_inurba_marseille","lat":43.28151,"lon":5.42645,"is_reserved":false,"is_disabled":false,"rental_uris":{"android":"levelo://app?vid=77a6b4d3-f225-40ca-b115-e0b015ca37be","ios":"levelo://app?vid=77a6b4d3-f225-40ca-b115-e0b015ca37be"},"vehicle_type_id":"4","last_reported":1732478959,"current_range_meters":38800,"station_id":"ce4bhnh2rcd13ifvqgug","pricing_plan_id":"cebpf4jnsgd1na2vs0mg"},{"bike_id":"3c418f78-ee0f-4359-912e-83afe691dba5","system_id":"levelo_inurba_marseille","lat":43.29529,"lon":5.39025,"is_reserved":false,"is_disabled":false,"rental_uris":{"android":"levelo://app?vid=3c418f78-ee0f-4359-912e-83afe691dba5","ios":"levelo://app?vid=3c418f78-ee0f-4359-912e-83afe691dba5"},"vehicle_type_id":"4","last_reported":1732478959,"current_range_meters":24800,"station_id":"ce4bh3p2rcd13ifvqdp0","pricing_plan_id":"cebpf4jnsgd1na2vs0mg"},{"bike_id":"c38f39cb-eeac-4ab7-92be-fee029553058","system_id":"levelo_inurba_marseille","lat":43.26058,"lon":5.39388,"is_reserved":false,"is_disabled":false,"rental_uris":{"android":"levelo://app?vid=c38f39cb-eeac-4ab7-92be-fee029553058","ios":"levelo://app?vid=c38f39cb-eeac-4ab7-92be-fee029553058"},"vehicle_type_id":"4","last_reported":1732478959,"current_range_meters":8000,"station_id":"ce4bhh92rcd13ifvqfj0","pricing_plan_id":"cebpf4jnsgd1na2vs0mg"},{"bike_id":"61523ac5-be94-4db1-a936-520815f81c3d","system_id":"levelo_inurba_marseille","lat":43.32367,"lon":5.38885,"is_reserved":false,"is_disabled":false,"rental_uris":{"android":"levelo://app?vid=61523ac5-be94-4db1-a936-520815f81c3d","ios":"levelo://app?vid=61523ac5-be94-4db1-a936-520815f81c3d"},"vehicle_type_id":"4","last_reported":1732478959,"current_range_meters":12800,"station_id":"ce4bhqp2rcd13ifvqhog","pricing_plan_id":"cebpf4jnsgd1na2vs0mg"},{"bike_id":"01c5e2bf-e580-4e61-addd-f251f02225fb","system_id":"levelo_inurba_marseille","lat":43.28566,"lon":5.39495,"is_reserved":false,"is_disabled":false,"rental_uris":{"android":"levelo://app?vid=01c5e2bf-e580-4e61-addd-f251f02225fb","ios":"levelo://app?vid=01c5e2bf-e580-4e61-addd-f251f02225fb"},"vehicle_type_id":"4","last_reported":1732478959,"current_range_meters":39200,"station_id":"ce4bh292rcd13ifvqdg0","pricing_plan_id":"cebpf4jnsgd1na2vs0mg"},{"bike_id":"d30340d4-aa86-4316-912b-789e0a760540","system_id":"levelo_inurba_marseille","lat":43.31126,"lon":5.3777,"is_reserved":false,"is_disabled":true,"rental_uris":{"android":"levelo://app?vid=d30340d4-aa86-4316-912b-789e0a760540","ios":"levelo://app?vid=d30340d4-aa86-4316-912b-789e0a760540"},"vehicle_type_id":"4","last_reported":1732478959,"current_range_meters":33200,"station_id":"ce4bgt92rcd13ifvqcg0","pricing_plan_id":"cebpf4jnsgd1na2vs0mg"},{"bike_id":"3e3afa00-805a-4b1b-8803-4419729f317d","system_id":"levelo_inurba_marseille","lat":43.2842,"lon":5.34979,"is_reserved":false,"is_disabled":false,"rental_uris":{"android":"levelo://app?vid=3e3afa00-805a-4b1b-8803-4419729f317d","ios":"levelo://app?vid=3e3afa00-805a-4b1b-8803-4419729f317d"},"vehicle_type_id":"4","last_reported":1732478959,"current_range_meters":14400,"station_id":"ce4bhbh2rcd13ifvqepg","pricing_plan_id":"cebpf4jnsgd1na2vs0mg"},{"bike_id":"dfdf02f3-dec5-466c-b3c0-98ee7bf502ab","system_id":"levelo_inurba_marseille","lat":43.27918,"lon":5.3958,"is_reserved":false,"is_disabled":false,"rental_uris":{"android":"levelo://app?vid=dfdf02f3-dec5-466c-b3c0-98ee7bf502ab","ios":"levelo://app?vid=dfdf02f3-dec5-466c-b3c0-98ee7bf502ab"},"vehicle_type_id":"4","last_reported":1732478959,"current_range_meters":38800,"station_id":"ce4bhf92rcd13ifvqf40","pricing_plan_id":"cebpf4jnsgd1na2vs0mg"},{"bike_id":"94527a76-0bb1-4146-9d66-5a02656d021d","system_id":"levelo_inurba_marseille","lat":43.28153,"lon":5.42644,"is_reserved":false,"is_disabled":false,"rental_uris":{"android":"levelo://app?vid=94527a76-0bb1-4146-9d66-5a02656d021d","ios":"levelo://app?vid=94527a76-0bb1-4146-9d66-5a02656d021d"},"vehicle_type_id":"4","last_reported":1732478959,"current_range_meters":14800,"station_id":"ce4bhnh2rcd13ifvqgug","pricing_plan_id":"cebpf4jnsgd1na2vs0mg"},{"bike_id":"51b55bb6-0e7b-437b-92aa-ce19132844dd","system_id":"levelo_inurba_marseille","lat":43.30141,"lon":5.39884,"is_reserved":false,"is_disabled":false,"rental_uris":{"android":"levelo://app?vid=51b55bb6-0e7b-437b-92aa-ce19132844dd","ios":"levelo://app?vid=51b55bb6-0e7b-437b-92aa-ce19132844dd"},"vehicle_type_id":"4","last_reported":1732478959,"current_range_meters":29600,"station_id":"ce4bh0h2rcd13ifvqd40","pricing_plan_id":"cebpf4jnsgd1na2vs0mg"},{"bike_id":"d4a8d056-dde8-45a2-9002-27751ca1259a","system_id":"levelo_inurba_marseille","lat":43.27205,"lon":5.39197,"is_reserved":false,"is_disabled":true,"rental_uris":{"android":"levelo://app?vid=d4a8d056-dde8-45a2-9002-27751ca1259a","ios":"levelo://app?vid=d4a8d056-dde8-45a2-9002-27751ca1259a"},"vehicle_type_id":"4","last_reported":1732478959,"current_range_meters":11200,"station_id":"ce4bhhp2rcd13ifvqfm0","pricing_plan_id":"cebpf4jnsgd1na2vs0mg"},{"bike_id":"0ab26e5d-d5a8-4808-b88b-21c43ebe6cf8","system_id":"levelo_inurba_marseille","lat":43.28833,"lon":5.39339,"is_reserved":false,"is_disabled":false,"rental_uris":{"android":"levelo://app?vid=0ab26e5d-d5a8-4808-b88b-21c43ebe6cf8","ios":"levelo://app?vid=0ab26e5d-d5a8-4808-b88b-21c43ebe6cf8"},"vehicle_type_id":"4","last_reported":1732478959,"current_range_meters":29600,"station_id":"ce4bh2p2rcd13ifvqdi0","pricing_plan_id":"cebpf4jnsgd1na2vs0mg"},{"bike_id":"a2c3f06a-3319-425c-8195-a22094097bcf","system_id":"levelo_inurba_marseille","lat":43.30878,"lon":5.3964,"is_reserved":false,"is_disabled":false,"rental_uris":{"android":"levelo://app?vid=a2c3f06a-3319-425c-8195-a22094097bcf","ios":"levelo://app?vid=a2c3f06a-3319-425c-8195-a22094097bcf"},"vehicle_type_id":"4","last_reported":1732478959,"current_range_meters":33600,"station_id":"ce4bh012rcd13ifvqcv0","pricing_plan_id":"cebpf4jnsgd1na2vs0mg"},{"bike_id":"1d480d76-bb73-4781-930a-16c68fdce680","system_id":"levelo_inurba_marseille","lat":43.25579,"lon":5.38236,"is_reserved":false,"is_disabled":false,"rental_uris":{"android":"levelo://app?vid=1d480d76-bb73-4781-930a-16c68fdce680","ios":"levelo://app?vid=1d480d76-bb73-4781-930a-16c68fdce680"},"vehicle_type_id":"4","last_reported":1732478959,"current_range_meters":33200,"station_id":"ce4bhih2rcd13ifvqfs0","pricing_plan_id":"cebpf4jnsgd1na2vs0mg"},{"bike_id":"fcf28019-63c5-4387-8d9e-ebdeea067df7","system_id":"levelo_inurba_marseille","lat":43.33018,"lon":5.39032,"is_reserved":false,"is_disabled":false,"rental_uris":{"android":"levelo://app?vid=fcf28019-63c5-4387-8d9e-ebdeea067df7","ios":"levelo://app?vid=fcf28019-63c5-4387-8d9e-ebdeea067df7"},"vehicle_type_id":"4","last_reported":1732478959,"current_range_meters":8400,"station_id":"ce4bhr92rcd13ifvqhrg","pricing_plan_id":"cebpf4jnsgd1na2vs0mg"},{"bike_id":"3f764991-ba48-49cf-80ac-3d1f2ca695f2","system_id":"levelo_inurba_marseille","lat":43.29453,"lon":5.39747,"is_reserved":false,"is_disabled":false,"rental_uris":{"android":"levelo://app?vid=3f764991-ba48-49cf-80ac-3d1f2ca695f2","ios":"levelo://app?vid=3f764991-ba48-49cf-80ac-3d1f2ca695f2"},"vehicle_type_id":"4","last_reported":1732478959,"current_range_meters":12400,"station_id":"ce4bh3h2rcd13ifvqdo0","pricing_plan_id":"cebpf4jnsgd1na2vs0mg"},{"bike_id":"f194ce90-013c-4fc7-8be7-5bad56e3b52c","system_id":"levelo_inurba_marseille","lat":43.24073,"lon":5.3775,"is_reserved":false,"is_disabled":false,"rental_uris":{"android":"levelo://app?vid=f194ce90-013c-4fc7-8be7-5bad56e3b52c","ios":"levelo://app?vid=f194ce90-013c-4fc7-8be7-5bad56e3b52c"},"vehicle_type_id":"4","last_reported":1732478959,"current_range_meters":38800,"station_id":"ce4bhnp2rcd13ifvqgvg","pricing_plan_id":"cebpf4jnsgd1na2vs0mg"},{"bike_id":"30585094-ecfe-43ac-ae36-000c4a5ab426","system_id":"levelo_inurba_marseille","lat":43.30959,"lon":5.39031,"is_reserved":false,"is_disabled":true,"rental_uris":{"android":"levelo://app?vid=30585094-ecfe-43ac-ae36-000c4a5ab426","ios":"levelo://app?vid=30585094-ecfe-43ac-ae36-000c4a5ab426"},"vehicle_type_id":"4","last_reported":1732478959,"current_range_meters":20800,"station_id":"ce4bgup2rcd13ifvqco0","pricing_plan_id":"cebpf4jnsgd1na2vs0mg"},{"bike_id":"5f84fccb-6473-45c7-b4bf-9ab64c8af504","system_id":"levelo_inurba_marseille","lat":43.2511,"lon":5.4032,"is_reserved":false,"is_disabled":false,"rental_uris":{"android":"levelo://app?vid=5f84fccb-6473-45c7-b4bf-9ab64c8af504","ios":"levelo://app?vid=5f84fccb-6473-45c7-b4bf-9ab64c8af504"},"vehicle_type_id":"4","last_reported":1732478959,"current_range_meters":39200,"station_id":"ce4bhlh2rcd13ifvqgig","pricing_plan_id":"cebpf4jnsgd1na2vs0mg"},{"bike_id":"39b11e64-2962-470f-8250-90fe18d4a5f4","system_id":"levelo_inurba_marseille","lat":43.24727,"lon":5.39287,"is_reserved":false,"is_disabled":true,"rental_uris":{"android":"levelo://app?vid=39b11e64-2962-470f-8250-90fe18d4a5f4","ios":"levelo://app?vid=39b11e64-2962-470f-8250-90fe18d4a5f4"},"vehicle_type_id":"4","last_reported":1732478959,"current_range_meters":0,"station_id":"","pricing_plan_id":"cebpf4jnsgd1na2vs0mg"},{"bike_id":"48c65e97-1516-4538-82d5-5272854a7544","system_id":"levelo_inurba_marseille","lat":43.32485,"lon":5.36557,"is_reserved":false,"is_disabled":false,"rental_uris":{"android":"levelo://app?vid=48c65e97-1516-4538-82d5-5272854a7544","ios":"levelo://app?vid=48c65e97-1516-4538-82d5-5272854a7544"},"vehicle_type_id":"4","last_reported":1732478959,"current_range_meters":9600,"station_id":"ce4bhs12rcd13ifvqhvg","pricing_plan_id":"cebpf4jnsgd1na2vs0mg"},{"bike_id":"384ba50e-3dc5-4035-9991-574199bbdacc","system_id":"levelo_inurba_marseille","lat":43.2511,"lon":5.40321,"is_reserved":false,"is_disabled":false,"rental_uris":{"android":"levelo://app?vid=384ba50e-3dc5-4035-9991-574199bbdacc","ios":"levelo://app?vid=384ba50e-3dc5-4035-9991-574199bbdacc"},"vehicle_type_id":"4","last_reported":1732478959,"current_range_meters":30000,"station_id":"ce4bhlh2rcd13ifvqgig","pricing_plan_id":"cebpf4jnsgd1na2vs0mg"},{"bike_id":"82fa7035-fe1f-472c-b71f-0671816c63f8","system_id":"levelo_inurba_marseille","lat":43.30254,"lon":5.40081,"is_reserved":false,"is_disabled":false,"rental_uris":{"android":"levelo://app?vid=82fa7035-fe1f-472c-b71f-0671816c63f8","ios":"levelo://app?vid=82fa7035-fe1f-472c-b71f-0671816c63f8"},"vehicle_type_id":"4","last_reported":1732478959,"current_range_meters":38800,"station_id":"ce4bgvh2rcd13ifvqcs0","pricing_plan_id":"cebpf4jnsgd1na2vs0mg"},{"bike_id":"efa12b00-49b6-4085-b62c-84b7c0766a16","system_id":"levelo_inurba_marseille","lat":43.27496,"lon":5.42449,"is_reserved":false,"is_disabled":false,"rental_uris":{"android":"levelo://app?vid=efa12b00-49b6-4085-b62c-84b7c0766a16","ios":"levelo://app?vid=efa12b00-49b6-4085-b62c-84b7c0766a16"},"vehicle_type_id":"4","last_reported":1732478959,"current_range_meters":20800,"station_id":"ce4bhn92rcd13ifvqgrg","pricing_plan_id":"cebpf4jnsgd1na2vs0mg"},{"bike_id":"e55d71d0-970e-4e17-ba14-4482cf574a53","system_id":"levelo_inurba_marseille","lat":43.29628,"lon":5.36892,"is_reserved":false,"is_disabled":false,"rental_uris":{"android":"levelo://app?vid=e55d71d0-970e-4e17-ba14-4482cf574a53","ios":"levelo://app?vid=e55d71d0-970e-4e17-ba14-4482cf574a53"},"vehicle_type_id":"4","last_reported":1732478959,"current_range_meters":36800,"station_id":"","pricing_plan_id":"cebpf4jnsgd1na2vs0mg"},{"bike_id":"65f54f07-0cc6-44cb-af71-c02689c24db0","system_id":"levelo_inurba_marseille","lat":43.28114,"lon":5.37828,"is_reserved":false,"is_disabled":false,"rental_uris":{"android":"levelo://app?vid=65f54f07-0cc6-44cb-af71-c02689c24db0","ios":"levelo://app?vid=65f54f07-0cc6-44cb-af71-c02689c24db0"},"vehicle_type_id":"4","last_reported":1732478959,"current_range_meters":6000,"station_id":"ce4bha12rcd13ifvqee0","pricing_plan_id":"cebpf4jnsgd1na2vs0mg"},{"bike_id":"9c184e11-e0cf-462e-8640-0314aa16e61a","system_id":"levelo_inurba_marseille","lat":43.24669,"lon":5.38165,"is_reserved":false,"is_disabled":false,"rental_uris":{"android":"levelo://app?vid=9c184e11-e0cf-462e-8640-0314aa16e61a","ios":"levelo://app?vid=9c184e11-e0cf-462e-8640-0314aa16e61a"},"vehicle_type_id":"4","last_reported":1732478959,"current_range_meters":20400,"station_id":"ce4bhih2rcd13ifvqfr0","pricing_plan_id":"cebpf4jnsgd1na2vs0mg"},{"bike_id":"9f5a0e7a-8624-42ea-bdfa-88751bb19ddb","system_id":"levelo_inurba_marseille","lat":43.27944,"lon":5.41029,"is_reserved":false,"is_disabled":false,"rental_uris":{"android":"levelo://app?vid=9f5a0e7a-8624-42ea-bdfa-88751bb19ddb","ios":"levelo://app?vid=9f5a0e7a-8624-42ea-bdfa-88751bb19ddb"},"vehicle_type_id":"4","last_reported":1732478959,"current_range_meters":6000,"station_id":"ce4bhnp2rcd13ifvqh0g","pricing_plan_id":"cebpf4jnsgd1na2vs0mg"},{"bike_id":"8d64a519-3532-4e79-b00a-213a8312c90f","system_id":"levelo_inurba_marseille","lat":43.30325,"lon":5.40329,"is_reserved":false,"is_disabled":false,"rental_uris":{"android":"levelo://app?vid=8d64a519-3532-4e79-b00a-213a8312c90f","ios":"levelo://app?vid=8d64a519-3532-4e79-b00a-213a8312c90f"},"vehicle_type_id":"4","last_reported":1732478959,"current_range_meters":32800,"station_id":"ce4bh012rcd13ifvqd10","pricing_plan_id":"cebpf4jnsgd1na2vs0mg"},{"bike_id":"91a68738-cdbf-4a14-b836-ea88a53439f4","system_id":"levelo_inurba_marseille","lat":43.29444,"lon":5.39755,"is_reserved":false,"is_disabled":false,"rental_uris":{"android":"levelo://app?vid=91a68738-cdbf-4a14-b836-ea88a53439f4","ios":"levelo://app?vid=91a68738-cdbf-4a14-b836-ea88a53439f4"},"vehicle_type_id":"4","last_reported":1732478959,"current_range_meters":32800,"station_id":"ce4bh3h2rcd13ifvqdo0","pricing_plan_id":"cebpf4jnsgd1na2vs0mg"},{"bike_id":"f37340bf-4c78-4bca-854e-b10fd38cd44c","system_id":"levelo_inurba_marseille","lat":43.29926,"lon":5.36526,"is_reserved":false,"is_disabled":false,"rental_uris":{"android":"levelo://app?vid=f37340bf-4c78-4bca-854e-b10fd38cd44c","ios":"levelo://app?vid=f37340bf-4c78-4bca-854e-b10fd38cd44c"},"vehicle_type_id":"4","last_reported":1732478959,"current_range_meters":38800,"station_id":"ce4bgm92rcd13ifvqbr0","pricing_plan_id":"cebpf4jnsgd1na2vs0mg"},{"bike_id":"6a2df70c-4e94-45ba-b67d-45bd465ca49d","system_id":"levelo_inurba_marseille","lat":43.29189,"lon":5.39307,"is_reserved":false,"is_disabled":true,"rental_uris":{"android":"levelo://app?vid=6a2df70c-4e94-45ba-b67d-45bd465ca49d","ios":"levelo://app?vid=6a2df70c-4e94-45ba-b67d-45bd465ca49d"},"vehicle_type_id":"4","last_reported":1732478959,"current_range_meters":28800,"station_id":"ce4bh192rcd13ifvqdd0","pricing_plan_id":"cebpf4jnsgd1na2vs0mg"},{"bike_id":"f0c9b009-6e7d-4316-96af-3036572d9258","system_id":"levelo_inurba_marseille","lat":43.29544,"lon":5.37504,"is_reserved":false,"is_disabled":true,"rental_uris":{"android":"levelo://app?vid=f0c9b009-6e7d-4316-96af-3036572d9258","ios":"levelo://app?vid=f0c9b009-6e7d-4316-96af-3036572d9258"},"vehicle_type_id":"4","last_reported":1732478959,"current_range_meters":28800,"station_id":"ce4bgkp2rcd13ifvqbmg","pricing_plan_id":"cebpf4jnsgd1na2vs0mg"},{"bike_id":"ec10fbd2-fc57-4853-94ca-2fece32c3a84","system_id":"levelo_inurba_marseille","lat":43.28715,"lon":5.36087,"is_reserved":false,"is_disabled":false,"rental_uris":{"android":"levelo://app?vid=ec10fbd2-fc57-4853-94ca-2fece32c3a84","ios":"levelo://app?vid=ec10fbd2-fc57-4853-94ca-2fece32c3a84"},"vehicle_type_id":"4","last_reported":1732478959,"current_range_meters":25200,"station_id":"cki0cbj6b192h4jlfktg","pricing_plan_id":"cebpf4jnsgd1na2vs0mg"},{"bike_id":"b2b158d0-8028-4675-9f9a-048f08fcfa95","system_id":"levelo_inurba_marseille","lat":43.27898,"lon":5.37989,"is_reserved":false,"is_disabled":false,"rental_uris":{"android":"levelo://app?vid=b2b158d0-8028-4675-9f9a-048f08fcfa95","ios":"levelo://app?vid=b2b158d0-8028-4675-9f9a-048f08fcfa95"},"vehicle_type_id":"4","last_reported":1732478959,"current_range_meters":39200,"station_id":"ce4bhf92rcd13ifvqf50","pricing_plan_id":"cebpf4jnsgd1na2vs0mg"},{"bike_id":"ff3594ee-f948-4832-9680-599cfdacc368","system_id":"levelo_inurba_marseille","lat":43.27178,"lon":5.40994,"is_reserved":false,"is_disabled":false,"rental_uris":{"android":"levelo://app?vid=ff3594ee-f948-4832-9680-599cfdacc368","ios":"levelo://app?vid=ff3594ee-f948-4832-9680-599cfdacc368"},"vehicle_type_id":"4","last_reported":1732478959,"current_range_meters":31200,"station_id":"ce4bhl12rcd13ifvqgf0","pricing_plan_id":"cebpf4jnsgd1na2vs0mg"},{"bike_id":"565a0b0b-afe1-4da1-b2e2-0df8233591e4","system_id":"levelo_inurba_marseille","lat":43.2511,"lon":5.40328,"is_reserved":false,"is_disabled":true,"rental_uris":{"android":"levelo://app?vid=565a0b0b-afe1-4da1-b2e2-0df8233591e4","ios":"levelo://app?vid=565a0b0b-afe1-4da1-b2e2-0df8233591e4"},"vehicle_type_id":"4","last_reported":1732478959,"current_range_meters":13600,"station_id":"ce4bhlh2rcd13ifvqgig","pricing_plan_id":"cebpf4jnsgd1na2vs0mg"},{"bike_id":"1e126baa-22b4-4cf7-a05e-1c0611873009","system_id":"levelo_inurba_marseille","lat":43.311192,"lon":5.377708,"is_reserved":false,"is_disabled":true,"rental_uris":{"android":"levelo://app?vid=1e126baa-22b4-4cf7-a05e-1c0611873009","ios":"levelo://app?vid=1e126baa-22b4-4cf7-a05e-1c0611873009"},"vehicle_type_id":"4","last_reported":1732478959,"current_range_meters":1600,"station_id":"","pricing_plan_id":"cebpf4jnsgd1na2vs0mg"},{"bike_id":"856c5296-7fea-42cc-be09-a6b9a37c0b30","system_id":"levelo_inurba_marseille","lat":43.27377,"lon":5.36249,"is_reserved":false,"is_disabled":true,"rental_uris":{"android":"levelo://app?vid=856c5296-7fea-42cc-be09-a6b9a37c0b30","ios":"levelo://app?vid=856c5296-7fea-42cc-be09-a6b9a37c0b30"},"vehicle_type_id":"4","last_reported":1732478959,"current_range_meters":0,"station_id":"ce4bhbh2rcd13ifvqeo0","pricing_plan_id":"cebpf4jnsgd1na2vs0mg"},{"bike_id":"ce025a8f-c642-43db-a448-90ef7e2c7f10","system_id":"levelo_inurba_marseille","lat":43.30427,"lon":5.38879,"is_reserved":false,"is_disabled":false,"rental_uris":{"android":"levelo://app?vid=ce025a8f-c642-43db-a448-90ef7e2c7f10","ios":"levelo://app?vid=ce025a8f-c642-43db-a448-90ef7e2c7f10"},"vehicle_type_id":"4","last_reported":1732478959,"current_range_meters":30800,"station_id":"ce4bgk12rcd13ifvqbi0","pricing_plan_id":"cebpf4jnsgd1na2vs0mg"},{"bike_id":"4acfba0d-0d1b-436f-b509-52e30732ec64","system_id":"levelo_inurba_marseille","lat":43.2319,"lon":5.35548,"is_reserved":false,"is_disabled":false,"rental_uris":{"android":"levelo://app?vid=4acfba0d-0d1b-436f-b509-52e30732ec64","ios":"levelo://app?vid=4acfba0d-0d1b-436f-b509-52e30732ec64"},"vehicle_type_id":"4","last_reported":1732478959,"current_range_meters":38800,"station_id":"ce4bhu92rcd13ifvqi70","pricing_plan_id":"cebpf4jnsgd1na2vs0mg"},{"bike_id":"784b4cb0-4017-4969-92a5-30832a9af216","system_id":"levelo_inurba_marseille","lat":43.294203,"lon":5.385728,"is_reserved":false,"is_disabled":false,"rental_uris":{"android":"levelo://app?vid=784b4cb0-4017-4969-92a5-30832a9af216","ios":"levelo://app?vid=784b4cb0-4017-4969-92a5-30832a9af216"},"vehicle_type_id":"4","last_reported":1732478959,"current_range_meters":35600,"station_id":"ce4bh2h2rcd13ifvqdh0","pricing_plan_id":"cebpf4jnsgd1na2vs0mg"},{"bike_id":"0a81c939-609c-4db1-8698-84fd2dbf2549","system_id":"levelo_inurba_marseille","lat":43.31087,"lon":5.4243,"is_reserved":false,"is_disabled":false,"rental_uris":{"android":"levelo://app?vid=0a81c939-609c-4db1-8698-84fd2dbf2549","ios":"levelo://app?vid=0a81c939-609c-4db1-8698-84fd2dbf2549"},"vehicle_type_id":"4","last_reported":1732478959,"current_range_meters":1600,"station_id":"ce4bhp92rcd13ifvqhag","pricing_plan_id":"cebpf4jnsgd1na2vs0mg"},{"bike_id":"1d840dae-dbe8-46f4-bebd-7bdde2669885","system_id":"levelo_inurba_marseille","lat":43.27495,"lon":5.42448,"is_reserved":false,"is_disabled":false,"rental_uris":{"android":"levelo://app?vid=1d840dae-dbe8-46f4-bebd-7bdde2669885","ios":"levelo://app?vid=1d840dae-dbe8-46f4-bebd-7bdde2669885"},"vehicle_type_id":"4","last_reported":1732478959,"current_range_meters":22800,"station_id":"ce4bhn92rcd13ifvqgrg","pricing_plan_id":"cebpf4jnsgd1na2vs0mg"},{"bike_id":"9a122f92-8d1b-4a84-9637-aeed9243668f","system_id":"levelo_inurba_marseille","lat":43.28938,"lon":5.3663,"is_reserved":false,"is_disabled":true,"rental_uris":{"android":"levelo://app?vid=9a122f92-8d1b-4a84-9637-aeed9243668f","ios":"levelo://app?vid=9a122f92-8d1b-4a84-9637-aeed9243668f"},"vehicle_type_id":"4","last_reported":1732478959,"current_range_meters":0,"station_id":"ce4bhap2rcd13ifvqek0","pricing_plan_id":"cebpf4jnsgd1na2vs0mg"},{"bike_id":"5c75d5a6-b69d-43c4-a98b-d27d63f54dc9","system_id":"levelo_inurba_marseille","lat":43.2407,"lon":5.37755,"is_reserved":false,"is_disabled":false,"rental_uris":{"android":"levelo://app?vid=5c75d5a6-b69d-43c4-a98b-d27d63f54dc9","ios":"levelo://app?vid=5c75d5a6-b69d-43c4-a98b-d27d63f54dc9"},"vehicle_type_id":"4","last_reported":1732478959,"current_range_meters":16000,"station_id":"ce4bhnp2rcd13ifvqgvg","pricing_plan_id":"cebpf4jnsgd1na2vs0mg"},{"bike_id":"1fd0b3c7-ec23-4c6c-ad9b-7abf4499d2ba","system_id":"levelo_inurba_marseille","lat":43.29701,"lon":5.36609,"is_reserved":false,"is_disabled":false,"rental_uris":{"android":"levelo://app?vid=1fd0b3c7-ec23-4c6c-ad9b-7abf4499d2ba","ios":"levelo://app?vid=1fd0b3c7-ec23-4c6c-ad9b-7abf4499d2ba"},"vehicle_type_id":"4","last_reported":1732478959,"current_range_meters":2800,"station_id":"ce4bgn12rcd13ifvqbt0","pricing_plan_id":"cebpf4jnsgd1na2vs0mg"},{"bike_id":"f0ca64b1-025b-4d1b-9ef6-e5b805314647","system_id":"levelo_inurba_marseille","lat":43.30895,"lon":5.37197,"is_reserved":false,"is_disabled":false,"rental_uris":{"android":"levelo://app?vid=f0ca64b1-025b-4d1b-9ef6-e5b805314647","ios":"levelo://app?vid=f0ca64b1-025b-4d1b-9ef6-e5b805314647"},"vehicle_type_id":"4","last_reported":1732478959,"current_range_meters":22400,"station_id":"ce4bguh2rcd13ifvqckg","pricing_plan_id":"cebpf4jnsgd1na2vs0mg"},{"bike_id":"0bff4688-540e-4e2c-808d-c9347a358a4f","system_id":"levelo_inurba_marseille","lat":43.27674,"lon":5.389006,"is_reserved":false,"is_disabled":true,"rental_uris":{"android":"levelo://app?vid=0bff4688-540e-4e2c-808d-c9347a358a4f","ios":"levelo://app?vid=0bff4688-540e-4e2c-808d-c9347a358a4f"},"vehicle_type_id":"4","last_reported":1732478959,"current_range_meters":39200,"station_id":"ce4bhi12rcd13ifvqfo0","pricing_plan_id":"cebpf4jnsgd1na2vs0mg"},{"bike_id":"09701bdb-c477-41d0-9054-a6baa2df5beb","system_id":"levelo_inurba_marseille","lat":43.3237,"lon":5.38879,"is_reserved":false,"is_disabled":false,"rental_uris":{"android":"levelo://app?vid=09701bdb-c477-41d0-9054-a6baa2df5beb","ios":"levelo://app?vid=09701bdb-c477-41d0-9054-a6baa2df5beb"},"vehicle_type_id":"4","last_reported":1732478959,"current_range_meters":28400,"station_id":"ce4bhqp2rcd13ifvqhog","pricing_plan_id":"cebpf4jnsgd1na2vs0mg"},{"bike_id":"b7147bbf-9065-44dd-ac94-55b797b37b1f","system_id":"levelo_inurba_marseille","lat":43.28462,"lon":5.35887,"is_reserved":false,"is_disabled":false,"rental_uris":{"android":"levelo://app?vid=b7147bbf-9065-44dd-ac94-55b797b37b1f","ios":"levelo://app?vid=b7147bbf-9065-44dd-ac94-55b797b37b1f"},"vehicle_type_id":"4","last_reported":1732478959,"current_range_meters":28000,"station_id":"ce4bhah2rcd13ifvqei0","pricing_plan_id":"cebpf4jnsgd1na2vs0mg"},{"bike_id":"461247bd-e596-420c-8ccd-e1034b971e50","system_id":"levelo_inurba_marseille","lat":43.29193,"lon":5.39315,"is_reserved":false,"is_disabled":false,"rental_uris":{"android":"levelo://app?vid=461247bd-e596-420c-8ccd-e1034b971e50","ios":"levelo://app?vid=461247bd-e596-420c-8ccd-e1034b971e50"},"vehicle_type_id":"4","last_reported":1732478959,"current_range_meters":39200,"station_id":"ce4bh192rcd13ifvqdd0","pricing_plan_id":"cebpf4jnsgd1na2vs0mg"},{"bike_id":"02c642a5-6396-49e4-a325-d580d2a79370","system_id":"levelo_inurba_marseille","lat":43.26193,"lon":5.37448,"is_reserved":false,"is_disabled":false,"rental_uris":{"android":"levelo://app?vid=02c642a5-6396-49e4-a325-d580d2a79370","ios":"levelo://app?vid=02c642a5-6396-49e4-a325-d580d2a79370"},"vehicle_type_id":"4","last_reported":1732478959,"current_range_meters":38800,"station_id":"ce4bhgp2rcd13ifvqfc0","pricing_plan_id":"cebpf4jnsgd1na2vs0mg"},{"bike_id":"348c507a-0710-4663-8d82-f2a675894ac0","system_id":"levelo_inurba_marseille","lat":43.28103,"lon":5.37833,"is_reserved":false,"is_disabled":false,"rental_uris":{"android":"levelo://app?vid=348c507a-0710-4663-8d82-f2a675894ac0","ios":"levelo://app?vid=348c507a-0710-4663-8d82-f2a675894ac0"},"vehicle_type_id":"4","last_reported":1732478959,"current_range_meters":39200,"station_id":"ce4bha12rcd13ifvqee0","pricing_plan_id":"cebpf4jnsgd1na2vs0mg"},{"bike_id":"6097d543-3b59-4123-a341-ea6a41bbd308","system_id":"levelo_inurba_marseille","lat":43.29445,"lon":5.3974,"is_reserved":false,"is_disabled":false,"rental_uris":{"android":"levelo://app?vid=6097d543-3b59-4123-a341-ea6a41bbd308","ios":"levelo://app?vid=6097d543-3b59-4123-a341-ea6a41bbd308"},"vehicle_type_id":"4","last_reported":1732478959,"current_range_meters":38800,"station_id":"ce4bh3h2rcd13ifvqdo0","pricing_plan_id":"cebpf4jnsgd1na2vs0mg"},{"bike_id":"c44be2ca-d29c-4055-a595-144cb499e948","system_id":"levelo_inurba_marseille","lat":43.27206,"lon":5.39193,"is_reserved":false,"is_disabled":true,"rental_uris":{"android":"levelo://app?vid=c44be2ca-d29c-4055-a595-144cb499e948","ios":"levelo://app?vid=c44be2ca-d29c-4055-a595-144cb499e948"},"vehicle_type_id":"4","last_reported":1732478959,"current_range_meters":12000,"station_id":"ce4bhhp2rcd13ifvqfm0","pricing_plan_id":"cebpf4jnsgd1na2vs0mg"},{"bike_id":"75dc2021-1ed8-4ad3-b244-e945bb5419df","system_id":"levelo_inurba_marseille","lat":43.32369,"lon":5.38884,"is_reserved":false,"is_disabled":false,"rental_uris":{"android":"levelo://app?vid=75dc2021-1ed8-4ad3-b244-e945bb5419df","ios":"levelo://app?vid=75dc2021-1ed8-4ad3-b244-e945bb5419df"},"vehicle_type_id":"4","last_reported":1732478959,"current_range_meters":26800,"station_id":"ce4bhqp2rcd13ifvqhog","pricing_plan_id":"cebpf4jnsgd1na2vs0mg"},{"bike_id":"cec4829e-9b32-4e18-9254-42b5f5b4889b","system_id":"levelo_inurba_marseille","lat":43.31488,"lon":5.37307,"is_reserved":false,"is_disabled":false,"rental_uris":{"android":"levelo://app?vid=cec4829e-9b32-4e18-9254-42b5f5b4889b","ios":"levelo://app?vid=cec4829e-9b32-4e18-9254-42b5f5b4889b"},"vehicle_type_id":"4","last_reported":1732478959,"current_range_meters":34000,"station_id":"ce4bgt12rcd13ifvqcd0","pricing_plan_id":"cebpf4jnsgd1na2vs0mg"},{"bike_id":"4614c3ce-fa32-4b49-800d-cf02516d6ab9","system_id":"levelo_inurba_marseille","lat":43.32381,"lon":5.3897,"is_reserved":false,"is_disabled":false,"rental_uris":{"android":"levelo://app?vid=4614c3ce-fa32-4b49-800d-cf02516d6ab9","ios":"levelo://app?vid=4614c3ce-fa32-4b49-800d-cf02516d6ab9"},"vehicle_type_id":"4","last_reported":1732478959,"current_range_meters":18800,"station_id":"","pricing_plan_id":"cebpf4jnsgd1na2vs0mg"},{"bike_id":"23eb11d8-fe60-4f5d-8af7-029d92b0c546","system_id":"levelo_inurba_marseille","lat":43.29034,"lon":5.38645,"is_reserved":false,"is_disabled":false,"rental_uris":{"android":"levelo://app?vid=23eb11d8-fe60-4f5d-8af7-029d92b0c546","ios":"levelo://app?vid=23eb11d8-fe60-4f5d-8af7-029d92b0c546"},"vehicle_type_id":"4","last_reported":1732478959,"current_range_meters":8400,"station_id":"ce4bh4p2rcd13ifvqe0g","pricing_plan_id":"cebpf4jnsgd1na2vs0mg"},{"bike_id":"835b00c2-64c0-4cbe-82bb-c78dd70919e3","system_id":"levelo_inurba_marseille","lat":43.27963,"lon":5.40795,"is_reserved":false,"is_disabled":false,"rental_uris":{"android":"levelo://app?vid=835b00c2-64c0-4cbe-82bb-c78dd70919e3","ios":"levelo://app?vid=835b00c2-64c0-4cbe-82bb-c78dd70919e3"},"vehicle_type_id":"4","last_reported":1732478959,"current_range_meters":9600,"station_id":"","pricing_plan_id":"cebpf4jnsgd1na2vs0mg"},{"bike_id":"fd0e3340-543f-4c8a-8c34-222130852a29","system_id":"levelo_inurba_marseille","lat":43.27975,"lon":5.38733,"is_reserved":false,"is_disabled":true,"rental_uris":{"android":"levelo://app?vid=fd0e3340-543f-4c8a-8c34-222130852a29","ios":"levelo://app?vid=fd0e3340-543f-4c8a-8c34-222130852a29"},"vehicle_type_id":"4","last_reported":1732478959,"current_range_meters":14400,"station_id":"ce4bhg12rcd13ifvqf80","pricing_plan_id":"cebpf4jnsgd1na2vs0mg"},{"bike_id":"4ca95822-b6ca-4857-9f9b-e507d267fffa","system_id":"levelo_inurba_marseille","lat":43.31528,"lon":5.38032,"is_reserved":false,"is_disabled":false,"rental_uris":{"android":"levelo://app?vid=4ca95822-b6ca-4857-9f9b-e507d267fffa","ios":"levelo://app?vid=4ca95822-b6ca-4857-9f9b-e507d267fffa"},"vehicle_type_id":"4","last_reported":1732478959,"current_range_meters":9600,"station_id":"ce4bhsp2rcd13ifvqi50","pricing_plan_id":"cebpf4jnsgd1na2vs0mg"},{"bike_id":"e662b885-15c0-4344-8409-692fa14b9dbc","system_id":"levelo_inurba_marseille","lat":43.27495,"lon":5.4245,"is_reserved":false,"is_disabled":false,"rental_uris":{"android":"levelo://app?vid=e662b885-15c0-4344-8409-692fa14b9dbc","ios":"levelo://app?vid=e662b885-15c0-4344-8409-692fa14b9dbc"},"vehicle_type_id":"4","last_reported":1732478959,"current_range_meters":40000,"station_id":"ce4bhn92rcd13ifvqgrg","pricing_plan_id":"cebpf4jnsgd1na2vs0mg"},{"bike_id":"3052f395-47f4-4f6b-af2e-a3967e74787a","system_id":"levelo_inurba_marseille","lat":43.30597,"lon":5.37237,"is_reserved":false,"is_disabled":false,"rental_uris":{"android":"levelo://app?vid=3052f395-47f4-4f6b-af2e-a3967e74787a","ios":"levelo://app?vid=3052f395-47f4-4f6b-af2e-a3967e74787a"},"vehicle_type_id":"4","last_reported":1732478959,"current_range_meters":37600,"station_id":"ce4bgqh2rcd13ifvqc4g","pricing_plan_id":"cebpf4jnsgd1na2vs0mg"},{"bike_id":"5c8055e5-a368-4312-8157-243ebc733ac9","system_id":"levelo_inurba_marseille","lat":43.30601,"lon":5.39359,"is_reserved":false,"is_disabled":true,"rental_uris":{"android":"levelo://app?vid=5c8055e5-a368-4312-8157-243ebc733ac9","ios":"levelo://app?vid=5c8055e5-a368-4312-8157-243ebc733ac9"},"vehicle_type_id":"4","last_reported":1732478959,"current_range_meters":20800,"station_id":"ce4bh0p2rcd13ifvqd80","pricing_plan_id":"cebpf4jnsgd1na2vs0mg"},{"bike_id":"a63f026b-964a-429c-9110-87bd719c2c3a","system_id":"levelo_inurba_marseille","lat":43.29304,"lon":5.37435,"is_reserved":false,"is_disabled":true,"rental_uris":{"android":"levelo://app?vid=a63f026b-964a-429c-9110-87bd719c2c3a","ios":"levelo://app?vid=a63f026b-964a-429c-9110-87bd719c2c3a"},"vehicle_type_id":"4","last_reported":1732478959,"current_range_meters":34000,"station_id":"ce4bgi12rcd13ifvqb70","pricing_plan_id":"cebpf4jnsgd1na2vs0mg"},{"bike_id":"c34e9276-9e8f-4214-bbde-aa6dffd5bcb6","system_id":"levelo_inurba_marseille","lat":43.30133,"lon":5.39881,"is_reserved":false,"is_disabled":false,"rental_uris":{"android":"levelo://app?vid=c34e9276-9e8f-4214-bbde-aa6dffd5bcb6","ios":"levelo://app?vid=c34e9276-9e8f-4214-bbde-aa6dffd5bcb6"},"vehicle_type_id":"4","last_reported":1732478959,"current_range_meters":38800,"station_id":"ce4bh0h2rcd13ifvqd40","pricing_plan_id":"cebpf4jnsgd1na2vs0mg"},{"bike_id":"600b3470-1dde-43ce-962b-7a6284b20990","system_id":"levelo_inurba_marseille","lat":43.2319,"lon":5.35553,"is_reserved":false,"is_disabled":true,"rental_uris":{"android":"levelo://app?vid=600b3470-1dde-43ce-962b-7a6284b20990","ios":"levelo://app?vid=600b3470-1dde-43ce-962b-7a6284b20990"},"vehicle_type_id":"4","last_reported":1732478959,"current_range_meters":25600,"station_id":"ce4bhu92rcd13ifvqi70","pricing_plan_id":"cebpf4jnsgd1na2vs0mg"},{"bike_id":"3fde5cc1-5bed-4feb-8e54-96cda47cd2d2","system_id":"levelo_inurba_marseille","lat":43.27924,"lon":5.38709,"is_reserved":false,"is_disabled":false,"rental_uris":{"android":"levelo://app?vid=3fde5cc1-5bed-4feb-8e54-96cda47cd2d2","ios":"levelo://app?vid=3fde5cc1-5bed-4feb-8e54-96cda47cd2d2"},"vehicle_type_id":"4","last_reported":1732478959,"current_range_meters":4800,"station_id":"","pricing_plan_id":"cebpf4jnsgd1na2vs0mg"},{"bike_id":"08117995-990e-4451-96a5-afc9c181642a","system_id":"levelo_inurba_marseille","lat":43.28609,"lon":5.35103,"is_reserved":false,"is_disabled":true,"rental_uris":{"android":"levelo://app?vid=08117995-990e-4451-96a5-afc9c181642a","ios":"levelo://app?vid=08117995-990e-4451-96a5-afc9c181642a"},"vehicle_type_id":"4","last_reported":1732478959,"current_range_meters":26000,"station_id":"ce4bhch2rcd13ifvqeug","pricing_plan_id":"cebpf4jnsgd1na2vs0mg"},{"bike_id":"2e4dcd85-8c14-4b37-8914-e8aafee7ebb6","system_id":"levelo_inurba_marseille","lat":43.28111,"lon":5.37833,"is_reserved":false,"is_disabled":false,"rental_uris":{"android":"levelo://app?vid=2e4dcd85-8c14-4b37-8914-e8aafee7ebb6","ios":"levelo://app?vid=2e4dcd85-8c14-4b37-8914-e8aafee7ebb6"},"vehicle_type_id":"4","last_reported":1732478959,"current_range_meters":32400,"station_id":"ce4bha12rcd13ifvqee0","pricing_plan_id":"cebpf4jnsgd1na2vs0mg"},{"bike_id":"d201cb32-6fcd-4de8-937d-c1eb9619b947","system_id":"levelo_inurba_marseille","lat":43.30602,"lon":5.39346,"is_reserved":false,"is_disabled":false,"rental_uris":{"android":"levelo://app?vid=d201cb32-6fcd-4de8-937d-c1eb9619b947","ios":"levelo://app?vid=d201cb32-6fcd-4de8-937d-c1eb9619b947"},"vehicle_type_id":"4","last_reported":1732478959,"current_range_meters":38000,"station_id":"ce4bh0p2rcd13ifvqd80","pricing_plan_id":"cebpf4jnsgd1na2vs0mg"},{"bike_id":"de8e8d99-4d78-4240-b625-d3497281c851","system_id":"levelo_inurba_marseille","lat":43.30592,"lon":5.37215,"is_reserved":false,"is_disabled":false,"rental_uris":{"android":"levelo://app?vid=de8e8d99-4d78-4240-b625-d3497281c851","ios":"levelo://app?vid=de8e8d99-4d78-4240-b625-d3497281c851"},"vehicle_type_id":"4","last_reported":1732478959,"current_range_meters":38800,"station_id":"ce4bgqh2rcd13ifvqc4g","pricing_plan_id":"cebpf4jnsgd1na2vs0mg"},{"bike_id":"5347e3db-89c2-4df0-b655-f53dc432d446","system_id":"levelo_inurba_marseille","lat":43.29035,"lon":5.35921,"is_reserved":false,"is_disabled":false,"rental_uris":{"android":"levelo://app?vid=5347e3db-89c2-4df0-b655-f53dc432d446","ios":"levelo://app?vid=5347e3db-89c2-4df0-b655-f53dc432d446"},"vehicle_type_id":"4","last_reported":1732478959,"current_range_meters":36800,"station_id":"ce4bha92rcd13ifvqeg0","pricing_plan_id":"cebpf4jnsgd1na2vs0mg"},{"bike_id":"a49e3a78-8516-4cc4-a118-a61022562d4f","system_id":"levelo_inurba_marseille","lat":43.29539,"lon":5.3904,"is_reserved":false,"is_disabled":false,"rental_uris":{"android":"levelo://app?vid=a49e3a78-8516-4cc4-a118-a61022562d4f","ios":"levelo://app?vid=a49e3a78-8516-4cc4-a118-a61022562d4f"},"vehicle_type_id":"4","last_reported":1732478959,"current_range_meters":28400,"station_id":"ce4bh3p2rcd13ifvqdp0","pricing_plan_id":"cebpf4jnsgd1na2vs0mg"},{"bike_id":"4cf68192-498e-49a8-b866-19367c604fb3","system_id":"levelo_inurba_marseille","lat":43.29591,"lon":5.39994,"is_reserved":false,"is_disabled":true,"rental_uris":{"android":"levelo://app?vid=4cf68192-498e-49a8-b866-19367c604fb3","ios":"levelo://app?vid=4cf68192-498e-49a8-b866-19367c604fb3"},"vehicle_type_id":"4","last_reported":1732478959,"current_range_meters":33600,"station_id":"ce4bh312rcd13ifvqdj0","pricing_plan_id":"cebpf4jnsgd1na2vs0mg"},{"bike_id":"da9435b6-0cdd-479a-827d-dbb1bab279d5","system_id":"levelo_inurba_marseille","lat":43.26566,"lon":5.38999,"is_reserved":false,"is_disabled":false,"rental_uris":{"android":"levelo://app?vid=da9435b6-0cdd-479a-827d-dbb1bab279d5","ios":"levelo://app?vid=da9435b6-0cdd-479a-827d-dbb1bab279d5"},"vehicle_type_id":"4","last_reported":1732478959,"current_range_meters":28800,"station_id":"ce4bhe12rcd13ifvqf30","pricing_plan_id":"cebpf4jnsgd1na2vs0mg"},{"bike_id":"61148eb3-27a7-40ff-99ba-d69849ce10eb","system_id":"levelo_inurba_marseille","lat":43.24547,"lon":5.39523,"is_reserved":false,"is_disabled":false,"rental_uris":{"android":"levelo://app?vid=61148eb3-27a7-40ff-99ba-d69849ce10eb","ios":"levelo://app?vid=61148eb3-27a7-40ff-99ba-d69849ce10eb"},"vehicle_type_id":"4","last_reported":1732478959,"current_range_meters":38800,"station_id":"ce4bhlp2rcd13ifvqgjg","pricing_plan_id":"cebpf4jnsgd1na2vs0mg"},{"bike_id":"fe50b852-c93a-4904-be5e-fd0e9efd1ca9","system_id":"levelo_inurba_marseille","lat":43.2894,"lon":5.36395,"is_reserved":false,"is_disabled":false,"rental_uris":{"android":"levelo://app?vid=fe50b852-c93a-4904-be5e-fd0e9efd1ca9","ios":"levelo://app?vid=fe50b852-c93a-4904-be5e-fd0e9efd1ca9"},"vehicle_type_id":"4","last_reported":1732478959,"current_range_meters":24800,"station_id":"ce4bhc92rcd13ifvqetg","pricing_plan_id":"cebpf4jnsgd1na2vs0mg"},{"bike_id":"1f8c85a0-4068-45bf-be22-512804de7e03","system_id":"levelo_inurba_marseille","lat":43.28423,"lon":5.34973,"is_reserved":false,"is_disabled":false,"rental_uris":{"android":"levelo://app?vid=1f8c85a0-4068-45bf-be22-512804de7e03","ios":"levelo://app?vid=1f8c85a0-4068-45bf-be22-512804de7e03"},"vehicle_type_id":"4","last_reported":1732478959,"current_range_meters":10000,"station_id":"ce4bhbh2rcd13ifvqepg","pricing_plan_id":"cebpf4jnsgd1na2vs0mg"},{"bike_id":"d45a47b2-ca48-400a-a0f2-e9257eea941d","system_id":"levelo_inurba_marseille","lat":43.29017,"lon":5.38631,"is_reserved":false,"is_disabled":false,"rental_uris":{"android":"levelo://app?vid=d45a47b2-ca48-400a-a0f2-e9257eea941d","ios":"levelo://app?vid=d45a47b2-ca48-400a-a0f2-e9257eea941d"},"vehicle_type_id":"4","last_reported":1732478959,"current_range_meters":39200,"station_id":"ce4bh4p2rcd13ifvqe0g","pricing_plan_id":"cebpf4jnsgd1na2vs0mg"},{"bike_id":"734ff0c4-f245-4197-8036-be5e222d76fd","system_id":"levelo_inurba_marseille","lat":43.28996,"lon":5.42589,"is_reserved":false,"is_disabled":true,"rental_uris":{"android":"levelo://app?vid=734ff0c4-f245-4197-8036-be5e222d76fd","ios":"levelo://app?vid=734ff0c4-f245-4197-8036-be5e222d76fd"},"vehicle_type_id":"4","last_reported":1732478959,"current_range_meters":0,"station_id":"","pricing_plan_id":"cebpf4jnsgd1na2vs0mg"},{"bike_id":"31e8cf73-3755-4d23-8e13-6fb3e4e82277","system_id":"levelo_inurba_marseille","lat":43.29786,"lon":5.38105,"is_reserved":false,"is_disabled":true,"rental_uris":{"android":"levelo://app?vid=31e8cf73-3755-4d23-8e13-6fb3e4e82277","ios":"levelo://app?vid=31e8cf73-3755-4d23-8e13-6fb3e4e82277"},"vehicle_type_id":"4","last_reported":1732478959,"current_range_meters":27600,"station_id":"ce4bgip2rcd13ifvqbb0","pricing_plan_id":"cebpf4jnsgd1na2vs0mg"},{"bike_id":"5df2c216-4def-4cd6-9d7a-33096fb316bb","system_id":"levelo_inurba_marseille","lat":43.28661,"lon":5.36351,"is_reserved":false,"is_disabled":false,"rental_uris":{"android":"levelo://app?vid=5df2c216-4def-4cd6-9d7a-33096fb316bb","ios":"levelo://app?vid=5df2c216-4def-4cd6-9d7a-33096fb316bb"},"vehicle_type_id":"4","last_reported":1732478959,"current_range_meters":39200,"station_id":"ce4bhah2rcd13ifvqej0","pricing_plan_id":"cebpf4jnsgd1na2vs0mg"},{"bike_id":"c280ac96-2102-41c7-8821-d7aa3cfa85af","system_id":"levelo_inurba_marseille","lat":43.31173,"lon":5.38707,"is_reserved":false,"is_disabled":false,"rental_uris":{"android":"levelo://app?vid=c280ac96-2102-41c7-8821-d7aa3cfa85af","ios":"levelo://app?vid=c280ac96-2102-41c7-8821-d7aa3cfa85af"},"vehicle_type_id":"4","last_reported":1732478959,"current_range_meters":38800,"station_id":"ce4bgv12rcd13ifvqcp0","pricing_plan_id":"cebpf4jnsgd1na2vs0mg"},{"bike_id":"1391c526-f3ef-4e0c-b482-5d32c95746c8","system_id":"levelo_inurba_marseille","lat":43.29188,"lon":5.3932,"is_reserved":false,"is_disabled":false,"rental_uris":{"android":"levelo://app?vid=1391c526-f3ef-4e0c-b482-5d32c95746c8","ios":"levelo://app?vid=1391c526-f3ef-4e0c-b482-5d32c95746c8"},"vehicle_type_id":"4","last_reported":1732478959,"current_range_meters":8000,"station_id":"ce4bh192rcd13ifvqdd0","pricing_plan_id":"cebpf4jnsgd1na2vs0mg"},{"bike_id":"31b5f549-e42f-4f15-9a3c-d8f91ffe8ded","system_id":"levelo_inurba_marseille","lat":43.27813,"lon":5.40711,"is_reserved":false,"is_disabled":false,"rental_uris":{"android":"levelo://app?vid=31b5f549-e42f-4f15-9a3c-d8f91ffe8ded","ios":"levelo://app?vid=31b5f549-e42f-4f15-9a3c-d8f91ffe8ded"},"vehicle_type_id":"4","last_reported":1732478959,"current_range_meters":14800,"station_id":"ce4bhnh2rcd13ifvqgtg","pricing_plan_id":"cebpf4jnsgd1na2vs0mg"},{"bike_id":"2eca0a54-b574-4db5-8398-b952cfe77c8a","system_id":"levelo_inurba_marseille","lat":43.33598,"lon":5.41024,"is_reserved":false,"is_disabled":false,"rental_uris":{"android":"levelo://app?vid=2eca0a54-b574-4db5-8398-b952cfe77c8a","ios":"levelo://app?vid=2eca0a54-b574-4db5-8398-b952cfe77c8a"},"vehicle_type_id":"4","last_reported":1732478959,"current_range_meters":28400,"station_id":"ce4bhqh2rcd13ifvqhmg","pricing_plan_id":"cebpf4jnsgd1na2vs0mg"},{"bike_id":"846ebc9c-76df-47c6-a4bb-d2fccf938b34","system_id":"levelo_inurba_marseille","lat":43.28441,"lon":5.39191,"is_reserved":false,"is_disabled":false,"rental_uris":{"android":"levelo://app?vid=846ebc9c-76df-47c6-a4bb-d2fccf938b34","ios":"levelo://app?vid=846ebc9c-76df-47c6-a4bb-d2fccf938b34"},"vehicle_type_id":"4","last_reported":1732478959,"current_range_meters":35600,"station_id":"ce4bhoh2rcd13ifvqh5g","pricing_plan_id":"cebpf4jnsgd1na2vs0mg"},{"bike_id":"294eeb79-af1b-495a-909f-216801ae6b41","system_id":"levelo_inurba_marseille","lat":43.337444,"lon":5.374475,"is_reserved":false,"is_disabled":true,"rental_uris":{"android":"levelo://app?vid=294eeb79-af1b-495a-909f-216801ae6b41","ios":"levelo://app?vid=294eeb79-af1b-495a-909f-216801ae6b41"},"vehicle_type_id":"4","last_reported":1732478959,"current_range_meters":0,"station_id":"","pricing_plan_id":"cebpf4jnsgd1na2vs0mg"},{"bike_id":"40800856-a54b-429b-b0f8-c44b579dcaba","system_id":"levelo_inurba_marseille","lat":43.23965,"lon":5.36628,"is_reserved":false,"is_disabled":false,"rental_uris":{"android":"levelo://app?vid=40800856-a54b-429b-b0f8-c44b579dcaba","ios":"levelo://app?vid=40800856-a54b-429b-b0f8-c44b579dcaba"},"vehicle_type_id":"4","last_reported":1732478959,"current_range_meters":34800,"station_id":"ce4bhi12rcd13ifvqfp0","pricing_plan_id":"cebpf4jnsgd1na2vs0mg"},{"bike_id":"c0299046-c95c-4bcd-bc32-eb6d185f1ea9","system_id":"levelo_inurba_marseille","lat":43.29575,"lon":5.37492,"is_reserved":false,"is_disabled":true,"rental_uris":{"android":"levelo://app?vid=c0299046-c95c-4bcd-bc32-eb6d185f1ea9","ios":"levelo://app?vid=c0299046-c95c-4bcd-bc32-eb6d185f1ea9"},"vehicle_type_id":"4","last_reported":1732478959,"current_range_meters":36800,"station_id":"ce4bgh92rcd13ifvqb50","pricing_plan_id":"cebpf4jnsgd1na2vs0mg"},{"bike_id":"13d3a56b-18f6-4ef3-b963-de5f98b56151","system_id":"levelo_inurba_marseille","lat":43.270718,"lon":5.422766,"is_reserved":false,"is_disabled":false,"rental_uris":{"android":"levelo://app?vid=13d3a56b-18f6-4ef3-b963-de5f98b56151","ios":"levelo://app?vid=13d3a56b-18f6-4ef3-b963-de5f98b56151"},"vehicle_type_id":"4","last_reported":1732478959,"current_range_meters":26800,"station_id":"ce4bhk92rcd13ifvqgb0","pricing_plan_id":"cebpf4jnsgd1na2vs0mg"},{"bike_id":"9c2fe86d-c84c-4ad4-ba41-f353e57b14b6","system_id":"levelo_inurba_marseille","lat":43.28702,"lon":5.37369,"is_reserved":false,"is_disabled":false,"rental_uris":{"android":"levelo://app?vid=9c2fe86d-c84c-4ad4-ba41-f353e57b14b6","ios":"levelo://app?vid=9c2fe86d-c84c-4ad4-ba41-f353e57b14b6"},"vehicle_type_id":"4","last_reported":1732478959,"current_range_meters":30400,"station_id":"ce4bh3p2rcd13ifvqdq0","pricing_plan_id":"cebpf4jnsgd1na2vs0mg"},{"bike_id":"5ecd136b-2a29-43a4-82ab-c3c31b55b96d","system_id":"levelo_inurba_marseille","lat":43.27921,"lon":5.39575,"is_reserved":false,"is_disabled":false,"rental_uris":{"android":"levelo://app?vid=5ecd136b-2a29-43a4-82ab-c3c31b55b96d","ios":"levelo://app?vid=5ecd136b-2a29-43a4-82ab-c3c31b55b96d"},"vehicle_type_id":"4","last_reported":1732478959,"current_range_meters":37600,"station_id":"ce4bhf92rcd13ifvqf40","pricing_plan_id":"cebpf4jnsgd1na2vs0mg"},{"bike_id":"02d46371-52ad-4a15-96d8-342c3c122825","system_id":"levelo_inurba_marseille","lat":43.23972,"lon":5.38628,"is_reserved":false,"is_disabled":false,"rental_uris":{"android":"levelo://app?vid=02d46371-52ad-4a15-96d8-342c3c122825","ios":"levelo://app?vid=02d46371-52ad-4a15-96d8-342c3c122825"},"vehicle_type_id":"4","last_reported":1732478959,"current_range_meters":22800,"station_id":"","pricing_plan_id":"cebpf4jnsgd1na2vs0mg"},{"bike_id":"777b7fed-d395-4c97-b504-dee7c3479d4f","system_id":"levelo_inurba_marseille","lat":43.29836,"lon":5.3785,"is_reserved":false,"is_disabled":true,"rental_uris":{"android":"levelo://app?vid=777b7fed-d395-4c97-b504-dee7c3479d4f","ios":"levelo://app?vid=777b7fed-d395-4c97-b504-dee7c3479d4f"},"vehicle_type_id":"4","last_reported":1732478959,"current_range_meters":0,"station_id":"","pricing_plan_id":"cebpf4jnsgd1na2vs0mg"},{"bike_id":"cd78312a-142a-42d0-92e1-dbc654bf8bb4","system_id":"levelo_inurba_marseille","lat":43.24184,"lon":5.39721,"is_reserved":false,"is_disabled":true,"rental_uris":{"android":"levelo://app?vid=cd78312a-142a-42d0-92e1-dbc654bf8bb4","ios":"levelo://app?vid=cd78312a-142a-42d0-92e1-dbc654bf8bb4"},"vehicle_type_id":"4","last_reported":1732478959,"current_range_meters":8400,"station_id":"ce4bhn12rcd13ifvqgpg","pricing_plan_id":"cebpf4jnsgd1na2vs0mg"},{"bike_id":"dd75a17a-64f0-4f22-9129-e7700ff73442","system_id":"levelo_inurba_marseille","lat":43.24072,"lon":5.37761,"is_reserved":false,"is_disabled":false,"rental_uris":{"android":"levelo://app?vid=dd75a17a-64f0-4f22-9129-e7700ff73442","ios":"levelo://app?vid=dd75a17a-64f0-4f22-9129-e7700ff73442"},"vehicle_type_id":"4","last_reported":1732478959,"current_range_meters":28800,"station_id":"ce4bhnp2rcd13ifvqgvg","pricing_plan_id":"cebpf4jnsgd1na2vs0mg"},{"bike_id":"2b930fbc-d1c5-4e6e-b771-26da81254d66","system_id":"levelo_inurba_marseille","lat":43.27812,"lon":5.40707,"is_reserved":false,"is_disabled":false,"rental_uris":{"android":"levelo://app?vid=2b930fbc-d1c5-4e6e-b771-26da81254d66","ios":"levelo://app?vid=2b930fbc-d1c5-4e6e-b771-26da81254d66"},"vehicle_type_id":"4","last_reported":1732478959,"current_range_meters":7200,"station_id":"ce4bhnh2rcd13ifvqgtg","pricing_plan_id":"cebpf4jnsgd1na2vs0mg"},{"bike_id":"b4236f37-3e02-4288-a61a-afd723a3725f","system_id":"levelo_inurba_marseille","lat":43.23675,"lon":5.43273,"is_reserved":false,"is_disabled":false,"rental_uris":{"android":"levelo://app?vid=b4236f37-3e02-4288-a61a-afd723a3725f","ios":"levelo://app?vid=b4236f37-3e02-4288-a61a-afd723a3725f"},"vehicle_type_id":"4","last_reported":1732478959,"current_range_meters":11600,"station_id":"ce4bhmp2rcd13ifvqgog","pricing_plan_id":"cebpf4jnsgd1na2vs0mg"},{"bike_id":"43f6da94-5cf1-446e-9b8d-b4c4e86bf027","system_id":"levelo_inurba_marseille","lat":43.26187,"lon":5.37442,"is_reserved":false,"is_disabled":true,"rental_uris":{"android":"levelo://app?vid=43f6da94-5cf1-446e-9b8d-b4c4e86bf027","ios":"levelo://app?vid=43f6da94-5cf1-446e-9b8d-b4c4e86bf027"},"vehicle_type_id":"4","last_reported":1732478959,"current_range_meters":6400,"station_id":"ce4bhgp2rcd13ifvqfc0","pricing_plan_id":"cebpf4jnsgd1na2vs0mg"},{"bike_id":"dd5ab154-647e-4dfa-88f1-0f781c7552f5","system_id":"levelo_inurba_marseille","lat":43.25575,"lon":5.38244,"is_reserved":false,"is_disabled":false,"rental_uris":{"android":"levelo://app?vid=dd5ab154-647e-4dfa-88f1-0f781c7552f5","ios":"levelo://app?vid=dd5ab154-647e-4dfa-88f1-0f781c7552f5"},"vehicle_type_id":"4","last_reported":1732478959,"current_range_meters":24800,"station_id":"ce4bhih2rcd13ifvqfs0","pricing_plan_id":"cebpf4jnsgd1na2vs0mg"},{"bike_id":"14a83065-2c68-475c-99a7-32e0815b9f50","system_id":"levelo_inurba_marseille","lat":43.246607,"lon":5.381685,"is_reserved":false,"is_disabled":true,"rental_uris":{"android":"levelo://app?vid=14a83065-2c68-475c-99a7-32e0815b9f50","ios":"levelo://app?vid=14a83065-2c68-475c-99a7-32e0815b9f50"},"vehicle_type_id":"4","last_reported":1732478959,"current_range_meters":20000,"station_id":"ce4bhih2rcd13ifvqfr0","pricing_plan_id":"cebpf4jnsgd1na2vs0mg"},{"bike_id":"994195f6-b5da-4158-a5b5-8b38baad32b0","system_id":"levelo_inurba_marseille","lat":43.3372,"lon":5.39187,"is_reserved":false,"is_disabled":false,"rental_uris":{"android":"levelo://app?vid=994195f6-b5da-4158-a5b5-8b38baad32b0","ios":"levelo://app?vid=994195f6-b5da-4158-a5b5-8b38baad32b0"},"vehicle_type_id":"4","last_reported":1732478959,"current_range_meters":26800,"station_id":"ce4bhr92rcd13ifvqhsg","pricing_plan_id":"cebpf4jnsgd1na2vs0mg"},{"bike_id":"7c2f19f3-5373-4c2a-87bb-e1fd3ef39822","system_id":"levelo_inurba_marseille","lat":43.26564,"lon":5.39006,"is_reserved":false,"is_disabled":true,"rental_uris":{"android":"levelo://app?vid=7c2f19f3-5373-4c2a-87bb-e1fd3ef39822","ios":"levelo://app?vid=7c2f19f3-5373-4c2a-87bb-e1fd3ef39822"},"vehicle_type_id":"4","last_reported":1732478959,"current_range_meters":17600,"station_id":"ce4bhe12rcd13ifvqf30","pricing_plan_id":"cebpf4jnsgd1na2vs0mg"},{"bike_id":"36ef9a42-f4d8-45f5-adc2-b51fb9b962d0","system_id":"levelo_inurba_marseille","lat":43.34141,"lon":5.40892,"is_reserved":false,"is_disabled":false,"rental_uris":{"android":"levelo://app?vid=36ef9a42-f4d8-45f5-adc2-b51fb9b962d0","ios":"levelo://app?vid=36ef9a42-f4d8-45f5-adc2-b51fb9b962d0"},"vehicle_type_id":"4","last_reported":1732478959,"current_range_meters":40000,"station_id":"ce4bhqh2rcd13ifvqhlg","pricing_plan_id":"cebpf4jnsgd1na2vs0mg"},{"bike_id":"24fc129a-3a98-4f25-9554-234fc3a2dc8d","system_id":"levelo_inurba_marseille","lat":43.30411,"lon":5.41276,"is_reserved":false,"is_disabled":true,"rental_uris":{"android":"levelo://app?vid=24fc129a-3a98-4f25-9554-234fc3a2dc8d","ios":"levelo://app?vid=24fc129a-3a98-4f25-9554-234fc3a2dc8d"},"vehicle_type_id":"4","last_reported":1732478959,"current_range_meters":28400,"station_id":"ce4bhop2rcd13ifvqh8g","pricing_plan_id":"cebpf4jnsgd1na2vs0mg"},{"bike_id":"a3202fc1-85cb-42ee-bead-37756f81ff0f","system_id":"levelo_inurba_marseille","lat":43.30557,"lon":5.38381,"is_reserved":false,"is_disabled":true,"rental_uris":{"android":"levelo://app?vid=a3202fc1-85cb-42ee-bead-37756f81ff0f","ios":"levelo://app?vid=a3202fc1-85cb-42ee-bead-37756f81ff0f"},"vehicle_type_id":"4","last_reported":1732478959,"current_range_meters":23200,"station_id":"ce4bgg92rcd13ifvqb30","pricing_plan_id":"cebpf4jnsgd1na2vs0mg"},{"bike_id":"2965e6b3-b5ba-4376-b94e-96c694f41694","system_id":"levelo_inurba_marseille","lat":43.30241,"lon":5.40054,"is_reserved":false,"is_disabled":false,"rental_uris":{"android":"levelo://app?vid=2965e6b3-b5ba-4376-b94e-96c694f41694","ios":"levelo://app?vid=2965e6b3-b5ba-4376-b94e-96c694f41694"},"vehicle_type_id":"4","last_reported":1732478959,"current_range_meters":36400,"station_id":"ce4bgvh2rcd13ifvqcs0","pricing_plan_id":"cebpf4jnsgd1na2vs0mg"},{"bike_id":"dfbd35ff-da47-4554-bf42-c226db6d105f","system_id":"levelo_inurba_marseille","lat":43.29607,"lon":5.38097,"is_reserved":false,"is_disabled":false,"rental_uris":{"android":"levelo://app?vid=dfbd35ff-da47-4554-bf42-c226db6d105f","ios":"levelo://app?vid=dfbd35ff-da47-4554-bf42-c226db6d105f"},"vehicle_type_id":"4","last_reported":1732478959,"current_range_meters":38400,"station_id":"ce4bgl12rcd13ifvqbo0","pricing_plan_id":"cebpf4jnsgd1na2vs0mg"},{"bike_id":"5d9127b2-409a-4e00-b212-9b69c1248067","system_id":"levelo_inurba_marseille","lat":43.26211,"lon":5.37919,"is_reserved":false,"is_disabled":false,"rental_uris":{"android":"levelo://app?vid=5d9127b2-409a-4e00-b212-9b69c1248067","ios":"levelo://app?vid=5d9127b2-409a-4e00-b212-9b69c1248067"},"vehicle_type_id":"4","last_reported":1732478959,"current_range_meters":11200,"station_id":"ce4bhjp2rcd13ifvqg90","pricing_plan_id":"cebpf4jnsgd1na2vs0mg"},{"bike_id":"45900862-1d29-475b-aca9-7008519fc46b","system_id":"levelo_inurba_marseille","lat":43.24384,"lon":5.37058,"is_reserved":false,"is_disabled":false,"rental_uris":{"android":"levelo://app?vid=45900862-1d29-475b-aca9-7008519fc46b","ios":"levelo://app?vid=45900862-1d29-475b-aca9-7008519fc46b"},"vehicle_type_id":"4","last_reported":1732478959,"current_range_meters":17600,"station_id":"ce4bhhh2rcd13ifvqfk0","pricing_plan_id":"cebpf4jnsgd1na2vs0mg"},{"bike_id":"e23b27a7-2b68-4ef9-8cef-da4a3b60c45c","system_id":"levelo_inurba_marseille","lat":43.281,"lon":5.37834,"is_reserved":false,"is_disabled":false,"rental_uris":{"android":"levelo://app?vid=e23b27a7-2b68-4ef9-8cef-da4a3b60c45c","ios":"levelo://app?vid=e23b27a7-2b68-4ef9-8cef-da4a3b60c45c"},"vehicle_type_id":"4","last_reported":1732478959,"current_range_meters":38000,"station_id":"ce4bha12rcd13ifvqee0","pricing_plan_id":"cebpf4jnsgd1na2vs0mg"},{"bike_id":"28d59ff9-3594-47bc-8f14-ae01b6935378","system_id":"levelo_inurba_marseille","lat":43.28701,"lon":5.37392,"is_reserved":false,"is_disabled":false,"rental_uris":{"android":"levelo://app?vid=28d59ff9-3594-47bc-8f14-ae01b6935378","ios":"levelo://app?vid=28d59ff9-3594-47bc-8f14-ae01b6935378"},"vehicle_type_id":"4","last_reported":1732478959,"current_range_meters":11200,"station_id":"ce4bh3p2rcd13ifvqdq0","pricing_plan_id":"cebpf4jnsgd1na2vs0mg"},{"bike_id":"f8b957eb-ac36-4e56-96cf-7474e1d53753","system_id":"levelo_inurba_marseille","lat":43.24659,"lon":5.38162,"is_reserved":false,"is_disabled":false,"rental_uris":{"android":"levelo://app?vid=f8b957eb-ac36-4e56-96cf-7474e1d53753","ios":"levelo://app?vid=f8b957eb-ac36-4e56-96cf-7474e1d53753"},"vehicle_type_id":"4","last_reported":1732478959,"current_range_meters":14400,"station_id":"ce4bhih2rcd13ifvqfr0","pricing_plan_id":"cebpf4jnsgd1na2vs0mg"},{"bike_id":"62bcad95-d3e2-434c-81f4-127757d19c4c","system_id":"levelo_inurba_marseille","lat":43.29212,"lon":5.39587,"is_reserved":false,"is_disabled":true,"rental_uris":{"android":"levelo://app?vid=62bcad95-d3e2-434c-81f4-127757d19c4c","ios":"levelo://app?vid=62bcad95-d3e2-434c-81f4-127757d19c4c"},"vehicle_type_id":"4","last_reported":1732478959,"current_range_meters":1600,"station_id":"","pricing_plan_id":"cebpf4jnsgd1na2vs0mg"},{"bike_id":"f7dd9496-b2cd-4317-8fba-845d260fc7e5","system_id":"levelo_inurba_marseille","lat":43.27369,"lon":5.36253,"is_reserved":false,"is_disabled":true,"rental_uris":{"android":"levelo://app?vid=f7dd9496-b2cd-4317-8fba-845d260fc7e5","ios":"levelo://app?vid=f7dd9496-b2cd-4317-8fba-845d260fc7e5"},"vehicle_type_id":"4","last_reported":1732478959,"current_range_meters":0,"station_id":"ce4bhbh2rcd13ifvqeo0","pricing_plan_id":"cebpf4jnsgd1na2vs0mg"},{"bike_id":"faddc5bf-9308-4490-a929-f5be12fd1597","system_id":"levelo_inurba_marseille","lat":43.25581,"lon":5.38231,"is_reserved":false,"is_disabled":false,"rental_uris":{"android":"levelo://app?vid=faddc5bf-9308-4490-a929-f5be12fd1597","ios":"levelo://app?vid=faddc5bf-9308-4490-a929-f5be12fd1597"},"vehicle_type_id":"4","last_reported":1732478959,"current_range_meters":18000,"station_id":"ce4bhih2rcd13ifvqfs0","pricing_plan_id":"cebpf4jnsgd1na2vs0mg"},{"bike_id":"cc19167c-24c1-4f24-b53d-286b28c07764","system_id":"levelo_inurba_marseille","lat":43.30941,"lon":5.39035,"is_reserved":false,"is_disabled":true,"rental_uris":{"android":"levelo://app?vid=cc19167c-24c1-4f24-b53d-286b28c07764","ios":"levelo://app?vid=cc19167c-24c1-4f24-b53d-286b28c07764"},"vehicle_type_id":"4","last_reported":1732478959,"current_range_meters":2800,"station_id":"ce4bgup2rcd13ifvqco0","pricing_plan_id":"cebpf4jnsgd1na2vs0mg"},{"bike_id":"36296f5c-0176-4be0-97c8-7930cda9c369","system_id":"levelo_inurba_marseille","lat":43.32107,"lon":5.36773,"is_reserved":false,"is_disabled":false,"rental_uris":{"android":"levelo://app?vid=36296f5c-0176-4be0-97c8-7930cda9c369","ios":"levelo://app?vid=36296f5c-0176-4be0-97c8-7930cda9c369"},"vehicle_type_id":"4","last_reported":1732478959,"current_range_meters":30000,"station_id":"ce4bhrh2rcd13ifvqhug","pricing_plan_id":"cebpf4jnsgd1na2vs0mg"},{"bike_id":"381bd02d-c247-46e1-b0bf-fec78ac5a001","system_id":"levelo_inurba_marseille","lat":43.25862,"lon":5.39898,"is_reserved":false,"is_disabled":false,"rental_uris":{"android":"levelo://app?vid=381bd02d-c247-46e1-b0bf-fec78ac5a001","ios":"levelo://app?vid=381bd02d-c247-46e1-b0bf-fec78ac5a001"},"vehicle_type_id":"4","last_reported":1732478959,"current_range_meters":8400,"station_id":"ce4bhl92rcd13ifvqghg","pricing_plan_id":"cebpf4jnsgd1na2vs0mg"},{"bike_id":"3749f547-26de-49f3-8704-9a5a504b68f5","system_id":"levelo_inurba_marseille","lat":43.25575,"lon":5.38225,"is_reserved":false,"is_disabled":false,"rental_uris":{"android":"levelo://app?vid=3749f547-26de-49f3-8704-9a5a504b68f5","ios":"levelo://app?vid=3749f547-26de-49f3-8704-9a5a504b68f5"},"vehicle_type_id":"4","last_reported":1732478959,"current_range_meters":34000,"station_id":"ce4bhih2rcd13ifvqfs0","pricing_plan_id":"cebpf4jnsgd1na2vs0mg"},{"bike_id":"d2a52b58-fabe-4a57-94ba-464e41b85800","system_id":"levelo_inurba_marseille","lat":43.3009,"lon":5.37432,"is_reserved":false,"is_disabled":true,"rental_uris":{"android":"levelo://app?vid=d2a52b58-fabe-4a57-94ba-464e41b85800","ios":"levelo://app?vid=d2a52b58-fabe-4a57-94ba-464e41b85800"},"vehicle_type_id":"4","last_reported":1732478959,"current_range_meters":24400,"station_id":"","pricing_plan_id":"cebpf4jnsgd1na2vs0mg"},{"bike_id":"e0d21058-6322-43f3-9dfa-bbc133ff9862","system_id":"levelo_inurba_marseille","lat":43.25106,"lon":5.40324,"is_reserved":false,"is_disabled":false,"rental_uris":{"android":"levelo://app?vid=e0d21058-6322-43f3-9dfa-bbc133ff9862","ios":"levelo://app?vid=e0d21058-6322-43f3-9dfa-bbc133ff9862"},"vehicle_type_id":"4","last_reported":1732478959,"current_range_meters":39200,"station_id":"ce4bhlh2rcd13ifvqgig","pricing_plan_id":"cebpf4jnsgd1na2vs0mg"},{"bike_id":"50b19cb2-c4bd-4d3e-9fe4-22e30fc6851b","system_id":"levelo_inurba_marseille","lat":43.31537,"lon":5.3803,"is_reserved":false,"is_disabled":true,"rental_uris":{"android":"levelo://app?vid=50b19cb2-c4bd-4d3e-9fe4-22e30fc6851b","ios":"levelo://app?vid=50b19cb2-c4bd-4d3e-9fe4-22e30fc6851b"},"vehicle_type_id":"4","last_reported":1732478959,"current_range_meters":35600,"station_id":"ce4bhsp2rcd13ifvqi50","pricing_plan_id":"cebpf4jnsgd1na2vs0mg"},{"bike_id":"b14c6aa3-bfae-4827-b272-c5087e69f4e7","system_id":"levelo_inurba_marseille","lat":43.30927,"lon":5.40144,"is_reserved":false,"is_disabled":false,"rental_uris":{"android":"levelo://app?vid=b14c6aa3-bfae-4827-b272-c5087e69f4e7","ios":"levelo://app?vid=b14c6aa3-bfae-4827-b272-c5087e69f4e7"},"vehicle_type_id":"4","last_reported":1732478959,"current_range_meters":36000,"station_id":"ce4bgvp2rcd13ifvqct0","pricing_plan_id":"cebpf4jnsgd1na2vs0mg"},{"bike_id":"e8479bc5-048e-4ade-b0dd-972a2df78971","system_id":"levelo_inurba_marseille","lat":43.31318,"lon":5.39697,"is_reserved":false,"is_disabled":false,"rental_uris":{"android":"levelo://app?vid=e8479bc5-048e-4ade-b0dd-972a2df78971","ios":"levelo://app?vid=e8479bc5-048e-4ade-b0dd-972a2df78971"},"vehicle_type_id":"4","last_reported":1732478959,"current_range_meters":16800,"station_id":"ce4bgvp2rcd13ifvqcu0","pricing_plan_id":"cebpf4jnsgd1na2vs0mg"},{"bike_id":"7e438134-db2f-4a93-8937-41f719af6d2c","system_id":"levelo_inurba_marseille","lat":43.26681,"lon":5.3827,"is_reserved":false,"is_disabled":false,"rental_uris":{"android":"levelo://app?vid=7e438134-db2f-4a93-8937-41f719af6d2c","ios":"levelo://app?vid=7e438134-db2f-4a93-8937-41f719af6d2c"},"vehicle_type_id":"4","last_reported":1732478959,"current_range_meters":38800,"station_id":"ce4bhg92rcd13ifvqf90","pricing_plan_id":"cebpf4jnsgd1na2vs0mg"},{"bike_id":"a3bbfbc0-1c5c-4437-9a5f-15f39af39c82","system_id":"levelo_inurba_marseille","lat":43.246525,"lon":5.381575,"is_reserved":false,"is_disabled":false,"rental_uris":{"android":"levelo://app?vid=a3bbfbc0-1c5c-4437-9a5f-15f39af39c82","ios":"levelo://app?vid=a3bbfbc0-1c5c-4437-9a5f-15f39af39c82"},"vehicle_type_id":"4","last_reported":1732478959,"current_range_meters":38800,"station_id":"ce4bhih2rcd13ifvqfr0","pricing_plan_id":"cebpf4jnsgd1na2vs0mg"},{"bike_id":"7e240e3e-6ce0-4cfb-84b0-52d7d524ee8d","system_id":"levelo_inurba_marseille","lat":43.27807,"lon":5.40707,"is_reserved":false,"is_disabled":false,"rental_uris":{"android":"levelo://app?vid=7e240e3e-6ce0-4cfb-84b0-52d7d524ee8d","ios":"levelo://app?vid=7e240e3e-6ce0-4cfb-84b0-52d7d524ee8d"},"vehicle_type_id":"4","last_reported":1732478959,"current_range_meters":40000,"station_id":"ce4bhnh2rcd13ifvqgtg","pricing_plan_id":"cebpf4jnsgd1na2vs0mg"},{"bike_id":"66d70828-b14f-4541-8984-1f382e380cdf","system_id":"levelo_inurba_marseille","lat":43.27327,"lon":5.39099,"is_reserved":false,"is_disabled":true,"rental_uris":{"android":"levelo://app?vid=66d70828-b14f-4541-8984-1f382e380cdf","ios":"levelo://app?vid=66d70828-b14f-4541-8984-1f382e380cdf"},"vehicle_type_id":"4","last_reported":1732478959,"current_range_meters":38800,"station_id":"ce4bhgp2rcd13ifvqfe0","pricing_plan_id":"cebpf4jnsgd1na2vs0mg"},{"bike_id":"dd3b09fe-b71a-401a-b299-a88383f47f1c","system_id":"levelo_inurba_marseille","lat":43.337444,"lon":5.374475,"is_reserved":false,"is_disabled":false,"rental_uris":{"android":"levelo://app?vid=dd3b09fe-b71a-401a-b299-a88383f47f1c","ios":"levelo://app?vid=dd3b09fe-b71a-401a-b299-a88383f47f1c"},"vehicle_type_id":"4","last_reported":1732478959,"current_range_meters":30000,"station_id":"","pricing_plan_id":"cebpf4jnsgd1na2vs0mg"},{"bike_id":"b0f390fe-f074-44e1-82a8-52d6615e9359","system_id":"levelo_inurba_marseille","lat":43.22919,"lon":5.35382,"is_reserved":false,"is_disabled":false,"rental_uris":{"android":"levelo://app?vid=b0f390fe-f074-44e1-82a8-52d6615e9359","ios":"levelo://app?vid=b0f390fe-f074-44e1-82a8-52d6615e9359"},"vehicle_type_id":"4","last_reported":1732478959,"current_range_meters":38000,"station_id":"cpo3532slgdg3j2ikp40","pricing_plan_id":"cebpf4jnsgd1na2vs0mg"},{"bike_id":"de5a9aa8-c532-4c45-a448-0a340119b30f","system_id":"levelo_inurba_marseille","lat":43.31761,"lon":5.39018,"is_reserved":false,"is_disabled":false,"rental_uris":{"android":"levelo://app?vid=de5a9aa8-c532-4c45-a448-0a340119b30f","ios":"levelo://app?vid=de5a9aa8-c532-4c45-a448-0a340119b30f"},"vehicle_type_id":"4","last_reported":1732478959,"current_range_meters":21600,"station_id":"ce4bhqp2rcd13ifvqhng","pricing_plan_id":"cebpf4jnsgd1na2vs0mg"},{"bike_id":"47c41cf3-e016-44ed-af78-c2174f07c59f","system_id":"levelo_inurba_marseille","lat":43.29016,"lon":5.38627,"is_reserved":false,"is_disabled":true,"rental_uris":{"android":"levelo://app?vid=47c41cf3-e016-44ed-af78-c2174f07c59f","ios":"levelo://app?vid=47c41cf3-e016-44ed-af78-c2174f07c59f"},"vehicle_type_id":"4","last_reported":1732478959,"current_range_meters":2800,"station_id":"ce4bh4p2rcd13ifvqe0g","pricing_plan_id":"cebpf4jnsgd1na2vs0mg"},{"bike_id":"a2d657ef-21d2-4669-a964-7164b9f5cf64","system_id":"levelo_inurba_marseille","lat":43.25931,"lon":5.40892,"is_reserved":false,"is_disabled":false,"rental_uris":{"android":"levelo://app?vid=a2d657ef-21d2-4669-a964-7164b9f5cf64","ios":"levelo://app?vid=a2d657ef-21d2-4669-a964-7164b9f5cf64"},"vehicle_type_id":"4","last_reported":1732478959,"current_range_meters":30800,"station_id":"ce4bhm92rcd13ifvqglg","pricing_plan_id":"cebpf4jnsgd1na2vs0mg"},{"bike_id":"d6c85d90-d118-4adb-b4b4-29276e7eafe1","system_id":"levelo_inurba_marseille","lat":43.2964,"lon":5.40589,"is_reserved":false,"is_disabled":true,"rental_uris":{"android":"levelo://app?vid=d6c85d90-d118-4adb-b4b4-29276e7eafe1","ios":"levelo://app?vid=d6c85d90-d118-4adb-b4b4-29276e7eafe1"},"vehicle_type_id":"4","last_reported":1732478959,"current_range_meters":1600,"station_id":"ce4bh0h2rcd13ifvqd60","pricing_plan_id":"cebpf4jnsgd1na2vs0mg"},{"bike_id":"1a028ea5-ca3c-414e-a8f4-6662b216a6b7","system_id":"levelo_inurba_marseille","lat":43.29911,"lon":5.37462,"is_reserved":false,"is_disabled":false,"rental_uris":{"android":"levelo://app?vid=1a028ea5-ca3c-414e-a8f4-6662b216a6b7","ios":"levelo://app?vid=1a028ea5-ca3c-414e-a8f4-6662b216a6b7"},"vehicle_type_id":"4","last_reported":1732478959,"current_range_meters":21600,"station_id":"ce4bgjh2rcd13ifvqbg0","pricing_plan_id":"cebpf4jnsgd1na2vs0mg"},{"bike_id":"21738a6b-9b43-4219-9c10-3e0b75c4d335","system_id":"levelo_inurba_marseille","lat":43.28275,"lon":5.35078,"is_reserved":false,"is_disabled":false,"rental_uris":{"android":"levelo://app?vid=21738a6b-9b43-4219-9c10-3e0b75c4d335","ios":"levelo://app?vid=21738a6b-9b43-4219-9c10-3e0b75c4d335"},"vehicle_type_id":"4","last_reported":1732478959,"current_range_meters":37600,"station_id":"ce4bhbp2rcd13ifvqerg","pricing_plan_id":"cebpf4jnsgd1na2vs0mg"},{"bike_id":"10a23a4a-29c8-4584-8287-8e794920be13","system_id":"levelo_inurba_marseille","lat":43.29618,"lon":5.37718,"is_reserved":false,"is_disabled":false,"rental_uris":{"android":"levelo://app?vid=10a23a4a-29c8-4584-8287-8e794920be13","ios":"levelo://app?vid=10a23a4a-29c8-4584-8287-8e794920be13"},"vehicle_type_id":"4","last_reported":1732478959,"current_range_meters":2000,"station_id":"ce4bgi92rcd13ifvqb90","pricing_plan_id":"cebpf4jnsgd1na2vs0mg"},{"bike_id":"3f99f7d8-5bd5-4774-975d-6b45717f58a3","system_id":"levelo_inurba_marseille","lat":43.30321,"lon":5.40444,"is_reserved":false,"is_disabled":false,"rental_uris":{"android":"levelo://app?vid=3f99f7d8-5bd5-4774-975d-6b45717f58a3","ios":"levelo://app?vid=3f99f7d8-5bd5-4774-975d-6b45717f58a3"},"vehicle_type_id":"4","last_reported":1732478959,"current_range_meters":37600,"station_id":"ce4bh012rcd13ifvqd10","pricing_plan_id":"cebpf4jnsgd1na2vs0mg"},{"bike_id":"17ba6615-9f08-440e-93e9-f8f4f3600fcd","system_id":"levelo_inurba_marseille","lat":43.30544,"lon":5.36533,"is_reserved":false,"is_disabled":true,"rental_uris":{"android":"levelo://app?vid=17ba6615-9f08-440e-93e9-f8f4f3600fcd","ios":"levelo://app?vid=17ba6615-9f08-440e-93e9-f8f4f3600fcd"},"vehicle_type_id":"4","last_reported":1732478959,"current_range_meters":0,"station_id":"ce4bgs12rcd13ifvqcag","pricing_plan_id":"cebpf4jnsgd1na2vs0mg"},{"bike_id":"cbc2167d-639d-4b33-b914-3ad6f36f2868","system_id":"levelo_inurba_marseille","lat":43.22926,"lon":5.35376,"is_reserved":false,"is_disabled":false,"rental_uris":{"android":"levelo://app?vid=cbc2167d-639d-4b33-b914-3ad6f36f2868","ios":"levelo://app?vid=cbc2167d-639d-4b33-b914-3ad6f36f2868"},"vehicle_type_id":"4","last_reported":1732478959,"current_range_meters":34800,"station_id":"cpo3532slgdg3j2ikp40","pricing_plan_id":"cebpf4jnsgd1na2vs0mg"},{"bike_id":"3b76b434-c07f-48ef-bce6-5339bda9953e","system_id":"levelo_inurba_marseille","lat":43.28438,"lon":5.39185,"is_reserved":false,"is_disabled":false,"rental_uris":{"android":"levelo://app?vid=3b76b434-c07f-48ef-bce6-5339bda9953e","ios":"levelo://app?vid=3b76b434-c07f-48ef-bce6-5339bda9953e"},"vehicle_type_id":"4","last_reported":1732478959,"current_range_meters":37600,"station_id":"ce4bhoh2rcd13ifvqh5g","pricing_plan_id":"cebpf4jnsgd1na2vs0mg"},{"bike_id":"b27cab72-0c2b-403a-acee-6b24bfdee133","system_id":"levelo_inurba_marseille","lat":43.29194,"lon":5.3932,"is_reserved":false,"is_disabled":false,"rental_uris":{"android":"levelo://app?vid=b27cab72-0c2b-403a-acee-6b24bfdee133","ios":"levelo://app?vid=b27cab72-0c2b-403a-acee-6b24bfdee133"},"vehicle_type_id":"4","last_reported":1732478959,"current_range_meters":28400,"station_id":"ce4bh192rcd13ifvqdd0","pricing_plan_id":"cebpf4jnsgd1na2vs0mg"},{"bike_id":"f87b6061-5330-4017-8db4-f9c6a32fd5c5","system_id":"levelo_inurba_marseille","lat":43.29249,"lon":5.40895,"is_reserved":false,"is_disabled":false,"rental_uris":{"android":"levelo://app?vid=f87b6061-5330-4017-8db4-f9c6a32fd5c5","ios":"levelo://app?vid=f87b6061-5330-4017-8db4-f9c6a32fd5c5"},"vehicle_type_id":"4","last_reported":1732478959,"current_range_meters":26000,"station_id":"ce4bh192rcd13ifvqdc0","pricing_plan_id":"cebpf4jnsgd1na2vs0mg"},{"bike_id":"1a5dfa7a-1d4a-4735-b35d-631116c77557","system_id":"levelo_inurba_marseille","lat":43.3172,"lon":5.42393,"is_reserved":false,"is_disabled":false,"rental_uris":{"android":"levelo://app?vid=1a5dfa7a-1d4a-4735-b35d-631116c77557","ios":"levelo://app?vid=1a5dfa7a-1d4a-4735-b35d-631116c77557"},"vehicle_type_id":"4","last_reported":1732478959,"current_range_meters":37600,"station_id":"ce4bhp92rcd13ifvqhbg","pricing_plan_id":"cebpf4jnsgd1na2vs0mg"},{"bike_id":"635f2088-37d7-4c7e-b140-3292398be605","system_id":"levelo_inurba_marseille","lat":43.24812,"lon":5.37457,"is_reserved":false,"is_disabled":false,"rental_uris":{"android":"levelo://app?vid=635f2088-37d7-4c7e-b140-3292398be605","ios":"levelo://app?vid=635f2088-37d7-4c7e-b140-3292398be605"},"vehicle_type_id":"4","last_reported":1732478959,"current_range_meters":34000,"station_id":"ce4bhgh2rcd13ifvqfb0","pricing_plan_id":"cebpf4jnsgd1na2vs0mg"},{"bike_id":"94ea0621-f4a7-439d-a447-d0137de72d2c","system_id":"levelo_inurba_marseille","lat":43.26805,"lon":5.40263,"is_reserved":false,"is_disabled":false,"rental_uris":{"android":"levelo://app?vid=94ea0621-f4a7-439d-a447-d0137de72d2c","ios":"levelo://app?vid=94ea0621-f4a7-439d-a447-d0137de72d2c"},"vehicle_type_id":"4","last_reported":1732478959,"current_range_meters":24800,"station_id":"ce501612rcd8frsf0b60","pricing_plan_id":"cebpf4jnsgd1na2vs0mg"},{"bike_id":"525a6fec-12b6-4b10-b3ff-4afa7f2fbcff","system_id":"levelo_inurba_marseille","lat":43.29012,"lon":5.38631,"is_reserved":false,"is_disabled":false,"rental_uris":{"android":"levelo://app?vid=525a6fec-12b6-4b10-b3ff-4afa7f2fbcff","ios":"levelo://app?vid=525a6fec-12b6-4b10-b3ff-4afa7f2fbcff"},"vehicle_type_id":"4","last_reported":1732478959,"current_range_meters":20800,"station_id":"ce4bh4p2rcd13ifvqe0g","pricing_plan_id":"cebpf4jnsgd1na2vs0mg"},{"bike_id":"8a4afc3d-cc84-4d9b-92f6-7c887d1122fb","system_id":"levelo_inurba_marseille","lat":43.29197,"lon":5.3931,"is_reserved":false,"is_disabled":false,"rental_uris":{"android":"levelo://app?vid=8a4afc3d-cc84-4d9b-92f6-7c887d1122fb","ios":"levelo://app?vid=8a4afc3d-cc84-4d9b-92f6-7c887d1122fb"},"vehicle_type_id":"4","last_reported":1732478959,"current_range_meters":38800,"station_id":"ce4bh192rcd13ifvqdd0","pricing_plan_id":"cebpf4jnsgd1na2vs0mg"},{"bike_id":"40ef2007-564f-49fc-8be7-96bbe8a9a72b","system_id":"levelo_inurba_marseille","lat":43.24175,"lon":5.39731,"is_reserved":false,"is_disabled":false,"rental_uris":{"android":"levelo://app?vid=40ef2007-564f-49fc-8be7-96bbe8a9a72b","ios":"levelo://app?vid=40ef2007-564f-49fc-8be7-96bbe8a9a72b"},"vehicle_type_id":"4","last_reported":1732478959,"current_range_meters":25600,"station_id":"ce4bhn12rcd13ifvqgpg","pricing_plan_id":"cebpf4jnsgd1na2vs0mg"},{"bike_id":"2671fb8a-3452-46fd-bec4-bd169133378c","system_id":"levelo_inurba_marseille","lat":43.2668,"lon":5.38273,"is_reserved":false,"is_disabled":true,"rental_uris":{"android":"levelo://app?vid=2671fb8a-3452-46fd-bec4-bd169133378c","ios":"levelo://app?vid=2671fb8a-3452-46fd-bec4-bd169133378c"},"vehicle_type_id":"4","last_reported":1732478959,"current_range_meters":38800,"station_id":"ce4bhg92rcd13ifvqf90","pricing_plan_id":"cebpf4jnsgd1na2vs0mg"},{"bike_id":"e924afe5-fac0-495e-ba30-f62afb6d5f8f","system_id":"levelo_inurba_marseille","lat":43.30589,"lon":5.37232,"is_reserved":false,"is_disabled":false,"rental_uris":{"android":"levelo://app?vid=e924afe5-fac0-495e-ba30-f62afb6d5f8f","ios":"levelo://app?vid=e924afe5-fac0-495e-ba30-f62afb6d5f8f"},"vehicle_type_id":"4","last_reported":1732478959,"current_range_meters":38400,"station_id":"ce4bgqh2rcd13ifvqc4g","pricing_plan_id":"cebpf4jnsgd1na2vs0mg"},{"bike_id":"0707a5ec-ea01-4994-b858-b1dd47dfc25d","system_id":"levelo_inurba_marseille","lat":43.2908,"lon":5.37183,"is_reserved":false,"is_disabled":false,"rental_uris":{"android":"levelo://app?vid=0707a5ec-ea01-4994-b858-b1dd47dfc25d","ios":"levelo://app?vid=0707a5ec-ea01-4994-b858-b1dd47dfc25d"},"vehicle_type_id":"4","last_reported":1732478959,"current_range_meters":38400,"station_id":"ce4bh5p2rcd13ifvqe4g","pricing_plan_id":"cebpf4jnsgd1na2vs0mg"},{"bike_id":"28f8ecf8-a7ae-4a32-aa4f-609e03eada5d","system_id":"levelo_inurba_marseille","lat":43.29532,"lon":5.38539,"is_reserved":false,"is_disabled":true,"rental_uris":{"android":"levelo://app?vid=28f8ecf8-a7ae-4a32-aa4f-609e03eada5d","ios":"levelo://app?vid=28f8ecf8-a7ae-4a32-aa4f-609e03eada5d"},"vehicle_type_id":"4","last_reported":1732478959,"current_range_meters":38000,"station_id":"ce4bgih2rcd13ifvqba0","pricing_plan_id":"cebpf4jnsgd1na2vs0mg"},{"bike_id":"8b56a362-167f-406c-8383-0af80cfbd41f","system_id":"levelo_inurba_marseille","lat":43.28194,"lon":5.39378,"is_reserved":false,"is_disabled":false,"rental_uris":{"android":"levelo://app?vid=8b56a362-167f-406c-8383-0af80cfbd41f","ios":"levelo://app?vid=8b56a362-167f-406c-8383-0af80cfbd41f"},"vehicle_type_id":"4","last_reported":1732478959,"current_range_meters":24000,"station_id":"ce4bho12rcd13ifvqh2g","pricing_plan_id":"cebpf4jnsgd1na2vs0mg"},{"bike_id":"858b65e1-94fc-4151-a71e-8b168cb19dcb","system_id":"levelo_inurba_marseille","lat":43.32249,"lon":5.39241,"is_reserved":false,"is_disabled":true,"rental_uris":{"android":"levelo://app?vid=858b65e1-94fc-4151-a71e-8b168cb19dcb","ios":"levelo://app?vid=858b65e1-94fc-4151-a71e-8b168cb19dcb"},"vehicle_type_id":"4","last_reported":1732478959,"current_range_meters":5600,"station_id":"","pricing_plan_id":"cebpf4jnsgd1na2vs0mg"},{"bike_id":"3642e313-d1ba-4ec4-a074-9625d1ce920b","system_id":"levelo_inurba_marseille","lat":43.27941,"lon":5.41037,"is_reserved":false,"is_disabled":true,"rental_uris":{"android":"levelo://app?vid=3642e313-d1ba-4ec4-a074-9625d1ce920b","ios":"levelo://app?vid=3642e313-d1ba-4ec4-a074-9625d1ce920b"},"vehicle_type_id":"4","last_reported":1732478959,"current_range_meters":400,"station_id":"ce4bhnp2rcd13ifvqh0g","pricing_plan_id":"cebpf4jnsgd1na2vs0mg"},{"bike_id":"60362aaf-ac32-44c3-a27d-58d661049095","system_id":"levelo_inurba_marseille","lat":43.29874,"lon":5.39742,"is_reserved":false,"is_disabled":false,"rental_uris":{"android":"levelo://app?vid=60362aaf-ac32-44c3-a27d-58d661049095","ios":"levelo://app?vid=60362aaf-ac32-44c3-a27d-58d661049095"},"vehicle_type_id":"4","last_reported":1732478959,"current_range_meters":15200,"station_id":"ce4bh0h2rcd13ifvqd50","pricing_plan_id":"cebpf4jnsgd1na2vs0mg"},{"bike_id":"25fe417d-7ca2-436f-8f12-5c22fe0583d6","system_id":"levelo_inurba_marseille","lat":43.29028,"lon":5.38627,"is_reserved":false,"is_disabled":false,"rental_uris":{"android":"levelo://app?vid=25fe417d-7ca2-436f-8f12-5c22fe0583d6","ios":"levelo://app?vid=25fe417d-7ca2-436f-8f12-5c22fe0583d6"},"vehicle_type_id":"4","last_reported":1732478959,"current_range_meters":10800,"station_id":"ce4bh4p2rcd13ifvqe0g","pricing_plan_id":"cebpf4jnsgd1na2vs0mg"},{"bike_id":"133c0635-6ac4-49a6-b3b8-4ad5dda949c5","system_id":"levelo_inurba_marseille","lat":43.31712,"lon":5.3773,"is_reserved":false,"is_disabled":true,"rental_uris":{"android":"levelo://app?vid=133c0635-6ac4-49a6-b3b8-4ad5dda949c5","ios":"levelo://app?vid=133c0635-6ac4-49a6-b3b8-4ad5dda949c5"},"vehicle_type_id":"4","last_reported":1732478959,"current_range_meters":37600,"station_id":"ce4bgth2rcd13ifvqch0","pricing_plan_id":"cebpf4jnsgd1na2vs0mg"},{"bike_id":"5b1848fc-624c-4c51-aee9-b2940f85a2d8","system_id":"levelo_inurba_marseille","lat":43.31698,"lon":5.37763,"is_reserved":false,"is_disabled":false,"rental_uris":{"android":"levelo://app?vid=5b1848fc-624c-4c51-aee9-b2940f85a2d8","ios":"levelo://app?vid=5b1848fc-624c-4c51-aee9-b2940f85a2d8"},"vehicle_type_id":"4","last_reported":1732478959,"current_range_meters":39200,"station_id":"ce4bgth2rcd13ifvqch0","pricing_plan_id":"cebpf4jnsgd1na2vs0mg"},{"bike_id":"1f7a2424-c270-4472-84c7-0f6ba57bbbb4","system_id":"levelo_inurba_marseille","lat":43.31374,"lon":5.38494,"is_reserved":false,"is_disabled":true,"rental_uris":{"android":"levelo://app?vid=1f7a2424-c270-4472-84c7-0f6ba57bbbb4","ios":"levelo://app?vid=1f7a2424-c270-4472-84c7-0f6ba57bbbb4"},"vehicle_type_id":"4","last_reported":1732478959,"current_range_meters":6800,"station_id":"ce4bgt92rcd13ifvqcf0","pricing_plan_id":"cebpf4jnsgd1na2vs0mg"},{"bike_id":"bb238d43-a600-4b96-a8d3-e84ce9536179","system_id":"levelo_inurba_marseille","lat":43.29443,"lon":5.39752,"is_reserved":false,"is_disabled":false,"rental_uris":{"android":"levelo://app?vid=bb238d43-a600-4b96-a8d3-e84ce9536179","ios":"levelo://app?vid=bb238d43-a600-4b96-a8d3-e84ce9536179"},"vehicle_type_id":"4","last_reported":1732478959,"current_range_meters":22400,"station_id":"ce4bh3h2rcd13ifvqdo0","pricing_plan_id":"cebpf4jnsgd1na2vs0mg"},{"bike_id":"72bd035c-1ca6-47d6-a90c-e060d6f1f853","system_id":"levelo_inurba_marseille","lat":43.29372,"lon":5.37862,"is_reserved":false,"is_disabled":false,"rental_uris":{"android":"levelo://app?vid=72bd035c-1ca6-47d6-a90c-e060d6f1f853","ios":"levelo://app?vid=72bd035c-1ca6-47d6-a90c-e060d6f1f853"},"vehicle_type_id":"4","last_reported":1732478959,"current_range_meters":38000,"station_id":"ce4bgjh2rcd13ifvqbf0","pricing_plan_id":"cebpf4jnsgd1na2vs0mg"},{"bike_id":"aacb2ed1-e434-437a-a9fb-464c857447f6","system_id":"levelo_inurba_marseille","lat":43.255,"lon":5.37649,"is_reserved":false,"is_disabled":false,"rental_uris":{"android":"levelo://app?vid=aacb2ed1-e434-437a-a9fb-464c857447f6","ios":"levelo://app?vid=aacb2ed1-e434-437a-a9fb-464c857447f6"},"vehicle_type_id":"4","last_reported":1732478959,"current_range_meters":38800,"station_id":"ce4bhh12rcd13ifvqff0","pricing_plan_id":"cebpf4jnsgd1na2vs0mg"},{"bike_id":"890ceff7-9bd1-4363-9716-427976dbddef","system_id":"levelo_inurba_marseille","lat":43.27203,"lon":5.3919,"is_reserved":false,"is_disabled":true,"rental_uris":{"android":"levelo://app?vid=890ceff7-9bd1-4363-9716-427976dbddef","ios":"levelo://app?vid=890ceff7-9bd1-4363-9716-427976dbddef"},"vehicle_type_id":"4","last_reported":1732478959,"current_range_meters":0,"station_id":"ce4bhhp2rcd13ifvqfm0","pricing_plan_id":"cebpf4jnsgd1na2vs0mg"},{"bike_id":"e41b76d3-2179-462b-930f-689d66af4790","system_id":"levelo_inurba_marseille","lat":43.2843,"lon":5.39184,"is_reserved":false,"is_disabled":false,"rental_uris":{"android":"levelo://app?vid=e41b76d3-2179-462b-930f-689d66af4790","ios":"levelo://app?vid=e41b76d3-2179-462b-930f-689d66af4790"},"vehicle_type_id":"4","last_reported":1732478959,"current_range_meters":28800,"station_id":"ce4bhoh2rcd13ifvqh5g","pricing_plan_id":"cebpf4jnsgd1na2vs0mg"},{"bike_id":"552ae1f9-34eb-4d70-a19b-3616d3661778","system_id":"levelo_inurba_marseille","lat":43.33716,"lon":5.39182,"is_reserved":false,"is_disabled":false,"rental_uris":{"android":"levelo://app?vid=552ae1f9-34eb-4d70-a19b-3616d3661778","ios":"levelo://app?vid=552ae1f9-34eb-4d70-a19b-3616d3661778"},"vehicle_type_id":"4","last_reported":1732478959,"current_range_meters":12800,"station_id":"ce4bhr92rcd13ifvqhsg","pricing_plan_id":"cebpf4jnsgd1na2vs0mg"},{"bike_id":"f7f3756c-1ec7-4782-9c87-6273f87b6774","system_id":"levelo_inurba_marseille","lat":43.337444,"lon":5.374475,"is_reserved":false,"is_disabled":true,"rental_uris":{"android":"levelo://app?vid=f7f3756c-1ec7-4782-9c87-6273f87b6774","ios":"levelo://app?vid=f7f3756c-1ec7-4782-9c87-6273f87b6774"},"vehicle_type_id":"4","last_reported":1732478959,"current_range_meters":27200,"station_id":"","pricing_plan_id":"cebpf4jnsgd1na2vs0mg"},{"bike_id":"740f162e-a0c7-4af9-899d-283ea1409dc6","system_id":"levelo_inurba_marseille","lat":43.26932,"lon":5.3892,"is_reserved":false,"is_disabled":true,"rental_uris":{"android":"levelo://app?vid=740f162e-a0c7-4af9-899d-283ea1409dc6","ios":"levelo://app?vid=740f162e-a0c7-4af9-899d-283ea1409dc6"},"vehicle_type_id":"4","last_reported":1732478959,"current_range_meters":29600,"station_id":"ce4bhhh2rcd13ifvqfl0","pricing_plan_id":"cebpf4jnsgd1na2vs0mg"},{"bike_id":"d8d94634-4ac1-4f5f-8651-7a99e522961a","system_id":"levelo_inurba_marseille","lat":43.26258,"lon":5.40303,"is_reserved":false,"is_disabled":false,"rental_uris":{"android":"levelo://app?vid=d8d94634-4ac1-4f5f-8651-7a99e522961a","ios":"levelo://app?vid=d8d94634-4ac1-4f5f-8651-7a99e522961a"},"vehicle_type_id":"4","last_reported":1732478959,"current_range_meters":27200,"station_id":"","pricing_plan_id":"cebpf4jnsgd1na2vs0mg"},{"bike_id":"d15ec145-5b46-4f26-a88f-38b32ce00010","system_id":"levelo_inurba_marseille","lat":43.29023,"lon":5.3864,"is_reserved":false,"is_disabled":false,"rental_uris":{"android":"levelo://app?vid=d15ec145-5b46-4f26-a88f-38b32ce00010","ios":"levelo://app?vid=d15ec145-5b46-4f26-a88f-38b32ce00010"},"vehicle_type_id":"4","last_reported":1732478959,"current_range_meters":37600,"station_id":"ce4bh4p2rcd13ifvqe0g","pricing_plan_id":"cebpf4jnsgd1na2vs0mg"},{"bike_id":"4d7bdc63-911c-4686-ae29-ea5461fb3d3f","system_id":"levelo_inurba_marseille","lat":43.28151,"lon":5.42642,"is_reserved":false,"is_disabled":false,"rental_uris":{"android":"levelo://app?vid=4d7bdc63-911c-4686-ae29-ea5461fb3d3f","ios":"levelo://app?vid=4d7bdc63-911c-4686-ae29-ea5461fb3d3f"},"vehicle_type_id":"4","last_reported":1732478959,"current_range_meters":39200,"station_id":"ce4bhnh2rcd13ifvqgug","pricing_plan_id":"cebpf4jnsgd1na2vs0mg"},{"bike_id":"48a45360-2eed-4466-a07c-843be0c2e6ea","system_id":"levelo_inurba_marseille","lat":43.29712,"lon":5.37722,"is_reserved":false,"is_disabled":false,"rental_uris":{"android":"levelo://app?vid=48a45360-2eed-4466-a07c-843be0c2e6ea","ios":"levelo://app?vid=48a45360-2eed-4466-a07c-843be0c2e6ea"},"vehicle_type_id":"4","last_reported":1732478959,"current_range_meters":38800,"station_id":"","pricing_plan_id":"cebpf4jnsgd1na2vs0mg"},{"bike_id":"c99f82a6-1e75-4069-adf7-8d3dd61d2d09","system_id":"levelo_inurba_marseille","lat":43.29899,"lon":5.43652,"is_reserved":false,"is_disabled":false,"rental_uris":{"android":"levelo://app?vid=c99f82a6-1e75-4069-adf7-8d3dd61d2d09","ios":"levelo://app?vid=c99f82a6-1e75-4069-adf7-8d3dd61d2d09"},"vehicle_type_id":"4","last_reported":1732478959,"current_range_meters":14400,"station_id":"ce4bhpp2rcd13ifvqhfg","pricing_plan_id":"cebpf4jnsgd1na2vs0mg"},{"bike_id":"96fef04f-f424-4b1e-a003-fc645e04ed3a","system_id":"levelo_inurba_marseille","lat":43.27375,"lon":5.36251,"is_reserved":false,"is_disabled":true,"rental_uris":{"android":"levelo://app?vid=96fef04f-f424-4b1e-a003-fc645e04ed3a","ios":"levelo://app?vid=96fef04f-f424-4b1e-a003-fc645e04ed3a"},"vehicle_type_id":"4","last_reported":1732478959,"current_range_meters":29600,"station_id":"ce4bhbh2rcd13ifvqeo0","pricing_plan_id":"cebpf4jnsgd1na2vs0mg"},{"bike_id":"b7b61d62-d3cf-45c0-ae9e-f05215122577","system_id":"levelo_inurba_marseille","lat":43.30927,"lon":5.40147,"is_reserved":false,"is_disabled":true,"rental_uris":{"android":"levelo://app?vid=b7b61d62-d3cf-45c0-ae9e-f05215122577","ios":"levelo://app?vid=b7b61d62-d3cf-45c0-ae9e-f05215122577"},"vehicle_type_id":"4","last_reported":1732478959,"current_range_meters":0,"station_id":"ce4bgvp2rcd13ifvqct0","pricing_plan_id":"cebpf4jnsgd1na2vs0mg"},{"bike_id":"92aaf2ae-6395-4985-bda4-652f2001ddbe","system_id":"levelo_inurba_marseille","lat":43.27561,"lon":5.38426,"is_reserved":false,"is_disabled":false,"rental_uris":{"android":"levelo://app?vid=92aaf2ae-6395-4985-bda4-652f2001ddbe","ios":"levelo://app?vid=92aaf2ae-6395-4985-bda4-652f2001ddbe"},"vehicle_type_id":"4","last_reported":1732478959,"current_range_meters":39200,"station_id":"ce4bhh92rcd13ifvqfi0","pricing_plan_id":"cebpf4jnsgd1na2vs0mg"},{"bike_id":"7f89b812-16cb-4135-bc5f-efa2b244ec26","system_id":"levelo_inurba_marseille","lat":43.26558,"lon":5.37283,"is_reserved":false,"is_disabled":true,"rental_uris":{"android":"levelo://app?vid=7f89b812-16cb-4135-bc5f-efa2b244ec26","ios":"levelo://app?vid=7f89b812-16cb-4135-bc5f-efa2b244ec26"},"vehicle_type_id":"4","last_reported":1732478959,"current_range_meters":38800,"station_id":"ce4bhg12rcd13ifvqf70","pricing_plan_id":"cebpf4jnsgd1na2vs0mg"},{"bike_id":"e2f0ef73-8018-4db5-80ea-af7dd90396dd","system_id":"levelo_inurba_marseille","lat":43.28154,"lon":5.42642,"is_reserved":false,"is_disabled":false,"rental_uris":{"android":"levelo://app?vid=e2f0ef73-8018-4db5-80ea-af7dd90396dd","ios":"levelo://app?vid=e2f0ef73-8018-4db5-80ea-af7dd90396dd"},"vehicle_type_id":"4","last_reported":1732478959,"current_range_meters":23200,"station_id":"ce4bhnh2rcd13ifvqgug","pricing_plan_id":"cebpf4jnsgd1na2vs0mg"},{"bike_id":"86ec5835-1e76-4455-9969-54b44bba3755","system_id":"levelo_inurba_marseille","lat":43.32478,"lon":5.36539,"is_reserved":false,"is_disabled":false,"rental_uris":{"android":"levelo://app?vid=86ec5835-1e76-4455-9969-54b44bba3755","ios":"levelo://app?vid=86ec5835-1e76-4455-9969-54b44bba3755"},"vehicle_type_id":"4","last_reported":1732478959,"current_range_meters":39200,"station_id":"ce4bhs12rcd13ifvqhvg","pricing_plan_id":"cebpf4jnsgd1na2vs0mg"},{"bike_id":"0ed83b47-52ec-43b9-b2f6-22975bee1154","system_id":"levelo_inurba_marseille","lat":43.27571,"lon":5.38429,"is_reserved":false,"is_disabled":false,"rental_uris":{"android":"levelo://app?vid=0ed83b47-52ec-43b9-b2f6-22975bee1154","ios":"levelo://app?vid=0ed83b47-52ec-43b9-b2f6-22975bee1154"},"vehicle_type_id":"4","last_reported":1732478959,"current_range_meters":30800,"station_id":"ce4bhh92rcd13ifvqfi0","pricing_plan_id":"cebpf4jnsgd1na2vs0mg"},{"bike_id":"8bb9b9a0-fc62-4ed7-87e4-cc7fb81aba60","system_id":"levelo_inurba_marseille","lat":43.33611,"lon":5.41021,"is_reserved":false,"is_disabled":false,"rental_uris":{"android":"levelo://app?vid=8bb9b9a0-fc62-4ed7-87e4-cc7fb81aba60","ios":"levelo://app?vid=8bb9b9a0-fc62-4ed7-87e4-cc7fb81aba60"},"vehicle_type_id":"4","last_reported":1732478959,"current_range_meters":20800,"station_id":"ce4bhqh2rcd13ifvqhmg","pricing_plan_id":"cebpf4jnsgd1na2vs0mg"},{"bike_id":"63e5c75a-30c8-4be5-8ec8-448fdf89dbb8","system_id":"levelo_inurba_marseille","lat":43.23065,"lon":5.35489,"is_reserved":false,"is_disabled":false,"rental_uris":{"android":"levelo://app?vid=63e5c75a-30c8-4be5-8ec8-448fdf89dbb8","ios":"levelo://app?vid=63e5c75a-30c8-4be5-8ec8-448fdf89dbb8"},"vehicle_type_id":"4","last_reported":1732478959,"current_range_meters":38800,"station_id":"cpo3342slgdg3j2ifvpg","pricing_plan_id":"cebpf4jnsgd1na2vs0mg"},{"bike_id":"cd8f5861-257e-45e4-97b1-d267fecf32b5","system_id":"levelo_inurba_marseille","lat":43.29788,"lon":5.39335,"is_reserved":false,"is_disabled":false,"rental_uris":{"android":"levelo://app?vid=cd8f5861-257e-45e4-97b1-d267fecf32b5","ios":"levelo://app?vid=cd8f5861-257e-45e4-97b1-d267fecf32b5"},"vehicle_type_id":"4","last_reported":1732478959,"current_range_meters":38800,"station_id":"chh1huq6cuj3fo74tm60","pricing_plan_id":"cebpf4jnsgd1na2vs0mg"},{"bike_id":"1e193d09-2cb0-4798-8e19-b0516f3ebb8e","system_id":"levelo_inurba_marseille","lat":43.28161,"lon":5.42626,"is_reserved":false,"is_disabled":false,"rental_uris":{"android":"levelo://app?vid=1e193d09-2cb0-4798-8e19-b0516f3ebb8e","ios":"levelo://app?vid=1e193d09-2cb0-4798-8e19-b0516f3ebb8e"},"vehicle_type_id":"4","last_reported":1732478959,"current_range_meters":18800,"station_id":"ce4bhnh2rcd13ifvqgug","pricing_plan_id":"cebpf4jnsgd1na2vs0mg"},{"bike_id":"d9511c65-c897-4fa5-8eab-bc1ed0e9b27c","system_id":"levelo_inurba_marseille","lat":43.28105,"lon":5.37835,"is_reserved":false,"is_disabled":false,"rental_uris":{"android":"levelo://app?vid=d9511c65-c897-4fa5-8eab-bc1ed0e9b27c","ios":"levelo://app?vid=d9511c65-c897-4fa5-8eab-bc1ed0e9b27c"},"vehicle_type_id":"4","last_reported":1732478959,"current_range_meters":27200,"station_id":"ce4bha12rcd13ifvqee0","pricing_plan_id":"cebpf4jnsgd1na2vs0mg"},{"bike_id":"0f22f840-4bd2-413b-a326-5e9bb8c6febb","system_id":"levelo_inurba_marseille","lat":43.28151,"lon":5.42645,"is_reserved":false,"is_disabled":false,"rental_uris":{"android":"levelo://app?vid=0f22f840-4bd2-413b-a326-5e9bb8c6febb","ios":"levelo://app?vid=0f22f840-4bd2-413b-a326-5e9bb8c6febb"},"vehicle_type_id":"4","last_reported":1732478959,"current_range_meters":32800,"station_id":"ce4bhnh2rcd13ifvqgug","pricing_plan_id":"cebpf4jnsgd1na2vs0mg"},{"bike_id":"51d74728-0ad8-4b1f-bd56-b2a92408b0ee","system_id":"levelo_inurba_marseille","lat":43.293,"lon":5.37163,"is_reserved":false,"is_disabled":false,"rental_uris":{"android":"levelo://app?vid=51d74728-0ad8-4b1f-bd56-b2a92408b0ee","ios":"levelo://app?vid=51d74728-0ad8-4b1f-bd56-b2a92408b0ee"},"vehicle_type_id":"4","last_reported":1732478959,"current_range_meters":39200,"station_id":"ce4bgh92rcd13ifvqb40","pricing_plan_id":"cebpf4jnsgd1na2vs0mg"},{"bike_id":"319287df-687a-4519-8559-afdae3b3272f","system_id":"levelo_inurba_marseille","lat":43.29788,"lon":5.38106,"is_reserved":false,"is_disabled":true,"rental_uris":{"android":"levelo://app?vid=319287df-687a-4519-8559-afdae3b3272f","ios":"levelo://app?vid=319287df-687a-4519-8559-afdae3b3272f"},"vehicle_type_id":"4","last_reported":1732478959,"current_range_meters":32800,"station_id":"ce4bgip2rcd13ifvqbb0","pricing_plan_id":"cebpf4jnsgd1na2vs0mg"},{"bike_id":"bca3fd95-577b-4655-a940-7281cdb56793","system_id":"levelo_inurba_marseille","lat":43.2803,"lon":5.36936,"is_reserved":false,"is_disabled":true,"rental_uris":{"android":"levelo://app?vid=bca3fd95-577b-4655-a940-7281cdb56793","ios":"levelo://app?vid=bca3fd95-577b-4655-a940-7281cdb56793"},"vehicle_type_id":"4","last_reported":1732478959,"current_range_meters":33600,"station_id":"ce4bha12rcd13ifvqef0","pricing_plan_id":"cebpf4jnsgd1na2vs0mg"},{"bike_id":"e5951ee3-4a5a-4ebb-b469-096c5188dfa3","system_id":"levelo_inurba_marseille","lat":43.2319,"lon":5.35548,"is_reserved":false,"is_disabled":false,"rental_uris":{"android":"levelo://app?vid=e5951ee3-4a5a-4ebb-b469-096c5188dfa3","ios":"levelo://app?vid=e5951ee3-4a5a-4ebb-b469-096c5188dfa3"},"vehicle_type_id":"4","last_reported":1732478959,"current_range_meters":16400,"station_id":"ce4bhu92rcd13ifvqi70","pricing_plan_id":"cebpf4jnsgd1na2vs0mg"},{"bike_id":"41d2ae0a-43c4-4106-affd-c6c7a1fee43e","system_id":"levelo_inurba_marseille","lat":43.31269,"lon":5.40177,"is_reserved":false,"is_disabled":false,"rental_uris":{"android":"levelo://app?vid=41d2ae0a-43c4-4106-affd-c6c7a1fee43e","ios":"levelo://app?vid=41d2ae0a-43c4-4106-affd-c6c7a1fee43e"},"vehicle_type_id":"4","last_reported":1732478959,"current_range_meters":31200,"station_id":"ce4bh092rcd13ifvqd30","pricing_plan_id":"cebpf4jnsgd1na2vs0mg"},{"bike_id":"b87fb45a-63a8-4f4b-803e-b999bbc8b612","system_id":"levelo_inurba_marseille","lat":43.2953,"lon":5.37506,"is_reserved":false,"is_disabled":false,"rental_uris":{"android":"levelo://app?vid=b87fb45a-63a8-4f4b-803e-b999bbc8b612","ios":"levelo://app?vid=b87fb45a-63a8-4f4b-803e-b999bbc8b612"},"vehicle_type_id":"4","last_reported":1732478959,"current_range_meters":38800,"station_id":"ce4bgkp2rcd13ifvqbmg","pricing_plan_id":"cebpf4jnsgd1na2vs0mg"},{"bike_id":"faf5578c-0192-4498-85b2-0cb319dbdd62","system_id":"levelo_inurba_marseille","lat":43.29872,"lon":5.39742,"is_reserved":false,"is_disabled":false,"rental_uris":{"android":"levelo://app?vid=faf5578c-0192-4498-85b2-0cb319dbdd62","ios":"levelo://app?vid=faf5578c-0192-4498-85b2-0cb319dbdd62"},"vehicle_type_id":"4","last_reported":1732478959,"current_range_meters":38000,"station_id":"ce4bh0h2rcd13ifvqd50","pricing_plan_id":"cebpf4jnsgd1na2vs0mg"},{"bike_id":"1c9726f5-9b20-4fea-9e19-49073c76346c","system_id":"levelo_inurba_marseille","lat":43.28458,"lon":5.35897,"is_reserved":false,"is_disabled":false,"rental_uris":{"android":"levelo://app?vid=1c9726f5-9b20-4fea-9e19-49073c76346c","ios":"levelo://app?vid=1c9726f5-9b20-4fea-9e19-49073c76346c"},"vehicle_type_id":"4","last_reported":1732478959,"current_range_meters":31200,"station_id":"ce4bhah2rcd13ifvqei0","pricing_plan_id":"cebpf4jnsgd1na2vs0mg"},{"bike_id":"aa868749-7868-48ee-914f-11e0d8f975f5","system_id":"levelo_inurba_marseille","lat":43.27809,"lon":5.40709,"is_reserved":false,"is_disabled":false,"rental_uris":{"android":"levelo://app?vid=aa868749-7868-48ee-914f-11e0d8f975f5","ios":"levelo://app?vid=aa868749-7868-48ee-914f-11e0d8f975f5"},"vehicle_type_id":"4","last_reported":1732478959,"current_range_meters":39200,"station_id":"ce4bhnh2rcd13ifvqgtg","pricing_plan_id":"cebpf4jnsgd1na2vs0mg"},{"bike_id":"81a37cae-e9cf-459f-9399-7a89da6edc9b","system_id":"levelo_inurba_marseille","lat":43.30364,"lon":5.45123,"is_reserved":false,"is_disabled":false,"rental_uris":{"android":"levelo://app?vid=81a37cae-e9cf-459f-9399-7a89da6edc9b","ios":"levelo://app?vid=81a37cae-e9cf-459f-9399-7a89da6edc9b"},"vehicle_type_id":"4","last_reported":1732478959,"current_range_meters":3200,"station_id":"","pricing_plan_id":"cebpf4jnsgd1na2vs0mg"},{"bike_id":"6c948e9c-d5b3-4fe5-a918-1bd2f7c83b02","system_id":"levelo_inurba_marseille","lat":43.32109,"lon":5.3677,"is_reserved":false,"is_disabled":false,"rental_uris":{"android":"levelo://app?vid=6c948e9c-d5b3-4fe5-a918-1bd2f7c83b02","ios":"levelo://app?vid=6c948e9c-d5b3-4fe5-a918-1bd2f7c83b02"},"vehicle_type_id":"4","last_reported":1732478959,"current_range_meters":27600,"station_id":"ce4bhrh2rcd13ifvqhug","pricing_plan_id":"cebpf4jnsgd1na2vs0mg"},{"bike_id":"9e620abf-d324-4f99-84fc-d67e71109f2a","system_id":"levelo_inurba_marseille","lat":43.31077,"lon":5.42435,"is_reserved":false,"is_disabled":true,"rental_uris":{"android":"levelo://app?vid=9e620abf-d324-4f99-84fc-d67e71109f2a","ios":"levelo://app?vid=9e620abf-d324-4f99-84fc-d67e71109f2a"},"vehicle_type_id":"4","last_reported":1732478959,"current_range_meters":0,"station_id":"ce4bhp92rcd13ifvqhag","pricing_plan_id":"cebpf4jnsgd1na2vs0mg"},{"bike_id":"9388a7ff-9c5c-4c26-9899-39b2408cf7e3","system_id":"levelo_inurba_marseille","lat":43.31025,"lon":5.38342,"is_reserved":false,"is_disabled":true,"rental_uris":{"android":"levelo://app?vid=9388a7ff-9c5c-4c26-9899-39b2408cf7e3","ios":"levelo://app?vid=9388a7ff-9c5c-4c26-9899-39b2408cf7e3"},"vehicle_type_id":"4","last_reported":1732478959,"current_range_meters":0,"station_id":"","pricing_plan_id":"cebpf4jnsgd1na2vs0mg"},{"bike_id":"b80fe8eb-2485-4397-a260-983597d9f13d","system_id":"levelo_inurba_marseille","lat":43.26784,"lon":5.39412,"is_reserved":false,"is_disabled":false,"rental_uris":{"android":"levelo://app?vid=b80fe8eb-2485-4397-a260-983597d9f13d","ios":"levelo://app?vid=b80fe8eb-2485-4397-a260-983597d9f13d"},"vehicle_type_id":"4","last_reported":1732478959,"current_range_meters":22000,"station_id":"ce4bhh12rcd13ifvqfg0","pricing_plan_id":"cebpf4jnsgd1na2vs0mg"},{"bike_id":"856a5e06-853f-4357-9743-2c9aebf27978","system_id":"levelo_inurba_marseille","lat":43.28938,"lon":5.3664,"is_reserved":false,"is_disabled":false,"rental_uris":{"android":"levelo://app?vid=856a5e06-853f-4357-9743-2c9aebf27978","ios":"levelo://app?vid=856a5e06-853f-4357-9743-2c9aebf27978"},"vehicle_type_id":"4","last_reported":1732478959,"current_range_meters":36000,"station_id":"ce4bhap2rcd13ifvqek0","pricing_plan_id":"cebpf4jnsgd1na2vs0mg"},{"bike_id":"623efcdd-d051-4505-909d-c52e6c52245f","system_id":"levelo_inurba_marseille","lat":43.32369,"lon":5.38884,"is_reserved":false,"is_disabled":true,"rental_uris":{"android":"levelo://app?vid=623efcdd-d051-4505-909d-c52e6c52245f","ios":"levelo://app?vid=623efcdd-d051-4505-909d-c52e6c52245f"},"vehicle_type_id":"4","last_reported":1732478959,"current_range_meters":7200,"station_id":"ce4bhqp2rcd13ifvqhog","pricing_plan_id":"cebpf4jnsgd1na2vs0mg"},{"bike_id":"c3becaae-f371-445e-a6ba-ef2637fa5b00","system_id":"levelo_inurba_marseille","lat":43.31884,"lon":5.40731,"is_reserved":false,"is_disabled":false,"rental_uris":{"android":"levelo://app?vid=c3becaae-f371-445e-a6ba-ef2637fa5b00","ios":"levelo://app?vid=c3becaae-f371-445e-a6ba-ef2637fa5b00"},"vehicle_type_id":"4","last_reported":1732478959,"current_range_meters":10000,"station_id":"ce4bhq12rcd13ifvqhig","pricing_plan_id":"cebpf4jnsgd1na2vs0mg"},{"bike_id":"e21bb65c-40a6-49c9-8a12-5c973287c62b","system_id":"levelo_inurba_marseille","lat":43.28345,"lon":5.38093,"is_reserved":false,"is_disabled":false,"rental_uris":{"android":"levelo://app?vid=e21bb65c-40a6-49c9-8a12-5c973287c62b","ios":"levelo://app?vid=e21bb65c-40a6-49c9-8a12-5c973287c62b"},"vehicle_type_id":"4","last_reported":1732478959,"current_range_meters":35600,"station_id":"ce4bh412rcd13ifvqdr0","pricing_plan_id":"cebpf4jnsgd1na2vs0mg"},{"bike_id":"176f5089-3109-43a7-b319-4229c23caee6","system_id":"levelo_inurba_marseille","lat":43.32651,"lon":5.40996,"is_reserved":false,"is_disabled":false,"rental_uris":{"android":"levelo://app?vid=176f5089-3109-43a7-b319-4229c23caee6","ios":"levelo://app?vid=176f5089-3109-43a7-b319-4229c23caee6"},"vehicle_type_id":"4","last_reported":1732478959,"current_range_meters":37600,"station_id":"ce4bhpp2rcd13ifvqhgg","pricing_plan_id":"cebpf4jnsgd1na2vs0mg"},{"bike_id":"5c53cfbd-2547-413a-b79a-f8cc3b1ca992","system_id":"levelo_inurba_marseille","lat":43.3211,"lon":5.3677,"is_reserved":false,"is_disabled":false,"rental_uris":{"android":"levelo://app?vid=5c53cfbd-2547-413a-b79a-f8cc3b1ca992","ios":"levelo://app?vid=5c53cfbd-2547-413a-b79a-f8cc3b1ca992"},"vehicle_type_id":"4","last_reported":1732478959,"current_range_meters":38800,"station_id":"ce4bhrh2rcd13ifvqhug","pricing_plan_id":"cebpf4jnsgd1na2vs0mg"},{"bike_id":"210a35fe-4338-4232-95a7-7fea277b2632","system_id":"levelo_inurba_marseille","lat":43.24068,"lon":5.37767,"is_reserved":false,"is_disabled":false,"rental_uris":{"android":"levelo://app?vid=210a35fe-4338-4232-95a7-7fea277b2632","ios":"levelo://app?vid=210a35fe-4338-4232-95a7-7fea277b2632"},"vehicle_type_id":"4","last_reported":1732478959,"current_range_meters":38800,"station_id":"ce4bhnp2rcd13ifvqgvg","pricing_plan_id":"cebpf4jnsgd1na2vs0mg"},{"bike_id":"332eda1b-ff9e-42f1-98f6-6313810fb93e","system_id":"levelo_inurba_marseille","lat":43.29365,"lon":5.37845,"is_reserved":false,"is_disabled":false,"rental_uris":{"android":"levelo://app?vid=332eda1b-ff9e-42f1-98f6-6313810fb93e","ios":"levelo://app?vid=332eda1b-ff9e-42f1-98f6-6313810fb93e"},"vehicle_type_id":"4","last_reported":1732478959,"current_range_meters":30800,"station_id":"ce4bgjh2rcd13ifvqbf0","pricing_plan_id":"cebpf4jnsgd1na2vs0mg"},{"bike_id":"04b9c9cb-be15-44a7-9bdc-6d22ca715c34","system_id":"levelo_inurba_marseille","lat":43.33723,"lon":5.39179,"is_reserved":false,"is_disabled":false,"rental_uris":{"android":"levelo://app?vid=04b9c9cb-be15-44a7-9bdc-6d22ca715c34","ios":"levelo://app?vid=04b9c9cb-be15-44a7-9bdc-6d22ca715c34"},"vehicle_type_id":"4","last_reported":1732478959,"current_range_meters":24000,"station_id":"ce4bhr92rcd13ifvqhsg","pricing_plan_id":"cebpf4jnsgd1na2vs0mg"},{"bike_id":"ee0ae878-8acd-42c2-8a69-6e3c56fa3a6f","system_id":"levelo_inurba_marseille","lat":43.27177,"lon":5.41001,"is_reserved":false,"is_disabled":false,"rental_uris":{"android":"levelo://app?vid=ee0ae878-8acd-42c2-8a69-6e3c56fa3a6f","ios":"levelo://app?vid=ee0ae878-8acd-42c2-8a69-6e3c56fa3a6f"},"vehicle_type_id":"4","last_reported":1732478959,"current_range_meters":24000,"station_id":"ce4bhl12rcd13ifvqgf0","pricing_plan_id":"cebpf4jnsgd1na2vs0mg"},{"bike_id":"1600827b-08cc-42ec-8166-641d92381647","system_id":"levelo_inurba_marseille","lat":43.34143,"lon":5.40899,"is_reserved":false,"is_disabled":false,"rental_uris":{"android":"levelo://app?vid=1600827b-08cc-42ec-8166-641d92381647","ios":"levelo://app?vid=1600827b-08cc-42ec-8166-641d92381647"},"vehicle_type_id":"4","last_reported":1732478959,"current_range_meters":11600,"station_id":"ce4bhqh2rcd13ifvqhlg","pricing_plan_id":"cebpf4jnsgd1na2vs0mg"},{"bike_id":"43ef1878-08c8-43ce-8a84-e0d20cc2548c","system_id":"levelo_inurba_marseille","lat":43.25935,"lon":5.409,"is_reserved":false,"is_disabled":false,"rental_uris":{"android":"levelo://app?vid=43ef1878-08c8-43ce-8a84-e0d20cc2548c","ios":"levelo://app?vid=43ef1878-08c8-43ce-8a84-e0d20cc2548c"},