{"last_updated":1758895697,"ttl":60,"version":"2.2","data":{"bikes":[{"bike_id":"5ed383bd-9fff-48d2-910e-a12760085b5a","system_id":"levelo_inurba_marseille","lat":43.22933,"lon":5.35374,"is_reserved":false,"is_disabled":false,"rental_uris":{"android":"levelo://app?vid=5ed383bd-9fff-48d2-910e-a12760085b5a","ios":"levelo://app?vid=5ed383bd-9fff-48d2-910e-a12760085b5a"},"vehicle_type_id":"4","last_reported":1758895697,"current_range_meters":2800,"station_id":"cpo3532slgdg3j2ikp40","pricing_plan_id":"cebpf4jnsgd1na2vs0mg"},{"bike_id":"d89973b9-472b-4da9-8652-820acd3685e2","system_id":"levelo_inurba_marseille","lat":43.25867,"lon":5.39893,"is_reserved":false,"is_disabled":false,"rental_uris":{"android":"levelo://app?vid=d89973b9-472b-4da9-8652-820acd3685e2","ios":"levelo://app?vid=d89973b9-472b-4da9-8652-820acd3685e2"},"vehicle_type_id":"4","last_reported":1758895697,"current_range_meters":2000,"station_id":"ce4bhl92rcd13ifvqghg","pricing_plan_id":"cebpf4jnsgd1na2vs0mg"},{"bike_id":"0c8e7c8f-af0d-46a4-ab1d-f4d437f03358","system_id":"levelo_inurba_marseille","lat":43.2495,"lon":5.40497,"is_reserved":false,"is_disabled":false,"rental_uris":{"android":"levelo://app?vid=0c8e7c8f-af0d-46a4-ab1d-f4d437f03358","ios":"levelo://app?vid=0c8e7c8f-af0d-46a4-ab1d-f4d437f03358"},"vehicle_type_id":"4","last_reported":1758895697,"current_range_meters":2800,"station_id":"st_d2ngiaodas8pm72gd1h0","pricing_plan_id":"cebpf4jnsgd1na2vs0mg"},{"bike_id":"d5315e9a-8170-4de4-894a-c9f870a5f7b9","system_id":"levelo_inurba_marseille","lat":43.29038,"lon":5.38653,"is_reserved":false,"is_disabled":false,"rental_uris":{"android":"levelo://app?vid=d5315e9a-8170-4de4-894a-c9f870a5f7b9","ios":"levelo://app?vid=d5315e9a-8170-4de4-894a-c9f870a5f7b9"},"vehicle_type_id":"4","last_reported":1758895697,"current_range_meters":2800,"station_id":"ce4bh4p2rcd13ifvqe0g","pricing_plan_id":"cebpf4jnsgd1na2vs0mg"},{"bike_id":"cbf812cf-a730-4f75-8561-09c67e6087ef","system_id":"levelo_inurba_marseille","lat":43.30295,"lon":5.39209,"is_reserved":false,"is_disabled":false,"rental_uris":{"android":"levelo://app?vid=cbf812cf-a730-4f75-8561-09c67e6087ef","ios":"levelo://app?vid=cbf812cf-a730-4f75-8561-09c67e6087ef"},"vehicle_type_id":"4","last_reported":1758895697,"current_range_meters":2800,"station_id":"ce4bgkh2rcd13ifvqbk0","pricing_plan_id":"cebpf4jnsgd1na2vs0mg"},{"bike_id":"02811668-7fce-4590-ba77-4c62b3cbcebc","system_id":"levelo_inurba_marseille","lat":43.27916,"lon":5.39574,"is_reserved":false,"is_disabled":false,"rental_uris":{"android":"levelo://app?vid=02811668-7fce-4590-ba77-4c62b3cbcebc","ios":"levelo://app?vid=02811668-7fce-4590-ba77-4c62b3cbcebc"},"vehicle_type_id":"4","last_reported":1758895697,"current_range_meters":2800,"station_id":"ce4bhf92rcd13ifvqf40","pricing_plan_id":"cebpf4jnsgd1na2vs0mg"},{"bike_id":"565a0112-5b88-4a6f-8df7-08b703407b4f","system_id":"levelo_inurba_marseille","lat":43.21188,"lon":5.35067,"is_reserved":false,"is_disabled":false,"rental_uris":{"android":"levelo://app?vid=565a0112-5b88-4a6f-8df7-08b703407b4f","ios":"levelo://app?vid=565a0112-5b88-4a6f-8df7-08b703407b4f"},"vehicle_type_id":"4","last_reported":1758895697,"current_range_meters":3200,"station_id":"","pricing_plan_id":"cebpf4jnsgd1na2vs0mg"},{"bike_id":"342a853f-b969-464f-ac7c-b401d49e5d8e","system_id":"levelo_inurba_marseille","lat":43.29026,"lon":5.38629,"is_reserved":false,"is_disabled":false,"rental_uris":{"android":"levelo://app?vid=342a853f-b969-464f-ac7c-b401d49e5d8e","ios":"levelo://app?vid=342a853f-b969-464f-ac7c-b401d49e5d8e"},"vehicle_type_id":"4","last_reported":1758895697,"current_range_meters":3200,"station_id":"ce4bh4p2rcd13ifvqe0g","pricing_plan_id":"cebpf4jnsgd1na2vs0mg"},{"bike_id":"f334c2a1-0747-4a02-ace6-7f391c97ee86","system_id":"levelo_inurba_marseille","lat":43.29525,"lon":5.390605,"is_reserved":false,"is_disabled":false,"rental_uris":{"android":"levelo://app?vid=f334c2a1-0747-4a02-ace6-7f391c97ee86","ios":"levelo://app?vid=f334c2a1-0747-4a02-ace6-7f391c97ee86"},"vehicle_type_id":"4","last_reported":1758895697,"current_range_meters":2800,"station_id":"ce4bh3p2rcd13ifvqdp0","pricing_plan_id":"cebpf4jnsgd1na2vs0mg"},{"bike_id":"438ead59-de14-4fa0-a61d-03a70a4122ae","system_id":"levelo_inurba_marseille","lat":43.97269,"lon":4.89111,"is_reserved":false,"is_disabled":true,"rental_uris":{"android":"levelo://app?vid=438ead59-de14-4fa0-a61d-03a70a4122ae","ios":"levelo://app?vid=438ead59-de14-4fa0-a61d-03a70a4122ae"},"vehicle_type_id":"4","last_reported":1758895697,"current_range_meters":3600,"station_id":"","pricing_plan_id":"cebpf4jnsgd1na2vs0mg"},{"bike_id":"0c81b40b-1c40-4984-9001-de11236803c2","system_id":"levelo_inurba_marseille","lat":43.25091,"lon":5.39511,"is_reserved":false,"is_disabled":false,"rental_uris":{"android":"levelo://app?vid=0c81b40b-1c40-4984-9001-de11236803c2","ios":"levelo://app?vid=0c81b40b-1c40-4984-9001-de11236803c2"},"vehicle_type_id":"4","last_reported":1758895697,"current_range_meters":4000,"station_id":"ce4bhm12rcd13ifvqgkg","pricing_plan_id":"cebpf4jnsgd1na2vs0mg"},{"bike_id":"58bb5874-016b-43e6-91e4-daffc7a99f23","system_id":"levelo_inurba_marseille","lat":43.27916,"lon":5.39581,"is_reserved":false,"is_disabled":false,"rental_uris":{"android":"levelo://app?vid=58bb5874-016b-43e6-91e4-daffc7a99f23","ios":"levelo://app?vid=58bb5874-016b-43e6-91e4-daffc7a99f23"},"vehicle_type_id":"4","last_reported":1758895697,"current_range_meters":4000,"station_id":"ce4bhf92rcd13ifvqf40","pricing_plan_id":"cebpf4jnsgd1na2vs0mg"},{"bike_id":"9f44156a-5781-4567-8fc3-96b635cf597f","system_id":"levelo_inurba_marseille","lat":43.29042,"lon":5.38103,"is_reserved":false,"is_disabled":false,"rental_uris":{"android":"levelo://app?vid=9f44156a-5781-4567-8fc3-96b635cf597f","ios":"levelo://app?vid=9f44156a-5781-4567-8fc3-96b635cf597f"},"vehicle_type_id":"4","last_reported":1758895697,"current_range_meters":4000,"station_id":"ce4bh4p2rcd13ifvqe1g","pricing_plan_id":"cebpf4jnsgd1na2vs0mg"},{"bike_id":"afc6d80e-8407-4906-aa36-e5fe63573267","system_id":"levelo_inurba_marseille","lat":43.27995,"lon":5.4166,"is_reserved":false,"is_disabled":false,"rental_uris":{"android":"levelo://app?vid=afc6d80e-8407-4906-aa36-e5fe63573267","ios":"levelo://app?vid=afc6d80e-8407-4906-aa36-e5fe63573267"},"vehicle_type_id":"4","last_reported":1758895697,"current_range_meters":4000,"station_id":"ce4bho12rcd13ifvqh1g","pricing_plan_id":"cebpf4jnsgd1na2vs0mg"},{"bike_id":"dc83b389-be29-47b3-9d83-bf255ca3977a","system_id":"levelo_inurba_marseille","lat":43.28106,"lon":5.37835,"is_reserved":false,"is_disabled":false,"rental_uris":{"android":"levelo://app?vid=dc83b389-be29-47b3-9d83-bf255ca3977a","ios":"levelo://app?vid=dc83b389-be29-47b3-9d83-bf255ca3977a"},"vehicle_type_id":"4","last_reported":1758895697,"current_range_meters":3600,"station_id":"ce4bha12rcd13ifvqee0","pricing_plan_id":"cebpf4jnsgd1na2vs0mg"},{"bike_id":"5001b619-8a21-45c9-8930-9794a5346fdb","system_id":"levelo_inurba_marseille","lat":43.2876,"lon":5.38549,"is_reserved":false,"is_disabled":false,"rental_uris":{"android":"levelo://app?vid=5001b619-8a21-45c9-8930-9794a5346fdb","ios":"levelo://app?vid=5001b619-8a21-45c9-8930-9794a5346fdb"},"vehicle_type_id":"4","last_reported":1758895697,"current_range_meters":6400,"station_id":"","pricing_plan_id":"cebpf4jnsgd1na2vs0mg"},{"bike_id":"194c48d5-6849-45bf-8a89-f8fcfbf6ac7f","system_id":"levelo_inurba_marseille","lat":43.22558,"lon":5.41611,"is_reserved":false,"is_disabled":false,"rental_uris":{"android":"levelo://app?vid=194c48d5-6849-45bf-8a89-f8fcfbf6ac7f","ios":"levelo://app?vid=194c48d5-6849-45bf-8a89-f8fcfbf6ac7f"},"vehicle_type_id":"4","last_reported":1758895697,"current_range_meters":5600,"station_id":"st_d2o4gvlbi1j2169b742g","pricing_plan_id":"cebpf4jnsgd1na2vs0mg"},{"bike_id":"7e19ae6d-581d-41bc-bb98-f975b5623c7a","system_id":"levelo_inurba_marseille","lat":43.29017,"lon":5.38137,"is_reserved":false,"is_disabled":false,"rental_uris":{"android":"levelo://app?vid=7e19ae6d-581d-41bc-bb98-f975b5623c7a","ios":"levelo://app?vid=7e19ae6d-581d-41bc-bb98-f975b5623c7a"},"vehicle_type_id":"4","last_reported":1758895697,"current_range_meters":5600,"station_id":"ce4bh4p2rcd13ifvqe1g","pricing_plan_id":"cebpf4jnsgd1na2vs0mg"},{"bike_id":"afb5f42c-bc92-4753-b8b5-463a6aed8244","system_id":"levelo_inurba_marseille","lat":43.29875,"lon":5.39734,"is_reserved":false,"is_disabled":false,"rental_uris":{"android":"levelo://app?vid=afb5f42c-bc92-4753-b8b5-463a6aed8244","ios":"levelo://app?vid=afb5f42c-bc92-4753-b8b5-463a6aed8244"},"vehicle_type_id":"4","last_reported":1758895697,"current_range_meters":5600,"station_id":"","pricing_plan_id":"cebpf4jnsgd1na2vs0mg"},{"bike_id":"35f43f0a-913e-4df8-8896-48a5e777ad40","system_id":"levelo_inurba_marseille","lat":43.3053,"lon":5.36529,"is_reserved":false,"is_disabled":false,"rental_uris":{"android":"levelo://app?vid=35f43f0a-913e-4df8-8896-48a5e777ad40","ios":"levelo://app?vid=35f43f0a-913e-4df8-8896-48a5e777ad40"},"vehicle_type_id":"4","last_reported":1758895697,"current_range_meters":6000,"station_id":"ce4bgs12rcd13ifvqcag","pricing_plan_id":"cebpf4jnsgd1na2vs0mg"},{"bike_id":"465f6d1d-1d91-4137-9241-414fdc83ed72","system_id":"levelo_inurba_marseille","lat":43.22559,"lon":5.4162,"is_reserved":false,"is_disabled":false,"rental_uris":{"android":"levelo://app?vid=465f6d1d-1d91-4137-9241-414fdc83ed72","ios":"levelo://app?vid=465f6d1d-1d91-4137-9241-414fdc83ed72"},"vehicle_type_id":"4","last_reported":1758895697,"current_range_meters":6000,"station_id":"st_d2o4gvlbi1j2169b742g","pricing_plan_id":"cebpf4jnsgd1na2vs0mg"},{"bike_id":"60b02932-dbb3-4257-b009-82407a3c92bd","system_id":"levelo_inurba_marseille","lat":43.243905,"lon":5.37062,"is_reserved":false,"is_disabled":false,"rental_uris":{"android":"levelo://app?vid=60b02932-dbb3-4257-b009-82407a3c92bd","ios":"levelo://app?vid=60b02932-dbb3-4257-b009-82407a3c92bd"},"vehicle_type_id":"4","last_reported":1758895697,"current_range_meters":5600,"station_id":"ce4bhhh2rcd13ifvqfk0","pricing_plan_id":"cebpf4jnsgd1na2vs0mg"},{"bike_id":"686763d7-f702-470d-8618-fdcffeb286c8","system_id":"levelo_inurba_marseille","lat":43.30134,"lon":5.37417,"is_reserved":false,"is_disabled":false,"rental_uris":{"android":"levelo://app?vid=686763d7-f702-470d-8618-fdcffeb286c8","ios":"levelo://app?vid=686763d7-f702-470d-8618-fdcffeb286c8"},"vehicle_type_id":"4","last_reported":1758895697,"current_range_meters":6400,"station_id":"ce4bgs92rcd13ifvqcc0","pricing_plan_id":"cebpf4jnsgd1na2vs0mg"},{"bike_id":"6ba424f0-2ce5-4f97-b492-f2993aef79ba","system_id":"levelo_inurba_marseille","lat":43.26059,"lon":5.39393,"is_reserved":false,"is_disabled":false,"rental_uris":{"android":"levelo://app?vid=6ba424f0-2ce5-4f97-b492-f2993aef79ba","ios":"levelo://app?vid=6ba424f0-2ce5-4f97-b492-f2993aef79ba"},"vehicle_type_id":"4","last_reported":1758895697,"current_range_meters":6000,"station_id":"ce4bhh92rcd13ifvqfj0","pricing_plan_id":"cebpf4jnsgd1na2vs0mg"},{"bike_id":"7dcd1a63-eaea-4688-b8be-49892d73a9b4","system_id":"levelo_inurba_marseille","lat":43.29884,"lon":5.39733,"is_reserved":false,"is_disabled":false,"rental_uris":{"android":"levelo://app?vid=7dcd1a63-eaea-4688-b8be-49892d73a9b4","ios":"levelo://app?vid=7dcd1a63-eaea-4688-b8be-49892d73a9b4"},"vehicle_type_id":"4","last_reported":1758895697,"current_range_meters":6400,"station_id":"ce4bh0h2rcd13ifvqd50","pricing_plan_id":"cebpf4jnsgd1na2vs0mg"},{"bike_id":"05af8d3b-1869-419a-a4be-3e5263a60450","system_id":"levelo_inurba_marseille","lat":43.28262,"lon":5.35052,"is_reserved":false,"is_disabled":false,"rental_uris":{"android":"levelo://app?vid=05af8d3b-1869-419a-a4be-3e5263a60450","ios":"levelo://app?vid=05af8d3b-1869-419a-a4be-3e5263a60450"},"vehicle_type_id":"4","last_reported":1758895697,"current_range_meters":6800,"station_id":"ce4bhbp2rcd13ifvqerg","pricing_plan_id":"cebpf4jnsgd1na2vs0mg"},{"bike_id":"379911e0-a8b9-4b05-96ac-c75be54d3c45","system_id":"levelo_inurba_marseille","lat":43.28864,"lon":5.42522,"is_reserved":false,"is_disabled":false,"rental_uris":{"android":"levelo://app?vid=379911e0-a8b9-4b05-96ac-c75be54d3c45","ios":"levelo://app?vid=379911e0-a8b9-4b05-96ac-c75be54d3c45"},"vehicle_type_id":"4","last_reported":1758895697,"current_range_meters":6800,"station_id":"","pricing_plan_id":"cebpf4jnsgd1na2vs0mg"},{"bike_id":"d918c45d-1906-4099-8fcf-c51f63330c70","system_id":"levelo_inurba_marseille","lat":43.2897,"lon":5.37823,"is_reserved":false,"is_disabled":false,"rental_uris":{"android":"levelo://app?vid=d918c45d-1906-4099-8fcf-c51f63330c70","ios":"levelo://app?vid=d918c45d-1906-4099-8fcf-c51f63330c70"},"vehicle_type_id":"4","last_reported":1758895697,"current_range_meters":7200,"station_id":"ce4bh9p2rcd13ifvqed0","pricing_plan_id":"cebpf4jnsgd1na2vs0mg"},{"bike_id":"09f62ba6-af65-412e-aa52-83df4d376991","system_id":"levelo_inurba_marseille","lat":43.31109,"lon":5.36722,"is_reserved":false,"is_disabled":false,"rental_uris":{"android":"levelo://app?vid=09f62ba6-af65-412e-aa52-83df4d376991","ios":"levelo://app?vid=09f62ba6-af65-412e-aa52-83df4d376991"},"vehicle_type_id":"4","last_reported":1758895697,"current_range_meters":7200,"station_id":"","pricing_plan_id":"cebpf4jnsgd1na2vs0mg"},{"bike_id":"c1600005-c825-4005-83a8-58ad60428192","system_id":"levelo_inurba_marseille","lat":43.29028,"lon":5.38636,"is_reserved":false,"is_disabled":false,"rental_uris":{"android":"levelo://app?vid=c1600005-c825-4005-83a8-58ad60428192","ios":"levelo://app?vid=c1600005-c825-4005-83a8-58ad60428192"},"vehicle_type_id":"4","last_reported":1758895697,"current_range_meters":7200,"station_id":"ce4bh4p2rcd13ifvqe0g","pricing_plan_id":"cebpf4jnsgd1na2vs0mg"},{"bike_id":"dbea25e2-b773-4a8d-8144-ada182b390e9","system_id":"levelo_inurba_marseille","lat":43.30541,"lon":5.38421,"is_reserved":false,"is_disabled":false,"rental_uris":{"android":"levelo://app?vid=dbea25e2-b773-4a8d-8144-ada182b390e9","ios":"levelo://app?vid=dbea25e2-b773-4a8d-8144-ada182b390e9"},"vehicle_type_id":"4","last_reported":1758895697,"current_range_meters":7200,"station_id":"ce4bgg92rcd13ifvqb30","pricing_plan_id":"cebpf4jnsgd1na2vs0mg"},{"bike_id":"234f9897-ca2f-4a17-807c-faef05729c1e","system_id":"levelo_inurba_marseille","lat":43.30556,"lon":5.36682,"is_reserved":false,"is_disabled":false,"rental_uris":{"android":"levelo://app?vid=234f9897-ca2f-4a17-807c-faef05729c1e","ios":"levelo://app?vid=234f9897-ca2f-4a17-807c-faef05729c1e"},"vehicle_type_id":"4","last_reported":1758895697,"current_range_meters":8000,"station_id":"ce4bgrp2rcd13ifvqc9g","pricing_plan_id":"cebpf4jnsgd1na2vs0mg"},{"bike_id":"003515e8-8117-44bb-979d-5f47e8d50fda","system_id":"levelo_inurba_marseille","lat":43.30617,"lon":5.37578,"is_reserved":false,"is_disabled":false,"rental_uris":{"android":"levelo://app?vid=003515e8-8117-44bb-979d-5f47e8d50fda","ios":"levelo://app?vid=003515e8-8117-44bb-979d-5f47e8d50fda"},"vehicle_type_id":"4","last_reported":1758895697,"current_range_meters":8400,"station_id":"","pricing_plan_id":"cebpf4jnsgd1na2vs0mg"},{"bike_id":"8eae954c-dab6-4303-94f5-569e1c483f62","system_id":"levelo_inurba_marseille","lat":43.294602,"lon":5.407351,"is_reserved":false,"is_disabled":false,"rental_uris":{"android":"levelo://app?vid=8eae954c-dab6-4303-94f5-569e1c483f62","ios":"levelo://app?vid=8eae954c-dab6-4303-94f5-569e1c483f62"},"vehicle_type_id":"4","last_reported":1758895697,"current_range_meters":8400,"station_id":"","pricing_plan_id":"cebpf4jnsgd1na2vs0mg"},{"bike_id":"c6c309ed-b7eb-498f-b9ce-91cf8abee5c5","system_id":"levelo_inurba_marseille","lat":43.28093,"lon":5.37838,"is_reserved":false,"is_disabled":false,"rental_uris":{"android":"levelo://app?vid=c6c309ed-b7eb-498f-b9ce-91cf8abee5c5","ios":"levelo://app?vid=c6c309ed-b7eb-498f-b9ce-91cf8abee5c5"},"vehicle_type_id":"4","last_reported":1758895697,"current_range_meters":8400,"station_id":"ce4bha12rcd13ifvqee0","pricing_plan_id":"cebpf4jnsgd1na2vs0mg"},{"bike_id":"d7f9e1df-8b0f-4a8d-ad58-d349030d8c25","system_id":"levelo_inurba_marseille","lat":43.29615,"lon":5.37809,"is_reserved":false,"is_disabled":false,"rental_uris":{"android":"levelo://app?vid=d7f9e1df-8b0f-4a8d-ad58-d349030d8c25","ios":"levelo://app?vid=d7f9e1df-8b0f-4a8d-ad58-d349030d8c25"},"vehicle_type_id":"4","last_reported":1758895697,"current_range_meters":8400,"station_id":"","pricing_plan_id":"cebpf4jnsgd1na2vs0mg"},{"bike_id":"679bc5ce-8f68-4947-9a63-780ee90fdb65","system_id":"levelo_inurba_marseille","lat":43.25718,"lon":5.41104,"is_reserved":false,"is_disabled":false,"rental_uris":{"android":"levelo://app?vid=679bc5ce-8f68-4947-9a63-780ee90fdb65","ios":"levelo://app?vid=679bc5ce-8f68-4947-9a63-780ee90fdb65"},"vehicle_type_id":"4","last_reported":1758895697,"current_range_meters":8400,"station_id":"ce4bhkp2rcd13ifvqgd0","pricing_plan_id":"cebpf4jnsgd1na2vs0mg"},{"bike_id":"aef011f5-8b93-403a-ae54-feedb4cabd28","system_id":"levelo_inurba_marseille","lat":43.30597,"lon":5.37225,"is_reserved":false,"is_disabled":true,"rental_uris":{"android":"levelo://app?vid=aef011f5-8b93-403a-ae54-feedb4cabd28","ios":"levelo://app?vid=aef011f5-8b93-403a-ae54-feedb4cabd28"},"vehicle_type_id":"4","last_reported":1758895697,"current_range_meters":8400,"station_id":"ce4bgqh2rcd13ifvqc4g","pricing_plan_id":"cebpf4jnsgd1na2vs0mg"},{"bike_id":"212de2eb-8bbc-413c-b204-9fe1facd76e8","system_id":"levelo_inurba_marseille","lat":43.31293,"lon":5.37823,"is_reserved":false,"is_disabled":false,"rental_uris":{"android":"levelo://app?vid=212de2eb-8bbc-413c-b204-9fe1facd76e8","ios":"levelo://app?vid=212de2eb-8bbc-413c-b204-9fe1facd76e8"},"vehicle_type_id":"4","last_reported":1758895697,"current_range_meters":8400,"station_id":"","pricing_plan_id":"cebpf4jnsgd1na2vs0mg"},{"bike_id":"4e7136b0-0d47-4672-bb80-907cf72eb561","system_id":"levelo_inurba_marseille","lat":43.25499,"lon":5.37651,"is_reserved":false,"is_disabled":false,"rental_uris":{"android":"levelo://app?vid=4e7136b0-0d47-4672-bb80-907cf72eb561","ios":"levelo://app?vid=4e7136b0-0d47-4672-bb80-907cf72eb561"},"vehicle_type_id":"4","last_reported":1758895697,"current_range_meters":8800,"station_id":"ce4bhh12rcd13ifvqff0","pricing_plan_id":"cebpf4jnsgd1na2vs0mg"},{"bike_id":"555f876b-67a3-4e8c-99c4-f12599474b3a","system_id":"levelo_inurba_marseille","lat":43.30214,"lon":5.39462,"is_reserved":false,"is_disabled":false,"rental_uris":{"android":"levelo://app?vid=555f876b-67a3-4e8c-99c4-f12599474b3a","ios":"levelo://app?vid=555f876b-67a3-4e8c-99c4-f12599474b3a"},"vehicle_type_id":"4","last_reported":1758895697,"current_range_meters":8400,"station_id":"ce4bh0p2rcd13ifvqd70","pricing_plan_id":"cebpf4jnsgd1na2vs0mg"},{"bike_id":"2b882ca1-73a3-481a-916d-b5b13a550d87","system_id":"levelo_inurba_marseille","lat":43.28349,"lon":5.38103,"is_reserved":false,"is_disabled":false,"rental_uris":{"android":"levelo://app?vid=2b882ca1-73a3-481a-916d-b5b13a550d87","ios":"levelo://app?vid=2b882ca1-73a3-481a-916d-b5b13a550d87"},"vehicle_type_id":"4","last_reported":1758895697,"current_range_meters":8800,"station_id":"ce4bh412rcd13ifvqdr0","pricing_plan_id":"cebpf4jnsgd1na2vs0mg"},{"bike_id":"18d4f177-83d4-45b9-ab0c-dac5a1ac3cd5","system_id":"levelo_inurba_marseille","lat":43.28608,"lon":5.37066,"is_reserved":false,"is_disabled":false,"rental_uris":{"android":"levelo://app?vid=18d4f177-83d4-45b9-ab0c-dac5a1ac3cd5","ios":"levelo://app?vid=18d4f177-83d4-45b9-ab0c-dac5a1ac3cd5"},"vehicle_type_id":"4","last_reported":1758895697,"current_range_meters":8800,"station_id":"ce4bht12rcd13ifvqi60","pricing_plan_id":"cebpf4jnsgd1na2vs0mg"},{"bike_id":"fe8e5fdb-190c-4870-8386-0dc0e5a8e382","system_id":"levelo_inurba_marseille","lat":43.30331,"lon":5.40424,"is_reserved":false,"is_disabled":false,"rental_uris":{"android":"levelo://app?vid=fe8e5fdb-190c-4870-8386-0dc0e5a8e382","ios":"levelo://app?vid=fe8e5fdb-190c-4870-8386-0dc0e5a8e382"},"vehicle_type_id":"4","last_reported":1758895697,"current_range_meters":8800,"station_id":"ce4bh012rcd13ifvqd10","pricing_plan_id":"cebpf4jnsgd1na2vs0mg"},{"bike_id":"08953d25-e9d2-4ca7-950a-15c08cba54d8","system_id":"levelo_inurba_marseille","lat":43.30327,"lon":5.40433,"is_reserved":false,"is_disabled":false,"rental_uris":{"android":"levelo://app?vid=08953d25-e9d2-4ca7-950a-15c08cba54d8","ios":"levelo://app?vid=08953d25-e9d2-4ca7-950a-15c08cba54d8"},"vehicle_type_id":"4","last_reported":1758895697,"current_range_meters":8400,"station_id":"ce4bh012rcd13ifvqd10","pricing_plan_id":"cebpf4jnsgd1na2vs0mg"},{"bike_id":"f22495e3-8942-481b-ab2f-9b8b51c632d8","system_id":"levelo_inurba_marseille","lat":43.2119,"lon":5.35067,"is_reserved":false,"is_disabled":false,"rental_uris":{"android":"levelo://app?vid=f22495e3-8942-481b-ab2f-9b8b51c632d8","ios":"levelo://app?vid=f22495e3-8942-481b-ab2f-9b8b51c632d8"},"vehicle_type_id":"4","last_reported":1758895697,"current_range_meters":8800,"station_id":"st_cvj6sg6p6f1abm77japg","pricing_plan_id":"cebpf4jnsgd1na2vs0mg"},{"bike_id":"ae924449-5b01-4491-9720-646dcc7767c7","system_id":"levelo_inurba_marseille","lat":43.279943,"lon":5.400224,"is_reserved":false,"is_disabled":false,"rental_uris":{"android":"levelo://app?vid=ae924449-5b01-4491-9720-646dcc7767c7","ios":"levelo://app?vid=ae924449-5b01-4491-9720-646dcc7767c7"},"vehicle_type_id":"4","last_reported":1758895697,"current_range_meters":8800,"station_id":"ce4bho92rcd13ifvqh4g","pricing_plan_id":"cebpf4jnsgd1na2vs0mg"},{"bike_id":"de52dc89-6873-48bc-b0f4-b21d79fa0f4d","system_id":"levelo_inurba_marseille","lat":43.2416,"lon":5.3973,"is_reserved":false,"is_disabled":false,"rental_uris":{"android":"levelo://app?vid=de52dc89-6873-48bc-b0f4-b21d79fa0f4d","ios":"levelo://app?vid=de52dc89-6873-48bc-b0f4-b21d79fa0f4d"},"vehicle_type_id":"4","last_reported":1758895697,"current_range_meters":8800,"station_id":"ce4bhn12rcd13ifvqgpg","pricing_plan_id":"cebpf4jnsgd1na2vs0mg"},{"bike_id":"339534b4-d6ce-428f-97c9-087d1b58c7b3","system_id":"levelo_inurba_marseille","lat":43.32701,"lon":5.4029,"is_reserved":false,"is_disabled":false,"rental_uris":{"android":"levelo://app?vid=339534b4-d6ce-428f-97c9-087d1b58c7b3","ios":"levelo://app?vid=339534b4-d6ce-428f-97c9-087d1b58c7b3"},"vehicle_type_id":"4","last_reported":1758895697,"current_range_meters":8800,"station_id":"","pricing_plan_id":"cebpf4jnsgd1na2vs0mg"},{"bike_id":"19e755ad-63cd-47fc-a33a-8c381e1ed692","system_id":"levelo_inurba_marseille","lat":43.30144,"lon":5.37422,"is_reserved":false,"is_disabled":false,"rental_uris":{"android":"levelo://app?vid=19e755ad-63cd-47fc-a33a-8c381e1ed692","ios":"levelo://app?vid=19e755ad-63cd-47fc-a33a-8c381e1ed692"},"vehicle_type_id":"4","last_reported":1758895697,"current_range_meters":9200,"station_id":"ce4bgs92rcd13ifvqcc0","pricing_plan_id":"cebpf4jnsgd1na2vs0mg"},{"bike_id":"f897d300-643c-4c7a-951b-f56d70ef23ca","system_id":"levelo_inurba_marseille","lat":43.30341,"lon":5.39083,"is_reserved":false,"is_disabled":false,"rental_uris":{"android":"levelo://app?vid=f897d300-643c-4c7a-951b-f56d70ef23ca","ios":"levelo://app?vid=f897d300-643c-4c7a-951b-f56d70ef23ca"},"vehicle_type_id":"4","last_reported":1758895697,"current_range_meters":9200,"station_id":"","pricing_plan_id":"cebpf4jnsgd1na2vs0mg"},{"bike_id":"92906722-9ba3-4bb8-bb4d-672b422dbb09","system_id":"levelo_inurba_marseille","lat":43.295512,"lon":5.374478,"is_reserved":false,"is_disabled":false,"rental_uris":{"android":"levelo://app?vid=92906722-9ba3-4bb8-bb4d-672b422dbb09","ios":"levelo://app?vid=92906722-9ba3-4bb8-bb4d-672b422dbb09"},"vehicle_type_id":"4","last_reported":1758895697,"current_range_meters":9200,"station_id":"ce4bgnh2rcd13ifvqc0g","pricing_plan_id":"cebpf4jnsgd1na2vs0mg"},{"bike_id":"bbc4436f-a781-4ad8-a687-88074923d554","system_id":"levelo_inurba_marseille","lat":43.28361,"lon":5.38619,"is_reserved":false,"is_disabled":false,"rental_uris":{"android":"levelo://app?vid=bbc4436f-a781-4ad8-a687-88074923d554","ios":"levelo://app?vid=bbc4436f-a781-4ad8-a687-88074923d554"},"vehicle_type_id":"4","last_reported":1758895697,"current_range_meters":8800,"station_id":"ce4bh492rcd13ifvqdvg","pricing_plan_id":"cebpf4jnsgd1na2vs0mg"},{"bike_id":"b86bd8d1-2bab-4b4f-bd5a-edbe68dc3202","system_id":"levelo_inurba_marseille","lat":43.31174,"lon":5.3684,"is_reserved":false,"is_disabled":false,"rental_uris":{"android":"levelo://app?vid=b86bd8d1-2bab-4b4f-bd5a-edbe68dc3202","ios":"levelo://app?vid=b86bd8d1-2bab-4b4f-bd5a-edbe68dc3202"},"vehicle_type_id":"4","last_reported":1758895697,"current_range_meters":9200,"station_id":"ce4bgl92rcd13ifvqbq0","pricing_plan_id":"cebpf4jnsgd1na2vs0mg"},{"bike_id":"7d1387cb-fd39-4b73-bb23-7159f9fde49d","system_id":"levelo_inurba_marseille","lat":43.22556,"lon":5.41625,"is_reserved":false,"is_disabled":false,"rental_uris":{"android":"levelo://app?vid=7d1387cb-fd39-4b73-bb23-7159f9fde49d","ios":"levelo://app?vid=7d1387cb-fd39-4b73-bb23-7159f9fde49d"},"vehicle_type_id":"4","last_reported":1758895697,"current_range_meters":9600,"station_id":"st_d2o4gvlbi1j2169b742g","pricing_plan_id":"cebpf4jnsgd1na2vs0mg"},{"bike_id":"bdc92d58-5156-4145-8d3e-c6bd716d24b4","system_id":"levelo_inurba_marseille","lat":43.29917,"lon":5.37467,"is_reserved":false,"is_disabled":false,"rental_uris":{"android":"levelo://app?vid=bdc92d58-5156-4145-8d3e-c6bd716d24b4","ios":"levelo://app?vid=bdc92d58-5156-4145-8d3e-c6bd716d24b4"},"vehicle_type_id":"4","last_reported":1758895697,"current_range_meters":9200,"station_id":"ce4bgjh2rcd13ifvqbg0","pricing_plan_id":"cebpf4jnsgd1na2vs0mg"},{"bike_id":"7d7d88c4-3113-4654-94e7-ef231a673991","system_id":"levelo_inurba_marseille","lat":43.28077,"lon":5.3966,"is_reserved":false,"is_disabled":false,"rental_uris":{"android":"levelo://app?vid=7d7d88c4-3113-4654-94e7-ef231a673991","ios":"levelo://app?vid=7d7d88c4-3113-4654-94e7-ef231a673991"},"vehicle_type_id":"4","last_reported":1758895697,"current_range_meters":9600,"station_id":"ce4bho12rcd13ifvqh2g","pricing_plan_id":"cebpf4jnsgd1na2vs0mg"},{"bike_id":"e6f5a598-55a2-4747-a576-ed812b59f4de","system_id":"levelo_inurba_marseille","lat":43.23197,"lon":5.35545,"is_reserved":false,"is_disabled":false,"rental_uris":{"android":"levelo://app?vid=e6f5a598-55a2-4747-a576-ed812b59f4de","ios":"levelo://app?vid=e6f5a598-55a2-4747-a576-ed812b59f4de"},"vehicle_type_id":"4","last_reported":1758895697,"current_range_meters":9600,"station_id":"ce4bhu92rcd13ifvqi70","pricing_plan_id":"cebpf4jnsgd1na2vs0mg"},{"bike_id":"849069c1-50e3-4b3f-9008-eb3648fb9fb8","system_id":"levelo_inurba_marseille","lat":43.26803,"lon":5.40268,"is_reserved":false,"is_disabled":false,"rental_uris":{"android":"levelo://app?vid=849069c1-50e3-4b3f-9008-eb3648fb9fb8","ios":"levelo://app?vid=849069c1-50e3-4b3f-9008-eb3648fb9fb8"},"vehicle_type_id":"4","last_reported":1758895697,"current_range_meters":9600,"station_id":"ce501612rcd8frsf0b60","pricing_plan_id":"cebpf4jnsgd1na2vs0mg"},{"bike_id":"3eff5842-cd79-4e7c-a653-43a3e79c9042","system_id":"levelo_inurba_marseille","lat":43.28473,"lon":5.38407,"is_reserved":false,"is_disabled":false,"rental_uris":{"android":"levelo://app?vid=3eff5842-cd79-4e7c-a653-43a3e79c9042","ios":"levelo://app?vid=3eff5842-cd79-4e7c-a653-43a3e79c9042"},"vehicle_type_id":"4","last_reported":1758895697,"current_range_meters":9600,"station_id":"ce4bh512rcd13ifvqe3g","pricing_plan_id":"cebpf4jnsgd1na2vs0mg"},{"bike_id":"e5303607-da03-4ac7-b81e-b332ede84cf7","system_id":"levelo_inurba_marseille","lat":43.31297,"lon":5.37815,"is_reserved":false,"is_disabled":false,"rental_uris":{"android":"levelo://app?vid=e5303607-da03-4ac7-b81e-b332ede84cf7","ios":"levelo://app?vid=e5303607-da03-4ac7-b81e-b332ede84cf7"},"vehicle_type_id":"4","last_reported":1758895697,"current_range_meters":9600,"station_id":"","pricing_plan_id":"cebpf4jnsgd1na2vs0mg"},{"bike_id":"ea9ff917-5957-46d9-b18d-35450f02503d","system_id":"levelo_inurba_marseille","lat":43.29993,"lon":5.37203,"is_reserved":false,"is_disabled":false,"rental_uris":{"android":"levelo://app?vid=ea9ff917-5957-46d9-b18d-35450f02503d","ios":"levelo://app?vid=ea9ff917-5957-46d9-b18d-35450f02503d"},"vehicle_type_id":"4","last_reported":1758895697,"current_range_meters":10000,"station_id":"ce4bgr92rcd13ifvqc7g","pricing_plan_id":"cebpf4jnsgd1na2vs0mg"},{"bike_id":"7d353966-11f0-4dbb-9d4f-2471286bef42","system_id":"levelo_inurba_marseille","lat":43.24946,"lon":5.40479,"is_reserved":false,"is_disabled":false,"rental_uris":{"android":"levelo://app?vid=7d353966-11f0-4dbb-9d4f-2471286bef42","ios":"levelo://app?vid=7d353966-11f0-4dbb-9d4f-2471286bef42"},"vehicle_type_id":"4","last_reported":1758895697,"current_range_meters":10000,"station_id":"st_d2ngiaodas8pm72gd1h0","pricing_plan_id":"cebpf4jnsgd1na2vs0mg"},{"bike_id":"a2fc0ab4-1bcd-482f-9f97-83d137e8cce5","system_id":"levelo_inurba_marseille","lat":43.28434,"lon":5.39191,"is_reserved":false,"is_disabled":false,"rental_uris":{"android":"levelo://app?vid=a2fc0ab4-1bcd-482f-9f97-83d137e8cce5","ios":"levelo://app?vid=a2fc0ab4-1bcd-482f-9f97-83d137e8cce5"},"vehicle_type_id":"4","last_reported":1758895697,"current_range_meters":10000,"station_id":"ce4bhoh2rcd13ifvqh5g","pricing_plan_id":"cebpf4jnsgd1na2vs0mg"},{"bike_id":"96d9d290-3482-406b-a187-2a8b12ccabb2","system_id":"levelo_inurba_marseille","lat":43.28973,"lon":5.37097,"is_reserved":false,"is_disabled":false,"rental_uris":{"android":"levelo://app?vid=96d9d290-3482-406b-a187-2a8b12ccabb2","ios":"levelo://app?vid=96d9d290-3482-406b-a187-2a8b12ccabb2"},"vehicle_type_id":"4","last_reported":1758895697,"current_range_meters":10000,"station_id":"","pricing_plan_id":"cebpf4jnsgd1na2vs0mg"},{"bike_id":"ca9b3918-d64e-4ec2-8f73-30399900e62d","system_id":"levelo_inurba_marseille","lat":43.27049,"lon":5.40265,"is_reserved":false,"is_disabled":false,"rental_uris":{"android":"levelo://app?vid=ca9b3918-d64e-4ec2-8f73-30399900e62d","ios":"levelo://app?vid=ca9b3918-d64e-4ec2-8f73-30399900e62d"},"vehicle_type_id":"4","last_reported":1758895697,"current_range_meters":10000,"station_id":"ce4bhk92rcd13ifvqgc0","pricing_plan_id":"cebpf4jnsgd1na2vs0mg"},{"bike_id":"5437291f-89fd-4415-9559-972ccb701259","system_id":"levelo_inurba_marseille","lat":43.317212,"lon":5.423997,"is_reserved":false,"is_disabled":false,"rental_uris":{"android":"levelo://app?vid=5437291f-89fd-4415-9559-972ccb701259","ios":"levelo://app?vid=5437291f-89fd-4415-9559-972ccb701259"},"vehicle_type_id":"4","last_reported":1758895697,"current_range_meters":9600,"station_id":"ce4bhp92rcd13ifvqhbg","pricing_plan_id":"cebpf4jnsgd1na2vs0mg"},{"bike_id":"c7f6a08b-c655-4213-b2ba-7d02e7f382fe","system_id":"levelo_inurba_marseille","lat":43.27988,"lon":5.39483,"is_reserved":false,"is_disabled":false,"rental_uris":{"android":"levelo://app?vid=c7f6a08b-c655-4213-b2ba-7d02e7f382fe","ios":"levelo://app?vid=c7f6a08b-c655-4213-b2ba-7d02e7f382fe"},"vehicle_type_id":"4","last_reported":1758895697,"current_range_meters":10000,"station_id":"","pricing_plan_id":"cebpf4jnsgd1na2vs0mg"},{"bike_id":"22e1526a-5d94-480e-9eef-c281aa35345c","system_id":"levelo_inurba_marseille","lat":43.211956,"lon":5.350776,"is_reserved":false,"is_disabled":false,"rental_uris":{"android":"levelo://app?vid=22e1526a-5d94-480e-9eef-c281aa35345c","ios":"levelo://app?vid=22e1526a-5d94-480e-9eef-c281aa35345c"},"vehicle_type_id":"4","last_reported":1758895697,"current_range_meters":10800,"station_id":"","pricing_plan_id":"cebpf4jnsgd1na2vs0mg"},{"bike_id":"046cc75b-9632-4cd0-b679-0bff4bdc4b0b","system_id":"levelo_inurba_marseille","lat":43.30789,"lon":5.37653,"is_reserved":false,"is_disabled":false,"rental_uris":{"android":"levelo://app?vid=046cc75b-9632-4cd0-b679-0bff4bdc4b0b","ios":"levelo://app?vid=046cc75b-9632-4cd0-b679-0bff4bdc4b0b"},"vehicle_type_id":"4","last_reported":1758895697,"current_range_meters":10800,"station_id":"ce4bgv92rcd13ifvqcq0","pricing_plan_id":"cebpf4jnsgd1na2vs0mg"},{"bike_id":"b95ec0f8-193a-49ae-a593-87611a6c1820","system_id":"levelo_inurba_marseille","lat":43.24942,"lon":5.40492,"is_reserved":false,"is_disabled":false,"rental_uris":{"android":"levelo://app?vid=b95ec0f8-193a-49ae-a593-87611a6c1820","ios":"levelo://app?vid=b95ec0f8-193a-49ae-a593-87611a6c1820"},"vehicle_type_id":"4","last_reported":1758895697,"current_range_meters":10800,"station_id":"st_d2ngiaodas8pm72gd1h0","pricing_plan_id":"cebpf4jnsgd1na2vs0mg"},{"bike_id":"48a3051e-ecf7-4d73-9a86-fcecc0edbb52","system_id":"levelo_inurba_marseille","lat":43.295745,"lon":5.367468,"is_reserved":false,"is_disabled":false,"rental_uris":{"android":"levelo://app?vid=48a3051e-ecf7-4d73-9a86-fcecc0edbb52","ios":"levelo://app?vid=48a3051e-ecf7-4d73-9a86-fcecc0edbb52"},"vehicle_type_id":"4","last_reported":1758895697,"current_range_meters":10800,"station_id":"","pricing_plan_id":"cebpf4jnsgd1na2vs0mg"},{"bike_id":"041cd397-24ab-4e04-af23-07b961e161f4","system_id":"levelo_inurba_marseille","lat":43.337444,"lon":5.374475,"is_reserved":false,"is_disabled":false,"rental_uris":{"android":"levelo://app?vid=041cd397-24ab-4e04-af23-07b961e161f4","ios":"levelo://app?vid=041cd397-24ab-4e04-af23-07b961e161f4"},"vehicle_type_id":"4","last_reported":1758895697,"current_range_meters":10800,"station_id":"","pricing_plan_id":"cebpf4jnsgd1na2vs0mg"},{"bike_id":"e750bdf8-9d97-4649-a5d6-1ed6cbd770b2","system_id":"levelo_inurba_marseille","lat":43.2119,"lon":5.35074,"is_reserved":false,"is_disabled":false,"rental_uris":{"android":"levelo://app?vid=e750bdf8-9d97-4649-a5d6-1ed6cbd770b2","ios":"levelo://app?vid=e750bdf8-9d97-4649-a5d6-1ed6cbd770b2"},"vehicle_type_id":"4","last_reported":1758895697,"current_range_meters":10800,"station_id":"st_cvj6sg6p6f1abm77japg","pricing_plan_id":"cebpf4jnsgd1na2vs0mg"},{"bike_id":"caa51b3e-8430-42e2-9087-718772373b47","system_id":"levelo_inurba_marseille","lat":43.2946,"lon":5.38135,"is_reserved":false,"is_disabled":false,"rental_uris":{"android":"levelo://app?vid=caa51b3e-8430-42e2-9087-718772373b47","ios":"levelo://app?vid=caa51b3e-8430-42e2-9087-718772373b47"},"vehicle_type_id":"4","last_reported":1758895697,"current_range_meters":11200,"station_id":"","pricing_plan_id":"cebpf4jnsgd1na2vs0mg"},{"bike_id":"8a52f370-fbc8-4b37-ac06-303d8471c07a","system_id":"levelo_inurba_marseille","lat":43.28461,"lon":5.35897,"is_reserved":false,"is_disabled":false,"rental_uris":{"android":"levelo://app?vid=8a52f370-fbc8-4b37-ac06-303d8471c07a","ios":"levelo://app?vid=8a52f370-fbc8-4b37-ac06-303d8471c07a"},"vehicle_type_id":"4","last_reported":1758895697,"current_range_meters":11200,"station_id":"ce4bhah2rcd13ifvqei0","pricing_plan_id":"cebpf4jnsgd1na2vs0mg"},{"bike_id":"70b7ea01-eb7d-4ad4-9d7b-08819c9c9cd3","system_id":"levelo_inurba_marseille","lat":43.337444,"lon":5.374475,"is_reserved":false,"is_disabled":true,"rental_uris":{"android":"levelo://app?vid=70b7ea01-eb7d-4ad4-9d7b-08819c9c9cd3","ios":"levelo://app?vid=70b7ea01-eb7d-4ad4-9d7b-08819c9c9cd3"},"vehicle_type_id":"4","last_reported":1758895697,"current_range_meters":11200,"station_id":"ce4bhih2rcd13ifvqfs0","pricing_plan_id":"cebpf4jnsgd1na2vs0mg"},{"bike_id":"7ca92eef-bab4-4ba9-90fb-ecb7fb524fbd","system_id":"levelo_inurba_marseille","lat":43.30604,"lon":5.37223,"is_reserved":false,"is_disabled":false,"rental_uris":{"android":"levelo://app?vid=7ca92eef-bab4-4ba9-90fb-ecb7fb524fbd","ios":"levelo://app?vid=7ca92eef-bab4-4ba9-90fb-ecb7fb524fbd"},"vehicle_type_id":"4","last_reported":1758895697,"current_range_meters":11200,"station_id":"ce4bgqh2rcd13ifvqc4g","pricing_plan_id":"cebpf4jnsgd1na2vs0mg"},{"bike_id":"39e6b2d7-e7bc-4366-8a01-87bc46855564","system_id":"levelo_inurba_marseille","lat":43.321365,"lon":5.36812,"is_reserved":false,"is_disabled":false,"rental_uris":{"android":"levelo://app?vid=39e6b2d7-e7bc-4366-8a01-87bc46855564","ios":"levelo://app?vid=39e6b2d7-e7bc-4366-8a01-87bc46855564"},"vehicle_type_id":"4","last_reported":1758895697,"current_range_meters":11200,"station_id":"ce4bhrh2rcd13ifvqhug","pricing_plan_id":"cebpf4jnsgd1na2vs0mg"},{"bike_id":"8c8dc4c5-bef1-458c-ac67-a6ad9d510fce","system_id":"levelo_inurba_marseille","lat":43.314948,"lon":5.37311,"is_reserved":false,"is_disabled":false,"rental_uris":{"android":"levelo://app?vid=8c8dc4c5-bef1-458c-ac67-a6ad9d510fce","ios":"levelo://app?vid=8c8dc4c5-bef1-458c-ac67-a6ad9d510fce"},"vehicle_type_id":"4","last_reported":1758895697,"current_range_meters":11200,"station_id":"ce4bgt12rcd13ifvqcd0","pricing_plan_id":"cebpf4jnsgd1na2vs0mg"},{"bike_id":"b8a200da-1e6b-4318-b6fa-23c5c6619ac6","system_id":"levelo_inurba_marseille","lat":43.25499,"lon":5.37645,"is_reserved":false,"is_disabled":false,"rental_uris":{"android":"levelo://app?vid=b8a200da-1e6b-4318-b6fa-23c5c6619ac6","ios":"levelo://app?vid=b8a200da-1e6b-4318-b6fa-23c5c6619ac6"},"vehicle_type_id":"4","last_reported":1758895697,"current_range_meters":11200,"station_id":"ce4bhh12rcd13ifvqff0","pricing_plan_id":"cebpf4jnsgd1na2vs0mg"},{"bike_id":"fdeb08de-3d4c-48fc-b6a1-57f67e6cee80","system_id":"levelo_inurba_marseille","lat":43.30597,"lon":5.37221,"is_reserved":false,"is_disabled":false,"rental_uris":{"android":"levelo://app?vid=fdeb08de-3d4c-48fc-b6a1-57f67e6cee80","ios":"levelo://app?vid=fdeb08de-3d4c-48fc-b6a1-57f67e6cee80"},"vehicle_type_id":"4","last_reported":1758895697,"current_range_meters":11600,"station_id":"ce4bgqh2rcd13ifvqc4g","pricing_plan_id":"cebpf4jnsgd1na2vs0mg"},{"bike_id":"530a2440-ca42-4fd8-96b3-bbb3aae3b9b5","system_id":"levelo_inurba_marseille","lat":43.30548,"lon":5.36552,"is_reserved":false,"is_disabled":false,"rental_uris":{"android":"levelo://app?vid=530a2440-ca42-4fd8-96b3-bbb3aae3b9b5","ios":"levelo://app?vid=530a2440-ca42-4fd8-96b3-bbb3aae3b9b5"},"vehicle_type_id":"4","last_reported":1758895697,"current_range_meters":11600,"station_id":"ce4bgs12rcd13ifvqcag","pricing_plan_id":"cebpf4jnsgd1na2vs0mg"},{"bike_id":"c46b6137-c51a-40ef-8308-11d475d7c67e","system_id":"levelo_inurba_marseille","lat":43.2558,"lon":5.38226,"is_reserved":false,"is_disabled":false,"rental_uris":{"android":"levelo://app?vid=c46b6137-c51a-40ef-8308-11d475d7c67e","ios":"levelo://app?vid=c46b6137-c51a-40ef-8308-11d475d7c67e"},"vehicle_type_id":"4","last_reported":1758895697,"current_range_meters":12000,"station_id":"ce4bhih2rcd13ifvqfs0","pricing_plan_id":"cebpf4jnsgd1na2vs0mg"},{"bike_id":"b0934032-3d3c-44e1-985e-e72b8cee3491","system_id":"levelo_inurba_marseille","lat":43.24643,"lon":5.43104,"is_reserved":false,"is_disabled":false,"rental_uris":{"android":"levelo://app?vid=b0934032-3d3c-44e1-985e-e72b8cee3491","ios":"levelo://app?vid=b0934032-3d3c-44e1-985e-e72b8cee3491"},"vehicle_type_id":"4","last_reported":1758895697,"current_range_meters":12000,"station_id":"st_d2m6c4gdas8pm72e190g","pricing_plan_id":"cebpf4jnsgd1na2vs0mg"},{"bike_id":"b01b5bc6-6834-41fb-be97-f5b6fb7e9ec8","system_id":"levelo_inurba_marseille","lat":43.26317,"lon":5.3982,"is_reserved":false,"is_disabled":false,"rental_uris":{"android":"levelo://app?vid=b01b5bc6-6834-41fb-be97-f5b6fb7e9ec8","ios":"levelo://app?vid=b01b5bc6-6834-41fb-be97-f5b6fb7e9ec8"},"vehicle_type_id":"4","last_reported":1758895697,"current_range_meters":12000,"station_id":"","pricing_plan_id":"cebpf4jnsgd1na2vs0mg"},{"bike_id":"c73d0f42-1d6e-4200-9c7f-4707365bac70","system_id":"levelo_inurba_marseille","lat":43.27071,"lon":5.42277,"is_reserved":false,"is_disabled":false,"rental_uris":{"android":"levelo://app?vid=c73d0f42-1d6e-4200-9c7f-4707365bac70","ios":"levelo://app?vid=c73d0f42-1d6e-4200-9c7f-4707365bac70"},"vehicle_type_id":"4","last_reported":1758895697,"current_range_meters":12000,"station_id":"ce4bhk92rcd13ifvqgb0","pricing_plan_id":"cebpf4jnsgd1na2vs0mg"},{"bike_id":"2b75f638-f285-4bbb-9ecb-f459f4f15629","system_id":"levelo_inurba_marseille","lat":43.28262,"lon":5.35067,"is_reserved":false,"is_disabled":false,"rental_uris":{"android":"levelo://app?vid=2b75f638-f285-4bbb-9ecb-f459f4f15629","ios":"levelo://app?vid=2b75f638-f285-4bbb-9ecb-f459f4f15629"},"vehicle_type_id":"4","last_reported":1758895697,"current_range_meters":12000,"station_id":"ce4bhbp2rcd13ifvqerg","pricing_plan_id":"cebpf4jnsgd1na2vs0mg"},{"bike_id":"a57b3feb-2354-42fe-87fd-e8fcee3a0260","system_id":"levelo_inurba_marseille","lat":43.26953,"lon":5.40241,"is_reserved":false,"is_disabled":false,"rental_uris":{"android":"levelo://app?vid=a57b3feb-2354-42fe-87fd-e8fcee3a0260","ios":"levelo://app?vid=a57b3feb-2354-42fe-87fd-e8fcee3a0260"},"vehicle_type_id":"4","last_reported":1758895697,"current_range_meters":12000,"station_id":"","pricing_plan_id":"cebpf4jnsgd1na2vs0mg"},{"bike_id":"d821448e-9efd-4c6c-b7db-d7db6a042bc1","system_id":"levelo_inurba_marseille","lat":43.24078,"lon":5.37749,"is_reserved":false,"is_disabled":false,"rental_uris":{"android":"levelo://app?vid=d821448e-9efd-4c6c-b7db-d7db6a042bc1","ios":"levelo://app?vid=d821448e-9efd-4c6c-b7db-d7db6a042bc1"},"vehicle_type_id":"4","last_reported":1758895697,"current_range_meters":12400,"station_id":"ce4bhnp2rcd13ifvqgvg","pricing_plan_id":"cebpf4jnsgd1na2vs0mg"},{"bike_id":"75611fb7-df45-4d9f-9db0-a181136cc424","system_id":"levelo_inurba_marseille","lat":43.21748,"lon":5.34606,"is_reserved":false,"is_disabled":true,"rental_uris":{"android":"levelo://app?vid=75611fb7-df45-4d9f-9db0-a181136cc424","ios":"levelo://app?vid=75611fb7-df45-4d9f-9db0-a181136cc424"},"vehicle_type_id":"4","last_reported":1758895697,"current_range_meters":12400,"station_id":"st_cvj6r9ubvosntc0bgbag","pricing_plan_id":"cebpf4jnsgd1na2vs0mg"},{"bike_id":"ed9c1b6f-0cc7-47fb-a193-bb02351072ff","system_id":"levelo_inurba_marseille","lat":43.254958,"lon":5.376427,"is_reserved":false,"is_disabled":false,"rental_uris":{"android":"levelo://app?vid=ed9c1b6f-0cc7-47fb-a193-bb02351072ff","ios":"levelo://app?vid=ed9c1b6f-0cc7-47fb-a193-bb02351072ff"},"vehicle_type_id":"4","last_reported":1758895697,"current_range_meters":12400,"station_id":"","pricing_plan_id":"cebpf4jnsgd1na2vs0mg"},{"bike_id":"cfc3c3c9-5e99-409e-885b-56d476cfa47e","system_id":"levelo_inurba_marseille","lat":43.30094,"lon":5.39092,"is_reserved":false,"is_disabled":false,"rental_uris":{"android":"levelo://app?vid=cfc3c3c9-5e99-409e-885b-56d476cfa47e","ios":"levelo://app?vid=cfc3c3c9-5e99-409e-885b-56d476cfa47e"},"vehicle_type_id":"4","last_reported":1758895697,"current_range_meters":12400,"station_id":"ce4bh192rcd13ifvqdb0","pricing_plan_id":"cebpf4jnsgd1na2vs0mg"},{"bike_id":"5ffb562d-449d-482f-a686-bec17ef64e3e","system_id":"levelo_inurba_marseille","lat":43.2559,"lon":5.38268,"is_reserved":false,"is_disabled":false,"rental_uris":{"android":"levelo://app?vid=5ffb562d-449d-482f-a686-bec17ef64e3e","ios":"levelo://app?vid=5ffb562d-449d-482f-a686-bec17ef64e3e"},"vehicle_type_id":"4","last_reported":1758895697,"current_range_meters":12400,"station_id":"ce4bhih2rcd13ifvqfs0","pricing_plan_id":"cebpf4jnsgd1na2vs0mg"},{"bike_id":"cea4c00a-b8fe-4c73-a9a7-b388ef8c93e0","system_id":"levelo_inurba_marseille","lat":43.25112,"lon":5.40318,"is_reserved":false,"is_disabled":false,"rental_uris":{"android":"levelo://app?vid=cea4c00a-b8fe-4c73-a9a7-b388ef8c93e0","ios":"levelo://app?vid=cea4c00a-b8fe-4c73-a9a7-b388ef8c93e0"},"vehicle_type_id":"4","last_reported":1758895697,"current_range_meters":12400,"station_id":"ce4bhlh2rcd13ifvqgig","pricing_plan_id":"cebpf4jnsgd1na2vs0mg"},{"bike_id":"1bea17ea-6ba7-476f-ad56-eda281ee3730","system_id":"levelo_inurba_marseille","lat":43.211966,"lon":5.350714,"is_reserved":false,"is_disabled":false,"rental_uris":{"android":"levelo://app?vid=1bea17ea-6ba7-476f-ad56-eda281ee3730","ios":"levelo://app?vid=1bea17ea-6ba7-476f-ad56-eda281ee3730"},"vehicle_type_id":"4","last_reported":1758895697,"current_range_meters":12400,"station_id":"st_cvj6sg6p6f1abm77japg","pricing_plan_id":"cebpf4jnsgd1na2vs0mg"},{"bike_id":"c975862c-3721-4ac1-a6a4-5b86cf0364aa","system_id":"levelo_inurba_marseille","lat":43.21192,"lon":5.35055,"is_reserved":false,"is_disabled":false,"rental_uris":{"android":"levelo://app?vid=c975862c-3721-4ac1-a6a4-5b86cf0364aa","ios":"levelo://app?vid=c975862c-3721-4ac1-a6a4-5b86cf0364aa"},"vehicle_type_id":"4","last_reported":1758895697,"current_range_meters":12400,"station_id":"st_cvj6sg6p6f1abm77japg","pricing_plan_id":"cebpf4jnsgd1na2vs0mg"},{"bike_id":"0ef81889-2d7f-4e70-b480-0b08f55cbfba","system_id":"levelo_inurba_marseille","lat":43.30897,"lon":5.36828,"is_reserved":false,"is_disabled":false,"rental_uris":{"android":"levelo://app?vid=0ef81889-2d7f-4e70-b480-0b08f55cbfba","ios":"levelo://app?vid=0ef81889-2d7f-4e70-b480-0b08f55cbfba"},"vehicle_type_id":"4","last_reported":1758895697,"current_range_meters":12400,"station_id":"ce4bgn92rcd13ifvqbvg","pricing_plan_id":"cebpf4jnsgd1na2vs0mg"},{"bike_id":"280349c2-7d75-4732-844a-272770d12d07","system_id":"levelo_inurba_marseille","lat":43.24946,"lon":5.40481,"is_reserved":false,"is_disabled":false,"rental_uris":{"android":"levelo://app?vid=280349c2-7d75-4732-844a-272770d12d07","ios":"levelo://app?vid=280349c2-7d75-4732-844a-272770d12d07"},"vehicle_type_id":"4","last_reported":1758895697,"current_range_meters":12800,"station_id":"st_d2ngiaodas8pm72gd1h0","pricing_plan_id":"cebpf4jnsgd1na2vs0mg"},{"bike_id":"dd768350-5e83-47b4-aeb7-f65bc1caa0f9","system_id":"levelo_inurba_marseille","lat":43.28617,"lon":5.35096,"is_reserved":false,"is_disabled":false,"rental_uris":{"android":"levelo://app?vid=dd768350-5e83-47b4-aeb7-f65bc1caa0f9","ios":"levelo://app?vid=dd768350-5e83-47b4-aeb7-f65bc1caa0f9"},"vehicle_type_id":"4","last_reported":1758895697,"current_range_meters":12800,"station_id":"ce4bhch2rcd13ifvqeug","pricing_plan_id":"cebpf4jnsgd1na2vs0mg"},{"bike_id":"9b6f5cc4-4faa-492e-b8a7-7925a443845d","system_id":"levelo_inurba_marseille","lat":43.30426,"lon":5.36498,"is_reserved":false,"is_disabled":false,"rental_uris":{"android":"levelo://app?vid=9b6f5cc4-4faa-492e-b8a7-7925a443845d","ios":"levelo://app?vid=9b6f5cc4-4faa-492e-b8a7-7925a443845d"},"vehicle_type_id":"4","last_reported":1758895697,"current_range_meters":12800,"station_id":"","pricing_plan_id":"cebpf4jnsgd1na2vs0mg"},{"bike_id":"c8375c83-0a0b-4080-84ae-59294d39ce77","system_id":"levelo_inurba_marseille","lat":43.29008,"lon":5.3813,"is_reserved":false,"is_disabled":false,"rental_uris":{"android":"levelo://app?vid=c8375c83-0a0b-4080-84ae-59294d39ce77","ios":"levelo://app?vid=c8375c83-0a0b-4080-84ae-59294d39ce77"},"vehicle_type_id":"4","last_reported":1758895697,"current_range_meters":12800,"station_id":"ce4bh4p2rcd13ifvqe1g","pricing_plan_id":"cebpf4jnsgd1na2vs0mg"},{"bike_id":"c3e9a3f6-aede-4e44-ad5a-a371c341c7f9","system_id":"levelo_inurba_marseille","lat":43.26053,"lon":5.39395,"is_reserved":false,"is_disabled":false,"rental_uris":{"android":"levelo://app?vid=c3e9a3f6-aede-4e44-ad5a-a371c341c7f9","ios":"levelo://app?vid=c3e9a3f6-aede-4e44-ad5a-a371c341c7f9"},"vehicle_type_id":"4","last_reported":1758895697,"current_range_meters":12400,"station_id":"ce4bhh92rcd13ifvqfj0","pricing_plan_id":"cebpf4jnsgd1na2vs0mg"},{"bike_id":"d1acf555-c3ba-4567-ba81-eebd0458b661","system_id":"levelo_inurba_marseille","lat":43.31693,"lon":5.40469,"is_reserved":false,"is_disabled":false,"rental_uris":{"android":"levelo://app?vid=d1acf555-c3ba-4567-ba81-eebd0458b661","ios":"levelo://app?vid=d1acf555-c3ba-4567-ba81-eebd0458b661"},"vehicle_type_id":"4","last_reported":1758895697,"current_range_meters":12800,"station_id":"ce4bh012rcd13ifvqd00","pricing_plan_id":"cebpf4jnsgd1na2vs0mg"},{"bike_id":"d4534ee3-c343-481f-88ec-b489de316e5b","system_id":"levelo_inurba_marseille","lat":43.30375,"lon":5.4249,"is_reserved":false,"is_disabled":false,"rental_uris":{"android":"levelo://app?vid=d4534ee3-c343-481f-88ec-b489de316e5b","ios":"levelo://app?vid=d4534ee3-c343-481f-88ec-b489de316e5b"},"vehicle_type_id":"4","last_reported":1758895697,"current_range_meters":12800,"station_id":"ce4bhoh2rcd13ifvqh6g","pricing_plan_id":"cebpf4jnsgd1na2vs0mg"},{"bike_id":"a639c491-c436-478a-8d5d-bd2c30b918ff","system_id":"levelo_inurba_marseille","lat":43.29759,"lon":5.3721,"is_reserved":false,"is_disabled":false,"rental_uris":{"android":"levelo://app?vid=a639c491-c436-478a-8d5d-bd2c30b918ff","ios":"levelo://app?vid=a639c491-c436-478a-8d5d-bd2c30b918ff"},"vehicle_type_id":"4","last_reported":1758895697,"current_range_meters":12800,"station_id":"","pricing_plan_id":"cebpf4jnsgd1na2vs0mg"},{"bike_id":"c8fb4f1c-09dc-4ba3-b9e8-17ffe43b4972","system_id":"levelo_inurba_marseille","lat":43.32369,"lon":5.3677,"is_reserved":false,"is_disabled":false,"rental_uris":{"android":"levelo://app?vid=c8fb4f1c-09dc-4ba3-b9e8-17ffe43b4972","ios":"levelo://app?vid=c8fb4f1c-09dc-4ba3-b9e8-17ffe43b4972"},"vehicle_type_id":"4","last_reported":1758895697,"current_range_meters":12800,"station_id":"ce4bhsh2rcd13ifvqi2g","pricing_plan_id":"cebpf4jnsgd1na2vs0mg"},{"bike_id":"8baeac13-7e80-456d-83aa-12e0372d0df5","system_id":"levelo_inurba_marseille","lat":43.3246,"lon":5.37554,"is_reserved":false,"is_disabled":false,"rental_uris":{"android":"levelo://app?vid=8baeac13-7e80-456d-83aa-12e0372d0df5","ios":"levelo://app?vid=8baeac13-7e80-456d-83aa-12e0372d0df5"},"vehicle_type_id":"4","last_reported":1758895697,"current_range_meters":12800,"station_id":"","pricing_plan_id":"cebpf4jnsgd1na2vs0mg"},{"bike_id":"8849609f-aa46-4ca9-9d72-d8ca65bb17ae","system_id":"levelo_inurba_marseille","lat":43.30093,"lon":5.39091,"is_reserved":false,"is_disabled":false,"rental_uris":{"android":"levelo://app?vid=8849609f-aa46-4ca9-9d72-d8ca65bb17ae","ios":"levelo://app?vid=8849609f-aa46-4ca9-9d72-d8ca65bb17ae"},"vehicle_type_id":"4","last_reported":1758895697,"current_range_meters":12800,"station_id":"ce4bh192rcd13ifvqdb0","pricing_plan_id":"cebpf4jnsgd1na2vs0mg"},{"bike_id":"df649d25-1f44-4471-8cdd-9566da8ef9b9","system_id":"levelo_inurba_marseille","lat":43.32163,"lon":5.38774,"is_reserved":false,"is_disabled":false,"rental_uris":{"android":"levelo://app?vid=df649d25-1f44-4471-8cdd-9566da8ef9b9","ios":"levelo://app?vid=df649d25-1f44-4471-8cdd-9566da8ef9b9"},"vehicle_type_id":"4","last_reported":1758895697,"current_range_meters":13600,"station_id":"","pricing_plan_id":"cebpf4jnsgd1na2vs0mg"},{"bike_id":"1f18422c-fad2-435d-ab1a-33f042682478","system_id":"levelo_inurba_marseille","lat":43.31239,"lon":5.36881,"is_reserved":false,"is_disabled":false,"rental_uris":{"android":"levelo://app?vid=1f18422c-fad2-435d-ab1a-33f042682478","ios":"levelo://app?vid=1f18422c-fad2-435d-ab1a-33f042682478"},"vehicle_type_id":"4","last_reported":1758895697,"current_range_meters":13600,"station_id":"ce4bgl92rcd13ifvqbq0","pricing_plan_id":"cebpf4jnsgd1na2vs0mg"},{"bike_id":"22b2ceaa-b482-498f-adaf-5cf9950948d9","system_id":"levelo_inurba_marseille","lat":43.240857,"lon":5.377528,"is_reserved":false,"is_disabled":false,"rental_uris":{"android":"levelo://app?vid=22b2ceaa-b482-498f-adaf-5cf9950948d9","ios":"levelo://app?vid=22b2ceaa-b482-498f-adaf-5cf9950948d9"},"vehicle_type_id":"4","last_reported":1758895697,"current_range_meters":13600,"station_id":"ce4bhnp2rcd13ifvqgvg","pricing_plan_id":"cebpf4jnsgd1na2vs0mg"},{"bike_id":"3d270bc8-f0d1-49b1-a0f6-9c812c10af3c","system_id":"levelo_inurba_marseille","lat":43.29678,"lon":5.37289,"is_reserved":false,"is_disabled":false,"rental_uris":{"android":"levelo://app?vid=3d270bc8-f0d1-49b1-a0f6-9c812c10af3c","ios":"levelo://app?vid=3d270bc8-f0d1-49b1-a0f6-9c812c10af3c"},"vehicle_type_id":"4","last_reported":1758895697,"current_range_meters":13600,"station_id":"ce4bgk12rcd13ifvqbj0","pricing_plan_id":"cebpf4jnsgd1na2vs0mg"},{"bike_id":"46f9b484-6f08-4ebe-8cac-3f01deda53fc","system_id":"levelo_inurba_marseille","lat":43.32616,"lon":5.40952,"is_reserved":false,"is_disabled":false,"rental_uris":{"android":"levelo://app?vid=46f9b484-6f08-4ebe-8cac-3f01deda53fc","ios":"levelo://app?vid=46f9b484-6f08-4ebe-8cac-3f01deda53fc"},"vehicle_type_id":"4","last_reported":1758895697,"current_range_meters":13600,"station_id":"ce4bhpp2rcd13ifvqhgg","pricing_plan_id":"cebpf4jnsgd1na2vs0mg"},{"bike_id":"fe8cd891-c323-4a29-b9ff-f8134a7d0a42","system_id":"levelo_inurba_marseille","lat":43.24636,"lon":5.38907,"is_reserved":false,"is_disabled":false,"rental_uris":{"android":"levelo://app?vid=fe8cd891-c323-4a29-b9ff-f8134a7d0a42","ios":"levelo://app?vid=fe8cd891-c323-4a29-b9ff-f8134a7d0a42"},"vehicle_type_id":"4","last_reported":1758895697,"current_range_meters":13600,"station_id":"ce4bhg12rcd13ifvqf60","pricing_plan_id":"cebpf4jnsgd1na2vs0mg"},{"bike_id":"08fe2b08-b3fa-43f8-ae73-04061f76318d","system_id":"levelo_inurba_marseille","lat":43.305552,"lon":5.365395,"is_reserved":false,"is_disabled":false,"rental_uris":{"android":"levelo://app?vid=08fe2b08-b3fa-43f8-ae73-04061f76318d","ios":"levelo://app?vid=08fe2b08-b3fa-43f8-ae73-04061f76318d"},"vehicle_type_id":"4","last_reported":1758895697,"current_range_meters":13600,"station_id":"","pricing_plan_id":"cebpf4jnsgd1na2vs0mg"},{"bike_id":"1d5d14cf-15e7-4470-bff9-613bb9abe120","system_id":"levelo_inurba_marseille","lat":43.33506,"lon":5.42037,"is_reserved":false,"is_disabled":false,"rental_uris":{"android":"levelo://app?vid=1d5d14cf-15e7-4470-bff9-613bb9abe120","ios":"levelo://app?vid=1d5d14cf-15e7-4470-bff9-613bb9abe120"},"vehicle_type_id":"4","last_reported":1758895697,"current_range_meters":13600,"station_id":"","pricing_plan_id":"cebpf4jnsgd1na2vs0mg"},{"bike_id":"10b8d871-07e9-4114-9eb9-6bcce40e7beb","system_id":"levelo_inurba_marseille","lat":43.27045,"lon":5.392226,"is_reserved":false,"is_disabled":false,"rental_uris":{"android":"levelo://app?vid=10b8d871-07e9-4114-9eb9-6bcce40e7beb","ios":"levelo://app?vid=10b8d871-07e9-4114-9eb9-6bcce40e7beb"},"vehicle_type_id":"4","last_reported":1758895697,"current_range_meters":13600,"station_id":"ce4bhe12rcd13ifvqf30","pricing_plan_id":"cebpf4jnsgd1na2vs0mg"},{"bike_id":"4b28eb42-6566-45c0-bb06-eede757dfaad","system_id":"levelo_inurba_marseille","lat":43.2558,"lon":5.38221,"is_reserved":false,"is_disabled":false,"rental_uris":{"android":"levelo://app?vid=4b28eb42-6566-45c0-bb06-eede757dfaad","ios":"levelo://app?vid=4b28eb42-6566-45c0-bb06-eede757dfaad"},"vehicle_type_id":"4","last_reported":1758895697,"current_range_meters":13600,"station_id":"ce4bhih2rcd13ifvqfs0","pricing_plan_id":"cebpf4jnsgd1na2vs0mg"},{"bike_id":"5d944089-7d4d-485d-8e5e-fe9c9b3dd7de","system_id":"levelo_inurba_marseille","lat":43.22557,"lon":5.41621,"is_reserved":false,"is_disabled":false,"rental_uris":{"android":"levelo://app?vid=5d944089-7d4d-485d-8e5e-fe9c9b3dd7de","ios":"levelo://app?vid=5d944089-7d4d-485d-8e5e-fe9c9b3dd7de"},"vehicle_type_id":"4","last_reported":1758895697,"current_range_meters":13600,"station_id":"st_d2o4gvlbi1j2169b742g","pricing_plan_id":"cebpf4jnsgd1na2vs0mg"},{"bike_id":"45e07bae-690f-4ff3-a8bd-511d32841972","system_id":"levelo_inurba_marseille","lat":43.251078,"lon":5.403278,"is_reserved":false,"is_disabled":false,"rental_uris":{"android":"levelo://app?vid=45e07bae-690f-4ff3-a8bd-511d32841972","ios":"levelo://app?vid=45e07bae-690f-4ff3-a8bd-511d32841972"},"vehicle_type_id":"4","last_reported":1758895697,"current_range_meters":14000,"station_id":"ce4bhlh2rcd13ifvqgig","pricing_plan_id":"cebpf4jnsgd1na2vs0mg"},{"bike_id":"68bbf054-c2b3-4a71-a7fa-c40779bb86fe","system_id":"levelo_inurba_marseille","lat":43.303274,"lon":5.404349,"is_reserved":false,"is_disabled":true,"rental_uris":{"android":"levelo://app?vid=68bbf054-c2b3-4a71-a7fa-c40779bb86fe","ios":"levelo://app?vid=68bbf054-c2b3-4a71-a7fa-c40779bb86fe"},"vehicle_type_id":"4","last_reported":1758895697,"current_range_meters":14000,"station_id":"ce4bh012rcd13ifvqd10","pricing_plan_id":"cebpf4jnsgd1na2vs0mg"},{"bike_id":"40e93a81-4ebf-4be9-85c3-998cf5da6d2b","system_id":"levelo_inurba_marseille","lat":43.30144,"lon":5.38061,"is_reserved":false,"is_disabled":false,"rental_uris":{"android":"levelo://app?vid=40e93a81-4ebf-4be9-85c3-998cf5da6d2b","ios":"levelo://app?vid=40e93a81-4ebf-4be9-85c3-998cf5da6d2b"},"vehicle_type_id":"4","last_reported":1758895697,"current_range_meters":14000,"station_id":"ce4bgjp2rcd13ifvqbh0","pricing_plan_id":"cebpf4jnsgd1na2vs0mg"},{"bike_id":"3da50b2e-0ca4-4ba1-9092-93984be20020","system_id":"levelo_inurba_marseille","lat":43.27998,"lon":5.40012,"is_reserved":false,"is_disabled":false,"rental_uris":{"android":"levelo://app?vid=3da50b2e-0ca4-4ba1-9092-93984be20020","ios":"levelo://app?vid=3da50b2e-0ca4-4ba1-9092-93984be20020"},"vehicle_type_id":"4","last_reported":1758895697,"current_range_meters":14000,"station_id":"ce4bho92rcd13ifvqh4g","pricing_plan_id":"cebpf4jnsgd1na2vs0mg"},{"bike_id":"674f3b8d-da7c-4f20-8155-00cb1c9dbcf8","system_id":"levelo_inurba_marseille","lat":43.29806,"lon":5.38078,"is_reserved":false,"is_disabled":false,"rental_uris":{"android":"levelo://app?vid=674f3b8d-da7c-4f20-8155-00cb1c9dbcf8","ios":"levelo://app?vid=674f3b8d-da7c-4f20-8155-00cb1c9dbcf8"},"vehicle_type_id":"4","last_reported":1758895697,"current_range_meters":14000,"station_id":"ce4bgip2rcd13ifvqbb0","pricing_plan_id":"cebpf4jnsgd1na2vs0mg"},{"bike_id":"f9e21fc1-be7d-42a8-9eff-6458e73f3db9","system_id":"levelo_inurba_marseille","lat":43.323641,"lon":5.367558,"is_reserved":false,"is_disabled":false,"rental_uris":{"android":"levelo://app?vid=f9e21fc1-be7d-42a8-9eff-6458e73f3db9","ios":"levelo://app?vid=f9e21fc1-be7d-42a8-9eff-6458e73f3db9"},"vehicle_type_id":"4","last_reported":1758895697,"current_range_meters":14000,"station_id":"ce4bhsh2rcd13ifvqi2g","pricing_plan_id":"cebpf4jnsgd1na2vs0mg"},{"bike_id":"6c02528d-30a8-4925-b8e5-6e21f72ae51d","system_id":"levelo_inurba_marseille","lat":43.2306,"lon":5.35491,"is_reserved":false,"is_disabled":false,"rental_uris":{"android":"levelo://app?vid=6c02528d-30a8-4925-b8e5-6e21f72ae51d","ios":"levelo://app?vid=6c02528d-30a8-4925-b8e5-6e21f72ae51d"},"vehicle_type_id":"4","last_reported":1758895697,"current_range_meters":14000,"station_id":"cpo3342slgdg3j2ifvpg","pricing_plan_id":"cebpf4jnsgd1na2vs0mg"},{"bike_id":"31758b75-2e08-4f38-8edb-2ad828b78904","system_id":"levelo_inurba_marseille","lat":43.24386,"lon":5.37066,"is_reserved":false,"is_disabled":false,"rental_uris":{"android":"levelo://app?vid=31758b75-2e08-4f38-8edb-2ad828b78904","ios":"levelo://app?vid=31758b75-2e08-4f38-8edb-2ad828b78904"},"vehicle_type_id":"4","last_reported":1758895697,"current_range_meters":14000,"station_id":"ce4bhhh2rcd13ifvqfk0","pricing_plan_id":"cebpf4jnsgd1na2vs0mg"},{"bike_id":"fd18a301-a9dd-4600-afce-c6b935fa8b40","system_id":"levelo_inurba_marseille","lat":43.26187,"lon":5.37451,"is_reserved":false,"is_disabled":false,"rental_uris":{"android":"levelo://app?vid=fd18a301-a9dd-4600-afce-c6b935fa8b40","ios":"levelo://app?vid=fd18a301-a9dd-4600-afce-c6b935fa8b40"},"vehicle_type_id":"4","last_reported":1758895697,"current_range_meters":14400,"station_id":"ce4bhgp2rcd13ifvqfc0","pricing_plan_id":"cebpf4jnsgd1na2vs0mg"},{"bike_id":"08292ac0-f4a0-4778-9703-5ac015ee1e3a","system_id":"levelo_inurba_marseille","lat":43.2463,"lon":5.43143,"is_reserved":false,"is_disabled":false,"rental_uris":{"android":"levelo://app?vid=08292ac0-f4a0-4778-9703-5ac015ee1e3a","ios":"levelo://app?vid=08292ac0-f4a0-4778-9703-5ac015ee1e3a"},"vehicle_type_id":"4","last_reported":1758895697,"current_range_meters":14400,"station_id":"st_d2m6c4gdas8pm72e190g","pricing_plan_id":"cebpf4jnsgd1na2vs0mg"},{"bike_id":"9a4f92ed-e086-4038-a651-bbe0613f80bd","system_id":"levelo_inurba_marseille","lat":43.22568,"lon":5.4162,"is_reserved":false,"is_disabled":false,"rental_uris":{"android":"levelo://app?vid=9a4f92ed-e086-4038-a651-bbe0613f80bd","ios":"levelo://app?vid=9a4f92ed-e086-4038-a651-bbe0613f80bd"},"vehicle_type_id":"4","last_reported":1758895697,"current_range_meters":14400,"station_id":"st_d2o4gvlbi1j2169b742g","pricing_plan_id":"cebpf4jnsgd1na2vs0mg"},{"bike_id":"a055ee20-0aa2-4d41-9d2f-ae949e0acb6a","system_id":"levelo_inurba_marseille","lat":43.297107,"lon":5.376994,"is_reserved":false,"is_disabled":false,"rental_uris":{"android":"levelo://app?vid=a055ee20-0aa2-4d41-9d2f-ae949e0acb6a","ios":"levelo://app?vid=a055ee20-0aa2-4d41-9d2f-ae949e0acb6a"},"vehicle_type_id":"4","last_reported":1758895697,"current_range_meters":14400,"station_id":"ce4bgkh2rcd13ifvqbl0","pricing_plan_id":"cebpf4jnsgd1na2vs0mg"},{"bike_id":"ca017b02-9417-4a6d-9a3b-822bc8e5c9df","system_id":"levelo_inurba_marseille","lat":43.27426,"lon":5.39419,"is_reserved":false,"is_disabled":false,"rental_uris":{"android":"levelo://app?vid=ca017b02-9417-4a6d-9a3b-822bc8e5c9df","ios":"levelo://app?vid=ca017b02-9417-4a6d-9a3b-822bc8e5c9df"},"vehicle_type_id":"4","last_reported":1758895697,"current_range_meters":14800,"station_id":"ce4bhdp2rcd13ifvqf20","pricing_plan_id":"cebpf4jnsgd1na2vs0mg"},{"bike_id":"467b4306-5fd8-484e-9a4b-cf8eb50151ba","system_id":"levelo_inurba_marseille","lat":43.32293,"lon":5.38267,"is_reserved":false,"is_disabled":false,"rental_uris":{"android":"levelo://app?vid=467b4306-5fd8-484e-9a4b-cf8eb50151ba","ios":"levelo://app?vid=467b4306-5fd8-484e-9a4b-cf8eb50151ba"},"vehicle_type_id":"4","last_reported":1758895697,"current_range_meters":14800,"station_id":"ce4bhr12rcd13ifvqhqg","pricing_plan_id":"cebpf4jnsgd1na2vs0mg"},{"bike_id":"0ba3eec9-097c-418a-a64e-98663c551269","system_id":"levelo_inurba_marseille","lat":43.23144,"lon":5.43736,"is_reserved":false,"is_disabled":false,"rental_uris":{"android":"levelo://app?vid=0ba3eec9-097c-418a-a64e-98663c551269","ios":"levelo://app?vid=0ba3eec9-097c-418a-a64e-98663c551269"},"vehicle_type_id":"4","last_reported":1758895697,"current_range_meters":14800,"station_id":"ce4bhmp2rcd13ifvqgog","pricing_plan_id":"cebpf4jnsgd1na2vs0mg"},{"bike_id":"fde61eb6-d1af-421a-9ee2-f7c73f8a49b5","system_id":"levelo_inurba_marseille","lat":43.31167,"lon":5.387145,"is_reserved":false,"is_disabled":false,"rental_uris":{"android":"levelo://app?vid=fde61eb6-d1af-421a-9ee2-f7c73f8a49b5","ios":"levelo://app?vid=fde61eb6-d1af-421a-9ee2-f7c73f8a49b5"},"vehicle_type_id":"4","last_reported":1758895697,"current_range_meters":14800,"station_id":"ce4bgv12rcd13ifvqcp0","pricing_plan_id":"cebpf4jnsgd1na2vs0mg"},{"bike_id":"4407f0c7-f8f2-44c4-b16c-74d5984e3278","system_id":"levelo_inurba_marseille","lat":43.2558,"lon":5.38233,"is_reserved":false,"is_disabled":true,"rental_uris":{"android":"levelo://app?vid=4407f0c7-f8f2-44c4-b16c-74d5984e3278","ios":"levelo://app?vid=4407f0c7-f8f2-44c4-b16c-74d5984e3278"},"vehicle_type_id":"4","last_reported":1758895697,"current_range_meters":14800,"station_id":"ce4bhih2rcd13ifvqfs0","pricing_plan_id":"cebpf4jnsgd1na2vs0mg"},{"bike_id":"f626f457-0696-4e32-af9e-687030f53c6d","system_id":"levelo_inurba_marseille","lat":43.33766,"lon":5.37475,"is_reserved":false,"is_disabled":false,"rental_uris":{"android":"levelo://app?vid=f626f457-0696-4e32-af9e-687030f53c6d","ios":"levelo://app?vid=f626f457-0696-4e32-af9e-687030f53c6d"},"vehicle_type_id":"4","last_reported":1758895697,"current_range_meters":14800,"station_id":"","pricing_plan_id":"cebpf4jnsgd1na2vs0mg"},{"bike_id":"9c6fdaba-29b1-4850-a090-7840bdd73847","system_id":"levelo_inurba_marseille","lat":43.23193,"lon":5.355497,"is_reserved":false,"is_disabled":false,"rental_uris":{"android":"levelo://app?vid=9c6fdaba-29b1-4850-a090-7840bdd73847","ios":"levelo://app?vid=9c6fdaba-29b1-4850-a090-7840bdd73847"},"vehicle_type_id":"4","last_reported":1758895697,"current_range_meters":14800,"station_id":"ce4bhu92rcd13ifvqi70","pricing_plan_id":"cebpf4jnsgd1na2vs0mg"},{"bike_id":"d3773891-5bcb-4fee-9c03-2a49d150d1e9","system_id":"levelo_inurba_marseille","lat":43.27978,"lon":5.41663,"is_reserved":false,"is_disabled":false,"rental_uris":{"android":"levelo://app?vid=d3773891-5bcb-4fee-9c03-2a49d150d1e9","ios":"levelo://app?vid=d3773891-5bcb-4fee-9c03-2a49d150d1e9"},"vehicle_type_id":"4","last_reported":1758895697,"current_range_meters":15200,"station_id":"ce4bho12rcd13ifvqh1g","pricing_plan_id":"cebpf4jnsgd1na2vs0mg"},{"bike_id":"caca043d-62fa-409d-9d28-cf0cdfaca1f3","system_id":"levelo_inurba_marseille","lat":43.27369,"lon":5.36264,"is_reserved":false,"is_disabled":false,"rental_uris":{"android":"levelo://app?vid=caca043d-62fa-409d-9d28-cf0cdfaca1f3","ios":"levelo://app?vid=caca043d-62fa-409d-9d28-cf0cdfaca1f3"},"vehicle_type_id":"4","last_reported":1758895697,"current_range_meters":15200,"station_id":"ce4bhbh2rcd13ifvqeo0","pricing_plan_id":"cebpf4jnsgd1na2vs0mg"},{"bike_id":"0064974e-02bb-40bc-8149-ba249ea4de7d","system_id":"levelo_inurba_marseille","lat":43.30546,"lon":5.36521,"is_reserved":false,"is_disabled":false,"rental_uris":{"android":"levelo://app?vid=0064974e-02bb-40bc-8149-ba249ea4de7d","ios":"levelo://app?vid=0064974e-02bb-40bc-8149-ba249ea4de7d"},"vehicle_type_id":"4","last_reported":1758895697,"current_range_meters":15200,"station_id":"ce4bgs12rcd13ifvqcag","pricing_plan_id":"cebpf4jnsgd1na2vs0mg"},{"bike_id":"53149b9a-b2e9-40e5-92f6-198650587385","system_id":"levelo_inurba_marseille","lat":43.30782,"lon":5.37658,"is_reserved":false,"is_disabled":false,"rental_uris":{"android":"levelo://app?vid=53149b9a-b2e9-40e5-92f6-198650587385","ios":"levelo://app?vid=53149b9a-b2e9-40e5-92f6-198650587385"},"vehicle_type_id":"4","last_reported":1758895697,"current_range_meters":15200,"station_id":"ce4bgv92rcd13ifvqcq0","pricing_plan_id":"cebpf4jnsgd1na2vs0mg"},{"bike_id":"fee74e98-eb52-4f66-a612-109c75f34aa6","system_id":"levelo_inurba_marseille","lat":43.29599,"lon":5.37948,"is_reserved":false,"is_disabled":false,"rental_uris":{"android":"levelo://app?vid=fee74e98-eb52-4f66-a612-109c75f34aa6","ios":"levelo://app?vid=fee74e98-eb52-4f66-a612-109c75f34aa6"},"vehicle_type_id":"4","last_reported":1758895697,"current_range_meters":15200,"station_id":"","pricing_plan_id":"cebpf4jnsgd1na2vs0mg"},{"bike_id":"c91aa95c-ae83-4f8a-bef3-89f188e39bfa","system_id":"levelo_inurba_marseille","lat":43.22559,"lon":5.41627,"is_reserved":false,"is_disabled":false,"rental_uris":{"android":"levelo://app?vid=c91aa95c-ae83-4f8a-bef3-89f188e39bfa","ios":"levelo://app?vid=c91aa95c-ae83-4f8a-bef3-89f188e39bfa"},"vehicle_type_id":"4","last_reported":1758895697,"current_range_meters":15200,"station_id":"st_d2o4gvlbi1j2169b742g","pricing_plan_id":"cebpf4jnsgd1na2vs0mg"},{"bike_id":"2a416e7a-1803-402e-9523-74bfe690bd54","system_id":"levelo_inurba_marseille","lat":43.32365,"lon":5.36767,"is_reserved":false,"is_disabled":false,"rental_uris":{"android":"levelo://app?vid=2a416e7a-1803-402e-9523-74bfe690bd54","ios":"levelo://app?vid=2a416e7a-1803-402e-9523-74bfe690bd54"},"vehicle_type_id":"4","last_reported":1758895697,"current_range_meters":15200,"station_id":"ce4bhsh2rcd13ifvqi2g","pricing_plan_id":"cebpf4jnsgd1na2vs0mg"},{"bike_id":"be09b477-4e1c-4043-aa09-a7c39aaf0615","system_id":"levelo_inurba_marseille","lat":43.3248,"lon":5.36562,"is_reserved":false,"is_disabled":false,"rental_uris":{"android":"levelo://app?vid=be09b477-4e1c-4043-aa09-a7c39aaf0615","ios":"levelo://app?vid=be09b477-4e1c-4043-aa09-a7c39aaf0615"},"vehicle_type_id":"4","last_reported":1758895697,"current_range_meters":16000,"station_id":"ce4bhs12rcd13ifvqhvg","pricing_plan_id":"cebpf4jnsgd1na2vs0mg"},{"bike_id":"09ed5c47-fd80-47ea-871a-c48c4276df93","system_id":"levelo_inurba_marseille","lat":43.29849,"lon":5.39727,"is_reserved":false,"is_disabled":false,"rental_uris":{"android":"levelo://app?vid=09ed5c47-fd80-47ea-871a-c48c4276df93","ios":"levelo://app?vid=09ed5c47-fd80-47ea-871a-c48c4276df93"},"vehicle_type_id":"4","last_reported":1758895697,"current_range_meters":16000,"station_id":"ce4bh0h2rcd13ifvqd50","pricing_plan_id":"cebpf4jnsgd1na2vs0mg"},{"bike_id":"3652de56-c611-41c6-aa03-7fef6136da9d","system_id":"levelo_inurba_marseille","lat":43.25009,"lon":5.38907,"is_reserved":false,"is_disabled":false,"rental_uris":{"android":"levelo://app?vid=3652de56-c611-41c6-aa03-7fef6136da9d","ios":"levelo://app?vid=3652de56-c611-41c6-aa03-7fef6136da9d"},"vehicle_type_id":"4","last_reported":1758895697,"current_range_meters":16000,"station_id":"ce4bhgp2rcd13ifvqfd0","pricing_plan_id":"cebpf4jnsgd1na2vs0mg"},{"bike_id":"15b8abb9-1b82-439d-bef4-2444276aa7c3","system_id":"levelo_inurba_marseille","lat":43.3107,"lon":5.38337,"is_reserved":false,"is_disabled":true,"rental_uris":{"android":"levelo://app?vid=15b8abb9-1b82-439d-bef4-2444276aa7c3","ios":"levelo://app?vid=15b8abb9-1b82-439d-bef4-2444276aa7c3"},"vehicle_type_id":"4","last_reported":1758895697,"current_range_meters":16000,"station_id":"ce4bgv92rcd13ifvqcr0","pricing_plan_id":"cebpf4jnsgd1na2vs0mg"},{"bike_id":"20811547-ef0a-42bd-ad40-e165ddec3b99","system_id":"levelo_inurba_marseille","lat":43.26945,"lon":5.40249,"is_reserved":false,"is_disabled":false,"rental_uris":{"android":"levelo://app?vid=20811547-ef0a-42bd-ad40-e165ddec3b99","ios":"levelo://app?vid=20811547-ef0a-42bd-ad40-e165ddec3b99"},"vehicle_type_id":"4","last_reported":1758895697,"current_range_meters":16000,"station_id":"cjm6bp8fraef2m0cb0m0","pricing_plan_id":"cebpf4jnsgd1na2vs0mg"},{"bike_id":"63d52c35-c9c9-44eb-9780-1b2f9145123b","system_id":"levelo_inurba_marseille","lat":43.29627,"lon":5.377037,"is_reserved":false,"is_disabled":false,"rental_uris":{"android":"levelo://app?vid=63d52c35-c9c9-44eb-9780-1b2f9145123b","ios":"levelo://app?vid=63d52c35-c9c9-44eb-9780-1b2f9145123b"},"vehicle_type_id":"4","last_reported":1758895697,"current_range_meters":16000,"station_id":"","pricing_plan_id":"cebpf4jnsgd1na2vs0mg"},{"bike_id":"85782661-163d-4a8b-b5a4-1f0a766faaa2","system_id":"levelo_inurba_marseille","lat":43.24639,"lon":5.43124,"is_reserved":false,"is_disabled":false,"rental_uris":{"android":"levelo://app?vid=85782661-163d-4a8b-b5a4-1f0a766faaa2","ios":"levelo://app?vid=85782661-163d-4a8b-b5a4-1f0a766faaa2"},"vehicle_type_id":"4","last_reported":1758895697,"current_range_meters":16000,"station_id":"st_d2m6c4gdas8pm72e190g","pricing_plan_id":"cebpf4jnsgd1na2vs0mg"},{"bike_id":"b5b3cf7c-3cd2-468e-81f0-a3cad12404e6","system_id":"levelo_inurba_marseille","lat":43.25936,"lon":5.40894,"is_reserved":false,"is_disabled":false,"rental_uris":{"android":"levelo://app?vid=b5b3cf7c-3cd2-468e-81f0-a3cad12404e6","ios":"levelo://app?vid=b5b3cf7c-3cd2-468e-81f0-a3cad12404e6"},"vehicle_type_id":"4","last_reported":1758895697,"current_range_meters":16000,"station_id":"ce4bhm92rcd13ifvqglg","pricing_plan_id":"cebpf4jnsgd1na2vs0mg"},{"bike_id":"9bb4db31-0bf9-4171-bca1-76cb045f53a3","system_id":"levelo_inurba_marseille","lat":43.26924,"lon":5.389081,"is_reserved":false,"is_disabled":true,"rental_uris":{"android":"levelo://app?vid=9bb4db31-0bf9-4171-bca1-76cb045f53a3","ios":"levelo://app?vid=9bb4db31-0bf9-4171-bca1-76cb045f53a3"},"vehicle_type_id":"4","last_reported":1758895697,"current_range_meters":16000,"station_id":"ce4bhhh2rcd13ifvqfl0","pricing_plan_id":"cebpf4jnsgd1na2vs0mg"},{"bike_id":"e438f743-9525-44aa-8cda-c8be3486e464","system_id":"levelo_inurba_marseille","lat":43.33606,"lon":5.41055,"is_reserved":false,"is_disabled":false,"rental_uris":{"android":"levelo://app?vid=e438f743-9525-44aa-8cda-c8be3486e464","ios":"levelo://app?vid=e438f743-9525-44aa-8cda-c8be3486e464"},"vehicle_type_id":"4","last_reported":1758895697,"current_range_meters":16000,"station_id":"ce4bhqh2rcd13ifvqhmg","pricing_plan_id":"cebpf4jnsgd1na2vs0mg"},{"bike_id":"01bf55f2-4ac6-46f6-8504-3267bf31e1a6","system_id":"levelo_inurba_marseille","lat":43.2973,"lon":5.381787,"is_reserved":false,"is_disabled":false,"rental_uris":{"android":"levelo://app?vid=01bf55f2-4ac6-46f6-8504-3267bf31e1a6","ios":"levelo://app?vid=01bf55f2-4ac6-46f6-8504-3267bf31e1a6"},"vehicle_type_id":"4","last_reported":1758895697,"current_range_meters":16000,"station_id":"","pricing_plan_id":"cebpf4jnsgd1na2vs0mg"},{"bike_id":"bdf98283-e040-4f5f-94a3-6c902d369273","system_id":"levelo_inurba_marseille","lat":43.29722,"lon":5.37678,"is_reserved":false,"is_disabled":true,"rental_uris":{"android":"levelo://app?vid=bdf98283-e040-4f5f-94a3-6c902d369273","ios":"levelo://app?vid=bdf98283-e040-4f5f-94a3-6c902d369273"},"vehicle_type_id":"4","last_reported":1758895697,"current_range_meters":16000,"station_id":"ce4bgkh2rcd13ifvqbl0","pricing_plan_id":"cebpf4jnsgd1na2vs0mg"},{"bike_id":"8af06e57-2287-405e-bf15-6909d99308dd","system_id":"levelo_inurba_marseille","lat":43.31074,"lon":5.38355,"is_reserved":false,"is_disabled":false,"rental_uris":{"android":"levelo://app?vid=8af06e57-2287-405e-bf15-6909d99308dd","ios":"levelo://app?vid=8af06e57-2287-405e-bf15-6909d99308dd"},"vehicle_type_id":"4","last_reported":1758895697,"current_range_meters":16000,"station_id":"ce4bgv92rcd13ifvqcr0","pricing_plan_id":"cebpf4jnsgd1na2vs0mg"},{"bike_id":"dae51caa-82e9-42d5-824e-c10ad9bec3ed","system_id":"levelo_inurba_marseille","lat":43.240769,"lon":5.37759,"is_reserved":false,"is_disabled":false,"rental_uris":{"android":"levelo://app?vid=dae51caa-82e9-42d5-824e-c10ad9bec3ed","ios":"levelo://app?vid=dae51caa-82e9-42d5-824e-c10ad9bec3ed"},"vehicle_type_id":"4","last_reported":1758895697,"current_range_meters":16400,"station_id":"ce4bhnp2rcd13ifvqgvg","pricing_plan_id":"cebpf4jnsgd1na2vs0mg"},{"bike_id":"aadc9511-a4d9-4aec-95b0-6640600900b1","system_id":"levelo_inurba_marseille","lat":43.28427,"lon":5.34979,"is_reserved":false,"is_disabled":false,"rental_uris":{"android":"levelo://app?vid=aadc9511-a4d9-4aec-95b0-6640600900b1","ios":"levelo://app?vid=aadc9511-a4d9-4aec-95b0-6640600900b1"},"vehicle_type_id":"4","last_reported":1758895697,"current_range_meters":16400,"station_id":"ce4bhbh2rcd13ifvqepg","pricing_plan_id":"cebpf4jnsgd1na2vs0mg"},{"bike_id":"f7d02cdd-1af8-489d-84e6-2169828dbac6","system_id":"levelo_inurba_marseille","lat":43.30537,"lon":5.36715,"is_reserved":false,"is_disabled":false,"rental_uris":{"android":"levelo://app?vid=f7d02cdd-1af8-489d-84e6-2169828dbac6","ios":"levelo://app?vid=f7d02cdd-1af8-489d-84e6-2169828dbac6"},"vehicle_type_id":"4","last_reported":1758895697,"current_range_meters":16400,"station_id":"ce4bgrp2rcd13ifvqc9g","pricing_plan_id":"cebpf4jnsgd1na2vs0mg"},{"bike_id":"3cca746f-fac4-450b-bb9c-94a2c2908362","system_id":"levelo_inurba_marseille","lat":43.29002,"lon":5.37831,"is_reserved":false,"is_disabled":false,"rental_uris":{"android":"levelo://app?vid=3cca746f-fac4-450b-bb9c-94a2c2908362","ios":"levelo://app?vid=3cca746f-fac4-450b-bb9c-94a2c2908362"},"vehicle_type_id":"4","last_reported":1758895697,"current_range_meters":16400,"station_id":"ce4bh9p2rcd13ifvqed0","pricing_plan_id":"cebpf4jnsgd1na2vs0mg"},{"bike_id":"90175f95-ec46-4e62-8093-90cb82f2b356","system_id":"levelo_inurba_marseille","lat":43.23962,"lon":5.36636,"is_reserved":false,"is_disabled":false,"rental_uris":{"android":"levelo://app?vid=90175f95-ec46-4e62-8093-90cb82f2b356","ios":"levelo://app?vid=90175f95-ec46-4e62-8093-90cb82f2b356"},"vehicle_type_id":"4","last_reported":1758895697,"current_range_meters":16400,"station_id":"ce4bhi12rcd13ifvqfp0","pricing_plan_id":"cebpf4jnsgd1na2vs0mg"},{"bike_id":"ecde7416-5159-40e4-a639-87c55fad7fd9","system_id":"levelo_inurba_marseille","lat":43.23163,"lon":5.43708,"is_reserved":false,"is_disabled":false,"rental_uris":{"android":"levelo://app?vid=ecde7416-5159-40e4-a639-87c55fad7fd9","ios":"levelo://app?vid=ecde7416-5159-40e4-a639-87c55fad7fd9"},"vehicle_type_id":"4","last_reported":1758895697,"current_range_meters":16800,"station_id":"ce4bhmp2rcd13ifvqgog","pricing_plan_id":"cebpf4jnsgd1na2vs0mg"},{"bike_id":"ce73786b-8784-49ed-9455-b8629dcc4347","system_id":"levelo_inurba_marseille","lat":43.23149,"lon":5.43713,"is_reserved":false,"is_disabled":false,"rental_uris":{"android":"levelo://app?vid=ce73786b-8784-49ed-9455-b8629dcc4347","ios":"levelo://app?vid=ce73786b-8784-49ed-9455-b8629dcc4347"},"vehicle_type_id":"4","last_reported":1758895697,"current_range_meters":16400,"station_id":"ce4bhmp2rcd13ifvqgog","pricing_plan_id":"cebpf4jnsgd1na2vs0mg"},{"bike_id":"d797771b-18c2-46d0-8f08-8f540e16b982","system_id":"levelo_inurba_marseille","lat":43.24385,"lon":5.37058,"is_reserved":false,"is_disabled":false,"rental_uris":{"android":"levelo://app?vid=d797771b-18c2-46d0-8f08-8f540e16b982","ios":"levelo://app?vid=d797771b-18c2-46d0-8f08-8f540e16b982"},"vehicle_type_id":"4","last_reported":1758895697,"current_range_meters":16400,"station_id":"ce4bhhh2rcd13ifvqfk0","pricing_plan_id":"cebpf4jnsgd1na2vs0mg"},{"bike_id":"e9965d7f-c60b-4fbd-96cd-93282f8867aa","system_id":"levelo_inurba_marseille","lat":43.25337,"lon":5.42177,"is_reserved":false,"is_disabled":false,"rental_uris":{"android":"levelo://app?vid=e9965d7f-c60b-4fbd-96cd-93282f8867aa","ios":"levelo://app?vid=e9965d7f-c60b-4fbd-96cd-93282f8867aa"},"vehicle_type_id":"4","last_reported":1758895697,"current_range_meters":16400,"station_id":"st_d2m65c5bi1j21697t3ng","pricing_plan_id":"cebpf4jnsgd1na2vs0mg"},{"bike_id":"41fbe864-b9c2-4b8a-a22b-e40ee788b52e","system_id":"levelo_inurba_marseille","lat":43.25082,"lon":5.39506,"is_reserved":false,"is_disabled":false,"rental_uris":{"android":"levelo://app?vid=41fbe864-b9c2-4b8a-a22b-e40ee788b52e","ios":"levelo://app?vid=41fbe864-b9c2-4b8a-a22b-e40ee788b52e"},"vehicle_type_id":"4","last_reported":1758895697,"current_range_meters":16400,"station_id":"ce4bhm12rcd13ifvqgkg","pricing_plan_id":"cebpf4jnsgd1na2vs0mg"},{"bike_id":"175ed984-4779-4b98-920a-039ca300eaa4","system_id":"levelo_inurba_marseille","lat":43.27292,"lon":5.40808,"is_reserved":false,"is_disabled":false,"rental_uris":{"android":"levelo://app?vid=175ed984-4779-4b98-920a-039ca300eaa4","ios":"levelo://app?vid=175ed984-4779-4b98-920a-039ca300eaa4"},"vehicle_type_id":"4","last_reported":1758895697,"current_range_meters":16800,"station_id":"","pricing_plan_id":"cebpf4jnsgd1na2vs0mg"},{"bike_id":"41ef092c-ee90-4d19-a8ac-f7d75db6d4ff","system_id":"levelo_inurba_marseille","lat":43.296128,"lon":5.39488,"is_reserved":false,"is_disabled":false,"rental_uris":{"android":"levelo://app?vid=41ef092c-ee90-4d19-a8ac-f7d75db6d4ff","ios":"levelo://app?vid=41ef092c-ee90-4d19-a8ac-f7d75db6d4ff"},"vehicle_type_id":"4","last_reported":1758895697,"current_range_meters":16800,"station_id":"ce4bh292rcd13ifvqdf0","pricing_plan_id":"cebpf4jnsgd1na2vs0mg"},{"bike_id":"f3eb1caa-525d-4b47-b29d-d5db2bea5e31","system_id":"levelo_inurba_marseille","lat":43.23191,"lon":5.35554,"is_reserved":false,"is_disabled":false,"rental_uris":{"android":"levelo://app?vid=f3eb1caa-525d-4b47-b29d-d5db2bea5e31","ios":"levelo://app?vid=f3eb1caa-525d-4b47-b29d-d5db2bea5e31"},"vehicle_type_id":"4","last_reported":1758895697,"current_range_meters":16800,"station_id":"ce4bhu92rcd13ifvqi70","pricing_plan_id":"cebpf4jnsgd1na2vs0mg"},{"bike_id":"31042d5d-7923-42d0-b908-c5f6d97e950c","system_id":"levelo_inurba_marseille","lat":43.28376,"lon":5.38633,"is_reserved":false,"is_disabled":false,"rental_uris":{"android":"levelo://app?vid=31042d5d-7923-42d0-b908-c5f6d97e950c","ios":"levelo://app?vid=31042d5d-7923-42d0-b908-c5f6d97e950c"},"vehicle_type_id":"4","last_reported":1758895697,"current_range_meters":16800,"station_id":"ce4bh492rcd13ifvqdvg","pricing_plan_id":"cebpf4jnsgd1na2vs0mg"},{"bike_id":"a6187c30-1c11-4309-be70-335b3ca8c646","system_id":"levelo_inurba_marseille","lat":43.2119,"lon":5.35066,"is_reserved":false,"is_disabled":false,"rental_uris":{"android":"levelo://app?vid=a6187c30-1c11-4309-be70-335b3ca8c646","ios":"levelo://app?vid=a6187c30-1c11-4309-be70-335b3ca8c646"},"vehicle_type_id":"4","last_reported":1758895697,"current_range_meters":16800,"station_id":"","pricing_plan_id":"cebpf4jnsgd1na2vs0mg"},{"bike_id":"e779d08a-1a84-4bd9-a859-f68c0edf2357","system_id":"levelo_inurba_marseille","lat":43.290304,"lon":5.386451,"is_reserved":false,"is_disabled":false,"rental_uris":{"android":"levelo://app?vid=e779d08a-1a84-4bd9-a859-f68c0edf2357","ios":"levelo://app?vid=e779d08a-1a84-4bd9-a859-f68c0edf2357"},"vehicle_type_id":"4","last_reported":1758895697,"current_range_meters":16800,"station_id":"ce4bh4p2rcd13ifvqe0g","pricing_plan_id":"cebpf4jnsgd1na2vs0mg"},{"bike_id":"7126a9f9-a1be-4cf1-9e53-23def2f66fdb","system_id":"levelo_inurba_marseille","lat":43.24803,"lon":5.37454,"is_reserved":false,"is_disabled":false,"rental_uris":{"android":"levelo://app?vid=7126a9f9-a1be-4cf1-9e53-23def2f66fdb","ios":"levelo://app?vid=7126a9f9-a1be-4cf1-9e53-23def2f66fdb"},"vehicle_type_id":"4","last_reported":1758895697,"current_range_meters":16800,"station_id":"ce4bhgh2rcd13ifvqfb0","pricing_plan_id":"cebpf4jnsgd1na2vs0mg"},{"bike_id":"7f249506-fe7f-4ad9-be64-67212f4f10f8","system_id":"levelo_inurba_marseille","lat":43.32462,"lon":5.36592,"is_reserved":false,"is_disabled":false,"rental_uris":{"android":"levelo://app?vid=7f249506-fe7f-4ad9-be64-67212f4f10f8","ios":"levelo://app?vid=7f249506-fe7f-4ad9-be64-67212f4f10f8"},"vehicle_type_id":"4","last_reported":1758895697,"current_range_meters":16800,"station_id":"ce4bhs12rcd13ifvqhvg","pricing_plan_id":"cebpf4jnsgd1na2vs0mg"},{"bike_id":"66d7338f-5df2-47d3-9ca4-acf9a7aae8f8","system_id":"levelo_inurba_marseille","lat":43.336018,"lon":5.410123,"is_reserved":false,"is_disabled":false,"rental_uris":{"android":"levelo://app?vid=66d7338f-5df2-47d3-9ca4-acf9a7aae8f8","ios":"levelo://app?vid=66d7338f-5df2-47d3-9ca4-acf9a7aae8f8"},"vehicle_type_id":"4","last_reported":1758895697,"current_range_meters":16800,"station_id":"ce4bhqh2rcd13ifvqhmg","pricing_plan_id":"cebpf4jnsgd1na2vs0mg"},{"bike_id":"cb7aa6ae-ed8c-4a2a-a61b-e1163a9b53c1","system_id":"levelo_inurba_marseille","lat":43.30639,"lon":5.40096,"is_reserved":false,"is_disabled":false,"rental_uris":{"android":"levelo://app?vid=cb7aa6ae-ed8c-4a2a-a61b-e1163a9b53c1","ios":"levelo://app?vid=cb7aa6ae-ed8c-4a2a-a61b-e1163a9b53c1"},"vehicle_type_id":"4","last_reported":1758895697,"current_range_meters":16400,"station_id":"ce4bh112rcd13ifvqda0","pricing_plan_id":"cebpf4jnsgd1na2vs0mg"},{"bike_id":"80bdba63-46f3-4274-b0d9-d9711409b6a8","system_id":"levelo_inurba_marseille","lat":43.270752,"lon":5.402497,"is_reserved":false,"is_disabled":false,"rental_uris":{"android":"levelo://app?vid=80bdba63-46f3-4274-b0d9-d9711409b6a8","ios":"levelo://app?vid=80bdba63-46f3-4274-b0d9-d9711409b6a8"},"vehicle_type_id":"4","last_reported":1758895697,"current_range_meters":16800,"station_id":"","pricing_plan_id":"cebpf4jnsgd1na2vs0mg"},{"bike_id":"ee925a9c-c600-454e-8837-0da5956fd25f","system_id":"levelo_inurba_marseille","lat":43.2295,"lon":5.35356,"is_reserved":false,"is_disabled":false,"rental_uris":{"android":"levelo://app?vid=ee925a9c-c600-454e-8837-0da5956fd25f","ios":"levelo://app?vid=ee925a9c-c600-454e-8837-0da5956fd25f"},"vehicle_type_id":"4","last_reported":1758895697,"current_range_meters":16800,"station_id":"cpo3532slgdg3j2ikp40","pricing_plan_id":"cebpf4jnsgd1na2vs0mg"},{"bike_id":"8cf842e4-76c1-4a82-ad31-66529da65dba","system_id":"levelo_inurba_marseille","lat":43.26698,"lon":5.40234,"is_reserved":false,"is_disabled":false,"rental_uris":{"android":"levelo://app?vid=8cf842e4-76c1-4a82-ad31-66529da65dba","ios":"levelo://app?vid=8cf842e4-76c1-4a82-ad31-66529da65dba"},"vehicle_type_id":"4","last_reported":1758895697,"current_range_meters":17200,"station_id":"","pricing_plan_id":"cebpf4jnsgd1na2vs0mg"},{"bike_id":"ff80ace9-5bb1-4400-92db-811f67417271","system_id":"levelo_inurba_marseille","lat":43.2495,"lon":5.40484,"is_reserved":false,"is_disabled":false,"rental_uris":{"android":"levelo://app?vid=ff80ace9-5bb1-4400-92db-811f67417271","ios":"levelo://app?vid=ff80ace9-5bb1-4400-92db-811f67417271"},"vehicle_type_id":"4","last_reported":1758895697,"current_range_meters":17200,"station_id":"st_d2ngiaodas8pm72gd1h0","pricing_plan_id":"cebpf4jnsgd1na2vs0mg"},{"bike_id":"974e8ccf-20f8-4c6c-9957-701330f16485","system_id":"levelo_inurba_marseille","lat":43.290113,"lon":5.381098,"is_reserved":false,"is_disabled":false,"rental_uris":{"android":"levelo://app?vid=974e8ccf-20f8-4c6c-9957-701330f16485","ios":"levelo://app?vid=974e8ccf-20f8-4c6c-9957-701330f16485"},"vehicle_type_id":"4","last_reported":1758895697,"current_range_meters":16800,"station_id":"ce4bh4p2rcd13ifvqe1g","pricing_plan_id":"cebpf4jnsgd1na2vs0mg"},{"bike_id":"934ea1ec-b7f6-49a1-9efa-287317d4eb22","system_id":"levelo_inurba_marseille","lat":43.29048,"lon":5.35914,"is_reserved":false,"is_disabled":false,"rental_uris":{"android":"levelo://app?vid=934ea1ec-b7f6-49a1-9efa-287317d4eb22","ios":"levelo://app?vid=934ea1ec-b7f6-49a1-9efa-287317d4eb22"},"vehicle_type_id":"4","last_reported":1758895697,"current_range_meters":17200,"station_id":"","pricing_plan_id":"cebpf4jnsgd1na2vs0mg"},{"bike_id":"7f7c18ad-2aef-4731-977f-1de73d3d9bba","system_id":"levelo_inurba_marseille","lat":43.27366,"lon":5.36256,"is_reserved":false,"is_disabled":false,"rental_uris":{"android":"levelo://app?vid=7f7c18ad-2aef-4731-977f-1de73d3d9bba","ios":"levelo://app?vid=7f7c18ad-2aef-4731-977f-1de73d3d9bba"},"vehicle_type_id":"4","last_reported":1758895697,"current_range_meters":17200,"station_id":"ce4bhbh2rcd13ifvqeo0","pricing_plan_id":"cebpf4jnsgd1na2vs0mg"},{"bike_id":"63c0879c-e69b-4e84-9806-c068fbaee754","system_id":"levelo_inurba_marseille","lat":43.22925,"lon":5.35372,"is_reserved":false,"is_disabled":false,"rental_uris":{"android":"levelo://app?vid=63c0879c-e69b-4e84-9806-c068fbaee754","ios":"levelo://app?vid=63c0879c-e69b-4e84-9806-c068fbaee754"},"vehicle_type_id":"4","last_reported":1758895697,"current_range_meters":17200,"station_id":"cpo3532slgdg3j2ikp40","pricing_plan_id":"cebpf4jnsgd1na2vs0mg"},{"bike_id":"4b875ff3-e176-459e-a55f-218ed0dfcd71","system_id":"levelo_inurba_marseille","lat":43.27376,"lon":5.3625,"is_reserved":false,"is_disabled":false,"rental_uris":{"android":"levelo://app?vid=4b875ff3-e176-459e-a55f-218ed0dfcd71","ios":"levelo://app?vid=4b875ff3-e176-459e-a55f-218ed0dfcd71"},"vehicle_type_id":"4","last_reported":1758895697,"current_range_meters":17200,"station_id":"ce4bhbh2rcd13ifvqeo0","pricing_plan_id":"cebpf4jnsgd1na2vs0mg"},{"bike_id":"ede9cd09-f950-4ab4-922b-b26cfe1d5b86","system_id":"levelo_inurba_marseille","lat":43.23187,"lon":5.39988,"is_reserved":false,"is_disabled":false,"rental_uris":{"android":"levelo://app?vid=ede9cd09-f950-4ab4-922b-b26cfe1d5b86","ios":"levelo://app?vid=ede9cd09-f950-4ab4-922b-b26cfe1d5b86"},"vehicle_type_id":"4","last_reported":1758895697,"current_range_meters":17200,"station_id":"ce4bhn12rcd13ifvqgqg","pricing_plan_id":"cebpf4jnsgd1na2vs0mg"},{"bike_id":"3a1b0aec-41fe-4fe4-a265-d1a9001d0607","system_id":"levelo_inurba_marseille","lat":43.27991,"lon":5.41658,"is_reserved":false,"is_disabled":false,"rental_uris":{"android":"levelo://app?vid=3a1b0aec-41fe-4fe4-a265-d1a9001d0607","ios":"levelo://app?vid=3a1b0aec-41fe-4fe4-a265-d1a9001d0607"},"vehicle_type_id":"4","last_reported":1758895697,"current_range_meters":17200,"station_id":"ce4bho12rcd13ifvqh1g","pricing_plan_id":"cebpf4jnsgd1na2vs0mg"},{"bike_id":"90446091-6b57-4d07-9778-ae83816747e4","system_id":"levelo_inurba_marseille","lat":43.31072,"lon":5.38355,"is_reserved":false,"is_disabled":false,"rental_uris":{"android":"levelo://app?vid=90446091-6b57-4d07-9778-ae83816747e4","ios":"levelo://app?vid=90446091-6b57-4d07-9778-ae83816747e4"},"vehicle_type_id":"4","last_reported":1758895697,"current_range_meters":17200,"station_id":"ce4bgv92rcd13ifvqcr0","pricing_plan_id":"cebpf4jnsgd1na2vs0mg"},{"bike_id":"ac9d3204-6075-4372-a1c7-c680ded3bf74","system_id":"levelo_inurba_marseille","lat":43.23149,"lon":5.43726,"is_reserved":false,"is_disabled":false,"rental_uris":{"android":"levelo://app?vid=ac9d3204-6075-4372-a1c7-c680ded3bf74","ios":"levelo://app?vid=ac9d3204-6075-4372-a1c7-c680ded3bf74"},"vehicle_type_id":"4","last_reported":1758895697,"current_range_meters":17200,"station_id":"ce4bhmp2rcd13ifvqgog","pricing_plan_id":"cebpf4jnsgd1na2vs0mg"},{"bike_id":"4614cefb-8a94-4938-914f-0b0409b9d685","system_id":"levelo_inurba_marseille","lat":43.30885,"lon":5.39656,"is_reserved":false,"is_disabled":false,"rental_uris":{"android":"levelo://app?vid=4614cefb-8a94-4938-914f-0b0409b9d685","ios":"levelo://app?vid=4614cefb-8a94-4938-914f-0b0409b9d685"},"vehicle_type_id":"4","last_reported":1758895697,"current_range_meters":17200,"station_id":"ce4bh012rcd13ifvqcv0","pricing_plan_id":"cebpf4jnsgd1na2vs0mg"},{"bike_id":"54509b86-6b3c-4a67-a89c-79f8be1e44b6","system_id":"levelo_inurba_marseille","lat":43.290488,"lon":5.359059,"is_reserved":false,"is_disabled":false,"rental_uris":{"android":"levelo://app?vid=54509b86-6b3c-4a67-a89c-79f8be1e44b6","ios":"levelo://app?vid=54509b86-6b3c-4a67-a89c-79f8be1e44b6"},"vehicle_type_id":"4","last_reported":1758895697,"current_range_meters":17200,"station_id":"ce4bha92rcd13ifvqeg0","pricing_plan_id":"cebpf4jnsgd1na2vs0mg"},{"bike_id":"6508e603-daed-4505-ae37-54685a4d050f","system_id":"levelo_inurba_marseille","lat":43.27308,"lon":5.39094,"is_reserved":false,"is_disabled":false,"rental_uris":{"android":"levelo://app?vid=6508e603-daed-4505-ae37-54685a4d050f","ios":"levelo://app?vid=6508e603-daed-4505-ae37-54685a4d050f"},"vehicle_type_id":"4","last_reported":1758895697,"current_range_meters":17600,"station_id":"ce4bhgp2rcd13ifvqfe0","pricing_plan_id":"cebpf4jnsgd1na2vs0mg"},{"bike_id":"12f126bd-e33b-4c0b-a692-82e63dfa4861","system_id":"levelo_inurba_marseille","lat":43.23195,"lon":5.39983,"is_reserved":false,"is_disabled":false,"rental_uris":{"android":"levelo://app?vid=12f126bd-e33b-4c0b-a692-82e63dfa4861","ios":"levelo://app?vid=12f126bd-e33b-4c0b-a692-82e63dfa4861"},"vehicle_type_id":"4","last_reported":1758895697,"current_range_meters":17600,"station_id":"ce4bhn12rcd13ifvqgqg","pricing_plan_id":"cebpf4jnsgd1na2vs0mg"},{"bike_id":"82cf85ff-c9bc-4d34-9fba-817448bb3b6c","system_id":"levelo_inurba_marseille","lat":43.27996,"lon":5.41656,"is_reserved":false,"is_disabled":false,"rental_uris":{"android":"levelo://app?vid=82cf85ff-c9bc-4d34-9fba-817448bb3b6c","ios":"levelo://app?vid=82cf85ff-c9bc-4d34-9fba-817448bb3b6c"},"vehicle_type_id":"4","last_reported":1758895697,"current_range_meters":17600,"station_id":"ce4bho12rcd13ifvqh1g","pricing_plan_id":"cebpf4jnsgd1na2vs0mg"},{"bike_id":"c3e4eb6c-d62e-4131-be68-cf6a90ff81da","system_id":"levelo_inurba_marseille","lat":43.23185,"lon":5.39984,"is_reserved":false,"is_disabled":false,"rental_uris":{"android":"levelo://app?vid=c3e4eb6c-d62e-4131-be68-cf6a90ff81da","ios":"levelo://app?vid=c3e4eb6c-d62e-4131-be68-cf6a90ff81da"},"vehicle_type_id":"4","last_reported":1758895697,"current_range_meters":17600,"station_id":"ce4bhn12rcd13ifvqgqg","pricing_plan_id":"cebpf4jnsgd1na2vs0mg"},{"bike_id":"7f09bc43-02a6-468a-9182-731c83281b4a","system_id":"levelo_inurba_marseille","lat":43.26358,"lon":5.37501,"is_reserved":false,"is_disabled":false,"rental_uris":{"android":"levelo://app?vid=7f09bc43-02a6-468a-9182-731c83281b4a","ios":"levelo://app?vid=7f09bc43-02a6-468a-9182-731c83281b4a"},"vehicle_type_id":"4","last_reported":1758895697,"current_range_meters":17600,"station_id":"","pricing_plan_id":"cebpf4jnsgd1na2vs0mg"},{"bike_id":"307a4f60-af00-438d-8d2d-1b5d17269b1f","system_id":"levelo_inurba_marseille","lat":43.25582,"lon":5.38228,"is_reserved":false,"is_disabled":false,"rental_uris":{"android":"levelo://app?vid=307a4f60-af00-438d-8d2d-1b5d17269b1f","ios":"levelo://app?vid=307a4f60-af00-438d-8d2d-1b5d17269b1f"},"vehicle_type_id":"4","last_reported":1758895697,"current_range_meters":17600,"station_id":"ce4bhih2rcd13ifvqfs0","pricing_plan_id":"cebpf4jnsgd1na2vs0mg"},{"bike_id":"a86da005-62c0-4966-b8b6-aed7a141db46","system_id":"levelo_inurba_marseille","lat":43.29803,"lon":5.38078,"is_reserved":false,"is_disabled":false,"rental_uris":{"android":"levelo://app?vid=a86da005-62c0-4966-b8b6-aed7a141db46","ios":"levelo://app?vid=a86da005-62c0-4966-b8b6-aed7a141db46"},"vehicle_type_id":"4","last_reported":1758895697,"current_range_meters":17600,"station_id":"ce4bgip2rcd13ifvqbb0","pricing_plan_id":"cebpf4jnsgd1na2vs0mg"},{"bike_id":"800bbb63-2d68-4f7a-8441-138ae3ce7e01","system_id":"levelo_inurba_marseille","lat":43.30548,"lon":5.36558,"is_reserved":false,"is_disabled":false,"rental_uris":{"android":"levelo://app?vid=800bbb63-2d68-4f7a-8441-138ae3ce7e01","ios":"levelo://app?vid=800bbb63-2d68-4f7a-8441-138ae3ce7e01"},"vehicle_type_id":"4","last_reported":1758895697,"current_range_meters":17200,"station_id":"ce4bgs12rcd13ifvqcag","pricing_plan_id":"cebpf4jnsgd1na2vs0mg"},{"bike_id":"371fd6e1-ff4a-4143-98fe-3368993b3f11","system_id":"levelo_inurba_marseille","lat":43.21205,"lon":5.35031,"is_reserved":false,"is_disabled":false,"rental_uris":{"android":"levelo://app?vid=371fd6e1-ff4a-4143-98fe-3368993b3f11","ios":"levelo://app?vid=371fd6e1-ff4a-4143-98fe-3368993b3f11"},"vehicle_type_id":"4","last_reported":1758895697,"current_range_meters":17600,"station_id":"st_cvj6sg6p6f1abm77japg","pricing_plan_id":"cebpf4jnsgd1na2vs0mg"},{"bike_id":"052c59a7-1cc4-4bbc-97f5-180981a63118","system_id":"levelo_inurba_marseille","lat":43.24628,"lon":5.43148,"is_reserved":false,"is_disabled":false,"rental_uris":{"android":"levelo://app?vid=052c59a7-1cc4-4bbc-97f5-180981a63118","ios":"levelo://app?vid=052c59a7-1cc4-4bbc-97f5-180981a63118"},"vehicle_type_id":"4","last_reported":1758895697,"current_range_meters":17600,"station_id":"st_d2m6c4gdas8pm72e190g","pricing_plan_id":"cebpf4jnsgd1na2vs0mg"},{"bike_id":"03350417-1098-4d6c-b8fe-9e64358744bf","system_id":"levelo_inurba_marseille","lat":43.31045,"lon":5.37573,"is_reserved":false,"is_disabled":false,"rental_uris":{"android":"levelo://app?vid=03350417-1098-4d6c-b8fe-9e64358744bf","ios":"levelo://app?vid=03350417-1098-4d6c-b8fe-9e64358744bf"},"vehicle_type_id":"4","last_reported":1758895697,"current_range_meters":17600,"station_id":"","pricing_plan_id":"cebpf4jnsgd1na2vs0mg"},{"bike_id":"c3aaf357-dacd-44ee-849c-77627935c404","system_id":"levelo_inurba_marseille","lat":43.31207,"lon":5.36859,"is_reserved":false,"is_disabled":false,"rental_uris":{"android":"levelo://app?vid=c3aaf357-dacd-44ee-849c-77627935c404","ios":"levelo://app?vid=c3aaf357-dacd-44ee-849c-77627935c404"},"vehicle_type_id":"4","last_reported":1758895697,"current_range_meters":18000,"station_id":"ce4bgl92rcd13ifvqbq0","pricing_plan_id":"cebpf4jnsgd1na2vs0mg"},{"bike_id":"661fd210-a8fb-4260-93f0-dad20cdee8b3","system_id":"levelo_inurba_marseille","lat":43.30549,"lon":5.36547,"is_reserved":false,"is_disabled":false,"rental_uris":{"android":"levelo://app?vid=661fd210-a8fb-4260-93f0-dad20cdee8b3","ios":"levelo://app?vid=661fd210-a8fb-4260-93f0-dad20cdee8b3"},"vehicle_type_id":"4","last_reported":1758895697,"current_range_meters":18000,"station_id":"ce4bgs12rcd13ifvqcag","pricing_plan_id":"cebpf4jnsgd1na2vs0mg"},{"bike_id":"5bb42022-0e19-48bc-a5b4-218bb1d7482e","system_id":"levelo_inurba_marseille","lat":43.31268,"lon":5.37723,"is_reserved":false,"is_disabled":false,"rental_uris":{"android":"levelo://app?vid=5bb42022-0e19-48bc-a5b4-218bb1d7482e","ios":"levelo://app?vid=5bb42022-0e19-48bc-a5b4-218bb1d7482e"},"vehicle_type_id":"4","last_reported":1758895697,"current_range_meters":18000,"station_id":"","pricing_plan_id":"cebpf4jnsgd1na2vs0mg"},{"bike_id":"c74b8783-f851-4c25-8eb2-3e8df5b1507e","system_id":"levelo_inurba_marseille","lat":43.30277,"lon":5.37711,"is_reserved":false,"is_disabled":false,"rental_uris":{"android":"levelo://app?vid=c74b8783-f851-4c25-8eb2-3e8df5b1507e","ios":"levelo://app?vid=c74b8783-f851-4c25-8eb2-3e8df5b1507e"},"vehicle_type_id":"4","last_reported":1758895697,"current_range_meters":17600,"station_id":"ce4bguh2rcd13ifvqcj0","pricing_plan_id":"cebpf4jnsgd1na2vs0mg"},{"bike_id":"ff675049-f0f2-4324-858a-e36027835893","system_id":"levelo_inurba_marseille","lat":43.25936,"lon":5.4089,"is_reserved":false,"is_disabled":false,"rental_uris":{"android":"levelo://app?vid=ff675049-f0f2-4324-858a-e36027835893","ios":"levelo://app?vid=ff675049-f0f2-4324-858a-e36027835893"},"vehicle_type_id":"4","last_reported":1758895697,"current_range_meters":18000,"station_id":"ce4bhm92rcd13ifvqglg","pricing_plan_id":"cebpf4jnsgd1na2vs0mg"},{"bike_id":"00494059-65d2-4aa0-9e57-8baa3f33d16c","system_id":"levelo_inurba_marseille","lat":43.33142,"lon":5.38163,"is_reserved":false,"is_disabled":false,"rental_uris":{"android":"levelo://app?vid=00494059-65d2-4aa0-9e57-8baa3f33d16c","ios":"levelo://app?vid=00494059-65d2-4aa0-9e57-8baa3f33d16c"},"vehicle_type_id":"4","last_reported":1758895697,"current_range_meters":18000,"station_id":"","pricing_plan_id":"cebpf4jnsgd1na2vs0mg"},{"bike_id":"8bcff4df-5d98-4e7f-a7b5-80020a646b03","system_id":"levelo_inurba_marseille","lat":43.28412,"lon":5.34973,"is_reserved":false,"is_disabled":false,"rental_uris":{"android":"levelo://app?vid=8bcff4df-5d98-4e7f-a7b5-80020a646b03","ios":"levelo://app?vid=8bcff4df-5d98-4e7f-a7b5-80020a646b03"},"vehicle_type_id":"4","last_reported":1758895697,"current_range_meters":18800,"station_id":"ce4bhbh2rcd13ifvqepg","pricing_plan_id":"cebpf4jnsgd1na2vs0mg"},{"bike_id":"327c041e-5c9e-4b0d-a97c-a2dbaab036ae","system_id":"levelo_inurba_marseille","lat":43.32813,"lon":5.4113,"is_reserved":false,"is_disabled":false,"rental_uris":{"android":"levelo://app?vid=327c041e-5c9e-4b0d-a97c-a2dbaab036ae","ios":"levelo://app?vid=327c041e-5c9e-4b0d-a97c-a2dbaab036ae"},"vehicle_type_id":"4","last_reported":1758895697,"current_range_meters":18800,"station_id":"","pricing_plan_id":"cebpf4jnsgd1na2vs0mg"},{"bike_id":"0445961a-8d71-4a5e-9617-3ea41ebff69a","system_id":"levelo_inurba_marseille","lat":43.2417,"lon":5.36382,"is_reserved":false,"is_disabled":false,"rental_uris":{"android":"levelo://app?vid=0445961a-8d71-4a5e-9617-3ea41ebff69a","ios":"levelo://app?vid=0445961a-8d71-4a5e-9617-3ea41ebff69a"},"vehicle_type_id":"4","last_reported":1758895697,"current_range_meters":18800,"station_id":"cpo36qri1sfpv3e86is0","pricing_plan_id":"cebpf4jnsgd1na2vs0mg"},{"bike_id":"eb02782b-e284-4a34-9df2-248c9f6bbfd9","system_id":"levelo_inurba_marseille","lat":43.28272,"lon":5.35068,"is_reserved":false,"is_disabled":false,"rental_uris":{"android":"levelo://app?vid=eb02782b-e284-4a34-9df2-248c9f6bbfd9","ios":"levelo://app?vid=eb02782b-e284-4a34-9df2-248c9f6bbfd9"},"vehicle_type_id":"4","last_reported":1758895697,"current_range_meters":18800,"station_id":"ce4bhbp2rcd13ifvqerg","pricing_plan_id":"cebpf4jnsgd1na2vs0mg"},{"bike_id":"62ce66cb-1635-4a69-a130-1a65a75f4da4","system_id":"levelo_inurba_marseille","lat":43.29219,"lon":5.36091,"is_reserved":false,"is_disabled":false,"rental_uris":{"android":"levelo://app?vid=62ce66cb-1635-4a69-a130-1a65a75f4da4","ios":"levelo://app?vid=62ce66cb-1635-4a69-a130-1a65a75f4da4"},"vehicle_type_id":"4","last_reported":1758895697,"current_range_meters":18800,"station_id":"ce4bhbh2rcd13ifvqeqg","pricing_plan_id":"cebpf4jnsgd1na2vs0mg"},{"bike_id":"78cd9e3a-564f-407e-824a-b8730f4cc26c","system_id":"levelo_inurba_marseille","lat":43.27378,"lon":5.36256,"is_reserved":false,"is_disabled":false,"rental_uris":{"android":"levelo://app?vid=78cd9e3a-564f-407e-824a-b8730f4cc26c","ios":"levelo://app?vid=78cd9e3a-564f-407e-824a-b8730f4cc26c"},"vehicle_type_id":"4","last_reported":1758895697,"current_range_meters":18800,"station_id":"ce4bhbh2rcd13ifvqeo0","pricing_plan_id":"cebpf4jnsgd1na2vs0mg"},{"bike_id":"64ee13db-2355-4146-a2f2-432856fdb7e9","system_id":"levelo_inurba_marseille","lat":43.23056,"lon":5.3548,"is_reserved":false,"is_disabled":false,"rental_uris":{"android":"levelo://app?vid=64ee13db-2355-4146-a2f2-432856fdb7e9","ios":"levelo://app?vid=64ee13db-2355-4146-a2f2-432856fdb7e9"},"vehicle_type_id":"4","last_reported":1758895697,"current_range_meters":18800,"station_id":"cpo3342slgdg3j2ifvpg","pricing_plan_id":"cebpf4jnsgd1na2vs0mg"},{"bike_id":"46ac5fb6-ac2e-43e8-84c9-c4e46889ea29","system_id":"levelo_inurba_marseille","lat":43.21201,"lon":5.35063,"is_reserved":false,"is_disabled":false,"rental_uris":{"android":"levelo://app?vid=46ac5fb6-ac2e-43e8-84c9-c4e46889ea29","ios":"levelo://app?vid=46ac5fb6-ac2e-43e8-84c9-c4e46889ea29"},"vehicle_type_id":"4","last_reported":1758895697,"current_range_meters":18800,"station_id":"st_cvj6sg6p6f1abm77japg","pricing_plan_id":"cebpf4jnsgd1na2vs0mg"},{"bike_id":"9feae468-b8bd-422a-8fcb-2d68fc5ee82c","system_id":"levelo_inurba_marseille","lat":43.33369,"lon":5.42038,"is_reserved":false,"is_disabled":false,"rental_uris":{"android":"levelo://app?vid=9feae468-b8bd-422a-8fcb-2d68fc5ee82c","ios":"levelo://app?vid=9feae468-b8bd-422a-8fcb-2d68fc5ee82c"},"vehicle_type_id":"4","last_reported":1758895697,"current_range_meters":19200,"station_id":"","pricing_plan_id":"cebpf4jnsgd1na2vs0mg"},