{"last_updated":1779061716,"ttl":60,"version":"2.2","data":{"bikes":[{"bike_id":"e1621694-bb42-453c-aca7-a699207bcfa9","system_id":"levelo_inurba_marseille","lat":43.22589,"lon":5.41628,"is_reserved":false,"is_disabled":false,"rental_uris":{"android":"levelo://app?vid=e1621694-bb42-453c-aca7-a699207bcfa9","ios":"levelo://app?vid=e1621694-bb42-453c-aca7-a699207bcfa9"},"vehicle_type_id":"4","last_reported":1779061717,"current_range_meters":2800,"station_id":"st_d2o4gvlbi1j2169b742g","pricing_plan_id":"cebpf4jnsgd1na2vs0mg"},{"bike_id":"38996ffc-eec2-4454-a428-1e88aee3c820","system_id":"levelo_inurba_marseille","lat":43.26572,"lon":5.39005,"is_reserved":false,"is_disabled":true,"rental_uris":{"android":"levelo://app?vid=38996ffc-eec2-4454-a428-1e88aee3c820","ios":"levelo://app?vid=38996ffc-eec2-4454-a428-1e88aee3c820"},"vehicle_type_id":"4","last_reported":1779061717,"current_range_meters":2800,"station_id":"ce4bhe12rcd13ifvqf30","pricing_plan_id":"cebpf4jnsgd1na2vs0mg"},{"bike_id":"a827883e-9cf3-4c68-b3b3-a15871b9e5c5","system_id":"levelo_inurba_marseille","lat":43.29865,"lon":5.39714,"is_reserved":false,"is_disabled":false,"rental_uris":{"android":"levelo://app?vid=a827883e-9cf3-4c68-b3b3-a15871b9e5c5","ios":"levelo://app?vid=a827883e-9cf3-4c68-b3b3-a15871b9e5c5"},"vehicle_type_id":"4","last_reported":1779061717,"current_range_meters":2800,"station_id":"ce4bh0h2rcd13ifvqd50","pricing_plan_id":"cebpf4jnsgd1na2vs0mg"},{"bike_id":"31a4d899-c541-46bf-9eaa-46751c9055c1","system_id":"levelo_inurba_marseille","lat":43.255,"lon":5.37672,"is_reserved":false,"is_disabled":true,"rental_uris":{"android":"levelo://app?vid=31a4d899-c541-46bf-9eaa-46751c9055c1","ios":"levelo://app?vid=31a4d899-c541-46bf-9eaa-46751c9055c1"},"vehicle_type_id":"4","last_reported":1779061717,"current_range_meters":2800,"station_id":"ce4bhh12rcd13ifvqff0","pricing_plan_id":"cebpf4jnsgd1na2vs0mg"},{"bike_id":"bcb3e656-2f31-4f00-9a40-518e43dc3f6e","system_id":"levelo_inurba_marseille","lat":43.225281,"lon":5.348366,"is_reserved":false,"is_disabled":true,"rental_uris":{"android":"levelo://app?vid=bcb3e656-2f31-4f00-9a40-518e43dc3f6e","ios":"levelo://app?vid=bcb3e656-2f31-4f00-9a40-518e43dc3f6e"},"vehicle_type_id":"4","last_reported":1779061717,"current_range_meters":2800,"station_id":"st_cvj5dfep6f1abm77gieg","pricing_plan_id":"cebpf4jnsgd1na2vs0mg"},{"bike_id":"fca81563-9f65-46d1-8b3c-7aac354d703c","system_id":"levelo_inurba_marseille","lat":43.29676,"lon":5.42765,"is_reserved":false,"is_disabled":false,"rental_uris":{"android":"levelo://app?vid=fca81563-9f65-46d1-8b3c-7aac354d703c","ios":"levelo://app?vid=fca81563-9f65-46d1-8b3c-7aac354d703c"},"vehicle_type_id":"4","last_reported":1779061717,"current_range_meters":2800,"station_id":"st_d3md5207bmas73dh9klg","pricing_plan_id":"cebpf4jnsgd1na2vs0mg"},{"bike_id":"fb8d892b-80cc-4883-b722-e347907ef2f2","system_id":"levelo_inurba_marseille","lat":43.28448,"lon":5.35898,"is_reserved":false,"is_disabled":false,"rental_uris":{"android":"levelo://app?vid=fb8d892b-80cc-4883-b722-e347907ef2f2","ios":"levelo://app?vid=fb8d892b-80cc-4883-b722-e347907ef2f2"},"vehicle_type_id":"4","last_reported":1779061717,"current_range_meters":2800,"station_id":"ce4bhah2rcd13ifvqei0","pricing_plan_id":"cebpf4jnsgd1na2vs0mg"},{"bike_id":"f4ac43d0-437d-4395-9f18-334ea2a19612","system_id":"levelo_inurba_marseille","lat":43.24074,"lon":5.37761,"is_reserved":false,"is_disabled":false,"rental_uris":{"android":"levelo://app?vid=f4ac43d0-437d-4395-9f18-334ea2a19612","ios":"levelo://app?vid=f4ac43d0-437d-4395-9f18-334ea2a19612"},"vehicle_type_id":"4","last_reported":1779061717,"current_range_meters":2800,"station_id":"ce4bhnp2rcd13ifvqgvg","pricing_plan_id":"cebpf4jnsgd1na2vs0mg"},{"bike_id":"45ac7c55-1e1f-4122-af2e-0361b6b76e7f","system_id":"levelo_inurba_marseille","lat":43.262,"lon":5.37432,"is_reserved":false,"is_disabled":false,"rental_uris":{"android":"levelo://app?vid=45ac7c55-1e1f-4122-af2e-0361b6b76e7f","ios":"levelo://app?vid=45ac7c55-1e1f-4122-af2e-0361b6b76e7f"},"vehicle_type_id":"4","last_reported":1779061717,"current_range_meters":3200,"station_id":"ce4bhgp2rcd13ifvqfc0","pricing_plan_id":"cebpf4jnsgd1na2vs0mg"},{"bike_id":"e75e31d5-df97-4656-8b6d-449fe0e9b6da","system_id":"levelo_inurba_marseille","lat":43.29027,"lon":5.38641,"is_reserved":false,"is_disabled":false,"rental_uris":{"android":"levelo://app?vid=e75e31d5-df97-4656-8b6d-449fe0e9b6da","ios":"levelo://app?vid=e75e31d5-df97-4656-8b6d-449fe0e9b6da"},"vehicle_type_id":"4","last_reported":1779061717,"current_range_meters":3200,"station_id":"ce4bh4p2rcd13ifvqe0g","pricing_plan_id":"cebpf4jnsgd1na2vs0mg"},{"bike_id":"9551e026-2686-4346-8812-ff12327b11b3","system_id":"levelo_inurba_marseille","lat":43.31673,"lon":5.40493,"is_reserved":false,"is_disabled":false,"rental_uris":{"android":"levelo://app?vid=9551e026-2686-4346-8812-ff12327b11b3","ios":"levelo://app?vid=9551e026-2686-4346-8812-ff12327b11b3"},"vehicle_type_id":"4","last_reported":1779061717,"current_range_meters":3200,"station_id":"ce4bh012rcd13ifvqd00","pricing_plan_id":"cebpf4jnsgd1na2vs0mg"},{"bike_id":"f828689d-29e0-483f-a0e3-e2588415e8c1","system_id":"levelo_inurba_marseille","lat":43.27634,"lon":5.41346,"is_reserved":false,"is_disabled":false,"rental_uris":{"android":"levelo://app?vid=f828689d-29e0-483f-a0e3-e2588415e8c1","ios":"levelo://app?vid=f828689d-29e0-483f-a0e3-e2588415e8c1"},"vehicle_type_id":"4","last_reported":1779061717,"current_range_meters":3200,"station_id":"","pricing_plan_id":"cebpf4jnsgd1na2vs0mg"},{"bike_id":"129463f0-bcb9-4f01-b891-79718247194e","system_id":"levelo_inurba_marseille","lat":43.23899,"lon":5.37464,"is_reserved":false,"is_disabled":true,"rental_uris":{"android":"levelo://app?vid=129463f0-bcb9-4f01-b891-79718247194e","ios":"levelo://app?vid=129463f0-bcb9-4f01-b891-79718247194e"},"vehicle_type_id":"4","last_reported":1779061717,"current_range_meters":3200,"station_id":"st_d6sm7csbq4hs73f8fpjg","pricing_plan_id":"cebpf4jnsgd1na2vs0mg"},{"bike_id":"4ad90634-68d4-4861-ad56-9fd48c1ef8fc","system_id":"levelo_inurba_marseille","lat":43.31109,"lon":5.37772,"is_reserved":false,"is_disabled":false,"rental_uris":{"android":"levelo://app?vid=4ad90634-68d4-4861-ad56-9fd48c1ef8fc","ios":"levelo://app?vid=4ad90634-68d4-4861-ad56-9fd48c1ef8fc"},"vehicle_type_id":"4","last_reported":1779061717,"current_range_meters":3200,"station_id":"ce4bgt92rcd13ifvqcg0","pricing_plan_id":"cebpf4jnsgd1na2vs0mg"},{"bike_id":"bc514d1e-0971-4058-bf18-f9eacedccb5a","system_id":"levelo_inurba_marseille","lat":43.2604,"lon":5.37551,"is_reserved":false,"is_disabled":true,"rental_uris":{"android":"levelo://app?vid=bc514d1e-0971-4058-bf18-f9eacedccb5a","ios":"levelo://app?vid=bc514d1e-0971-4058-bf18-f9eacedccb5a"},"vehicle_type_id":"4","last_reported":1779061717,"current_range_meters":3200,"station_id":"ce4bhgh2rcd13ifvqfa0","pricing_plan_id":"cebpf4jnsgd1na2vs0mg"},{"bike_id":"fe917de5-ab69-4498-bd00-79585f140b89","system_id":"levelo_inurba_marseille","lat":43.30637,"lon":5.40109,"is_reserved":false,"is_disabled":false,"rental_uris":{"android":"levelo://app?vid=fe917de5-ab69-4498-bd00-79585f140b89","ios":"levelo://app?vid=fe917de5-ab69-4498-bd00-79585f140b89"},"vehicle_type_id":"4","last_reported":1779061717,"current_range_meters":3200,"station_id":"ce4bh112rcd13ifvqda0","pricing_plan_id":"cebpf4jnsgd1na2vs0mg"},{"bike_id":"70bdb185-babe-4536-b24a-8350287506ef","system_id":"levelo_inurba_marseille","lat":43.25491,"lon":5.37687,"is_reserved":false,"is_disabled":false,"rental_uris":{"android":"levelo://app?vid=70bdb185-babe-4536-b24a-8350287506ef","ios":"levelo://app?vid=70bdb185-babe-4536-b24a-8350287506ef"},"vehicle_type_id":"4","last_reported":1779061717,"current_range_meters":3200,"station_id":"ce4bhh12rcd13ifvqff0","pricing_plan_id":"cebpf4jnsgd1na2vs0mg"},{"bike_id":"8d53b082-5f88-49a7-9b45-0ed21a572d55","system_id":"levelo_inurba_marseille","lat":43.31893,"lon":5.40731,"is_reserved":false,"is_disabled":true,"rental_uris":{"android":"levelo://app?vid=8d53b082-5f88-49a7-9b45-0ed21a572d55","ios":"levelo://app?vid=8d53b082-5f88-49a7-9b45-0ed21a572d55"},"vehicle_type_id":"4","last_reported":1779061717,"current_range_meters":3200,"station_id":"ce4bhq12rcd13ifvqhig","pricing_plan_id":"cebpf4jnsgd1na2vs0mg"},{"bike_id":"372e4e7a-297f-45c9-8732-b7ec4e98f6af","system_id":"levelo_inurba_marseille","lat":43.29059,"lon":5.37168,"is_reserved":false,"is_disabled":true,"rental_uris":{"android":"levelo://app?vid=372e4e7a-297f-45c9-8732-b7ec4e98f6af","ios":"levelo://app?vid=372e4e7a-297f-45c9-8732-b7ec4e98f6af"},"vehicle_type_id":"4","last_reported":1779061717,"current_range_meters":3600,"station_id":"ce4bh5p2rcd13ifvqe4g","pricing_plan_id":"cebpf4jnsgd1na2vs0mg"},{"bike_id":"a9a07142-923e-44eb-b17a-e4b8fd9e501b","system_id":"levelo_inurba_marseille","lat":43.25585,"lon":5.38218,"is_reserved":false,"is_disabled":false,"rental_uris":{"android":"levelo://app?vid=a9a07142-923e-44eb-b17a-e4b8fd9e501b","ios":"levelo://app?vid=a9a07142-923e-44eb-b17a-e4b8fd9e501b"},"vehicle_type_id":"4","last_reported":1779061717,"current_range_meters":3600,"station_id":"ce4bhih2rcd13ifvqfs0","pricing_plan_id":"cebpf4jnsgd1na2vs0mg"},{"bike_id":"25af8b68-1315-454e-a68c-a6a2cb740025","system_id":"levelo_inurba_marseille","lat":43.28406,"lon":5.37514,"is_reserved":false,"is_disabled":false,"rental_uris":{"android":"levelo://app?vid=25af8b68-1315-454e-a68c-a6a2cb740025","ios":"levelo://app?vid=25af8b68-1315-454e-a68c-a6a2cb740025"},"vehicle_type_id":"4","last_reported":1779061717,"current_range_meters":3600,"station_id":"ce4bh412rcd13ifvqds0","pricing_plan_id":"cebpf4jnsgd1na2vs0mg"},{"bike_id":"9d320c19-d7f9-4012-8fb2-8d2dd9392750","system_id":"levelo_inurba_marseille","lat":43.28387,"lon":5.45967,"is_reserved":false,"is_disabled":false,"rental_uris":{"android":"levelo://app?vid=9d320c19-d7f9-4012-8fb2-8d2dd9392750","ios":"levelo://app?vid=9d320c19-d7f9-4012-8fb2-8d2dd9392750"},"vehicle_type_id":"4","last_reported":1779061717,"current_range_meters":3600,"station_id":"ce4bhgh2rcd13ifvqfa0","pricing_plan_id":"cebpf4jnsgd1na2vs0mg"},{"bike_id":"eac1fe80-03d1-4504-9841-0891c70653d0","system_id":"levelo_inurba_marseille","lat":43.32546,"lon":5.41444,"is_reserved":false,"is_disabled":false,"rental_uris":{"android":"levelo://app?vid=eac1fe80-03d1-4504-9841-0891c70653d0","ios":"levelo://app?vid=eac1fe80-03d1-4504-9841-0891c70653d0"},"vehicle_type_id":"4","last_reported":1779061717,"current_range_meters":4000,"station_id":"ce4bhq12rcd13ifvqhhg","pricing_plan_id":"cebpf4jnsgd1na2vs0mg"},{"bike_id":"b1a18299-455b-46f6-8f6f-f95bdba2ffb5","system_id":"levelo_inurba_marseille","lat":43.29597,"lon":5.38104,"is_reserved":false,"is_disabled":false,"rental_uris":{"android":"levelo://app?vid=b1a18299-455b-46f6-8f6f-f95bdba2ffb5","ios":"levelo://app?vid=b1a18299-455b-46f6-8f6f-f95bdba2ffb5"},"vehicle_type_id":"4","last_reported":1779061717,"current_range_meters":4000,"station_id":"ce4bgl12rcd13ifvqbo0","pricing_plan_id":"cebpf4jnsgd1na2vs0mg"},{"bike_id":"7476967a-63b2-4e03-b14f-9a098c933b2e","system_id":"levelo_inurba_marseille","lat":43.30787,"lon":5.37074,"is_reserved":false,"is_disabled":false,"rental_uris":{"android":"levelo://app?vid=7476967a-63b2-4e03-b14f-9a098c933b2e","ios":"levelo://app?vid=7476967a-63b2-4e03-b14f-9a098c933b2e"},"vehicle_type_id":"4","last_reported":1779061717,"current_range_meters":4000,"station_id":"","pricing_plan_id":"cebpf4jnsgd1na2vs0mg"},{"bike_id":"5d685f0c-9e05-4851-bd00-587e002bf995","system_id":"levelo_inurba_marseille","lat":43.30216,"lon":5.39461,"is_reserved":false,"is_disabled":false,"rental_uris":{"android":"levelo://app?vid=5d685f0c-9e05-4851-bd00-587e002bf995","ios":"levelo://app?vid=5d685f0c-9e05-4851-bd00-587e002bf995"},"vehicle_type_id":"4","last_reported":1779061717,"current_range_meters":4000,"station_id":"ce4bh0p2rcd13ifvqd70","pricing_plan_id":"cebpf4jnsgd1na2vs0mg"},{"bike_id":"cb4e6fd1-b153-4e07-ae6b-3dba642c593f","system_id":"levelo_inurba_marseille","lat":43.24516,"lon":5.40222,"is_reserved":false,"is_disabled":false,"rental_uris":{"android":"levelo://app?vid=cb4e6fd1-b153-4e07-ae6b-3dba642c593f","ios":"levelo://app?vid=cb4e6fd1-b153-4e07-ae6b-3dba642c593f"},"vehicle_type_id":"4","last_reported":1779061717,"current_range_meters":4000,"station_id":"","pricing_plan_id":"cebpf4jnsgd1na2vs0mg"},{"bike_id":"64d06a42-0093-46fd-98a7-0f9458c7ef4d","system_id":"levelo_inurba_marseille","lat":43.290672,"lon":5.37572,"is_reserved":false,"is_disabled":false,"rental_uris":{"android":"levelo://app?vid=64d06a42-0093-46fd-98a7-0f9458c7ef4d","ios":"levelo://app?vid=64d06a42-0093-46fd-98a7-0f9458c7ef4d"},"vehicle_type_id":"4","last_reported":1779061717,"current_range_meters":4000,"station_id":"ce4bh692rcd13ifvqe90","pricing_plan_id":"cebpf4jnsgd1na2vs0mg"},{"bike_id":"d2746346-3a16-4d18-a903-eb886d12ed7c","system_id":"levelo_inurba_marseille","lat":43.31049,"lon":5.37113,"is_reserved":false,"is_disabled":false,"rental_uris":{"android":"levelo://app?vid=d2746346-3a16-4d18-a903-eb886d12ed7c","ios":"levelo://app?vid=d2746346-3a16-4d18-a903-eb886d12ed7c"},"vehicle_type_id":"4","last_reported":1779061717,"current_range_meters":4000,"station_id":"st_d4kl2rp97mjs73e7tdfg","pricing_plan_id":"cebpf4jnsgd1na2vs0mg"},{"bike_id":"1e589cf1-5238-4209-8a8c-8669155ac478","system_id":"levelo_inurba_marseille","lat":43.23964,"lon":5.36624,"is_reserved":false,"is_disabled":false,"rental_uris":{"android":"levelo://app?vid=1e589cf1-5238-4209-8a8c-8669155ac478","ios":"levelo://app?vid=1e589cf1-5238-4209-8a8c-8669155ac478"},"vehicle_type_id":"4","last_reported":1779061717,"current_range_meters":4000,"station_id":"ce4bhi12rcd13ifvqfp0","pricing_plan_id":"cebpf4jnsgd1na2vs0mg"},{"bike_id":"168a968b-338a-47e2-85ae-8bd132db6ce0","system_id":"levelo_inurba_marseille","lat":43.30156,"lon":5.37417,"is_reserved":false,"is_disabled":false,"rental_uris":{"android":"levelo://app?vid=168a968b-338a-47e2-85ae-8bd132db6ce0","ios":"levelo://app?vid=168a968b-338a-47e2-85ae-8bd132db6ce0"},"vehicle_type_id":"4","last_reported":1779061717,"current_range_meters":4000,"station_id":"ce4bgs92rcd13ifvqcc0","pricing_plan_id":"cebpf4jnsgd1na2vs0mg"},{"bike_id":"76bd4c5a-89b0-40a1-90d4-dd94183061be","system_id":"levelo_inurba_marseille","lat":43.27993,"lon":5.40025,"is_reserved":false,"is_disabled":false,"rental_uris":{"android":"levelo://app?vid=76bd4c5a-89b0-40a1-90d4-dd94183061be","ios":"levelo://app?vid=76bd4c5a-89b0-40a1-90d4-dd94183061be"},"vehicle_type_id":"4","last_reported":1779061717,"current_range_meters":4000,"station_id":"ce4bho92rcd13ifvqh4g","pricing_plan_id":"cebpf4jnsgd1na2vs0mg"},{"bike_id":"94cdd223-c294-4938-b0e4-bab4d6c38496","system_id":"levelo_inurba_marseille","lat":43.30414,"lon":5.41291,"is_reserved":false,"is_disabled":false,"rental_uris":{"android":"levelo://app?vid=94cdd223-c294-4938-b0e4-bab4d6c38496","ios":"levelo://app?vid=94cdd223-c294-4938-b0e4-bab4d6c38496"},"vehicle_type_id":"4","last_reported":1779061717,"current_range_meters":4000,"station_id":"ce4bhop2rcd13ifvqh8g","pricing_plan_id":"cebpf4jnsgd1na2vs0mg"},{"bike_id":"7c471954-f2d0-4868-9ae8-a8f491eaf1e1","system_id":"levelo_inurba_marseille","lat":43.24392,"lon":5.37076,"is_reserved":false,"is_disabled":false,"rental_uris":{"android":"levelo://app?vid=7c471954-f2d0-4868-9ae8-a8f491eaf1e1","ios":"levelo://app?vid=7c471954-f2d0-4868-9ae8-a8f491eaf1e1"},"vehicle_type_id":"4","last_reported":1779061717,"current_range_meters":4000,"station_id":"ce4bhhh2rcd13ifvqfk0","pricing_plan_id":"cebpf4jnsgd1na2vs0mg"},{"bike_id":"808455ec-cf1d-4973-a9bb-96c6a24ad5a6","system_id":"levelo_inurba_marseille","lat":43.26802,"lon":5.40914,"is_reserved":false,"is_disabled":false,"rental_uris":{"android":"levelo://app?vid=808455ec-cf1d-4973-a9bb-96c6a24ad5a6","ios":"levelo://app?vid=808455ec-cf1d-4973-a9bb-96c6a24ad5a6"},"vehicle_type_id":"4","last_reported":1779061717,"current_range_meters":4000,"station_id":"","pricing_plan_id":"cebpf4jnsgd1na2vs0mg"},{"bike_id":"ebd94da7-be58-4a41-9864-9b1c774f1dc2","system_id":"levelo_inurba_marseille","lat":43.287,"lon":5.46674,"is_reserved":false,"is_disabled":false,"rental_uris":{"android":"levelo://app?vid=ebd94da7-be58-4a41-9864-9b1c774f1dc2","ios":"levelo://app?vid=ebd94da7-be58-4a41-9864-9b1c774f1dc2"},"vehicle_type_id":"4","last_reported":1779061717,"current_range_meters":4000,"station_id":"st_d6tc3vkotcvc738tfjhg","pricing_plan_id":"cebpf4jnsgd1na2vs0mg"},{"bike_id":"d40941af-7ac7-48a4-81ff-15ca4635280e","system_id":"levelo_inurba_marseille","lat":43.24751,"lon":5.3744,"is_reserved":false,"is_disabled":false,"rental_uris":{"android":"levelo://app?vid=d40941af-7ac7-48a4-81ff-15ca4635280e","ios":"levelo://app?vid=d40941af-7ac7-48a4-81ff-15ca4635280e"},"vehicle_type_id":"4","last_reported":1779061717,"current_range_meters":4400,"station_id":"ce4bhgh2rcd13ifvqfb0","pricing_plan_id":"cebpf4jnsgd1na2vs0mg"},{"bike_id":"0b880521-cf8f-4822-9a08-452da5c8a1cb","system_id":"levelo_inurba_marseille","lat":43.24946,"lon":5.40484,"is_reserved":false,"is_disabled":false,"rental_uris":{"android":"levelo://app?vid=0b880521-cf8f-4822-9a08-452da5c8a1cb","ios":"levelo://app?vid=0b880521-cf8f-4822-9a08-452da5c8a1cb"},"vehicle_type_id":"4","last_reported":1779061717,"current_range_meters":4400,"station_id":"st_d2ngiaodas8pm72gd1h0","pricing_plan_id":"cebpf4jnsgd1na2vs0mg"},{"bike_id":"ac3745a2-6b34-4f3c-a2e9-172b70d1f36b","system_id":"levelo_inurba_marseille","lat":43.29874,"lon":5.39743,"is_reserved":false,"is_disabled":false,"rental_uris":{"android":"levelo://app?vid=ac3745a2-6b34-4f3c-a2e9-172b70d1f36b","ios":"levelo://app?vid=ac3745a2-6b34-4f3c-a2e9-172b70d1f36b"},"vehicle_type_id":"4","last_reported":1779061717,"current_range_meters":4400,"station_id":"ce4bh0h2rcd13ifvqd50","pricing_plan_id":"cebpf4jnsgd1na2vs0mg"},{"bike_id":"4f1c5d73-defd-47a5-b5dd-28f0319b8d45","system_id":"levelo_inurba_marseille","lat":43.30356,"lon":5.42459,"is_reserved":false,"is_disabled":false,"rental_uris":{"android":"levelo://app?vid=4f1c5d73-defd-47a5-b5dd-28f0319b8d45","ios":"levelo://app?vid=4f1c5d73-defd-47a5-b5dd-28f0319b8d45"},"vehicle_type_id":"4","last_reported":1779061717,"current_range_meters":4400,"station_id":"ce4bhoh2rcd13ifvqh6g","pricing_plan_id":"cebpf4jnsgd1na2vs0mg"},{"bike_id":"3d7653e0-777b-442c-8bf7-902e61dfe854","system_id":"levelo_inurba_marseille","lat":43.28736,"lon":5.37943,"is_reserved":false,"is_disabled":false,"rental_uris":{"android":"levelo://app?vid=3d7653e0-777b-442c-8bf7-902e61dfe854","ios":"levelo://app?vid=3d7653e0-777b-442c-8bf7-902e61dfe854"},"vehicle_type_id":"4","last_reported":1779061717,"current_range_meters":4400,"station_id":"ce4bh9p2rcd13ifvqec0","pricing_plan_id":"cebpf4jnsgd1na2vs0mg"},{"bike_id":"0dc3d403-f9c2-4881-9c5c-91ab95c6bf54","system_id":"levelo_inurba_marseille","lat":43.24805,"lon":5.37477,"is_reserved":false,"is_disabled":false,"rental_uris":{"android":"levelo://app?vid=0dc3d403-f9c2-4881-9c5c-91ab95c6bf54","ios":"levelo://app?vid=0dc3d403-f9c2-4881-9c5c-91ab95c6bf54"},"vehicle_type_id":"4","last_reported":1779061717,"current_range_meters":4400,"station_id":"ce4bhgh2rcd13ifvqfb0","pricing_plan_id":"cebpf4jnsgd1na2vs0mg"},{"bike_id":"6b771563-ca65-458a-862b-6eb6be9afb2b","system_id":"levelo_inurba_marseille","lat":43.28,"lon":5.3864,"is_reserved":false,"is_disabled":true,"rental_uris":{"android":"levelo://app?vid=6b771563-ca65-458a-862b-6eb6be9afb2b","ios":"levelo://app?vid=6b771563-ca65-458a-862b-6eb6be9afb2b"},"vehicle_type_id":"4","last_reported":1779061717,"current_range_meters":4800,"station_id":"","pricing_plan_id":"cebpf4jnsgd1na2vs0mg"},{"bike_id":"68514582-acbd-49c3-ae8a-ccd2ba2c8a70","system_id":"levelo_inurba_marseille","lat":43.31705,"lon":5.43688,"is_reserved":false,"is_disabled":false,"rental_uris":{"android":"levelo://app?vid=68514582-acbd-49c3-ae8a-ccd2ba2c8a70","ios":"levelo://app?vid=68514582-acbd-49c3-ae8a-ccd2ba2c8a70"},"vehicle_type_id":"4","last_reported":1779061717,"current_range_meters":4800,"station_id":"ce4bhp92rcd13ifvqhcg","pricing_plan_id":"cebpf4jnsgd1na2vs0mg"},{"bike_id":"a4da15a2-f951-4f84-9a21-69f1b6c7747e","system_id":"levelo_inurba_marseille","lat":43.25076,"lon":5.39522,"is_reserved":false,"is_disabled":false,"rental_uris":{"android":"levelo://app?vid=a4da15a2-f951-4f84-9a21-69f1b6c7747e","ios":"levelo://app?vid=a4da15a2-f951-4f84-9a21-69f1b6c7747e"},"vehicle_type_id":"4","last_reported":1779061717,"current_range_meters":4800,"station_id":"ce4bhm12rcd13ifvqgkg","pricing_plan_id":"cebpf4jnsgd1na2vs0mg"},{"bike_id":"c07c9603-bd32-4d3b-a743-b0847b80bde0","system_id":"levelo_inurba_marseille","lat":43.29294,"lon":5.3745,"is_reserved":false,"is_disabled":true,"rental_uris":{"android":"levelo://app?vid=c07c9603-bd32-4d3b-a743-b0847b80bde0","ios":"levelo://app?vid=c07c9603-bd32-4d3b-a743-b0847b80bde0"},"vehicle_type_id":"4","last_reported":1779061717,"current_range_meters":4800,"station_id":"ce4bgi12rcd13ifvqb70","pricing_plan_id":"cebpf4jnsgd1na2vs0mg"},{"bike_id":"608bf569-eb6c-45ec-9753-b999aa3d9cad","system_id":"levelo_inurba_marseille","lat":43.24935,"lon":5.38905,"is_reserved":false,"is_disabled":false,"rental_uris":{"android":"levelo://app?vid=608bf569-eb6c-45ec-9753-b999aa3d9cad","ios":"levelo://app?vid=608bf569-eb6c-45ec-9753-b999aa3d9cad"},"vehicle_type_id":"4","last_reported":1779061717,"current_range_meters":4800,"station_id":"","pricing_plan_id":"cebpf4jnsgd1na2vs0mg"},{"bike_id":"9fab0f40-9d8a-405c-9eda-991e46e8d093","system_id":"levelo_inurba_marseille","lat":43.2871,"lon":5.39885,"is_reserved":false,"is_disabled":false,"rental_uris":{"android":"levelo://app?vid=9fab0f40-9d8a-405c-9eda-991e46e8d093","ios":"levelo://app?vid=9fab0f40-9d8a-405c-9eda-991e46e8d093"},"vehicle_type_id":"4","last_reported":1779061717,"current_range_meters":4800,"station_id":"","pricing_plan_id":"cebpf4jnsgd1na2vs0mg"},{"bike_id":"0b4b6e08-09bf-42e8-a0a7-f3defe8fec78","system_id":"levelo_inurba_marseille","lat":43.2748,"lon":5.39366,"is_reserved":false,"is_disabled":true,"rental_uris":{"android":"levelo://app?vid=0b4b6e08-09bf-42e8-a0a7-f3defe8fec78","ios":"levelo://app?vid=0b4b6e08-09bf-42e8-a0a7-f3defe8fec78"},"vehicle_type_id":"4","last_reported":1779061717,"current_range_meters":4800,"station_id":"","pricing_plan_id":"cebpf4jnsgd1na2vs0mg"},{"bike_id":"72647d66-b514-453c-898f-a6dcab408a4a","system_id":"levelo_inurba_marseille","lat":43.29073,"lon":5.37552,"is_reserved":false,"is_disabled":false,"rental_uris":{"android":"levelo://app?vid=72647d66-b514-453c-898f-a6dcab408a4a","ios":"levelo://app?vid=72647d66-b514-453c-898f-a6dcab408a4a"},"vehicle_type_id":"4","last_reported":1779061717,"current_range_meters":4800,"station_id":"ce4bh692rcd13ifvqe90","pricing_plan_id":"cebpf4jnsgd1na2vs0mg"},{"bike_id":"64d3b9ed-f531-4539-85c1-070397a3ff6d","system_id":"levelo_inurba_marseille","lat":43.28482,"lon":5.38587,"is_reserved":false,"is_disabled":false,"rental_uris":{"android":"levelo://app?vid=64d3b9ed-f531-4539-85c1-070397a3ff6d","ios":"levelo://app?vid=64d3b9ed-f531-4539-85c1-070397a3ff6d"},"vehicle_type_id":"4","last_reported":1779061717,"current_range_meters":4800,"station_id":"ce4bh8p2rcd13ifvqeb0","pricing_plan_id":"cebpf4jnsgd1na2vs0mg"},{"bike_id":"bfb327bf-b3c8-4e50-847e-eb90e997cfd3","system_id":"levelo_inurba_marseille","lat":43.30095,"lon":5.39077,"is_reserved":false,"is_disabled":false,"rental_uris":{"android":"levelo://app?vid=bfb327bf-b3c8-4e50-847e-eb90e997cfd3","ios":"levelo://app?vid=bfb327bf-b3c8-4e50-847e-eb90e997cfd3"},"vehicle_type_id":"4","last_reported":1779061717,"current_range_meters":4800,"station_id":"ce4bh192rcd13ifvqdb0","pricing_plan_id":"cebpf4jnsgd1na2vs0mg"},{"bike_id":"155f93c6-c2fa-45ec-a5be-fb875993dbad","system_id":"levelo_inurba_marseille","lat":43.31867,"lon":5.36834,"is_reserved":false,"is_disabled":false,"rental_uris":{"android":"levelo://app?vid=155f93c6-c2fa-45ec-a5be-fb875993dbad","ios":"levelo://app?vid=155f93c6-c2fa-45ec-a5be-fb875993dbad"},"vehicle_type_id":"4","last_reported":1779061717,"current_range_meters":5600,"station_id":"st_d6o2h0d0559c73evc1b0","pricing_plan_id":"cebpf4jnsgd1na2vs0mg"},{"bike_id":"9538a49a-fc8d-45fa-8793-aa4fba9dae3b","system_id":"levelo_inurba_marseille","lat":43.292801,"lon":5.401149,"is_reserved":false,"is_disabled":true,"rental_uris":{"android":"levelo://app?vid=9538a49a-fc8d-45fa-8793-aa4fba9dae3b","ios":"levelo://app?vid=9538a49a-fc8d-45fa-8793-aa4fba9dae3b"},"vehicle_type_id":"4","last_reported":1779061717,"current_range_meters":5600,"station_id":"ce4bh312rcd13ifvqdk0","pricing_plan_id":"cebpf4jnsgd1na2vs0mg"},{"bike_id":"3ebc8cb9-53fa-499a-8765-d6e109f72df7","system_id":"levelo_inurba_marseille","lat":43.29494,"lon":5.43311,"is_reserved":false,"is_disabled":false,"rental_uris":{"android":"levelo://app?vid=3ebc8cb9-53fa-499a-8765-d6e109f72df7","ios":"levelo://app?vid=3ebc8cb9-53fa-499a-8765-d6e109f72df7"},"vehicle_type_id":"4","last_reported":1779061717,"current_range_meters":5600,"station_id":"st_d3j5ugp08ojc73fj9d10","pricing_plan_id":"cebpf4jnsgd1na2vs0mg"},{"bike_id":"c7c52128-62cd-4d19-9132-387c441b50fc","system_id":"levelo_inurba_marseille","lat":43.27617,"lon":5.361,"is_reserved":false,"is_disabled":false,"rental_uris":{"android":"levelo://app?vid=c7c52128-62cd-4d19-9132-387c441b50fc","ios":"levelo://app?vid=c7c52128-62cd-4d19-9132-387c441b50fc"},"vehicle_type_id":"4","last_reported":1779061717,"current_range_meters":5600,"station_id":"ce4bhbh2rcd13ifvqeqg","pricing_plan_id":"cebpf4jnsgd1na2vs0mg"},{"bike_id":"a72e326d-1f93-4cf5-8687-e4721b4928cb","system_id":"levelo_inurba_marseille","lat":43.2519,"lon":5.37434,"is_reserved":false,"is_disabled":false,"rental_uris":{"android":"levelo://app?vid=a72e326d-1f93-4cf5-8687-e4721b4928cb","ios":"levelo://app?vid=a72e326d-1f93-4cf5-8687-e4721b4928cb"},"vehicle_type_id":"4","last_reported":1779061717,"current_range_meters":5600,"station_id":"","pricing_plan_id":"cebpf4jnsgd1na2vs0mg"},{"bike_id":"9dcf7878-5520-44d0-835e-8a3cacb0e993","system_id":"levelo_inurba_marseille","lat":43.28878,"lon":5.42534,"is_reserved":false,"is_disabled":false,"rental_uris":{"android":"levelo://app?vid=9dcf7878-5520-44d0-835e-8a3cacb0e993","ios":"levelo://app?vid=9dcf7878-5520-44d0-835e-8a3cacb0e993"},"vehicle_type_id":"4","last_reported":1779061717,"current_range_meters":5600,"station_id":"st_d3b462108ojc7389ooeg","pricing_plan_id":"cebpf4jnsgd1na2vs0mg"},{"bike_id":"a9882d04-d8f2-4728-8eca-b98a7b79f46e","system_id":"levelo_inurba_marseille","lat":43.23962,"lon":5.36622,"is_reserved":false,"is_disabled":false,"rental_uris":{"android":"levelo://app?vid=a9882d04-d8f2-4728-8eca-b98a7b79f46e","ios":"levelo://app?vid=a9882d04-d8f2-4728-8eca-b98a7b79f46e"},"vehicle_type_id":"4","last_reported":1779061717,"current_range_meters":5600,"station_id":"ce4bhi12rcd13ifvqfp0","pricing_plan_id":"cebpf4jnsgd1na2vs0mg"},{"bike_id":"5a5ea3a6-55e7-4884-9bee-8c1db6fb8e7a","system_id":"levelo_inurba_marseille","lat":43.21203,"lon":5.35077,"is_reserved":false,"is_disabled":false,"rental_uris":{"android":"levelo://app?vid=5a5ea3a6-55e7-4884-9bee-8c1db6fb8e7a","ios":"levelo://app?vid=5a5ea3a6-55e7-4884-9bee-8c1db6fb8e7a"},"vehicle_type_id":"4","last_reported":1779061717,"current_range_meters":5600,"station_id":"st_cvj6sg6p6f1abm77japg","pricing_plan_id":"cebpf4jnsgd1na2vs0mg"},{"bike_id":"cc76325f-e478-4d94-9e8a-fe0a5cc2e548","system_id":"levelo_inurba_marseille","lat":43.26561,"lon":5.42184,"is_reserved":false,"is_disabled":false,"rental_uris":{"android":"levelo://app?vid=cc76325f-e478-4d94-9e8a-fe0a5cc2e548","ios":"levelo://app?vid=cc76325f-e478-4d94-9e8a-fe0a5cc2e548"},"vehicle_type_id":"4","last_reported":1779061717,"current_range_meters":5600,"station_id":"","pricing_plan_id":"cebpf4jnsgd1na2vs0mg"},{"bike_id":"de9d9116-d058-4158-a661-54162c1289f3","system_id":"levelo_inurba_marseille","lat":43.29268,"lon":5.38433,"is_reserved":false,"is_disabled":false,"rental_uris":{"android":"levelo://app?vid=de9d9116-d058-4158-a661-54162c1289f3","ios":"levelo://app?vid=de9d9116-d058-4158-a661-54162c1289f3"},"vehicle_type_id":"4","last_reported":1779061717,"current_range_meters":5600,"station_id":"ce4bh692rcd13ifvqea0","pricing_plan_id":"cebpf4jnsgd1na2vs0mg"},{"bike_id":"b4f8f106-d70c-43b1-b403-1775964a31b8","system_id":"levelo_inurba_marseille","lat":43.29191,"lon":5.39369,"is_reserved":false,"is_disabled":false,"rental_uris":{"android":"levelo://app?vid=b4f8f106-d70c-43b1-b403-1775964a31b8","ios":"levelo://app?vid=b4f8f106-d70c-43b1-b403-1775964a31b8"},"vehicle_type_id":"4","last_reported":1779061717,"current_range_meters":5600,"station_id":"","pricing_plan_id":"cebpf4jnsgd1na2vs0mg"},{"bike_id":"5d3c83a3-a93d-4187-a85c-fbdc320d8e01","system_id":"levelo_inurba_marseille","lat":43.28674,"lon":5.36339,"is_reserved":false,"is_disabled":false,"rental_uris":{"android":"levelo://app?vid=5d3c83a3-a93d-4187-a85c-fbdc320d8e01","ios":"levelo://app?vid=5d3c83a3-a93d-4187-a85c-fbdc320d8e01"},"vehicle_type_id":"4","last_reported":1779061717,"current_range_meters":5600,"station_id":"ce4bhah2rcd13ifvqej0","pricing_plan_id":"cebpf4jnsgd1na2vs0mg"},{"bike_id":"de9b1b9e-eba0-45c7-b8ed-3e3c06cf5bb4","system_id":"levelo_inurba_marseille","lat":43.28945,"lon":5.36628,"is_reserved":false,"is_disabled":false,"rental_uris":{"android":"levelo://app?vid=de9b1b9e-eba0-45c7-b8ed-3e3c06cf5bb4","ios":"levelo://app?vid=de9b1b9e-eba0-45c7-b8ed-3e3c06cf5bb4"},"vehicle_type_id":"4","last_reported":1779061717,"current_range_meters":5600,"station_id":"ce4bhap2rcd13ifvqek0","pricing_plan_id":"cebpf4jnsgd1na2vs0mg"},{"bike_id":"18762501-aee6-4cab-b299-abfcc2379e5f","system_id":"levelo_inurba_marseille","lat":43.24074,"lon":5.37765,"is_reserved":false,"is_disabled":false,"rental_uris":{"android":"levelo://app?vid=18762501-aee6-4cab-b299-abfcc2379e5f","ios":"levelo://app?vid=18762501-aee6-4cab-b299-abfcc2379e5f"},"vehicle_type_id":"4","last_reported":1779061717,"current_range_meters":5600,"station_id":"ce4bhnp2rcd13ifvqgvg","pricing_plan_id":"cebpf4jnsgd1na2vs0mg"},{"bike_id":"ec7ff086-f882-4e0e-b84b-c219e6753852","system_id":"levelo_inurba_marseille","lat":43.27381,"lon":5.36251,"is_reserved":false,"is_disabled":false,"rental_uris":{"android":"levelo://app?vid=ec7ff086-f882-4e0e-b84b-c219e6753852","ios":"levelo://app?vid=ec7ff086-f882-4e0e-b84b-c219e6753852"},"vehicle_type_id":"4","last_reported":1779061717,"current_range_meters":5600,"station_id":"ce4bhbh2rcd13ifvqeo0","pricing_plan_id":"cebpf4jnsgd1na2vs0mg"},{"bike_id":"ab3e3bd8-4e2f-4c00-9b9a-c5af552b8388","system_id":"levelo_inurba_marseille","lat":43.22561,"lon":5.41618,"is_reserved":false,"is_disabled":false,"rental_uris":{"android":"levelo://app?vid=ab3e3bd8-4e2f-4c00-9b9a-c5af552b8388","ios":"levelo://app?vid=ab3e3bd8-4e2f-4c00-9b9a-c5af552b8388"},"vehicle_type_id":"4","last_reported":1779061717,"current_range_meters":6000,"station_id":"st_d2o4gvlbi1j2169b742g","pricing_plan_id":"cebpf4jnsgd1na2vs0mg"},{"bike_id":"8790cd47-3c8e-48e3-b9f1-811327c14612","system_id":"levelo_inurba_marseille","lat":43.2828,"lon":5.35061,"is_reserved":false,"is_disabled":true,"rental_uris":{"android":"levelo://app?vid=8790cd47-3c8e-48e3-b9f1-811327c14612","ios":"levelo://app?vid=8790cd47-3c8e-48e3-b9f1-811327c14612"},"vehicle_type_id":"4","last_reported":1779061717,"current_range_meters":6000,"station_id":"ce4bhbp2rcd13ifvqerg","pricing_plan_id":"cebpf4jnsgd1na2vs0mg"},{"bike_id":"deaf4dfb-f058-4c97-99c2-65f3983c7039","system_id":"levelo_inurba_marseille","lat":43.30189,"lon":5.36586,"is_reserved":false,"is_disabled":false,"rental_uris":{"android":"levelo://app?vid=deaf4dfb-f058-4c97-99c2-65f3983c7039","ios":"levelo://app?vid=deaf4dfb-f058-4c97-99c2-65f3983c7039"},"vehicle_type_id":"4","last_reported":1779061717,"current_range_meters":6000,"station_id":"ce4bgrh2rcd13ifvqc8g","pricing_plan_id":"cebpf4jnsgd1na2vs0mg"},{"bike_id":"f837d389-3fa1-4999-a0b9-42850bfe1e80","system_id":"levelo_inurba_marseille","lat":43.22922,"lon":5.3537,"is_reserved":false,"is_disabled":false,"rental_uris":{"android":"levelo://app?vid=f837d389-3fa1-4999-a0b9-42850bfe1e80","ios":"levelo://app?vid=f837d389-3fa1-4999-a0b9-42850bfe1e80"},"vehicle_type_id":"4","last_reported":1779061717,"current_range_meters":6000,"station_id":"cpo3532slgdg3j2ikp40","pricing_plan_id":"cebpf4jnsgd1na2vs0mg"},{"bike_id":"707993b5-48a5-47c3-92f6-d7d4ba11960a","system_id":"levelo_inurba_marseille","lat":43.3212,"lon":5.36789,"is_reserved":false,"is_disabled":false,"rental_uris":{"android":"levelo://app?vid=707993b5-48a5-47c3-92f6-d7d4ba11960a","ios":"levelo://app?vid=707993b5-48a5-47c3-92f6-d7d4ba11960a"},"vehicle_type_id":"4","last_reported":1779061717,"current_range_meters":6000,"station_id":"ce4bhrh2rcd13ifvqhug","pricing_plan_id":"cebpf4jnsgd1na2vs0mg"},{"bike_id":"92510803-2dc6-4149-8d91-2d75a3029310","system_id":"levelo_inurba_marseille","lat":43.23881,"lon":5.37462,"is_reserved":false,"is_disabled":true,"rental_uris":{"android":"levelo://app?vid=92510803-2dc6-4149-8d91-2d75a3029310","ios":"levelo://app?vid=92510803-2dc6-4149-8d91-2d75a3029310"},"vehicle_type_id":"4","last_reported":1779061717,"current_range_meters":6000,"station_id":"st_d6sm7csbq4hs73f8fpjg","pricing_plan_id":"cebpf4jnsgd1na2vs0mg"},{"bike_id":"165baddd-fd2d-4545-bab9-565f8e825831","system_id":"levelo_inurba_marseille","lat":43.2979,"lon":5.39355,"is_reserved":false,"is_disabled":false,"rental_uris":{"android":"levelo://app?vid=165baddd-fd2d-4545-bab9-565f8e825831","ios":"levelo://app?vid=165baddd-fd2d-4545-bab9-565f8e825831"},"vehicle_type_id":"4","last_reported":1779061717,"current_range_meters":6000,"station_id":"chh1huq6cuj3fo74tm60","pricing_plan_id":"cebpf4jnsgd1na2vs0mg"},{"bike_id":"0c2aa1e2-6267-4653-9542-95c2b43f5e1c","system_id":"levelo_inurba_marseille","lat":43.29286,"lon":5.40146,"is_reserved":false,"is_disabled":false,"rental_uris":{"android":"levelo://app?vid=0c2aa1e2-6267-4653-9542-95c2b43f5e1c","ios":"levelo://app?vid=0c2aa1e2-6267-4653-9542-95c2b43f5e1c"},"vehicle_type_id":"4","last_reported":1779061717,"current_range_meters":6000,"station_id":"ce4bh312rcd13ifvqdk0","pricing_plan_id":"cebpf4jnsgd1na2vs0mg"},{"bike_id":"f2dffe62-ee46-40b2-9c99-54fb2975ce32","system_id":"levelo_inurba_marseille","lat":43.32099,"lon":5.368,"is_reserved":false,"is_disabled":false,"rental_uris":{"android":"levelo://app?vid=f2dffe62-ee46-40b2-9c99-54fb2975ce32","ios":"levelo://app?vid=f2dffe62-ee46-40b2-9c99-54fb2975ce32"},"vehicle_type_id":"4","last_reported":1779061717,"current_range_meters":6000,"station_id":"ce4bhrh2rcd13ifvqhug","pricing_plan_id":"cebpf4jnsgd1na2vs0mg"},{"bike_id":"9490a03e-1ab6-4168-a44e-9a77df143309","system_id":"levelo_inurba_marseille","lat":43.23972,"lon":5.36602,"is_reserved":false,"is_disabled":false,"rental_uris":{"android":"levelo://app?vid=9490a03e-1ab6-4168-a44e-9a77df143309","ios":"levelo://app?vid=9490a03e-1ab6-4168-a44e-9a77df143309"},"vehicle_type_id":"4","last_reported":1779061717,"current_range_meters":6400,"station_id":"ce4bhi12rcd13ifvqfp0","pricing_plan_id":"cebpf4jnsgd1na2vs0mg"},{"bike_id":"784f8bfb-1da8-48ab-8a56-fa78cab629d1","system_id":"levelo_inurba_marseille","lat":43.24396,"lon":5.37062,"is_reserved":false,"is_disabled":false,"rental_uris":{"android":"levelo://app?vid=784f8bfb-1da8-48ab-8a56-fa78cab629d1","ios":"levelo://app?vid=784f8bfb-1da8-48ab-8a56-fa78cab629d1"},"vehicle_type_id":"4","last_reported":1779061717,"current_range_meters":6400,"station_id":"ce4bhhh2rcd13ifvqfk0","pricing_plan_id":"cebpf4jnsgd1na2vs0mg"},{"bike_id":"2396bb86-d101-4948-8d8d-36f929ff9a7a","system_id":"levelo_inurba_marseille","lat":43.21197,"lon":5.35022,"is_reserved":false,"is_disabled":false,"rental_uris":{"android":"levelo://app?vid=2396bb86-d101-4948-8d8d-36f929ff9a7a","ios":"levelo://app?vid=2396bb86-d101-4948-8d8d-36f929ff9a7a"},"vehicle_type_id":"4","last_reported":1779061717,"current_range_meters":6400,"station_id":"","pricing_plan_id":"cebpf4jnsgd1na2vs0mg"},{"bike_id":"1bcddc80-b897-4569-b339-993b51d97e17","system_id":"levelo_inurba_marseille","lat":43.24647,"lon":5.3889,"is_reserved":false,"is_disabled":false,"rental_uris":{"android":"levelo://app?vid=1bcddc80-b897-4569-b339-993b51d97e17","ios":"levelo://app?vid=1bcddc80-b897-4569-b339-993b51d97e17"},"vehicle_type_id":"4","last_reported":1779061717,"current_range_meters":6400,"station_id":"ce4bhg12rcd13ifvqf60","pricing_plan_id":"cebpf4jnsgd1na2vs0mg"},{"bike_id":"ed9e523c-fe3e-49e8-a854-0ebd5b0e53b5","system_id":"levelo_inurba_marseille","lat":43.27831,"lon":5.39209,"is_reserved":false,"is_disabled":true,"rental_uris":{"android":"levelo://app?vid=ed9e523c-fe3e-49e8-a854-0ebd5b0e53b5","ios":"levelo://app?vid=ed9e523c-fe3e-49e8-a854-0ebd5b0e53b5"},"vehicle_type_id":"4","last_reported":1779061717,"current_range_meters":6400,"station_id":"ce4bhjp2rcd13ifvqga0","pricing_plan_id":"cebpf4jnsgd1na2vs0mg"},{"bike_id":"8e4ca719-8594-40f9-878d-ad57fbb980c1","system_id":"levelo_inurba_marseille","lat":43.24325,"lon":5.38425,"is_reserved":false,"is_disabled":false,"rental_uris":{"android":"levelo://app?vid=8e4ca719-8594-40f9-878d-ad57fbb980c1","ios":"levelo://app?vid=8e4ca719-8594-40f9-878d-ad57fbb980c1"},"vehicle_type_id":"4","last_reported":1779061717,"current_range_meters":6400,"station_id":"","pricing_plan_id":"cebpf4jnsgd1na2vs0mg"},{"bike_id":"7d54867a-9b10-4829-81ed-edc170930c28","system_id":"levelo_inurba_marseille","lat":43.26837,"lon":5.39471,"is_reserved":false,"is_disabled":false,"rental_uris":{"android":"levelo://app?vid=7d54867a-9b10-4829-81ed-edc170930c28","ios":"levelo://app?vid=7d54867a-9b10-4829-81ed-edc170930c28"},"vehicle_type_id":"4","last_reported":1779061717,"current_range_meters":6400,"station_id":"","pricing_plan_id":"cebpf4jnsgd1na2vs0mg"},{"bike_id":"9489480c-a67c-4a0c-b1a1-ba3e42dbb67a","system_id":"levelo_inurba_marseille","lat":43.24369,"lon":5.37102,"is_reserved":false,"is_disabled":false,"rental_uris":{"android":"levelo://app?vid=9489480c-a67c-4a0c-b1a1-ba3e42dbb67a","ios":"levelo://app?vid=9489480c-a67c-4a0c-b1a1-ba3e42dbb67a"},"vehicle_type_id":"4","last_reported":1779061717,"current_range_meters":6400,"station_id":"ce4bhhh2rcd13ifvqfk0","pricing_plan_id":"cebpf4jnsgd1na2vs0mg"},{"bike_id":"bde24a47-1160-4bf1-8ea4-99c3f92f943b","system_id":"levelo_inurba_marseille","lat":43.26365,"lon":5.41068,"is_reserved":false,"is_disabled":false,"rental_uris":{"android":"levelo://app?vid=bde24a47-1160-4bf1-8ea4-99c3f92f943b","ios":"levelo://app?vid=bde24a47-1160-4bf1-8ea4-99c3f92f943b"},"vehicle_type_id":"4","last_reported":1779061717,"current_range_meters":6400,"station_id":"st_d4e5ca6na9uc73bfl5fg","pricing_plan_id":"cebpf4jnsgd1na2vs0mg"},{"bike_id":"ffc0f53f-b43b-48f7-941d-23dff48d0808","system_id":"levelo_inurba_marseille","lat":43.3025,"lon":5.40095,"is_reserved":false,"is_disabled":false,"rental_uris":{"android":"levelo://app?vid=ffc0f53f-b43b-48f7-941d-23dff48d0808","ios":"levelo://app?vid=ffc0f53f-b43b-48f7-941d-23dff48d0808"},"vehicle_type_id":"4","last_reported":1779061717,"current_range_meters":6400,"station_id":"ce4bgvh2rcd13ifvqcs0","pricing_plan_id":"cebpf4jnsgd1na2vs0mg"},{"bike_id":"b40c4bd7-ce5e-419e-8b63-ca476d065c7f","system_id":"levelo_inurba_marseille","lat":43.25098,"lon":5.39509,"is_reserved":false,"is_disabled":false,"rental_uris":{"android":"levelo://app?vid=b40c4bd7-ce5e-419e-8b63-ca476d065c7f","ios":"levelo://app?vid=b40c4bd7-ce5e-419e-8b63-ca476d065c7f"},"vehicle_type_id":"4","last_reported":1779061717,"current_range_meters":6400,"station_id":"ce4bhm12rcd13ifvqgkg","pricing_plan_id":"cebpf4jnsgd1na2vs0mg"},{"bike_id":"de78b5a8-a08f-4d68-86eb-cab4e7c0f28d","system_id":"levelo_inurba_marseille","lat":43.23176,"lon":5.39986,"is_reserved":false,"is_disabled":false,"rental_uris":{"android":"levelo://app?vid=de78b5a8-a08f-4d68-86eb-cab4e7c0f28d","ios":"levelo://app?vid=de78b5a8-a08f-4d68-86eb-cab4e7c0f28d"},"vehicle_type_id":"4","last_reported":1779061717,"current_range_meters":6400,"station_id":"ce4bhn12rcd13ifvqgqg","pricing_plan_id":"cebpf4jnsgd1na2vs0mg"},{"bike_id":"593d1e92-3151-4c73-94cc-82f90c773ce3","system_id":"levelo_inurba_marseille","lat":43.31288,"lon":5.36873,"is_reserved":false,"is_disabled":false,"rental_uris":{"android":"levelo://app?vid=593d1e92-3151-4c73-94cc-82f90c773ce3","ios":"levelo://app?vid=593d1e92-3151-4c73-94cc-82f90c773ce3"},"vehicle_type_id":"4","last_reported":1779061717,"current_range_meters":6400,"station_id":"","pricing_plan_id":"cebpf4jnsgd1na2vs0mg"},{"bike_id":"05c02ace-a624-46c2-8dca-17cb93a460a9","system_id":"levelo_inurba_marseille","lat":43.29664,"lon":5.37769,"is_reserved":false,"is_disabled":false,"rental_uris":{"android":"levelo://app?vid=05c02ace-a624-46c2-8dca-17cb93a460a9","ios":"levelo://app?vid=05c02ace-a624-46c2-8dca-17cb93a460a9"},"vehicle_type_id":"4","last_reported":1779061717,"current_range_meters":6800,"station_id":"","pricing_plan_id":"cebpf4jnsgd1na2vs0mg"},{"bike_id":"799f2939-2879-497e-ad91-a282651cbb8f","system_id":"levelo_inurba_marseille","lat":43.26569,"lon":5.39638,"is_reserved":false,"is_disabled":false,"rental_uris":{"android":"levelo://app?vid=799f2939-2879-497e-ad91-a282651cbb8f","ios":"levelo://app?vid=799f2939-2879-497e-ad91-a282651cbb8f"},"vehicle_type_id":"4","last_reported":1779061717,"current_range_meters":6800,"station_id":"","pricing_plan_id":"cebpf4jnsgd1na2vs0mg"},{"bike_id":"2a0306bd-9dad-451b-8f55-a36df9f5b352","system_id":"levelo_inurba_marseille","lat":43.28005,"lon":5.40005,"is_reserved":false,"is_disabled":false,"rental_uris":{"android":"levelo://app?vid=2a0306bd-9dad-451b-8f55-a36df9f5b352","ios":"levelo://app?vid=2a0306bd-9dad-451b-8f55-a36df9f5b352"},"vehicle_type_id":"4","last_reported":1779061717,"current_range_meters":6800,"station_id":"ce4bho92rcd13ifvqh4g","pricing_plan_id":"cebpf4jnsgd1na2vs0mg"},{"bike_id":"ca6b6712-36e9-479c-8f0b-11f6f431c226","system_id":"levelo_inurba_marseille","lat":43.27908,"lon":5.39573,"is_reserved":false,"is_disabled":false,"rental_uris":{"android":"levelo://app?vid=ca6b6712-36e9-479c-8f0b-11f6f431c226","ios":"levelo://app?vid=ca6b6712-36e9-479c-8f0b-11f6f431c226"},"vehicle_type_id":"4","last_reported":1779061717,"current_range_meters":6800,"station_id":"ce4bhf92rcd13ifvqf40","pricing_plan_id":"cebpf4jnsgd1na2vs0mg"},{"bike_id":"47490292-3a9e-4e5c-87fd-79ada9f18dcc","system_id":"levelo_inurba_marseille","lat":43.30966,"lon":5.38999,"is_reserved":false,"is_disabled":true,"rental_uris":{"android":"levelo://app?vid=47490292-3a9e-4e5c-87fd-79ada9f18dcc","ios":"levelo://app?vid=47490292-3a9e-4e5c-87fd-79ada9f18dcc"},"vehicle_type_id":"4","last_reported":1779061717,"current_range_meters":6800,"station_id":"ce4bgup2rcd13ifvqco0","pricing_plan_id":"cebpf4jnsgd1na2vs0mg"},{"bike_id":"2192fcb1-7866-410a-b0cd-33c9c4e1acfa","system_id":"levelo_inurba_marseille","lat":43.3021,"lon":5.39952,"is_reserved":false,"is_disabled":false,"rental_uris":{"android":"levelo://app?vid=2192fcb1-7866-410a-b0cd-33c9c4e1acfa","ios":"levelo://app?vid=2192fcb1-7866-410a-b0cd-33c9c4e1acfa"},"vehicle_type_id":"4","last_reported":1779061717,"current_range_meters":6800,"station_id":"","pricing_plan_id":"cebpf4jnsgd1na2vs0mg"},{"bike_id":"3a1a5cac-6243-4d46-9bac-041a6388a779","system_id":"levelo_inurba_marseille","lat":43.27208,"lon":5.39192,"is_reserved":false,"is_disabled":true,"rental_uris":{"android":"levelo://app?vid=3a1a5cac-6243-4d46-9bac-041a6388a779","ios":"levelo://app?vid=3a1a5cac-6243-4d46-9bac-041a6388a779"},"vehicle_type_id":"4","last_reported":1779061717,"current_range_meters":6800,"station_id":"ce4bhhp2rcd13ifvqfm0","pricing_plan_id":"cebpf4jnsgd1na2vs0mg"},{"bike_id":"e8bc6116-91c9-47f6-9700-59dcf71c3b2f","system_id":"levelo_inurba_marseille","lat":43.32463,"lon":5.3657,"is_reserved":false,"is_disabled":false,"rental_uris":{"android":"levelo://app?vid=e8bc6116-91c9-47f6-9700-59dcf71c3b2f","ios":"levelo://app?vid=e8bc6116-91c9-47f6-9700-59dcf71c3b2f"},"vehicle_type_id":"4","last_reported":1779061717,"current_range_meters":6800,"station_id":"ce4bhs12rcd13ifvqhvg","pricing_plan_id":"cebpf4jnsgd1na2vs0mg"},{"bike_id":"725f19e8-d016-4c04-92a0-69a6c8cba4d1","system_id":"levelo_inurba_marseille","lat":43.25318,"lon":5.42176,"is_reserved":false,"is_disabled":false,"rental_uris":{"android":"levelo://app?vid=725f19e8-d016-4c04-92a0-69a6c8cba4d1","ios":"levelo://app?vid=725f19e8-d016-4c04-92a0-69a6c8cba4d1"},"vehicle_type_id":"4","last_reported":1779061717,"current_range_meters":6800,"station_id":"st_d2m65c5bi1j21697t3ng","pricing_plan_id":"cebpf4jnsgd1na2vs0mg"},{"bike_id":"45b0515f-e8e4-430c-bbd4-907dfb7ab40b","system_id":"levelo_inurba_marseille","lat":43.24954,"lon":5.40475,"is_reserved":false,"is_disabled":false,"rental_uris":{"android":"levelo://app?vid=45b0515f-e8e4-430c-bbd4-907dfb7ab40b","ios":"levelo://app?vid=45b0515f-e8e4-430c-bbd4-907dfb7ab40b"},"vehicle_type_id":"4","last_reported":1779061717,"current_range_meters":6800,"station_id":"st_d2ngiaodas8pm72gd1h0","pricing_plan_id":"cebpf4jnsgd1na2vs0mg"},{"bike_id":"13f93704-452c-4d28-bba3-fc5d5e679c26","system_id":"levelo_inurba_marseille","lat":43.28027,"lon":5.36966,"is_reserved":false,"is_disabled":false,"rental_uris":{"android":"levelo://app?vid=13f93704-452c-4d28-bba3-fc5d5e679c26","ios":"levelo://app?vid=13f93704-452c-4d28-bba3-fc5d5e679c26"},"vehicle_type_id":"4","last_reported":1779061717,"current_range_meters":6800,"station_id":"ce4bha12rcd13ifvqef0","pricing_plan_id":"cebpf4jnsgd1na2vs0mg"},{"bike_id":"f492e623-593f-4928-8149-1988c6afd480","system_id":"levelo_inurba_marseille","lat":43.337444,"lon":5.374475,"is_reserved":false,"is_disabled":false,"rental_uris":{"android":"levelo://app?vid=f492e623-593f-4928-8149-1988c6afd480","ios":"levelo://app?vid=f492e623-593f-4928-8149-1988c6afd480"},"vehicle_type_id":"4","last_reported":1779061717,"current_range_meters":6800,"station_id":"","pricing_plan_id":"cebpf4jnsgd1na2vs0mg"},{"bike_id":"f0c7a4db-4673-4c12-97e9-8d688aaf34d6","system_id":"levelo_inurba_marseille","lat":43.29889,"lon":5.38904,"is_reserved":false,"is_disabled":false,"rental_uris":{"android":"levelo://app?vid=f0c7a4db-4673-4c12-97e9-8d688aaf34d6","ios":"levelo://app?vid=f0c7a4db-4673-4c12-97e9-8d688aaf34d6"},"vehicle_type_id":"4","last_reported":1779061717,"current_range_meters":6800,"station_id":"ce4bh392rcd13ifvqdl0","pricing_plan_id":"cebpf4jnsgd1na2vs0mg"},{"bike_id":"1bc8b9a2-c71c-4b62-99ea-b24b8e7b9b2b","system_id":"levelo_inurba_marseille","lat":43.284,"lon":5.37543,"is_reserved":false,"is_disabled":false,"rental_uris":{"android":"levelo://app?vid=1bc8b9a2-c71c-4b62-99ea-b24b8e7b9b2b","ios":"levelo://app?vid=1bc8b9a2-c71c-4b62-99ea-b24b8e7b9b2b"},"vehicle_type_id":"4","last_reported":1779061717,"current_range_meters":6800,"station_id":"ce4bh412rcd13ifvqds0","pricing_plan_id":"cebpf4jnsgd1na2vs0mg"},{"bike_id":"46dd6519-a90b-41e6-b0ac-1959e787efdf","system_id":"levelo_inurba_marseille","lat":43.29814,"lon":5.41675,"is_reserved":false,"is_disabled":false,"rental_uris":{"android":"levelo://app?vid=46dd6519-a90b-41e6-b0ac-1959e787efdf","ios":"levelo://app?vid=46dd6519-a90b-41e6-b0ac-1959e787efdf"},"vehicle_type_id":"4","last_reported":1779061717,"current_range_meters":6800,"station_id":"","pricing_plan_id":"cebpf4jnsgd1na2vs0mg"},{"bike_id":"e5ba6eb8-a80d-42c4-a92c-1699d57c62ab","system_id":"levelo_inurba_marseille","lat":43.31705,"lon":5.40494,"is_reserved":false,"is_disabled":false,"rental_uris":{"android":"levelo://app?vid=e5ba6eb8-a80d-42c4-a92c-1699d57c62ab","ios":"levelo://app?vid=e5ba6eb8-a80d-42c4-a92c-1699d57c62ab"},"vehicle_type_id":"4","last_reported":1779061717,"current_range_meters":7200,"station_id":"ce4bh012rcd13ifvqd00","pricing_plan_id":"cebpf4jnsgd1na2vs0mg"},{"bike_id":"86fa75fb-b5dc-4e3e-9d13-9dcdcdb51c1a","system_id":"levelo_inurba_marseille","lat":43.29575,"lon":5.36744,"is_reserved":false,"is_disabled":false,"rental_uris":{"android":"levelo://app?vid=86fa75fb-b5dc-4e3e-9d13-9dcdcdb51c1a","ios":"levelo://app?vid=86fa75fb-b5dc-4e3e-9d13-9dcdcdb51c1a"},"vehicle_type_id":"4","last_reported":1779061717,"current_range_meters":7200,"station_id":"ce4bgph2rcd13ifvqc2g","pricing_plan_id":"cebpf4jnsgd1na2vs0mg"},{"bike_id":"1c304daa-126b-4472-845e-6e09642ca6c2","system_id":"levelo_inurba_marseille","lat":43.26553,"lon":5.37301,"is_reserved":false,"is_disabled":false,"rental_uris":{"android":"levelo://app?vid=1c304daa-126b-4472-845e-6e09642ca6c2","ios":"levelo://app?vid=1c304daa-126b-4472-845e-6e09642ca6c2"},"vehicle_type_id":"4","last_reported":1779061717,"current_range_meters":7200,"station_id":"ce4bhg12rcd13ifvqf70","pricing_plan_id":"cebpf4jnsgd1na2vs0mg"},{"bike_id":"2c8e9b21-12ff-45b1-8c62-c0f7cc9959cc","system_id":"levelo_inurba_marseille","lat":43.27993,"lon":5.40016,"is_reserved":false,"is_disabled":false,"rental_uris":{"android":"levelo://app?vid=2c8e9b21-12ff-45b1-8c62-c0f7cc9959cc","ios":"levelo://app?vid=2c8e9b21-12ff-45b1-8c62-c0f7cc9959cc"},"vehicle_type_id":"4","last_reported":1779061717,"current_range_meters":7200,"station_id":"ce4bho92rcd13ifvqh4g","pricing_plan_id":"cebpf4jnsgd1na2vs0mg"},{"bike_id":"34ca05dc-36b4-4e3b-8032-a794f755ccec","system_id":"levelo_inurba_marseille","lat":43.29276,"lon":5.40155,"is_reserved":false,"is_disabled":false,"rental_uris":{"android":"levelo://app?vid=34ca05dc-36b4-4e3b-8032-a794f755ccec","ios":"levelo://app?vid=34ca05dc-36b4-4e3b-8032-a794f755ccec"},"vehicle_type_id":"4","last_reported":1779061717,"current_range_meters":7200,"station_id":"ce4bh312rcd13ifvqdk0","pricing_plan_id":"cebpf4jnsgd1na2vs0mg"},{"bike_id":"6fa54cb9-6955-4193-b1db-cfe52e067bfb","system_id":"levelo_inurba_marseille","lat":43.28645,"lon":5.37806,"is_reserved":false,"is_disabled":false,"rental_uris":{"android":"levelo://app?vid=6fa54cb9-6955-4193-b1db-cfe52e067bfb","ios":"levelo://app?vid=6fa54cb9-6955-4193-b1db-cfe52e067bfb"},"vehicle_type_id":"4","last_reported":1779061717,"current_range_meters":7200,"station_id":"","pricing_plan_id":"cebpf4jnsgd1na2vs0mg"},{"bike_id":"845c701c-25e6-4ce0-9e84-87d98779f835","system_id":"levelo_inurba_marseille","lat":43.27862,"lon":5.38575,"is_reserved":false,"is_disabled":false,"rental_uris":{"android":"levelo://app?vid=845c701c-25e6-4ce0-9e84-87d98779f835","ios":"levelo://app?vid=845c701c-25e6-4ce0-9e84-87d98779f835"},"vehicle_type_id":"4","last_reported":1779061717,"current_range_meters":7200,"station_id":"","pricing_plan_id":"cebpf4jnsgd1na2vs0mg"},{"bike_id":"d1d691b3-4791-4801-b7b2-2c196639c4fe","system_id":"levelo_inurba_marseille","lat":43.21182,"lon":5.35089,"is_reserved":false,"is_disabled":false,"rental_uris":{"android":"levelo://app?vid=d1d691b3-4791-4801-b7b2-2c196639c4fe","ios":"levelo://app?vid=d1d691b3-4791-4801-b7b2-2c196639c4fe"},"vehicle_type_id":"4","last_reported":1779061717,"current_range_meters":7200,"station_id":"st_cvj6sg6p6f1abm77japg","pricing_plan_id":"cebpf4jnsgd1na2vs0mg"},{"bike_id":"1aa15578-6be1-4ac8-b00d-82a862900aa7","system_id":"levelo_inurba_marseille","lat":43.24957,"lon":5.40482,"is_reserved":false,"is_disabled":false,"rental_uris":{"android":"levelo://app?vid=1aa15578-6be1-4ac8-b00d-82a862900aa7","ios":"levelo://app?vid=1aa15578-6be1-4ac8-b00d-82a862900aa7"},"vehicle_type_id":"4","last_reported":1779061717,"current_range_meters":7200,"station_id":"st_d2ngiaodas8pm72gd1h0","pricing_plan_id":"cebpf4jnsgd1na2vs0mg"},{"bike_id":"1c56244e-fb34-4e5f-a354-13905d80964f","system_id":"levelo_inurba_marseille","lat":43.24793,"lon":5.37424,"is_reserved":false,"is_disabled":false,"rental_uris":{"android":"levelo://app?vid=1c56244e-fb34-4e5f-a354-13905d80964f","ios":"levelo://app?vid=1c56244e-fb34-4e5f-a354-13905d80964f"},"vehicle_type_id":"4","last_reported":1779061717,"current_range_meters":7200,"station_id":"ce4bhgh2rcd13ifvqfb0","pricing_plan_id":"cebpf4jnsgd1na2vs0mg"},{"bike_id":"0d491a46-b6b7-4fb2-a827-37dd07f71795","system_id":"levelo_inurba_marseille","lat":43.28285,"lon":5.35059,"is_reserved":false,"is_disabled":true,"rental_uris":{"android":"levelo://app?vid=0d491a46-b6b7-4fb2-a827-37dd07f71795","ios":"levelo://app?vid=0d491a46-b6b7-4fb2-a827-37dd07f71795"},"vehicle_type_id":"4","last_reported":1779061717,"current_range_meters":7200,"station_id":"ce4bhbp2rcd13ifvqerg","pricing_plan_id":"cebpf4jnsgd1na2vs0mg"},{"bike_id":"9a04fcb1-ee14-4bad-a876-fecd46ca36ea","system_id":"levelo_inurba_marseille","lat":43.24808,"lon":5.37458,"is_reserved":false,"is_disabled":false,"rental_uris":{"android":"levelo://app?vid=9a04fcb1-ee14-4bad-a876-fecd46ca36ea","ios":"levelo://app?vid=9a04fcb1-ee14-4bad-a876-fecd46ca36ea"},"vehicle_type_id":"4","last_reported":1779061717,"current_range_meters":7200,"station_id":"ce4bhgh2rcd13ifvqfb0","pricing_plan_id":"cebpf4jnsgd1na2vs0mg"},{"bike_id":"8ad4dd6a-b5ca-4a00-82f3-c8b605757312","system_id":"levelo_inurba_marseille","lat":43.23957,"lon":5.36643,"is_reserved":false,"is_disabled":false,"rental_uris":{"android":"levelo://app?vid=8ad4dd6a-b5ca-4a00-82f3-c8b605757312","ios":"levelo://app?vid=8ad4dd6a-b5ca-4a00-82f3-c8b605757312"},"vehicle_type_id":"4","last_reported":1779061717,"current_range_meters":7200,"station_id":"ce4bhi12rcd13ifvqfp0","pricing_plan_id":"cebpf4jnsgd1na2vs0mg"},{"bike_id":"ad3c2866-b957-41cf-9964-f00db34aedc5","system_id":"levelo_inurba_marseille","lat":43.30415,"lon":5.41307,"is_reserved":false,"is_disabled":false,"rental_uris":{"android":"levelo://app?vid=ad3c2866-b957-41cf-9964-f00db34aedc5","ios":"levelo://app?vid=ad3c2866-b957-41cf-9964-f00db34aedc5"},"vehicle_type_id":"4","last_reported":1779061717,"current_range_meters":7200,"station_id":"ce4bhop2rcd13ifvqh8g","pricing_plan_id":"cebpf4jnsgd1na2vs0mg"},{"bike_id":"11a0d3e0-18cf-4ba3-97df-37f3e0070192","system_id":"levelo_inurba_marseille","lat":43.28671,"lon":5.36345,"is_reserved":false,"is_disabled":false,"rental_uris":{"android":"levelo://app?vid=11a0d3e0-18cf-4ba3-97df-37f3e0070192","ios":"levelo://app?vid=11a0d3e0-18cf-4ba3-97df-37f3e0070192"},"vehicle_type_id":"4","last_reported":1779061717,"current_range_meters":7200,"station_id":"ce4bhah2rcd13ifvqej0","pricing_plan_id":"cebpf4jnsgd1na2vs0mg"},{"bike_id":"a7246e4e-4332-4692-8225-349ec6184b39","system_id":"levelo_inurba_marseille","lat":43.28703,"lon":5.46687,"is_reserved":false,"is_disabled":false,"rental_uris":{"android":"levelo://app?vid=a7246e4e-4332-4692-8225-349ec6184b39","ios":"levelo://app?vid=a7246e4e-4332-4692-8225-349ec6184b39"},"vehicle_type_id":"4","last_reported":1779061717,"current_range_meters":7200,"station_id":"st_d6tc3vkotcvc738tfjhg","pricing_plan_id":"cebpf4jnsgd1na2vs0mg"},{"bike_id":"19fa702f-86b2-4025-a7d6-1dd272ce3cc3","system_id":"levelo_inurba_marseille","lat":43.28977,"lon":5.37882,"is_reserved":false,"is_disabled":false,"rental_uris":{"android":"levelo://app?vid=19fa702f-86b2-4025-a7d6-1dd272ce3cc3","ios":"levelo://app?vid=19fa702f-86b2-4025-a7d6-1dd272ce3cc3"},"vehicle_type_id":"4","last_reported":1779061717,"current_range_meters":7200,"station_id":"ce4bh9p2rcd13ifvqed0","pricing_plan_id":"cebpf4jnsgd1na2vs0mg"},{"bike_id":"a751d5df-344c-4386-9fa1-872f52a9afb3","system_id":"levelo_inurba_marseille","lat":43.29974,"lon":5.37155,"is_reserved":false,"is_disabled":false,"rental_uris":{"android":"levelo://app?vid=a751d5df-344c-4386-9fa1-872f52a9afb3","ios":"levelo://app?vid=a751d5df-344c-4386-9fa1-872f52a9afb3"},"vehicle_type_id":"4","last_reported":1779061717,"current_range_meters":7200,"station_id":"ce4bgr92rcd13ifvqc7g","pricing_plan_id":"cebpf4jnsgd1na2vs0mg"},{"bike_id":"ffdab42e-2764-47cd-831f-e35dc45e8ebc","system_id":"levelo_inurba_marseille","lat":43.26414,"lon":5.41065,"is_reserved":false,"is_disabled":false,"rental_uris":{"android":"levelo://app?vid=ffdab42e-2764-47cd-831f-e35dc45e8ebc","ios":"levelo://app?vid=ffdab42e-2764-47cd-831f-e35dc45e8ebc"},"vehicle_type_id":"4","last_reported":1779061717,"current_range_meters":7200,"station_id":"st_d4e5ca6na9uc73bfl5fg","pricing_plan_id":"cebpf4jnsgd1na2vs0mg"},{"bike_id":"8f09f14b-fdd4-46a1-930f-01bb67988dd2","system_id":"levelo_inurba_marseille","lat":43.31225,"lon":5.37817,"is_reserved":false,"is_disabled":false,"rental_uris":{"android":"levelo://app?vid=8f09f14b-fdd4-46a1-930f-01bb67988dd2","ios":"levelo://app?vid=8f09f14b-fdd4-46a1-930f-01bb67988dd2"},"vehicle_type_id":"4","last_reported":1779061717,"current_range_meters":7200,"station_id":"","pricing_plan_id":"cebpf4jnsgd1na2vs0mg"},{"bike_id":"14a3bf9a-cfd7-4f22-aa9e-8755d9b92ade","system_id":"levelo_inurba_marseille","lat":43.25085,"lon":5.39542,"is_reserved":false,"is_disabled":false,"rental_uris":{"android":"levelo://app?vid=14a3bf9a-cfd7-4f22-aa9e-8755d9b92ade","ios":"levelo://app?vid=14a3bf9a-cfd7-4f22-aa9e-8755d9b92ade"},"vehicle_type_id":"4","last_reported":1779061717,"current_range_meters":8000,"station_id":"ce4bhm12rcd13ifvqgkg","pricing_plan_id":"cebpf4jnsgd1na2vs0mg"},{"bike_id":"6714085d-afe9-4b35-b478-b4f810ad586a","system_id":"levelo_inurba_marseille","lat":43.29792,"lon":5.3936,"is_reserved":false,"is_disabled":false,"rental_uris":{"android":"levelo://app?vid=6714085d-afe9-4b35-b478-b4f810ad586a","ios":"levelo://app?vid=6714085d-afe9-4b35-b478-b4f810ad586a"},"vehicle_type_id":"4","last_reported":1779061717,"current_range_meters":8000,"station_id":"chh1huq6cuj3fo74tm60","pricing_plan_id":"cebpf4jnsgd1na2vs0mg"},{"bike_id":"9dc32114-70b6-4152-a4a4-3fc0db8f114f","system_id":"levelo_inurba_marseille","lat":43.29205,"lon":5.39338,"is_reserved":false,"is_disabled":false,"rental_uris":{"android":"levelo://app?vid=9dc32114-70b6-4152-a4a4-3fc0db8f114f","ios":"levelo://app?vid=9dc32114-70b6-4152-a4a4-3fc0db8f114f"},"vehicle_type_id":"4","last_reported":1779061717,"current_range_meters":8000,"station_id":"ce4bh192rcd13ifvqdd0","pricing_plan_id":"cebpf4jnsgd1na2vs0mg"},{"bike_id":"6c50f821-3536-4fb9-8455-3e656d7f91a3","system_id":"levelo_inurba_marseille","lat":43.2398,"lon":5.36603,"is_reserved":false,"is_disabled":false,"rental_uris":{"android":"levelo://app?vid=6c50f821-3536-4fb9-8455-3e656d7f91a3","ios":"levelo://app?vid=6c50f821-3536-4fb9-8455-3e656d7f91a3"},"vehicle_type_id":"4","last_reported":1779061717,"current_range_meters":8000,"station_id":"ce4bhi12rcd13ifvqfp0","pricing_plan_id":"cebpf4jnsgd1na2vs0mg"},{"bike_id":"04874900-da6f-4324-8948-6789afbbc090","system_id":"levelo_inurba_marseille","lat":43.26222,"lon":5.40458,"is_reserved":false,"is_disabled":false,"rental_uris":{"android":"levelo://app?vid=04874900-da6f-4324-8948-6789afbbc090","ios":"levelo://app?vid=04874900-da6f-4324-8948-6789afbbc090"},"vehicle_type_id":"4","last_reported":1779061717,"current_range_meters":8000,"station_id":"ce4bhmh2rcd13ifvqgmg","pricing_plan_id":"cebpf4jnsgd1na2vs0mg"},{"bike_id":"46ac91e4-80f0-484e-b141-d0fe8ed8c45c","system_id":"levelo_inurba_marseille","lat":43.239647,"lon":5.366361,"is_reserved":false,"is_disabled":false,"rental_uris":{"android":"levelo://app?vid=46ac91e4-80f0-484e-b141-d0fe8ed8c45c","ios":"levelo://app?vid=46ac91e4-80f0-484e-b141-d0fe8ed8c45c"},"vehicle_type_id":"4","last_reported":1779061717,"current_range_meters":8000,"station_id":"ce4bhi12rcd13ifvqfp0","pricing_plan_id":"cebpf4jnsgd1na2vs0mg"},{"bike_id":"5a7047ce-34ce-4293-bf6d-e08c9c22e473","system_id":"levelo_inurba_marseille","lat":43.27071,"lon":5.38301,"is_reserved":false,"is_disabled":false,"rental_uris":{"android":"levelo://app?vid=5a7047ce-34ce-4293-bf6d-e08c9c22e473","ios":"levelo://app?vid=5a7047ce-34ce-4293-bf6d-e08c9c22e473"},"vehicle_type_id":"4","last_reported":1779061717,"current_range_meters":8000,"station_id":"st_d3n2fo6cfp8s73cte1j0","pricing_plan_id":"cebpf4jnsgd1na2vs0mg"},{"bike_id":"b0e76d03-d12a-47da-b951-22cf3be0d703","system_id":"levelo_inurba_marseille","lat":43.28559,"lon":5.39508,"is_reserved":false,"is_disabled":false,"rental_uris":{"android":"levelo://app?vid=b0e76d03-d12a-47da-b951-22cf3be0d703","ios":"levelo://app?vid=b0e76d03-d12a-47da-b951-22cf3be0d703"},"vehicle_type_id":"4","last_reported":1779061717,"current_range_meters":8000,"station_id":"ce4bh292rcd13ifvqdg0","pricing_plan_id":"cebpf4jnsgd1na2vs0mg"},{"bike_id":"c3dec8f9-02b3-40c6-a9ce-8ba6874bf348","system_id":"levelo_inurba_marseille","lat":43.28611,"lon":5.39871,"is_reserved":false,"is_disabled":false,"rental_uris":{"android":"levelo://app?vid=c3dec8f9-02b3-40c6-a9ce-8ba6874bf348","ios":"levelo://app?vid=c3dec8f9-02b3-40c6-a9ce-8ba6874bf348"},"vehicle_type_id":"4","last_reported":1779061717,"current_range_meters":8000,"station_id":"st_d4a7ka997mjs738ck50g","pricing_plan_id":"cebpf4jnsgd1na2vs0mg"},{"bike_id":"d24a129a-bae9-424e-b769-0381db8d4fb8","system_id":"levelo_inurba_marseille","lat":43.24164,"lon":5.36405,"is_reserved":false,"is_disabled":true,"rental_uris":{"android":"levelo://app?vid=d24a129a-bae9-424e-b769-0381db8d4fb8","ios":"levelo://app?vid=d24a129a-bae9-424e-b769-0381db8d4fb8"},"vehicle_type_id":"4","last_reported":1779061717,"current_range_meters":8000,"station_id":"cpo36qri1sfpv3e86is0","pricing_plan_id":"cebpf4jnsgd1na2vs0mg"},{"bike_id":"a12859f4-6a53-4761-9e3a-f619e99b0666","system_id":"levelo_inurba_marseille","lat":43.30646,"lon":5.40105,"is_reserved":false,"is_disabled":false,"rental_uris":{"android":"levelo://app?vid=a12859f4-6a53-4761-9e3a-f619e99b0666","ios":"levelo://app?vid=a12859f4-6a53-4761-9e3a-f619e99b0666"},"vehicle_type_id":"4","last_reported":1779061717,"current_range_meters":8000,"station_id":"ce4bh112rcd13ifvqda0","pricing_plan_id":"cebpf4jnsgd1na2vs0mg"},{"bike_id":"1dcc5e66-2a13-45fc-9451-1d568cc7e070","system_id":"levelo_inurba_marseille","lat":43.288587,"lon":5.425307,"is_reserved":false,"is_disabled":false,"rental_uris":{"android":"levelo://app?vid=1dcc5e66-2a13-45fc-9451-1d568cc7e070","ios":"levelo://app?vid=1dcc5e66-2a13-45fc-9451-1d568cc7e070"},"vehicle_type_id":"4","last_reported":1779061717,"current_range_meters":8000,"station_id":"st_d3b462108ojc7389ooeg","pricing_plan_id":"cebpf4jnsgd1na2vs0mg"},{"bike_id":"ecf03658-aa7b-4c02-9837-8403b95cb32f","system_id":"levelo_inurba_marseille","lat":43.26216,"lon":5.37447,"is_reserved":false,"is_disabled":false,"rental_uris":{"android":"levelo://app?vid=ecf03658-aa7b-4c02-9837-8403b95cb32f","ios":"levelo://app?vid=ecf03658-aa7b-4c02-9837-8403b95cb32f"},"vehicle_type_id":"4","last_reported":1779061717,"current_range_meters":8000,"station_id":"ce4bhgp2rcd13ifvqfc0","pricing_plan_id":"cebpf4jnsgd1na2vs0mg"},{"bike_id":"d94699db-6f57-4015-9f5b-103a189090f9","system_id":"levelo_inurba_marseille","lat":43.29716,"lon":5.41667,"is_reserved":false,"is_disabled":false,"rental_uris":{"android":"levelo://app?vid=d94699db-6f57-4015-9f5b-103a189090f9","ios":"levelo://app?vid=d94699db-6f57-4015-9f5b-103a189090f9"},"vehicle_type_id":"4","last_reported":1779061717,"current_range_meters":8000,"station_id":"","pricing_plan_id":"cebpf4jnsgd1na2vs0mg"},{"bike_id":"622386ff-a491-4976-aa1f-70a9b1ca25b4","system_id":"levelo_inurba_marseille","lat":43.32567,"lon":5.39946,"is_reserved":false,"is_disabled":false,"rental_uris":{"android":"levelo://app?vid=622386ff-a491-4976-aa1f-70a9b1ca25b4","ios":"levelo://app?vid=622386ff-a491-4976-aa1f-70a9b1ca25b4"},"vehicle_type_id":"4","last_reported":1779061717,"current_range_meters":8000,"station_id":"","pricing_plan_id":"cebpf4jnsgd1na2vs0mg"},{"bike_id":"b1ad3f8f-9be2-4955-9581-5c094133a195","system_id":"levelo_inurba_marseille","lat":43.22557,"lon":5.4163,"is_reserved":false,"is_disabled":false,"rental_uris":{"android":"levelo://app?vid=b1ad3f8f-9be2-4955-9581-5c094133a195","ios":"levelo://app?vid=b1ad3f8f-9be2-4955-9581-5c094133a195"},"vehicle_type_id":"4","last_reported":1779061717,"current_range_meters":8000,"station_id":"st_d2o4gvlbi1j2169b742g","pricing_plan_id":"cebpf4jnsgd1na2vs0mg"},{"bike_id":"cac6e76f-4d94-46ac-adcf-7ff711798657","system_id":"levelo_inurba_marseille","lat":43.31894,"lon":5.36805,"is_reserved":false,"is_disabled":false,"rental_uris":{"android":"levelo://app?vid=cac6e76f-4d94-46ac-adcf-7ff711798657","ios":"levelo://app?vid=cac6e76f-4d94-46ac-adcf-7ff711798657"},"vehicle_type_id":"4","last_reported":1779061717,"current_range_meters":8000,"station_id":"st_d6o2h0d0559c73evc1b0","pricing_plan_id":"cebpf4jnsgd1na2vs0mg"},{"bike_id":"8578f85b-4310-4523-8f5e-2236e7fb8375","system_id":"levelo_inurba_marseille","lat":43.29636,"lon":5.38077,"is_reserved":false,"is_disabled":false,"rental_uris":{"android":"levelo://app?vid=8578f85b-4310-4523-8f5e-2236e7fb8375","ios":"levelo://app?vid=8578f85b-4310-4523-8f5e-2236e7fb8375"},"vehicle_type_id":"4","last_reported":1779061717,"current_range_meters":8000,"station_id":"ce4bgl12rcd13ifvqbo0","pricing_plan_id":"cebpf4jnsgd1na2vs0mg"},{"bike_id":"ef8ed1cb-e82c-4a94-8e65-6657f88531da","system_id":"levelo_inurba_marseille","lat":43.29236,"lon":5.36041,"is_reserved":false,"is_disabled":true,"rental_uris":{"android":"levelo://app?vid=ef8ed1cb-e82c-4a94-8e65-6657f88531da","ios":"levelo://app?vid=ef8ed1cb-e82c-4a94-8e65-6657f88531da"},"vehicle_type_id":"4","last_reported":1779061717,"current_range_meters":8000,"station_id":"ce4bhbh2rcd13ifvqeqg","pricing_plan_id":"cebpf4jnsgd1na2vs0mg"},{"bike_id":"b9f43007-25f3-455a-957c-bd9b8539e882","system_id":"levelo_inurba_marseille","lat":43.23963,"lon":5.36619,"is_reserved":false,"is_disabled":false,"rental_uris":{"android":"levelo://app?vid=b9f43007-25f3-455a-957c-bd9b8539e882","ios":"levelo://app?vid=b9f43007-25f3-455a-957c-bd9b8539e882"},"vehicle_type_id":"4","last_reported":1779061717,"current_range_meters":8000,"station_id":"ce4bhi12rcd13ifvqfp0","pricing_plan_id":"cebpf4jnsgd1na2vs0mg"},{"bike_id":"f6e86498-76cc-447d-8e70-ab385352ca1d","system_id":"levelo_inurba_marseille","lat":43.2256,"lon":5.41644,"is_reserved":false,"is_disabled":false,"rental_uris":{"android":"levelo://app?vid=f6e86498-76cc-447d-8e70-ab385352ca1d","ios":"levelo://app?vid=f6e86498-76cc-447d-8e70-ab385352ca1d"},"vehicle_type_id":"4","last_reported":1779061717,"current_range_meters":8000,"station_id":"st_d2o4gvlbi1j2169b742g","pricing_plan_id":"cebpf4jnsgd1na2vs0mg"},{"bike_id":"a16635e2-1c8e-429b-a202-43091ae65912","system_id":"levelo_inurba_marseille","lat":43.28887,"lon":5.36617,"is_reserved":false,"is_disabled":false,"rental_uris":{"android":"levelo://app?vid=a16635e2-1c8e-429b-a202-43091ae65912","ios":"levelo://app?vid=a16635e2-1c8e-429b-a202-43091ae65912"},"vehicle_type_id":"4","last_reported":1779061717,"current_range_meters":8000,"station_id":"ce4bhap2rcd13ifvqek0","pricing_plan_id":"cebpf4jnsgd1na2vs0mg"},{"bike_id":"856fb405-ee7a-4e7a-8e38-583467669808","system_id":"levelo_inurba_marseille","lat":43.29191,"lon":5.39327,"is_reserved":false,"is_disabled":false,"rental_uris":{"android":"levelo://app?vid=856fb405-ee7a-4e7a-8e38-583467669808","ios":"levelo://app?vid=856fb405-ee7a-4e7a-8e38-583467669808"},"vehicle_type_id":"4","last_reported":1779061717,"current_range_meters":8000,"station_id":"ce4bh192rcd13ifvqdd0","pricing_plan_id":"cebpf4jnsgd1na2vs0mg"},{"bike_id":"c297c376-0888-444e-b2db-c8dd9cbdba1b","system_id":"levelo_inurba_marseille","lat":43.29556,"lon":5.42286,"is_reserved":false,"is_disabled":false,"rental_uris":{"android":"levelo://app?vid=c297c376-0888-444e-b2db-c8dd9cbdba1b","ios":"levelo://app?vid=c297c376-0888-444e-b2db-c8dd9cbdba1b"},"vehicle_type_id":"4","last_reported":1779061717,"current_range_meters":8000,"station_id":"ce4bhph2rcd13ifvqhdg","pricing_plan_id":"cebpf4jnsgd1na2vs0mg"},{"bike_id":"f387bcc1-14f3-414a-8dc9-4384e73d2700","system_id":"levelo_inurba_marseille","lat":43.2439,"lon":5.3703,"is_reserved":false,"is_disabled":false,"rental_uris":{"android":"levelo://app?vid=f387bcc1-14f3-414a-8dc9-4384e73d2700","ios":"levelo://app?vid=f387bcc1-14f3-414a-8dc9-4384e73d2700"},"vehicle_type_id":"4","last_reported":1779061717,"current_range_meters":8000,"station_id":"ce4bhhh2rcd13ifvqfk0","pricing_plan_id":"cebpf4jnsgd1na2vs0mg"},{"bike_id":"d812984e-d55e-406e-b7c5-f9ff1d8262d7","system_id":"levelo_inurba_marseille","lat":43.3324,"lon":5.40585,"is_reserved":false,"is_disabled":false,"rental_uris":{"android":"levelo://app?vid=d812984e-d55e-406e-b7c5-f9ff1d8262d7","ios":"levelo://app?vid=d812984e-d55e-406e-b7c5-f9ff1d8262d7"},"vehicle_type_id":"4","last_reported":1779061717,"current_range_meters":8000,"station_id":"","pricing_plan_id":"cebpf4jnsgd1na2vs0mg"},{"bike_id":"cb8e2c9d-4c3c-40e1-9331-144f68816dd1","system_id":"levelo_inurba_marseille","lat":43.32115,"lon":5.36803,"is_reserved":false,"is_disabled":false,"rental_uris":{"android":"levelo://app?vid=cb8e2c9d-4c3c-40e1-9331-144f68816dd1","ios":"levelo://app?vid=cb8e2c9d-4c3c-40e1-9331-144f68816dd1"},"vehicle_type_id":"4","last_reported":1779061717,"current_range_meters":8000,"station_id":"ce4bhrh2rcd13ifvqhug","pricing_plan_id":"cebpf4jnsgd1na2vs0mg"},{"bike_id":"ead619c2-3b83-4efe-a8da-66daeb2a130f","system_id":"levelo_inurba_marseille","lat":43.31363,"lon":5.44137,"is_reserved":false,"is_disabled":false,"rental_uris":{"android":"levelo://app?vid=ead619c2-3b83-4efe-a8da-66daeb2a130f","ios":"levelo://app?vid=ead619c2-3b83-4efe-a8da-66daeb2a130f"},"vehicle_type_id":"4","last_reported":1779061717,"current_range_meters":8000,"station_id":"","pricing_plan_id":"cebpf4jnsgd1na2vs0mg"},{"bike_id":"d1092054-0188-41e3-a338-cc6c7da642e3","system_id":"levelo_inurba_marseille","lat":43.28509,"lon":5.38557,"is_reserved":false,"is_disabled":false,"rental_uris":{"android":"levelo://app?vid=d1092054-0188-41e3-a338-cc6c7da642e3","ios":"levelo://app?vid=d1092054-0188-41e3-a338-cc6c7da642e3"},"vehicle_type_id":"4","last_reported":1779061717,"current_range_meters":8000,"station_id":"ce4bh8p2rcd13ifvqeb0","pricing_plan_id":"cebpf4jnsgd1na2vs0mg"},{"bike_id":"772ad3b7-87f9-4294-a8b9-37b3621cf2ca","system_id":"levelo_inurba_marseille","lat":43.26208,"lon":5.40461,"is_reserved":false,"is_disabled":true,"rental_uris":{"android":"levelo://app?vid=772ad3b7-87f9-4294-a8b9-37b3621cf2ca","ios":"levelo://app?vid=772ad3b7-87f9-4294-a8b9-37b3621cf2ca"},"vehicle_type_id":"4","last_reported":1779061717,"current_range_meters":8000,"station_id":"ce4bhmh2rcd13ifvqgmg","pricing_plan_id":"cebpf4jnsgd1na2vs0mg"},{"bike_id":"5d958f9c-f82c-4f31-87ed-5603eec43efe","system_id":"levelo_inurba_marseille","lat":43.28154,"lon":5.42656,"is_reserved":false,"is_disabled":false,"rental_uris":{"android":"levelo://app?vid=5d958f9c-f82c-4f31-87ed-5603eec43efe","ios":"levelo://app?vid=5d958f9c-f82c-4f31-87ed-5603eec43efe"},"vehicle_type_id":"4","last_reported":1779061717,"current_range_meters":8000,"station_id":"ce4bhnh2rcd13ifvqgug","pricing_plan_id":"cebpf4jnsgd1na2vs0mg"},{"bike_id":"1eda2919-4fb7-41a5-8889-2d019509849b","system_id":"levelo_inurba_marseille","lat":43.28147,"lon":5.42644,"is_reserved":false,"is_disabled":false,"rental_uris":{"android":"levelo://app?vid=1eda2919-4fb7-41a5-8889-2d019509849b","ios":"levelo://app?vid=1eda2919-4fb7-41a5-8889-2d019509849b"},"vehicle_type_id":"4","last_reported":1779061717,"current_range_meters":8000,"station_id":"ce4bhnh2rcd13ifvqgug","pricing_plan_id":"cebpf4jnsgd1na2vs0mg"},{"bike_id":"36af0810-aa12-4302-b1d8-9b014f920f43","system_id":"levelo_inurba_marseille","lat":43.28948,"lon":5.35505,"is_reserved":false,"is_disabled":false,"rental_uris":{"android":"levelo://app?vid=36af0810-aa12-4302-b1d8-9b014f920f43","ios":"levelo://app?vid=36af0810-aa12-4302-b1d8-9b014f920f43"},"vehicle_type_id":"4","last_reported":1779061717,"current_range_meters":8400,"station_id":"","pricing_plan_id":"cebpf4jnsgd1na2vs0mg"},{"bike_id":"4ac018cd-9af6-49f5-ae3b-7c21bfc15081","system_id":"levelo_inurba_marseille","lat":43.33533,"lon":5.37453,"is_reserved":false,"is_disabled":false,"rental_uris":{"android":"levelo://app?vid=4ac018cd-9af6-49f5-ae3b-7c21bfc15081","ios":"levelo://app?vid=4ac018cd-9af6-49f5-ae3b-7c21bfc15081"},"vehicle_type_id":"4","last_reported":1779061717,"current_range_meters":8400,"station_id":"st_d46tts09ee8s73dlu43g","pricing_plan_id":"cebpf4jnsgd1na2vs0mg"},{"bike_id":"892490df-9d4d-4a7f-8d0b-a9ac10e54eb2","system_id":"levelo_inurba_marseille","lat":43.29341,"lon":5.40053,"is_reserved":false,"is_disabled":false,"rental_uris":{"android":"levelo://app?vid=892490df-9d4d-4a7f-8d0b-a9ac10e54eb2","ios":"levelo://app?vid=892490df-9d4d-4a7f-8d0b-a9ac10e54eb2"},"vehicle_type_id":"4","last_reported":1779061717,"current_range_meters":8400,"station_id":"","pricing_plan_id":"cebpf4jnsgd1na2vs0mg"},{"bike_id":"ea70e0fb-b17c-4b3f-ab48-3f34603a769e","system_id":"levelo_inurba_marseille","lat":43.30954,"lon":5.3904,"is_reserved":false,"is_disabled":false,"rental_uris":{"android":"levelo://app?vid=ea70e0fb-b17c-4b3f-ab48-3f34603a769e","ios":"levelo://app?vid=ea70e0fb-b17c-4b3f-ab48-3f34603a769e"},"vehicle_type_id":"4","last_reported":1779061717,"current_range_meters":8400,"station_id":"ce4bgup2rcd13ifvqco0","pricing_plan_id":"cebpf4jnsgd1na2vs0mg"},{"bike_id":"ea49bea7-71cc-4e6a-8698-cfbe4d9d6606","system_id":"levelo_inurba_marseille","lat":43.337444,"lon":5.374475,"is_reserved":false,"is_disabled":false,"rental_uris":{"android":"levelo://app?vid=ea49bea7-71cc-4e6a-8698-cfbe4d9d6606","ios":"levelo://app?vid=ea49bea7-71cc-4e6a-8698-cfbe4d9d6606"},"vehicle_type_id":"4","last_reported":1779061717,"current_range_meters":8400,"station_id":"","pricing_plan_id":"cebpf4jnsgd1na2vs0mg"},{"bike_id":"f3d02777-a292-43ef-8a45-991cd4cd65f1","system_id":"levelo_inurba_marseille","lat":43.29856,"lon":5.38963,"is_reserved":false,"is_disabled":false,"rental_uris":{"android":"levelo://app?vid=f3d02777-a292-43ef-8a45-991cd4cd65f1","ios":"levelo://app?vid=f3d02777-a292-43ef-8a45-991cd4cd65f1"},"vehicle_type_id":"4","last_reported":1779061717,"current_range_meters":8400,"station_id":"","pricing_plan_id":"cebpf4jnsgd1na2vs0mg"},{"bike_id":"c82f6535-72b8-422d-87b7-b99de63107d2","system_id":"levelo_inurba_marseille","lat":43.300128,"lon":5.388946,"is_reserved":false,"is_disabled":false,"rental_uris":{"android":"levelo://app?vid=c82f6535-72b8-422d-87b7-b99de63107d2","ios":"levelo://app?vid=c82f6535-72b8-422d-87b7-b99de63107d2"},"vehicle_type_id":"4","last_reported":1779061717,"current_range_meters":8400,"station_id":"","pricing_plan_id":"cebpf4jnsgd1na2vs0mg"},{"bike_id":"ca0cdcfb-e01b-4a3a-968f-80f3dceb3255","system_id":"levelo_inurba_marseille","lat":43.29438,"lon":5.39732,"is_reserved":false,"is_disabled":false,"rental_uris":{"android":"levelo://app?vid=ca0cdcfb-e01b-4a3a-968f-80f3dceb3255","ios":"levelo://app?vid=ca0cdcfb-e01b-4a3a-968f-80f3dceb3255"},"vehicle_type_id":"4","last_reported":1779061717,"current_range_meters":8400,"station_id":"ce4bh3h2rcd13ifvqdo0","pricing_plan_id":"cebpf4jnsgd1na2vs0mg"},{"bike_id":"beba18ae-ad98-4903-8954-d6f86b235f23","system_id":"levelo_inurba_marseille","lat":43.24693,"lon":5.38162,"is_reserved":false,"is_disabled":false,"rental_uris":{"android":"levelo://app?vid=beba18ae-ad98-4903-8954-d6f86b235f23","ios":"levelo://app?vid=beba18ae-ad98-4903-8954-d6f86b235f23"},"vehicle_type_id":"4","last_reported":1779061717,"current_range_meters":8400,"station_id":"ce4bhih2rcd13ifvqfr0","pricing_plan_id":"cebpf4jnsgd1na2vs0mg"},{"bike_id":"d62652d4-abfa-44a2-84fc-68b7e16808ff","system_id":"levelo_inurba_marseille","lat":43.24788,"lon":5.37434,"is_reserved":false,"is_disabled":false,"rental_uris":{"android":"levelo://app?vid=d62652d4-abfa-44a2-84fc-68b7e16808ff","ios":"levelo://app?vid=d62652d4-abfa-44a2-84fc-68b7e16808ff"},"vehicle_type_id":"4","last_reported":1779061717,"current_range_meters":8400,"station_id":"ce4bhgh2rcd13ifvqfb0","pricing_plan_id":"cebpf4jnsgd1na2vs0mg"},{"bike_id":"663dc49a-13b1-4bf6-92e6-a0167df6cadf","system_id":"levelo_inurba_marseille","lat":43.30919,"lon":5.40159,"is_reserved":false,"is_disabled":false,"rental_uris":{"android":"levelo://app?vid=663dc49a-13b1-4bf6-92e6-a0167df6cadf","ios":"levelo://app?vid=663dc49a-13b1-4bf6-92e6-a0167df6cadf"},"vehicle_type_id":"4","last_reported":1779061717,"current_range_meters":8400,"station_id":"ce4bgvp2rcd13ifvqct0","pricing_plan_id":"cebpf4jnsgd1na2vs0mg"},{"bike_id":"e672b880-9480-4be0-86ad-2ebb10dbf97d","system_id":"levelo_inurba_marseille","lat":43.306,"lon":5.39354,"is_reserved":false,"is_disabled":false,"rental_uris":{"android":"levelo://app?vid=e672b880-9480-4be0-86ad-2ebb10dbf97d","ios":"levelo://app?vid=e672b880-9480-4be0-86ad-2ebb10dbf97d"},"vehicle_type_id":"4","last_reported":1779061717,"current_range_meters":8400,"station_id":"ce4bh0p2rcd13ifvqd80","pricing_plan_id":"cebpf4jnsgd1na2vs0mg"},{"bike_id":"eb881460-53fb-4561-b883-7235ec776bc9","system_id":"levelo_inurba_marseille","lat":43.30597,"lon":5.36581,"is_reserved":false,"is_disabled":false,"rental_uris":{"android":"levelo://app?vid=eb881460-53fb-4561-b883-7235ec776bc9","ios":"levelo://app?vid=eb881460-53fb-4561-b883-7235ec776bc9"},"vehicle_type_id":"4","last_reported":1779061717,"current_range_meters":8400,"station_id":"ce4bgs12rcd13ifvqcag","pricing_plan_id":"cebpf4jnsgd1na2vs0mg"},{"bike_id":"98c14895-c0cc-4707-b6a1-6ee02c4bed2c","system_id":"levelo_inurba_marseille","lat":43.21182,"lon":5.35098,"is_reserved":false,"is_disabled":false,"rental_uris":{"android":"levelo://app?vid=98c14895-c0cc-4707-b6a1-6ee02c4bed2c","ios":"levelo://app?vid=98c14895-c0cc-4707-b6a1-6ee02c4bed2c"},"vehicle_type_id":"4","last_reported":1779061717,"current_range_meters":8400,"station_id":"st_cvj6sg6p6f1abm77japg","pricing_plan_id":"cebpf4jnsgd1na2vs0mg"},{"bike_id":"cf6aa9e4-ffb6-4886-9655-0aafc4aa2fb9","system_id":"levelo_inurba_marseille","lat":43.2534,"lon":5.41346,"is_reserved":false,"is_disabled":false,"rental_uris":{"android":"levelo://app?vid=cf6aa9e4-ffb6-4886-9655-0aafc4aa2fb9","ios":"levelo://app?vid=cf6aa9e4-ffb6-4886-9655-0aafc4aa2fb9"},"vehicle_type_id":"4","last_reported":1779061717,"current_range_meters":8400,"station_id":"","pricing_plan_id":"cebpf4jnsgd1na2vs0mg"},{"bike_id":"0833f4b8-4e5e-4a51-bdf1-49ef9fc0275e","system_id":"levelo_inurba_marseille","lat":43.32108,"lon":5.36788,"is_reserved":false,"is_disabled":false,"rental_uris":{"android":"levelo://app?vid=0833f4b8-4e5e-4a51-bdf1-49ef9fc0275e","ios":"levelo://app?vid=0833f4b8-4e5e-4a51-bdf1-49ef9fc0275e"},"vehicle_type_id":"4","last_reported":1779061717,"current_range_meters":8400,"station_id":"ce4bhrh2rcd13ifvqhug","pricing_plan_id":"cebpf4jnsgd1na2vs0mg"},{"bike_id":"ccd76f64-1cf3-4fa8-9743-f6e8b665063d","system_id":"levelo_inurba_marseille","lat":43.29307,"lon":5.37635,"is_reserved":false,"is_disabled":true,"rental_uris":{"android":"levelo://app?vid=ccd76f64-1cf3-4fa8-9743-f6e8b665063d","ios":"levelo://app?vid=ccd76f64-1cf3-4fa8-9743-f6e8b665063d"},"vehicle_type_id":"4","last_reported":1779061717,"current_range_meters":8400,"station_id":"ce4bgi12rcd13ifvqb80","pricing_plan_id":"cebpf4jnsgd1na2vs0mg"},{"bike_id":"6bf4d4a0-9e30-4f44-90d1-d95eae6c9a74","system_id":"levelo_inurba_marseille","lat":43.2919,"lon":5.38604,"is_reserved":false,"is_disabled":false,"rental_uris":{"android":"levelo://app?vid=6bf4d4a0-9e30-4f44-90d1-d95eae6c9a74","ios":"levelo://app?vid=6bf4d4a0-9e30-4f44-90d1-d95eae6c9a74"},"vehicle_type_id":"4","last_reported":1779061717,"current_range_meters":8400,"station_id":"","pricing_plan_id":"cebpf4jnsgd1na2vs0mg"},{"bike_id":"16f402d5-f31f-4403-a8bb-a837a4a219be","system_id":"levelo_inurba_marseille","lat":43.26186,"lon":5.37455,"is_reserved":false,"is_disabled":false,"rental_uris":{"android":"levelo://app?vid=16f402d5-f31f-4403-a8bb-a837a4a219be","ios":"levelo://app?vid=16f402d5-f31f-4403-a8bb-a837a4a219be"},"vehicle_type_id":"4","last_reported":1779061717,"current_range_meters":8400,"station_id":"ce4bhgp2rcd13ifvqfc0","pricing_plan_id":"cebpf4jnsgd1na2vs0mg"},{"bike_id":"08b7ed51-73a2-4595-8eb1-db45ace734a7","system_id":"levelo_inurba_marseille","lat":43.3249,"lon":5.3657,"is_reserved":false,"is_disabled":false,"rental_uris":{"android":"levelo://app?vid=08b7ed51-73a2-4595-8eb1-db45ace734a7","ios":"levelo://app?vid=08b7ed51-73a2-4595-8eb1-db45ace734a7"},"vehicle_type_id":"4","last_reported":1779061717,"current_range_meters":8400,"station_id":"ce4bhs12rcd13ifvqhvg","pricing_plan_id":"cebpf4jnsgd1na2vs0mg"},{"bike_id":"dca27491-1025-4fdc-990e-72c0db83b44d","system_id":"levelo_inurba_marseille","lat":43.25861,"lon":5.39905,"is_reserved":false,"is_disabled":true,"rental_uris":{"android":"levelo://app?vid=dca27491-1025-4fdc-990e-72c0db83b44d","ios":"levelo://app?vid=dca27491-1025-4fdc-990e-72c0db83b44d"},"vehicle_type_id":"4","last_reported":1779061717,"current_range_meters":8800,"station_id":"ce4bhl92rcd13ifvqghg","pricing_plan_id":"cebpf4jnsgd1na2vs0mg"},{"bike_id":"a53dfbe3-5f06-4472-b6a0-e263d2f44ec5","system_id":"levelo_inurba_marseille","lat":43.2655,"lon":5.3728,"is_reserved":false,"is_disabled":false,"rental_uris":{"android":"levelo://app?vid=a53dfbe3-5f06-4472-b6a0-e263d2f44ec5","ios":"levelo://app?vid=a53dfbe3-5f06-4472-b6a0-e263d2f44ec5"},"vehicle_type_id":"4","last_reported":1779061717,"current_range_meters":8800,"station_id":"ce4bhg12rcd13ifvqf70","pricing_plan_id":"cebpf4jnsgd1na2vs0mg"},{"bike_id":"15ba04b5-1dec-4ccc-a93d-c3bb0ac23a19","system_id":"levelo_inurba_marseille","lat":43.2863,"lon":5.39877,"is_reserved":false,"is_disabled":false,"rental_uris":{"android":"levelo://app?vid=15ba04b5-1dec-4ccc-a93d-c3bb0ac23a19","ios":"levelo://app?vid=15ba04b5-1dec-4ccc-a93d-c3bb0ac23a19"},"vehicle_type_id":"4","last_reported":1779061717,"current_range_meters":8800,"station_id":"st_d4a7ka997mjs738ck50g","pricing_plan_id":"cebpf4jnsgd1na2vs0mg"},{"bike_id":"459ddddc-8bfd-48fb-a743-3b54fe351390","system_id":"levelo_inurba_marseille","lat":43.29429,"lon":5.39773,"is_reserved":false,"is_disabled":false,"rental_uris":{"android":"levelo://app?vid=459ddddc-8bfd-48fb-a743-3b54fe351390","ios":"levelo://app?vid=459ddddc-8bfd-48fb-a743-3b54fe351390"},"vehicle_type_id":"4","last_reported":1779061717,"current_range_meters":8800,"station_id":"ce4bh3h2rcd13ifvqdo0","pricing_plan_id":"cebpf4jnsgd1na2vs0mg"},{"bike_id":"d068c9df-cd4b-4bba-a725-d65542667b48","system_id":"levelo_inurba_marseille","lat":43.23889,"lon":5.37463,"is_reserved":false,"is_disabled":false,"rental_uris":{"android":"levelo://app?vid=d068c9df-cd4b-4bba-a725-d65542667b48","ios":"levelo://app?vid=d068c9df-cd4b-4bba-a725-d65542667b48"},"vehicle_type_id":"4","last_reported":1779061717,"current_range_meters":8800,"station_id":"st_d6sm7csbq4hs73f8fpjg","pricing_plan_id":"cebpf4jnsgd1na2vs0mg"},{"bike_id":"e13e8e92-1158-4672-b17b-19074c478728","system_id":"levelo_inurba_marseille","lat":43.27815,"lon":5.39206,"is_reserved":false,"is_disabled":false,"rental_uris":{"android":"levelo://app?vid=e13e8e92-1158-4672-b17b-19074c478728","ios":"levelo://app?vid=e13e8e92-1158-4672-b17b-19074c478728"},"vehicle_type_id":"4","last_reported":1779061717,"current_range_meters":8800,"station_id":"ce4bhjp2rcd13ifvqga0","pricing_plan_id":"cebpf4jnsgd1na2vs0mg"},{"bike_id":"91b96031-432e-49b1-b785-b87ed2a97155","system_id":"levelo_inurba_marseille","lat":43.29396,"lon":5.35124,"is_reserved":false,"is_disabled":false,"rental_uris":{"android":"levelo://app?vid=91b96031-432e-49b1-b785-b87ed2a97155","ios":"levelo://app?vid=91b96031-432e-49b1-b785-b87ed2a97155"},"vehicle_type_id":"4","last_reported":1779061717,"current_range_meters":8800,"station_id":"","pricing_plan_id":"cebpf4jnsgd1na2vs0mg"},{"bike_id":"0383fbbd-183c-4764-ad4f-eed4aa969314","system_id":"levelo_inurba_marseille","lat":43.253381,"lon":5.421728,"is_reserved":false,"is_disabled":false,"rental_uris":{"android":"levelo://app?vid=0383fbbd-183c-4764-ad4f-eed4aa969314","ios":"levelo://app?vid=0383fbbd-183c-4764-ad4f-eed4aa969314"},"vehicle_type_id":"4","last_reported":1779061717,"current_range_meters":8800,"station_id":"st_d2m65c5bi1j21697t3ng","pricing_plan_id":"cebpf4jnsgd1na2vs0mg"},{"bike_id":"40af15fe-4202-4dd4-9d30-4e9f355052fe","system_id":"levelo_inurba_marseille","lat":43.21219,"lon":5.35122,"is_reserved":false,"is_disabled":false,"rental_uris":{"android":"levelo://app?vid=40af15fe-4202-4dd4-9d30-4e9f355052fe","ios":"levelo://app?vid=40af15fe-4202-4dd4-9d30-4e9f355052fe"},"vehicle_type_id":"4","last_reported":1779061717,"current_range_meters":8800,"station_id":"","pricing_plan_id":"cebpf4jnsgd1na2vs0mg"},{"bike_id":"9867a591-eb3c-46a6-9f8a-6507ea1d5903","system_id":"levelo_inurba_marseille","lat":43.30614,"lon":5.39899,"is_reserved":false,"is_disabled":false,"rental_uris":{"android":"levelo://app?vid=9867a591-eb3c-46a6-9f8a-6507ea1d5903","ios":"levelo://app?vid=9867a591-eb3c-46a6-9f8a-6507ea1d5903"},"vehicle_type_id":"4","last_reported":1779061717,"current_range_meters":8800,"station_id":"","pricing_plan_id":"cebpf4jnsgd1na2vs0mg"},{"bike_id":"dc0154be-063b-4cbb-aeae-738bbe008e29","system_id":"levelo_inurba_marseille","lat":43.30897,"lon":5.37162,"is_reserved":false,"is_disabled":false,"rental_uris":{"android":"levelo://app?vid=dc0154be-063b-4cbb-aeae-738bbe008e29","ios":"levelo://app?vid=dc0154be-063b-4cbb-aeae-738bbe008e29"},"vehicle_type_id":"4","last_reported":1779061717,"current_range_meters":8800,"station_id":"ce4bguh2rcd13ifvqckg","pricing_plan_id":"cebpf4jnsgd1na2vs0mg"},{"bike_id":"0a1f3ed7-3dde-4610-8543-db10cc32716a","system_id":"levelo_inurba_marseille","lat":43.295445,"lon":5.393946,"is_reserved":false,"is_disabled":false,"rental_uris":{"android":"levelo://app?vid=0a1f3ed7-3dde-4610-8543-db10cc32716a","ios":"levelo://app?vid=0a1f3ed7-3dde-4610-8543-db10cc32716a"},"vehicle_type_id":"4","last_reported":1779061717,"current_range_meters":8800,"station_id":"ce4bh292rcd13ifvqdf0","pricing_plan_id":"cebpf4jnsgd1na2vs0mg"},{"bike_id":"c87687d2-d443-458a-853c-850510911eac","system_id":"levelo_inurba_marseille","lat":43.29266,"lon":5.36854,"is_reserved":false,"is_disabled":true,"rental_uris":{"android":"levelo://app?vid=c87687d2-d443-458a-853c-850510911eac","ios":"levelo://app?vid=c87687d2-d443-458a-853c-850510911eac"},"vehicle_type_id":"4","last_reported":1779061717,"current_range_meters":8800,"station_id":"ce4bhbp2rcd13ifvqesg","pricing_plan_id":"cebpf4jnsgd1na2vs0mg"},{"bike_id":"5b99fe19-e768-4571-980a-e3f25af4b9ee","system_id":"levelo_inurba_marseille","lat":43.29798,"lon":5.37107,"is_reserved":false,"is_disabled":false,"rental_uris":{"android":"levelo://app?vid=5b99fe19-e768-4571-980a-e3f25af4b9ee","ios":"levelo://app?vid=5b99fe19-e768-4571-980a-e3f25af4b9ee"},"vehicle_type_id":"4","last_reported":1779061717,"current_range_meters":8800,"station_id":"ce4bgop2rcd13ifvqc1g","pricing_plan_id":"cebpf4jnsgd1na2vs0mg"},{"bike_id":"50737330-e170-453c-9d6d-68ab45d05f59","system_id":"levelo_inurba_marseille","lat":43.32361,"lon":5.36746,"is_reserved":false,"is_disabled":false,"rental_uris":{"android":"levelo://app?vid=50737330-e170-453c-9d6d-68ab45d05f59","ios":"levelo://app?vid=50737330-e170-453c-9d6d-68ab45d05f59"},"vehicle_type_id":"4","last_reported":1779061717,"current_range_meters":8800,"station_id":"ce4bhsh2rcd13ifvqi2g","pricing_plan_id":"cebpf4jnsgd1na2vs0mg"},{"bike_id":"8a1899a8-54c3-46b2-b0e5-ca1bac4f83d9","system_id":"levelo_inurba_marseille","lat":43.278128,"lon":5.407079,"is_reserved":false,"is_disabled":false,"rental_uris":{"android":"levelo://app?vid=8a1899a8-54c3-46b2-b0e5-ca1bac4f83d9","ios":"levelo://app?vid=8a1899a8-54c3-46b2-b0e5-ca1bac4f83d9"},"vehicle_type_id":"4","last_reported":1779061717,"current_range_meters":8800,"station_id":"ce4bhnh2rcd13ifvqgtg","pricing_plan_id":"cebpf4jnsgd1na2vs0mg"},{"bike_id":"3da510fd-f140-4e07-b512-412e6764ac36","system_id":"levelo_inurba_marseille","lat":43.30952,"lon":5.39022,"is_reserved":false,"is_disabled":false,"rental_uris":{"android":"levelo://app?vid=3da510fd-f140-4e07-b512-412e6764ac36","ios":"levelo://app?vid=3da510fd-f140-4e07-b512-412e6764ac36"},"vehicle_type_id":"4","last_reported":1779061717,"current_range_meters":8800,"station_id":"ce4bgup2rcd13ifvqco0","pricing_plan_id":"cebpf4jnsgd1na2vs0mg"},{"bike_id":"1030ab3e-d394-4cc4-92fb-345c1ece95b8","system_id":"levelo_inurba_marseille","lat":43.26554,"lon":5.37289,"is_reserved":false,"is_disabled":false,"rental_uris":{"android":"levelo://app?vid=1030ab3e-d394-4cc4-92fb-345c1ece95b8","ios":"levelo://app?vid=1030ab3e-d394-4cc4-92fb-345c1ece95b8"},"vehicle_type_id":"4","last_reported":1779061717,"current_range_meters":8800,"station_id":"ce4bhg12rcd13ifvqf70","pricing_plan_id":"cebpf4jnsgd1na2vs0mg"},{"bike_id":"bdc1a3d6-d470-4771-92c7-6ac67ea68fb6","system_id":"levelo_inurba_marseille","lat":43.28463,"lon":5.35887,"is_reserved":false,"is_disabled":false,"rental_uris":{"android":"levelo://app?vid=bdc1a3d6-d470-4771-92c7-6ac67ea68fb6","ios":"levelo://app?vid=bdc1a3d6-d470-4771-92c7-6ac67ea68fb6"},"vehicle_type_id":"4","last_reported":1779061717,"current_range_meters":8800,"station_id":"ce4bhah2rcd13ifvqei0","pricing_plan_id":"cebpf4jnsgd1na2vs0mg"},{"bike_id":"65db24ec-f40a-4524-a2db-b202759853bc","system_id":"levelo_inurba_marseille","lat":43.30878,"lon":5.37198,"is_reserved":false,"is_disabled":false,"rental_uris":{"android":"levelo://app?vid=65db24ec-f40a-4524-a2db-b202759853bc","ios":"levelo://app?vid=65db24ec-f40a-4524-a2db-b202759853bc"},"vehicle_type_id":"4","last_reported":1779061717,"current_range_meters":8800,"station_id":"ce4bguh2rcd13ifvqckg","pricing_plan_id":"cebpf4jnsgd1na2vs0mg"},{"bike_id":"a2e950bb-8097-4d02-a17c-c8d1e64202ac","system_id":"levelo_inurba_marseille","lat":43.21203,"lon":5.35055,"is_reserved":false,"is_disabled":false,"rental_uris":{"android":"levelo://app?vid=a2e950bb-8097-4d02-a17c-c8d1e64202ac","ios":"levelo://app?vid=a2e950bb-8097-4d02-a17c-c8d1e64202ac"},"vehicle_type_id":"4","last_reported":1779061717,"current_range_meters":8800,"station_id":"st_cvj6sg6p6f1abm77japg","pricing_plan_id":"cebpf4jnsgd1na2vs0mg"},{"bike_id":"578cca05-a7c9-4977-ab4c-dd657fef1bee","system_id":"levelo_inurba_marseille","lat":43.3088,"lon":5.37183,"is_reserved":false,"is_disabled":false,"rental_uris":{"android":"levelo://app?vid=578cca05-a7c9-4977-ab4c-dd657fef1bee","ios":"levelo://app?vid=578cca05-a7c9-4977-ab4c-dd657fef1bee"},"vehicle_type_id":"4","last_reported":1779061717,"current_range_meters":8800,"station_id":"ce4bguh2rcd13ifvqckg","pricing_plan_id":"cebpf4jnsgd1na2vs0mg"},{"bike_id":"9ab6187e-69cb-4414-91bf-6630cd2d3eb6","system_id":"levelo_inurba_marseille","lat":43.29787,"lon":5.37104,"is_reserved":false,"is_disabled":false,"rental_uris":{"android":"levelo://app?vid=9ab6187e-69cb-4414-91bf-6630cd2d3eb6","ios":"levelo://app?vid=9ab6187e-69cb-4414-91bf-6630cd2d3eb6"},"vehicle_type_id":"4","last_reported":1779061717,"current_range_meters":8800,"station_id":"ce4bgop2rcd13ifvqc1g","pricing_plan_id":"cebpf4jnsgd1na2vs0mg"},{"bike_id":"8e60d376-dc12-46c4-9bfe-e739b2cee7d3","system_id":"levelo_inurba_marseille","lat":43.30222,"lon":5.39473,"is_reserved":false,"is_disabled":false,"rental_uris":{"android":"levelo://app?vid=8e60d376-dc12-46c4-9bfe-e739b2cee7d3","ios":"levelo://app?vid=8e60d376-dc12-46c4-9bfe-e739b2cee7d3"},"vehicle_type_id":"4","last_reported":1779061717,"current_range_meters":8800,"station_id":"ce4bh0p2rcd13ifvqd70","pricing_plan_id":"cebpf4jnsgd1na2vs0mg"},{"bike_id":"c3a3670b-9b26-4d4a-9bf3-b33f2b8471be","system_id":"levelo_inurba_marseille","lat":43.296,"lon":5.38072,"is_reserved":false,"is_disabled":false,"rental_uris":{"android":"levelo://app?vid=c3a3670b-9b26-4d4a-9bf3-b33f2b8471be","ios":"levelo://app?vid=c3a3670b-9b26-4d4a-9bf3-b33f2b8471be"},"vehicle_type_id":"4","last_reported":1779061717,"current_range_meters":8800,"station_id":"ce4bgl12rcd13ifvqbo0","pricing_plan_id":"cebpf4jnsgd1na2vs0mg"},{"bike_id":"f70613e3-4a1c-4393-a841-16cfb574f3b2","system_id":"levelo_inurba_marseille","lat":43.30936,"lon":5.40152,"is_reserved":false,"is_disabled":false,"rental_uris":{"android":"levelo://app?vid=f70613e3-4a1c-4393-a841-16cfb574f3b2","ios":"levelo://app?vid=f70613e3-4a1c-4393-a841-16cfb574f3b2"},"vehicle_type_id":"4","last_reported":1779061717,"current_range_meters":8800,"station_id":"ce4bgvp2rcd13ifvqct0","pricing_plan_id":"cebpf4jnsgd1na2vs0mg"},{"bike_id":"f2d44b4d-ecc6-46fb-af40-f77209d57097","system_id":"levelo_inurba_marseille","lat":43.21179,"lon":5.35096,"is_reserved":false,"is_disabled":false,"rental_uris":{"android":"levelo://app?vid=f2d44b4d-ecc6-46fb-af40-f77209d57097","ios":"levelo://app?vid=f2d44b4d-ecc6-46fb-af40-f77209d57097"},"vehicle_type_id":"4","last_reported":1779061717,"current_range_meters":8800,"station_id":"st_cvj6sg6p6f1abm77japg","pricing_plan_id":"cebpf4jnsgd1na2vs0mg"},{"bike_id":"28aa5d0f-9766-455c-a52b-ac0c4c78bce2","system_id":"levelo_inurba_marseille","lat":43.28628,"lon":5.39823,"is_reserved":false,"is_disabled":false,"rental_uris":{"android":"levelo://app?vid=28aa5d0f-9766-455c-a52b-ac0c4c78bce2","ios":"levelo://app?vid=28aa5d0f-9766-455c-a52b-ac0c4c78bce2"},"vehicle_type_id":"4","last_reported":1779061717,"current_range_meters":9200,"station_id":"st_d4a7ka997mjs738ck50g","pricing_plan_id":"cebpf4jnsgd1na2vs0mg"},{"bike_id":"73535c25-6378-450e-a34b-417cf1b8fa24","system_id":"levelo_inurba_marseille","lat":43.21182,"lon":5.35073,"is_reserved":false,"is_disabled":true,"rental_uris":{"android":"levelo://app?vid=73535c25-6378-450e-a34b-417cf1b8fa24","ios":"levelo://app?vid=73535c25-6378-450e-a34b-417cf1b8fa24"},"vehicle_type_id":"4","last_reported":1779061717,"current_range_meters":9200,"station_id":"st_cvj6sg6p6f1abm77japg","pricing_plan_id":"cebpf4jnsgd1na2vs0mg"},{"bike_id":"59ce89b0-7fa2-4071-9ff4-c7a63f25f322","system_id":"levelo_inurba_marseille","lat":43.28725,"lon":5.46701,"is_reserved":false,"is_disabled":false,"rental_uris":{"android":"levelo://app?vid=59ce89b0-7fa2-4071-9ff4-c7a63f25f322","ios":"levelo://app?vid=59ce89b0-7fa2-4071-9ff4-c7a63f25f322"},"vehicle_type_id":"4","last_reported":1779061717,"current_range_meters":9200,"station_id":"st_d6tc3vkotcvc738tfjhg","pricing_plan_id":"cebpf4jnsgd1na2vs0mg"},{"bike_id":"a0869d84-058e-4d4c-b56e-3310e78b7d60","system_id":"levelo_inurba_marseille","lat":43.28476,"lon":5.38571,"is_reserved":false,"is_disabled":false,"rental_uris":{"android":"levelo://app?vid=a0869d84-058e-4d4c-b56e-3310e78b7d60","ios":"levelo://app?vid=a0869d84-058e-4d4c-b56e-3310e78b7d60"},"vehicle_type_id":"4","last_reported":1779061717,"current_range_meters":9200,"station_id":"ce4bh8p2rcd13ifvqeb0","pricing_plan_id":"cebpf4jnsgd1na2vs0mg"},{"bike_id":"aa84b18d-b9c8-42b4-a12e-46438cb9169a","system_id":"levelo_inurba_marseille","lat":43.29269,"lon":5.38442,"is_reserved":false,"is_disabled":true,"rental_uris":{"android":"levelo://app?vid=aa84b18d-b9c8-42b4-a12e-46438cb9169a","ios":"levelo://app?vid=aa84b18d-b9c8-42b4-a12e-46438cb9169a"},"vehicle_type_id":"4","last_reported":1779061717,"current_range_meters":9200,"station_id":"ce4bh692rcd13ifvqea0","pricing_plan_id":"cebpf4jnsgd1na2vs0mg"},{"bike_id":"a9331681-1fa9-4597-96d5-6e99a4885993","system_id":"levelo_inurba_marseille","lat":43.29204,"lon":5.39351,"is_reserved":false,"is_disabled":false,"rental_uris":{"android":"levelo://app?vid=a9331681-1fa9-4597-96d5-6e99a4885993","ios":"levelo://app?vid=a9331681-1fa9-4597-96d5-6e99a4885993"},"vehicle_type_id":"4","last_reported":1779061717,"current_range_meters":9200,"station_id":"ce4bh192rcd13ifvqdd0","pricing_plan_id":"cebpf4jnsgd1na2vs0mg"},{"bike_id":"70c12faf-a2e9-4c32-9be2-cae320aa687d","system_id":"levelo_inurba_marseille","lat":43.2256,"lon":5.41641,"is_reserved":false,"is_disabled":false,"rental_uris":{"android":"levelo://app?vid=70c12faf-a2e9-4c32-9be2-cae320aa687d","ios":"levelo://app?vid=70c12faf-a2e9-4c32-9be2-cae320aa687d"},"vehicle_type_id":"4","last_reported":1779061717,"current_range_meters":9200,"station_id":"st_d2o4gvlbi1j2169b742g","pricing_plan_id":"cebpf4jnsgd1na2vs0mg"},{"bike_id":"8d21ff89-6275-4e00-a5a5-13e4608eac1d","system_id":"levelo_inurba_marseille","lat":43.28723,"lon":5.39995,"is_reserved":false,"is_disabled":false,"rental_uris":{"android":"levelo://app?vid=8d21ff89-6275-4e00-a5a5-13e4608eac1d","ios":"levelo://app?vid=8d21ff89-6275-4e00-a5a5-13e4608eac1d"},"vehicle_type_id":"4","last_reported":1779061717,"current_range_meters":9200,"station_id":"ce4bho92rcd13ifvqh3g","pricing_plan_id":"cebpf4jnsgd1na2vs0mg"},{"bike_id":"6304ad87-364e-4de9-9356-bd21ebc49eee","system_id":"levelo_inurba_marseille","lat":43.28604,"lon":5.37108,"is_reserved":false,"is_disabled":false,"rental_uris":{"android":"levelo://app?vid=6304ad87-364e-4de9-9356-bd21ebc49eee","ios":"levelo://app?vid=6304ad87-364e-4de9-9356-bd21ebc49eee"},"vehicle_type_id":"4","last_reported":1779061717,"current_range_meters":9200,"station_id":"ce4bht12rcd13ifvqi60","pricing_plan_id":"cebpf4jnsgd1na2vs0mg"},{"bike_id":"71c2d857-4d1c-4bc6-bb42-7dd6c30b8077","system_id":"levelo_inurba_marseille","lat":43.28622,"lon":5.35095,"is_reserved":false,"is_disabled":false,"rental_uris":{"android":"levelo://app?vid=71c2d857-4d1c-4bc6-bb42-7dd6c30b8077","ios":"levelo://app?vid=71c2d857-4d1c-4bc6-bb42-7dd6c30b8077"},"vehicle_type_id":"4","last_reported":1779061717,"current_range_meters":9200,"station_id":"ce4bhch2rcd13ifvqeug","pricing_plan_id":"cebpf4jnsgd1na2vs0mg"},{"bike_id":"779d7e29-ccae-4118-97fa-423751733e1b","system_id":"levelo_inurba_marseille","lat":43.24798,"lon":5.37485,"is_reserved":false,"is_disabled":false,"rental_uris":{"android":"levelo://app?vid=779d7e29-ccae-4118-97fa-423751733e1b","ios":"levelo://app?vid=779d7e29-ccae-4118-97fa-423751733e1b"},"vehicle_type_id":"4","last_reported":1779061717,"current_range_meters":9200,"station_id":"ce4bhgh2rcd13ifvqfb0","pricing_plan_id":"cebpf4jnsgd1na2vs0mg"},{"bike_id":"e3a95302-dd35-4752-96de-62d8ebc0b915","system_id":"levelo_inurba_marseille","lat":43.30875,"lon":5.39652,"is_reserved":false,"is_disabled":false,"rental_uris":{"android":"levelo://app?vid=e3a95302-dd35-4752-96de-62d8ebc0b915","ios":"levelo://app?vid=e3a95302-dd35-4752-96de-62d8ebc0b915"},"vehicle_type_id":"4","last_reported":1779061717,"current_range_meters":9200,"station_id":"ce4bh012rcd13ifvqcv0","pricing_plan_id":"cebpf4jnsgd1na2vs0mg"},{"bike_id":"af0631cc-99b3-4de9-b146-77bb5c76f318","system_id":"levelo_inurba_marseille","lat":43.27965,"lon":5.38693,"is_reserved":false,"is_disabled":true,"rental_uris":{"android":"levelo://app?vid=af0631cc-99b3-4de9-b146-77bb5c76f318","ios":"levelo://app?vid=af0631cc-99b3-4de9-b146-77bb5c76f318"},"vehicle_type_id":"4","last_reported":1779061717,"current_range_meters":9200,"station_id":"ce4bhg12rcd13ifvqf80","pricing_plan_id":"cebpf4jnsgd1na2vs0mg"},{"bike_id":"bacfe14c-e6e1-4685-967f-ad05e3db0738","system_id":"levelo_inurba_marseille","lat":43.29695,"lon":5.3707,"is_reserved":false,"is_disabled":false,"rental_uris":{"android":"levelo://app?vid=bacfe14c-e6e1-4685-967f-ad05e3db0738","ios":"levelo://app?vid=bacfe14c-e6e1-4685-967f-ad05e3db0738"},"vehicle_type_id":"4","last_reported":1779061717,"current_range_meters":9200,"station_id":"ce4bgop2rcd13ifvqc1g","pricing_plan_id":"cebpf4jnsgd1na2vs0mg"},{"bike_id":"1965c751-cb7c-41bc-8219-ad4b377eef0f","system_id":"levelo_inurba_marseille","lat":43.32348,"lon":5.36737,"is_reserved":false,"is_disabled":false,"rental_uris":{"android":"levelo://app?vid=1965c751-cb7c-41bc-8219-ad4b377eef0f","ios":"levelo://app?vid=1965c751-cb7c-41bc-8219-ad4b377eef0f"},"vehicle_type_id":"4","last_reported":1779061717,"current_range_meters":9200,"station_id":"ce4bhsh2rcd13ifvqi2g","pricing_plan_id":"cebpf4jnsgd1na2vs0mg"},{"bike_id":"bb92cc9a-ae3f-4a56-ad95-94e70e1bc46a","system_id":"levelo_inurba_marseille","lat":43.29199,"lon":5.403,"is_reserved":false,"is_disabled":false,"rental_uris":{"android":"levelo://app?vid=bb92cc9a-ae3f-4a56-ad95-94e70e1bc46a","ios":"levelo://app?vid=bb92cc9a-ae3f-4a56-ad95-94e70e1bc46a"},"vehicle_type_id":"4","last_reported":1779061717,"current_range_meters":9200,"station_id":"","pricing_plan_id":"cebpf4jnsgd1na2vs0mg"},{"bike_id":"956a197d-7ee2-4766-a121-f5151bb16d2d","system_id":"levelo_inurba_marseille","lat":43.29797,"lon":5.39358,"is_reserved":false,"is_disabled":false,"rental_uris":{"android":"levelo://app?vid=956a197d-7ee2-4766-a121-f5151bb16d2d","ios":"levelo://app?vid=956a197d-7ee2-4766-a121-f5151bb16d2d"},"vehicle_type_id":"4","last_reported":1779061717,"current_range_meters":9200,"station_id":"chh1huq6cuj3fo74tm60","pricing_plan_id":"cebpf4jnsgd1na2vs0mg"},{"bike_id":"469b1611-6e8d-4c62-9b96-90e4871785ff","system_id":"levelo_inurba_marseille","lat":43.29798,"lon":5.38087,"is_reserved":false,"is_disabled":true,"rental_uris":{"android":"levelo://app?vid=469b1611-6e8d-4c62-9b96-90e4871785ff","ios":"levelo://app?vid=469b1611-6e8d-4c62-9b96-90e4871785ff"},