{"last_updated":1744297859,"ttl":60,"version":"2.2","data":{"bikes":[{"bike_id":"3f8dd9c2-6b84-4992-a3a6-f5699b3ea8ef","system_id":"levelo_inurba_marseille","lat":43.301631,"lon":5.38765,"is_reserved":false,"is_disabled":false,"rental_uris":{"android":"levelo://app?vid=3f8dd9c2-6b84-4992-a3a6-f5699b3ea8ef","ios":"levelo://app?vid=3f8dd9c2-6b84-4992-a3a6-f5699b3ea8ef"},"vehicle_type_id":"4","last_reported":1744297859,"current_range_meters":2000,"station_id":"ce4bghh2rcd13ifvqb60","pricing_plan_id":"cebpf4jnsgd1na2vs0mg"},{"bike_id":"28caa7b6-05d9-42c9-9e5d-cf6a2159eae5","system_id":"levelo_inurba_marseille","lat":43.30439,"lon":5.38887,"is_reserved":false,"is_disabled":false,"rental_uris":{"android":"levelo://app?vid=28caa7b6-05d9-42c9-9e5d-cf6a2159eae5","ios":"levelo://app?vid=28caa7b6-05d9-42c9-9e5d-cf6a2159eae5"},"vehicle_type_id":"4","last_reported":1744297859,"current_range_meters":2800,"station_id":"ce4bgk12rcd13ifvqbi0","pricing_plan_id":"cebpf4jnsgd1na2vs0mg"},{"bike_id":"b34cd955-90a8-4445-bba0-8060b4d686e4","system_id":"levelo_inurba_marseille","lat":43.30135,"lon":5.38081,"is_reserved":false,"is_disabled":false,"rental_uris":{"android":"levelo://app?vid=b34cd955-90a8-4445-bba0-8060b4d686e4","ios":"levelo://app?vid=b34cd955-90a8-4445-bba0-8060b4d686e4"},"vehicle_type_id":"4","last_reported":1744297859,"current_range_meters":2800,"station_id":"ce4bgjp2rcd13ifvqbh0","pricing_plan_id":"cebpf4jnsgd1na2vs0mg"},{"bike_id":"740c9d03-e19c-4498-9321-882eb4b5e61a","system_id":"levelo_inurba_marseille","lat":43.27683,"lon":5.38889,"is_reserved":false,"is_disabled":false,"rental_uris":{"android":"levelo://app?vid=740c9d03-e19c-4498-9321-882eb4b5e61a","ios":"levelo://app?vid=740c9d03-e19c-4498-9321-882eb4b5e61a"},"vehicle_type_id":"4","last_reported":1744297859,"current_range_meters":2800,"station_id":"ce4bhi12rcd13ifvqfo0","pricing_plan_id":"cebpf4jnsgd1na2vs0mg"},{"bike_id":"fab67251-e52e-449c-8727-c29155faddab","system_id":"levelo_inurba_marseille","lat":43.231794,"lon":5.399948,"is_reserved":false,"is_disabled":false,"rental_uris":{"android":"levelo://app?vid=fab67251-e52e-449c-8727-c29155faddab","ios":"levelo://app?vid=fab67251-e52e-449c-8727-c29155faddab"},"vehicle_type_id":"4","last_reported":1744297859,"current_range_meters":2800,"station_id":"ce4bhn12rcd13ifvqgqg","pricing_plan_id":"cebpf4jnsgd1na2vs0mg"},{"bike_id":"f2e14696-17b2-438b-8ae5-df77a29f1a7a","system_id":"levelo_inurba_marseille","lat":43.26027,"lon":5.37547,"is_reserved":false,"is_disabled":false,"rental_uris":{"android":"levelo://app?vid=f2e14696-17b2-438b-8ae5-df77a29f1a7a","ios":"levelo://app?vid=f2e14696-17b2-438b-8ae5-df77a29f1a7a"},"vehicle_type_id":"4","last_reported":1744297859,"current_range_meters":3200,"station_id":"ce4bhgh2rcd13ifvqfa0","pricing_plan_id":"cebpf4jnsgd1na2vs0mg"},{"bike_id":"0da8015c-68ff-4270-afb3-0d2a355ea494","system_id":"levelo_inurba_marseille","lat":43.28361,"lon":5.38094,"is_reserved":false,"is_disabled":false,"rental_uris":{"android":"levelo://app?vid=0da8015c-68ff-4270-afb3-0d2a355ea494","ios":"levelo://app?vid=0da8015c-68ff-4270-afb3-0d2a355ea494"},"vehicle_type_id":"4","last_reported":1744297859,"current_range_meters":3200,"station_id":"ce4bh412rcd13ifvqdr0","pricing_plan_id":"cebpf4jnsgd1na2vs0mg"},{"bike_id":"9e7b84d8-2e7c-45d4-bdd6-dcb1adc448f6","system_id":"levelo_inurba_marseille","lat":43.29009,"lon":5.35613,"is_reserved":false,"is_disabled":false,"rental_uris":{"android":"levelo://app?vid=9e7b84d8-2e7c-45d4-bdd6-dcb1adc448f6","ios":"levelo://app?vid=9e7b84d8-2e7c-45d4-bdd6-dcb1adc448f6"},"vehicle_type_id":"4","last_reported":1744297859,"current_range_meters":3200,"station_id":"ce4bhb92rcd13ifvqen0","pricing_plan_id":"cebpf4jnsgd1na2vs0mg"},{"bike_id":"97d9f5c7-5601-4024-8218-e080850705e4","system_id":"levelo_inurba_marseille","lat":43.28428,"lon":5.34987,"is_reserved":false,"is_disabled":true,"rental_uris":{"android":"levelo://app?vid=97d9f5c7-5601-4024-8218-e080850705e4","ios":"levelo://app?vid=97d9f5c7-5601-4024-8218-e080850705e4"},"vehicle_type_id":"4","last_reported":1744297859,"current_range_meters":3200,"station_id":"ce4bhbh2rcd13ifvqepg","pricing_plan_id":"cebpf4jnsgd1na2vs0mg"},{"bike_id":"01874236-6d42-4ec5-a138-71e270da6910","system_id":"levelo_inurba_marseille","lat":43.28717,"lon":5.37413,"is_reserved":false,"is_disabled":false,"rental_uris":{"android":"levelo://app?vid=01874236-6d42-4ec5-a138-71e270da6910","ios":"levelo://app?vid=01874236-6d42-4ec5-a138-71e270da6910"},"vehicle_type_id":"4","last_reported":1744297859,"current_range_meters":3600,"station_id":"ce4bh3p2rcd13ifvqdq0","pricing_plan_id":"cebpf4jnsgd1na2vs0mg"},{"bike_id":"80663e12-6b64-446d-88c9-20255bde1a8a","system_id":"levelo_inurba_marseille","lat":43.308886,"lon":5.396351,"is_reserved":false,"is_disabled":true,"rental_uris":{"android":"levelo://app?vid=80663e12-6b64-446d-88c9-20255bde1a8a","ios":"levelo://app?vid=80663e12-6b64-446d-88c9-20255bde1a8a"},"vehicle_type_id":"4","last_reported":1744297859,"current_range_meters":3600,"station_id":"ce4bh012rcd13ifvqcv0","pricing_plan_id":"cebpf4jnsgd1na2vs0mg"},{"bike_id":"2cd187c9-eaa4-4577-964f-9ff49c21dc81","system_id":"levelo_inurba_marseille","lat":43.293,"lon":5.37167,"is_reserved":false,"is_disabled":false,"rental_uris":{"android":"levelo://app?vid=2cd187c9-eaa4-4577-964f-9ff49c21dc81","ios":"levelo://app?vid=2cd187c9-eaa4-4577-964f-9ff49c21dc81"},"vehicle_type_id":"4","last_reported":1744297859,"current_range_meters":3200,"station_id":"ce4bgh92rcd13ifvqb40","pricing_plan_id":"cebpf4jnsgd1na2vs0mg"},{"bike_id":"08745547-63f9-49cb-a972-4dba0b8a3e7c","system_id":"levelo_inurba_marseille","lat":43.26942,"lon":5.40249,"is_reserved":false,"is_disabled":false,"rental_uris":{"android":"levelo://app?vid=08745547-63f9-49cb-a972-4dba0b8a3e7c","ios":"levelo://app?vid=08745547-63f9-49cb-a972-4dba0b8a3e7c"},"vehicle_type_id":"4","last_reported":1744297859,"current_range_meters":3600,"station_id":"cjm6bp8fraef2m0cb0m0","pricing_plan_id":"cebpf4jnsgd1na2vs0mg"},{"bike_id":"d01f97f2-58b0-4703-8e9c-b5048b34f3c8","system_id":"levelo_inurba_marseille","lat":43.29516,"lon":5.39389,"is_reserved":false,"is_disabled":false,"rental_uris":{"android":"levelo://app?vid=d01f97f2-58b0-4703-8e9c-b5048b34f3c8","ios":"levelo://app?vid=d01f97f2-58b0-4703-8e9c-b5048b34f3c8"},"vehicle_type_id":"4","last_reported":1744297859,"current_range_meters":3600,"station_id":"ce4bh292rcd13ifvqdf0","pricing_plan_id":"cebpf4jnsgd1na2vs0mg"},{"bike_id":"dd13b160-d20e-4a29-9af3-720a1520a2f8","system_id":"levelo_inurba_marseille","lat":43.23179,"lon":5.39989,"is_reserved":false,"is_disabled":false,"rental_uris":{"android":"levelo://app?vid=dd13b160-d20e-4a29-9af3-720a1520a2f8","ios":"levelo://app?vid=dd13b160-d20e-4a29-9af3-720a1520a2f8"},"vehicle_type_id":"4","last_reported":1744297859,"current_range_meters":3200,"station_id":"ce4bhn12rcd13ifvqgqg","pricing_plan_id":"cebpf4jnsgd1na2vs0mg"},{"bike_id":"f9fde33d-3e05-4f24-9670-2ad2d1cacdc1","system_id":"levelo_inurba_marseille","lat":43.28098,"lon":5.37817,"is_reserved":false,"is_disabled":true,"rental_uris":{"android":"levelo://app?vid=f9fde33d-3e05-4f24-9670-2ad2d1cacdc1","ios":"levelo://app?vid=f9fde33d-3e05-4f24-9670-2ad2d1cacdc1"},"vehicle_type_id":"4","last_reported":1744297859,"current_range_meters":3600,"station_id":"ce4bha12rcd13ifvqee0","pricing_plan_id":"cebpf4jnsgd1na2vs0mg"},{"bike_id":"fcb19f5f-8d33-4113-9459-3077fa068b7b","system_id":"levelo_inurba_marseille","lat":43.29416,"lon":5.38627,"is_reserved":false,"is_disabled":false,"rental_uris":{"android":"levelo://app?vid=fcb19f5f-8d33-4113-9459-3077fa068b7b","ios":"levelo://app?vid=fcb19f5f-8d33-4113-9459-3077fa068b7b"},"vehicle_type_id":"4","last_reported":1744297859,"current_range_meters":4000,"station_id":"ce4bh2h2rcd13ifvqdh0","pricing_plan_id":"cebpf4jnsgd1na2vs0mg"},{"bike_id":"a56dd64f-1a2d-427d-bf2b-57828926c543","system_id":"levelo_inurba_marseille","lat":43.27422,"lon":5.39407,"is_reserved":false,"is_disabled":false,"rental_uris":{"android":"levelo://app?vid=a56dd64f-1a2d-427d-bf2b-57828926c543","ios":"levelo://app?vid=a56dd64f-1a2d-427d-bf2b-57828926c543"},"vehicle_type_id":"4","last_reported":1744297859,"current_range_meters":4000,"station_id":"ce4bhdp2rcd13ifvqf20","pricing_plan_id":"cebpf4jnsgd1na2vs0mg"},{"bike_id":"101d740a-04fe-48bb-9d55-be320cfef611","system_id":"levelo_inurba_marseille","lat":43.27614,"lon":5.36106,"is_reserved":false,"is_disabled":false,"rental_uris":{"android":"levelo://app?vid=101d740a-04fe-48bb-9d55-be320cfef611","ios":"levelo://app?vid=101d740a-04fe-48bb-9d55-be320cfef611"},"vehicle_type_id":"4","last_reported":1744297859,"current_range_meters":4400,"station_id":"ce4bgj92rcd13ifvqbe0","pricing_plan_id":"cebpf4jnsgd1na2vs0mg"},{"bike_id":"b31c91bc-7afb-4a05-8a31-e5d315dae592","system_id":"levelo_inurba_marseille","lat":43.29967,"lon":5.38503,"is_reserved":false,"is_disabled":false,"rental_uris":{"android":"levelo://app?vid=b31c91bc-7afb-4a05-8a31-e5d315dae592","ios":"levelo://app?vid=b31c91bc-7afb-4a05-8a31-e5d315dae592"},"vehicle_type_id":"4","last_reported":1744297859,"current_range_meters":4400,"station_id":"ce4bgj92rcd13ifvqbd0","pricing_plan_id":"cebpf4jnsgd1na2vs0mg"},{"bike_id":"f589924f-4ae8-43dd-895f-f9218ef266c7","system_id":"levelo_inurba_marseille","lat":43.289294,"lon":5.384029,"is_reserved":false,"is_disabled":false,"rental_uris":{"android":"levelo://app?vid=f589924f-4ae8-43dd-895f-f9218ef266c7","ios":"levelo://app?vid=f589924f-4ae8-43dd-895f-f9218ef266c7"},"vehicle_type_id":"4","last_reported":1744297859,"current_range_meters":4400,"station_id":"ce4bh612rcd13ifvqe6g","pricing_plan_id":"cebpf4jnsgd1na2vs0mg"},{"bike_id":"01b85d46-17a2-42f3-b93f-d46edff680fe","system_id":"levelo_inurba_marseille","lat":43.29577,"lon":5.37514,"is_reserved":false,"is_disabled":false,"rental_uris":{"android":"levelo://app?vid=01b85d46-17a2-42f3-b93f-d46edff680fe","ios":"levelo://app?vid=01b85d46-17a2-42f3-b93f-d46edff680fe"},"vehicle_type_id":"4","last_reported":1744297859,"current_range_meters":4800,"station_id":"ce4bgh92rcd13ifvqb50","pricing_plan_id":"cebpf4jnsgd1na2vs0mg"},{"bike_id":"082cb1a8-aa86-45c1-a52a-3fb6ab7f856c","system_id":"levelo_inurba_marseille","lat":43.27375,"lon":5.36246,"is_reserved":false,"is_disabled":false,"rental_uris":{"android":"levelo://app?vid=082cb1a8-aa86-45c1-a52a-3fb6ab7f856c","ios":"levelo://app?vid=082cb1a8-aa86-45c1-a52a-3fb6ab7f856c"},"vehicle_type_id":"4","last_reported":1744297859,"current_range_meters":4800,"station_id":"ce4bhbh2rcd13ifvqeo0","pricing_plan_id":"cebpf4jnsgd1na2vs0mg"},{"bike_id":"08f9c0c8-8b33-4578-8a03-20f44d582241","system_id":"levelo_inurba_marseille","lat":43.30585,"lon":5.3698,"is_reserved":false,"is_disabled":false,"rental_uris":{"android":"levelo://app?vid=08f9c0c8-8b33-4578-8a03-20f44d582241","ios":"levelo://app?vid=08f9c0c8-8b33-4578-8a03-20f44d582241"},"vehicle_type_id":"4","last_reported":1744297859,"current_range_meters":4800,"station_id":"","pricing_plan_id":"cebpf4jnsgd1na2vs0mg"},{"bike_id":"b317976b-8958-435d-ad6d-78efe2b4a29e","system_id":"levelo_inurba_marseille","lat":43.27374,"lon":5.36253,"is_reserved":false,"is_disabled":false,"rental_uris":{"android":"levelo://app?vid=b317976b-8958-435d-ad6d-78efe2b4a29e","ios":"levelo://app?vid=b317976b-8958-435d-ad6d-78efe2b4a29e"},"vehicle_type_id":"4","last_reported":1744297859,"current_range_meters":4800,"station_id":"ce4bhbh2rcd13ifvqeo0","pricing_plan_id":"cebpf4jnsgd1na2vs0mg"},{"bike_id":"c7687e24-336b-4d63-9be5-f28b0bf1bcd1","system_id":"levelo_inurba_marseille","lat":43.24169,"lon":5.3639,"is_reserved":false,"is_disabled":false,"rental_uris":{"android":"levelo://app?vid=c7687e24-336b-4d63-9be5-f28b0bf1bcd1","ios":"levelo://app?vid=c7687e24-336b-4d63-9be5-f28b0bf1bcd1"},"vehicle_type_id":"4","last_reported":1744297859,"current_range_meters":5600,"station_id":"cpo36qri1sfpv3e86is0","pricing_plan_id":"cebpf4jnsgd1na2vs0mg"},{"bike_id":"e900f847-9cf4-4c04-a6ad-b172a839c1b1","system_id":"levelo_inurba_marseille","lat":43.29433,"lon":5.39755,"is_reserved":false,"is_disabled":false,"rental_uris":{"android":"levelo://app?vid=e900f847-9cf4-4c04-a6ad-b172a839c1b1","ios":"levelo://app?vid=e900f847-9cf4-4c04-a6ad-b172a839c1b1"},"vehicle_type_id":"4","last_reported":1744297859,"current_range_meters":5600,"station_id":"ce4bh3h2rcd13ifvqdo0","pricing_plan_id":"cebpf4jnsgd1na2vs0mg"},{"bike_id":"1d51e0f7-178c-4ae3-88a2-488d4f01b826","system_id":"levelo_inurba_marseille","lat":43.28177,"lon":5.42362,"is_reserved":false,"is_disabled":false,"rental_uris":{"android":"levelo://app?vid=1d51e0f7-178c-4ae3-88a2-488d4f01b826","ios":"levelo://app?vid=1d51e0f7-178c-4ae3-88a2-488d4f01b826"},"vehicle_type_id":"4","last_reported":1744297859,"current_range_meters":6000,"station_id":"","pricing_plan_id":"cebpf4jnsgd1na2vs0mg"},{"bike_id":"d230c627-64c0-46c4-a600-7d68b33ee702","system_id":"levelo_inurba_marseille","lat":43.27073,"lon":5.42281,"is_reserved":false,"is_disabled":false,"rental_uris":{"android":"levelo://app?vid=d230c627-64c0-46c4-a600-7d68b33ee702","ios":"levelo://app?vid=d230c627-64c0-46c4-a600-7d68b33ee702"},"vehicle_type_id":"4","last_reported":1744297859,"current_range_meters":6000,"station_id":"ce4bhk92rcd13ifvqgb0","pricing_plan_id":"cebpf4jnsgd1na2vs0mg"},{"bike_id":"1b2d3826-bfab-43a6-a374-a0168bab3f39","system_id":"levelo_inurba_marseille","lat":43.29416,"lon":5.37859,"is_reserved":false,"is_disabled":false,"rental_uris":{"android":"levelo://app?vid=1b2d3826-bfab-43a6-a374-a0168bab3f39","ios":"levelo://app?vid=1b2d3826-bfab-43a6-a374-a0168bab3f39"},"vehicle_type_id":"4","last_reported":1744297859,"current_range_meters":6000,"station_id":"ce4bgjh2rcd13ifvqbf0","pricing_plan_id":"cebpf4jnsgd1na2vs0mg"},{"bike_id":"5c9b6a28-8ffd-4fbe-9a23-04b35ac2bfa1","system_id":"levelo_inurba_marseille","lat":43.28849,"lon":5.39295,"is_reserved":false,"is_disabled":false,"rental_uris":{"android":"levelo://app?vid=5c9b6a28-8ffd-4fbe-9a23-04b35ac2bfa1","ios":"levelo://app?vid=5c9b6a28-8ffd-4fbe-9a23-04b35ac2bfa1"},"vehicle_type_id":"4","last_reported":1744297859,"current_range_meters":6000,"station_id":"ce4bh2p2rcd13ifvqdi0","pricing_plan_id":"cebpf4jnsgd1na2vs0mg"},{"bike_id":"3e58da7c-0b93-42d0-948d-03024e6020c2","system_id":"levelo_inurba_marseille","lat":43.29271,"lon":5.38444,"is_reserved":false,"is_disabled":false,"rental_uris":{"android":"levelo://app?vid=3e58da7c-0b93-42d0-948d-03024e6020c2","ios":"levelo://app?vid=3e58da7c-0b93-42d0-948d-03024e6020c2"},"vehicle_type_id":"4","last_reported":1744297859,"current_range_meters":6400,"station_id":"ce4bh692rcd13ifvqea0","pricing_plan_id":"cebpf4jnsgd1na2vs0mg"},{"bike_id":"7963b9f7-0d91-4bfa-bfd3-c26d7ce1ae5d","system_id":"levelo_inurba_marseille","lat":43.3065,"lon":5.40098,"is_reserved":false,"is_disabled":false,"rental_uris":{"android":"levelo://app?vid=7963b9f7-0d91-4bfa-bfd3-c26d7ce1ae5d","ios":"levelo://app?vid=7963b9f7-0d91-4bfa-bfd3-c26d7ce1ae5d"},"vehicle_type_id":"4","last_reported":1744297859,"current_range_meters":6400,"station_id":"ce4bh112rcd13ifvqda0","pricing_plan_id":"cebpf4jnsgd1na2vs0mg"},{"bike_id":"4b4c0d11-585d-488b-b947-56d95fd5e90e","system_id":"levelo_inurba_marseille","lat":43.25502,"lon":5.37648,"is_reserved":false,"is_disabled":false,"rental_uris":{"android":"levelo://app?vid=4b4c0d11-585d-488b-b947-56d95fd5e90e","ios":"levelo://app?vid=4b4c0d11-585d-488b-b947-56d95fd5e90e"},"vehicle_type_id":"4","last_reported":1744297859,"current_range_meters":6400,"station_id":"ce4bhh12rcd13ifvqff0","pricing_plan_id":"cebpf4jnsgd1na2vs0mg"},{"bike_id":"33320f39-8d0f-4951-8dbd-dc239f7088f9","system_id":"levelo_inurba_marseille","lat":43.29835,"lon":5.36272,"is_reserved":false,"is_disabled":false,"rental_uris":{"android":"levelo://app?vid=33320f39-8d0f-4951-8dbd-dc239f7088f9","ios":"levelo://app?vid=33320f39-8d0f-4951-8dbd-dc239f7088f9"},"vehicle_type_id":"4","last_reported":1744297859,"current_range_meters":6400,"station_id":"ce4bgpp2rcd13ifvqc3g","pricing_plan_id":"cebpf4jnsgd1na2vs0mg"},{"bike_id":"e01bd222-80a8-4bd8-bd3d-d6fbd1ae9d85","system_id":"levelo_inurba_marseille","lat":43.30828,"lon":5.37908,"is_reserved":false,"is_disabled":false,"rental_uris":{"android":"levelo://app?vid=e01bd222-80a8-4bd8-bd3d-d6fbd1ae9d85","ios":"levelo://app?vid=e01bd222-80a8-4bd8-bd3d-d6fbd1ae9d85"},"vehicle_type_id":"4","last_reported":1744297859,"current_range_meters":6400,"station_id":"","pricing_plan_id":"cebpf4jnsgd1na2vs0mg"},{"bike_id":"b5b01554-d5cd-47ac-aebb-d69c5dfa11ba","system_id":"levelo_inurba_marseille","lat":43.27391,"lon":5.3626,"is_reserved":false,"is_disabled":false,"rental_uris":{"android":"levelo://app?vid=b5b01554-d5cd-47ac-aebb-d69c5dfa11ba","ios":"levelo://app?vid=b5b01554-d5cd-47ac-aebb-d69c5dfa11ba"},"vehicle_type_id":"4","last_reported":1744297859,"current_range_meters":6800,"station_id":"ce4bhbh2rcd13ifvqeo0","pricing_plan_id":"cebpf4jnsgd1na2vs0mg"},{"bike_id":"ca93408f-926a-4b5d-a0d3-60f0e2a104d2","system_id":"levelo_inurba_marseille","lat":43.30431,"lon":5.39746,"is_reserved":false,"is_disabled":false,"rental_uris":{"android":"levelo://app?vid=ca93408f-926a-4b5d-a0d3-60f0e2a104d2","ios":"levelo://app?vid=ca93408f-926a-4b5d-a0d3-60f0e2a104d2"},"vehicle_type_id":"4","last_reported":1744297859,"current_range_meters":6800,"station_id":"ce4bh092rcd13ifvqd20","pricing_plan_id":"cebpf4jnsgd1na2vs0mg"},{"bike_id":"32259305-3cda-4490-936a-e5c68c2acfc4","system_id":"levelo_inurba_marseille","lat":43.27378,"lon":5.36254,"is_reserved":false,"is_disabled":false,"rental_uris":{"android":"levelo://app?vid=32259305-3cda-4490-936a-e5c68c2acfc4","ios":"levelo://app?vid=32259305-3cda-4490-936a-e5c68c2acfc4"},"vehicle_type_id":"4","last_reported":1744297859,"current_range_meters":6800,"station_id":"ce4bhbh2rcd13ifvqeo0","pricing_plan_id":"cebpf4jnsgd1na2vs0mg"},{"bike_id":"5037faec-7abd-490c-b433-64c827de7f93","system_id":"levelo_inurba_marseille","lat":43.28262,"lon":5.35076,"is_reserved":false,"is_disabled":false,"rental_uris":{"android":"levelo://app?vid=5037faec-7abd-490c-b433-64c827de7f93","ios":"levelo://app?vid=5037faec-7abd-490c-b433-64c827de7f93"},"vehicle_type_id":"4","last_reported":1744297859,"current_range_meters":6800,"station_id":"ce4bhbp2rcd13ifvqerg","pricing_plan_id":"cebpf4jnsgd1na2vs0mg"},{"bike_id":"610062f6-1843-4a51-9e7b-689ea6838f92","system_id":"levelo_inurba_marseille","lat":43.28286,"lon":5.35077,"is_reserved":false,"is_disabled":false,"rental_uris":{"android":"levelo://app?vid=610062f6-1843-4a51-9e7b-689ea6838f92","ios":"levelo://app?vid=610062f6-1843-4a51-9e7b-689ea6838f92"},"vehicle_type_id":"4","last_reported":1744297859,"current_range_meters":7200,"station_id":"ce4bhbp2rcd13ifvqerg","pricing_plan_id":"cebpf4jnsgd1na2vs0mg"},{"bike_id":"4d56ca2c-8e6c-4f2d-8b04-faf41fc7ceba","system_id":"levelo_inurba_marseille","lat":43.29012,"lon":5.35602,"is_reserved":false,"is_disabled":false,"rental_uris":{"android":"levelo://app?vid=4d56ca2c-8e6c-4f2d-8b04-faf41fc7ceba","ios":"levelo://app?vid=4d56ca2c-8e6c-4f2d-8b04-faf41fc7ceba"},"vehicle_type_id":"4","last_reported":1744297859,"current_range_meters":7200,"station_id":"ce4bhb92rcd13ifvqen0","pricing_plan_id":"cebpf4jnsgd1na2vs0mg"},{"bike_id":"3945b849-6d84-4bce-9e3f-b728c519d443","system_id":"levelo_inurba_marseille","lat":43.27376,"lon":5.36262,"is_reserved":false,"is_disabled":false,"rental_uris":{"android":"levelo://app?vid=3945b849-6d84-4bce-9e3f-b728c519d443","ios":"levelo://app?vid=3945b849-6d84-4bce-9e3f-b728c519d443"},"vehicle_type_id":"4","last_reported":1744297859,"current_range_meters":7200,"station_id":"ce4bhbh2rcd13ifvqeo0","pricing_plan_id":"cebpf4jnsgd1na2vs0mg"},{"bike_id":"19746229-53d4-45c5-8f3f-73e05a00b3e7","system_id":"levelo_inurba_marseille","lat":43.29373,"lon":5.37849,"is_reserved":false,"is_disabled":false,"rental_uris":{"android":"levelo://app?vid=19746229-53d4-45c5-8f3f-73e05a00b3e7","ios":"levelo://app?vid=19746229-53d4-45c5-8f3f-73e05a00b3e7"},"vehicle_type_id":"4","last_reported":1744297859,"current_range_meters":7200,"station_id":"ce4bgjh2rcd13ifvqbf0","pricing_plan_id":"cebpf4jnsgd1na2vs0mg"},{"bike_id":"07dac4e9-47e7-48c6-b675-14bf921f14cd","system_id":"levelo_inurba_marseille","lat":43.2657,"lon":5.39004,"is_reserved":false,"is_disabled":false,"rental_uris":{"android":"levelo://app?vid=07dac4e9-47e7-48c6-b675-14bf921f14cd","ios":"levelo://app?vid=07dac4e9-47e7-48c6-b675-14bf921f14cd"},"vehicle_type_id":"4","last_reported":1744297859,"current_range_meters":7200,"station_id":"ce4bhe12rcd13ifvqf30","pricing_plan_id":"cebpf4jnsgd1na2vs0mg"},{"bike_id":"bc27de69-e97a-43be-b306-20ed3b080a16","system_id":"levelo_inurba_marseille","lat":43.28468,"lon":5.38408,"is_reserved":false,"is_disabled":false,"rental_uris":{"android":"levelo://app?vid=bc27de69-e97a-43be-b306-20ed3b080a16","ios":"levelo://app?vid=bc27de69-e97a-43be-b306-20ed3b080a16"},"vehicle_type_id":"4","last_reported":1744297859,"current_range_meters":6800,"station_id":"ce4bh512rcd13ifvqe3g","pricing_plan_id":"cebpf4jnsgd1na2vs0mg"},{"bike_id":"4ae15093-0782-4ec7-bf57-90cb462c5d88","system_id":"levelo_inurba_marseille","lat":43.287104,"lon":5.373867,"is_reserved":false,"is_disabled":false,"rental_uris":{"android":"levelo://app?vid=4ae15093-0782-4ec7-bf57-90cb462c5d88","ios":"levelo://app?vid=4ae15093-0782-4ec7-bf57-90cb462c5d88"},"vehicle_type_id":"4","last_reported":1744297859,"current_range_meters":7200,"station_id":"ce4bh3p2rcd13ifvqdq0","pricing_plan_id":"cebpf4jnsgd1na2vs0mg"},{"bike_id":"e2e063a2-23d1-41fd-8c55-25559d05ccfe","system_id":"levelo_inurba_marseille","lat":43.25503,"lon":5.3765,"is_reserved":false,"is_disabled":false,"rental_uris":{"android":"levelo://app?vid=e2e063a2-23d1-41fd-8c55-25559d05ccfe","ios":"levelo://app?vid=e2e063a2-23d1-41fd-8c55-25559d05ccfe"},"vehicle_type_id":"4","last_reported":1744297859,"current_range_meters":8000,"station_id":"ce4bhh12rcd13ifvqff0","pricing_plan_id":"cebpf4jnsgd1na2vs0mg"},{"bike_id":"0b14e020-b594-4567-92b1-5652d62501cd","system_id":"levelo_inurba_marseille","lat":43.2418,"lon":5.3642,"is_reserved":false,"is_disabled":false,"rental_uris":{"android":"levelo://app?vid=0b14e020-b594-4567-92b1-5652d62501cd","ios":"levelo://app?vid=0b14e020-b594-4567-92b1-5652d62501cd"},"vehicle_type_id":"4","last_reported":1744297859,"current_range_meters":8000,"station_id":"cpo36qri1sfpv3e86is0","pricing_plan_id":"cebpf4jnsgd1na2vs0mg"},{"bike_id":"f5f0af69-a014-46c5-a367-8669341311c2","system_id":"levelo_inurba_marseille","lat":43.2841,"lon":5.34986,"is_reserved":false,"is_disabled":false,"rental_uris":{"android":"levelo://app?vid=f5f0af69-a014-46c5-a367-8669341311c2","ios":"levelo://app?vid=f5f0af69-a014-46c5-a367-8669341311c2"},"vehicle_type_id":"4","last_reported":1744297859,"current_range_meters":8000,"station_id":"ce4bhbh2rcd13ifvqepg","pricing_plan_id":"cebpf4jnsgd1na2vs0mg"},{"bike_id":"cd6992dc-5df6-43c2-bbe9-042a8ecf6aee","system_id":"levelo_inurba_marseille","lat":43.276215,"lon":5.361127,"is_reserved":false,"is_disabled":false,"rental_uris":{"android":"levelo://app?vid=cd6992dc-5df6-43c2-bbe9-042a8ecf6aee","ios":"levelo://app?vid=cd6992dc-5df6-43c2-bbe9-042a8ecf6aee"},"vehicle_type_id":"4","last_reported":1744297859,"current_range_meters":8000,"station_id":"ce4bgj92rcd13ifvqbe0","pricing_plan_id":"cebpf4jnsgd1na2vs0mg"},{"bike_id":"0034db4b-efd6-4119-a358-80e858a45e83","system_id":"levelo_inurba_marseille","lat":43.31753,"lon":5.38921,"is_reserved":false,"is_disabled":false,"rental_uris":{"android":"levelo://app?vid=0034db4b-efd6-4119-a358-80e858a45e83","ios":"levelo://app?vid=0034db4b-efd6-4119-a358-80e858a45e83"},"vehicle_type_id":"4","last_reported":1744297859,"current_range_meters":8000,"station_id":"","pricing_plan_id":"cebpf4jnsgd1na2vs0mg"},{"bike_id":"733dbe14-469b-440d-bfba-73445d32652b","system_id":"levelo_inurba_marseille","lat":43.30113,"lon":5.400872,"is_reserved":false,"is_disabled":false,"rental_uris":{"android":"levelo://app?vid=733dbe14-469b-440d-bfba-73445d32652b","ios":"levelo://app?vid=733dbe14-469b-440d-bfba-73445d32652b"},"vehicle_type_id":"4","last_reported":1744297859,"current_range_meters":8000,"station_id":"ce4bgvh2rcd13ifvqcs0","pricing_plan_id":"cebpf4jnsgd1na2vs0mg"},{"bike_id":"997fa631-6446-4d3b-8a0a-37535d9a5e25","system_id":"levelo_inurba_marseille","lat":43.30213,"lon":5.39466,"is_reserved":false,"is_disabled":false,"rental_uris":{"android":"levelo://app?vid=997fa631-6446-4d3b-8a0a-37535d9a5e25","ios":"levelo://app?vid=997fa631-6446-4d3b-8a0a-37535d9a5e25"},"vehicle_type_id":"4","last_reported":1744297859,"current_range_meters":8000,"station_id":"ce4bh0p2rcd13ifvqd70","pricing_plan_id":"cebpf4jnsgd1na2vs0mg"},{"bike_id":"a7b18984-b4d9-4e8a-a52c-3f5687882067","system_id":"levelo_inurba_marseille","lat":43.28279,"lon":5.35071,"is_reserved":false,"is_disabled":false,"rental_uris":{"android":"levelo://app?vid=a7b18984-b4d9-4e8a-a52c-3f5687882067","ios":"levelo://app?vid=a7b18984-b4d9-4e8a-a52c-3f5687882067"},"vehicle_type_id":"4","last_reported":1744297859,"current_range_meters":8000,"station_id":"ce4bhbp2rcd13ifvqerg","pricing_plan_id":"cebpf4jnsgd1na2vs0mg"},{"bike_id":"b2267cd5-9575-4f3b-bef2-e544a55a0b31","system_id":"levelo_inurba_marseille","lat":43.24551,"lon":5.39524,"is_reserved":false,"is_disabled":false,"rental_uris":{"android":"levelo://app?vid=b2267cd5-9575-4f3b-bef2-e544a55a0b31","ios":"levelo://app?vid=b2267cd5-9575-4f3b-bef2-e544a55a0b31"},"vehicle_type_id":"4","last_reported":1744297859,"current_range_meters":8400,"station_id":"ce4bhlp2rcd13ifvqgjg","pricing_plan_id":"cebpf4jnsgd1na2vs0mg"},{"bike_id":"01e31f15-bc9b-4d18-bebd-edf19bcedef2","system_id":"levelo_inurba_marseille","lat":43.28714,"lon":5.37945,"is_reserved":false,"is_disabled":true,"rental_uris":{"android":"levelo://app?vid=01e31f15-bc9b-4d18-bebd-edf19bcedef2","ios":"levelo://app?vid=01e31f15-bc9b-4d18-bebd-edf19bcedef2"},"vehicle_type_id":"4","last_reported":1744297859,"current_range_meters":8400,"station_id":"ce4bh9p2rcd13ifvqec0","pricing_plan_id":"cebpf4jnsgd1na2vs0mg"},{"bike_id":"699a4501-8252-4026-b758-00d6b7f68b03","system_id":"levelo_inurba_marseille","lat":43.28267,"lon":5.35068,"is_reserved":false,"is_disabled":false,"rental_uris":{"android":"levelo://app?vid=699a4501-8252-4026-b758-00d6b7f68b03","ios":"levelo://app?vid=699a4501-8252-4026-b758-00d6b7f68b03"},"vehicle_type_id":"4","last_reported":1744297859,"current_range_meters":8400,"station_id":"ce4bhbp2rcd13ifvqerg","pricing_plan_id":"cebpf4jnsgd1na2vs0mg"},{"bike_id":"8bbd6c52-3d54-4669-ac1e-526af7c58f82","system_id":"levelo_inurba_marseille","lat":43.28613,"lon":5.37061,"is_reserved":false,"is_disabled":false,"rental_uris":{"android":"levelo://app?vid=8bbd6c52-3d54-4669-ac1e-526af7c58f82","ios":"levelo://app?vid=8bbd6c52-3d54-4669-ac1e-526af7c58f82"},"vehicle_type_id":"4","last_reported":1744297859,"current_range_meters":8400,"station_id":"ce4bht12rcd13ifvqi60","pricing_plan_id":"cebpf4jnsgd1na2vs0mg"},{"bike_id":"5f30a5a4-de9f-499e-b151-b811ebb3b43a","system_id":"levelo_inurba_marseille","lat":43.31074,"lon":5.38344,"is_reserved":false,"is_disabled":true,"rental_uris":{"android":"levelo://app?vid=5f30a5a4-de9f-499e-b151-b811ebb3b43a","ios":"levelo://app?vid=5f30a5a4-de9f-499e-b151-b811ebb3b43a"},"vehicle_type_id":"4","last_reported":1744297859,"current_range_meters":8400,"station_id":"ce4bgv92rcd13ifvqcr0","pricing_plan_id":"cebpf4jnsgd1na2vs0mg"},{"bike_id":"b7dcf25f-735f-4684-89ce-67892b37a2b5","system_id":"levelo_inurba_marseille","lat":43.2737,"lon":5.36236,"is_reserved":false,"is_disabled":false,"rental_uris":{"android":"levelo://app?vid=b7dcf25f-735f-4684-89ce-67892b37a2b5","ios":"levelo://app?vid=b7dcf25f-735f-4684-89ce-67892b37a2b5"},"vehicle_type_id":"4","last_reported":1744297859,"current_range_meters":8400,"station_id":"ce4bhbh2rcd13ifvqeo0","pricing_plan_id":"cebpf4jnsgd1na2vs0mg"},{"bike_id":"5d2d4aaa-3b5a-48cd-8bb2-dfe36897a2fb","system_id":"levelo_inurba_marseille","lat":43.29637,"lon":5.40586,"is_reserved":false,"is_disabled":false,"rental_uris":{"android":"levelo://app?vid=5d2d4aaa-3b5a-48cd-8bb2-dfe36897a2fb","ios":"levelo://app?vid=5d2d4aaa-3b5a-48cd-8bb2-dfe36897a2fb"},"vehicle_type_id":"4","last_reported":1744297859,"current_range_meters":8400,"station_id":"ce4bh0h2rcd13ifvqd60","pricing_plan_id":"cebpf4jnsgd1na2vs0mg"},{"bike_id":"eff60ced-5b3c-427d-8987-55381012efc5","system_id":"levelo_inurba_marseille","lat":43.27804,"lon":5.40712,"is_reserved":false,"is_disabled":false,"rental_uris":{"android":"levelo://app?vid=eff60ced-5b3c-427d-8987-55381012efc5","ios":"levelo://app?vid=eff60ced-5b3c-427d-8987-55381012efc5"},"vehicle_type_id":"4","last_reported":1744297859,"current_range_meters":8800,"station_id":"ce4bhnh2rcd13ifvqgtg","pricing_plan_id":"cebpf4jnsgd1na2vs0mg"},{"bike_id":"ad41588c-3f9e-445f-bd21-bffd01d62c91","system_id":"levelo_inurba_marseille","lat":43.28276,"lon":5.35069,"is_reserved":false,"is_disabled":false,"rental_uris":{"android":"levelo://app?vid=ad41588c-3f9e-445f-bd21-bffd01d62c91","ios":"levelo://app?vid=ad41588c-3f9e-445f-bd21-bffd01d62c91"},"vehicle_type_id":"4","last_reported":1744297859,"current_range_meters":8800,"station_id":"ce4bhbp2rcd13ifvqerg","pricing_plan_id":"cebpf4jnsgd1na2vs0mg"},{"bike_id":"7768aff2-24c3-4f7c-aab7-81a0b6eeb740","system_id":"levelo_inurba_marseille","lat":43.22519,"lon":5.34799,"is_reserved":false,"is_disabled":false,"rental_uris":{"android":"levelo://app?vid=7768aff2-24c3-4f7c-aab7-81a0b6eeb740","ios":"levelo://app?vid=7768aff2-24c3-4f7c-aab7-81a0b6eeb740"},"vehicle_type_id":"4","last_reported":1744297859,"current_range_meters":8800,"station_id":"st_cvj5dfep6f1abm77gieg","pricing_plan_id":"cebpf4jnsgd1na2vs0mg"},{"bike_id":"6aa9e945-49fa-488a-94e3-e73a9f5ddd96","system_id":"levelo_inurba_marseille","lat":43.27372,"lon":5.36258,"is_reserved":false,"is_disabled":false,"rental_uris":{"android":"levelo://app?vid=6aa9e945-49fa-488a-94e3-e73a9f5ddd96","ios":"levelo://app?vid=6aa9e945-49fa-488a-94e3-e73a9f5ddd96"},"vehicle_type_id":"4","last_reported":1744297859,"current_range_meters":8800,"station_id":"ce4bhbh2rcd13ifvqeo0","pricing_plan_id":"cebpf4jnsgd1na2vs0mg"},{"bike_id":"fa45bc68-d944-49f9-af61-841ee71e3e95","system_id":"levelo_inurba_marseille","lat":43.28705,"lon":5.39986,"is_reserved":false,"is_disabled":false,"rental_uris":{"android":"levelo://app?vid=fa45bc68-d944-49f9-af61-841ee71e3e95","ios":"levelo://app?vid=fa45bc68-d944-49f9-af61-841ee71e3e95"},"vehicle_type_id":"4","last_reported":1744297859,"current_range_meters":8800,"station_id":"ce4bho92rcd13ifvqh3g","pricing_plan_id":"cebpf4jnsgd1na2vs0mg"},{"bike_id":"c243072f-6bd2-4d94-ba83-04162cf2a05c","system_id":"levelo_inurba_marseille","lat":43.27187,"lon":5.40141,"is_reserved":false,"is_disabled":false,"rental_uris":{"android":"levelo://app?vid=c243072f-6bd2-4d94-ba83-04162cf2a05c","ios":"levelo://app?vid=c243072f-6bd2-4d94-ba83-04162cf2a05c"},"vehicle_type_id":"4","last_reported":1744297859,"current_range_meters":8800,"station_id":"","pricing_plan_id":"cebpf4jnsgd1na2vs0mg"},{"bike_id":"e4a867b6-49f9-45ed-8508-72c773faed93","system_id":"levelo_inurba_marseille","lat":43.295397,"lon":5.375053,"is_reserved":false,"is_disabled":false,"rental_uris":{"android":"levelo://app?vid=e4a867b6-49f9-45ed-8508-72c773faed93","ios":"levelo://app?vid=e4a867b6-49f9-45ed-8508-72c773faed93"},"vehicle_type_id":"4","last_reported":1744297859,"current_range_meters":9200,"station_id":"ce4bgkp2rcd13ifvqbmg","pricing_plan_id":"cebpf4jnsgd1na2vs0mg"},{"bike_id":"d857623b-dcb0-4162-b803-6f5a7f8da6e1","system_id":"levelo_inurba_marseille","lat":43.254944,"lon":5.376484,"is_reserved":false,"is_disabled":false,"rental_uris":{"android":"levelo://app?vid=d857623b-dcb0-4162-b803-6f5a7f8da6e1","ios":"levelo://app?vid=d857623b-dcb0-4162-b803-6f5a7f8da6e1"},"vehicle_type_id":"4","last_reported":1744297859,"current_range_meters":9200,"station_id":"ce4bhh12rcd13ifvqff0","pricing_plan_id":"cebpf4jnsgd1na2vs0mg"},{"bike_id":"ed4534fe-b899-4993-9040-dab5bd5bca2f","system_id":"levelo_inurba_marseille","lat":43.29006,"lon":5.35605,"is_reserved":false,"is_disabled":false,"rental_uris":{"android":"levelo://app?vid=ed4534fe-b899-4993-9040-dab5bd5bca2f","ios":"levelo://app?vid=ed4534fe-b899-4993-9040-dab5bd5bca2f"},"vehicle_type_id":"4","last_reported":1744297859,"current_range_meters":9200,"station_id":"ce4bhb92rcd13ifvqen0","pricing_plan_id":"cebpf4jnsgd1na2vs0mg"},{"bike_id":"fbbd246c-98c1-469f-be27-b920f51af53c","system_id":"levelo_inurba_marseille","lat":43.24168,"lon":5.36387,"is_reserved":false,"is_disabled":false,"rental_uris":{"android":"levelo://app?vid=fbbd246c-98c1-469f-be27-b920f51af53c","ios":"levelo://app?vid=fbbd246c-98c1-469f-be27-b920f51af53c"},"vehicle_type_id":"4","last_reported":1744297859,"current_range_meters":9200,"station_id":"cpo36qri1sfpv3e86is0","pricing_plan_id":"cebpf4jnsgd1na2vs0mg"},{"bike_id":"feed2fbc-9570-434e-95c0-b057d1a57102","system_id":"levelo_inurba_marseille","lat":43.27061,"lon":5.42268,"is_reserved":false,"is_disabled":false,"rental_uris":{"android":"levelo://app?vid=feed2fbc-9570-434e-95c0-b057d1a57102","ios":"levelo://app?vid=feed2fbc-9570-434e-95c0-b057d1a57102"},"vehicle_type_id":"4","last_reported":1744297859,"current_range_meters":9200,"station_id":"ce4bhk92rcd13ifvqgb0","pricing_plan_id":"cebpf4jnsgd1na2vs0mg"},{"bike_id":"990e9060-73e1-4262-bd0a-00a336aabeef","system_id":"levelo_inurba_marseille","lat":43.28419,"lon":5.34993,"is_reserved":false,"is_disabled":false,"rental_uris":{"android":"levelo://app?vid=990e9060-73e1-4262-bd0a-00a336aabeef","ios":"levelo://app?vid=990e9060-73e1-4262-bd0a-00a336aabeef"},"vehicle_type_id":"4","last_reported":1744297859,"current_range_meters":9200,"station_id":"ce4bhbh2rcd13ifvqepg","pricing_plan_id":"cebpf4jnsgd1na2vs0mg"},{"bike_id":"a88bf25e-7802-416d-8083-cff59919f3ba","system_id":"levelo_inurba_marseille","lat":43.283542,"lon":5.381107,"is_reserved":false,"is_disabled":false,"rental_uris":{"android":"levelo://app?vid=a88bf25e-7802-416d-8083-cff59919f3ba","ios":"levelo://app?vid=a88bf25e-7802-416d-8083-cff59919f3ba"},"vehicle_type_id":"4","last_reported":1744297859,"current_range_meters":8800,"station_id":"ce4bh412rcd13ifvqdr0","pricing_plan_id":"cebpf4jnsgd1na2vs0mg"},{"bike_id":"3982f845-1de2-47ec-9635-a442036a4db7","system_id":"levelo_inurba_marseille","lat":43.297085,"lon":5.376914,"is_reserved":false,"is_disabled":false,"rental_uris":{"android":"levelo://app?vid=3982f845-1de2-47ec-9635-a442036a4db7","ios":"levelo://app?vid=3982f845-1de2-47ec-9635-a442036a4db7"},"vehicle_type_id":"4","last_reported":1744297859,"current_range_meters":9600,"station_id":"ce4bgkh2rcd13ifvqbl0","pricing_plan_id":"cebpf4jnsgd1na2vs0mg"},{"bike_id":"748bb313-860a-42c0-bf1f-2af3618a51c9","system_id":"levelo_inurba_marseille","lat":43.26816,"lon":5.40248,"is_reserved":false,"is_disabled":false,"rental_uris":{"android":"levelo://app?vid=748bb313-860a-42c0-bf1f-2af3618a51c9","ios":"levelo://app?vid=748bb313-860a-42c0-bf1f-2af3618a51c9"},"vehicle_type_id":"4","last_reported":1744297859,"current_range_meters":9600,"station_id":"ce501612rcd8frsf0b60","pricing_plan_id":"cebpf4jnsgd1na2vs0mg"},{"bike_id":"a583a19c-9509-4d6b-a5b8-cde597083387","system_id":"levelo_inurba_marseille","lat":43.27912,"lon":5.39587,"is_reserved":false,"is_disabled":false,"rental_uris":{"android":"levelo://app?vid=a583a19c-9509-4d6b-a5b8-cde597083387","ios":"levelo://app?vid=a583a19c-9509-4d6b-a5b8-cde597083387"},"vehicle_type_id":"4","last_reported":1744297859,"current_range_meters":9600,"station_id":"ce4bhf92rcd13ifvqf40","pricing_plan_id":"cebpf4jnsgd1na2vs0mg"},{"bike_id":"e6b27e51-7a6f-4c87-9cdb-e0dbaf392783","system_id":"levelo_inurba_marseille","lat":43.30986,"lon":5.39636,"is_reserved":false,"is_disabled":false,"rental_uris":{"android":"levelo://app?vid=e6b27e51-7a6f-4c87-9cdb-e0dbaf392783","ios":"levelo://app?vid=e6b27e51-7a6f-4c87-9cdb-e0dbaf392783"},"vehicle_type_id":"4","last_reported":1744297859,"current_range_meters":9600,"station_id":"","pricing_plan_id":"cebpf4jnsgd1na2vs0mg"},{"bike_id":"c66e0227-8dab-43f7-959d-ad39878fa71f","system_id":"levelo_inurba_marseille","lat":43.2306,"lon":5.35491,"is_reserved":false,"is_disabled":false,"rental_uris":{"android":"levelo://app?vid=c66e0227-8dab-43f7-959d-ad39878fa71f","ios":"levelo://app?vid=c66e0227-8dab-43f7-959d-ad39878fa71f"},"vehicle_type_id":"4","last_reported":1744297859,"current_range_meters":10000,"station_id":"cpo3342slgdg3j2ifvpg","pricing_plan_id":"cebpf4jnsgd1na2vs0mg"},{"bike_id":"14885f6f-3b1e-4f28-868d-7ee23915115a","system_id":"levelo_inurba_marseille","lat":43.26932,"lon":5.38919,"is_reserved":false,"is_disabled":false,"rental_uris":{"android":"levelo://app?vid=14885f6f-3b1e-4f28-868d-7ee23915115a","ios":"levelo://app?vid=14885f6f-3b1e-4f28-868d-7ee23915115a"},"vehicle_type_id":"4","last_reported":1744297859,"current_range_meters":10000,"station_id":"ce4bhhh2rcd13ifvqfl0","pricing_plan_id":"cebpf4jnsgd1na2vs0mg"},{"bike_id":"a08fdf65-f7c3-4eb9-83c1-6d1abed3497e","system_id":"levelo_inurba_marseille","lat":43.286966,"lon":5.39983,"is_reserved":false,"is_disabled":true,"rental_uris":{"android":"levelo://app?vid=a08fdf65-f7c3-4eb9-83c1-6d1abed3497e","ios":"levelo://app?vid=a08fdf65-f7c3-4eb9-83c1-6d1abed3497e"},"vehicle_type_id":"4","last_reported":1744297859,"current_range_meters":10000,"station_id":"ce4bho92rcd13ifvqh3g","pricing_plan_id":"cebpf4jnsgd1na2vs0mg"},{"bike_id":"b1eadd4c-1a2c-4f7c-b879-bb1130ffe8f0","system_id":"levelo_inurba_marseille","lat":43.2872,"lon":5.37937,"is_reserved":false,"is_disabled":false,"rental_uris":{"android":"levelo://app?vid=b1eadd4c-1a2c-4f7c-b879-bb1130ffe8f0","ios":"levelo://app?vid=b1eadd4c-1a2c-4f7c-b879-bb1130ffe8f0"},"vehicle_type_id":"4","last_reported":1744297859,"current_range_meters":10000,"station_id":"ce4bh9p2rcd13ifvqec0","pricing_plan_id":"cebpf4jnsgd1na2vs0mg"},{"bike_id":"57267de8-efac-4976-be0c-f87a5afbc0b4","system_id":"levelo_inurba_marseille","lat":43.316973,"lon":5.404735,"is_reserved":false,"is_disabled":false,"rental_uris":{"android":"levelo://app?vid=57267de8-efac-4976-be0c-f87a5afbc0b4","ios":"levelo://app?vid=57267de8-efac-4976-be0c-f87a5afbc0b4"},"vehicle_type_id":"4","last_reported":1744297859,"current_range_meters":10000,"station_id":"ce4bhb92rcd13ifvqen0","pricing_plan_id":"cebpf4jnsgd1na2vs0mg"},{"bike_id":"ba1bbc58-7021-4943-8512-9330cae3dce2","system_id":"levelo_inurba_marseille","lat":43.28475,"lon":5.35898,"is_reserved":false,"is_disabled":false,"rental_uris":{"android":"levelo://app?vid=ba1bbc58-7021-4943-8512-9330cae3dce2","ios":"levelo://app?vid=ba1bbc58-7021-4943-8512-9330cae3dce2"},"vehicle_type_id":"4","last_reported":1744297859,"current_range_meters":10800,"station_id":"ce4bhah2rcd13ifvqei0","pricing_plan_id":"cebpf4jnsgd1na2vs0mg"},{"bike_id":"c7922c9e-df40-4d6f-92a1-640cc6bd2ff7","system_id":"levelo_inurba_marseille","lat":43.24164,"lon":5.36406,"is_reserved":false,"is_disabled":false,"rental_uris":{"android":"levelo://app?vid=c7922c9e-df40-4d6f-92a1-640cc6bd2ff7","ios":"levelo://app?vid=c7922c9e-df40-4d6f-92a1-640cc6bd2ff7"},"vehicle_type_id":"4","last_reported":1744297859,"current_range_meters":10800,"station_id":"cpo36qri1sfpv3e86is0","pricing_plan_id":"cebpf4jnsgd1na2vs0mg"},{"bike_id":"245ce5fe-7351-4dcf-baad-550d47ea2d8a","system_id":"levelo_inurba_marseille","lat":43.2175,"lon":5.34604,"is_reserved":false,"is_disabled":false,"rental_uris":{"android":"levelo://app?vid=245ce5fe-7351-4dcf-baad-550d47ea2d8a","ios":"levelo://app?vid=245ce5fe-7351-4dcf-baad-550d47ea2d8a"},"vehicle_type_id":"4","last_reported":1744297859,"current_range_meters":10800,"station_id":"st_cvj6r9ubvosntc0bgbag","pricing_plan_id":"cebpf4jnsgd1na2vs0mg"},{"bike_id":"c45efe87-6e83-4f3e-93c0-b6707ed76f64","system_id":"levelo_inurba_marseille","lat":43.30136,"lon":5.374,"is_reserved":false,"is_disabled":false,"rental_uris":{"android":"levelo://app?vid=c45efe87-6e83-4f3e-93c0-b6707ed76f64","ios":"levelo://app?vid=c45efe87-6e83-4f3e-93c0-b6707ed76f64"},"vehicle_type_id":"4","last_reported":1744297859,"current_range_meters":10800,"station_id":"ce4bgs92rcd13ifvqcc0","pricing_plan_id":"cebpf4jnsgd1na2vs0mg"},{"bike_id":"bff67837-c676-4b88-9fdc-8db7fe587121","system_id":"levelo_inurba_marseille","lat":43.30166,"lon":5.39966,"is_reserved":false,"is_disabled":true,"rental_uris":{"android":"levelo://app?vid=bff67837-c676-4b88-9fdc-8db7fe587121","ios":"levelo://app?vid=bff67837-c676-4b88-9fdc-8db7fe587121"},"vehicle_type_id":"4","last_reported":1744297859,"current_range_meters":10800,"station_id":"ce4bh0h2rcd13ifvqd40","pricing_plan_id":"cebpf4jnsgd1na2vs0mg"},{"bike_id":"99260628-93ca-4816-84c2-7509aaf9aff8","system_id":"levelo_inurba_marseille","lat":43.31245,"lon":5.36902,"is_reserved":false,"is_disabled":false,"rental_uris":{"android":"levelo://app?vid=99260628-93ca-4816-84c2-7509aaf9aff8","ios":"levelo://app?vid=99260628-93ca-4816-84c2-7509aaf9aff8"},"vehicle_type_id":"4","last_reported":1744297859,"current_range_meters":10800,"station_id":"ce4bgl92rcd13ifvqbq0","pricing_plan_id":"cebpf4jnsgd1na2vs0mg"},{"bike_id":"50a6ea66-a7c0-4c95-a438-3325de993155","system_id":"levelo_inurba_marseille","lat":43.25815,"lon":5.39434,"is_reserved":false,"is_disabled":false,"rental_uris":{"android":"levelo://app?vid=50a6ea66-a7c0-4c95-a438-3325de993155","ios":"levelo://app?vid=50a6ea66-a7c0-4c95-a438-3325de993155"},"vehicle_type_id":"4","last_reported":1744297859,"current_range_meters":10800,"station_id":"ce4bhip2rcd13ifvqft0","pricing_plan_id":"cebpf4jnsgd1na2vs0mg"},{"bike_id":"fbc7cb14-b825-4051-8700-c5dbb127ea46","system_id":"levelo_inurba_marseille","lat":43.26928,"lon":5.40241,"is_reserved":false,"is_disabled":false,"rental_uris":{"android":"levelo://app?vid=fbc7cb14-b825-4051-8700-c5dbb127ea46","ios":"levelo://app?vid=fbc7cb14-b825-4051-8700-c5dbb127ea46"},"vehicle_type_id":"4","last_reported":1744297859,"current_range_meters":11200,"station_id":"cjm6bp8fraef2m0cb0m0","pricing_plan_id":"cebpf4jnsgd1na2vs0mg"},{"bike_id":"34a2f5d8-ec72-44cb-adc7-644db274612f","system_id":"levelo_inurba_marseille","lat":43.27374,"lon":5.36257,"is_reserved":false,"is_disabled":false,"rental_uris":{"android":"levelo://app?vid=34a2f5d8-ec72-44cb-adc7-644db274612f","ios":"levelo://app?vid=34a2f5d8-ec72-44cb-adc7-644db274612f"},"vehicle_type_id":"4","last_reported":1744297859,"current_range_meters":11200,"station_id":"ce4bhbh2rcd13ifvqeo0","pricing_plan_id":"cebpf4jnsgd1na2vs0mg"},{"bike_id":"5a865e26-3851-449e-9d8f-0f021e8cf0c4","system_id":"levelo_inurba_marseille","lat":43.251083,"lon":5.40319,"is_reserved":false,"is_disabled":false,"rental_uris":{"android":"levelo://app?vid=5a865e26-3851-449e-9d8f-0f021e8cf0c4","ios":"levelo://app?vid=5a865e26-3851-449e-9d8f-0f021e8cf0c4"},"vehicle_type_id":"4","last_reported":1744297859,"current_range_meters":11600,"station_id":"ce4bhlh2rcd13ifvqgig","pricing_plan_id":"cebpf4jnsgd1na2vs0mg"},{"bike_id":"a06ef191-700f-428e-a6fb-db20b2123e41","system_id":"levelo_inurba_marseille","lat":43.25085,"lon":5.39528,"is_reserved":false,"is_disabled":false,"rental_uris":{"android":"levelo://app?vid=a06ef191-700f-428e-a6fb-db20b2123e41","ios":"levelo://app?vid=a06ef191-700f-428e-a6fb-db20b2123e41"},"vehicle_type_id":"4","last_reported":1744297859,"current_range_meters":11600,"station_id":"ce4bhm12rcd13ifvqgkg","pricing_plan_id":"cebpf4jnsgd1na2vs0mg"},{"bike_id":"a7c3a0f9-fa44-4142-bbeb-0cac9979a26a","system_id":"levelo_inurba_marseille","lat":43.24168,"lon":5.36394,"is_reserved":false,"is_disabled":false,"rental_uris":{"android":"levelo://app?vid=a7c3a0f9-fa44-4142-bbeb-0cac9979a26a","ios":"levelo://app?vid=a7c3a0f9-fa44-4142-bbeb-0cac9979a26a"},"vehicle_type_id":"4","last_reported":1744297859,"current_range_meters":11600,"station_id":"cpo36qri1sfpv3e86is0","pricing_plan_id":"cebpf4jnsgd1na2vs0mg"},{"bike_id":"e8f233ef-b37b-4b35-8d21-0e681a7b86ab","system_id":"levelo_inurba_marseille","lat":43.28279,"lon":5.35073,"is_reserved":false,"is_disabled":false,"rental_uris":{"android":"levelo://app?vid=e8f233ef-b37b-4b35-8d21-0e681a7b86ab","ios":"levelo://app?vid=e8f233ef-b37b-4b35-8d21-0e681a7b86ab"},"vehicle_type_id":"4","last_reported":1744297859,"current_range_meters":11600,"station_id":"ce4bhbp2rcd13ifvqerg","pricing_plan_id":"cebpf4jnsgd1na2vs0mg"},{"bike_id":"88b81c37-5f9b-494f-8b1a-584cc1caf0e2","system_id":"levelo_inurba_marseille","lat":43.28273,"lon":5.35076,"is_reserved":false,"is_disabled":false,"rental_uris":{"android":"levelo://app?vid=88b81c37-5f9b-494f-8b1a-584cc1caf0e2","ios":"levelo://app?vid=88b81c37-5f9b-494f-8b1a-584cc1caf0e2"},"vehicle_type_id":"4","last_reported":1744297859,"current_range_meters":11600,"station_id":"ce4bhbp2rcd13ifvqerg","pricing_plan_id":"cebpf4jnsgd1na2vs0mg"},{"bike_id":"b7073ba6-e463-4e10-b7fe-c36e2287d5e6","system_id":"levelo_inurba_marseille","lat":43.29003,"lon":5.35607,"is_reserved":false,"is_disabled":false,"rental_uris":{"android":"levelo://app?vid=b7073ba6-e463-4e10-b7fe-c36e2287d5e6","ios":"levelo://app?vid=b7073ba6-e463-4e10-b7fe-c36e2287d5e6"},"vehicle_type_id":"4","last_reported":1744297859,"current_range_meters":11600,"station_id":"ce4bhb92rcd13ifvqen0","pricing_plan_id":"cebpf4jnsgd1na2vs0mg"},{"bike_id":"b326de4f-6a5a-45cc-97a2-2bd64ca9c164","system_id":"levelo_inurba_marseille","lat":43.29969,"lon":5.3849,"is_reserved":false,"is_disabled":false,"rental_uris":{"android":"levelo://app?vid=b326de4f-6a5a-45cc-97a2-2bd64ca9c164","ios":"levelo://app?vid=b326de4f-6a5a-45cc-97a2-2bd64ca9c164"},"vehicle_type_id":"4","last_reported":1744297859,"current_range_meters":12000,"station_id":"ce4bgj92rcd13ifvqbd0","pricing_plan_id":"cebpf4jnsgd1na2vs0mg"},{"bike_id":"7f082dd2-033f-45f4-9f25-5e2682915dd1","system_id":"levelo_inurba_marseille","lat":43.27631,"lon":5.36119,"is_reserved":false,"is_disabled":false,"rental_uris":{"android":"levelo://app?vid=7f082dd2-033f-45f4-9f25-5e2682915dd1","ios":"levelo://app?vid=7f082dd2-033f-45f4-9f25-5e2682915dd1"},"vehicle_type_id":"4","last_reported":1744297859,"current_range_meters":12000,"station_id":"ce4bgj92rcd13ifvqbe0","pricing_plan_id":"cebpf4jnsgd1na2vs0mg"},{"bike_id":"5d3d0d78-f681-4ccd-a7e2-28478b80f1b0","system_id":"levelo_inurba_marseille","lat":43.30598,"lon":5.39362,"is_reserved":false,"is_disabled":false,"rental_uris":{"android":"levelo://app?vid=5d3d0d78-f681-4ccd-a7e2-28478b80f1b0","ios":"levelo://app?vid=5d3d0d78-f681-4ccd-a7e2-28478b80f1b0"},"vehicle_type_id":"4","last_reported":1744297859,"current_range_meters":12000,"station_id":"ce4bh0p2rcd13ifvqd80","pricing_plan_id":"cebpf4jnsgd1na2vs0mg"},{"bike_id":"a1fdd794-2cd0-4fb6-96b3-8dafaa593e65","system_id":"levelo_inurba_marseille","lat":43.21562,"lon":5.34758,"is_reserved":false,"is_disabled":true,"rental_uris":{"android":"levelo://app?vid=a1fdd794-2cd0-4fb6-96b3-8dafaa593e65","ios":"levelo://app?vid=a1fdd794-2cd0-4fb6-96b3-8dafaa593e65"},"vehicle_type_id":"4","last_reported":1744297859,"current_range_meters":12400,"station_id":"","pricing_plan_id":"cebpf4jnsgd1na2vs0mg"},{"bike_id":"f8be9081-c514-460d-9be3-4d086fbd951f","system_id":"levelo_inurba_marseille","lat":43.28616,"lon":5.35099,"is_reserved":false,"is_disabled":false,"rental_uris":{"android":"levelo://app?vid=f8be9081-c514-460d-9be3-4d086fbd951f","ios":"levelo://app?vid=f8be9081-c514-460d-9be3-4d086fbd951f"},"vehicle_type_id":"4","last_reported":1744297859,"current_range_meters":12400,"station_id":"ce4bhch2rcd13ifvqeug","pricing_plan_id":"cebpf4jnsgd1na2vs0mg"},{"bike_id":"200d8e22-d6c3-4e98-b89f-9cbf4093c7ce","system_id":"levelo_inurba_marseille","lat":43.27375,"lon":5.36252,"is_reserved":false,"is_disabled":false,"rental_uris":{"android":"levelo://app?vid=200d8e22-d6c3-4e98-b89f-9cbf4093c7ce","ios":"levelo://app?vid=200d8e22-d6c3-4e98-b89f-9cbf4093c7ce"},"vehicle_type_id":"4","last_reported":1744297859,"current_range_meters":12400,"station_id":"ce4bhbh2rcd13ifvqeo0","pricing_plan_id":"cebpf4jnsgd1na2vs0mg"},{"bike_id":"b7f71113-32c3-4e43-935b-f010a5af6ea1","system_id":"levelo_inurba_marseille","lat":43.28412,"lon":5.37499,"is_reserved":false,"is_disabled":false,"rental_uris":{"android":"levelo://app?vid=b7f71113-32c3-4e43-935b-f010a5af6ea1","ios":"levelo://app?vid=b7f71113-32c3-4e43-935b-f010a5af6ea1"},"vehicle_type_id":"4","last_reported":1744297859,"current_range_meters":12400,"station_id":"ce4bh412rcd13ifvqds0","pricing_plan_id":"cebpf4jnsgd1na2vs0mg"},{"bike_id":"389df720-a186-4fe3-b593-1a3988123b54","system_id":"levelo_inurba_marseille","lat":43.24379,"lon":5.37067,"is_reserved":false,"is_disabled":false,"rental_uris":{"android":"levelo://app?vid=389df720-a186-4fe3-b593-1a3988123b54","ios":"levelo://app?vid=389df720-a186-4fe3-b593-1a3988123b54"},"vehicle_type_id":"4","last_reported":1744297859,"current_range_meters":12000,"station_id":"ce4bhhh2rcd13ifvqfk0","pricing_plan_id":"cebpf4jnsgd1na2vs0mg"},{"bike_id":"58a06d5c-23f8-466b-a88d-449307d0c901","system_id":"levelo_inurba_marseille","lat":43.31494,"lon":5.36764,"is_reserved":false,"is_disabled":false,"rental_uris":{"android":"levelo://app?vid=58a06d5c-23f8-466b-a88d-449307d0c901","ios":"levelo://app?vid=58a06d5c-23f8-466b-a88d-449307d0c901"},"vehicle_type_id":"4","last_reported":1744297859,"current_range_meters":12400,"station_id":"","pricing_plan_id":"cebpf4jnsgd1na2vs0mg"},{"bike_id":"fa0813c4-56be-401a-8ade-c808ad6c7dc4","system_id":"levelo_inurba_marseille","lat":43.23153,"lon":5.43719,"is_reserved":false,"is_disabled":false,"rental_uris":{"android":"levelo://app?vid=fa0813c4-56be-401a-8ade-c808ad6c7dc4","ios":"levelo://app?vid=fa0813c4-56be-401a-8ade-c808ad6c7dc4"},"vehicle_type_id":"4","last_reported":1744297859,"current_range_meters":12400,"station_id":"ce4bhmp2rcd13ifvqgog","pricing_plan_id":"cebpf4jnsgd1na2vs0mg"},{"bike_id":"cc07568e-1e02-415f-831b-cd2eb2628a21","system_id":"levelo_inurba_marseille","lat":43.269258,"lon":5.386138,"is_reserved":false,"is_disabled":false,"rental_uris":{"android":"levelo://app?vid=cc07568e-1e02-415f-831b-cd2eb2628a21","ios":"levelo://app?vid=cc07568e-1e02-415f-831b-cd2eb2628a21"},"vehicle_type_id":"4","last_reported":1744297859,"current_range_meters":12800,"station_id":"ce4bhh92rcd13ifvqfh0","pricing_plan_id":"cebpf4jnsgd1na2vs0mg"},{"bike_id":"90248019-1973-4cc7-bba8-4c21b7cb3805","system_id":"levelo_inurba_marseille","lat":43.2481,"lon":5.37457,"is_reserved":false,"is_disabled":false,"rental_uris":{"android":"levelo://app?vid=90248019-1973-4cc7-bba8-4c21b7cb3805","ios":"levelo://app?vid=90248019-1973-4cc7-bba8-4c21b7cb3805"},"vehicle_type_id":"4","last_reported":1744297859,"current_range_meters":12800,"station_id":"ce4bhgh2rcd13ifvqfb0","pricing_plan_id":"cebpf4jnsgd1na2vs0mg"},{"bike_id":"fb89d0ff-e296-4f5b-82b5-e1b5a87c65c5","system_id":"levelo_inurba_marseille","lat":43.29017,"lon":5.38637,"is_reserved":false,"is_disabled":false,"rental_uris":{"android":"levelo://app?vid=fb89d0ff-e296-4f5b-82b5-e1b5a87c65c5","ios":"levelo://app?vid=fb89d0ff-e296-4f5b-82b5-e1b5a87c65c5"},"vehicle_type_id":"4","last_reported":1744297859,"current_range_meters":13600,"station_id":"ce4bh4p2rcd13ifvqe0g","pricing_plan_id":"cebpf4jnsgd1na2vs0mg"},{"bike_id":"e3c3a051-8134-4ed3-913b-374aa217874c","system_id":"levelo_inurba_marseille","lat":43.256115,"lon":5.405147,"is_reserved":false,"is_disabled":false,"rental_uris":{"android":"levelo://app?vid=e3c3a051-8134-4ed3-913b-374aa217874c","ios":"levelo://app?vid=e3c3a051-8134-4ed3-913b-374aa217874c"},"vehicle_type_id":"4","last_reported":1744297859,"current_range_meters":13600,"station_id":"","pricing_plan_id":"cebpf4jnsgd1na2vs0mg"},{"bike_id":"b6f69b64-e92f-4117-a369-034607b70029","system_id":"levelo_inurba_marseille","lat":43.2481,"lon":5.37455,"is_reserved":false,"is_disabled":false,"rental_uris":{"android":"levelo://app?vid=b6f69b64-e92f-4117-a369-034607b70029","ios":"levelo://app?vid=b6f69b64-e92f-4117-a369-034607b70029"},"vehicle_type_id":"4","last_reported":1744297859,"current_range_meters":13600,"station_id":"ce4bhgh2rcd13ifvqfb0","pricing_plan_id":"cebpf4jnsgd1na2vs0mg"},{"bike_id":"7c86ebaf-c9fe-4bc4-bc7c-bb16ccfd1fa7","system_id":"levelo_inurba_marseille","lat":43.27381,"lon":5.36255,"is_reserved":false,"is_disabled":false,"rental_uris":{"android":"levelo://app?vid=7c86ebaf-c9fe-4bc4-bc7c-bb16ccfd1fa7","ios":"levelo://app?vid=7c86ebaf-c9fe-4bc4-bc7c-bb16ccfd1fa7"},"vehicle_type_id":"4","last_reported":1744297859,"current_range_meters":13600,"station_id":"ce4bhbh2rcd13ifvqeo0","pricing_plan_id":"cebpf4jnsgd1na2vs0mg"},{"bike_id":"dbed5158-18de-4e5b-8769-192429d9a469","system_id":"levelo_inurba_marseille","lat":43.27377,"lon":5.36253,"is_reserved":false,"is_disabled":false,"rental_uris":{"android":"levelo://app?vid=dbed5158-18de-4e5b-8769-192429d9a469","ios":"levelo://app?vid=dbed5158-18de-4e5b-8769-192429d9a469"},"vehicle_type_id":"4","last_reported":1744297859,"current_range_meters":14000,"station_id":"ce4bhbh2rcd13ifvqeo0","pricing_plan_id":"cebpf4jnsgd1na2vs0mg"},{"bike_id":"d35e45c1-f848-4254-a3e4-531709350aa5","system_id":"levelo_inurba_marseille","lat":43.27381,"lon":5.36251,"is_reserved":false,"is_disabled":false,"rental_uris":{"android":"levelo://app?vid=d35e45c1-f848-4254-a3e4-531709350aa5","ios":"levelo://app?vid=d35e45c1-f848-4254-a3e4-531709350aa5"},"vehicle_type_id":"4","last_reported":1744297859,"current_range_meters":14000,"station_id":"ce4bhbh2rcd13ifvqeo0","pricing_plan_id":"cebpf4jnsgd1na2vs0mg"},{"bike_id":"f78bf8a8-b506-43e9-9fc4-9ec4cb688e82","system_id":"levelo_inurba_marseille","lat":43.32109,"lon":5.36782,"is_reserved":false,"is_disabled":false,"rental_uris":{"android":"levelo://app?vid=f78bf8a8-b506-43e9-9fc4-9ec4cb688e82","ios":"levelo://app?vid=f78bf8a8-b506-43e9-9fc4-9ec4cb688e82"},"vehicle_type_id":"4","last_reported":1744297859,"current_range_meters":14400,"station_id":"ce4bhrh2rcd13ifvqhug","pricing_plan_id":"cebpf4jnsgd1na2vs0mg"},{"bike_id":"3481cf0c-a513-4391-a377-41d6eaed484b","system_id":"levelo_inurba_marseille","lat":43.25498,"lon":5.37649,"is_reserved":false,"is_disabled":false,"rental_uris":{"android":"levelo://app?vid=3481cf0c-a513-4391-a377-41d6eaed484b","ios":"levelo://app?vid=3481cf0c-a513-4391-a377-41d6eaed484b"},"vehicle_type_id":"4","last_reported":1744297859,"current_range_meters":14400,"station_id":"ce4bhh12rcd13ifvqff0","pricing_plan_id":"cebpf4jnsgd1na2vs0mg"},{"bike_id":"94325dd9-2315-436a-8a4b-af0b1a3fc8af","system_id":"levelo_inurba_marseille","lat":43.30466,"lon":5.37907,"is_reserved":false,"is_disabled":false,"rental_uris":{"android":"levelo://app?vid=94325dd9-2315-436a-8a4b-af0b1a3fc8af","ios":"levelo://app?vid=94325dd9-2315-436a-8a4b-af0b1a3fc8af"},"vehicle_type_id":"4","last_reported":1744297859,"current_range_meters":14400,"station_id":"ce4bgup2rcd13ifvqcn0","pricing_plan_id":"cebpf4jnsgd1na2vs0mg"},{"bike_id":"daf0214e-6170-4f96-a0ca-f28a395f3b4f","system_id":"levelo_inurba_marseille","lat":43.30306,"lon":5.39209,"is_reserved":false,"is_disabled":false,"rental_uris":{"android":"levelo://app?vid=daf0214e-6170-4f96-a0ca-f28a395f3b4f","ios":"levelo://app?vid=daf0214e-6170-4f96-a0ca-f28a395f3b4f"},"vehicle_type_id":"4","last_reported":1744297859,"current_range_meters":14400,"station_id":"ce4bgkh2rcd13ifvqbk0","pricing_plan_id":"cebpf4jnsgd1na2vs0mg"},{"bike_id":"2f97ab2d-08b4-41aa-85cd-dc488629e9d0","system_id":"levelo_inurba_marseille","lat":43.26567,"lon":5.39006,"is_reserved":false,"is_disabled":false,"rental_uris":{"android":"levelo://app?vid=2f97ab2d-08b4-41aa-85cd-dc488629e9d0","ios":"levelo://app?vid=2f97ab2d-08b4-41aa-85cd-dc488629e9d0"},"vehicle_type_id":"4","last_reported":1744297859,"current_range_meters":14800,"station_id":"ce4bhe12rcd13ifvqf30","pricing_plan_id":"cebpf4jnsgd1na2vs0mg"},{"bike_id":"7cc9ba28-b17b-4764-972f-908f30e26c9f","system_id":"levelo_inurba_marseille","lat":43.28862,"lon":5.35849,"is_reserved":false,"is_disabled":false,"rental_uris":{"android":"levelo://app?vid=7cc9ba28-b17b-4764-972f-908f30e26c9f","ios":"levelo://app?vid=7cc9ba28-b17b-4764-972f-908f30e26c9f"},"vehicle_type_id":"4","last_reported":1744297859,"current_range_meters":14800,"station_id":"ce4bhb12rcd13ifvqem0","pricing_plan_id":"cebpf4jnsgd1na2vs0mg"},{"bike_id":"536ec13d-9bb8-46c8-ad96-f036bf3695d4","system_id":"levelo_inurba_marseille","lat":43.28277,"lon":5.3504,"is_reserved":false,"is_disabled":false,"rental_uris":{"android":"levelo://app?vid=536ec13d-9bb8-46c8-ad96-f036bf3695d4","ios":"levelo://app?vid=536ec13d-9bb8-46c8-ad96-f036bf3695d4"},"vehicle_type_id":"4","last_reported":1744297859,"current_range_meters":14800,"station_id":"ce4bhbp2rcd13ifvqerg","pricing_plan_id":"cebpf4jnsgd1na2vs0mg"},{"bike_id":"992d1ab1-2ef4-454c-a3db-15c7eedd594f","system_id":"levelo_inurba_marseille","lat":43.28856,"lon":5.35841,"is_reserved":false,"is_disabled":false,"rental_uris":{"android":"levelo://app?vid=992d1ab1-2ef4-454c-a3db-15c7eedd594f","ios":"levelo://app?vid=992d1ab1-2ef4-454c-a3db-15c7eedd594f"},"vehicle_type_id":"4","last_reported":1744297859,"current_range_meters":14800,"station_id":"ce4bhb12rcd13ifvqem0","pricing_plan_id":"cebpf4jnsgd1na2vs0mg"},{"bike_id":"d4f6da4f-3fbb-4dde-bc47-6d34822e5bee","system_id":"levelo_inurba_marseille","lat":43.31479,"lon":5.37307,"is_reserved":false,"is_disabled":false,"rental_uris":{"android":"levelo://app?vid=d4f6da4f-3fbb-4dde-bc47-6d34822e5bee","ios":"levelo://app?vid=d4f6da4f-3fbb-4dde-bc47-6d34822e5bee"},"vehicle_type_id":"4","last_reported":1744297859,"current_range_meters":14800,"station_id":"ce4bgt12rcd13ifvqcd0","pricing_plan_id":"cebpf4jnsgd1na2vs0mg"},{"bike_id":"784f6f6f-9f28-47b2-878e-a7ec8d21c437","system_id":"levelo_inurba_marseille","lat":43.304705,"lon":5.37321,"is_reserved":false,"is_disabled":false,"rental_uris":{"android":"levelo://app?vid=784f6f6f-9f28-47b2-878e-a7ec8d21c437","ios":"levelo://app?vid=784f6f6f-9f28-47b2-878e-a7ec8d21c437"},"vehicle_type_id":"4","last_reported":1744297859,"current_range_meters":14800,"station_id":"","pricing_plan_id":"cebpf4jnsgd1na2vs0mg"},{"bike_id":"d916eca7-f4ab-4083-80f0-32f89b4965e1","system_id":"levelo_inurba_marseille","lat":43.2316,"lon":5.43702,"is_reserved":false,"is_disabled":false,"rental_uris":{"android":"levelo://app?vid=d916eca7-f4ab-4083-80f0-32f89b4965e1","ios":"levelo://app?vid=d916eca7-f4ab-4083-80f0-32f89b4965e1"},"vehicle_type_id":"4","last_reported":1744297859,"current_range_meters":14800,"station_id":"ce4bhmp2rcd13ifvqgog","pricing_plan_id":"cebpf4jnsgd1na2vs0mg"},{"bike_id":"9c07b687-0cca-4a28-82f6-66c50d295640","system_id":"levelo_inurba_marseille","lat":43.32326,"lon":5.38528,"is_reserved":false,"is_disabled":false,"rental_uris":{"android":"levelo://app?vid=9c07b687-0cca-4a28-82f6-66c50d295640","ios":"levelo://app?vid=9c07b687-0cca-4a28-82f6-66c50d295640"},"vehicle_type_id":"4","last_reported":1744297859,"current_range_meters":15200,"station_id":"","pricing_plan_id":"cebpf4jnsgd1na2vs0mg"},{"bike_id":"43fbfb0a-a21e-46f0-a218-41e24dbfe831","system_id":"levelo_inurba_marseille","lat":43.290047,"lon":5.356073,"is_reserved":false,"is_disabled":false,"rental_uris":{"android":"levelo://app?vid=43fbfb0a-a21e-46f0-a218-41e24dbfe831","ios":"levelo://app?vid=43fbfb0a-a21e-46f0-a218-41e24dbfe831"},"vehicle_type_id":"4","last_reported":1744297859,"current_range_meters":15200,"station_id":"ce4bhb92rcd13ifvqen0","pricing_plan_id":"cebpf4jnsgd1na2vs0mg"},{"bike_id":"29b1bb23-5498-414b-bb20-a36c07191aed","system_id":"levelo_inurba_marseille","lat":43.29006,"lon":5.35611,"is_reserved":false,"is_disabled":false,"rental_uris":{"android":"levelo://app?vid=29b1bb23-5498-414b-bb20-a36c07191aed","ios":"levelo://app?vid=29b1bb23-5498-414b-bb20-a36c07191aed"},"vehicle_type_id":"4","last_reported":1744297859,"current_range_meters":15200,"station_id":"ce4bhb92rcd13ifvqen0","pricing_plan_id":"cebpf4jnsgd1na2vs0mg"},{"bike_id":"eab6cbfa-cb8e-47d7-b0d6-226ab7facec7","system_id":"levelo_inurba_marseille","lat":43.31714,"lon":5.42403,"is_reserved":false,"is_disabled":true,"rental_uris":{"android":"levelo://app?vid=eab6cbfa-cb8e-47d7-b0d6-226ab7facec7","ios":"levelo://app?vid=eab6cbfa-cb8e-47d7-b0d6-226ab7facec7"},"vehicle_type_id":"4","last_reported":1744297859,"current_range_meters":15200,"station_id":"ce4bhp92rcd13ifvqhbg","pricing_plan_id":"cebpf4jnsgd1na2vs0mg"},{"bike_id":"7d0e50b3-b7c9-4183-82d3-92c0a048a72b","system_id":"levelo_inurba_marseille","lat":43.30571,"lon":5.36949,"is_reserved":false,"is_disabled":false,"rental_uris":{"android":"levelo://app?vid=7d0e50b3-b7c9-4183-82d3-92c0a048a72b","ios":"levelo://app?vid=7d0e50b3-b7c9-4183-82d3-92c0a048a72b"},"vehicle_type_id":"4","last_reported":1744297859,"current_range_meters":16000,"station_id":"","pricing_plan_id":"cebpf4jnsgd1na2vs0mg"},{"bike_id":"76c40392-9eb2-47c4-a019-9089b3da5207","system_id":"levelo_inurba_marseille","lat":43.27376,"lon":5.36261,"is_reserved":false,"is_disabled":false,"rental_uris":{"android":"levelo://app?vid=76c40392-9eb2-47c4-a019-9089b3da5207","ios":"levelo://app?vid=76c40392-9eb2-47c4-a019-9089b3da5207"},"vehicle_type_id":"4","last_reported":1744297859,"current_range_meters":16000,"station_id":"ce4bhbh2rcd13ifvqeo0","pricing_plan_id":"cebpf4jnsgd1na2vs0mg"},{"bike_id":"6e08cf8b-dc2e-479a-a6ad-e0cab7468942","system_id":"levelo_inurba_marseille","lat":43.29002,"lon":5.35611,"is_reserved":false,"is_disabled":false,"rental_uris":{"android":"levelo://app?vid=6e08cf8b-dc2e-479a-a6ad-e0cab7468942","ios":"levelo://app?vid=6e08cf8b-dc2e-479a-a6ad-e0cab7468942"},"vehicle_type_id":"4","last_reported":1744297859,"current_range_meters":16000,"station_id":"ce4bhb92rcd13ifvqen0","pricing_plan_id":"cebpf4jnsgd1na2vs0mg"},{"bike_id":"a2d30066-7ad9-42fd-8f2f-4dd466b36101","system_id":"levelo_inurba_marseille","lat":43.26191,"lon":5.37441,"is_reserved":false,"is_disabled":false,"rental_uris":{"android":"levelo://app?vid=a2d30066-7ad9-42fd-8f2f-4dd466b36101","ios":"levelo://app?vid=a2d30066-7ad9-42fd-8f2f-4dd466b36101"},"vehicle_type_id":"4","last_reported":1744297859,"current_range_meters":16000,"station_id":"ce4bhgp2rcd13ifvqfc0","pricing_plan_id":"cebpf4jnsgd1na2vs0mg"},{"bike_id":"4fe5ba71-dced-4722-9f92-13e13795c67b","system_id":"levelo_inurba_marseille","lat":43.30145,"lon":5.37405,"is_reserved":false,"is_disabled":false,"rental_uris":{"android":"levelo://app?vid=4fe5ba71-dced-4722-9f92-13e13795c67b","ios":"levelo://app?vid=4fe5ba71-dced-4722-9f92-13e13795c67b"},"vehicle_type_id":"4","last_reported":1744297859,"current_range_meters":16000,"station_id":"ce4bgs92rcd13ifvqcc0","pricing_plan_id":"cebpf4jnsgd1na2vs0mg"},{"bike_id":"0801f89b-1ed0-4d57-a40e-9f6b2d4f412a","system_id":"levelo_inurba_marseille","lat":43.28825,"lon":5.35648,"is_reserved":false,"is_disabled":false,"rental_uris":{"android":"levelo://app?vid=0801f89b-1ed0-4d57-a40e-9f6b2d4f412a","ios":"levelo://app?vid=0801f89b-1ed0-4d57-a40e-9f6b2d4f412a"},"vehicle_type_id":"4","last_reported":1744297859,"current_range_meters":16400,"station_id":"","pricing_plan_id":"cebpf4jnsgd1na2vs0mg"},{"bike_id":"0b8c9072-08d9-4741-a501-31478256ca5c","system_id":"levelo_inurba_marseille","lat":43.255825,"lon":5.38234,"is_reserved":false,"is_disabled":false,"rental_uris":{"android":"levelo://app?vid=0b8c9072-08d9-4741-a501-31478256ca5c","ios":"levelo://app?vid=0b8c9072-08d9-4741-a501-31478256ca5c"},"vehicle_type_id":"4","last_reported":1744297859,"current_range_meters":16000,"station_id":"ce4bhih2rcd13ifvqfs0","pricing_plan_id":"cebpf4jnsgd1na2vs0mg"},{"bike_id":"0922821c-4e1d-4817-9469-860e55f8f0d1","system_id":"levelo_inurba_marseille","lat":43.337444,"lon":5.374475,"is_reserved":false,"is_disabled":false,"rental_uris":{"android":"levelo://app?vid=0922821c-4e1d-4817-9469-860e55f8f0d1","ios":"levelo://app?vid=0922821c-4e1d-4817-9469-860e55f8f0d1"},"vehicle_type_id":"4","last_reported":1744297859,"current_range_meters":16000,"station_id":"","pricing_plan_id":"cebpf4jnsgd1na2vs0mg"},{"bike_id":"0d50204b-84b6-4552-b675-e9dd95906e3d","system_id":"levelo_inurba_marseille","lat":43.29013,"lon":5.35612,"is_reserved":false,"is_disabled":false,"rental_uris":{"android":"levelo://app?vid=0d50204b-84b6-4552-b675-e9dd95906e3d","ios":"levelo://app?vid=0d50204b-84b6-4552-b675-e9dd95906e3d"},"vehicle_type_id":"4","last_reported":1744297859,"current_range_meters":16000,"station_id":"ce4bhb92rcd13ifvqen0","pricing_plan_id":"cebpf4jnsgd1na2vs0mg"},{"bike_id":"11cd1e19-0c75-4222-9715-1a51c7dac4d7","system_id":"levelo_inurba_marseille","lat":43.33609,"lon":5.41031,"is_reserved":false,"is_disabled":false,"rental_uris":{"android":"levelo://app?vid=11cd1e19-0c75-4222-9715-1a51c7dac4d7","ios":"levelo://app?vid=11cd1e19-0c75-4222-9715-1a51c7dac4d7"},"vehicle_type_id":"4","last_reported":1744297859,"current_range_meters":16400,"station_id":"ce4bhqh2rcd13ifvqhmg","pricing_plan_id":"cebpf4jnsgd1na2vs0mg"},{"bike_id":"52736fdc-b210-487f-add7-ef67cf18c517","system_id":"levelo_inurba_marseille","lat":43.26211,"lon":5.37451,"is_reserved":false,"is_disabled":false,"rental_uris":{"android":"levelo://app?vid=52736fdc-b210-487f-add7-ef67cf18c517","ios":"levelo://app?vid=52736fdc-b210-487f-add7-ef67cf18c517"},"vehicle_type_id":"4","last_reported":1744297859,"current_range_meters":16400,"station_id":"ce4bhgp2rcd13ifvqfc0","pricing_plan_id":"cebpf4jnsgd1na2vs0mg"},{"bike_id":"7928f85f-6603-4b62-a9f0-1785aa6fb49a","system_id":"levelo_inurba_marseille","lat":43.30772,"lon":5.37403,"is_reserved":false,"is_disabled":false,"rental_uris":{"android":"levelo://app?vid=7928f85f-6603-4b62-a9f0-1785aa6fb49a","ios":"levelo://app?vid=7928f85f-6603-4b62-a9f0-1785aa6fb49a"},"vehicle_type_id":"4","last_reported":1744297859,"current_range_meters":16000,"station_id":"","pricing_plan_id":"cebpf4jnsgd1na2vs0mg"},{"bike_id":"52dc2361-453c-4817-a706-b017252ee48d","system_id":"levelo_inurba_marseille","lat":43.32109,"lon":5.36773,"is_reserved":false,"is_disabled":false,"rental_uris":{"android":"levelo://app?vid=52dc2361-453c-4817-a706-b017252ee48d","ios":"levelo://app?vid=52dc2361-453c-4817-a706-b017252ee48d"},"vehicle_type_id":"4","last_reported":1744297859,"current_range_meters":16400,"station_id":"ce4bhrh2rcd13ifvqhug","pricing_plan_id":"cebpf4jnsgd1na2vs0mg"},{"bike_id":"ba979053-e804-4759-be4f-dd79bed29cd7","system_id":"levelo_inurba_marseille","lat":43.21195,"lon":5.35072,"is_reserved":false,"is_disabled":false,"rental_uris":{"android":"levelo://app?vid=ba979053-e804-4759-be4f-dd79bed29cd7","ios":"levelo://app?vid=ba979053-e804-4759-be4f-dd79bed29cd7"},"vehicle_type_id":"4","last_reported":1744297859,"current_range_meters":16400,"station_id":"","pricing_plan_id":"cebpf4jnsgd1na2vs0mg"},{"bike_id":"23718e9a-5ce7-4d28-99a5-8f754f56e13c","system_id":"levelo_inurba_marseille","lat":43.22503,"lon":5.34786,"is_reserved":false,"is_disabled":false,"rental_uris":{"android":"levelo://app?vid=23718e9a-5ce7-4d28-99a5-8f754f56e13c","ios":"levelo://app?vid=23718e9a-5ce7-4d28-99a5-8f754f56e13c"},"vehicle_type_id":"4","last_reported":1744297859,"current_range_meters":16800,"station_id":"","pricing_plan_id":"cebpf4jnsgd1na2vs0mg"},{"bike_id":"572c239e-c7a9-441e-bd9d-2667f4375dd1","system_id":"levelo_inurba_marseille","lat":43.28421,"lon":5.34992,"is_reserved":false,"is_disabled":false,"rental_uris":{"android":"levelo://app?vid=572c239e-c7a9-441e-bd9d-2667f4375dd1","ios":"levelo://app?vid=572c239e-c7a9-441e-bd9d-2667f4375dd1"},"vehicle_type_id":"4","last_reported":1744297859,"current_range_meters":16800,"station_id":"ce4bhbh2rcd13ifvqepg","pricing_plan_id":"cebpf4jnsgd1na2vs0mg"},{"bike_id":"a034f737-c7d2-4943-9d22-7ee87c8de504","system_id":"levelo_inurba_marseille","lat":43.28424,"lon":5.34978,"is_reserved":false,"is_disabled":false,"rental_uris":{"android":"levelo://app?vid=a034f737-c7d2-4943-9d22-7ee87c8de504","ios":"levelo://app?vid=a034f737-c7d2-4943-9d22-7ee87c8de504"},"vehicle_type_id":"4","last_reported":1744297859,"current_range_meters":16800,"station_id":"ce4bhbh2rcd13ifvqepg","pricing_plan_id":"cebpf4jnsgd1na2vs0mg"},{"bike_id":"94ae442e-ea76-4433-92ef-fdd3a84eb719","system_id":"levelo_inurba_marseille","lat":43.30421,"lon":5.38877,"is_reserved":false,"is_disabled":false,"rental_uris":{"android":"levelo://app?vid=94ae442e-ea76-4433-92ef-fdd3a84eb719","ios":"levelo://app?vid=94ae442e-ea76-4433-92ef-fdd3a84eb719"},"vehicle_type_id":"4","last_reported":1744297859,"current_range_meters":16800,"station_id":"ce4bgk12rcd13ifvqbi0","pricing_plan_id":"cebpf4jnsgd1na2vs0mg"},{"bike_id":"2ce0e4f8-a024-47eb-bc7b-eb19d14eb60d","system_id":"levelo_inurba_marseille","lat":43.28418,"lon":5.34989,"is_reserved":false,"is_disabled":false,"rental_uris":{"android":"levelo://app?vid=2ce0e4f8-a024-47eb-bc7b-eb19d14eb60d","ios":"levelo://app?vid=2ce0e4f8-a024-47eb-bc7b-eb19d14eb60d"},"vehicle_type_id":"4","last_reported":1744297859,"current_range_meters":16800,"station_id":"ce4bhbh2rcd13ifvqepg","pricing_plan_id":"cebpf4jnsgd1na2vs0mg"},{"bike_id":"f6739fe6-9e4e-4c6e-a3e2-93401312c609","system_id":"levelo_inurba_marseille","lat":43.29594,"lon":5.3998,"is_reserved":false,"is_disabled":false,"rental_uris":{"android":"levelo://app?vid=f6739fe6-9e4e-4c6e-a3e2-93401312c609","ios":"levelo://app?vid=f6739fe6-9e4e-4c6e-a3e2-93401312c609"},"vehicle_type_id":"4","last_reported":1744297859,"current_range_meters":16800,"station_id":"ce4bh312rcd13ifvqdj0","pricing_plan_id":"cebpf4jnsgd1na2vs0mg"},{"bike_id":"13be7fea-e9e2-4515-8179-954cc16a5aa1","system_id":"levelo_inurba_marseille","lat":43.30907,"lon":5.36874,"is_reserved":false,"is_disabled":false,"rental_uris":{"android":"levelo://app?vid=13be7fea-e9e2-4515-8179-954cc16a5aa1","ios":"levelo://app?vid=13be7fea-e9e2-4515-8179-954cc16a5aa1"},"vehicle_type_id":"4","last_reported":1744297859,"current_range_meters":16800,"station_id":"ce4bgn92rcd13ifvqbvg","pricing_plan_id":"cebpf4jnsgd1na2vs0mg"},{"bike_id":"cb7c1180-3dd2-4117-b2f8-6af14e765160","system_id":"levelo_inurba_marseille","lat":43.27372,"lon":5.36252,"is_reserved":false,"is_disabled":false,"rental_uris":{"android":"levelo://app?vid=cb7c1180-3dd2-4117-b2f8-6af14e765160","ios":"levelo://app?vid=cb7c1180-3dd2-4117-b2f8-6af14e765160"},"vehicle_type_id":"4","last_reported":1744297859,"current_range_meters":16800,"station_id":"ce4bhbh2rcd13ifvqeo0","pricing_plan_id":"cebpf4jnsgd1na2vs0mg"},{"bike_id":"873840b1-9482-4c1d-8c3a-9179d0bfd4c6","system_id":"levelo_inurba_marseille","lat":43.32397,"lon":5.38997,"is_reserved":false,"is_disabled":false,"rental_uris":{"android":"levelo://app?vid=873840b1-9482-4c1d-8c3a-9179d0bfd4c6","ios":"levelo://app?vid=873840b1-9482-4c1d-8c3a-9179d0bfd4c6"},"vehicle_type_id":"4","last_reported":1744297859,"current_range_meters":16800,"station_id":"","pricing_plan_id":"cebpf4jnsgd1na2vs0mg"},{"bike_id":"2dec5d75-d427-4191-81f0-d9cb11461a81","system_id":"levelo_inurba_marseille","lat":43.28414,"lon":5.34975,"is_reserved":false,"is_disabled":false,"rental_uris":{"android":"levelo://app?vid=2dec5d75-d427-4191-81f0-d9cb11461a81","ios":"levelo://app?vid=2dec5d75-d427-4191-81f0-d9cb11461a81"},"vehicle_type_id":"4","last_reported":1744297859,"current_range_meters":16800,"station_id":"ce4bhbh2rcd13ifvqepg","pricing_plan_id":"cebpf4jnsgd1na2vs0mg"},{"bike_id":"55b2a3a0-da4e-46e6-943b-fdac25709378","system_id":"levelo_inurba_marseille","lat":43.31075,"lon":5.38356,"is_reserved":false,"is_disabled":false,"rental_uris":{"android":"levelo://app?vid=55b2a3a0-da4e-46e6-943b-fdac25709378","ios":"levelo://app?vid=55b2a3a0-da4e-46e6-943b-fdac25709378"},"vehicle_type_id":"4","last_reported":1744297859,"current_range_meters":17200,"station_id":"ce4bgv92rcd13ifvqcr0","pricing_plan_id":"cebpf4jnsgd1na2vs0mg"},{"bike_id":"82d64577-1e8e-4e31-89dc-fba0559087e4","system_id":"levelo_inurba_marseille","lat":43.230424,"lon":5.354915,"is_reserved":false,"is_disabled":false,"rental_uris":{"android":"levelo://app?vid=82d64577-1e8e-4e31-89dc-fba0559087e4","ios":"levelo://app?vid=82d64577-1e8e-4e31-89dc-fba0559087e4"},"vehicle_type_id":"4","last_reported":1744297859,"current_range_meters":17200,"station_id":"ce4bgkh2rcd13ifvqbk0","pricing_plan_id":"cebpf4jnsgd1na2vs0mg"},{"bike_id":"a737f5db-dfb3-4dd8-aeff-67617975e190","system_id":"levelo_inurba_marseille","lat":43.29599,"lon":5.37705,"is_reserved":false,"is_disabled":true,"rental_uris":{"android":"levelo://app?vid=a737f5db-dfb3-4dd8-aeff-67617975e190","ios":"levelo://app?vid=a737f5db-dfb3-4dd8-aeff-67617975e190"},"vehicle_type_id":"4","last_reported":1744297859,"current_range_meters":17200,"station_id":"ce4bgi92rcd13ifvqb90","pricing_plan_id":"cebpf4jnsgd1na2vs0mg"},{"bike_id":"467924d9-889a-4591-a26d-c954ba0abb33","system_id":"levelo_inurba_marseille","lat":43.32381,"lon":5.38992,"is_reserved":false,"is_disabled":false,"rental_uris":{"android":"levelo://app?vid=467924d9-889a-4591-a26d-c954ba0abb33","ios":"levelo://app?vid=467924d9-889a-4591-a26d-c954ba0abb33"},"vehicle_type_id":"4","last_reported":1744297859,"current_range_meters":17200,"station_id":"","pricing_plan_id":"cebpf4jnsgd1na2vs0mg"},{"bike_id":"52c3b748-b29e-4ce9-aba4-2948b8a19d23","system_id":"levelo_inurba_marseille","lat":43.28415,"lon":5.34987,"is_reserved":false,"is_disabled":false,"rental_uris":{"android":"levelo://app?vid=52c3b748-b29e-4ce9-aba4-2948b8a19d23","ios":"levelo://app?vid=52c3b748-b29e-4ce9-aba4-2948b8a19d23"},"vehicle_type_id":"4","last_reported":1744297859,"current_range_meters":17200,"station_id":"ce4bhbh2rcd13ifvqepg","pricing_plan_id":"cebpf4jnsgd1na2vs0mg"},{"bike_id":"221b5d38-61dc-40aa-b23e-5b0391fc47a1","system_id":"levelo_inurba_marseille","lat":43.26232,"lon":5.40468,"is_reserved":false,"is_disabled":false,"rental_uris":{"android":"levelo://app?vid=221b5d38-61dc-40aa-b23e-5b0391fc47a1","ios":"levelo://app?vid=221b5d38-61dc-40aa-b23e-5b0391fc47a1"},"vehicle_type_id":"4","last_reported":1744297859,"current_range_meters":17200,"station_id":"ce4bhmh2rcd13ifvqgmg","pricing_plan_id":"cebpf4jnsgd1na2vs0mg"},{"bike_id":"94455896-0f19-4fae-bd72-9879f01fcd6e","system_id":"levelo_inurba_marseille","lat":43.29589,"lon":5.42274,"is_reserved":false,"is_disabled":true,"rental_uris":{"android":"levelo://app?vid=94455896-0f19-4fae-bd72-9879f01fcd6e","ios":"levelo://app?vid=94455896-0f19-4fae-bd72-9879f01fcd6e"},"vehicle_type_id":"4","last_reported":1744297859,"current_range_meters":17200,"station_id":"ce4bhph2rcd13ifvqhdg","pricing_plan_id":"cebpf4jnsgd1na2vs0mg"},{"bike_id":"35cb41df-35d1-4631-a031-df05cedb714f","system_id":"levelo_inurba_marseille","lat":43.29008,"lon":5.35621,"is_reserved":false,"is_disabled":false,"rental_uris":{"android":"levelo://app?vid=35cb41df-35d1-4631-a031-df05cedb714f","ios":"levelo://app?vid=35cb41df-35d1-4631-a031-df05cedb714f"},"vehicle_type_id":"4","last_reported":1744297859,"current_range_meters":17200,"station_id":"ce4bhb92rcd13ifvqen0","pricing_plan_id":"cebpf4jnsgd1na2vs0mg"},{"bike_id":"182650a6-9433-4951-80ba-44b6e3878dab","system_id":"levelo_inurba_marseille","lat":43.30534,"lon":5.38424,"is_reserved":false,"is_disabled":true,"rental_uris":{"android":"levelo://app?vid=182650a6-9433-4951-80ba-44b6e3878dab","ios":"levelo://app?vid=182650a6-9433-4951-80ba-44b6e3878dab"},"vehicle_type_id":"4","last_reported":1744297859,"current_range_meters":17200,"station_id":"ce4bgg92rcd13ifvqb30","pricing_plan_id":"cebpf4jnsgd1na2vs0mg"},{"bike_id":"6c7efe1c-c19d-4c41-a6ff-80b1fddd1fef","system_id":"levelo_inurba_marseille","lat":43.30947,"lon":5.390374,"is_reserved":false,"is_disabled":false,"rental_uris":{"android":"levelo://app?vid=6c7efe1c-c19d-4c41-a6ff-80b1fddd1fef","ios":"levelo://app?vid=6c7efe1c-c19d-4c41-a6ff-80b1fddd1fef"},"vehicle_type_id":"4","last_reported":1744297859,"current_range_meters":17200,"station_id":"ce4bgj92rcd13ifvqbd0","pricing_plan_id":"cebpf4jnsgd1na2vs0mg"},{"bike_id":"9df9738a-9f9f-4f1e-ab55-c83a880ab58e","system_id":"levelo_inurba_marseille","lat":43.27618,"lon":5.36104,"is_reserved":false,"is_disabled":false,"rental_uris":{"android":"levelo://app?vid=9df9738a-9f9f-4f1e-ab55-c83a880ab58e","ios":"levelo://app?vid=9df9738a-9f9f-4f1e-ab55-c83a880ab58e"},"vehicle_type_id":"4","last_reported":1744297859,"current_range_meters":17200,"station_id":"ce4bgj92rcd13ifvqbe0","pricing_plan_id":"cebpf4jnsgd1na2vs0mg"},{"bike_id":"cbc4d964-4d58-4891-a1a0-a908875052fd","system_id":"levelo_inurba_marseille","lat":43.260282,"lon":5.375544,"is_reserved":false,"is_disabled":false,"rental_uris":{"android":"levelo://app?vid=cbc4d964-4d58-4891-a1a0-a908875052fd","ios":"levelo://app?vid=cbc4d964-4d58-4891-a1a0-a908875052fd"},"vehicle_type_id":"4","last_reported":1744297859,"current_range_meters":17200,"station_id":"ce4bhgh2rcd13ifvqfa0","pricing_plan_id":"cebpf4jnsgd1na2vs0mg"},{"bike_id":"c7ed0e10-a16d-4b37-80a0-efcd46d37672","system_id":"levelo_inurba_marseille","lat":43.308167,"lon":5.435286,"is_reserved":false,"is_disabled":false,"rental_uris":{"android":"levelo://app?vid=c7ed0e10-a16d-4b37-80a0-efcd46d37672","ios":"levelo://app?vid=c7ed0e10-a16d-4b37-80a0-efcd46d37672"},"vehicle_type_id":"4","last_reported":1744297859,"current_range_meters":17600,"station_id":"ce4bhph2rcd13ifvqheg","pricing_plan_id":"cebpf4jnsgd1na2vs0mg"},{"bike_id":"45e6b351-a029-416a-87bc-731e71c6d4b5","system_id":"levelo_inurba_marseille","lat":43.27379,"lon":5.36242,"is_reserved":false,"is_disabled":false,"rental_uris":{"android":"levelo://app?vid=45e6b351-a029-416a-87bc-731e71c6d4b5","ios":"levelo://app?vid=45e6b351-a029-416a-87bc-731e71c6d4b5"},"vehicle_type_id":"4","last_reported":1744297859,"current_range_meters":17600,"station_id":"ce4bhbh2rcd13ifvqeo0","pricing_plan_id":"cebpf4jnsgd1na2vs0mg"},{"bike_id":"463b41fd-37bb-48c0-a6e4-12f737a3d7cf","system_id":"levelo_inurba_marseille","lat":43.26931,"lon":5.40279,"is_reserved":false,"is_disabled":true,"rental_uris":{"android":"levelo://app?vid=463b41fd-37bb-48c0-a6e4-12f737a3d7cf","ios":"levelo://app?vid=463b41fd-37bb-48c0-a6e4-12f737a3d7cf"},"vehicle_type_id":"4","last_reported":1744297859,"current_range_meters":17600,"station_id":"cjm6bp8fraef2m0cb0m0","pricing_plan_id":"cebpf4jnsgd1na2vs0mg"},{"bike_id":"aeb315f8-5663-4264-8421-f5acbb6ac33d","system_id":"levelo_inurba_marseille","lat":43.26198,"lon":5.40445,"is_reserved":false,"is_disabled":false,"rental_uris":{"android":"levelo://app?vid=aeb315f8-5663-4264-8421-f5acbb6ac33d","ios":"levelo://app?vid=aeb315f8-5663-4264-8421-f5acbb6ac33d"},"vehicle_type_id":"4","last_reported":1744297859,"current_range_meters":17600,"station_id":"ce4bhmh2rcd13ifvqgmg","pricing_plan_id":"cebpf4jnsgd1na2vs0mg"},{"bike_id":"35b36e91-763a-4885-8944-e030c3a30dcf","system_id":"levelo_inurba_marseille","lat":43.31186,"lon":5.36861,"is_reserved":false,"is_disabled":false,"rental_uris":{"android":"levelo://app?vid=35b36e91-763a-4885-8944-e030c3a30dcf","ios":"levelo://app?vid=35b36e91-763a-4885-8944-e030c3a30dcf"},"vehicle_type_id":"4","last_reported":1744297859,"current_range_meters":17600,"station_id":"ce4bgl92rcd13ifvqbq0","pricing_plan_id":"cebpf4jnsgd1na2vs0mg"},{"bike_id":"6247b5d7-b941-4b19-a0a4-e6e1f35ec071","system_id":"levelo_inurba_marseille","lat":43.29852,"lon":5.36288,"is_reserved":false,"is_disabled":false,"rental_uris":{"android":"levelo://app?vid=6247b5d7-b941-4b19-a0a4-e6e1f35ec071","ios":"levelo://app?vid=6247b5d7-b941-4b19-a0a4-e6e1f35ec071"},"vehicle_type_id":"4","last_reported":1744297859,"current_range_meters":17600,"station_id":"ce4bgpp2rcd13ifvqc3g","pricing_plan_id":"cebpf4jnsgd1na2vs0mg"},{"bike_id":"9ecea778-7468-44ed-bf94-627f6eb2c8b3","system_id":"levelo_inurba_marseille","lat":43.28422,"lon":5.3499,"is_reserved":false,"is_disabled":false,"rental_uris":{"android":"levelo://app?vid=9ecea778-7468-44ed-bf94-627f6eb2c8b3","ios":"levelo://app?vid=9ecea778-7468-44ed-bf94-627f6eb2c8b3"},"vehicle_type_id":"4","last_reported":1744297859,"current_range_meters":17600,"station_id":"ce4bhbh2rcd13ifvqepg","pricing_plan_id":"cebpf4jnsgd1na2vs0mg"},{"bike_id":"9af6b05f-f614-4f16-be59-f3d5c96df9b9","system_id":"levelo_inurba_marseille","lat":43.27822,"lon":5.40727,"is_reserved":false,"is_disabled":false,"rental_uris":{"android":"levelo://app?vid=9af6b05f-f614-4f16-be59-f3d5c96df9b9","ios":"levelo://app?vid=9af6b05f-f614-4f16-be59-f3d5c96df9b9"},"vehicle_type_id":"4","last_reported":1744297859,"current_range_meters":17600,"station_id":"ce4bhnh2rcd13ifvqgtg","pricing_plan_id":"cebpf4jnsgd1na2vs0mg"},{"bike_id":"8cb46191-6b87-4861-b94f-3377f0048331","system_id":"levelo_inurba_marseille","lat":43.29018,"lon":5.35604,"is_reserved":false,"is_disabled":false,"rental_uris":{"android":"levelo://app?vid=8cb46191-6b87-4861-b94f-3377f0048331","ios":"levelo://app?vid=8cb46191-6b87-4861-b94f-3377f0048331"},"vehicle_type_id":"4","last_reported":1744297859,"current_range_meters":18000,"station_id":"ce4bhb92rcd13ifvqen0","pricing_plan_id":"cebpf4jnsgd1na2vs0mg"},{"bike_id":"1b28a96e-ff57-4bf5-85d0-8da089b3d3cd","system_id":"levelo_inurba_marseille","lat":43.26692,"lon":5.38279,"is_reserved":false,"is_disabled":true,"rental_uris":{"android":"levelo://app?vid=1b28a96e-ff57-4bf5-85d0-8da089b3d3cd","ios":"levelo://app?vid=1b28a96e-ff57-4bf5-85d0-8da089b3d3cd"},"vehicle_type_id":"4","last_reported":1744297859,"current_range_meters":18000,"station_id":"ce4bhg92rcd13ifvqf90","pricing_plan_id":"cebpf4jnsgd1na2vs0mg"},{"bike_id":"fcde038c-155c-4e1a-a57f-f41f83ae765f","system_id":"levelo_inurba_marseille","lat":43.29959,"lon":5.38497,"is_reserved":false,"is_disabled":false,"rental_uris":{"android":"levelo://app?vid=fcde038c-155c-4e1a-a57f-f41f83ae765f","ios":"levelo://app?vid=fcde038c-155c-4e1a-a57f-f41f83ae765f"},"vehicle_type_id":"4","last_reported":1744297859,"current_range_meters":18000,"station_id":"ce4bgj92rcd13ifvqbd0","pricing_plan_id":"cebpf4jnsgd1na2vs0mg"},{"bike_id":"6d1f80b1-80e0-4012-99d1-3f8172cadb63","system_id":"levelo_inurba_marseille","lat":43.24164,"lon":5.36417,"is_reserved":false,"is_disabled":false,"rental_uris":{"android":"levelo://app?vid=6d1f80b1-80e0-4012-99d1-3f8172cadb63","ios":"levelo://app?vid=6d1f80b1-80e0-4012-99d1-3f8172cadb63"},"vehicle_type_id":"4","last_reported":1744297859,"current_range_meters":18000,"station_id":"cpo36qri1sfpv3e86is0","pricing_plan_id":"cebpf4jnsgd1na2vs0mg"},{"bike_id":"e38fcbd2-843b-40cd-a4bf-f93a8f8ff1eb","system_id":"levelo_inurba_marseille","lat":43.29282,"lon":5.40117,"is_reserved":false,"is_disabled":false,"rental_uris":{"android":"levelo://app?vid=e38fcbd2-843b-40cd-a4bf-f93a8f8ff1eb","ios":"levelo://app?vid=e38fcbd2-843b-40cd-a4bf-f93a8f8ff1eb"},"vehicle_type_id":"4","last_reported":1744297859,"current_range_meters":17600,"station_id":"ce4bh312rcd13ifvqdk0","pricing_plan_id":"cebpf4jnsgd1na2vs0mg"},{"bike_id":"c5b4e489-fdbd-42c9-b578-a0478fba94fe","system_id":"levelo_inurba_marseille","lat":43.28272,"lon":5.35072,"is_reserved":false,"is_disabled":false,"rental_uris":{"android":"levelo://app?vid=c5b4e489-fdbd-42c9-b578-a0478fba94fe","ios":"levelo://app?vid=c5b4e489-fdbd-42c9-b578-a0478fba94fe"},"vehicle_type_id":"4","last_reported":1744297859,"current_range_meters":18000,"station_id":"ce4bhbp2rcd13ifvqerg","pricing_plan_id":"cebpf4jnsgd1na2vs0mg"},{"bike_id":"b19e5786-8da6-4fa6-89f5-e943e8791bb3","system_id":"levelo_inurba_marseille","lat":43.27369,"lon":5.36265,"is_reserved":false,"is_disabled":false,"rental_uris":{"android":"levelo://app?vid=b19e5786-8da6-4fa6-89f5-e943e8791bb3","ios":"levelo://app?vid=b19e5786-8da6-4fa6-89f5-e943e8791bb3"},"vehicle_type_id":"4","last_reported":1744297859,"current_range_meters":18000,"station_id":"ce4bhbh2rcd13ifvqeo0","pricing_plan_id":"cebpf4jnsgd1na2vs0mg"},{"bike_id":"d71705f6-2213-4684-9543-12f44727da43","system_id":"levelo_inurba_marseille","lat":43.28865,"lon":5.35855,"is_reserved":false,"is_disabled":false,"rental_uris":{"android":"levelo://app?vid=d71705f6-2213-4684-9543-12f44727da43","ios":"levelo://app?vid=d71705f6-2213-4684-9543-12f44727da43"},"vehicle_type_id":"4","last_reported":1744297859,"current_range_meters":18800,"station_id":"ce4bhb12rcd13ifvqem0","pricing_plan_id":"cebpf4jnsgd1na2vs0mg"},{"bike_id":"c3809b0f-fe7e-4d3d-af73-09caa11a6cf0","system_id":"levelo_inurba_marseille","lat":43.299628,"lon":5.374304,"is_reserved":false,"is_disabled":false,"rental_uris":{"android":"levelo://app?vid=c3809b0f-fe7e-4d3d-af73-09caa11a6cf0","ios":"levelo://app?vid=c3809b0f-fe7e-4d3d-af73-09caa11a6cf0"},"vehicle_type_id":"4","last_reported":1744297859,"current_range_meters":18800,"station_id":"ce4bgt12rcd13ifvqce0","pricing_plan_id":"cebpf4jnsgd1na2vs0mg"},{"bike_id":"4fe9ed65-30de-44b3-91d2-ec2f30ea1d86","system_id":"levelo_inurba_marseille","lat":43.27386,"lon":5.36252,"is_reserved":false,"is_disabled":false,"rental_uris":{"android":"levelo://app?vid=4fe9ed65-30de-44b3-91d2-ec2f30ea1d86","ios":"levelo://app?vid=4fe9ed65-30de-44b3-91d2-ec2f30ea1d86"},"vehicle_type_id":"4","last_reported":1744297859,"current_range_meters":18800,"station_id":"ce4bhbh2rcd13ifvqeo0","pricing_plan_id":"cebpf4jnsgd1na2vs0mg"},{"bike_id":"ce1c82e4-2ab0-456b-9391-c9519ed40ac3","system_id":"levelo_inurba_marseille","lat":43.27378,"lon":5.36262,"is_reserved":false,"is_disabled":false,"rental_uris":{"android":"levelo://app?vid=ce1c82e4-2ab0-456b-9391-c9519ed40ac3","ios":"levelo://app?vid=ce1c82e4-2ab0-456b-9391-c9519ed40ac3"},"vehicle_type_id":"4","last_reported":1744297859,"current_range_meters":18800,"station_id":"ce4bhbh2rcd13ifvqeo0","pricing_plan_id":"cebpf4jnsgd1na2vs0mg"},{"bike_id":"03b0720c-6012-464e-871f-53375b5579b8","system_id":"levelo_inurba_marseille","lat":43.21189,"lon":5.35078,"is_reserved":false,"is_disabled":false,"rental_uris":{"android":"levelo://app?vid=03b0720c-6012-464e-871f-53375b5579b8","ios":"levelo://app?vid=03b0720c-6012-464e-871f-53375b5579b8"},"vehicle_type_id":"4","last_reported":1744297859,"current_range_meters":18800,"station_id":"st_cvj6sg6p6f1abm77japg","pricing_plan_id":"cebpf4jnsgd1na2vs0mg"},{"bike_id":"6ed1620a-d78a-46a2-a663-5013276dd98c","system_id":"levelo_inurba_marseille","lat":43.31482,"lon":5.37309,"is_reserved":false,"is_disabled":false,"rental_uris":{"android":"levelo://app?vid=6ed1620a-d78a-46a2-a663-5013276dd98c","ios":"levelo://app?vid=6ed1620a-d78a-46a2-a663-5013276dd98c"},"vehicle_type_id":"4","last_reported":1744297859,"current_range_meters":18800,"station_id":"ce4bgt12rcd13ifvqcd0","pricing_plan_id":"cebpf4jnsgd1na2vs0mg"},{"bike_id":"74b26f4a-6d3d-4ac2-b681-1e6162ab2ff1","system_id":"levelo_inurba_marseille","lat":43.31257,"lon":5.36904,"is_reserved":false,"is_disabled":false,"rental_uris":{"android":"levelo://app?vid=74b26f4a-6d3d-4ac2-b681-1e6162ab2ff1","ios":"levelo://app?vid=74b26f4a-6d3d-4ac2-b681-1e6162ab2ff1"},"vehicle_type_id":"4","last_reported":1744297859,"current_range_meters":18800,"station_id":"","pricing_plan_id":"cebpf4jnsgd1na2vs0mg"},{"bike_id":"e2b2772b-8fc2-4c31-8cb2-d6d60df21950","system_id":"levelo_inurba_marseille","lat":43.2968,"lon":5.3728,"is_reserved":false,"is_disabled":false,"rental_uris":{"android":"levelo://app?vid=e2b2772b-8fc2-4c31-8cb2-d6d60df21950","ios":"levelo://app?vid=e2b2772b-8fc2-4c31-8cb2-d6d60df21950"},"vehicle_type_id":"4","last_reported":1744297859,"current_range_meters":18800,"station_id":"ce4bgk12rcd13ifvqbj0","pricing_plan_id":"cebpf4jnsgd1na2vs0mg"},{"bike_id":"bf88cfe5-9d1f-4aca-8aa3-25e24942dbca","system_id":"levelo_inurba_marseille","lat":43.28274,"lon":5.3506,"is_reserved":false,"is_disabled":false,"rental_uris":{"android":"levelo://app?vid=bf88cfe5-9d1f-4aca-8aa3-25e24942dbca","ios":"levelo://app?vid=bf88cfe5-9d1f-4aca-8aa3-25e24942dbca"},"vehicle_type_id":"4","last_reported":1744297859,"current_range_meters":18800,"station_id":"ce4bhbp2rcd13ifvqerg","pricing_plan_id":"cebpf4jnsgd1na2vs0mg"},{"bike_id":"3a9217d1-18bc-4b31-930c-3710c4c0ac7d","system_id":"levelo_inurba_marseille","lat":43.28125,"lon":5.37858,"is_reserved":false,"is_disabled":false,"rental_uris":{"android":"levelo://app?vid=3a9217d1-18bc-4b31-930c-3710c4c0ac7d","ios":"levelo://app?vid=3a9217d1-18bc-4b31-930c-3710c4c0ac7d"},"vehicle_type_id":"4","last_reported":1744297859,"current_range_meters":19200,"station_id":"ce4bha12rcd13ifvqee0","pricing_plan_id":"cebpf4jnsgd1na2vs0mg"},{"bike_id":"e9d2b43a-a635-4d0f-9254-4b1e36d0a285","system_id":"levelo_inurba_marseille","lat":43.284104,"lon":5.387575,"is_reserved":false,"is_disabled":false,"rental_uris":{"android":"levelo://app?vid=e9d2b43a-a635-4d0f-9254-4b1e36d0a285","ios":"levelo://app?vid=e9d2b43a-a635-4d0f-9254-4b1e36d0a285"},"vehicle_type_id":"4","last_reported":1744297859,"current_range_meters":19200,"station_id":"ce4bh412rcd13ifvqds0","pricing_plan_id":"cebpf4jnsgd1na2vs0mg"},{"bike_id":"958448b5-0f1a-4f99-a7d4-5df0e1e29ff5","system_id":"levelo_inurba_marseille","lat":43.34141,"lon":5.40902,"is_reserved":false,"is_disabled":false,"rental_uris":{"android":"levelo://app?vid=958448b5-0f1a-4f99-a7d4-5df0e1e29ff5","ios":"levelo://app?vid=958448b5-0f1a-4f99-a7d4-5df0e1e29ff5"},"vehicle_type_id":"4","last_reported":1744297859,"current_range_meters":19200,"station_id":"ce4bhqh2rcd13ifvqhlg","pricing_plan_id":"cebpf4jnsgd1na2vs0mg"},{"bike_id":"d37408de-b5d7-4466-8973-ab7c2a7000bc","system_id":"levelo_inurba_marseille","lat":43.29264,"lon":5.36846,"is_reserved":false,"is_disabled":true,"rental_uris":{"android":"levelo://app?vid=d37408de-b5d7-4466-8973-ab7c2a7000bc","ios":"levelo://app?vid=d37408de-b5d7-4466-8973-ab7c2a7000bc"},"vehicle_type_id":"4","last_reported":1744297859,"current_range_meters":19200,"station_id":"ce4bhbp2rcd13ifvqesg","pricing_plan_id":"cebpf4jnsgd1na2vs0mg"},{"bike_id":"a36e135b-ae00-4eeb-9afb-fa14c36a5dfc","system_id":"levelo_inurba_marseille","lat":43.24791,"lon":5.37438,"is_reserved":false,"is_disabled":false,"rental_uris":{"android":"levelo://app?vid=a36e135b-ae00-4eeb-9afb-fa14c36a5dfc","ios":"levelo://app?vid=a36e135b-ae00-4eeb-9afb-fa14c36a5dfc"},"vehicle_type_id":"4","last_reported":1744297859,"current_range_meters":19200,"station_id":"ce4bhgh2rcd13ifvqfb0","pricing_plan_id":"cebpf4jnsgd1na2vs0mg"},{"bike_id":"430c7a17-f4ba-4123-bda7-cc0a01c30950","system_id":"levelo_inurba_marseille","lat":43.27377,"lon":5.36249,"is_reserved":false,"is_disabled":false,"rental_uris":{"android":"levelo://app?vid=430c7a17-f4ba-4123-bda7-cc0a01c30950","ios":"levelo://app?vid=430c7a17-f4ba-4123-bda7-cc0a01c30950"},"vehicle_type_id":"4","last_reported":1744297859,"current_range_meters":19200,"station_id":"ce4bhbh2rcd13ifvqeo0","pricing_plan_id":"cebpf4jnsgd1na2vs0mg"},{"bike_id":"7f7774b1-29b3-4b7c-ad72-7c0d37273d7d","system_id":"levelo_inurba_marseille","lat":43.29914,"lon":5.37469,"is_reserved":false,"is_disabled":false,"rental_uris":{"android":"levelo://app?vid=7f7774b1-29b3-4b7c-ad72-7c0d37273d7d","ios":"levelo://app?vid=7f7774b1-29b3-4b7c-ad72-7c0d37273d7d"},"vehicle_type_id":"4","last_reported":1744297859,"current_range_meters":19200,"station_id":"ce4bgjh2rcd13ifvqbg0","pricing_plan_id":"cebpf4jnsgd1na2vs0mg"},{"bike_id":"41296d85-37fc-42bb-838c-0d3e19348df6","system_id":"levelo_inurba_marseille","lat":43.22524,"lon":5.34794,"is_reserved":false,"is_disabled":false,"rental_uris":{"android":"levelo://app?vid=41296d85-37fc-42bb-838c-0d3e19348df6","ios":"levelo://app?vid=41296d85-37fc-42bb-838c-0d3e19348df6"},"vehicle_type_id":"4","last_reported":1744297859,"current_range_meters":19200,"station_id":"st_cvj5dfep6f1abm77gieg","pricing_plan_id":"cebpf4jnsgd1na2vs0mg"},{"bike_id":"638449ec-562c-4422-a2cb-27699b23af47","system_id":"levelo_inurba_marseille","lat":43.30138,"lon":5.37423,"is_reserved":false,"is_disabled":false,"rental_uris":{"android":"levelo://app?vid=638449ec-562c-4422-a2cb-27699b23af47","ios":"levelo://app?vid=638449ec-562c-4422-a2cb-27699b23af47"},"vehicle_type_id":"4","last_reported":1744297859,"current_range_meters":19200,"station_id":"ce4bgs92rcd13ifvqcc0","pricing_plan_id":"cebpf4jnsgd1na2vs0mg"},{"bike_id":"c04dd062-f955-4dd7-8fa6-56b290717aff","system_id":"levelo_inurba_marseille","lat":43.31225,"lon":5.36859,"is_reserved":false,"is_disabled":false,"rental_uris":{"android":"levelo://app?vid=c04dd062-f955-4dd7-8fa6-56b290717aff","ios":"levelo://app?vid=c04dd062-f955-4dd7-8fa6-56b290717aff"},"vehicle_type_id":"4","last_reported":1744297859,"current_range_meters":19200,"station_id":"ce4bgl92rcd13ifvqbq0","pricing_plan_id":"cebpf4jnsgd1na2vs0mg"},{"bike_id":"8970a559-23dd-4a79-81d4-b1d8b6134717","system_id":"levelo_inurba_marseille","lat":43.27383,"lon":5.36264,"is_reserved":false,"is_disabled":false,"rental_uris":{"android":"levelo://app?vid=8970a559-23dd-4a79-81d4-b1d8b6134717","ios":"levelo://app?vid=8970a559-23dd-4a79-81d4-b1d8b6134717"},"vehicle_type_id":"4","last_reported":1744297859,"current_range_meters":19600,"station_id":"ce4bhbh2rcd13ifvqeo0","pricing_plan_id":"cebpf4jnsgd1na2vs0mg"},{"bike_id":"25fb06f4-18a8-47b2-8f0c-a4e815a75645","system_id":"levelo_inurba_marseille","lat":43.33744,"lon":5.39194,"is_reserved":false,"is_disabled":false,"rental_uris":{"android":"levelo://app?vid=25fb06f4-18a8-47b2-8f0c-a4e815a75645","ios":"levelo://app?vid=25fb06f4-18a8-47b2-8f0c-a4e815a75645"},"vehicle_type_id":"4","last_reported":1744297859,"current_range_meters":19600,"station_id":"ce4bhr92rcd13ifvqhsg","pricing_plan_id":"cebpf4jnsgd1na2vs0mg"},{"bike_id":"b493d9df-4c23-4677-9287-935c5c131174","system_id":"levelo_inurba_marseille","lat":43.28277,"lon":5.35064,"is_reserved":false,"is_disabled":false,"rental_uris":{"android":"levelo://app?vid=b493d9df-4c23-4677-9287-935c5c131174","ios":"levelo://app?vid=b493d9df-4c23-4677-9287-935c5c131174"},"vehicle_type_id":"4","last_reported":1744297859,"current_range_meters":19600,"station_id":"ce4bhbp2rcd13ifvqerg","pricing_plan_id":"cebpf4jnsgd1na2vs0mg"},{"bike_id":"ef291804-1477-432e-b153-82ea15725418","system_id":"levelo_inurba_marseille","lat":43.33742,"lon":5.37454,"is_reserved":false,"is_disabled":false,"rental_uris":{"android":"levelo://app?vid=ef291804-1477-432e-b153-82ea15725418","ios":"levelo://app?vid=ef291804-1477-432e-b153-82ea15725418"},"vehicle_type_id":"4","last_reported":1744297859,"current_range_meters":19600,"station_id":"","pricing_plan_id":"cebpf4jnsgd1na2vs0mg"},{"bike_id":"4c893399-b4ed-40ed-a49f-713da320f269","system_id":"levelo_inurba_marseille","lat":43.29861,"lon":5.37841,"is_reserved":false,"is_disabled":false,"rental_uris":{"android":"levelo://app?vid=4c893399-b4ed-40ed-a49f-713da320f269","ios":"levelo://app?vid=4c893399-b4ed-40ed-a49f-713da320f269"},"vehicle_type_id":"4","last_reported":1744297859,"current_range_meters":19600,"station_id":"","pricing_plan_id":"cebpf4jnsgd1na2vs0mg"},{"bike_id":"ee39e4ce-146f-4ef7-9c3d-695aac04788d","system_id":"levelo_inurba_marseille","lat":43.278123,"lon":5.40709,"is_reserved":false,"is_disabled":false,"rental_uris":{"android":"levelo://app?vid=ee39e4ce-146f-4ef7-9c3d-695aac04788d","ios":"levelo://app?vid=ee39e4ce-146f-4ef7-9c3d-695aac04788d"},"vehicle_type_id":"4","last_reported":1744297859,"current_range_meters":19600,"station_id":"ce4bhnh2rcd13ifvqgtg","pricing_plan_id":"cebpf4jnsgd1na2vs0mg"},{"bike_id":"8c58f2fa-99e1-41f8-bf90-9c1648b679b1","system_id":"levelo_inurba_marseille","lat":43.273,"lon":5.41436,"is_reserved":false,"is_disabled":false,"rental_uris":{"android":"levelo://app?vid=8c58f2fa-99e1-41f8-bf90-9c1648b679b1","ios":"levelo://app?vid=8c58f2fa-99e1-41f8-bf90-9c1648b679b1"},"vehicle_type_id":"4","last_reported":1744297859,"current_range_meters":19600,"station_id":"","pricing_plan_id":"cebpf4jnsgd1na2vs0mg"},{"bike_id":"486e2193-97a3-4093-9c1f-a181ef1a74a0","system_id":"levelo_inurba_marseille","lat":43.308044,"lon":5.376623,"is_reserved":false,"is_disabled":false,"rental_uris":{"android":"levelo://app?vid=486e2193-97a3-4093-9c1f-a181ef1a74a0","ios":"levelo://app?vid=486e2193-97a3-4093-9c1f-a181ef1a74a0"},"vehicle_type_id":"4","last_reported":1744297859,"current_range_meters":20000,"station_id":"ce4bgv92rcd13ifvqcq0","pricing_plan_id":"cebpf4jnsgd1na2vs0mg"},{"bike_id":"3dab596b-bb25-485f-8216-54241bd47fd8","system_id":"levelo_inurba_marseille","lat":43.29808,"lon":5.36406,"is_reserved":false,"is_disabled":false,"rental_uris":{"android":"levelo://app?vid=3dab596b-bb25-485f-8216-54241bd47fd8","ios":"levelo://app?vid=3dab596b-bb25-485f-8216-54241bd47fd8"},"vehicle_type_id":"4","last_reported":1744297859,"current_range_meters":20000,"station_id":"ce4bgpp2rcd13ifvqc3g","pricing_plan_id":"cebpf4jnsgd1na2vs0mg"},{"bike_id":"3184e0b3-4ab8-4348-9679-fb84c43d9309","system_id":"levelo_inurba_marseille","lat":43.284199,"lon":5.349928,"is_reserved":false,"is_disabled":false,"rental_uris":{"android":"levelo://app?vid=3184e0b3-4ab8-4348-9679-fb84c43d9309","ios":"levelo://app?vid=3184e0b3-4ab8-4348-9679-fb84c43d9309"},"vehicle_type_id":"4","last_reported":1744297859,"current_range_meters":20000,"station_id":"ce4bhbh2rcd13ifvqepg","pricing_plan_id":"cebpf4jnsgd1na2vs0mg"},{"bike_id":"eb16e05b-2f1d-4f87-80f1-9f512b0fccc9","system_id":"levelo_inurba_marseille","lat":43.27619,"lon":5.36112,"is_reserved":false,"is_disabled":false,"rental_uris":{"android":"levelo://app?vid=eb16e05b-2f1d-4f87-80f1-9f512b0fccc9","ios":"levelo://app?vid=eb16e05b-2f1d-4f87-80f1-9f512b0fccc9"},"vehicle_type_id":"4","last_reported":1744297859,"current_range_meters":20000,"station_id":"ce4bgj92rcd13ifvqbe0","pricing_plan_id":"cebpf4jnsgd1na2vs0mg"},{"bike_id":"22ad6089-3aa1-48e2-a191-f7b3f0b57852","system_id":"levelo_inurba_marseille","lat":43.26198,"lon":5.37446,"is_reserved":false,"is_disabled":false,"rental_uris":{"android":"levelo://app?vid=22ad6089-3aa1-48e2-a191-f7b3f0b57852","ios":"levelo://app?vid=22ad6089-3aa1-48e2-a191-f7b3f0b57852"},"vehicle_type_id":"4","last_reported":1744297859,"current_range_meters":20000,"station_id":"ce4bhgp2rcd13ifvqfc0","pricing_plan_id":"cebpf4jnsgd1na2vs0mg"},{"bike_id":"d282f4be-0bd0-4617-82f6-b037eaa6f217","system_id":"levelo_inurba_marseille","lat":43.27836,"lon":5.39205,"is_reserved":false,"is_disabled":false,"rental_uris":{"android":"levelo://app?vid=d282f4be-0bd0-4617-82f6-b037eaa6f217","ios":"levelo://app?vid=d282f4be-0bd0-4617-82f6-b037eaa6f217"},"vehicle_type_id":"4","last_reported":1744297859,"current_range_meters":20000,"station_id":"ce4bhjp2rcd13ifvqga0","pricing_plan_id":"cebpf4jnsgd1na2vs0mg"},{"bike_id":"7666c6b6-ae34-4f36-9c4b-dad790a698bc","system_id":"levelo_inurba_marseille","lat":43.27402,"lon":5.36253,"is_reserved":false,"is_disabled":false,"rental_uris":{"android":"levelo://app?vid=7666c6b6-ae34-4f36-9c4b-dad790a698bc","ios":"levelo://app?vid=7666c6b6-ae34-4f36-9c4b-dad790a698bc"},"vehicle_type_id":"4","last_reported":1744297859,"current_range_meters":20000,"station_id":"ce4bhbh2rcd13ifvqeo0","pricing_plan_id":"cebpf4jnsgd1na2vs0mg"},{"bike_id":"300fed01-b5d3-45c9-bceb-51a85a210318","system_id":"levelo_inurba_marseille","lat":43.26578,"lon":5.3902,"is_reserved":false,"is_disabled":false,"rental_uris":{"android":"levelo://app?vid=300fed01-b5d3-45c9-bceb-51a85a210318","ios":"levelo://app?vid=300fed01-b5d3-45c9-bceb-51a85a210318"},"vehicle_type_id":"4","last_reported":1744297859,"current_range_meters":20000,"station_id":"ce4bhe12rcd13ifvqf30","pricing_plan_id":"cebpf4jnsgd1na2vs0mg"},{"bike_id":"1ca1fd75-e6a2-458d-b54c-33b7aef6bd2c","system_id":"levelo_inurba_marseille","lat":43.29897,"lon":5.43668,"is_reserved":false,"is_disabled":false,"rental_uris":{"android":"levelo://app?vid=1ca1fd75-e6a2-458d-b54c-33b7aef6bd2c","ios":"levelo://app?vid=1ca1fd75-e6a2-458d-b54c-33b7aef6bd2c"},"vehicle_type_id":"4","last_reported":1744297859,"current_range_meters":20000,"station_id":"ce4bhpp2rcd13ifvqhfg","pricing_plan_id":"cebpf4jnsgd1na2vs0mg"},{"bike_id":"1ede5530-359a-4f4b-accd-6ef3370b9d78","system_id":"levelo_inurba_marseille","lat":43.21197,"lon":5.35079,"is_reserved":false,"is_disabled":false,"rental_uris":{"android":"levelo://app?vid=1ede5530-359a-4f4b-accd-6ef3370b9d78","ios":"levelo://app?vid=1ede5530-359a-4f4b-accd-6ef3370b9d78"},"vehicle_type_id":"4","last_reported":1744297859,"current_range_meters":20000,"station_id":"st_cvj6sg6p6f1abm77japg","pricing_plan_id":"cebpf4jnsgd1na2vs0mg"},{"bike_id":"b2abdc21-a330-4671-a1ed-c6f3fc8b0209","system_id":"levelo_inurba_marseille","lat":43.28421,"lon":5.34991,"is_reserved":false,"is_disabled":false,"rental_uris":{"android":"levelo://app?vid=b2abdc21-a330-4671-a1ed-c6f3fc8b0209","ios":"levelo://app?vid=b2abdc21-a330-4671-a1ed-c6f3fc8b0209"},