{"last_updated":1779013086,"ttl":60,"version":"2.2","data":{"bikes":[{"bike_id":"dbf94776-63a1-426f-85ae-41abd5903310","system_id":"levelo_inurba_marseille","lat":43.30958,"lon":5.37651,"is_reserved":false,"is_disabled":false,"rental_uris":{"android":"levelo://app?vid=dbf94776-63a1-426f-85ae-41abd5903310","ios":"levelo://app?vid=dbf94776-63a1-426f-85ae-41abd5903310"},"vehicle_type_id":"4","last_reported":1779013087,"current_range_meters":2800,"station_id":"","pricing_plan_id":"cebpf4jnsgd1na2vs0mg"},{"bike_id":"74f12a6d-7a94-4ce3-8725-e3fbbe23ae70","system_id":"levelo_inurba_marseille","lat":43.33549,"lon":5.37481,"is_reserved":false,"is_disabled":false,"rental_uris":{"android":"levelo://app?vid=74f12a6d-7a94-4ce3-8725-e3fbbe23ae70","ios":"levelo://app?vid=74f12a6d-7a94-4ce3-8725-e3fbbe23ae70"},"vehicle_type_id":"4","last_reported":1779013087,"current_range_meters":2800,"station_id":"st_d46tts09ee8s73dlu43g","pricing_plan_id":"cebpf4jnsgd1na2vs0mg"},{"bike_id":"9d9da9b1-62c5-4232-8888-7d36c96bb153","system_id":"levelo_inurba_marseille","lat":43.27531,"lon":5.4153,"is_reserved":false,"is_disabled":false,"rental_uris":{"android":"levelo://app?vid=9d9da9b1-62c5-4232-8888-7d36c96bb153","ios":"levelo://app?vid=9d9da9b1-62c5-4232-8888-7d36c96bb153"},"vehicle_type_id":"4","last_reported":1779013087,"current_range_meters":2800,"station_id":"st_d6im8g6chgec73a5pndg","pricing_plan_id":"cebpf4jnsgd1na2vs0mg"},{"bike_id":"8765b258-6c1f-4c54-8a4e-e9d3622596f6","system_id":"levelo_inurba_marseille","lat":43.301507,"lon":5.380788,"is_reserved":false,"is_disabled":false,"rental_uris":{"android":"levelo://app?vid=8765b258-6c1f-4c54-8a4e-e9d3622596f6","ios":"levelo://app?vid=8765b258-6c1f-4c54-8a4e-e9d3622596f6"},"vehicle_type_id":"4","last_reported":1779013087,"current_range_meters":2800,"station_id":"ce4bgjp2rcd13ifvqbh0","pricing_plan_id":"cebpf4jnsgd1na2vs0mg"},{"bike_id":"b645593d-f67c-4f1b-b9f9-f8e1b08f24ee","system_id":"levelo_inurba_marseille","lat":43.25084,"lon":5.41363,"is_reserved":false,"is_disabled":false,"rental_uris":{"android":"levelo://app?vid=b645593d-f67c-4f1b-b9f9-f8e1b08f24ee","ios":"levelo://app?vid=b645593d-f67c-4f1b-b9f9-f8e1b08f24ee"},"vehicle_type_id":"4","last_reported":1779013087,"current_range_meters":2800,"station_id":"","pricing_plan_id":"cebpf4jnsgd1na2vs0mg"},{"bike_id":"255a8db9-6ac5-445d-8da2-584280160595","system_id":"levelo_inurba_marseille","lat":43.29987,"lon":5.36729,"is_reserved":false,"is_disabled":false,"rental_uris":{"android":"levelo://app?vid=255a8db9-6ac5-445d-8da2-584280160595","ios":"levelo://app?vid=255a8db9-6ac5-445d-8da2-584280160595"},"vehicle_type_id":"4","last_reported":1779013087,"current_range_meters":2800,"station_id":"","pricing_plan_id":"cebpf4jnsgd1na2vs0mg"},{"bike_id":"b78a5007-a3f9-4d4f-b4e5-799aa180d7f8","system_id":"levelo_inurba_marseille","lat":43.32036,"lon":5.41607,"is_reserved":false,"is_disabled":true,"rental_uris":{"android":"levelo://app?vid=b78a5007-a3f9-4d4f-b4e5-799aa180d7f8","ios":"levelo://app?vid=b78a5007-a3f9-4d4f-b4e5-799aa180d7f8"},"vehicle_type_id":"4","last_reported":1779013087,"current_range_meters":2800,"station_id":"ce4bhq92rcd13ifvqhkg","pricing_plan_id":"cebpf4jnsgd1na2vs0mg"},{"bike_id":"873bcac0-4ab0-4d7f-8c13-8702e2e90e7a","system_id":"levelo_inurba_marseille","lat":43.24657,"lon":5.38173,"is_reserved":false,"is_disabled":false,"rental_uris":{"android":"levelo://app?vid=873bcac0-4ab0-4d7f-8c13-8702e2e90e7a","ios":"levelo://app?vid=873bcac0-4ab0-4d7f-8c13-8702e2e90e7a"},"vehicle_type_id":"4","last_reported":1779013087,"current_range_meters":2800,"station_id":"ce4bhih2rcd13ifvqfr0","pricing_plan_id":"cebpf4jnsgd1na2vs0mg"},{"bike_id":"7fd7c1bb-0ed2-4eb7-959c-daab2eec52f3","system_id":"levelo_inurba_marseille","lat":43.2454,"lon":5.39521,"is_reserved":false,"is_disabled":true,"rental_uris":{"android":"levelo://app?vid=7fd7c1bb-0ed2-4eb7-959c-daab2eec52f3","ios":"levelo://app?vid=7fd7c1bb-0ed2-4eb7-959c-daab2eec52f3"},"vehicle_type_id":"4","last_reported":1779013087,"current_range_meters":3200,"station_id":"ce4bhlp2rcd13ifvqgjg","pricing_plan_id":"cebpf4jnsgd1na2vs0mg"},{"bike_id":"6dc16f1d-e4da-4a93-8782-57eeb7ef112c","system_id":"levelo_inurba_marseille","lat":43.24952,"lon":5.40486,"is_reserved":false,"is_disabled":false,"rental_uris":{"android":"levelo://app?vid=6dc16f1d-e4da-4a93-8782-57eeb7ef112c","ios":"levelo://app?vid=6dc16f1d-e4da-4a93-8782-57eeb7ef112c"},"vehicle_type_id":"4","last_reported":1779013087,"current_range_meters":3200,"station_id":"st_d2ngiaodas8pm72gd1h0","pricing_plan_id":"cebpf4jnsgd1na2vs0mg"},{"bike_id":"9328df09-7c77-4ef9-a326-cd1cda9dd29d","system_id":"levelo_inurba_marseille","lat":43.30753,"lon":5.38547,"is_reserved":false,"is_disabled":false,"rental_uris":{"android":"levelo://app?vid=9328df09-7c77-4ef9-a326-cd1cda9dd29d","ios":"levelo://app?vid=9328df09-7c77-4ef9-a326-cd1cda9dd29d"},"vehicle_type_id":"4","last_reported":1779013087,"current_range_meters":3200,"station_id":"","pricing_plan_id":"cebpf4jnsgd1na2vs0mg"},{"bike_id":"b1b1c9ad-0e11-41a8-95b1-ee1803460284","system_id":"levelo_inurba_marseille","lat":43.33544,"lon":5.37462,"is_reserved":false,"is_disabled":false,"rental_uris":{"android":"levelo://app?vid=b1b1c9ad-0e11-41a8-95b1-ee1803460284","ios":"levelo://app?vid=b1b1c9ad-0e11-41a8-95b1-ee1803460284"},"vehicle_type_id":"4","last_reported":1779013087,"current_range_meters":3200,"station_id":"st_d46tts09ee8s73dlu43g","pricing_plan_id":"cebpf4jnsgd1na2vs0mg"},{"bike_id":"f03f09cf-2305-449e-992b-93c426b8b11e","system_id":"levelo_inurba_marseille","lat":43.26094,"lon":5.39345,"is_reserved":false,"is_disabled":false,"rental_uris":{"android":"levelo://app?vid=f03f09cf-2305-449e-992b-93c426b8b11e","ios":"levelo://app?vid=f03f09cf-2305-449e-992b-93c426b8b11e"},"vehicle_type_id":"4","last_reported":1779013087,"current_range_meters":3200,"station_id":"","pricing_plan_id":"cebpf4jnsgd1na2vs0mg"},{"bike_id":"5b61ad3d-c4b3-4bf0-9170-da55ed29dbbb","system_id":"levelo_inurba_marseille","lat":43.30742,"lon":5.39229,"is_reserved":false,"is_disabled":false,"rental_uris":{"android":"levelo://app?vid=5b61ad3d-c4b3-4bf0-9170-da55ed29dbbb","ios":"levelo://app?vid=5b61ad3d-c4b3-4bf0-9170-da55ed29dbbb"},"vehicle_type_id":"4","last_reported":1779013087,"current_range_meters":3200,"station_id":"","pricing_plan_id":"cebpf4jnsgd1na2vs0mg"},{"bike_id":"a6654295-dddd-4fb0-8fde-c9293d552716","system_id":"levelo_inurba_marseille","lat":43.255791,"lon":5.382259,"is_reserved":false,"is_disabled":false,"rental_uris":{"android":"levelo://app?vid=a6654295-dddd-4fb0-8fde-c9293d552716","ios":"levelo://app?vid=a6654295-dddd-4fb0-8fde-c9293d552716"},"vehicle_type_id":"4","last_reported":1779013087,"current_range_meters":3200,"station_id":"ce4bhih2rcd13ifvqfs0","pricing_plan_id":"cebpf4jnsgd1na2vs0mg"},{"bike_id":"dc437964-578c-4f7a-be1e-9a5b7abec9f5","system_id":"levelo_inurba_marseille","lat":43.24536,"lon":5.37606,"is_reserved":false,"is_disabled":false,"rental_uris":{"android":"levelo://app?vid=dc437964-578c-4f7a-be1e-9a5b7abec9f5","ios":"levelo://app?vid=dc437964-578c-4f7a-be1e-9a5b7abec9f5"},"vehicle_type_id":"4","last_reported":1779013087,"current_range_meters":3200,"station_id":"","pricing_plan_id":"cebpf4jnsgd1na2vs0mg"},{"bike_id":"e11cc83a-4e70-4264-b131-051e7565a15a","system_id":"levelo_inurba_marseille","lat":43.25008,"lon":5.3891,"is_reserved":false,"is_disabled":false,"rental_uris":{"android":"levelo://app?vid=e11cc83a-4e70-4264-b131-051e7565a15a","ios":"levelo://app?vid=e11cc83a-4e70-4264-b131-051e7565a15a"},"vehicle_type_id":"4","last_reported":1779013087,"current_range_meters":3200,"station_id":"ce4bhgp2rcd13ifvqfd0","pricing_plan_id":"cebpf4jnsgd1na2vs0mg"},{"bike_id":"5ffd3600-8a67-4cdf-a27b-b49d7c9824e3","system_id":"levelo_inurba_marseille","lat":43.30135,"lon":5.38756,"is_reserved":false,"is_disabled":false,"rental_uris":{"android":"levelo://app?vid=5ffd3600-8a67-4cdf-a27b-b49d7c9824e3","ios":"levelo://app?vid=5ffd3600-8a67-4cdf-a27b-b49d7c9824e3"},"vehicle_type_id":"4","last_reported":1779013087,"current_range_meters":3600,"station_id":"ce4bghh2rcd13ifvqb60","pricing_plan_id":"cebpf4jnsgd1na2vs0mg"},{"bike_id":"2c16faf4-4152-4d1b-bc38-7eb92ab9aa56","system_id":"levelo_inurba_marseille","lat":43.239674,"lon":5.36638,"is_reserved":false,"is_disabled":false,"rental_uris":{"android":"levelo://app?vid=2c16faf4-4152-4d1b-bc38-7eb92ab9aa56","ios":"levelo://app?vid=2c16faf4-4152-4d1b-bc38-7eb92ab9aa56"},"vehicle_type_id":"4","last_reported":1779013087,"current_range_meters":3600,"station_id":"ce4bhi12rcd13ifvqfp0","pricing_plan_id":"cebpf4jnsgd1na2vs0mg"},{"bike_id":"b9fc383d-7675-4ac1-96a8-b14863e064c9","system_id":"levelo_inurba_marseille","lat":43.31292,"lon":5.37244,"is_reserved":false,"is_disabled":false,"rental_uris":{"android":"levelo://app?vid=b9fc383d-7675-4ac1-96a8-b14863e064c9","ios":"levelo://app?vid=b9fc383d-7675-4ac1-96a8-b14863e064c9"},"vehicle_type_id":"4","last_reported":1779013087,"current_range_meters":3600,"station_id":"","pricing_plan_id":"cebpf4jnsgd1na2vs0mg"},{"bike_id":"810ef53a-5aff-49f3-99db-34213da1b1cf","system_id":"levelo_inurba_marseille","lat":43.28694,"lon":5.46683,"is_reserved":false,"is_disabled":false,"rental_uris":{"android":"levelo://app?vid=810ef53a-5aff-49f3-99db-34213da1b1cf","ios":"levelo://app?vid=810ef53a-5aff-49f3-99db-34213da1b1cf"},"vehicle_type_id":"4","last_reported":1779013087,"current_range_meters":3600,"station_id":"st_d6tc3vkotcvc738tfjhg","pricing_plan_id":"cebpf4jnsgd1na2vs0mg"},{"bike_id":"668be714-b1b0-4a0f-9463-f5a0dd695346","system_id":"levelo_inurba_marseille","lat":43.27964,"lon":5.3635,"is_reserved":false,"is_disabled":false,"rental_uris":{"android":"levelo://app?vid=668be714-b1b0-4a0f-9463-f5a0dd695346","ios":"levelo://app?vid=668be714-b1b0-4a0f-9463-f5a0dd695346"},"vehicle_type_id":"4","last_reported":1779013087,"current_range_meters":3600,"station_id":"","pricing_plan_id":"cebpf4jnsgd1na2vs0mg"},{"bike_id":"6e7b9d2e-4ef1-43cb-b344-df85c95d538f","system_id":"levelo_inurba_marseille","lat":43.2463,"lon":5.43137,"is_reserved":false,"is_disabled":false,"rental_uris":{"android":"levelo://app?vid=6e7b9d2e-4ef1-43cb-b344-df85c95d538f","ios":"levelo://app?vid=6e7b9d2e-4ef1-43cb-b344-df85c95d538f"},"vehicle_type_id":"4","last_reported":1779013087,"current_range_meters":4000,"station_id":"st_d2m6c4gdas8pm72e190g","pricing_plan_id":"cebpf4jnsgd1na2vs0mg"},{"bike_id":"bd40cf55-601a-440c-ab8f-d78872810061","system_id":"levelo_inurba_marseille","lat":43.26211,"lon":5.37444,"is_reserved":false,"is_disabled":false,"rental_uris":{"android":"levelo://app?vid=bd40cf55-601a-440c-ab8f-d78872810061","ios":"levelo://app?vid=bd40cf55-601a-440c-ab8f-d78872810061"},"vehicle_type_id":"4","last_reported":1779013087,"current_range_meters":4000,"station_id":"ce4bhgp2rcd13ifvqfc0","pricing_plan_id":"cebpf4jnsgd1na2vs0mg"},{"bike_id":"9ed94da8-b622-4ab0-ae02-edb7323ea989","system_id":"levelo_inurba_marseille","lat":43.25177,"lon":5.37505,"is_reserved":false,"is_disabled":false,"rental_uris":{"android":"levelo://app?vid=9ed94da8-b622-4ab0-ae02-edb7323ea989","ios":"levelo://app?vid=9ed94da8-b622-4ab0-ae02-edb7323ea989"},"vehicle_type_id":"4","last_reported":1779013087,"current_range_meters":4000,"station_id":"","pricing_plan_id":"cebpf4jnsgd1na2vs0mg"},{"bike_id":"b5700011-a486-4e56-b8fb-207aaf85d4db","system_id":"levelo_inurba_marseille","lat":43.31887,"lon":5.36804,"is_reserved":false,"is_disabled":false,"rental_uris":{"android":"levelo://app?vid=b5700011-a486-4e56-b8fb-207aaf85d4db","ios":"levelo://app?vid=b5700011-a486-4e56-b8fb-207aaf85d4db"},"vehicle_type_id":"4","last_reported":1779013087,"current_range_meters":4000,"station_id":"st_d6o2h0d0559c73evc1b0","pricing_plan_id":"cebpf4jnsgd1na2vs0mg"},{"bike_id":"ee15264c-c5fd-4c69-a06f-329fd6fb9d0d","system_id":"levelo_inurba_marseille","lat":43.30132,"lon":5.4312,"is_reserved":false,"is_disabled":false,"rental_uris":{"android":"levelo://app?vid=ee15264c-c5fd-4c69-a06f-329fd6fb9d0d","ios":"levelo://app?vid=ee15264c-c5fd-4c69-a06f-329fd6fb9d0d"},"vehicle_type_id":"4","last_reported":1779013087,"current_range_meters":4000,"station_id":"st_d3js3co5814s73ftftug","pricing_plan_id":"cebpf4jnsgd1na2vs0mg"},{"bike_id":"c091a819-21d8-46ac-8161-23f60b78cf02","system_id":"levelo_inurba_marseille","lat":43.27612,"lon":5.3611,"is_reserved":false,"is_disabled":true,"rental_uris":{"android":"levelo://app?vid=c091a819-21d8-46ac-8161-23f60b78cf02","ios":"levelo://app?vid=c091a819-21d8-46ac-8161-23f60b78cf02"},"vehicle_type_id":"4","last_reported":1779013087,"current_range_meters":4400,"station_id":"ce4bgj92rcd13ifvqbe0","pricing_plan_id":"cebpf4jnsgd1na2vs0mg"},{"bike_id":"616353f1-4754-4f57-9465-e46d49d24354","system_id":"levelo_inurba_marseille","lat":43.33635,"lon":5.36302,"is_reserved":false,"is_disabled":false,"rental_uris":{"android":"levelo://app?vid=616353f1-4754-4f57-9465-e46d49d24354","ios":"levelo://app?vid=616353f1-4754-4f57-9465-e46d49d24354"},"vehicle_type_id":"4","last_reported":1779013087,"current_range_meters":4400,"station_id":"","pricing_plan_id":"cebpf4jnsgd1na2vs0mg"},{"bike_id":"378770a7-1a4e-4a1d-b694-214d3bfb3be7","system_id":"levelo_inurba_marseille","lat":43.2842,"lon":5.37505,"is_reserved":false,"is_disabled":false,"rental_uris":{"android":"levelo://app?vid=378770a7-1a4e-4a1d-b694-214d3bfb3be7","ios":"levelo://app?vid=378770a7-1a4e-4a1d-b694-214d3bfb3be7"},"vehicle_type_id":"4","last_reported":1779013087,"current_range_meters":4400,"station_id":"ce4bh412rcd13ifvqds0","pricing_plan_id":"cebpf4jnsgd1na2vs0mg"},{"bike_id":"f358957b-52de-476a-85a4-6a062daa2f07","system_id":"levelo_inurba_marseille","lat":43.29578,"lon":5.37496,"is_reserved":false,"is_disabled":false,"rental_uris":{"android":"levelo://app?vid=f358957b-52de-476a-85a4-6a062daa2f07","ios":"levelo://app?vid=f358957b-52de-476a-85a4-6a062daa2f07"},"vehicle_type_id":"4","last_reported":1779013087,"current_range_meters":4400,"station_id":"ce4bgh92rcd13ifvqb50","pricing_plan_id":"cebpf4jnsgd1na2vs0mg"},{"bike_id":"79f1a2e3-a0b4-477e-a86b-1762c094e108","system_id":"levelo_inurba_marseille","lat":43.28664,"lon":5.38667,"is_reserved":false,"is_disabled":false,"rental_uris":{"android":"levelo://app?vid=79f1a2e3-a0b4-477e-a86b-1762c094e108","ios":"levelo://app?vid=79f1a2e3-a0b4-477e-a86b-1762c094e108"},"vehicle_type_id":"4","last_reported":1779013087,"current_range_meters":4400,"station_id":"ce4bh492rcd13ifvqdug","pricing_plan_id":"cebpf4jnsgd1na2vs0mg"},{"bike_id":"f0382f44-1295-4c9a-8d23-3e4520a6d88d","system_id":"levelo_inurba_marseille","lat":43.297985,"lon":5.404009,"is_reserved":false,"is_disabled":false,"rental_uris":{"android":"levelo://app?vid=f0382f44-1295-4c9a-8d23-3e4520a6d88d","ios":"levelo://app?vid=f0382f44-1295-4c9a-8d23-3e4520a6d88d"},"vehicle_type_id":"4","last_reported":1779013087,"current_range_meters":4400,"station_id":"ce4bh112rcd13ifvqd90","pricing_plan_id":"cebpf4jnsgd1na2vs0mg"},{"bike_id":"35cc111d-eb53-47e4-98f0-c750725b8810","system_id":"levelo_inurba_marseille","lat":43.211931,"lon":5.350715,"is_reserved":false,"is_disabled":false,"rental_uris":{"android":"levelo://app?vid=35cc111d-eb53-47e4-98f0-c750725b8810","ios":"levelo://app?vid=35cc111d-eb53-47e4-98f0-c750725b8810"},"vehicle_type_id":"4","last_reported":1779013087,"current_range_meters":4400,"station_id":"st_cvj6sg6p6f1abm77japg","pricing_plan_id":"cebpf4jnsgd1na2vs0mg"},{"bike_id":"4ee69d41-30d6-469e-829a-74d2ce79aff4","system_id":"levelo_inurba_marseille","lat":43.33546,"lon":5.37456,"is_reserved":false,"is_disabled":false,"rental_uris":{"android":"levelo://app?vid=4ee69d41-30d6-469e-829a-74d2ce79aff4","ios":"levelo://app?vid=4ee69d41-30d6-469e-829a-74d2ce79aff4"},"vehicle_type_id":"4","last_reported":1779013087,"current_range_meters":4400,"station_id":"st_d46tts09ee8s73dlu43g","pricing_plan_id":"cebpf4jnsgd1na2vs0mg"},{"bike_id":"edd5c786-8d24-46bc-bdcd-f0f00a11c1c1","system_id":"levelo_inurba_marseille","lat":43.25523,"lon":5.37667,"is_reserved":false,"is_disabled":true,"rental_uris":{"android":"levelo://app?vid=edd5c786-8d24-46bc-bdcd-f0f00a11c1c1","ios":"levelo://app?vid=edd5c786-8d24-46bc-bdcd-f0f00a11c1c1"},"vehicle_type_id":"4","last_reported":1779013087,"current_range_meters":4400,"station_id":"ce4bhh12rcd13ifvqff0","pricing_plan_id":"cebpf4jnsgd1na2vs0mg"},{"bike_id":"1cd82ef7-0071-4100-8e7c-32f9ee0dd8c7","system_id":"levelo_inurba_marseille","lat":43.2319,"lon":5.35557,"is_reserved":false,"is_disabled":false,"rental_uris":{"android":"levelo://app?vid=1cd82ef7-0071-4100-8e7c-32f9ee0dd8c7","ios":"levelo://app?vid=1cd82ef7-0071-4100-8e7c-32f9ee0dd8c7"},"vehicle_type_id":"4","last_reported":1779013087,"current_range_meters":4400,"station_id":"ce4bhu92rcd13ifvqi70","pricing_plan_id":"cebpf4jnsgd1na2vs0mg"},{"bike_id":"cdf1b341-bc41-4289-a1ee-de495a36dd65","system_id":"levelo_inurba_marseille","lat":43.27332,"lon":5.39079,"is_reserved":false,"is_disabled":false,"rental_uris":{"android":"levelo://app?vid=cdf1b341-bc41-4289-a1ee-de495a36dd65","ios":"levelo://app?vid=cdf1b341-bc41-4289-a1ee-de495a36dd65"},"vehicle_type_id":"4","last_reported":1779013087,"current_range_meters":4400,"station_id":"ce4bhgp2rcd13ifvqfe0","pricing_plan_id":"cebpf4jnsgd1na2vs0mg"},{"bike_id":"f17ecffc-b29b-4f2a-981a-de96a5c99a58","system_id":"levelo_inurba_marseille","lat":43.23191,"lon":5.3999,"is_reserved":false,"is_disabled":false,"rental_uris":{"android":"levelo://app?vid=f17ecffc-b29b-4f2a-981a-de96a5c99a58","ios":"levelo://app?vid=f17ecffc-b29b-4f2a-981a-de96a5c99a58"},"vehicle_type_id":"4","last_reported":1779013087,"current_range_meters":4400,"station_id":"ce4bhn12rcd13ifvqgqg","pricing_plan_id":"cebpf4jnsgd1na2vs0mg"},{"bike_id":"df3b4c65-b594-43d2-9619-bf34b1560986","system_id":"levelo_inurba_marseille","lat":43.33549,"lon":5.37464,"is_reserved":false,"is_disabled":false,"rental_uris":{"android":"levelo://app?vid=df3b4c65-b594-43d2-9619-bf34b1560986","ios":"levelo://app?vid=df3b4c65-b594-43d2-9619-bf34b1560986"},"vehicle_type_id":"4","last_reported":1779013087,"current_range_meters":4800,"station_id":"st_d46tts09ee8s73dlu43g","pricing_plan_id":"cebpf4jnsgd1na2vs0mg"},{"bike_id":"ed8b9caf-da29-4c6c-b8b8-2bb3a2494930","system_id":"levelo_inurba_marseille","lat":43.22563,"lon":5.41626,"is_reserved":false,"is_disabled":false,"rental_uris":{"android":"levelo://app?vid=ed8b9caf-da29-4c6c-b8b8-2bb3a2494930","ios":"levelo://app?vid=ed8b9caf-da29-4c6c-b8b8-2bb3a2494930"},"vehicle_type_id":"4","last_reported":1779013087,"current_range_meters":4800,"station_id":"st_d2o4gvlbi1j2169b742g","pricing_plan_id":"cebpf4jnsgd1na2vs0mg"},{"bike_id":"31377f31-2715-44bc-b730-1af1ece20a20","system_id":"levelo_inurba_marseille","lat":43.25086,"lon":5.39504,"is_reserved":false,"is_disabled":false,"rental_uris":{"android":"levelo://app?vid=31377f31-2715-44bc-b730-1af1ece20a20","ios":"levelo://app?vid=31377f31-2715-44bc-b730-1af1ece20a20"},"vehicle_type_id":"4","last_reported":1779013087,"current_range_meters":4800,"station_id":"ce4bhm12rcd13ifvqgkg","pricing_plan_id":"cebpf4jnsgd1na2vs0mg"},{"bike_id":"ef20a65f-19f4-4491-8360-61efaea0f2fe","system_id":"levelo_inurba_marseille","lat":43.27663,"lon":5.41423,"is_reserved":false,"is_disabled":false,"rental_uris":{"android":"levelo://app?vid=ef20a65f-19f4-4491-8360-61efaea0f2fe","ios":"levelo://app?vid=ef20a65f-19f4-4491-8360-61efaea0f2fe"},"vehicle_type_id":"4","last_reported":1779013087,"current_range_meters":4800,"station_id":"","pricing_plan_id":"cebpf4jnsgd1na2vs0mg"},{"bike_id":"1124e8ed-181a-445d-9220-36e963831e6c","system_id":"levelo_inurba_marseille","lat":43.2391,"lon":5.3745,"is_reserved":false,"is_disabled":true,"rental_uris":{"android":"levelo://app?vid=1124e8ed-181a-445d-9220-36e963831e6c","ios":"levelo://app?vid=1124e8ed-181a-445d-9220-36e963831e6c"},"vehicle_type_id":"4","last_reported":1779013087,"current_range_meters":4800,"station_id":"st_d6sm7csbq4hs73f8fpjg","pricing_plan_id":"cebpf4jnsgd1na2vs0mg"},{"bike_id":"7c9517e3-38cb-4a87-948b-926583eebece","system_id":"levelo_inurba_marseille","lat":43.21217,"lon":5.35079,"is_reserved":false,"is_disabled":false,"rental_uris":{"android":"levelo://app?vid=7c9517e3-38cb-4a87-948b-926583eebece","ios":"levelo://app?vid=7c9517e3-38cb-4a87-948b-926583eebece"},"vehicle_type_id":"4","last_reported":1779013087,"current_range_meters":4800,"station_id":"st_cvj6sg6p6f1abm77japg","pricing_plan_id":"cebpf4jnsgd1na2vs0mg"},{"bike_id":"0d50daf1-0ebe-4070-a3f4-50a2aaf9e668","system_id":"levelo_inurba_marseille","lat":43.24543,"lon":5.39526,"is_reserved":false,"is_disabled":true,"rental_uris":{"android":"levelo://app?vid=0d50daf1-0ebe-4070-a3f4-50a2aaf9e668","ios":"levelo://app?vid=0d50daf1-0ebe-4070-a3f4-50a2aaf9e668"},"vehicle_type_id":"4","last_reported":1779013087,"current_range_meters":4800,"station_id":"ce4bhlp2rcd13ifvqgjg","pricing_plan_id":"cebpf4jnsgd1na2vs0mg"},{"bike_id":"838dedee-4cbd-4997-9d32-b652b1084416","system_id":"levelo_inurba_marseille","lat":43.28606,"lon":5.35096,"is_reserved":false,"is_disabled":false,"rental_uris":{"android":"levelo://app?vid=838dedee-4cbd-4997-9d32-b652b1084416","ios":"levelo://app?vid=838dedee-4cbd-4997-9d32-b652b1084416"},"vehicle_type_id":"4","last_reported":1779013087,"current_range_meters":4800,"station_id":"ce4bhch2rcd13ifvqeug","pricing_plan_id":"cebpf4jnsgd1na2vs0mg"},{"bike_id":"811e380f-551b-4166-9815-03a9eb241c1e","system_id":"levelo_inurba_marseille","lat":43.286651,"lon":5.363481,"is_reserved":false,"is_disabled":false,"rental_uris":{"android":"levelo://app?vid=811e380f-551b-4166-9815-03a9eb241c1e","ios":"levelo://app?vid=811e380f-551b-4166-9815-03a9eb241c1e"},"vehicle_type_id":"4","last_reported":1779013087,"current_range_meters":4800,"station_id":"ce4bhah2rcd13ifvqej0","pricing_plan_id":"cebpf4jnsgd1na2vs0mg"},{"bike_id":"0947af6c-8824-468d-a879-edc374c8222c","system_id":"levelo_inurba_marseille","lat":43.23182,"lon":5.39989,"is_reserved":false,"is_disabled":false,"rental_uris":{"android":"levelo://app?vid=0947af6c-8824-468d-a879-edc374c8222c","ios":"levelo://app?vid=0947af6c-8824-468d-a879-edc374c8222c"},"vehicle_type_id":"4","last_reported":1779013087,"current_range_meters":4800,"station_id":"ce4bhn12rcd13ifvqgqg","pricing_plan_id":"cebpf4jnsgd1na2vs0mg"},{"bike_id":"dace259d-e3eb-491e-95dc-863daa176674","system_id":"levelo_inurba_marseille","lat":43.2417,"lon":5.36388,"is_reserved":false,"is_disabled":false,"rental_uris":{"android":"levelo://app?vid=dace259d-e3eb-491e-95dc-863daa176674","ios":"levelo://app?vid=dace259d-e3eb-491e-95dc-863daa176674"},"vehicle_type_id":"4","last_reported":1779013087,"current_range_meters":4800,"station_id":"cpo36qri1sfpv3e86is0","pricing_plan_id":"cebpf4jnsgd1na2vs0mg"},{"bike_id":"9957f545-4eb3-4eca-8671-efb575f4b95a","system_id":"levelo_inurba_marseille","lat":43.26198,"lon":5.37446,"is_reserved":false,"is_disabled":false,"rental_uris":{"android":"levelo://app?vid=9957f545-4eb3-4eca-8671-efb575f4b95a","ios":"levelo://app?vid=9957f545-4eb3-4eca-8671-efb575f4b95a"},"vehicle_type_id":"4","last_reported":1779013087,"current_range_meters":4800,"station_id":"ce4bhgp2rcd13ifvqfc0","pricing_plan_id":"cebpf4jnsgd1na2vs0mg"},{"bike_id":"5f777144-b9a3-4ff6-b1d4-4400f21cc9a7","system_id":"levelo_inurba_marseille","lat":43.296259,"lon":5.405932,"is_reserved":false,"is_disabled":false,"rental_uris":{"android":"levelo://app?vid=5f777144-b9a3-4ff6-b1d4-4400f21cc9a7","ios":"levelo://app?vid=5f777144-b9a3-4ff6-b1d4-4400f21cc9a7"},"vehicle_type_id":"4","last_reported":1779013087,"current_range_meters":5600,"station_id":"ce4bh0h2rcd13ifvqd60","pricing_plan_id":"cebpf4jnsgd1na2vs0mg"},{"bike_id":"ed4acfe3-c7d2-44e0-92e3-9e43103cc976","system_id":"levelo_inurba_marseille","lat":43.28609,"lon":5.35111,"is_reserved":false,"is_disabled":false,"rental_uris":{"android":"levelo://app?vid=ed4acfe3-c7d2-44e0-92e3-9e43103cc976","ios":"levelo://app?vid=ed4acfe3-c7d2-44e0-92e3-9e43103cc976"},"vehicle_type_id":"4","last_reported":1779013087,"current_range_meters":5600,"station_id":"ce4bhch2rcd13ifvqeug","pricing_plan_id":"cebpf4jnsgd1na2vs0mg"},{"bike_id":"9c9a1a74-3f10-44f1-99ca-6350204cb216","system_id":"levelo_inurba_marseille","lat":43.23143,"lon":5.43742,"is_reserved":false,"is_disabled":false,"rental_uris":{"android":"levelo://app?vid=9c9a1a74-3f10-44f1-99ca-6350204cb216","ios":"levelo://app?vid=9c9a1a74-3f10-44f1-99ca-6350204cb216"},"vehicle_type_id":"4","last_reported":1779013087,"current_range_meters":5600,"station_id":"ce4bhmp2rcd13ifvqgog","pricing_plan_id":"cebpf4jnsgd1na2vs0mg"},{"bike_id":"1f255333-0dee-46a8-8f6a-ce22f3ff59bd","system_id":"levelo_inurba_marseille","lat":43.22532,"lon":5.34833,"is_reserved":false,"is_disabled":true,"rental_uris":{"android":"levelo://app?vid=1f255333-0dee-46a8-8f6a-ce22f3ff59bd","ios":"levelo://app?vid=1f255333-0dee-46a8-8f6a-ce22f3ff59bd"},"vehicle_type_id":"4","last_reported":1779013087,"current_range_meters":5600,"station_id":"st_cvj5dfep6f1abm77gieg","pricing_plan_id":"cebpf4jnsgd1na2vs0mg"},{"bike_id":"5bd709cf-a859-4d99-8c17-5c3611eb97a4","system_id":"levelo_inurba_marseille","lat":43.28417,"lon":5.34992,"is_reserved":false,"is_disabled":false,"rental_uris":{"android":"levelo://app?vid=5bd709cf-a859-4d99-8c17-5c3611eb97a4","ios":"levelo://app?vid=5bd709cf-a859-4d99-8c17-5c3611eb97a4"},"vehicle_type_id":"4","last_reported":1779013087,"current_range_meters":5600,"station_id":"ce4bhbh2rcd13ifvqepg","pricing_plan_id":"cebpf4jnsgd1na2vs0mg"},{"bike_id":"c09d875c-482e-4173-859c-8cc0ed04b626","system_id":"levelo_inurba_marseille","lat":43.265117,"lon":5.373265,"is_reserved":false,"is_disabled":false,"rental_uris":{"android":"levelo://app?vid=c09d875c-482e-4173-859c-8cc0ed04b626","ios":"levelo://app?vid=c09d875c-482e-4173-859c-8cc0ed04b626"},"vehicle_type_id":"4","last_reported":1779013087,"current_range_meters":5600,"station_id":"ce4bhg12rcd13ifvqf70","pricing_plan_id":"cebpf4jnsgd1na2vs0mg"},{"bike_id":"d16f212b-c708-4336-af89-f6d336d8d79c","system_id":"levelo_inurba_marseille","lat":43.28706,"lon":5.46679,"is_reserved":false,"is_disabled":false,"rental_uris":{"android":"levelo://app?vid=d16f212b-c708-4336-af89-f6d336d8d79c","ios":"levelo://app?vid=d16f212b-c708-4336-af89-f6d336d8d79c"},"vehicle_type_id":"4","last_reported":1779013087,"current_range_meters":6000,"station_id":"st_d6tc3vkotcvc738tfjhg","pricing_plan_id":"cebpf4jnsgd1na2vs0mg"},{"bike_id":"1dd7d753-327a-4a0e-96a8-c35b8f67f696","system_id":"levelo_inurba_marseille","lat":43.23967,"lon":5.36609,"is_reserved":false,"is_disabled":false,"rental_uris":{"android":"levelo://app?vid=1dd7d753-327a-4a0e-96a8-c35b8f67f696","ios":"levelo://app?vid=1dd7d753-327a-4a0e-96a8-c35b8f67f696"},"vehicle_type_id":"4","last_reported":1779013087,"current_range_meters":6000,"station_id":"ce4bhi12rcd13ifvqfp0","pricing_plan_id":"cebpf4jnsgd1na2vs0mg"},{"bike_id":"39f5e5e3-bdaa-431e-ab82-46a06c8cb2ae","system_id":"levelo_inurba_marseille","lat":43.24469,"lon":5.42541,"is_reserved":false,"is_disabled":false,"rental_uris":{"android":"levelo://app?vid=39f5e5e3-bdaa-431e-ab82-46a06c8cb2ae","ios":"levelo://app?vid=39f5e5e3-bdaa-431e-ab82-46a06c8cb2ae"},"vehicle_type_id":"4","last_reported":1779013087,"current_range_meters":6000,"station_id":"st_d4a3vfp97mjs738cd8kg","pricing_plan_id":"cebpf4jnsgd1na2vs0mg"},{"bike_id":"d62fe7cd-382b-455b-9bf9-8a21527437bd","system_id":"levelo_inurba_marseille","lat":43.24415,"lon":5.37413,"is_reserved":false,"is_disabled":false,"rental_uris":{"android":"levelo://app?vid=d62fe7cd-382b-455b-9bf9-8a21527437bd","ios":"levelo://app?vid=d62fe7cd-382b-455b-9bf9-8a21527437bd"},"vehicle_type_id":"4","last_reported":1779013087,"current_range_meters":6000,"station_id":"","pricing_plan_id":"cebpf4jnsgd1na2vs0mg"},{"bike_id":"d31b52c9-1df3-42e9-8196-d29dd13f7b1c","system_id":"levelo_inurba_marseille","lat":43.29956,"lon":5.41315,"is_reserved":false,"is_disabled":false,"rental_uris":{"android":"levelo://app?vid=d31b52c9-1df3-42e9-8196-d29dd13f7b1c","ios":"levelo://app?vid=d31b52c9-1df3-42e9-8196-d29dd13f7b1c"},"vehicle_type_id":"4","last_reported":1779013087,"current_range_meters":6000,"station_id":"ce4bhp12rcd13ifvqh9g","pricing_plan_id":"cebpf4jnsgd1na2vs0mg"},{"bike_id":"264be224-53e3-492e-a159-efc4fcfb6de9","system_id":"levelo_inurba_marseille","lat":43.28622,"lon":5.35102,"is_reserved":false,"is_disabled":false,"rental_uris":{"android":"levelo://app?vid=264be224-53e3-492e-a159-efc4fcfb6de9","ios":"levelo://app?vid=264be224-53e3-492e-a159-efc4fcfb6de9"},"vehicle_type_id":"4","last_reported":1779013087,"current_range_meters":6000,"station_id":"ce4bhch2rcd13ifvqeug","pricing_plan_id":"cebpf4jnsgd1na2vs0mg"},{"bike_id":"87c67fc7-f76d-49c6-990c-dd7317bb4a4c","system_id":"levelo_inurba_marseille","lat":43.30553,"lon":5.36535,"is_reserved":false,"is_disabled":false,"rental_uris":{"android":"levelo://app?vid=87c67fc7-f76d-49c6-990c-dd7317bb4a4c","ios":"levelo://app?vid=87c67fc7-f76d-49c6-990c-dd7317bb4a4c"},"vehicle_type_id":"4","last_reported":1779013087,"current_range_meters":6000,"station_id":"ce4bgs12rcd13ifvqcag","pricing_plan_id":"cebpf4jnsgd1na2vs0mg"},{"bike_id":"9c6f21a0-479c-4e0b-b731-bba89f4e20c2","system_id":"levelo_inurba_marseille","lat":43.29238,"lon":5.36015,"is_reserved":false,"is_disabled":false,"rental_uris":{"android":"levelo://app?vid=9c6f21a0-479c-4e0b-b731-bba89f4e20c2","ios":"levelo://app?vid=9c6f21a0-479c-4e0b-b731-bba89f4e20c2"},"vehicle_type_id":"4","last_reported":1779013087,"current_range_meters":6000,"station_id":"ce4bhbh2rcd13ifvqeqg","pricing_plan_id":"cebpf4jnsgd1na2vs0mg"},{"bike_id":"dba68f5b-73cd-4db8-b1a3-9c3f5397f948","system_id":"levelo_inurba_marseille","lat":43.24653,"lon":5.38181,"is_reserved":false,"is_disabled":false,"rental_uris":{"android":"levelo://app?vid=dba68f5b-73cd-4db8-b1a3-9c3f5397f948","ios":"levelo://app?vid=dba68f5b-73cd-4db8-b1a3-9c3f5397f948"},"vehicle_type_id":"4","last_reported":1779013087,"current_range_meters":6000,"station_id":"ce4bhih2rcd13ifvqfr0","pricing_plan_id":"cebpf4jnsgd1na2vs0mg"},{"bike_id":"4e5bd537-c85f-4cfa-a272-100a01edb9bf","system_id":"levelo_inurba_marseille","lat":43.31687,"lon":5.40469,"is_reserved":false,"is_disabled":false,"rental_uris":{"android":"levelo://app?vid=4e5bd537-c85f-4cfa-a272-100a01edb9bf","ios":"levelo://app?vid=4e5bd537-c85f-4cfa-a272-100a01edb9bf"},"vehicle_type_id":"4","last_reported":1779013087,"current_range_meters":6400,"station_id":"ce4bh012rcd13ifvqd00","pricing_plan_id":"cebpf4jnsgd1na2vs0mg"},{"bike_id":"59ebfeaf-288c-4113-86b3-96065d458976","system_id":"levelo_inurba_marseille","lat":43.33159,"lon":5.37696,"is_reserved":false,"is_disabled":false,"rental_uris":{"android":"levelo://app?vid=59ebfeaf-288c-4113-86b3-96065d458976","ios":"levelo://app?vid=59ebfeaf-288c-4113-86b3-96065d458976"},"vehicle_type_id":"4","last_reported":1779013087,"current_range_meters":6400,"station_id":"st_d46cu089ee8s73dldbu0","pricing_plan_id":"cebpf4jnsgd1na2vs0mg"},{"bike_id":"77aefab8-8e6e-4772-bad4-79cb2d83ab10","system_id":"levelo_inurba_marseille","lat":43.28264,"lon":5.3507,"is_reserved":false,"is_disabled":false,"rental_uris":{"android":"levelo://app?vid=77aefab8-8e6e-4772-bad4-79cb2d83ab10","ios":"levelo://app?vid=77aefab8-8e6e-4772-bad4-79cb2d83ab10"},"vehicle_type_id":"4","last_reported":1779013087,"current_range_meters":6400,"station_id":"ce4bhbp2rcd13ifvqerg","pricing_plan_id":"cebpf4jnsgd1na2vs0mg"},{"bike_id":"5f6c563f-df74-41ea-8a50-bc306e92ccbb","system_id":"levelo_inurba_marseille","lat":43.24688,"lon":5.38146,"is_reserved":false,"is_disabled":false,"rental_uris":{"android":"levelo://app?vid=5f6c563f-df74-41ea-8a50-bc306e92ccbb","ios":"levelo://app?vid=5f6c563f-df74-41ea-8a50-bc306e92ccbb"},"vehicle_type_id":"4","last_reported":1779013087,"current_range_meters":6400,"station_id":"ce4bhih2rcd13ifvqfr0","pricing_plan_id":"cebpf4jnsgd1na2vs0mg"},{"bike_id":"530df0d0-5b0d-4b06-8b82-536a02bdd0b0","system_id":"levelo_inurba_marseille","lat":43.29166,"lon":5.37148,"is_reserved":false,"is_disabled":false,"rental_uris":{"android":"levelo://app?vid=530df0d0-5b0d-4b06-8b82-536a02bdd0b0","ios":"levelo://app?vid=530df0d0-5b0d-4b06-8b82-536a02bdd0b0"},"vehicle_type_id":"4","last_reported":1779013087,"current_range_meters":6400,"station_id":"ce4bha92rcd13ifvqeh0","pricing_plan_id":"cebpf4jnsgd1na2vs0mg"},{"bike_id":"37ca5b86-b3d0-4bc0-80e9-3ce47d4dd8d3","system_id":"levelo_inurba_marseille","lat":43.23896,"lon":5.37452,"is_reserved":false,"is_disabled":false,"rental_uris":{"android":"levelo://app?vid=37ca5b86-b3d0-4bc0-80e9-3ce47d4dd8d3","ios":"levelo://app?vid=37ca5b86-b3d0-4bc0-80e9-3ce47d4dd8d3"},"vehicle_type_id":"4","last_reported":1779013087,"current_range_meters":6400,"station_id":"st_d6sm7csbq4hs73f8fpjg","pricing_plan_id":"cebpf4jnsgd1na2vs0mg"},{"bike_id":"b1aef4be-4457-4f5e-bf73-fe51d0fce871","system_id":"levelo_inurba_marseille","lat":43.21192,"lon":5.35072,"is_reserved":false,"is_disabled":false,"rental_uris":{"android":"levelo://app?vid=b1aef4be-4457-4f5e-bf73-fe51d0fce871","ios":"levelo://app?vid=b1aef4be-4457-4f5e-bf73-fe51d0fce871"},"vehicle_type_id":"4","last_reported":1779013087,"current_range_meters":6400,"station_id":"st_cvj6sg6p6f1abm77japg","pricing_plan_id":"cebpf4jnsgd1na2vs0mg"},{"bike_id":"ee51b083-ba62-43a1-8a0a-7eff9e26d1d2","system_id":"levelo_inurba_marseille","lat":43.24647,"lon":5.38163,"is_reserved":false,"is_disabled":false,"rental_uris":{"android":"levelo://app?vid=ee51b083-ba62-43a1-8a0a-7eff9e26d1d2","ios":"levelo://app?vid=ee51b083-ba62-43a1-8a0a-7eff9e26d1d2"},"vehicle_type_id":"4","last_reported":1779013087,"current_range_meters":6400,"station_id":"ce4bhih2rcd13ifvqfr0","pricing_plan_id":"cebpf4jnsgd1na2vs0mg"},{"bike_id":"3b83b65b-55f5-4537-b8d6-c361bfe6c368","system_id":"levelo_inurba_marseille","lat":43.299692,"lon":5.385536,"is_reserved":false,"is_disabled":false,"rental_uris":{"android":"levelo://app?vid=3b83b65b-55f5-4537-b8d6-c361bfe6c368","ios":"levelo://app?vid=3b83b65b-55f5-4537-b8d6-c361bfe6c368"},"vehicle_type_id":"4","last_reported":1779013087,"current_range_meters":6400,"station_id":"ce4bgj92rcd13ifvqbd0","pricing_plan_id":"cebpf4jnsgd1na2vs0mg"},{"bike_id":"41ed03a9-ce21-4903-a810-ca307a88c332","system_id":"levelo_inurba_marseille","lat":43.2625,"lon":5.40418,"is_reserved":false,"is_disabled":false,"rental_uris":{"android":"levelo://app?vid=41ed03a9-ce21-4903-a810-ca307a88c332","ios":"levelo://app?vid=41ed03a9-ce21-4903-a810-ca307a88c332"},"vehicle_type_id":"4","last_reported":1779013087,"current_range_meters":6400,"station_id":"ce4bhmh2rcd13ifvqgmg","pricing_plan_id":"cebpf4jnsgd1na2vs0mg"},{"bike_id":"c050486d-5df0-4fcf-9653-c603140d3eb9","system_id":"levelo_inurba_marseille","lat":43.249952,"lon":5.389289,"is_reserved":false,"is_disabled":false,"rental_uris":{"android":"levelo://app?vid=c050486d-5df0-4fcf-9653-c603140d3eb9","ios":"levelo://app?vid=c050486d-5df0-4fcf-9653-c603140d3eb9"},"vehicle_type_id":"4","last_reported":1779013087,"current_range_meters":6400,"station_id":"ce4bhgp2rcd13ifvqfd0","pricing_plan_id":"cebpf4jnsgd1na2vs0mg"},{"bike_id":"ad1f6fd4-c9ff-4829-9d36-b7cf41ff39ba","system_id":"levelo_inurba_marseille","lat":43.27993,"lon":5.38654,"is_reserved":false,"is_disabled":true,"rental_uris":{"android":"levelo://app?vid=ad1f6fd4-c9ff-4829-9d36-b7cf41ff39ba","ios":"levelo://app?vid=ad1f6fd4-c9ff-4829-9d36-b7cf41ff39ba"},"vehicle_type_id":"4","last_reported":1779013087,"current_range_meters":6400,"station_id":"","pricing_plan_id":"cebpf4jnsgd1na2vs0mg"},{"bike_id":"bd23f2fa-8f30-487e-98d7-3125ee47779b","system_id":"levelo_inurba_marseille","lat":43.27506,"lon":5.43523,"is_reserved":false,"is_disabled":false,"rental_uris":{"android":"levelo://app?vid=bd23f2fa-8f30-487e-98d7-3125ee47779b","ios":"levelo://app?vid=bd23f2fa-8f30-487e-98d7-3125ee47779b"},"vehicle_type_id":"4","last_reported":1779013087,"current_range_meters":6400,"station_id":"","pricing_plan_id":"cebpf4jnsgd1na2vs0mg"},{"bike_id":"6b5f5f89-ab34-448a-b2c7-ae8a3e9a30f4","system_id":"levelo_inurba_marseille","lat":43.31927,"lon":5.40701,"is_reserved":false,"is_disabled":true,"rental_uris":{"android":"levelo://app?vid=6b5f5f89-ab34-448a-b2c7-ae8a3e9a30f4","ios":"levelo://app?vid=6b5f5f89-ab34-448a-b2c7-ae8a3e9a30f4"},"vehicle_type_id":"4","last_reported":1779013087,"current_range_meters":6400,"station_id":"ce4bhq12rcd13ifvqhig","pricing_plan_id":"cebpf4jnsgd1na2vs0mg"},{"bike_id":"c66e49a7-8e9a-4b1b-a1f9-8e7e886dbf72","system_id":"levelo_inurba_marseille","lat":43.32545,"lon":5.41467,"is_reserved":false,"is_disabled":false,"rental_uris":{"android":"levelo://app?vid=c66e49a7-8e9a-4b1b-a1f9-8e7e886dbf72","ios":"levelo://app?vid=c66e49a7-8e9a-4b1b-a1f9-8e7e886dbf72"},"vehicle_type_id":"4","last_reported":1779013087,"current_range_meters":6800,"station_id":"ce4bhq12rcd13ifvqhhg","pricing_plan_id":"cebpf4jnsgd1na2vs0mg"},{"bike_id":"9b53addb-f3db-4a99-9213-42f5c54e563b","system_id":"levelo_inurba_marseille","lat":43.28485,"lon":5.38534,"is_reserved":false,"is_disabled":false,"rental_uris":{"android":"levelo://app?vid=9b53addb-f3db-4a99-9213-42f5c54e563b","ios":"levelo://app?vid=9b53addb-f3db-4a99-9213-42f5c54e563b"},"vehicle_type_id":"4","last_reported":1779013087,"current_range_meters":6800,"station_id":"ce4bh8p2rcd13ifvqeb0","pricing_plan_id":"cebpf4jnsgd1na2vs0mg"},{"bike_id":"11ea57c0-65f7-4628-b9e0-c567ecf6d704","system_id":"levelo_inurba_marseille","lat":43.27964,"lon":5.41015,"is_reserved":false,"is_disabled":false,"rental_uris":{"android":"levelo://app?vid=11ea57c0-65f7-4628-b9e0-c567ecf6d704","ios":"levelo://app?vid=11ea57c0-65f7-4628-b9e0-c567ecf6d704"},"vehicle_type_id":"4","last_reported":1779013087,"current_range_meters":6800,"station_id":"ce4bhnp2rcd13ifvqh0g","pricing_plan_id":"cebpf4jnsgd1na2vs0mg"},{"bike_id":"878f684a-78a4-4666-ad24-d4a8ba44638b","system_id":"levelo_inurba_marseille","lat":43.26512,"lon":5.39534,"is_reserved":false,"is_disabled":false,"rental_uris":{"android":"levelo://app?vid=878f684a-78a4-4666-ad24-d4a8ba44638b","ios":"levelo://app?vid=878f684a-78a4-4666-ad24-d4a8ba44638b"},"vehicle_type_id":"4","last_reported":1779013087,"current_range_meters":6800,"station_id":"ce4bhi12rcd13ifvqfq0","pricing_plan_id":"cebpf4jnsgd1na2vs0mg"},{"bike_id":"10644868-b904-4276-baa9-ed96c85e24ad","system_id":"levelo_inurba_marseille","lat":43.28414,"lon":5.34991,"is_reserved":false,"is_disabled":false,"rental_uris":{"android":"levelo://app?vid=10644868-b904-4276-baa9-ed96c85e24ad","ios":"levelo://app?vid=10644868-b904-4276-baa9-ed96c85e24ad"},"vehicle_type_id":"4","last_reported":1779013087,"current_range_meters":6800,"station_id":"ce4bhbh2rcd13ifvqepg","pricing_plan_id":"cebpf4jnsgd1na2vs0mg"},{"bike_id":"cde832f5-61c9-4423-ac99-7113bd3c4dd5","system_id":"levelo_inurba_marseille","lat":43.25506,"lon":5.3765,"is_reserved":false,"is_disabled":false,"rental_uris":{"android":"levelo://app?vid=cde832f5-61c9-4423-ac99-7113bd3c4dd5","ios":"levelo://app?vid=cde832f5-61c9-4423-ac99-7113bd3c4dd5"},"vehicle_type_id":"4","last_reported":1779013087,"current_range_meters":6800,"station_id":"ce4bhh12rcd13ifvqff0","pricing_plan_id":"cebpf4jnsgd1na2vs0mg"},{"bike_id":"a8222677-82b2-4472-800a-515258994e8a","system_id":"levelo_inurba_marseille","lat":43.23976,"lon":5.36609,"is_reserved":false,"is_disabled":false,"rental_uris":{"android":"levelo://app?vid=a8222677-82b2-4472-800a-515258994e8a","ios":"levelo://app?vid=a8222677-82b2-4472-800a-515258994e8a"},"vehicle_type_id":"4","last_reported":1779013087,"current_range_meters":6800,"station_id":"ce4bhi12rcd13ifvqfp0","pricing_plan_id":"cebpf4jnsgd1na2vs0mg"},{"bike_id":"4c413ff0-9932-4021-80d3-e9f9d5f0bdf7","system_id":"levelo_inurba_marseille","lat":43.28676,"lon":5.38656,"is_reserved":false,"is_disabled":false,"rental_uris":{"android":"levelo://app?vid=4c413ff0-9932-4021-80d3-e9f9d5f0bdf7","ios":"levelo://app?vid=4c413ff0-9932-4021-80d3-e9f9d5f0bdf7"},"vehicle_type_id":"4","last_reported":1779013087,"current_range_meters":6800,"station_id":"ce4bh492rcd13ifvqdug","pricing_plan_id":"cebpf4jnsgd1na2vs0mg"},{"bike_id":"f1489f24-eb0d-4f47-a199-01b2b7e3cea5","system_id":"levelo_inurba_marseille","lat":43.30356,"lon":5.42459,"is_reserved":false,"is_disabled":false,"rental_uris":{"android":"levelo://app?vid=f1489f24-eb0d-4f47-a199-01b2b7e3cea5","ios":"levelo://app?vid=f1489f24-eb0d-4f47-a199-01b2b7e3cea5"},"vehicle_type_id":"4","last_reported":1779013087,"current_range_meters":6800,"station_id":"ce4bhoh2rcd13ifvqh6g","pricing_plan_id":"cebpf4jnsgd1na2vs0mg"},{"bike_id":"ae8622c3-2a1f-4fdf-a659-933c6d80c9e4","system_id":"levelo_inurba_marseille","lat":43.29761,"lon":5.42763,"is_reserved":false,"is_disabled":false,"rental_uris":{"android":"levelo://app?vid=ae8622c3-2a1f-4fdf-a659-933c6d80c9e4","ios":"levelo://app?vid=ae8622c3-2a1f-4fdf-a659-933c6d80c9e4"},"vehicle_type_id":"4","last_reported":1779013087,"current_range_meters":6800,"station_id":"st_d3md5207bmas73dh9klg","pricing_plan_id":"cebpf4jnsgd1na2vs0mg"},{"bike_id":"4650c798-2816-4e70-b26a-82edb7f48e7e","system_id":"levelo_inurba_marseille","lat":43.265589,"lon":5.372839,"is_reserved":false,"is_disabled":false,"rental_uris":{"android":"levelo://app?vid=4650c798-2816-4e70-b26a-82edb7f48e7e","ios":"levelo://app?vid=4650c798-2816-4e70-b26a-82edb7f48e7e"},"vehicle_type_id":"4","last_reported":1779013087,"current_range_meters":6800,"station_id":"ce4bhg12rcd13ifvqf70","pricing_plan_id":"cebpf4jnsgd1na2vs0mg"},{"bike_id":"d3f8cb08-f3cd-416b-953a-eae8db0a255e","system_id":"levelo_inurba_marseille","lat":43.26811,"lon":5.40795,"is_reserved":false,"is_disabled":false,"rental_uris":{"android":"levelo://app?vid=d3f8cb08-f3cd-416b-953a-eae8db0a255e","ios":"levelo://app?vid=d3f8cb08-f3cd-416b-953a-eae8db0a255e"},"vehicle_type_id":"4","last_reported":1779013087,"current_range_meters":6800,"station_id":"","pricing_plan_id":"cebpf4jnsgd1na2vs0mg"},{"bike_id":"23c89db2-3379-4954-bc52-79e3a03adb59","system_id":"levelo_inurba_marseille","lat":43.27369,"lon":5.36249,"is_reserved":false,"is_disabled":false,"rental_uris":{"android":"levelo://app?vid=23c89db2-3379-4954-bc52-79e3a03adb59","ios":"levelo://app?vid=23c89db2-3379-4954-bc52-79e3a03adb59"},"vehicle_type_id":"4","last_reported":1779013087,"current_range_meters":6800,"station_id":"ce4bhbh2rcd13ifvqeo0","pricing_plan_id":"cebpf4jnsgd1na2vs0mg"},{"bike_id":"6782879d-7a26-4a17-9e4c-b136cf84caef","system_id":"levelo_inurba_marseille","lat":43.26557,"lon":5.372847,"is_reserved":false,"is_disabled":false,"rental_uris":{"android":"levelo://app?vid=6782879d-7a26-4a17-9e4c-b136cf84caef","ios":"levelo://app?vid=6782879d-7a26-4a17-9e4c-b136cf84caef"},"vehicle_type_id":"4","last_reported":1779013087,"current_range_meters":6800,"station_id":"ce4bhg12rcd13ifvqf70","pricing_plan_id":"cebpf4jnsgd1na2vs0mg"},{"bike_id":"60e91d52-408f-41b9-86d8-fcefe5d5a260","system_id":"levelo_inurba_marseille","lat":43.28699,"lon":5.46688,"is_reserved":false,"is_disabled":false,"rental_uris":{"android":"levelo://app?vid=60e91d52-408f-41b9-86d8-fcefe5d5a260","ios":"levelo://app?vid=60e91d52-408f-41b9-86d8-fcefe5d5a260"},"vehicle_type_id":"4","last_reported":1779013087,"current_range_meters":6800,"station_id":"st_d6tc3vkotcvc738tfjhg","pricing_plan_id":"cebpf4jnsgd1na2vs0mg"},{"bike_id":"8837b884-d799-4a91-aa20-2eea6f1ef20d","system_id":"levelo_inurba_marseille","lat":43.29662,"lon":5.37847,"is_reserved":false,"is_disabled":false,"rental_uris":{"android":"levelo://app?vid=8837b884-d799-4a91-aa20-2eea6f1ef20d","ios":"levelo://app?vid=8837b884-d799-4a91-aa20-2eea6f1ef20d"},"vehicle_type_id":"4","last_reported":1779013087,"current_range_meters":7200,"station_id":"","pricing_plan_id":"cebpf4jnsgd1na2vs0mg"},{"bike_id":"bbc4e2bb-f7e6-4845-9c25-f29325713eba","system_id":"levelo_inurba_marseille","lat":43.27362,"lon":5.36224,"is_reserved":false,"is_disabled":false,"rental_uris":{"android":"levelo://app?vid=bbc4e2bb-f7e6-4845-9c25-f29325713eba","ios":"levelo://app?vid=bbc4e2bb-f7e6-4845-9c25-f29325713eba"},"vehicle_type_id":"4","last_reported":1779013087,"current_range_meters":7200,"station_id":"ce4bhbh2rcd13ifvqeo0","pricing_plan_id":"cebpf4jnsgd1na2vs0mg"},{"bike_id":"032fbbce-f9a4-4bef-952a-0977318b2380","system_id":"levelo_inurba_marseille","lat":43.248,"lon":5.37455,"is_reserved":false,"is_disabled":false,"rental_uris":{"android":"levelo://app?vid=032fbbce-f9a4-4bef-952a-0977318b2380","ios":"levelo://app?vid=032fbbce-f9a4-4bef-952a-0977318b2380"},"vehicle_type_id":"4","last_reported":1779013087,"current_range_meters":7200,"station_id":"ce4bhgh2rcd13ifvqfb0","pricing_plan_id":"cebpf4jnsgd1na2vs0mg"},{"bike_id":"4205fef4-5bd1-439a-b6c6-88b1921fd314","system_id":"levelo_inurba_marseille","lat":43.22564,"lon":5.41623,"is_reserved":false,"is_disabled":false,"rental_uris":{"android":"levelo://app?vid=4205fef4-5bd1-439a-b6c6-88b1921fd314","ios":"levelo://app?vid=4205fef4-5bd1-439a-b6c6-88b1921fd314"},"vehicle_type_id":"4","last_reported":1779013087,"current_range_meters":7200,"station_id":"st_d2o4gvlbi1j2169b742g","pricing_plan_id":"cebpf4jnsgd1na2vs0mg"},{"bike_id":"d2b2c17a-ea55-4d09-b1b4-c2cd5226f326","system_id":"levelo_inurba_marseille","lat":43.27365,"lon":5.36252,"is_reserved":false,"is_disabled":false,"rental_uris":{"android":"levelo://app?vid=d2b2c17a-ea55-4d09-b1b4-c2cd5226f326","ios":"levelo://app?vid=d2b2c17a-ea55-4d09-b1b4-c2cd5226f326"},"vehicle_type_id":"4","last_reported":1779013087,"current_range_meters":7200,"station_id":"ce4bhbh2rcd13ifvqeo0","pricing_plan_id":"cebpf4jnsgd1na2vs0mg"},{"bike_id":"898ea1b1-38c7-4a45-9b94-20d8ecc43cb6","system_id":"levelo_inurba_marseille","lat":43.24807,"lon":5.37446,"is_reserved":false,"is_disabled":false,"rental_uris":{"android":"levelo://app?vid=898ea1b1-38c7-4a45-9b94-20d8ecc43cb6","ios":"levelo://app?vid=898ea1b1-38c7-4a45-9b94-20d8ecc43cb6"},"vehicle_type_id":"4","last_reported":1779013087,"current_range_meters":7200,"station_id":"ce4bhgh2rcd13ifvqfb0","pricing_plan_id":"cebpf4jnsgd1na2vs0mg"},{"bike_id":"0e7bc89c-a25b-417d-b70d-75f2b4a97038","system_id":"levelo_inurba_marseille","lat":43.24649,"lon":5.3817,"is_reserved":false,"is_disabled":false,"rental_uris":{"android":"levelo://app?vid=0e7bc89c-a25b-417d-b70d-75f2b4a97038","ios":"levelo://app?vid=0e7bc89c-a25b-417d-b70d-75f2b4a97038"},"vehicle_type_id":"4","last_reported":1779013087,"current_range_meters":7200,"station_id":"ce4bhih2rcd13ifvqfr0","pricing_plan_id":"cebpf4jnsgd1na2vs0mg"},{"bike_id":"73a80fbd-038a-4f9a-a31f-0fdd85964aac","system_id":"levelo_inurba_marseille","lat":43.290836,"lon":5.37143,"is_reserved":false,"is_disabled":false,"rental_uris":{"android":"levelo://app?vid=73a80fbd-038a-4f9a-a31f-0fdd85964aac","ios":"levelo://app?vid=73a80fbd-038a-4f9a-a31f-0fdd85964aac"},"vehicle_type_id":"4","last_reported":1779013087,"current_range_meters":7200,"station_id":"ce4bh5p2rcd13ifvqe4g","pricing_plan_id":"cebpf4jnsgd1na2vs0mg"},{"bike_id":"bca26c93-c769-4928-af0a-dc9dfc377ede","system_id":"levelo_inurba_marseille","lat":43.29262,"lon":5.37612,"is_reserved":false,"is_disabled":true,"rental_uris":{"android":"levelo://app?vid=bca26c93-c769-4928-af0a-dc9dfc377ede","ios":"levelo://app?vid=bca26c93-c769-4928-af0a-dc9dfc377ede"},"vehicle_type_id":"4","last_reported":1779013087,"current_range_meters":7200,"station_id":"ce4bgi12rcd13ifvqb80","pricing_plan_id":"cebpf4jnsgd1na2vs0mg"},{"bike_id":"6309bb83-16de-49b5-b945-ff87fed43bc6","system_id":"levelo_inurba_marseille","lat":43.21204,"lon":5.35067,"is_reserved":false,"is_disabled":false,"rental_uris":{"android":"levelo://app?vid=6309bb83-16de-49b5-b945-ff87fed43bc6","ios":"levelo://app?vid=6309bb83-16de-49b5-b945-ff87fed43bc6"},"vehicle_type_id":"4","last_reported":1779013087,"current_range_meters":7200,"station_id":"st_cvj6sg6p6f1abm77japg","pricing_plan_id":"cebpf4jnsgd1na2vs0mg"},{"bike_id":"33a8c2e2-02c3-42f2-9f5e-df7fdca1e263","system_id":"levelo_inurba_marseille","lat":43.286,"lon":5.36398,"is_reserved":false,"is_disabled":false,"rental_uris":{"android":"levelo://app?vid=33a8c2e2-02c3-42f2-9f5e-df7fdca1e263","ios":"levelo://app?vid=33a8c2e2-02c3-42f2-9f5e-df7fdca1e263"},"vehicle_type_id":"4","last_reported":1779013087,"current_range_meters":7200,"station_id":"","pricing_plan_id":"cebpf4jnsgd1na2vs0mg"},{"bike_id":"612f032b-ccdb-476c-b066-aa7711d330a6","system_id":"levelo_inurba_marseille","lat":43.25495,"lon":5.37649,"is_reserved":false,"is_disabled":false,"rental_uris":{"android":"levelo://app?vid=612f032b-ccdb-476c-b066-aa7711d330a6","ios":"levelo://app?vid=612f032b-ccdb-476c-b066-aa7711d330a6"},"vehicle_type_id":"4","last_reported":1779013087,"current_range_meters":7200,"station_id":"ce4bhh12rcd13ifvqff0","pricing_plan_id":"cebpf4jnsgd1na2vs0mg"},{"bike_id":"a72a8680-05df-46ea-a8d1-7be23dcf6f78","system_id":"levelo_inurba_marseille","lat":43.24936,"lon":5.38924,"is_reserved":false,"is_disabled":false,"rental_uris":{"android":"levelo://app?vid=a72a8680-05df-46ea-a8d1-7be23dcf6f78","ios":"levelo://app?vid=a72a8680-05df-46ea-a8d1-7be23dcf6f78"},"vehicle_type_id":"4","last_reported":1779013087,"current_range_meters":7200,"station_id":"","pricing_plan_id":"cebpf4jnsgd1na2vs0mg"},{"bike_id":"b23ea0d7-6111-436e-b31d-88cf9deb47e0","system_id":"levelo_inurba_marseille","lat":43.24398,"lon":5.37032,"is_reserved":false,"is_disabled":false,"rental_uris":{"android":"levelo://app?vid=b23ea0d7-6111-436e-b31d-88cf9deb47e0","ios":"levelo://app?vid=b23ea0d7-6111-436e-b31d-88cf9deb47e0"},"vehicle_type_id":"4","last_reported":1779013087,"current_range_meters":7200,"station_id":"ce4bhhh2rcd13ifvqfk0","pricing_plan_id":"cebpf4jnsgd1na2vs0mg"},{"bike_id":"7459919c-7f08-455e-a31c-3cdf295400d3","system_id":"levelo_inurba_marseille","lat":43.2862,"lon":5.35089,"is_reserved":false,"is_disabled":false,"rental_uris":{"android":"levelo://app?vid=7459919c-7f08-455e-a31c-3cdf295400d3","ios":"levelo://app?vid=7459919c-7f08-455e-a31c-3cdf295400d3"},"vehicle_type_id":"4","last_reported":1779013087,"current_range_meters":7200,"station_id":"","pricing_plan_id":"cebpf4jnsgd1na2vs0mg"},{"bike_id":"03d3e6af-cb75-4642-9336-e0efc57dd397","system_id":"levelo_inurba_marseille","lat":43.24798,"lon":5.37468,"is_reserved":false,"is_disabled":false,"rental_uris":{"android":"levelo://app?vid=03d3e6af-cb75-4642-9336-e0efc57dd397","ios":"levelo://app?vid=03d3e6af-cb75-4642-9336-e0efc57dd397"},"vehicle_type_id":"4","last_reported":1779013087,"current_range_meters":7200,"station_id":"ce4bhgh2rcd13ifvqfb0","pricing_plan_id":"cebpf4jnsgd1na2vs0mg"},{"bike_id":"6c1823c0-8df3-46a7-941e-d2079e6cfbe0","system_id":"levelo_inurba_marseille","lat":43.28623,"lon":5.35114,"is_reserved":false,"is_disabled":false,"rental_uris":{"android":"levelo://app?vid=6c1823c0-8df3-46a7-941e-d2079e6cfbe0","ios":"levelo://app?vid=6c1823c0-8df3-46a7-941e-d2079e6cfbe0"},"vehicle_type_id":"4","last_reported":1779013087,"current_range_meters":7200,"station_id":"ce4bhch2rcd13ifvqeug","pricing_plan_id":"cebpf4jnsgd1na2vs0mg"},{"bike_id":"27aed03a-8374-4347-913e-9b1e82ca96ff","system_id":"levelo_inurba_marseille","lat":43.24153,"lon":5.3639,"is_reserved":false,"is_disabled":false,"rental_uris":{"android":"levelo://app?vid=27aed03a-8374-4347-913e-9b1e82ca96ff","ios":"levelo://app?vid=27aed03a-8374-4347-913e-9b1e82ca96ff"},"vehicle_type_id":"4","last_reported":1779013087,"current_range_meters":8000,"station_id":"cpo36qri1sfpv3e86is0","pricing_plan_id":"cebpf4jnsgd1na2vs0mg"},{"bike_id":"d6e6e32a-ba56-415f-9ef6-78535eab1df5","system_id":"levelo_inurba_marseille","lat":43.292801,"lon":5.401149,"is_reserved":false,"is_disabled":true,"rental_uris":{"android":"levelo://app?vid=d6e6e32a-ba56-415f-9ef6-78535eab1df5","ios":"levelo://app?vid=d6e6e32a-ba56-415f-9ef6-78535eab1df5"},"vehicle_type_id":"4","last_reported":1779013087,"current_range_meters":8000,"station_id":"ce4bh312rcd13ifvqdk0","pricing_plan_id":"cebpf4jnsgd1na2vs0mg"},{"bike_id":"a773650a-7c22-432a-a05a-af2b3f7af6fb","system_id":"levelo_inurba_marseille","lat":43.29575,"lon":5.37499,"is_reserved":false,"is_disabled":false,"rental_uris":{"android":"levelo://app?vid=a773650a-7c22-432a-a05a-af2b3f7af6fb","ios":"levelo://app?vid=a773650a-7c22-432a-a05a-af2b3f7af6fb"},"vehicle_type_id":"4","last_reported":1779013087,"current_range_meters":8000,"station_id":"","pricing_plan_id":"cebpf4jnsgd1na2vs0mg"},{"bike_id":"cda8c0d3-620a-4bac-a2bd-838174f10fb5","system_id":"levelo_inurba_marseille","lat":43.28645,"lon":5.38678,"is_reserved":false,"is_disabled":false,"rental_uris":{"android":"levelo://app?vid=cda8c0d3-620a-4bac-a2bd-838174f10fb5","ios":"levelo://app?vid=cda8c0d3-620a-4bac-a2bd-838174f10fb5"},"vehicle_type_id":"4","last_reported":1779013087,"current_range_meters":8000,"station_id":"ce4bh492rcd13ifvqdug","pricing_plan_id":"cebpf4jnsgd1na2vs0mg"},{"bike_id":"4d31ed6e-13e0-4959-aa6c-cce6ffc3f7ff","system_id":"levelo_inurba_marseille","lat":43.27509,"lon":5.41579,"is_reserved":false,"is_disabled":false,"rental_uris":{"android":"levelo://app?vid=4d31ed6e-13e0-4959-aa6c-cce6ffc3f7ff","ios":"levelo://app?vid=4d31ed6e-13e0-4959-aa6c-cce6ffc3f7ff"},"vehicle_type_id":"4","last_reported":1779013087,"current_range_meters":8000,"station_id":"st_d6im8g6chgec73a5pndg","pricing_plan_id":"cebpf4jnsgd1na2vs0mg"},{"bike_id":"09c34163-d595-4596-8f7e-711c2b4f3ba4","system_id":"levelo_inurba_marseille","lat":43.29806,"lon":5.38078,"is_reserved":false,"is_disabled":false,"rental_uris":{"android":"levelo://app?vid=09c34163-d595-4596-8f7e-711c2b4f3ba4","ios":"levelo://app?vid=09c34163-d595-4596-8f7e-711c2b4f3ba4"},"vehicle_type_id":"4","last_reported":1779013087,"current_range_meters":8000,"station_id":"ce4bgip2rcd13ifvqbb0","pricing_plan_id":"cebpf4jnsgd1na2vs0mg"},{"bike_id":"1cf44d77-97a6-454d-b916-061f5211f97e","system_id":"levelo_inurba_marseille","lat":43.290011,"lon":5.359264,"is_reserved":false,"is_disabled":false,"rental_uris":{"android":"levelo://app?vid=1cf44d77-97a6-454d-b916-061f5211f97e","ios":"levelo://app?vid=1cf44d77-97a6-454d-b916-061f5211f97e"},"vehicle_type_id":"4","last_reported":1779013087,"current_range_meters":8000,"station_id":"ce4bha92rcd13ifvqeg0","pricing_plan_id":"cebpf4jnsgd1na2vs0mg"},{"bike_id":"d7ee4d21-e079-4dcd-88c2-d5121789a4b2","system_id":"levelo_inurba_marseille","lat":43.24332,"lon":5.38432,"is_reserved":false,"is_disabled":false,"rental_uris":{"android":"levelo://app?vid=d7ee4d21-e079-4dcd-88c2-d5121789a4b2","ios":"levelo://app?vid=d7ee4d21-e079-4dcd-88c2-d5121789a4b2"},"vehicle_type_id":"4","last_reported":1779013087,"current_range_meters":8000,"station_id":"","pricing_plan_id":"cebpf4jnsgd1na2vs0mg"},{"bike_id":"e6bbcb34-20bf-4ce5-b5b7-6243a17e2e8d","system_id":"levelo_inurba_marseille","lat":43.21191,"lon":5.35076,"is_reserved":false,"is_disabled":false,"rental_uris":{"android":"levelo://app?vid=e6bbcb34-20bf-4ce5-b5b7-6243a17e2e8d","ios":"levelo://app?vid=e6bbcb34-20bf-4ce5-b5b7-6243a17e2e8d"},"vehicle_type_id":"4","last_reported":1779013087,"current_range_meters":8000,"station_id":"st_cvj6sg6p6f1abm77japg","pricing_plan_id":"cebpf4jnsgd1na2vs0mg"},{"bike_id":"288a4726-1258-46ec-a70f-c345081256cd","system_id":"levelo_inurba_marseille","lat":43.24168,"lon":5.36401,"is_reserved":false,"is_disabled":false,"rental_uris":{"android":"levelo://app?vid=288a4726-1258-46ec-a70f-c345081256cd","ios":"levelo://app?vid=288a4726-1258-46ec-a70f-c345081256cd"},"vehicle_type_id":"4","last_reported":1779013087,"current_range_meters":8000,"station_id":"cpo36qri1sfpv3e86is0","pricing_plan_id":"cebpf4jnsgd1na2vs0mg"},{"bike_id":"f12dce49-227a-48b9-9d64-195abb2796ea","system_id":"levelo_inurba_marseille","lat":43.2416,"lon":5.36389,"is_reserved":false,"is_disabled":false,"rental_uris":{"android":"levelo://app?vid=f12dce49-227a-48b9-9d64-195abb2796ea","ios":"levelo://app?vid=f12dce49-227a-48b9-9d64-195abb2796ea"},"vehicle_type_id":"4","last_reported":1779013087,"current_range_meters":8000,"station_id":"cpo36qri1sfpv3e86is0","pricing_plan_id":"cebpf4jnsgd1na2vs0mg"},{"bike_id":"c2b6143b-d098-4b2c-8058-799b831dba6b","system_id":"levelo_inurba_marseille","lat":43.2477,"lon":5.3748,"is_reserved":false,"is_disabled":false,"rental_uris":{"android":"levelo://app?vid=c2b6143b-d098-4b2c-8058-799b831dba6b","ios":"levelo://app?vid=c2b6143b-d098-4b2c-8058-799b831dba6b"},"vehicle_type_id":"4","last_reported":1779013087,"current_range_meters":8000,"station_id":"ce4bhgh2rcd13ifvqfb0","pricing_plan_id":"cebpf4jnsgd1na2vs0mg"},{"bike_id":"fdf637e0-86f8-4268-a3cb-03a21f9f5d79","system_id":"levelo_inurba_marseille","lat":43.26625,"lon":5.38158,"is_reserved":false,"is_disabled":false,"rental_uris":{"android":"levelo://app?vid=fdf637e0-86f8-4268-a3cb-03a21f9f5d79","ios":"levelo://app?vid=fdf637e0-86f8-4268-a3cb-03a21f9f5d79"},"vehicle_type_id":"4","last_reported":1779013087,"current_range_meters":8000,"station_id":"","pricing_plan_id":"cebpf4jnsgd1na2vs0mg"},{"bike_id":"df4f184e-16c8-4c32-b6b5-5ed8d07fffef","system_id":"levelo_inurba_marseille","lat":43.29337,"lon":5.40272,"is_reserved":false,"is_disabled":false,"rental_uris":{"android":"levelo://app?vid=df4f184e-16c8-4c32-b6b5-5ed8d07fffef","ios":"levelo://app?vid=df4f184e-16c8-4c32-b6b5-5ed8d07fffef"},"vehicle_type_id":"4","last_reported":1779013087,"current_range_meters":8000,"station_id":"","pricing_plan_id":"cebpf4jnsgd1na2vs0mg"},{"bike_id":"125d731f-ad72-4d6c-962c-f3f5ee5e75c0","system_id":"levelo_inurba_marseille","lat":43.28422,"lon":5.37495,"is_reserved":false,"is_disabled":false,"rental_uris":{"android":"levelo://app?vid=125d731f-ad72-4d6c-962c-f3f5ee5e75c0","ios":"levelo://app?vid=125d731f-ad72-4d6c-962c-f3f5ee5e75c0"},"vehicle_type_id":"4","last_reported":1779013087,"current_range_meters":8000,"station_id":"ce4bh412rcd13ifvqds0","pricing_plan_id":"cebpf4jnsgd1na2vs0mg"},{"bike_id":"e4a68cfa-90bf-4d02-8a71-80228ddf9cac","system_id":"levelo_inurba_marseille","lat":43.32104,"lon":5.36785,"is_reserved":false,"is_disabled":false,"rental_uris":{"android":"levelo://app?vid=e4a68cfa-90bf-4d02-8a71-80228ddf9cac","ios":"levelo://app?vid=e4a68cfa-90bf-4d02-8a71-80228ddf9cac"},"vehicle_type_id":"4","last_reported":1779013087,"current_range_meters":8000,"station_id":"ce4bhrh2rcd13ifvqhug","pricing_plan_id":"cebpf4jnsgd1na2vs0mg"},{"bike_id":"e161ba30-d581-44ab-b81c-5f59de5d89c7","system_id":"levelo_inurba_marseille","lat":43.23913,"lon":5.37432,"is_reserved":false,"is_disabled":true,"rental_uris":{"android":"levelo://app?vid=e161ba30-d581-44ab-b81c-5f59de5d89c7","ios":"levelo://app?vid=e161ba30-d581-44ab-b81c-5f59de5d89c7"},"vehicle_type_id":"4","last_reported":1779013087,"current_range_meters":8000,"station_id":"st_d6sm7csbq4hs73f8fpjg","pricing_plan_id":"cebpf4jnsgd1na2vs0mg"},{"bike_id":"b8e5fe81-9167-43b2-abff-bfa3ae9ce47c","system_id":"levelo_inurba_marseille","lat":43.33154,"lon":5.37683,"is_reserved":false,"is_disabled":false,"rental_uris":{"android":"levelo://app?vid=b8e5fe81-9167-43b2-abff-bfa3ae9ce47c","ios":"levelo://app?vid=b8e5fe81-9167-43b2-abff-bfa3ae9ce47c"},"vehicle_type_id":"4","last_reported":1779013087,"current_range_meters":8000,"station_id":"st_d46cu089ee8s73dldbu0","pricing_plan_id":"cebpf4jnsgd1na2vs0mg"},{"bike_id":"7e819ae7-df7e-4297-b3ea-562b578e4346","system_id":"levelo_inurba_marseille","lat":43.23965,"lon":5.36629,"is_reserved":false,"is_disabled":false,"rental_uris":{"android":"levelo://app?vid=7e819ae7-df7e-4297-b3ea-562b578e4346","ios":"levelo://app?vid=7e819ae7-df7e-4297-b3ea-562b578e4346"},"vehicle_type_id":"4","last_reported":1779013087,"current_range_meters":8000,"station_id":"ce4bhi12rcd13ifvqfp0","pricing_plan_id":"cebpf4jnsgd1na2vs0mg"},{"bike_id":"76ee4074-9696-4c4d-b584-29f98234f852","system_id":"levelo_inurba_marseille","lat":43.24185,"lon":5.36365,"is_reserved":false,"is_disabled":false,"rental_uris":{"android":"levelo://app?vid=76ee4074-9696-4c4d-b584-29f98234f852","ios":"levelo://app?vid=76ee4074-9696-4c4d-b584-29f98234f852"},"vehicle_type_id":"4","last_reported":1779013087,"current_range_meters":8000,"station_id":"cpo36qri1sfpv3e86is0","pricing_plan_id":"cebpf4jnsgd1na2vs0mg"},{"bike_id":"f66c1f35-c8c5-4631-922e-044e3147355b","system_id":"levelo_inurba_marseille","lat":43.32107,"lon":5.36778,"is_reserved":false,"is_disabled":false,"rental_uris":{"android":"levelo://app?vid=f66c1f35-c8c5-4631-922e-044e3147355b","ios":"levelo://app?vid=f66c1f35-c8c5-4631-922e-044e3147355b"},"vehicle_type_id":"4","last_reported":1779013087,"current_range_meters":8000,"station_id":"ce4bhrh2rcd13ifvqhug","pricing_plan_id":"cebpf4jnsgd1na2vs0mg"},{"bike_id":"9dd185a7-e00d-40de-8a57-3d4541a28e4c","system_id":"levelo_inurba_marseille","lat":43.21737,"lon":5.34609,"is_reserved":false,"is_disabled":false,"rental_uris":{"android":"levelo://app?vid=9dd185a7-e00d-40de-8a57-3d4541a28e4c","ios":"levelo://app?vid=9dd185a7-e00d-40de-8a57-3d4541a28e4c"},"vehicle_type_id":"4","last_reported":1779013087,"current_range_meters":8000,"station_id":"st_cvj6r9ubvosntc0bgbag","pricing_plan_id":"cebpf4jnsgd1na2vs0mg"},{"bike_id":"4b27839d-9a04-406f-9540-246382bf47cf","system_id":"levelo_inurba_marseille","lat":43.26607,"lon":5.39682,"is_reserved":false,"is_disabled":false,"rental_uris":{"android":"levelo://app?vid=4b27839d-9a04-406f-9540-246382bf47cf","ios":"levelo://app?vid=4b27839d-9a04-406f-9540-246382bf47cf"},"vehicle_type_id":"4","last_reported":1779013087,"current_range_meters":8400,"station_id":"","pricing_plan_id":"cebpf4jnsgd1na2vs0mg"},{"bike_id":"548c531f-8dd2-4ca6-ad8b-07f3c741527f","system_id":"levelo_inurba_marseille","lat":43.26783,"lon":5.39404,"is_reserved":false,"is_disabled":false,"rental_uris":{"android":"levelo://app?vid=548c531f-8dd2-4ca6-ad8b-07f3c741527f","ios":"levelo://app?vid=548c531f-8dd2-4ca6-ad8b-07f3c741527f"},"vehicle_type_id":"4","last_reported":1779013087,"current_range_meters":8400,"station_id":"ce4bhh12rcd13ifvqfg0","pricing_plan_id":"cebpf4jnsgd1na2vs0mg"},{"bike_id":"e6adddb4-cf5a-45f0-9c7a-79e04b64ad00","system_id":"levelo_inurba_marseille","lat":43.23194,"lon":5.39965,"is_reserved":false,"is_disabled":false,"rental_uris":{"android":"levelo://app?vid=e6adddb4-cf5a-45f0-9c7a-79e04b64ad00","ios":"levelo://app?vid=e6adddb4-cf5a-45f0-9c7a-79e04b64ad00"},"vehicle_type_id":"4","last_reported":1779013087,"current_range_meters":8400,"station_id":"ce4bhn12rcd13ifvqgqg","pricing_plan_id":"cebpf4jnsgd1na2vs0mg"},{"bike_id":"1569d417-2c8c-46b9-b389-8c80f587bd9b","system_id":"levelo_inurba_marseille","lat":43.29433,"lon":5.37593,"is_reserved":false,"is_disabled":false,"rental_uris":{"android":"levelo://app?vid=1569d417-2c8c-46b9-b389-8c80f587bd9b","ios":"levelo://app?vid=1569d417-2c8c-46b9-b389-8c80f587bd9b"},"vehicle_type_id":"4","last_reported":1779013087,"current_range_meters":8400,"station_id":"","pricing_plan_id":"cebpf4jnsgd1na2vs0mg"},{"bike_id":"abc99932-c216-422a-aab0-a9df05a5d1ea","system_id":"levelo_inurba_marseille","lat":43.30957,"lon":5.39034,"is_reserved":false,"is_disabled":true,"rental_uris":{"android":"levelo://app?vid=abc99932-c216-422a-aab0-a9df05a5d1ea","ios":"levelo://app?vid=abc99932-c216-422a-aab0-a9df05a5d1ea"},"vehicle_type_id":"4","last_reported":1779013087,"current_range_meters":8400,"station_id":"ce4bgup2rcd13ifvqco0","pricing_plan_id":"cebpf4jnsgd1na2vs0mg"},{"bike_id":"90cdffea-1c50-4ffd-8284-48fc41d50102","system_id":"levelo_inurba_marseille","lat":43.28907,"lon":5.42523,"is_reserved":false,"is_disabled":false,"rental_uris":{"android":"levelo://app?vid=90cdffea-1c50-4ffd-8284-48fc41d50102","ios":"levelo://app?vid=90cdffea-1c50-4ffd-8284-48fc41d50102"},"vehicle_type_id":"4","last_reported":1779013087,"current_range_meters":8400,"station_id":"","pricing_plan_id":"cebpf4jnsgd1na2vs0mg"},{"bike_id":"f996d1a5-8826-40b7-94d9-0b28d82e7c45","system_id":"levelo_inurba_marseille","lat":43.21234,"lon":5.35013,"is_reserved":false,"is_disabled":false,"rental_uris":{"android":"levelo://app?vid=f996d1a5-8826-40b7-94d9-0b28d82e7c45","ios":"levelo://app?vid=f996d1a5-8826-40b7-94d9-0b28d82e7c45"},"vehicle_type_id":"4","last_reported":1779013087,"current_range_meters":8400,"station_id":"","pricing_plan_id":"cebpf4jnsgd1na2vs0mg"},{"bike_id":"c2d9d8a7-d510-42d7-aeb7-b6e3b2a508fa","system_id":"levelo_inurba_marseille","lat":43.24651,"lon":5.38886,"is_reserved":false,"is_disabled":false,"rental_uris":{"android":"levelo://app?vid=c2d9d8a7-d510-42d7-aeb7-b6e3b2a508fa","ios":"levelo://app?vid=c2d9d8a7-d510-42d7-aeb7-b6e3b2a508fa"},"vehicle_type_id":"4","last_reported":1779013087,"current_range_meters":8400,"station_id":"ce4bhg12rcd13ifvqf60","pricing_plan_id":"cebpf4jnsgd1na2vs0mg"},{"bike_id":"05538a87-8ae7-43a8-a523-ae2a66a335d0","system_id":"levelo_inurba_marseille","lat":43.31048,"lon":5.37182,"is_reserved":false,"is_disabled":false,"rental_uris":{"android":"levelo://app?vid=05538a87-8ae7-43a8-a523-ae2a66a335d0","ios":"levelo://app?vid=05538a87-8ae7-43a8-a523-ae2a66a335d0"},"vehicle_type_id":"4","last_reported":1779013087,"current_range_meters":8400,"station_id":"st_d4kl2rp97mjs73e7tdfg","pricing_plan_id":"cebpf4jnsgd1na2vs0mg"},{"bike_id":"47f3d0a8-9d27-404a-af9f-48dcc9a0d973","system_id":"levelo_inurba_marseille","lat":43.29197,"lon":5.35794,"is_reserved":false,"is_disabled":false,"rental_uris":{"android":"levelo://app?vid=47f3d0a8-9d27-404a-af9f-48dcc9a0d973","ios":"levelo://app?vid=47f3d0a8-9d27-404a-af9f-48dcc9a0d973"},"vehicle_type_id":"4","last_reported":1779013087,"current_range_meters":8400,"station_id":"ce4bhb12rcd13ifvqel0","pricing_plan_id":"cebpf4jnsgd1na2vs0mg"},{"bike_id":"b2f7955a-0c1e-4f8a-a6ce-8e1fa1dfbae6","system_id":"levelo_inurba_marseille","lat":43.31489,"lon":5.37296,"is_reserved":false,"is_disabled":false,"rental_uris":{"android":"levelo://app?vid=b2f7955a-0c1e-4f8a-a6ce-8e1fa1dfbae6","ios":"levelo://app?vid=b2f7955a-0c1e-4f8a-a6ce-8e1fa1dfbae6"},"vehicle_type_id":"4","last_reported":1779013087,"current_range_meters":8400,"station_id":"ce4bgt12rcd13ifvqcd0","pricing_plan_id":"cebpf4jnsgd1na2vs0mg"},{"bike_id":"e16d5c40-3fc2-4f2d-ad3f-22d90cefeb5e","system_id":"levelo_inurba_marseille","lat":43.24187,"lon":5.3971,"is_reserved":false,"is_disabled":false,"rental_uris":{"android":"levelo://app?vid=e16d5c40-3fc2-4f2d-ad3f-22d90cefeb5e","ios":"levelo://app?vid=e16d5c40-3fc2-4f2d-ad3f-22d90cefeb5e"},"vehicle_type_id":"4","last_reported":1779013087,"current_range_meters":8400,"station_id":"ce4bhn12rcd13ifvqgpg","pricing_plan_id":"cebpf4jnsgd1na2vs0mg"},{"bike_id":"62b3362a-4297-4f99-b131-a33886f7d376","system_id":"levelo_inurba_marseille","lat":43.292254,"lon":5.3605,"is_reserved":false,"is_disabled":false,"rental_uris":{"android":"levelo://app?vid=62b3362a-4297-4f99-b131-a33886f7d376","ios":"levelo://app?vid=62b3362a-4297-4f99-b131-a33886f7d376"},"vehicle_type_id":"4","last_reported":1779013087,"current_range_meters":8400,"station_id":"ce4bhbh2rcd13ifvqeqg","pricing_plan_id":"cebpf4jnsgd1na2vs0mg"},{"bike_id":"b82c18d9-c5aa-4bb0-9404-19d838a33380","system_id":"levelo_inurba_marseille","lat":43.26378,"lon":5.41069,"is_reserved":false,"is_disabled":false,"rental_uris":{"android":"levelo://app?vid=b82c18d9-c5aa-4bb0-9404-19d838a33380","ios":"levelo://app?vid=b82c18d9-c5aa-4bb0-9404-19d838a33380"},"vehicle_type_id":"4","last_reported":1779013087,"current_range_meters":8400,"station_id":"st_d4e5ca6na9uc73bfl5fg","pricing_plan_id":"cebpf4jnsgd1na2vs0mg"},{"bike_id":"98b29b95-e9a4-4760-a23d-24855b7ec05d","system_id":"levelo_inurba_marseille","lat":43.3315,"lon":5.37685,"is_reserved":false,"is_disabled":false,"rental_uris":{"android":"levelo://app?vid=98b29b95-e9a4-4760-a23d-24855b7ec05d","ios":"levelo://app?vid=98b29b95-e9a4-4760-a23d-24855b7ec05d"},"vehicle_type_id":"4","last_reported":1779013087,"current_range_meters":8400,"station_id":"st_d46cu089ee8s73dldbu0","pricing_plan_id":"cebpf4jnsgd1na2vs0mg"},{"bike_id":"440e9013-607c-4f4d-b713-9f880e611cce","system_id":"levelo_inurba_marseille","lat":43.30898,"lon":5.37164,"is_reserved":false,"is_disabled":false,"rental_uris":{"android":"levelo://app?vid=440e9013-607c-4f4d-b713-9f880e611cce","ios":"levelo://app?vid=440e9013-607c-4f4d-b713-9f880e611cce"},"vehicle_type_id":"4","last_reported":1779013087,"current_range_meters":8400,"station_id":"ce4bguh2rcd13ifvqckg","pricing_plan_id":"cebpf4jnsgd1na2vs0mg"},{"bike_id":"f2317ff5-4023-4f3e-8cda-2481600613ad","system_id":"levelo_inurba_marseille","lat":43.29811,"lon":5.41657,"is_reserved":false,"is_disabled":false,"rental_uris":{"android":"levelo://app?vid=f2317ff5-4023-4f3e-8cda-2481600613ad","ios":"levelo://app?vid=f2317ff5-4023-4f3e-8cda-2481600613ad"},"vehicle_type_id":"4","last_reported":1779013087,"current_range_meters":8400,"station_id":"","pricing_plan_id":"cebpf4jnsgd1na2vs0mg"},{"bike_id":"acfc96b6-b31d-4513-885d-4c2c21f2c38e","system_id":"levelo_inurba_marseille","lat":43.28115,"lon":5.37835,"is_reserved":false,"is_disabled":false,"rental_uris":{"android":"levelo://app?vid=acfc96b6-b31d-4513-885d-4c2c21f2c38e","ios":"levelo://app?vid=acfc96b6-b31d-4513-885d-4c2c21f2c38e"},"vehicle_type_id":"4","last_reported":1779013087,"current_range_meters":8400,"station_id":"ce4bha12rcd13ifvqee0","pricing_plan_id":"cebpf4jnsgd1na2vs0mg"},{"bike_id":"698b85c5-bf11-437e-913f-7d2243a0f74a","system_id":"levelo_inurba_marseille","lat":43.26234,"lon":5.3757,"is_reserved":false,"is_disabled":false,"rental_uris":{"android":"levelo://app?vid=698b85c5-bf11-437e-913f-7d2243a0f74a","ios":"levelo://app?vid=698b85c5-bf11-437e-913f-7d2243a0f74a"},"vehicle_type_id":"4","last_reported":1779013087,"current_range_meters":8400,"station_id":"","pricing_plan_id":"cebpf4jnsgd1na2vs0mg"},{"bike_id":"f28f123f-c9cd-4fce-a50e-2a8b5b919ae5","system_id":"levelo_inurba_marseille","lat":43.21736,"lon":5.34605,"is_reserved":false,"is_disabled":false,"rental_uris":{"android":"levelo://app?vid=f28f123f-c9cd-4fce-a50e-2a8b5b919ae5","ios":"levelo://app?vid=f28f123f-c9cd-4fce-a50e-2a8b5b919ae5"},"vehicle_type_id":"4","last_reported":1779013087,"current_range_meters":8400,"station_id":"st_cvj6r9ubvosntc0bgbag","pricing_plan_id":"cebpf4jnsgd1na2vs0mg"},{"bike_id":"e8c9cc4e-c37c-4a51-ab3c-15c0f69976d2","system_id":"levelo_inurba_marseille","lat":43.31236,"lon":5.37829,"is_reserved":false,"is_disabled":false,"rental_uris":{"android":"levelo://app?vid=e8c9cc4e-c37c-4a51-ab3c-15c0f69976d2","ios":"levelo://app?vid=e8c9cc4e-c37c-4a51-ab3c-15c0f69976d2"},"vehicle_type_id":"4","last_reported":1779013087,"current_range_meters":8400,"station_id":"","pricing_plan_id":"cebpf4jnsgd1na2vs0mg"},{"bike_id":"a5935413-9dce-40a4-98e8-29e8b657a7b6","system_id":"levelo_inurba_marseille","lat":43.29634,"lon":5.40596,"is_reserved":false,"is_disabled":false,"rental_uris":{"android":"levelo://app?vid=a5935413-9dce-40a4-98e8-29e8b657a7b6","ios":"levelo://app?vid=a5935413-9dce-40a4-98e8-29e8b657a7b6"},"vehicle_type_id":"4","last_reported":1779013087,"current_range_meters":8800,"station_id":"ce4bh0h2rcd13ifvqd60","pricing_plan_id":"cebpf4jnsgd1na2vs0mg"},{"bike_id":"fb111f7b-b356-43a1-adea-9de7c624eee1","system_id":"levelo_inurba_marseille","lat":43.2467,"lon":5.38146,"is_reserved":false,"is_disabled":false,"rental_uris":{"android":"levelo://app?vid=fb111f7b-b356-43a1-adea-9de7c624eee1","ios":"levelo://app?vid=fb111f7b-b356-43a1-adea-9de7c624eee1"},"vehicle_type_id":"4","last_reported":1779013087,"current_range_meters":8800,"station_id":"ce4bhih2rcd13ifvqfr0","pricing_plan_id":"cebpf4jnsgd1na2vs0mg"},{"bike_id":"e18be694-5d76-40ca-8d90-a42137ec1788","system_id":"levelo_inurba_marseille","lat":43.28602,"lon":5.35103,"is_reserved":false,"is_disabled":false,"rental_uris":{"android":"levelo://app?vid=e18be694-5d76-40ca-8d90-a42137ec1788","ios":"levelo://app?vid=e18be694-5d76-40ca-8d90-a42137ec1788"},"vehicle_type_id":"4","last_reported":1779013087,"current_range_meters":8800,"station_id":"ce4bhch2rcd13ifvqeug","pricing_plan_id":"cebpf4jnsgd1na2vs0mg"},{"bike_id":"daa8acdc-33d0-45b4-b768-4eae1fc6c4dc","system_id":"levelo_inurba_marseille","lat":43.27079,"lon":5.38317,"is_reserved":false,"is_disabled":false,"rental_uris":{"android":"levelo://app?vid=daa8acdc-33d0-45b4-b768-4eae1fc6c4dc","ios":"levelo://app?vid=daa8acdc-33d0-45b4-b768-4eae1fc6c4dc"},"vehicle_type_id":"4","last_reported":1779013087,"current_range_meters":8800,"station_id":"st_d3n2fo6cfp8s73cte1j0","pricing_plan_id":"cebpf4jnsgd1na2vs0mg"},{"bike_id":"3f9245e8-dda2-4c87-92ec-d0d25f0dd702","system_id":"levelo_inurba_marseille","lat":43.31923,"lon":5.36773,"is_reserved":false,"is_disabled":false,"rental_uris":{"android":"levelo://app?vid=3f9245e8-dda2-4c87-92ec-d0d25f0dd702","ios":"levelo://app?vid=3f9245e8-dda2-4c87-92ec-d0d25f0dd702"},"vehicle_type_id":"4","last_reported":1779013087,"current_range_meters":8800,"station_id":"st_d6o2h0d0559c73evc1b0","pricing_plan_id":"cebpf4jnsgd1na2vs0mg"},{"bike_id":"faee37e4-92c2-4ba8-8eb0-6758fa6b3abe","system_id":"levelo_inurba_marseille","lat":43.2117,"lon":5.35095,"is_reserved":false,"is_disabled":false,"rental_uris":{"android":"levelo://app?vid=faee37e4-92c2-4ba8-8eb0-6758fa6b3abe","ios":"levelo://app?vid=faee37e4-92c2-4ba8-8eb0-6758fa6b3abe"},"vehicle_type_id":"4","last_reported":1779013087,"current_range_meters":8800,"station_id":"st_cvj6sg6p6f1abm77japg","pricing_plan_id":"cebpf4jnsgd1na2vs0mg"},{"bike_id":"5258715e-8d47-4f56-af39-cdde97c8aae0","system_id":"levelo_inurba_marseille","lat":43.2916,"lon":5.40043,"is_reserved":false,"is_disabled":false,"rental_uris":{"android":"levelo://app?vid=5258715e-8d47-4f56-af39-cdde97c8aae0","ios":"levelo://app?vid=5258715e-8d47-4f56-af39-cdde97c8aae0"},"vehicle_type_id":"4","last_reported":1779013087,"current_range_meters":8800,"station_id":"","pricing_plan_id":"cebpf4jnsgd1na2vs0mg"},{"bike_id":"9deaa135-4098-42b8-a0c3-2ae7d7c4d16b","system_id":"levelo_inurba_marseille","lat":43.2997,"lon":5.36746,"is_reserved":false,"is_disabled":false,"rental_uris":{"android":"levelo://app?vid=9deaa135-4098-42b8-a0c3-2ae7d7c4d16b","ios":"levelo://app?vid=9deaa135-4098-42b8-a0c3-2ae7d7c4d16b"},"vehicle_type_id":"4","last_reported":1779013087,"current_range_meters":8800,"station_id":"","pricing_plan_id":"cebpf4jnsgd1na2vs0mg"},{"bike_id":"b156f0c5-9825-471d-a64b-9c3c1334e2e1","system_id":"levelo_inurba_marseille","lat":43.27438,"lon":5.39404,"is_reserved":false,"is_disabled":false,"rental_uris":{"android":"levelo://app?vid=b156f0c5-9825-471d-a64b-9c3c1334e2e1","ios":"levelo://app?vid=b156f0c5-9825-471d-a64b-9c3c1334e2e1"},"vehicle_type_id":"4","last_reported":1779013087,"current_range_meters":8800,"station_id":"ce4bhdp2rcd13ifvqf20","pricing_plan_id":"cebpf4jnsgd1na2vs0mg"},{"bike_id":"6c9da77d-1b01-4c86-8922-f3e76a447e4d","system_id":"levelo_inurba_marseille","lat":43.23965,"lon":5.36616,"is_reserved":false,"is_disabled":false,"rental_uris":{"android":"levelo://app?vid=6c9da77d-1b01-4c86-8922-f3e76a447e4d","ios":"levelo://app?vid=6c9da77d-1b01-4c86-8922-f3e76a447e4d"},"vehicle_type_id":"4","last_reported":1779013087,"current_range_meters":8800,"station_id":"ce4bhi12rcd13ifvqfp0","pricing_plan_id":"cebpf4jnsgd1na2vs0mg"},{"bike_id":"98a03e86-e01c-4fb9-b35a-a52b39a72471","system_id":"levelo_inurba_marseille","lat":43.22561,"lon":5.41629,"is_reserved":false,"is_disabled":false,"rental_uris":{"android":"levelo://app?vid=98a03e86-e01c-4fb9-b35a-a52b39a72471","ios":"levelo://app?vid=98a03e86-e01c-4fb9-b35a-a52b39a72471"},"vehicle_type_id":"4","last_reported":1779013087,"current_range_meters":8800,"station_id":"st_d2o4gvlbi1j2169b742g","pricing_plan_id":"cebpf4jnsgd1na2vs0mg"},{"bike_id":"fa002e4d-855f-4532-af2b-9ee1842380d7","system_id":"levelo_inurba_marseille","lat":43.30515,"lon":5.36563,"is_reserved":false,"is_disabled":false,"rental_uris":{"android":"levelo://app?vid=fa002e4d-855f-4532-af2b-9ee1842380d7","ios":"levelo://app?vid=fa002e4d-855f-4532-af2b-9ee1842380d7"},"vehicle_type_id":"4","last_reported":1779013087,"current_range_meters":8800,"station_id":"","pricing_plan_id":"cebpf4jnsgd1na2vs0mg"},{"bike_id":"6043e87c-43af-4bb6-a467-45887edbd8bb","system_id":"levelo_inurba_marseille","lat":43.24689,"lon":5.38168,"is_reserved":false,"is_disabled":false,"rental_uris":{"android":"levelo://app?vid=6043e87c-43af-4bb6-a467-45887edbd8bb","ios":"levelo://app?vid=6043e87c-43af-4bb6-a467-45887edbd8bb"},"vehicle_type_id":"4","last_reported":1779013087,"current_range_meters":8800,"station_id":"ce4bhih2rcd13ifvqfr0","pricing_plan_id":"cebpf4jnsgd1na2vs0mg"},{"bike_id":"98d92408-5984-4eb2-9a72-36474e4b4dc9","system_id":"levelo_inurba_marseille","lat":43.30208,"lon":5.39487,"is_reserved":false,"is_disabled":false,"rental_uris":{"android":"levelo://app?vid=98d92408-5984-4eb2-9a72-36474e4b4dc9","ios":"levelo://app?vid=98d92408-5984-4eb2-9a72-36474e4b4dc9"},"vehicle_type_id":"4","last_reported":1779013087,"current_range_meters":8800,"station_id":"ce4bh0p2rcd13ifvqd70","pricing_plan_id":"cebpf4jnsgd1na2vs0mg"},{"bike_id":"b8366a41-d88c-47f2-b2f5-4e8fa4df266f","system_id":"levelo_inurba_marseille","lat":43.296811,"lon":5.372875,"is_reserved":false,"is_disabled":false,"rental_uris":{"android":"levelo://app?vid=b8366a41-d88c-47f2-b2f5-4e8fa4df266f","ios":"levelo://app?vid=b8366a41-d88c-47f2-b2f5-4e8fa4df266f"},"vehicle_type_id":"4","last_reported":1779013087,"current_range_meters":8800,"station_id":"ce4bgk12rcd13ifvqbj0","pricing_plan_id":"cebpf4jnsgd1na2vs0mg"},{"bike_id":"5d7d847e-d6bf-44b4-8a7f-84ab3b8ede8e","system_id":"levelo_inurba_marseille","lat":43.26375,"lon":5.41062,"is_reserved":false,"is_disabled":false,"rental_uris":{"android":"levelo://app?vid=5d7d847e-d6bf-44b4-8a7f-84ab3b8ede8e","ios":"levelo://app?vid=5d7d847e-d6bf-44b4-8a7f-84ab3b8ede8e"},"vehicle_type_id":"4","last_reported":1779013087,"current_range_meters":8800,"station_id":"st_d4e5ca6na9uc73bfl5fg","pricing_plan_id":"cebpf4jnsgd1na2vs0mg"},{"bike_id":"68fcd666-2bd6-4178-b790-a8e4ae545292","system_id":"levelo_inurba_marseille","lat":43.2396,"lon":5.36626,"is_reserved":false,"is_disabled":false,"rental_uris":{"android":"levelo://app?vid=68fcd666-2bd6-4178-b790-a8e4ae545292","ios":"levelo://app?vid=68fcd666-2bd6-4178-b790-a8e4ae545292"},"vehicle_type_id":"4","last_reported":1779013087,"current_range_meters":9200,"station_id":"ce4bhi12rcd13ifvqfp0","pricing_plan_id":"cebpf4jnsgd1na2vs0mg"},{"bike_id":"0a112fbf-8b41-4590-a94f-d50d1b6d228a","system_id":"levelo_inurba_marseille","lat":43.23066,"lon":5.35495,"is_reserved":false,"is_disabled":false,"rental_uris":{"android":"levelo://app?vid=0a112fbf-8b41-4590-a94f-d50d1b6d228a","ios":"levelo://app?vid=0a112fbf-8b41-4590-a94f-d50d1b6d228a"},"vehicle_type_id":"4","last_reported":1779013087,"current_range_meters":9200,"station_id":"cpo3342slgdg3j2ifvpg","pricing_plan_id":"cebpf4jnsgd1na2vs0mg"},{"bike_id":"d257b167-ca2a-4810-a9e7-05efe0fc7d78","system_id":"levelo_inurba_marseille","lat":43.24373,"lon":5.37068,"is_reserved":false,"is_disabled":false,"rental_uris":{"android":"levelo://app?vid=d257b167-ca2a-4810-a9e7-05efe0fc7d78","ios":"levelo://app?vid=d257b167-ca2a-4810-a9e7-05efe0fc7d78"},"vehicle_type_id":"4","last_reported":1779013087,"current_range_meters":9200,"station_id":"ce4bhhh2rcd13ifvqfk0","pricing_plan_id":"cebpf4jnsgd1na2vs0mg"},{"bike_id":"cd7b086b-f551-42eb-8d01-c889e0d9dc72","system_id":"levelo_inurba_marseille","lat":43.26212,"lon":5.37454,"is_reserved":false,"is_disabled":false,"rental_uris":{"android":"levelo://app?vid=cd7b086b-f551-42eb-8d01-c889e0d9dc72","ios":"levelo://app?vid=cd7b086b-f551-42eb-8d01-c889e0d9dc72"},"vehicle_type_id":"4","last_reported":1779013087,"current_range_meters":9200,"station_id":"ce4bhgp2rcd13ifvqfc0","pricing_plan_id":"cebpf4jnsgd1na2vs0mg"},{"bike_id":"49bebcbb-ed5e-4a8e-96ec-d9de5550e466","system_id":"levelo_inurba_marseille","lat":43.27209,"lon":5.39176,"is_reserved":false,"is_disabled":true,"rental_uris":{"android":"levelo://app?vid=49bebcbb-ed5e-4a8e-96ec-d9de5550e466","ios":"levelo://app?vid=49bebcbb-ed5e-4a8e-96ec-d9de5550e466"},"vehicle_type_id":"4","last_reported":1779013087,"current_range_meters":9200,"station_id":"ce4bhhp2rcd13ifvqfm0","pricing_plan_id":"cebpf4jnsgd1na2vs0mg"},{"bike_id":"160b8449-4134-4d08-bc29-e2d28bc9db72","system_id":"levelo_inurba_marseille","lat":43.23152,"lon":5.43714,"is_reserved":false,"is_disabled":false,"rental_uris":{"android":"levelo://app?vid=160b8449-4134-4d08-bc29-e2d28bc9db72","ios":"levelo://app?vid=160b8449-4134-4d08-bc29-e2d28bc9db72"},"vehicle_type_id":"4","last_reported":1779013087,"current_range_meters":9200,"station_id":"ce4bhmp2rcd13ifvqgog","pricing_plan_id":"cebpf4jnsgd1na2vs0mg"},{"bike_id":"d0fa1085-71d5-4c78-88e7-9a865971d5d1","system_id":"levelo_inurba_marseille","lat":43.22569,"lon":5.41622,"is_reserved":false,"is_disabled":false,"rental_uris":{"android":"levelo://app?vid=d0fa1085-71d5-4c78-88e7-9a865971d5d1","ios":"levelo://app?vid=d0fa1085-71d5-4c78-88e7-9a865971d5d1"},"vehicle_type_id":"4","last_reported":1779013087,"current_range_meters":9200,"station_id":"st_d2o4gvlbi1j2169b742g","pricing_plan_id":"cebpf4jnsgd1na2vs0mg"},{"bike_id":"a53493d3-e405-4949-bdf9-cf8d5b59189e","system_id":"levelo_inurba_marseille","lat":43.24761,"lon":5.37482,"is_reserved":false,"is_disabled":false,"rental_uris":{"android":"levelo://app?vid=a53493d3-e405-4949-bdf9-cf8d5b59189e","ios":"levelo://app?vid=a53493d3-e405-4949-bdf9-cf8d5b59189e"},"vehicle_type_id":"4","last_reported":1779013087,"current_range_meters":9200,"station_id":"ce4bhgh2rcd13ifvqfb0","pricing_plan_id":"cebpf4jnsgd1na2vs0mg"},{"bike_id":"a5baa35f-0167-4bb9-8233-58ae1b48ac8e","system_id":"levelo_inurba_marseille","lat":43.22929,"lon":5.35375,"is_reserved":false,"is_disabled":false,"rental_uris":{"android":"levelo://app?vid=a5baa35f-0167-4bb9-8233-58ae1b48ac8e","ios":"levelo://app?vid=a5baa35f-0167-4bb9-8233-58ae1b48ac8e"},"vehicle_type_id":"4","last_reported":1779013087,"current_range_meters":9200,"station_id":"cpo3532slgdg3j2ikp40","pricing_plan_id":"cebpf4jnsgd1na2vs0mg"},{"bike_id":"cc124e1f-fc89-489e-90e3-232a4dcc39c0","system_id":"levelo_inurba_marseille","lat":43.24799,"lon":5.37451,"is_reserved":false,"is_disabled":false,"rental_uris":{"android":"levelo://app?vid=cc124e1f-fc89-489e-90e3-232a4dcc39c0","ios":"levelo://app?vid=cc124e1f-fc89-489e-90e3-232a4dcc39c0"},"vehicle_type_id":"4","last_reported":1779013087,"current_range_meters":9200,"station_id":"ce4bhgh2rcd13ifvqfb0","pricing_plan_id":"cebpf4jnsgd1na2vs0mg"},{"bike_id":"6bd7bd0a-340b-449f-8028-b4f4e39c8346","system_id":"levelo_inurba_marseille","lat":43.23957,"lon":5.3663,"is_reserved":false,"is_disabled":false,"rental_uris":{"android":"levelo://app?vid=6bd7bd0a-340b-449f-8028-b4f4e39c8346","ios":"levelo://app?vid=6bd7bd0a-340b-449f-8028-b4f4e39c8346"},"vehicle_type_id":"4","last_reported":1779013087,"current_range_meters":9200,"station_id":"ce4bhi12rcd13ifvqfp0","pricing_plan_id":"cebpf4jnsgd1na2vs0mg"},{"bike_id":"9fdfc4d7-f3b4-4e8c-a1bc-42e849e2dce8","system_id":"levelo_inurba_marseille","lat":43.22555,"lon":5.41621,"is_reserved":false,"is_disabled":false,"rental_uris":{"android":"levelo://app?vid=9fdfc4d7-f3b4-4e8c-a1bc-42e849e2dce8","ios":"levelo://app?vid=9fdfc4d7-f3b4-4e8c-a1bc-42e849e2dce8"},"vehicle_type_id":"4","last_reported":1779013087,"current_range_meters":9200,"station_id":"st_d2o4gvlbi1j2169b742g","pricing_plan_id":"cebpf4jnsgd1na2vs0mg"},{"bike_id":"a4226b5f-0a1b-453a-b282-d93d3dcb3390","system_id":"levelo_inurba_marseille","lat":43.26218,"lon":5.40441,"is_reserved":false,"is_disabled":false,"rental_uris":{"android":"levelo://app?vid=a4226b5f-0a1b-453a-b282-d93d3dcb3390","ios":"levelo://app?vid=a4226b5f-0a1b-453a-b282-d93d3dcb3390"},"vehicle_type_id":"4","last_reported":1779013087,"current_range_meters":9200,"station_id":"ce4bhmh2rcd13ifvqgmg","pricing_plan_id":"cebpf4jnsgd1na2vs0mg"},{"bike_id":"6e443bc1-44a7-4fa8-91c4-8433d3a530a3","system_id":"levelo_inurba_marseille","lat":43.286102,"lon":5.351137,"is_reserved":false,"is_disabled":false,"rental_uris":{"android":"levelo://app?vid=6e443bc1-44a7-4fa8-91c4-8433d3a530a3","ios":"levelo://app?vid=6e443bc1-44a7-4fa8-91c4-8433d3a530a3"},"vehicle_type_id":"4","last_reported":1779013087,"current_range_meters":9200,"station_id":"ce4bhch2rcd13ifvqeug","pricing_plan_id":"cebpf4jnsgd1na2vs0mg"},{"bike_id":"010100e5-5e1b-4322-b68a-6837b7af9352","system_id":"levelo_inurba_marseille","lat":43.25331,"lon":5.41341,"is_reserved":false,"is_disabled":false,"rental_uris":{"android":"levelo://app?vid=010100e5-5e1b-4322-b68a-6837b7af9352","ios":"levelo://app?vid=010100e5-5e1b-4322-b68a-6837b7af9352"},"vehicle_type_id":"4","last_reported":1779013087,"current_range_meters":9200,"station_id":"","pricing_plan_id":"cebpf4jnsgd1na2vs0mg"},{"bike_id":"018964d7-3586-4845-8635-3a0e76181faf","system_id":"levelo_inurba_marseille","lat":43.33239,"lon":5.40576,"is_reserved":false,"is_disabled":false,"rental_uris":{"android":"levelo://app?vid=018964d7-3586-4845-8635-3a0e76181faf","ios":"levelo://app?vid=018964d7-3586-4845-8635-3a0e76181faf"},"vehicle_type_id":"4","last_reported":1779013087,"current_range_meters":9200,"station_id":"","pricing_plan_id":"cebpf4jnsgd1na2vs0mg"},{"bike_id":"6277fb5f-25a0-43c5-af2d-05c12b8fcaab","system_id":"levelo_inurba_marseille","lat":43.28418,"lon":5.34966,"is_reserved":false,"is_disabled":false,"rental_uris":{"android":"levelo://app?vid=6277fb5f-25a0-43c5-af2d-05c12b8fcaab","ios":"levelo://app?vid=6277fb5f-25a0-43c5-af2d-05c12b8fcaab"},"vehicle_type_id":"4","last_reported":1779013087,"current_range_meters":9200,"station_id":"ce4bhbh2rcd13ifvqepg","pricing_plan_id":"cebpf4jnsgd1na2vs0mg"},{"bike_id":"29e5acc4-7b88-4657-b222-b8cedf804a83","system_id":"levelo_inurba_marseille","lat":43.30358,"lon":5.41881,"is_reserved":false,"is_disabled":false,"rental_uris":{"android":"levelo://app?vid=29e5acc4-7b88-4657-b222-b8cedf804a83","ios":"levelo://app?vid=29e5acc4-7b88-4657-b222-b8cedf804a83"},"vehicle_type_id":"4","last_reported":1779013087,"current_range_meters":9200,"station_id":"ce4bhop2rcd13ifvqh7g","pricing_plan_id":"cebpf4jnsgd1na2vs0mg"},{"bike_id":"4a5adfac-77da-4ecc-852c-34d7369bab43","system_id":"levelo_inurba_marseille","lat":43.3211,"lon":5.36772,"is_reserved":false,"is_disabled":false,"rental_uris":{"android":"levelo://app?vid=4a5adfac-77da-4ecc-852c-34d7369bab43","ios":"levelo://app?vid=4a5adfac-77da-4ecc-852c-34d7369bab43"},"vehicle_type_id":"4","last_reported":1779013087,"current_range_meters":9200,"station_id":"ce4bhrh2rcd13ifvqhug","pricing_plan_id":"cebpf4jnsgd1na2vs0mg"},{"bike_id":"12ca6fcb-de54-45fd-bc9e-5b97f33ae291","system_id":"levelo_inurba_marseille","lat":43.29965,"lon":5.41313,"is_reserved":false,"is_disabled":false,"rental_uris":{"android":"levelo://app?vid=12ca6fcb-de54-45fd-bc9e-5b97f33ae291","ios":"levelo://app?vid=12ca6fcb-de54-45fd-bc9e-5b97f33ae291"},"vehicle_type_id":"4","last_reported":1779013087,"current_range_meters":9200,"station_id":"ce4bhp12rcd13ifvqh9g","pricing_plan_id":"cebpf4jnsgd1na2vs0mg"},{"bike_id":"8c0804f4-cd08-4b5f-96f5-13d0158bd87b","system_id":"levelo_inurba_marseille","lat":43.27006,"lon":5.39838,"is_reserved":false,"is_disabled":false,"rental_uris":{"android":"levelo://app?vid=8c0804f4-cd08-4b5f-96f5-13d0158bd87b","ios":"levelo://app?vid=8c0804f4-cd08-4b5f-96f5-13d0158bd87b"},"vehicle_type_id":"4","last_reported":1779013087,"current_range_meters":9200,"station_id":"","pricing_plan_id":"cebpf4jnsgd1na2vs0mg"},{"bike_id":"0190dbda-d90e-49ba-86b5-5d667179cbcc","system_id":"levelo_inurba_marseille","lat":43.26229,"lon":5.40424,"is_reserved":false,"is_disabled":false,"rental_uris":{"android":"levelo://app?vid=0190dbda-d90e-49ba-86b5-5d667179cbcc","ios":"levelo://app?vid=0190dbda-d90e-49ba-86b5-5d667179cbcc"},"vehicle_type_id":"4","last_reported":1779013087,"current_range_meters":9200,"station_id":"ce4bhmh2rcd13ifvqgmg","pricing_plan_id":"cebpf4jnsgd1na2vs0mg"},{"bike_id":"4ef2207c-92b6-4109-9bcf-b1ac57108438","system_id":"levelo_inurba_marseille","lat":43.31346,"lon":5.44126,"is_reserved":false,"is_disabled":false,"rental_uris":{"android":"levelo://app?vid=4ef2207c-92b6-4109-9bcf-b1ac57108438","ios":"levelo://app?vid=4ef2207c-92b6-4109-9bcf-b1ac57108438"},"vehicle_type_id":"4","last_reported":1779013087,"current_range_meters":9200,"station_id":"","pricing_plan_id":"cebpf4jnsgd1na2vs0mg"},{"bike_id":"4a625781-0ed4-4c1d-9025-fbd024655fae","system_id":"levelo_inurba_marseille","lat":43.26194,"lon":5.40399,"is_reserved":false,"is_disabled":true,"rental_uris":{"android":"levelo://app?vid=4a625781-0ed4-4c1d-9025-fbd024655fae","ios":"levelo://app?vid=4a625781-0ed4-4c1d-9025-fbd024655fae"},"vehicle_type_id":"4","last_reported":1779013087,"current_range_meters":9200,"station_id":"ce4bhmh2rcd13ifvqgmg","pricing_plan_id":"cebpf4jnsgd1na2vs0mg"},{"bike_id":"f553f91d-a609-4c84-b3fb-59492c0c1e7f","system_id":"levelo_inurba_marseille","lat":43.21198,"lon":5.35041,"is_reserved":false,"is_disabled":false,"rental_uris":{"android":"levelo://app?vid=f553f91d-a609-4c84-b3fb-59492c0c1e7f","ios":"levelo://app?vid=f553f91d-a609-4c84-b3fb-59492c0c1e7f"},"vehicle_type_id":"4","last_reported":1779013087,"current_range_meters":9200,"station_id":"st_cvj6sg6p6f1abm77japg","pricing_plan_id":"cebpf4jnsgd1na2vs0mg"},{"bike_id":"d29b2169-2ca6-451f-8d5a-d11e58f089ea","system_id":"levelo_inurba_marseille","lat":43.30277,"lon":5.38475,"is_reserved":false,"is_disabled":false,"rental_uris":{"android":"levelo://app?vid=d29b2169-2ca6-451f-8d5a-d11e58f089ea","ios":"levelo://app?vid=d29b2169-2ca6-451f-8d5a-d11e58f089ea"},"vehicle_type_id":"4","last_reported":1779013087,"current_range_meters":9200,"station_id":"","pricing_plan_id":"cebpf4jnsgd1na2vs0mg"},{"bike_id":"b878c3a3-9c69-44f8-9ee3-1dd19843bae4","system_id":"levelo_inurba_marseille","lat":43.27313,"lon":5.39073,"is_reserved":false,"is_disabled":false,"rental_uris":{"android":"levelo://app?vid=b878c3a3-9c69-44f8-9ee3-1dd19843bae4","ios":"levelo://app?vid=b878c3a3-9c69-44f8-9ee3-1dd19843bae4"},"vehicle_type_id":"4","last_reported":1779013087,"current_range_meters":9600,"station_id":"ce4bhgp2rcd13ifvqfe0","pricing_plan_id":"cebpf4jnsgd1na2vs0mg"},{"bike_id":"e1dced0f-17de-4e06-aae7-1fb86cc3c6e1","system_id":"levelo_inurba_marseille","lat":43.21194,"lon":5.35067,"is_reserved":false,"is_disabled":false,"rental_uris":{"android":"levelo://app?vid=e1dced0f-17de-4e06-aae7-1fb86cc3c6e1","ios":"levelo://app?vid=e1dced0f-17de-4e06-aae7-1fb86cc3c6e1"},"vehicle_type_id":"4","last_reported":1779013087,"current_range_meters":9600,"station_id":"st_cvj6sg6p6f1abm77japg","pricing_plan_id":"cebpf4jnsgd1na2vs0mg"},{"bike_id":"8b84d26c-5777-43e5-895a-0b89b4f5aacf","system_id":"levelo_inurba_marseille","lat":43.33541,"lon":5.37454,"is_reserved":false,"is_disabled":false,"rental_uris":{"android":"levelo://app?vid=8b84d26c-5777-43e5-895a-0b89b4f5aacf","ios":"levelo://app?vid=8b84d26c-5777-43e5-895a-0b89b4f5aacf"},"vehicle_type_id":"4","last_reported":1779013087,"current_range_meters":9600,"station_id":"st_d46tts09ee8s73dlu43g","pricing_plan_id":"cebpf4jnsgd1na2vs0mg"},{"bike_id":"c1d18c85-cf07-4da0-83db-bf31db4539c3","system_id":"levelo_inurba_marseille","lat":43.21747,"lon":5.34608,"is_reserved":false,"is_disabled":false,"rental_uris":{"android":"levelo://app?vid=c1d18c85-cf07-4da0-83db-bf31db4539c3","ios":"levelo://app?vid=c1d18c85-cf07-4da0-83db-bf31db4539c3"},"vehicle_type_id":"4","last_reported":1779013087,"current_range_meters":9600,"station_id":"st_cvj6r9ubvosntc0bgbag","pricing_plan_id":"cebpf4jnsgd1na2vs0mg"},{"bike_id":"008de487-7097-4532-ad6f-e5e32445c9d2","system_id":"levelo_inurba_marseille","lat":43.21743,"lon":5.34607,"is_reserved":false,"is_disabled":false,"rental_uris":{"android":"levelo://app?vid=008de487-7097-4532-ad6f-e5e32445c9d2","ios":"levelo://app?vid=008de487-7097-4532-ad6f-e5e32445c9d2"},"vehicle_type_id":"4","last_reported":1779013087,"current_range_meters":9600,"station_id":"st_cvj6r9ubvosntc0bgbag","pricing_plan_id":"cebpf4jnsgd1na2vs0mg"},{"bike_id":"dd3d2566-6461-463c-a01f-624d7513f743","system_id":"levelo_inurba_marseille","lat":43.25195,"lon":5.37512,"is_reserved":false,"is_disabled":false,"rental_uris":{"android":"levelo://app?vid=dd3d2566-6461-463c-a01f-624d7513f743","ios":"levelo://app?vid=dd3d2566-6461-463c-a01f-624d7513f743"},"vehicle_type_id":"4","last_reported":1779013087,"current_range_meters":9600,"station_id":"","pricing_plan_id":"cebpf4jnsgd1na2vs0mg"},{"bike_id":"7235fe4c-64ab-4f45-a788-852ebf185296","system_id":"levelo_inurba_marseille","lat":43.29212,"lon":5.36067,"is_reserved":false,"is_disabled":false,"rental_uris":{"android":"levelo://app?vid=7235fe4c-64ab-4f45-a788-852ebf185296","ios":"levelo://app?vid=7235fe4c-64ab-4f45-a788-852ebf185296"},"vehicle_type_id":"4","last_reported":1779013087,"current_range_meters":9600,"station_id":"ce4bhbh2rcd13ifvqeqg","pricing_plan_id":"cebpf4jnsgd1na2vs0mg"},{"bike_id":"85ba5b70-9f25-48f2-8385-bfd268119584","system_id":"levelo_inurba_marseille","lat":43.24457,"lon":5.42518,"is_reserved":false,"is_disabled":false,"rental_uris":{"android":"levelo://app?vid=85ba5b70-9f25-48f2-8385-bfd268119584","ios":"levelo://app?vid=85ba5b70-9f25-48f2-8385-bfd268119584"},"vehicle_type_id":"4","last_reported":1779013087,"current_range_meters":9600,"station_id":"st_d4a3vfp97mjs738cd8kg","pricing_plan_id":"cebpf4jnsgd1na2vs0mg"},{"bike_id":"c7fecf63-02eb-450e-b066-ec1bf392eaa2","system_id":"levelo_inurba_marseille","lat":43.26031,"lon":5.37548,"is_reserved":false,"is_disabled":false,"rental_uris":{"android":"levelo://app?vid=c7fecf63-02eb-450e-b066-ec1bf392eaa2","ios":"levelo://app?vid=c7fecf63-02eb-450e-b066-ec1bf392eaa2"},"vehicle_type_id":"4","last_reported":1779013087,"current_range_meters":9600,"station_id":"ce4bhgh2rcd13ifvqfa0","pricing_plan_id":"cebpf4jnsgd1na2vs0mg"},{"bike_id":"463f61fc-7037-4631-9f52-2d7bb8432e92","system_id":"levelo_inurba_marseille","lat":43.30876,"lon":5.37188,"is_reserved":false,"is_disabled":false,"rental_uris":{"android":"levelo://app?vid=463f61fc-7037-4631-9f52-2d7bb8432e92","ios":"levelo://app?vid=463f61fc-7037-4631-9f52-2d7bb8432e92"},"vehicle_type_id":"4","last_reported":1779013087,"current_range_meters":9600,"station_id":"ce4bguh2rcd13ifvqckg","pricing_plan_id":"cebpf4jnsgd1na2vs0mg"},{"bike_id":"c0e1fec8-3ee4-4f19-8290-05094a1c4088","system_id":"levelo_inurba_marseille","lat":43.337444,"lon":5.374475,"is_reserved":false,"is_disabled":false,"rental_uris":{"android":"levelo://app?vid=c0e1fec8-3ee4-4f19-8290-05094a1c4088","ios":"levelo://app?vid=c0e1fec8-3ee4-4f19-8290-05094a1c4088"},"vehicle_type_id":"4","last_reported":1779013087,"current_range_meters":9600,"station_id":"","pricing_plan_id":"cebpf4jnsgd1na2vs0mg"},{"bike_id":"1e2f6b47-7dbe-40ee-aec8-161110520fb8","system_id":"levelo_inurba_marseille","lat":43.30598,"lon":5.3658,"is_reserved":false,"is_disabled":false,"rental_uris":{"android":"levelo://app?vid=1e2f6b47-7dbe-40ee-aec8-161110520fb8","ios":"levelo://app?vid=1e2f6b47-7dbe-40ee-aec8-161110520fb8"},"vehicle_type_id":"4","last_reported":1779013087,"current_range_meters":9600,"station_id":"ce4bgs12rcd13ifvqcag","pricing_plan_id":"cebpf4jnsgd1na2vs0mg"},{"bike_id":"e965b857-b9ee-4a6f-b17d-0c0826bdfa39","system_id":"levelo_inurba_marseille","lat":43.32115,"lon":5.36782,"is_reserved":false,"is_disabled":false,"rental_uris":{"android":"levelo://app?vid=e965b857-b9ee-4a6f-b17d-0c0826bdfa39","ios":"levelo://app?vid=e965b857-b9ee-4a6f-b17d-0c0826bdfa39"},"vehicle_type_id":"4","last_reported":1779013087,"current_range_meters":9600,"station_id":"ce4bhrh2rcd13ifvqhug","pricing_plan_id":"cebpf4jnsgd1na2vs0mg"},{"bike_id":"d7f2102e-3b1b-4ad4-bc12-cc010cb7503a","system_id":"levelo_inurba_marseille","lat":43.24666,"lon":5.38152,"is_reserved":false,"is_disabled":false,"rental_uris":{"android":"levelo://app?vid=d7f2102e-3b1b-4ad4-bc12-cc010cb7503a","ios":"levelo://app?vid=d7f2102e-3b1b-4ad4-bc12-cc010cb7503a"},"vehicle_type_id":"4","last_reported":1779013087,"current_range_meters":9600,"station_id":"ce4bhih2rcd13ifvqfr0","pricing_plan_id":"cebpf4jnsgd1na2vs0mg"},{"bike_id":"8127193b-061d-4151-9b21-a5da8a7dddab","system_id":"levelo_inurba_marseille","lat":43.23386,"lon":5.41244,"is_reserved":false,"is_disabled":false,"rental_uris":{"android":"levelo://app?vid=8127193b-061d-4151-9b21-a5da8a7dddab","ios":"levelo://app?vid=8127193b-061d-4151-9b21-a5da8a7dddab"},"vehicle_type_id":"4","last_reported":1779013087,"current_range_meters":9600,"station_id":"st_d75pvndhf9lc73cqq3eg","pricing_plan_id":"cebpf4jnsgd1na2vs0mg"},{"bike_id":"0dbe8bdc-605e-420e-9d92-e9bb238a9b76","system_id":"levelo_inurba_marseille","lat":43.26224,"lon":5.40447,"is_reserved":false,"is_disabled":false,"rental_uris":{"android":"levelo://app?vid=0dbe8bdc-605e-420e-9d92-e9bb238a9b76","ios":"levelo://app?vid=0dbe8bdc-605e-420e-9d92-e9bb238a9b76"},"vehicle_type_id":"4","last_reported":1779013087,"current_range_meters":10000,"station_id":"ce4bhmh2rcd13ifvqgmg","pricing_plan_id":"cebpf4jnsgd1na2vs0mg"},{"bike_id":"e8871535-90ff-4570-95dd-a763a473184c","system_id":"levelo_inurba_marseille","lat":43.239647,"lon":5.366361,"is_reserved":false,"is_disabled":false,"rental_uris":{"android":"levelo://app?vid=e8871535-90ff-4570-95dd-a763a473184c","ios":"levelo://app?vid=e8871535-90ff-4570-95dd-a763a473184c"},"vehicle_type_id":"4","last_reported":1779013087,"current_range_meters":10000,"station_id":"ce4bhi12rcd13ifvqfp0","pricing_plan_id":"cebpf4jnsgd1na2vs0mg"},{"bike_id":"d0b1e0f8-b1e1-44a0-bf04-7c587bb19472","system_id":"levelo_inurba_marseille","lat":43.25513,"lon":5.37653,"is_reserved":false,"is_disabled":false,"rental_uris":{"android":"levelo://app?vid=d0b1e0f8-b1e1-44a0-bf04-7c587bb19472","ios":"levelo://app?vid=d0b1e0f8-b1e1-44a0-bf04-7c587bb19472"},"vehicle_type_id":"4","last_reported":1779013087,"current_range_meters":10000,"station_id":"ce4bhh12rcd13ifvqff0","pricing_plan_id":"cebpf4jnsgd1na2vs0mg"},{"bike_id":"7682eabb-7264-45e2-a6cd-2491c61ad6ff","system_id":"levelo_inurba_marseille","lat":43.26553,"lon":5.37275,"is_reserved":false,"is_disabled":false,"rental_uris":{"android":"levelo://app?vid=7682eabb-7264-45e2-a6cd-2491c61ad6ff","ios":"levelo://app?vid=7682eabb-7264-45e2-a6cd-2491c61ad6ff"},"vehicle_type_id":"4","last_reported":1779013087,"current_range_meters":10000,"station_id":"ce4bhg12rcd13ifvqf70","pricing_plan_id":"cebpf4jnsgd1na2vs0mg"},{"bike_id":"f51cc5cd-718d-450f-9872-a123db695090","system_id":"levelo_inurba_marseille","lat":43.29894,"lon":5.43664,"is_reserved":false,"is_disabled":false,"rental_uris":{"android":"levelo://app?vid=f51cc5cd-718d-450f-9872-a123db695090","ios":"levelo://app?vid=f51cc5cd-718d-450f-9872-a123db695090"},"vehicle_type_id":"4","last_reported":1779013087,"current_range_meters":10000,"station_id":"ce4bhpp2rcd13ifvqhfg","pricing_plan_id":"cebpf4jnsgd1na2vs0mg"},{"bike_id":"6ae3fb2a-e3e2-4ece-9031-7371649f9927","system_id":"levelo_inurba_marseille","lat":43.23136,"lon":5.43721,"is_reserved":false,"is_disabled":false,"rental_uris":{"android":"levelo://app?vid=6ae3fb2a-e3e2-4ece-9031-7371649f9927","ios":"levelo://app?vid=6ae3fb2a-e3e2-4ece-9031-7371649f9927"},"vehicle_type_id":"4","last_reported":1779013087,"current_range_meters":10000,"station_id":"ce4bhmp2rcd13ifvqgog","pricing_plan_id":"cebpf4jnsgd1na2vs0mg"},{"bike_id":"df0df4e4-a4e9-46ef-8aa6-f07cf931c7fa","system_id":"levelo_inurba_marseille","lat":43.27176,"lon":5.40992,"is_reserved":false,"is_disabled":false,"rental_uris":{"android":"levelo://app?vid=df0df4e4-a4e9-46ef-8aa6-f07cf931c7fa","ios":"levelo://app?vid=df0df4e4-a4e9-46ef-8aa6-f07cf931c7fa"},"vehicle_type_id":"4","last_reported":1779013087,"current_range_meters":10000,"station_id":"ce4bhl12rcd13ifvqgf0","pricing_plan_id":"cebpf4jnsgd1na2vs0mg"},{"bike_id":"5dfd2bf2-1faf-4753-9e9b-3c7b20f70244","system_id":"levelo_inurba_marseille","lat":43.29217,"lon":5.36045,"is_reserved":false,"is_disabled":false,"rental_uris":{"android":"levelo://app?vid=5dfd2bf2-1faf-4753-9e9b-3c7b20f70244","ios":"levelo://app?vid=5dfd2bf2-1faf-4753-9e9b-3c7b20f70244"},"vehicle_type_id":"4","last_reported":1779013087,"current_range_meters":10000,"station_id":"ce4bhbh2rcd13ifvqeqg","pricing_plan_id":"cebpf4jnsgd1na2vs0mg"},