{"last_updated":1740243998,"ttl":60,"version":"2.2","data":{"bikes":[{"bike_id":"967da9cc-683b-4cdd-b913-73dd303bd11d","system_id":"levelo_inurba_marseille","lat":43.29302,"lon":5.37173,"is_reserved":false,"is_disabled":false,"rental_uris":{"android":"levelo://app?vid=967da9cc-683b-4cdd-b913-73dd303bd11d","ios":"levelo://app?vid=967da9cc-683b-4cdd-b913-73dd303bd11d"},"vehicle_type_id":"4","last_reported":1740243998,"current_range_meters":2800,"station_id":"ce4bgh92rcd13ifvqb40","pricing_plan_id":"cebpf4jnsgd1na2vs0mg"},{"bike_id":"20a65c62-e969-474b-a8ec-b1054e5420cf","system_id":"levelo_inurba_marseille","lat":43.27354,"lon":5.36222,"is_reserved":false,"is_disabled":true,"rental_uris":{"android":"levelo://app?vid=20a65c62-e969-474b-a8ec-b1054e5420cf","ios":"levelo://app?vid=20a65c62-e969-474b-a8ec-b1054e5420cf"},"vehicle_type_id":"4","last_reported":1740243998,"current_range_meters":2800,"station_id":"ce4bhbh2rcd13ifvqeo0","pricing_plan_id":"cebpf4jnsgd1na2vs0mg"},{"bike_id":"7513a470-27ae-4803-984c-3d01857f3acd","system_id":"levelo_inurba_marseille","lat":43.30788,"lon":5.37351,"is_reserved":false,"is_disabled":false,"rental_uris":{"android":"levelo://app?vid=7513a470-27ae-4803-984c-3d01857f3acd","ios":"levelo://app?vid=7513a470-27ae-4803-984c-3d01857f3acd"},"vehicle_type_id":"4","last_reported":1740243998,"current_range_meters":2800,"station_id":"","pricing_plan_id":"cebpf4jnsgd1na2vs0mg"},{"bike_id":"4cd7e05d-4845-4f42-94fa-6b66fa4a36c7","system_id":"levelo_inurba_marseille","lat":43.29537,"lon":5.42277,"is_reserved":false,"is_disabled":false,"rental_uris":{"android":"levelo://app?vid=4cd7e05d-4845-4f42-94fa-6b66fa4a36c7","ios":"levelo://app?vid=4cd7e05d-4845-4f42-94fa-6b66fa4a36c7"},"vehicle_type_id":"4","last_reported":1740243998,"current_range_meters":2800,"station_id":"ce4bhph2rcd13ifvqhdg","pricing_plan_id":"cebpf4jnsgd1na2vs0mg"},{"bike_id":"a308f167-f5a8-4334-81bc-450f64688df4","system_id":"levelo_inurba_marseille","lat":43.29073,"lon":5.37159,"is_reserved":false,"is_disabled":false,"rental_uris":{"android":"levelo://app?vid=a308f167-f5a8-4334-81bc-450f64688df4","ios":"levelo://app?vid=a308f167-f5a8-4334-81bc-450f64688df4"},"vehicle_type_id":"4","last_reported":1740243998,"current_range_meters":2800,"station_id":"ce4bh5p2rcd13ifvqe4g","pricing_plan_id":"cebpf4jnsgd1na2vs0mg"},{"bike_id":"18f267ca-7ba1-4130-8f18-573517aa0006","system_id":"levelo_inurba_marseille","lat":43.30932,"lon":5.40143,"is_reserved":false,"is_disabled":false,"rental_uris":{"android":"levelo://app?vid=18f267ca-7ba1-4130-8f18-573517aa0006","ios":"levelo://app?vid=18f267ca-7ba1-4130-8f18-573517aa0006"},"vehicle_type_id":"4","last_reported":1740243998,"current_range_meters":2800,"station_id":"ce4bgvp2rcd13ifvqct0","pricing_plan_id":"cebpf4jnsgd1na2vs0mg"},{"bike_id":"ea247956-9a05-4bbb-8498-4b6778a159c3","system_id":"levelo_inurba_marseille","lat":43.2997,"lon":5.38496,"is_reserved":false,"is_disabled":false,"rental_uris":{"android":"levelo://app?vid=ea247956-9a05-4bbb-8498-4b6778a159c3","ios":"levelo://app?vid=ea247956-9a05-4bbb-8498-4b6778a159c3"},"vehicle_type_id":"4","last_reported":1740243998,"current_range_meters":3200,"station_id":"ce4bgj92rcd13ifvqbd0","pricing_plan_id":"cebpf4jnsgd1na2vs0mg"},{"bike_id":"62be82be-00c6-4544-849f-67cfe021b0c1","system_id":"levelo_inurba_marseille","lat":43.31254,"lon":5.38109,"is_reserved":false,"is_disabled":false,"rental_uris":{"android":"levelo://app?vid=62be82be-00c6-4544-849f-67cfe021b0c1","ios":"levelo://app?vid=62be82be-00c6-4544-849f-67cfe021b0c1"},"vehicle_type_id":"4","last_reported":1740243998,"current_range_meters":3200,"station_id":"","pricing_plan_id":"cebpf4jnsgd1na2vs0mg"},{"bike_id":"14dd8369-b2d6-4bc2-9c7f-a5ec00571b38","system_id":"levelo_inurba_marseille","lat":43.28882,"lon":5.39309,"is_reserved":false,"is_disabled":false,"rental_uris":{"android":"levelo://app?vid=14dd8369-b2d6-4bc2-9c7f-a5ec00571b38","ios":"levelo://app?vid=14dd8369-b2d6-4bc2-9c7f-a5ec00571b38"},"vehicle_type_id":"4","last_reported":1740243998,"current_range_meters":3200,"station_id":"ce4bh2p2rcd13ifvqdi0","pricing_plan_id":"cebpf4jnsgd1na2vs0mg"},{"bike_id":"ed460326-b439-482e-b8a8-eeae6001e68c","system_id":"levelo_inurba_marseille","lat":43.30583,"lon":5.39353,"is_reserved":false,"is_disabled":false,"rental_uris":{"android":"levelo://app?vid=ed460326-b439-482e-b8a8-eeae6001e68c","ios":"levelo://app?vid=ed460326-b439-482e-b8a8-eeae6001e68c"},"vehicle_type_id":"4","last_reported":1740243998,"current_range_meters":3200,"station_id":"ce4bh0p2rcd13ifvqd80","pricing_plan_id":"cebpf4jnsgd1na2vs0mg"},{"bike_id":"6457a7e7-4e05-4441-8fd8-5b86b4971d00","system_id":"levelo_inurba_marseille","lat":43.289813,"lon":5.381549,"is_reserved":false,"is_disabled":false,"rental_uris":{"android":"levelo://app?vid=6457a7e7-4e05-4441-8fd8-5b86b4971d00","ios":"levelo://app?vid=6457a7e7-4e05-4441-8fd8-5b86b4971d00"},"vehicle_type_id":"4","last_reported":1740243998,"current_range_meters":3200,"station_id":"ce4bh512rcd13ifvqe2g","pricing_plan_id":"cebpf4jnsgd1na2vs0mg"},{"bike_id":"c6a33ac1-a62f-47f6-86dd-f4b18bfd1b02","system_id":"levelo_inurba_marseille","lat":43.30408,"lon":5.4127,"is_reserved":false,"is_disabled":false,"rental_uris":{"android":"levelo://app?vid=c6a33ac1-a62f-47f6-86dd-f4b18bfd1b02","ios":"levelo://app?vid=c6a33ac1-a62f-47f6-86dd-f4b18bfd1b02"},"vehicle_type_id":"4","last_reported":1740243998,"current_range_meters":3600,"station_id":"ce4bhop2rcd13ifvqh8g","pricing_plan_id":"cebpf4jnsgd1na2vs0mg"},{"bike_id":"e06a5e51-884b-4021-a6aa-38076e5c4adf","system_id":"levelo_inurba_marseille","lat":43.29264,"lon":5.37623,"is_reserved":false,"is_disabled":false,"rental_uris":{"android":"levelo://app?vid=e06a5e51-884b-4021-a6aa-38076e5c4adf","ios":"levelo://app?vid=e06a5e51-884b-4021-a6aa-38076e5c4adf"},"vehicle_type_id":"4","last_reported":1740243998,"current_range_meters":3600,"station_id":"ce4bgi12rcd13ifvqb80","pricing_plan_id":"cebpf4jnsgd1na2vs0mg"},{"bike_id":"0f2070bd-1a5b-4a28-a045-84861de0aaf9","system_id":"levelo_inurba_marseille","lat":43.29984,"lon":5.37157,"is_reserved":false,"is_disabled":false,"rental_uris":{"android":"levelo://app?vid=0f2070bd-1a5b-4a28-a045-84861de0aaf9","ios":"levelo://app?vid=0f2070bd-1a5b-4a28-a045-84861de0aaf9"},"vehicle_type_id":"4","last_reported":1740243998,"current_range_meters":4000,"station_id":"ce4bgr92rcd13ifvqc7g","pricing_plan_id":"cebpf4jnsgd1na2vs0mg"},{"bike_id":"95b2d066-cb0b-463f-b7c4-3c12bdd74d4d","system_id":"levelo_inurba_marseille","lat":43.23967,"lon":5.3662,"is_reserved":false,"is_disabled":false,"rental_uris":{"android":"levelo://app?vid=95b2d066-cb0b-463f-b7c4-3c12bdd74d4d","ios":"levelo://app?vid=95b2d066-cb0b-463f-b7c4-3c12bdd74d4d"},"vehicle_type_id":"4","last_reported":1740243998,"current_range_meters":4000,"station_id":"ce4bhi12rcd13ifvqfp0","pricing_plan_id":"cebpf4jnsgd1na2vs0mg"},{"bike_id":"7c8f3d05-5401-4545-847e-9fcee9ea83d5","system_id":"levelo_inurba_marseille","lat":43.26563,"lon":5.39854,"is_reserved":false,"is_disabled":false,"rental_uris":{"android":"levelo://app?vid=7c8f3d05-5401-4545-847e-9fcee9ea83d5","ios":"levelo://app?vid=7c8f3d05-5401-4545-847e-9fcee9ea83d5"},"vehicle_type_id":"4","last_reported":1740243998,"current_range_meters":4000,"station_id":"","pricing_plan_id":"cebpf4jnsgd1na2vs0mg"},{"bike_id":"d8788cca-8afb-46a3-8ebc-58b2625ec06c","system_id":"levelo_inurba_marseille","lat":43.27335,"lon":5.39077,"is_reserved":false,"is_disabled":false,"rental_uris":{"android":"levelo://app?vid=d8788cca-8afb-46a3-8ebc-58b2625ec06c","ios":"levelo://app?vid=d8788cca-8afb-46a3-8ebc-58b2625ec06c"},"vehicle_type_id":"4","last_reported":1740243998,"current_range_meters":4000,"station_id":"ce4bhgp2rcd13ifvqfe0","pricing_plan_id":"cebpf4jnsgd1na2vs0mg"},{"bike_id":"b3688e12-fe9d-45ae-a348-a1c821eb01e6","system_id":"levelo_inurba_marseille","lat":43.32472,"lon":5.36582,"is_reserved":false,"is_disabled":false,"rental_uris":{"android":"levelo://app?vid=b3688e12-fe9d-45ae-a348-a1c821eb01e6","ios":"levelo://app?vid=b3688e12-fe9d-45ae-a348-a1c821eb01e6"},"vehicle_type_id":"4","last_reported":1740243998,"current_range_meters":4000,"station_id":"ce4bhs12rcd13ifvqhvg","pricing_plan_id":"cebpf4jnsgd1na2vs0mg"},{"bike_id":"4526570b-abaf-48f9-b280-2af5df2fe16d","system_id":"levelo_inurba_marseille","lat":43.28703,"lon":5.3739,"is_reserved":false,"is_disabled":false,"rental_uris":{"android":"levelo://app?vid=4526570b-abaf-48f9-b280-2af5df2fe16d","ios":"levelo://app?vid=4526570b-abaf-48f9-b280-2af5df2fe16d"},"vehicle_type_id":"4","last_reported":1740243998,"current_range_meters":4400,"station_id":"ce4bh3p2rcd13ifvqdq0","pricing_plan_id":"cebpf4jnsgd1na2vs0mg"},{"bike_id":"8ffec987-a118-4db2-9a36-e2906791a3f6","system_id":"levelo_inurba_marseille","lat":43.2899,"lon":5.37831,"is_reserved":false,"is_disabled":false,"rental_uris":{"android":"levelo://app?vid=8ffec987-a118-4db2-9a36-e2906791a3f6","ios":"levelo://app?vid=8ffec987-a118-4db2-9a36-e2906791a3f6"},"vehicle_type_id":"4","last_reported":1740243998,"current_range_meters":4800,"station_id":"ce4bh9p2rcd13ifvqed0","pricing_plan_id":"cebpf4jnsgd1na2vs0mg"},{"bike_id":"7bbade47-ac3e-4a9b-bb62-77ab4f6ba044","system_id":"levelo_inurba_marseille","lat":43.27985,"lon":5.41657,"is_reserved":false,"is_disabled":false,"rental_uris":{"android":"levelo://app?vid=7bbade47-ac3e-4a9b-bb62-77ab4f6ba044","ios":"levelo://app?vid=7bbade47-ac3e-4a9b-bb62-77ab4f6ba044"},"vehicle_type_id":"4","last_reported":1740243998,"current_range_meters":4800,"station_id":"ce4bho12rcd13ifvqh1g","pricing_plan_id":"cebpf4jnsgd1na2vs0mg"},{"bike_id":"c428a377-df4a-4d69-8d27-1884b3e34b58","system_id":"levelo_inurba_marseille","lat":43.23157,"lon":5.43703,"is_reserved":false,"is_disabled":false,"rental_uris":{"android":"levelo://app?vid=c428a377-df4a-4d69-8d27-1884b3e34b58","ios":"levelo://app?vid=c428a377-df4a-4d69-8d27-1884b3e34b58"},"vehicle_type_id":"4","last_reported":1740243998,"current_range_meters":4800,"station_id":"ce4bhmp2rcd13ifvqgog","pricing_plan_id":"cebpf4jnsgd1na2vs0mg"},{"bike_id":"9d8fad78-cc67-434a-95cb-d67883a27ec7","system_id":"levelo_inurba_marseille","lat":43.26792,"lon":5.39415,"is_reserved":false,"is_disabled":false,"rental_uris":{"android":"levelo://app?vid=9d8fad78-cc67-434a-95cb-d67883a27ec7","ios":"levelo://app?vid=9d8fad78-cc67-434a-95cb-d67883a27ec7"},"vehicle_type_id":"4","last_reported":1740243998,"current_range_meters":4800,"station_id":"ce4bhh12rcd13ifvqfg0","pricing_plan_id":"cebpf4jnsgd1na2vs0mg"},{"bike_id":"b74c4560-4799-40e8-9250-be1381432673","system_id":"levelo_inurba_marseille","lat":43.27207,"lon":5.392,"is_reserved":false,"is_disabled":false,"rental_uris":{"android":"levelo://app?vid=b74c4560-4799-40e8-9250-be1381432673","ios":"levelo://app?vid=b74c4560-4799-40e8-9250-be1381432673"},"vehicle_type_id":"4","last_reported":1740243998,"current_range_meters":5600,"station_id":"ce4bhhp2rcd13ifvqfm0","pricing_plan_id":"cebpf4jnsgd1na2vs0mg"},{"bike_id":"126da997-feb1-490c-8d21-ae852f203936","system_id":"levelo_inurba_marseille","lat":43.25501,"lon":5.37652,"is_reserved":false,"is_disabled":false,"rental_uris":{"android":"levelo://app?vid=126da997-feb1-490c-8d21-ae852f203936","ios":"levelo://app?vid=126da997-feb1-490c-8d21-ae852f203936"},"vehicle_type_id":"4","last_reported":1740243998,"current_range_meters":5600,"station_id":"ce4bhh12rcd13ifvqff0","pricing_plan_id":"cebpf4jnsgd1na2vs0mg"},{"bike_id":"495048fd-8eea-4a77-a4c1-cddfc9177b54","system_id":"levelo_inurba_marseille","lat":43.25495,"lon":5.37647,"is_reserved":false,"is_disabled":false,"rental_uris":{"android":"levelo://app?vid=495048fd-8eea-4a77-a4c1-cddfc9177b54","ios":"levelo://app?vid=495048fd-8eea-4a77-a4c1-cddfc9177b54"},"vehicle_type_id":"4","last_reported":1740243998,"current_range_meters":5600,"station_id":"ce4bhh12rcd13ifvqff0","pricing_plan_id":"cebpf4jnsgd1na2vs0mg"},{"bike_id":"780a17fd-e474-49c2-a65b-f7a6f8637b1e","system_id":"levelo_inurba_marseille","lat":43.25007,"lon":5.38918,"is_reserved":false,"is_disabled":false,"rental_uris":{"android":"levelo://app?vid=780a17fd-e474-49c2-a65b-f7a6f8637b1e","ios":"levelo://app?vid=780a17fd-e474-49c2-a65b-f7a6f8637b1e"},"vehicle_type_id":"4","last_reported":1740243998,"current_range_meters":6000,"station_id":"ce4bhgp2rcd13ifvqfd0","pricing_plan_id":"cebpf4jnsgd1na2vs0mg"},{"bike_id":"8a4ff0bb-39ab-4e52-9e88-6c534b230b4e","system_id":"levelo_inurba_marseille","lat":43.30214,"lon":5.39462,"is_reserved":false,"is_disabled":false,"rental_uris":{"android":"levelo://app?vid=8a4ff0bb-39ab-4e52-9e88-6c534b230b4e","ios":"levelo://app?vid=8a4ff0bb-39ab-4e52-9e88-6c534b230b4e"},"vehicle_type_id":"4","last_reported":1740243998,"current_range_meters":6400,"station_id":"ce4bh0p2rcd13ifvqd70","pricing_plan_id":"cebpf4jnsgd1na2vs0mg"},{"bike_id":"be6c6e2e-1c75-4e1a-b4fb-a19b5f403e2f","system_id":"levelo_inurba_marseille","lat":43.23182,"lon":5.39992,"is_reserved":false,"is_disabled":false,"rental_uris":{"android":"levelo://app?vid=be6c6e2e-1c75-4e1a-b4fb-a19b5f403e2f","ios":"levelo://app?vid=be6c6e2e-1c75-4e1a-b4fb-a19b5f403e2f"},"vehicle_type_id":"4","last_reported":1740243998,"current_range_meters":6400,"station_id":"ce4bhn12rcd13ifvqgqg","pricing_plan_id":"cebpf4jnsgd1na2vs0mg"},{"bike_id":"fc5a3a8d-3aba-4cd6-b38e-b6f7a090ba8f","system_id":"levelo_inurba_marseille","lat":43.30599,"lon":5.37226,"is_reserved":false,"is_disabled":false,"rental_uris":{"android":"levelo://app?vid=fc5a3a8d-3aba-4cd6-b38e-b6f7a090ba8f","ios":"levelo://app?vid=fc5a3a8d-3aba-4cd6-b38e-b6f7a090ba8f"},"vehicle_type_id":"4","last_reported":1740243998,"current_range_meters":6400,"station_id":"ce4bgqh2rcd13ifvqc4g","pricing_plan_id":"cebpf4jnsgd1na2vs0mg"},{"bike_id":"083b669d-0b26-42a3-b2b6-1bd3a758b719","system_id":"levelo_inurba_marseille","lat":43.2926,"lon":5.38462,"is_reserved":false,"is_disabled":false,"rental_uris":{"android":"levelo://app?vid=083b669d-0b26-42a3-b2b6-1bd3a758b719","ios":"levelo://app?vid=083b669d-0b26-42a3-b2b6-1bd3a758b719"},"vehicle_type_id":"4","last_reported":1740243998,"current_range_meters":6400,"station_id":"ce4bh692rcd13ifvqea0","pricing_plan_id":"cebpf4jnsgd1na2vs0mg"},{"bike_id":"5d3c6c2d-ba53-4599-bbe4-c159163bf7d5","system_id":"levelo_inurba_marseille","lat":43.29801,"lon":5.40406,"is_reserved":false,"is_disabled":false,"rental_uris":{"android":"levelo://app?vid=5d3c6c2d-ba53-4599-bbe4-c159163bf7d5","ios":"levelo://app?vid=5d3c6c2d-ba53-4599-bbe4-c159163bf7d5"},"vehicle_type_id":"4","last_reported":1740243998,"current_range_meters":6400,"station_id":"ce4bh112rcd13ifvqd90","pricing_plan_id":"cebpf4jnsgd1na2vs0mg"},{"bike_id":"c2f45a49-dad2-437b-b85c-2709f66ae278","system_id":"levelo_inurba_marseille","lat":43.25112,"lon":5.40327,"is_reserved":false,"is_disabled":false,"rental_uris":{"android":"levelo://app?vid=c2f45a49-dad2-437b-b85c-2709f66ae278","ios":"levelo://app?vid=c2f45a49-dad2-437b-b85c-2709f66ae278"},"vehicle_type_id":"4","last_reported":1740243998,"current_range_meters":6800,"station_id":"ce4bhlh2rcd13ifvqgig","pricing_plan_id":"cebpf4jnsgd1na2vs0mg"},{"bike_id":"55d4a3ac-d7ec-4ccd-97ed-a87bf8d2d8c1","system_id":"levelo_inurba_marseille","lat":43.28447,"lon":5.39205,"is_reserved":false,"is_disabled":false,"rental_uris":{"android":"levelo://app?vid=55d4a3ac-d7ec-4ccd-97ed-a87bf8d2d8c1","ios":"levelo://app?vid=55d4a3ac-d7ec-4ccd-97ed-a87bf8d2d8c1"},"vehicle_type_id":"4","last_reported":1740243998,"current_range_meters":6800,"station_id":"ce4bhoh2rcd13ifvqh5g","pricing_plan_id":"cebpf4jnsgd1na2vs0mg"},{"bike_id":"95362cba-5fbe-4836-b460-9fb97e092a0d","system_id":"levelo_inurba_marseille","lat":43.24997,"lon":5.3894,"is_reserved":false,"is_disabled":false,"rental_uris":{"android":"levelo://app?vid=95362cba-5fbe-4836-b460-9fb97e092a0d","ios":"levelo://app?vid=95362cba-5fbe-4836-b460-9fb97e092a0d"},"vehicle_type_id":"4","last_reported":1740243998,"current_range_meters":6800,"station_id":"ce4bhgp2rcd13ifvqfd0","pricing_plan_id":"cebpf4jnsgd1na2vs0mg"},{"bike_id":"2c5430a7-3583-4ae1-abd7-31976bb7717c","system_id":"levelo_inurba_marseille","lat":43.303612,"lon":5.418847,"is_reserved":false,"is_disabled":false,"rental_uris":{"android":"levelo://app?vid=2c5430a7-3583-4ae1-abd7-31976bb7717c","ios":"levelo://app?vid=2c5430a7-3583-4ae1-abd7-31976bb7717c"},"vehicle_type_id":"4","last_reported":1740243998,"current_range_meters":6800,"station_id":"ce4bhop2rcd13ifvqh7g","pricing_plan_id":"cebpf4jnsgd1na2vs0mg"},{"bike_id":"a796ac80-1911-4214-a458-24bc9f421151","system_id":"levelo_inurba_marseille","lat":43.31317,"lon":5.37338,"is_reserved":false,"is_disabled":false,"rental_uris":{"android":"levelo://app?vid=a796ac80-1911-4214-a458-24bc9f421151","ios":"levelo://app?vid=a796ac80-1911-4214-a458-24bc9f421151"},"vehicle_type_id":"4","last_reported":1740243998,"current_range_meters":6800,"station_id":"","pricing_plan_id":"cebpf4jnsgd1na2vs0mg"},{"bike_id":"039849a1-2a05-406d-ad09-534ee0cace76","system_id":"levelo_inurba_marseille","lat":43.30586,"lon":5.39356,"is_reserved":false,"is_disabled":false,"rental_uris":{"android":"levelo://app?vid=039849a1-2a05-406d-ad09-534ee0cace76","ios":"levelo://app?vid=039849a1-2a05-406d-ad09-534ee0cace76"},"vehicle_type_id":"4","last_reported":1740243998,"current_range_meters":6800,"station_id":"ce4bh0p2rcd13ifvqd80","pricing_plan_id":"cebpf4jnsgd1na2vs0mg"},{"bike_id":"54392dcf-9098-4ade-a5f9-07d42853ec29","system_id":"levelo_inurba_marseille","lat":43.23962,"lon":5.36628,"is_reserved":false,"is_disabled":false,"rental_uris":{"android":"levelo://app?vid=54392dcf-9098-4ade-a5f9-07d42853ec29","ios":"levelo://app?vid=54392dcf-9098-4ade-a5f9-07d42853ec29"},"vehicle_type_id":"4","last_reported":1740243998,"current_range_meters":6800,"station_id":"ce4bhi12rcd13ifvqfp0","pricing_plan_id":"cebpf4jnsgd1na2vs0mg"},{"bike_id":"6c2befcc-d36d-4770-8667-6d4b38119c6b","system_id":"levelo_inurba_marseille","lat":43.27943,"lon":5.41052,"is_reserved":false,"is_disabled":false,"rental_uris":{"android":"levelo://app?vid=6c2befcc-d36d-4770-8667-6d4b38119c6b","ios":"levelo://app?vid=6c2befcc-d36d-4770-8667-6d4b38119c6b"},"vehicle_type_id":"4","last_reported":1740243998,"current_range_meters":7200,"station_id":"ce4bhnp2rcd13ifvqh0g","pricing_plan_id":"cebpf4jnsgd1na2vs0mg"},{"bike_id":"2b087d85-e047-45d4-90cc-b42b7cd3f759","system_id":"levelo_inurba_marseille","lat":43.28605,"lon":5.35107,"is_reserved":false,"is_disabled":false,"rental_uris":{"android":"levelo://app?vid=2b087d85-e047-45d4-90cc-b42b7cd3f759","ios":"levelo://app?vid=2b087d85-e047-45d4-90cc-b42b7cd3f759"},"vehicle_type_id":"4","last_reported":1740243998,"current_range_meters":7200,"station_id":"ce4bhch2rcd13ifvqeug","pricing_plan_id":"cebpf4jnsgd1na2vs0mg"},{"bike_id":"fbe67b56-53a3-4dc1-b4de-889b04f1a221","system_id":"levelo_inurba_marseille","lat":43.27366,"lon":5.36244,"is_reserved":false,"is_disabled":false,"rental_uris":{"android":"levelo://app?vid=fbe67b56-53a3-4dc1-b4de-889b04f1a221","ios":"levelo://app?vid=fbe67b56-53a3-4dc1-b4de-889b04f1a221"},"vehicle_type_id":"4","last_reported":1740243998,"current_range_meters":7200,"station_id":"ce4bhbh2rcd13ifvqeo0","pricing_plan_id":"cebpf4jnsgd1na2vs0mg"},{"bike_id":"c8507b6e-328f-48e7-86ba-3aac6effd4f2","system_id":"levelo_inurba_marseille","lat":43.30299,"lon":5.39224,"is_reserved":false,"is_disabled":false,"rental_uris":{"android":"levelo://app?vid=c8507b6e-328f-48e7-86ba-3aac6effd4f2","ios":"levelo://app?vid=c8507b6e-328f-48e7-86ba-3aac6effd4f2"},"vehicle_type_id":"4","last_reported":1740243998,"current_range_meters":7200,"station_id":"ce4bgkh2rcd13ifvqbk0","pricing_plan_id":"cebpf4jnsgd1na2vs0mg"},{"bike_id":"2b8d73ad-5137-4320-bf7a-9fcaea6cd84f","system_id":"levelo_inurba_marseille","lat":43.27991,"lon":5.40005,"is_reserved":false,"is_disabled":false,"rental_uris":{"android":"levelo://app?vid=2b8d73ad-5137-4320-bf7a-9fcaea6cd84f","ios":"levelo://app?vid=2b8d73ad-5137-4320-bf7a-9fcaea6cd84f"},"vehicle_type_id":"4","last_reported":1740243998,"current_range_meters":7200,"station_id":"ce4bho92rcd13ifvqh4g","pricing_plan_id":"cebpf4jnsgd1na2vs0mg"},{"bike_id":"6aafab1c-b1fd-4bbd-a318-89366250d32c","system_id":"levelo_inurba_marseille","lat":43.30364,"lon":5.4188,"is_reserved":false,"is_disabled":false,"rental_uris":{"android":"levelo://app?vid=6aafab1c-b1fd-4bbd-a318-89366250d32c","ios":"levelo://app?vid=6aafab1c-b1fd-4bbd-a318-89366250d32c"},"vehicle_type_id":"4","last_reported":1740243998,"current_range_meters":8000,"station_id":"ce4bhop2rcd13ifvqh7g","pricing_plan_id":"cebpf4jnsgd1na2vs0mg"},{"bike_id":"91cd9c50-a708-4ca7-8c38-9684716b8855","system_id":"levelo_inurba_marseille","lat":43.33765,"lon":5.37441,"is_reserved":false,"is_disabled":false,"rental_uris":{"android":"levelo://app?vid=91cd9c50-a708-4ca7-8c38-9684716b8855","ios":"levelo://app?vid=91cd9c50-a708-4ca7-8c38-9684716b8855"},"vehicle_type_id":"4","last_reported":1740243998,"current_range_meters":8000,"station_id":"","pricing_plan_id":"cebpf4jnsgd1na2vs0mg"},{"bike_id":"97e60459-cc06-4bc4-9745-231d5e38914b","system_id":"levelo_inurba_marseille","lat":43.27953,"lon":5.41043,"is_reserved":false,"is_disabled":false,"rental_uris":{"android":"levelo://app?vid=97e60459-cc06-4bc4-9745-231d5e38914b","ios":"levelo://app?vid=97e60459-cc06-4bc4-9745-231d5e38914b"},"vehicle_type_id":"4","last_reported":1740243998,"current_range_meters":8000,"station_id":"ce4bhnp2rcd13ifvqh0g","pricing_plan_id":"cebpf4jnsgd1na2vs0mg"},{"bike_id":"d0386847-89a5-48f6-8c65-4f1d9fc4d37c","system_id":"levelo_inurba_marseille","lat":43.26793,"lon":5.39406,"is_reserved":false,"is_disabled":false,"rental_uris":{"android":"levelo://app?vid=d0386847-89a5-48f6-8c65-4f1d9fc4d37c","ios":"levelo://app?vid=d0386847-89a5-48f6-8c65-4f1d9fc4d37c"},"vehicle_type_id":"4","last_reported":1740243998,"current_range_meters":8000,"station_id":"ce4bhh12rcd13ifvqfg0","pricing_plan_id":"cebpf4jnsgd1na2vs0mg"},{"bike_id":"827ec7e5-1ae5-45b8-890e-b6822ea9bc11","system_id":"levelo_inurba_marseille","lat":43.23963,"lon":5.36629,"is_reserved":false,"is_disabled":false,"rental_uris":{"android":"levelo://app?vid=827ec7e5-1ae5-45b8-890e-b6822ea9bc11","ios":"levelo://app?vid=827ec7e5-1ae5-45b8-890e-b6822ea9bc11"},"vehicle_type_id":"4","last_reported":1740243998,"current_range_meters":8000,"station_id":"ce4bhi12rcd13ifvqfp0","pricing_plan_id":"cebpf4jnsgd1na2vs0mg"},{"bike_id":"764455e9-f6ea-4669-af89-1cec253003e7","system_id":"levelo_inurba_marseille","lat":43.25721,"lon":5.41115,"is_reserved":false,"is_disabled":false,"rental_uris":{"android":"levelo://app?vid=764455e9-f6ea-4669-af89-1cec253003e7","ios":"levelo://app?vid=764455e9-f6ea-4669-af89-1cec253003e7"},"vehicle_type_id":"4","last_reported":1740243998,"current_range_meters":8000,"station_id":"ce4bhkp2rcd13ifvqgd0","pricing_plan_id":"cebpf4jnsgd1na2vs0mg"},{"bike_id":"06c28c64-3cd8-463e-a351-0e4af66054d8","system_id":"levelo_inurba_marseille","lat":43.26677,"lon":5.3827,"is_reserved":false,"is_disabled":false,"rental_uris":{"android":"levelo://app?vid=06c28c64-3cd8-463e-a351-0e4af66054d8","ios":"levelo://app?vid=06c28c64-3cd8-463e-a351-0e4af66054d8"},"vehicle_type_id":"4","last_reported":1740243998,"current_range_meters":8000,"station_id":"ce4bhg92rcd13ifvqf90","pricing_plan_id":"cebpf4jnsgd1na2vs0mg"},{"bike_id":"78b97302-9c59-42d1-a13f-5e8c85841d45","system_id":"levelo_inurba_marseille","lat":43.2656,"lon":5.39028,"is_reserved":false,"is_disabled":false,"rental_uris":{"android":"levelo://app?vid=78b97302-9c59-42d1-a13f-5e8c85841d45","ios":"levelo://app?vid=78b97302-9c59-42d1-a13f-5e8c85841d45"},"vehicle_type_id":"4","last_reported":1740243998,"current_range_meters":8000,"station_id":"ce4bhe12rcd13ifvqf30","pricing_plan_id":"cebpf4jnsgd1na2vs0mg"},{"bike_id":"fceb7649-1c8f-4dd3-a253-90704acf298e","system_id":"levelo_inurba_marseille","lat":43.29542,"lon":5.38541,"is_reserved":false,"is_disabled":false,"rental_uris":{"android":"levelo://app?vid=fceb7649-1c8f-4dd3-a253-90704acf298e","ios":"levelo://app?vid=fceb7649-1c8f-4dd3-a253-90704acf298e"},"vehicle_type_id":"4","last_reported":1740243998,"current_range_meters":8000,"station_id":"ce4bgih2rcd13ifvqba0","pricing_plan_id":"cebpf4jnsgd1na2vs0mg"},{"bike_id":"ce0042bc-0158-45a5-b488-6d8e95acbba9","system_id":"levelo_inurba_marseille","lat":43.26229,"lon":5.40461,"is_reserved":false,"is_disabled":false,"rental_uris":{"android":"levelo://app?vid=ce0042bc-0158-45a5-b488-6d8e95acbba9","ios":"levelo://app?vid=ce0042bc-0158-45a5-b488-6d8e95acbba9"},"vehicle_type_id":"4","last_reported":1740243998,"current_range_meters":8400,"station_id":"ce4bhmh2rcd13ifvqgmg","pricing_plan_id":"cebpf4jnsgd1na2vs0mg"},{"bike_id":"796f8f9a-a275-4738-8ac7-938c4d42bed5","system_id":"levelo_inurba_marseille","lat":43.30598,"lon":5.39356,"is_reserved":false,"is_disabled":false,"rental_uris":{"android":"levelo://app?vid=796f8f9a-a275-4738-8ac7-938c4d42bed5","ios":"levelo://app?vid=796f8f9a-a275-4738-8ac7-938c4d42bed5"},"vehicle_type_id":"4","last_reported":1740243998,"current_range_meters":8400,"station_id":"ce4bh0p2rcd13ifvqd80","pricing_plan_id":"cebpf4jnsgd1na2vs0mg"},{"bike_id":"6a4cd183-067e-4d15-b1a0-84810908b56c","system_id":"levelo_inurba_marseille","lat":43.24828,"lon":5.37426,"is_reserved":false,"is_disabled":false,"rental_uris":{"android":"levelo://app?vid=6a4cd183-067e-4d15-b1a0-84810908b56c","ios":"levelo://app?vid=6a4cd183-067e-4d15-b1a0-84810908b56c"},"vehicle_type_id":"4","last_reported":1740243998,"current_range_meters":8400,"station_id":"ce4bhgh2rcd13ifvqfb0","pricing_plan_id":"cebpf4jnsgd1na2vs0mg"},{"bike_id":"70a9f6cd-6f8f-45e9-b247-00a9aec8526a","system_id":"levelo_inurba_marseille","lat":43.26783,"lon":5.39422,"is_reserved":false,"is_disabled":false,"rental_uris":{"android":"levelo://app?vid=70a9f6cd-6f8f-45e9-b247-00a9aec8526a","ios":"levelo://app?vid=70a9f6cd-6f8f-45e9-b247-00a9aec8526a"},"vehicle_type_id":"4","last_reported":1740243998,"current_range_meters":8400,"station_id":"ce4bhh12rcd13ifvqfg0","pricing_plan_id":"cebpf4jnsgd1na2vs0mg"},{"bike_id":"e476bd43-af33-41e1-9538-aafb8788c66c","system_id":"levelo_inurba_marseille","lat":43.27189,"lon":5.39157,"is_reserved":false,"is_disabled":false,"rental_uris":{"android":"levelo://app?vid=e476bd43-af33-41e1-9538-aafb8788c66c","ios":"levelo://app?vid=e476bd43-af33-41e1-9538-aafb8788c66c"},"vehicle_type_id":"4","last_reported":1740243998,"current_range_meters":8400,"station_id":"ce4bhhp2rcd13ifvqfm0","pricing_plan_id":"cebpf4jnsgd1na2vs0mg"},{"bike_id":"ab46b189-6bae-4129-a7fd-10b3ccd5a48e","system_id":"levelo_inurba_marseille","lat":43.27198,"lon":5.4001,"is_reserved":false,"is_disabled":false,"rental_uris":{"android":"levelo://app?vid=ab46b189-6bae-4129-a7fd-10b3ccd5a48e","ios":"levelo://app?vid=ab46b189-6bae-4129-a7fd-10b3ccd5a48e"},"vehicle_type_id":"4","last_reported":1740243998,"current_range_meters":8400,"station_id":"","pricing_plan_id":"cebpf4jnsgd1na2vs0mg"},{"bike_id":"91817d94-291a-47c9-91fa-831208abfdc7","system_id":"levelo_inurba_marseille","lat":43.230657,"lon":5.354862,"is_reserved":false,"is_disabled":false,"rental_uris":{"android":"levelo://app?vid=91817d94-291a-47c9-91fa-831208abfdc7","ios":"levelo://app?vid=91817d94-291a-47c9-91fa-831208abfdc7"},"vehicle_type_id":"4","last_reported":1740243998,"current_range_meters":8400,"station_id":"cpo3342slgdg3j2ifvpg","pricing_plan_id":"cebpf4jnsgd1na2vs0mg"},{"bike_id":"d36edb82-8aac-47fc-abc1-2c2da5c2570c","system_id":"levelo_inurba_marseille","lat":43.28485,"lon":5.34998,"is_reserved":false,"is_disabled":false,"rental_uris":{"android":"levelo://app?vid=d36edb82-8aac-47fc-abc1-2c2da5c2570c","ios":"levelo://app?vid=d36edb82-8aac-47fc-abc1-2c2da5c2570c"},"vehicle_type_id":"4","last_reported":1740243998,"current_range_meters":8400,"station_id":"ce4bhbh2rcd13ifvqepg","pricing_plan_id":"cebpf4jnsgd1na2vs0mg"},{"bike_id":"32cb548e-3f9c-45c3-8ca4-71e2dff11160","system_id":"levelo_inurba_marseille","lat":43.26568,"lon":5.39017,"is_reserved":false,"is_disabled":false,"rental_uris":{"android":"levelo://app?vid=32cb548e-3f9c-45c3-8ca4-71e2dff11160","ios":"levelo://app?vid=32cb548e-3f9c-45c3-8ca4-71e2dff11160"},"vehicle_type_id":"4","last_reported":1740243998,"current_range_meters":8400,"station_id":"ce4bhe12rcd13ifvqf30","pricing_plan_id":"cebpf4jnsgd1na2vs0mg"},{"bike_id":"dff97760-570c-46db-bb34-6620f586209d","system_id":"levelo_inurba_marseille","lat":43.31758,"lon":5.39028,"is_reserved":false,"is_disabled":false,"rental_uris":{"android":"levelo://app?vid=dff97760-570c-46db-bb34-6620f586209d","ios":"levelo://app?vid=dff97760-570c-46db-bb34-6620f586209d"},"vehicle_type_id":"4","last_reported":1740243998,"current_range_meters":8800,"station_id":"ce4bhqp2rcd13ifvqhng","pricing_plan_id":"cebpf4jnsgd1na2vs0mg"},{"bike_id":"f32fe46d-1120-4c2c-97c5-cdbf2de4ccec","system_id":"levelo_inurba_marseille","lat":43.25937,"lon":5.40903,"is_reserved":false,"is_disabled":false,"rental_uris":{"android":"levelo://app?vid=f32fe46d-1120-4c2c-97c5-cdbf2de4ccec","ios":"levelo://app?vid=f32fe46d-1120-4c2c-97c5-cdbf2de4ccec"},"vehicle_type_id":"4","last_reported":1740243998,"current_range_meters":8800,"station_id":"ce4bhm92rcd13ifvqglg","pricing_plan_id":"cebpf4jnsgd1na2vs0mg"},{"bike_id":"02e5a977-1770-4539-a4cf-58d093480711","system_id":"levelo_inurba_marseille","lat":43.3055,"lon":5.36551,"is_reserved":false,"is_disabled":false,"rental_uris":{"android":"levelo://app?vid=02e5a977-1770-4539-a4cf-58d093480711","ios":"levelo://app?vid=02e5a977-1770-4539-a4cf-58d093480711"},"vehicle_type_id":"4","last_reported":1740243998,"current_range_meters":8800,"station_id":"ce4bgs12rcd13ifvqcag","pricing_plan_id":"cebpf4jnsgd1na2vs0mg"},{"bike_id":"60a5dd76-54f3-4c88-a21f-a91573e4fed7","system_id":"levelo_inurba_marseille","lat":43.28432,"lon":5.37508,"is_reserved":false,"is_disabled":false,"rental_uris":{"android":"levelo://app?vid=60a5dd76-54f3-4c88-a21f-a91573e4fed7","ios":"levelo://app?vid=60a5dd76-54f3-4c88-a21f-a91573e4fed7"},"vehicle_type_id":"4","last_reported":1740243998,"current_range_meters":8800,"station_id":"ce4bh412rcd13ifvqds0","pricing_plan_id":"cebpf4jnsgd1na2vs0mg"},{"bike_id":"e7745d79-39b0-43d2-8b66-c5c2372270d6","system_id":"levelo_inurba_marseille","lat":43.27375,"lon":5.36245,"is_reserved":false,"is_disabled":false,"rental_uris":{"android":"levelo://app?vid=e7745d79-39b0-43d2-8b66-c5c2372270d6","ios":"levelo://app?vid=e7745d79-39b0-43d2-8b66-c5c2372270d6"},"vehicle_type_id":"4","last_reported":1740243998,"current_range_meters":8800,"station_id":"ce4bhbh2rcd13ifvqeo0","pricing_plan_id":"cebpf4jnsgd1na2vs0mg"},{"bike_id":"a404738f-d592-4923-bb7f-8cad6bf8fec4","system_id":"levelo_inurba_marseille","lat":43.27952,"lon":5.38518,"is_reserved":false,"is_disabled":false,"rental_uris":{"android":"levelo://app?vid=a404738f-d592-4923-bb7f-8cad6bf8fec4","ios":"levelo://app?vid=a404738f-d592-4923-bb7f-8cad6bf8fec4"},"vehicle_type_id":"4","last_reported":1740243998,"current_range_meters":8800,"station_id":"","pricing_plan_id":"cebpf4jnsgd1na2vs0mg"},{"bike_id":"6d48938c-9b80-49b7-89e5-950ba7a6ce63","system_id":"levelo_inurba_marseille","lat":43.25932,"lon":5.40909,"is_reserved":false,"is_disabled":false,"rental_uris":{"android":"levelo://app?vid=6d48938c-9b80-49b7-89e5-950ba7a6ce63","ios":"levelo://app?vid=6d48938c-9b80-49b7-89e5-950ba7a6ce63"},"vehicle_type_id":"4","last_reported":1740243998,"current_range_meters":8800,"station_id":"ce4bhm92rcd13ifvqglg","pricing_plan_id":"cebpf4jnsgd1na2vs0mg"},{"bike_id":"7d01259a-1e25-4561-a6ba-18f72e7508bb","system_id":"levelo_inurba_marseille","lat":43.30146,"lon":5.38761,"is_reserved":false,"is_disabled":false,"rental_uris":{"android":"levelo://app?vid=7d01259a-1e25-4561-a6ba-18f72e7508bb","ios":"levelo://app?vid=7d01259a-1e25-4561-a6ba-18f72e7508bb"},"vehicle_type_id":"4","last_reported":1740243998,"current_range_meters":8800,"station_id":"ce4bghh2rcd13ifvqb60","pricing_plan_id":"cebpf4jnsgd1na2vs0mg"},{"bike_id":"12a750e0-a65d-4734-91ce-9b86e446a13f","system_id":"levelo_inurba_marseille","lat":43.27368,"lon":5.36251,"is_reserved":false,"is_disabled":false,"rental_uris":{"android":"levelo://app?vid=12a750e0-a65d-4734-91ce-9b86e446a13f","ios":"levelo://app?vid=12a750e0-a65d-4734-91ce-9b86e446a13f"},"vehicle_type_id":"4","last_reported":1740243998,"current_range_meters":9200,"station_id":"ce4bhbh2rcd13ifvqeo0","pricing_plan_id":"cebpf4jnsgd1na2vs0mg"},{"bike_id":"51f6de87-0444-48bf-b2ba-75171108f133","system_id":"levelo_inurba_marseille","lat":43.30963,"lon":5.39049,"is_reserved":false,"is_disabled":false,"rental_uris":{"android":"levelo://app?vid=51f6de87-0444-48bf-b2ba-75171108f133","ios":"levelo://app?vid=51f6de87-0444-48bf-b2ba-75171108f133"},"vehicle_type_id":"4","last_reported":1740243998,"current_range_meters":9200,"station_id":"ce4bgup2rcd13ifvqco0","pricing_plan_id":"cebpf4jnsgd1na2vs0mg"},{"bike_id":"2e442190-23bb-496b-a0a7-e69b56aafd94","system_id":"levelo_inurba_marseille","lat":43.29259,"lon":5.38437,"is_reserved":false,"is_disabled":false,"rental_uris":{"android":"levelo://app?vid=2e442190-23bb-496b-a0a7-e69b56aafd94","ios":"levelo://app?vid=2e442190-23bb-496b-a0a7-e69b56aafd94"},"vehicle_type_id":"4","last_reported":1740243998,"current_range_meters":9600,"station_id":"ce4bh692rcd13ifvqea0","pricing_plan_id":"cebpf4jnsgd1na2vs0mg"},{"bike_id":"5d2d1a8c-deab-4dc2-9082-406187fb677f","system_id":"levelo_inurba_marseille","lat":43.27904,"lon":5.38008,"is_reserved":false,"is_disabled":false,"rental_uris":{"android":"levelo://app?vid=5d2d1a8c-deab-4dc2-9082-406187fb677f","ios":"levelo://app?vid=5d2d1a8c-deab-4dc2-9082-406187fb677f"},"vehicle_type_id":"4","last_reported":1740243998,"current_range_meters":9600,"station_id":"ce4bhf92rcd13ifvqf50","pricing_plan_id":"cebpf4jnsgd1na2vs0mg"},{"bike_id":"bd05918f-dc6c-4817-900e-5ab34d1a9f2f","system_id":"levelo_inurba_marseille","lat":43.29004,"lon":5.35612,"is_reserved":false,"is_disabled":false,"rental_uris":{"android":"levelo://app?vid=bd05918f-dc6c-4817-900e-5ab34d1a9f2f","ios":"levelo://app?vid=bd05918f-dc6c-4817-900e-5ab34d1a9f2f"},"vehicle_type_id":"4","last_reported":1740243998,"current_range_meters":9600,"station_id":"ce4bhb92rcd13ifvqen0","pricing_plan_id":"cebpf4jnsgd1na2vs0mg"},{"bike_id":"78ccc1b5-e05d-4c30-bc5b-473f9d97e2cd","system_id":"levelo_inurba_marseille","lat":43.30125,"lon":5.37821,"is_reserved":false,"is_disabled":false,"rental_uris":{"android":"levelo://app?vid=78ccc1b5-e05d-4c30-bc5b-473f9d97e2cd","ios":"levelo://app?vid=78ccc1b5-e05d-4c30-bc5b-473f9d97e2cd"},"vehicle_type_id":"4","last_reported":1740243998,"current_range_meters":9600,"station_id":"","pricing_plan_id":"cebpf4jnsgd1na2vs0mg"},{"bike_id":"c4c21ed1-84ac-4afd-ab33-0f186828f5c2","system_id":"levelo_inurba_marseille","lat":43.29221,"lon":5.37143,"is_reserved":false,"is_disabled":false,"rental_uris":{"android":"levelo://app?vid=c4c21ed1-84ac-4afd-ab33-0f186828f5c2","ios":"levelo://app?vid=c4c21ed1-84ac-4afd-ab33-0f186828f5c2"},"vehicle_type_id":"4","last_reported":1740243998,"current_range_meters":9600,"station_id":"ce4bh512rcd13ifvqe2g","pricing_plan_id":"cebpf4jnsgd1na2vs0mg"},{"bike_id":"7bf9524e-fea9-4ff8-800d-d66c5e1b6889","system_id":"levelo_inurba_marseille","lat":43.23169,"lon":5.43692,"is_reserved":false,"is_disabled":false,"rental_uris":{"android":"levelo://app?vid=7bf9524e-fea9-4ff8-800d-d66c5e1b6889","ios":"levelo://app?vid=7bf9524e-fea9-4ff8-800d-d66c5e1b6889"},"vehicle_type_id":"4","last_reported":1740243998,"current_range_meters":9600,"station_id":"ce4bhmp2rcd13ifvqgog","pricing_plan_id":"cebpf4jnsgd1na2vs0mg"},{"bike_id":"79f1615c-ed26-44bf-8803-dae241feb020","system_id":"levelo_inurba_marseille","lat":43.25499,"lon":5.3765,"is_reserved":false,"is_disabled":false,"rental_uris":{"android":"levelo://app?vid=79f1615c-ed26-44bf-8803-dae241feb020","ios":"levelo://app?vid=79f1615c-ed26-44bf-8803-dae241feb020"},"vehicle_type_id":"4","last_reported":1740243998,"current_range_meters":9600,"station_id":"ce4bhh12rcd13ifvqff0","pricing_plan_id":"cebpf4jnsgd1na2vs0mg"},{"bike_id":"5d805d80-16e4-44f6-9af0-59f508a3355e","system_id":"levelo_inurba_marseille","lat":43.25,"lon":5.38933,"is_reserved":false,"is_disabled":false,"rental_uris":{"android":"levelo://app?vid=5d805d80-16e4-44f6-9af0-59f508a3355e","ios":"levelo://app?vid=5d805d80-16e4-44f6-9af0-59f508a3355e"},"vehicle_type_id":"4","last_reported":1740243998,"current_range_meters":9600,"station_id":"ce4bhgp2rcd13ifvqfd0","pricing_plan_id":"cebpf4jnsgd1na2vs0mg"},{"bike_id":"6e76d55f-f9b2-430b-9cc7-3205d74ee3ae","system_id":"levelo_inurba_marseille","lat":43.28038,"lon":5.36943,"is_reserved":false,"is_disabled":false,"rental_uris":{"android":"levelo://app?vid=6e76d55f-f9b2-430b-9cc7-3205d74ee3ae","ios":"levelo://app?vid=6e76d55f-f9b2-430b-9cc7-3205d74ee3ae"},"vehicle_type_id":"4","last_reported":1740243998,"current_range_meters":9600,"station_id":"ce4bha12rcd13ifvqef0","pricing_plan_id":"cebpf4jnsgd1na2vs0mg"},{"bike_id":"b985ad1f-1942-453b-b5eb-7462cafd1e31","system_id":"levelo_inurba_marseille","lat":43.231879,"lon":5.35552,"is_reserved":false,"is_disabled":false,"rental_uris":{"android":"levelo://app?vid=b985ad1f-1942-453b-b5eb-7462cafd1e31","ios":"levelo://app?vid=b985ad1f-1942-453b-b5eb-7462cafd1e31"},"vehicle_type_id":"4","last_reported":1740243998,"current_range_meters":9600,"station_id":"ce4bhu92rcd13ifvqi70","pricing_plan_id":"cebpf4jnsgd1na2vs0mg"},{"bike_id":"2751b50c-bdc7-4886-97a8-b28e8fbbb466","system_id":"levelo_inurba_marseille","lat":43.279724,"lon":5.387509,"is_reserved":false,"is_disabled":false,"rental_uris":{"android":"levelo://app?vid=2751b50c-bdc7-4886-97a8-b28e8fbbb466","ios":"levelo://app?vid=2751b50c-bdc7-4886-97a8-b28e8fbbb466"},"vehicle_type_id":"4","last_reported":1740243998,"current_range_meters":10000,"station_id":"ce4bhg12rcd13ifvqf80","pricing_plan_id":"cebpf4jnsgd1na2vs0mg"},{"bike_id":"1a3ceab6-ed06-46e5-8f3c-bc79a5dfc649","system_id":"levelo_inurba_marseille","lat":43.26062,"lon":5.39394,"is_reserved":false,"is_disabled":false,"rental_uris":{"android":"levelo://app?vid=1a3ceab6-ed06-46e5-8f3c-bc79a5dfc649","ios":"levelo://app?vid=1a3ceab6-ed06-46e5-8f3c-bc79a5dfc649"},"vehicle_type_id":"4","last_reported":1740243998,"current_range_meters":10000,"station_id":"ce4bhh92rcd13ifvqfj0","pricing_plan_id":"cebpf4jnsgd1na2vs0mg"},{"bike_id":"4a2d4025-43d5-412e-8f09-8ffaadd19824","system_id":"levelo_inurba_marseille","lat":43.23198,"lon":5.3555,"is_reserved":false,"is_disabled":false,"rental_uris":{"android":"levelo://app?vid=4a2d4025-43d5-412e-8f09-8ffaadd19824","ios":"levelo://app?vid=4a2d4025-43d5-412e-8f09-8ffaadd19824"},"vehicle_type_id":"4","last_reported":1740243998,"current_range_meters":10000,"station_id":"ce4bhu92rcd13ifvqi70","pricing_plan_id":"cebpf4jnsgd1na2vs0mg"},{"bike_id":"1db365c4-4028-4aa4-9d61-383c4b845103","system_id":"levelo_inurba_marseille","lat":43.30921,"lon":5.37217,"is_reserved":false,"is_disabled":false,"rental_uris":{"android":"levelo://app?vid=1db365c4-4028-4aa4-9d61-383c4b845103","ios":"levelo://app?vid=1db365c4-4028-4aa4-9d61-383c4b845103"},"vehicle_type_id":"4","last_reported":1740243998,"current_range_meters":10000,"station_id":"ce4bguh2rcd13ifvqckg","pricing_plan_id":"cebpf4jnsgd1na2vs0mg"},{"bike_id":"687b2a30-5c75-4354-9339-382e867e7223","system_id":"levelo_inurba_marseille","lat":43.30801,"lon":5.38144,"is_reserved":false,"is_disabled":false,"rental_uris":{"android":"levelo://app?vid=687b2a30-5c75-4354-9339-382e867e7223","ios":"levelo://app?vid=687b2a30-5c75-4354-9339-382e867e7223"},"vehicle_type_id":"4","last_reported":1740243998,"current_range_meters":10000,"station_id":"ce4bgt12rcd13ifvqce0","pricing_plan_id":"cebpf4jnsgd1na2vs0mg"},{"bike_id":"ba113183-374c-4d98-80f0-8303ec95b01f","system_id":"levelo_inurba_marseille","lat":43.26077,"lon":5.39383,"is_reserved":false,"is_disabled":false,"rental_uris":{"android":"levelo://app?vid=ba113183-374c-4d98-80f0-8303ec95b01f","ios":"levelo://app?vid=ba113183-374c-4d98-80f0-8303ec95b01f"},"vehicle_type_id":"4","last_reported":1740243998,"current_range_meters":10800,"station_id":"ce4bhh92rcd13ifvqfj0","pricing_plan_id":"cebpf4jnsgd1na2vs0mg"},{"bike_id":"3c232bab-88ac-4592-9031-c21395fd8a78","system_id":"levelo_inurba_marseille","lat":43.32363,"lon":5.36759,"is_reserved":false,"is_disabled":false,"rental_uris":{"android":"levelo://app?vid=3c232bab-88ac-4592-9031-c21395fd8a78","ios":"levelo://app?vid=3c232bab-88ac-4592-9031-c21395fd8a78"},"vehicle_type_id":"4","last_reported":1740243998,"current_range_meters":10800,"station_id":"ce4bhsh2rcd13ifvqi2g","pricing_plan_id":"cebpf4jnsgd1na2vs0mg"},{"bike_id":"9e34ff94-4206-4d85-a9da-dab3dd759910","system_id":"levelo_inurba_marseille","lat":43.3041,"lon":5.41282,"is_reserved":false,"is_disabled":false,"rental_uris":{"android":"levelo://app?vid=9e34ff94-4206-4d85-a9da-dab3dd759910","ios":"levelo://app?vid=9e34ff94-4206-4d85-a9da-dab3dd759910"},"vehicle_type_id":"4","last_reported":1740243998,"current_range_meters":10800,"station_id":"ce4bhop2rcd13ifvqh8g","pricing_plan_id":"cebpf4jnsgd1na2vs0mg"},{"bike_id":"29c9e1ee-b1e9-4f70-a5a6-dc4651f0ddfb","system_id":"levelo_inurba_marseille","lat":43.30304,"lon":5.39222,"is_reserved":false,"is_disabled":false,"rental_uris":{"android":"levelo://app?vid=29c9e1ee-b1e9-4f70-a5a6-dc4651f0ddfb","ios":"levelo://app?vid=29c9e1ee-b1e9-4f70-a5a6-dc4651f0ddfb"},"vehicle_type_id":"4","last_reported":1740243998,"current_range_meters":10800,"station_id":"ce4bgkh2rcd13ifvqbk0","pricing_plan_id":"cebpf4jnsgd1na2vs0mg"},{"bike_id":"02ce1bd2-d296-4b52-80f8-36a5ff8f50a7","system_id":"levelo_inurba_marseille","lat":43.27495,"lon":5.42447,"is_reserved":false,"is_disabled":false,"rental_uris":{"android":"levelo://app?vid=02ce1bd2-d296-4b52-80f8-36a5ff8f50a7","ios":"levelo://app?vid=02ce1bd2-d296-4b52-80f8-36a5ff8f50a7"},"vehicle_type_id":"4","last_reported":1740243998,"current_range_meters":10800,"station_id":"ce4bhn92rcd13ifvqgrg","pricing_plan_id":"cebpf4jnsgd1na2vs0mg"},{"bike_id":"f584dd5c-4aa6-405e-b001-a0fdf1024cb5","system_id":"levelo_inurba_marseille","lat":43.22935,"lon":5.35373,"is_reserved":false,"is_disabled":false,"rental_uris":{"android":"levelo://app?vid=f584dd5c-4aa6-405e-b001-a0fdf1024cb5","ios":"levelo://app?vid=f584dd5c-4aa6-405e-b001-a0fdf1024cb5"},"vehicle_type_id":"4","last_reported":1740243998,"current_range_meters":10800,"station_id":"cpo3532slgdg3j2ikp40","pricing_plan_id":"cebpf4jnsgd1na2vs0mg"},{"bike_id":"d4c2bf95-8d10-423b-bf49-456789e477c2","system_id":"levelo_inurba_marseille","lat":43.28417,"lon":5.37514,"is_reserved":false,"is_disabled":false,"rental_uris":{"android":"levelo://app?vid=d4c2bf95-8d10-423b-bf49-456789e477c2","ios":"levelo://app?vid=d4c2bf95-8d10-423b-bf49-456789e477c2"},"vehicle_type_id":"4","last_reported":1740243998,"current_range_meters":10800,"station_id":"ce4bh412rcd13ifvqds0","pricing_plan_id":"cebpf4jnsgd1na2vs0mg"},{"bike_id":"e7d86e51-54a6-4b4d-9947-776227cd3847","system_id":"levelo_inurba_marseille","lat":43.27074,"lon":5.42289,"is_reserved":false,"is_disabled":false,"rental_uris":{"android":"levelo://app?vid=e7d86e51-54a6-4b4d-9947-776227cd3847","ios":"levelo://app?vid=e7d86e51-54a6-4b4d-9947-776227cd3847"},"vehicle_type_id":"4","last_reported":1740243998,"current_range_meters":10800,"station_id":"ce4bhk92rcd13ifvqgb0","pricing_plan_id":"cebpf4jnsgd1na2vs0mg"},{"bike_id":"cf5c667d-46b8-40b1-bebd-beb4f163ce3c","system_id":"levelo_inurba_marseille","lat":43.28268,"lon":5.39064,"is_reserved":false,"is_disabled":false,"rental_uris":{"android":"levelo://app?vid=cf5c667d-46b8-40b1-bebd-beb4f163ce3c","ios":"levelo://app?vid=cf5c667d-46b8-40b1-bebd-beb4f163ce3c"},"vehicle_type_id":"4","last_reported":1740243998,"current_range_meters":10800,"station_id":"","pricing_plan_id":"cebpf4jnsgd1na2vs0mg"},{"bike_id":"958ac1c1-f7e6-46ec-8e01-a6589788bff6","system_id":"levelo_inurba_marseille","lat":43.2908,"lon":5.37165,"is_reserved":false,"is_disabled":false,"rental_uris":{"android":"levelo://app?vid=958ac1c1-f7e6-46ec-8e01-a6589788bff6","ios":"levelo://app?vid=958ac1c1-f7e6-46ec-8e01-a6589788bff6"},"vehicle_type_id":"4","last_reported":1740243998,"current_range_meters":11200,"station_id":"ce4bh5p2rcd13ifvqe4g","pricing_plan_id":"cebpf4jnsgd1na2vs0mg"},{"bike_id":"89816e7a-338d-4126-8ef0-cbb09f34aa62","system_id":"levelo_inurba_marseille","lat":43.26195,"lon":5.37449,"is_reserved":false,"is_disabled":false,"rental_uris":{"android":"levelo://app?vid=89816e7a-338d-4126-8ef0-cbb09f34aa62","ios":"levelo://app?vid=89816e7a-338d-4126-8ef0-cbb09f34aa62"},"vehicle_type_id":"4","last_reported":1740243998,"current_range_meters":11200,"station_id":"ce4bhgp2rcd13ifvqfc0","pricing_plan_id":"cebpf4jnsgd1na2vs0mg"},{"bike_id":"c12c7329-4bc0-4a0d-ae5b-521f86813584","system_id":"levelo_inurba_marseille","lat":43.24802,"lon":5.37446,"is_reserved":false,"is_disabled":false,"rental_uris":{"android":"levelo://app?vid=c12c7329-4bc0-4a0d-ae5b-521f86813584","ios":"levelo://app?vid=c12c7329-4bc0-4a0d-ae5b-521f86813584"},"vehicle_type_id":"4","last_reported":1740243998,"current_range_meters":11600,"station_id":"ce4bhgh2rcd13ifvqfb0","pricing_plan_id":"cebpf4jnsgd1na2vs0mg"},{"bike_id":"fc719a48-4f02-4ff0-a0b0-5867ff99caf1","system_id":"levelo_inurba_marseille","lat":43.3041,"lon":5.41281,"is_reserved":false,"is_disabled":false,"rental_uris":{"android":"levelo://app?vid=fc719a48-4f02-4ff0-a0b0-5867ff99caf1","ios":"levelo://app?vid=fc719a48-4f02-4ff0-a0b0-5867ff99caf1"},"vehicle_type_id":"4","last_reported":1740243998,"current_range_meters":11600,"station_id":"ce4bhop2rcd13ifvqh8g","pricing_plan_id":"cebpf4jnsgd1na2vs0mg"},{"bike_id":"c76531ac-1214-4592-9c1c-6b2ce2bc0cf8","system_id":"levelo_inurba_marseille","lat":43.23201,"lon":5.35542,"is_reserved":false,"is_disabled":false,"rental_uris":{"android":"levelo://app?vid=c76531ac-1214-4592-9c1c-6b2ce2bc0cf8","ios":"levelo://app?vid=c76531ac-1214-4592-9c1c-6b2ce2bc0cf8"},"vehicle_type_id":"4","last_reported":1740243998,"current_range_meters":11600,"station_id":"ce4bhu92rcd13ifvqi70","pricing_plan_id":"cebpf4jnsgd1na2vs0mg"},{"bike_id":"d3d3e97f-08ed-4b0a-8d34-8a003b86a4f8","system_id":"levelo_inurba_marseille","lat":43.26574,"lon":5.39004,"is_reserved":false,"is_disabled":false,"rental_uris":{"android":"levelo://app?vid=d3d3e97f-08ed-4b0a-8d34-8a003b86a4f8","ios":"levelo://app?vid=d3d3e97f-08ed-4b0a-8d34-8a003b86a4f8"},"vehicle_type_id":"4","last_reported":1740243998,"current_range_meters":11600,"station_id":"ce4bhe12rcd13ifvqf30","pricing_plan_id":"cebpf4jnsgd1na2vs0mg"},{"bike_id":"b076086d-20aa-4b4b-8d7e-f0b01733d00f","system_id":"levelo_inurba_marseille","lat":43.28274,"lon":5.35052,"is_reserved":false,"is_disabled":false,"rental_uris":{"android":"levelo://app?vid=b076086d-20aa-4b4b-8d7e-f0b01733d00f","ios":"levelo://app?vid=b076086d-20aa-4b4b-8d7e-f0b01733d00f"},"vehicle_type_id":"4","last_reported":1740243998,"current_range_meters":11600,"station_id":"ce4bhbp2rcd13ifvqerg","pricing_plan_id":"cebpf4jnsgd1na2vs0mg"},{"bike_id":"9f7dc3f6-3369-44b0-bc37-0b812db6393e","system_id":"levelo_inurba_marseille","lat":43.26204,"lon":5.37926,"is_reserved":false,"is_disabled":false,"rental_uris":{"android":"levelo://app?vid=9f7dc3f6-3369-44b0-bc37-0b812db6393e","ios":"levelo://app?vid=9f7dc3f6-3369-44b0-bc37-0b812db6393e"},"vehicle_type_id":"4","last_reported":1740243998,"current_range_meters":11600,"station_id":"ce4bhjp2rcd13ifvqg90","pricing_plan_id":"cebpf4jnsgd1na2vs0mg"},{"bike_id":"519c0d90-c598-4074-9c80-d5e1565ff705","system_id":"levelo_inurba_marseille","lat":43.23063,"lon":5.35488,"is_reserved":false,"is_disabled":false,"rental_uris":{"android":"levelo://app?vid=519c0d90-c598-4074-9c80-d5e1565ff705","ios":"levelo://app?vid=519c0d90-c598-4074-9c80-d5e1565ff705"},"vehicle_type_id":"4","last_reported":1740243998,"current_range_meters":12000,"station_id":"cpo3342slgdg3j2ifvpg","pricing_plan_id":"cebpf4jnsgd1na2vs0mg"},{"bike_id":"77943846-ec8c-42e0-b226-4fea79f63af0","system_id":"levelo_inurba_marseille","lat":43.29251,"lon":5.40902,"is_reserved":false,"is_disabled":false,"rental_uris":{"android":"levelo://app?vid=77943846-ec8c-42e0-b226-4fea79f63af0","ios":"levelo://app?vid=77943846-ec8c-42e0-b226-4fea79f63af0"},"vehicle_type_id":"4","last_reported":1740243998,"current_range_meters":12000,"station_id":"ce4bh192rcd13ifvqdc0","pricing_plan_id":"cebpf4jnsgd1na2vs0mg"},{"bike_id":"0b35ef10-1d1d-4e8a-949e-c3122c5e3874","system_id":"levelo_inurba_marseille","lat":43.23956,"lon":5.36635,"is_reserved":false,"is_disabled":false,"rental_uris":{"android":"levelo://app?vid=0b35ef10-1d1d-4e8a-949e-c3122c5e3874","ios":"levelo://app?vid=0b35ef10-1d1d-4e8a-949e-c3122c5e3874"},"vehicle_type_id":"4","last_reported":1740243998,"current_range_meters":12000,"station_id":"ce4bhi12rcd13ifvqfp0","pricing_plan_id":"cebpf4jnsgd1na2vs0mg"},{"bike_id":"f575e1db-263b-462f-9b98-e94e0deda23a","system_id":"levelo_inurba_marseille","lat":43.29223,"lon":5.36059,"is_reserved":false,"is_disabled":false,"rental_uris":{"android":"levelo://app?vid=f575e1db-263b-462f-9b98-e94e0deda23a","ios":"levelo://app?vid=f575e1db-263b-462f-9b98-e94e0deda23a"},"vehicle_type_id":"4","last_reported":1740243998,"current_range_meters":12000,"station_id":"ce4bhbh2rcd13ifvqeqg","pricing_plan_id":"cebpf4jnsgd1na2vs0mg"},{"bike_id":"0dd7a6a7-a2db-4a68-977f-712cd46b599f","system_id":"levelo_inurba_marseille","lat":43.26939,"lon":5.40247,"is_reserved":false,"is_disabled":false,"rental_uris":{"android":"levelo://app?vid=0dd7a6a7-a2db-4a68-977f-712cd46b599f","ios":"levelo://app?vid=0dd7a6a7-a2db-4a68-977f-712cd46b599f"},"vehicle_type_id":"4","last_reported":1740243998,"current_range_meters":12000,"station_id":"cjm6bp8fraef2m0cb0m0","pricing_plan_id":"cebpf4jnsgd1na2vs0mg"},{"bike_id":"ddb48cd1-bcb3-4cac-8164-1ae412ca1019","system_id":"levelo_inurba_marseille","lat":43.29317,"lon":5.37225,"is_reserved":false,"is_disabled":false,"rental_uris":{"android":"levelo://app?vid=ddb48cd1-bcb3-4cac-8164-1ae412ca1019","ios":"levelo://app?vid=ddb48cd1-bcb3-4cac-8164-1ae412ca1019"},"vehicle_type_id":"4","last_reported":1740243998,"current_range_meters":12000,"station_id":"ce4bgh92rcd13ifvqb40","pricing_plan_id":"cebpf4jnsgd1na2vs0mg"},{"bike_id":"f90c5392-866d-49a6-b3cf-a38eb2ca2aeb","system_id":"levelo_inurba_marseille","lat":43.25117,"lon":5.40327,"is_reserved":false,"is_disabled":false,"rental_uris":{"android":"levelo://app?vid=f90c5392-866d-49a6-b3cf-a38eb2ca2aeb","ios":"levelo://app?vid=f90c5392-866d-49a6-b3cf-a38eb2ca2aeb"},"vehicle_type_id":"4","last_reported":1740243998,"current_range_meters":12000,"station_id":"ce4bhlh2rcd13ifvqgig","pricing_plan_id":"cebpf4jnsgd1na2vs0mg"},{"bike_id":"f9850e31-ee3f-4699-8cfc-67ccbe8ef2c7","system_id":"levelo_inurba_marseille","lat":43.255,"lon":5.37649,"is_reserved":false,"is_disabled":false,"rental_uris":{"android":"levelo://app?vid=f9850e31-ee3f-4699-8cfc-67ccbe8ef2c7","ios":"levelo://app?vid=f9850e31-ee3f-4699-8cfc-67ccbe8ef2c7"},"vehicle_type_id":"4","last_reported":1740243998,"current_range_meters":12400,"station_id":"ce4bhh12rcd13ifvqff0","pricing_plan_id":"cebpf4jnsgd1na2vs0mg"},{"bike_id":"3337cd90-bf48-41f0-a733-5e782d6f712b","system_id":"levelo_inurba_marseille","lat":43.29727,"lon":5.3769,"is_reserved":false,"is_disabled":true,"rental_uris":{"android":"levelo://app?vid=3337cd90-bf48-41f0-a733-5e782d6f712b","ios":"levelo://app?vid=3337cd90-bf48-41f0-a733-5e782d6f712b"},"vehicle_type_id":"4","last_reported":1740243998,"current_range_meters":12400,"station_id":"ce4bgkh2rcd13ifvqbl0","pricing_plan_id":"cebpf4jnsgd1na2vs0mg"},{"bike_id":"a5e35c59-a2a4-4756-aa48-cf7cad8085e2","system_id":"levelo_inurba_marseille","lat":43.28079,"lon":5.42801,"is_reserved":false,"is_disabled":false,"rental_uris":{"android":"levelo://app?vid=a5e35c59-a2a4-4756-aa48-cf7cad8085e2","ios":"levelo://app?vid=a5e35c59-a2a4-4756-aa48-cf7cad8085e2"},"vehicle_type_id":"4","last_reported":1740243998,"current_range_meters":12400,"station_id":"ce4bhnh2rcd13ifvqgug","pricing_plan_id":"cebpf4jnsgd1na2vs0mg"},{"bike_id":"8e73b89d-9d27-4c00-8fa7-88c1a7824a2d","system_id":"levelo_inurba_marseille","lat":43.29563,"lon":5.37516,"is_reserved":false,"is_disabled":false,"rental_uris":{"android":"levelo://app?vid=8e73b89d-9d27-4c00-8fa7-88c1a7824a2d","ios":"levelo://app?vid=8e73b89d-9d27-4c00-8fa7-88c1a7824a2d"},"vehicle_type_id":"4","last_reported":1740243998,"current_range_meters":12800,"station_id":"ce4bgh92rcd13ifvqb50","pricing_plan_id":"cebpf4jnsgd1na2vs0mg"},{"bike_id":"1b5b87c8-f96f-4740-8b60-bcc62c6e3f59","system_id":"levelo_inurba_marseille","lat":43.31391,"lon":5.38454,"is_reserved":false,"is_disabled":false,"rental_uris":{"android":"levelo://app?vid=1b5b87c8-f96f-4740-8b60-bcc62c6e3f59","ios":"levelo://app?vid=1b5b87c8-f96f-4740-8b60-bcc62c6e3f59"},"vehicle_type_id":"4","last_reported":1740243998,"current_range_meters":12800,"station_id":"ce4bgt92rcd13ifvqcf0","pricing_plan_id":"cebpf4jnsgd1na2vs0mg"},{"bike_id":"c6a1ef00-1084-493b-8248-9658c4452943","system_id":"levelo_inurba_marseille","lat":43.28274,"lon":5.39042,"is_reserved":false,"is_disabled":false,"rental_uris":{"android":"levelo://app?vid=c6a1ef00-1084-493b-8248-9658c4452943","ios":"levelo://app?vid=c6a1ef00-1084-493b-8248-9658c4452943"},"vehicle_type_id":"4","last_reported":1740243998,"current_range_meters":12800,"station_id":"","pricing_plan_id":"cebpf4jnsgd1na2vs0mg"},{"bike_id":"a295e3b4-b31b-4d71-989a-12f449db7098","system_id":"levelo_inurba_marseille","lat":43.29533,"lon":5.37501,"is_reserved":false,"is_disabled":false,"rental_uris":{"android":"levelo://app?vid=a295e3b4-b31b-4d71-989a-12f449db7098","ios":"levelo://app?vid=a295e3b4-b31b-4d71-989a-12f449db7098"},"vehicle_type_id":"4","last_reported":1740243998,"current_range_meters":12800,"station_id":"ce4bgkp2rcd13ifvqbmg","pricing_plan_id":"cebpf4jnsgd1na2vs0mg"},{"bike_id":"ea97934c-201b-489e-b6b7-9ad7b1c1fbf8","system_id":"levelo_inurba_marseille","lat":43.2621,"lon":5.37442,"is_reserved":false,"is_disabled":false,"rental_uris":{"android":"levelo://app?vid=ea97934c-201b-489e-b6b7-9ad7b1c1fbf8","ios":"levelo://app?vid=ea97934c-201b-489e-b6b7-9ad7b1c1fbf8"},"vehicle_type_id":"4","last_reported":1740243998,"current_range_meters":13600,"station_id":"ce4bhgp2rcd13ifvqfc0","pricing_plan_id":"cebpf4jnsgd1na2vs0mg"},{"bike_id":"1b0d6542-f74d-4dd5-b78b-1cd1115ff80b","system_id":"levelo_inurba_marseille","lat":43.30642,"lon":5.37363,"is_reserved":false,"is_disabled":false,"rental_uris":{"android":"levelo://app?vid=1b0d6542-f74d-4dd5-b78b-1cd1115ff80b","ios":"levelo://app?vid=1b0d6542-f74d-4dd5-b78b-1cd1115ff80b"},"vehicle_type_id":"4","last_reported":1740243998,"current_range_meters":13600,"station_id":"","pricing_plan_id":"cebpf4jnsgd1na2vs0mg"},{"bike_id":"ab8e4fa1-a748-4b68-9f46-2fdc2afb052f","system_id":"levelo_inurba_marseille","lat":43.25829,"lon":5.39445,"is_reserved":false,"is_disabled":false,"rental_uris":{"android":"levelo://app?vid=ab8e4fa1-a748-4b68-9f46-2fdc2afb052f","ios":"levelo://app?vid=ab8e4fa1-a748-4b68-9f46-2fdc2afb052f"},"vehicle_type_id":"4","last_reported":1740243998,"current_range_meters":13600,"station_id":"ce4bhip2rcd13ifvqft0","pricing_plan_id":"cebpf4jnsgd1na2vs0mg"},{"bike_id":"83a74172-d6f1-4810-97f8-073cfc3bfc1f","system_id":"levelo_inurba_marseille","lat":43.31332,"lon":5.39693,"is_reserved":false,"is_disabled":false,"rental_uris":{"android":"levelo://app?vid=83a74172-d6f1-4810-97f8-073cfc3bfc1f","ios":"levelo://app?vid=83a74172-d6f1-4810-97f8-073cfc3bfc1f"},"vehicle_type_id":"4","last_reported":1740243998,"current_range_meters":13600,"station_id":"ce4bgvp2rcd13ifvqcu0","pricing_plan_id":"cebpf4jnsgd1na2vs0mg"},{"bike_id":"8734df72-3d3d-4454-903b-7857debc07e9","system_id":"levelo_inurba_marseille","lat":43.31355,"lon":5.38494,"is_reserved":false,"is_disabled":false,"rental_uris":{"android":"levelo://app?vid=8734df72-3d3d-4454-903b-7857debc07e9","ios":"levelo://app?vid=8734df72-3d3d-4454-903b-7857debc07e9"},"vehicle_type_id":"4","last_reported":1740243998,"current_range_meters":13600,"station_id":"ce4bgt92rcd13ifvqcf0","pricing_plan_id":"cebpf4jnsgd1na2vs0mg"},{"bike_id":"d1c5149b-69ee-4f70-af16-10f65046252d","system_id":"levelo_inurba_marseille","lat":43.28667,"lon":5.3636,"is_reserved":false,"is_disabled":false,"rental_uris":{"android":"levelo://app?vid=d1c5149b-69ee-4f70-af16-10f65046252d","ios":"levelo://app?vid=d1c5149b-69ee-4f70-af16-10f65046252d"},"vehicle_type_id":"4","last_reported":1740243998,"current_range_meters":13600,"station_id":"ce4bhah2rcd13ifvqej0","pricing_plan_id":"cebpf4jnsgd1na2vs0mg"},{"bike_id":"d88699b9-7a50-415c-9cdb-a35fdc00ed80","system_id":"levelo_inurba_marseille","lat":43.29934,"lon":5.37193,"is_reserved":false,"is_disabled":false,"rental_uris":{"android":"levelo://app?vid=d88699b9-7a50-415c-9cdb-a35fdc00ed80","ios":"levelo://app?vid=d88699b9-7a50-415c-9cdb-a35fdc00ed80"},"vehicle_type_id":"4","last_reported":1740243998,"current_range_meters":13600,"station_id":"","pricing_plan_id":"cebpf4jnsgd1na2vs0mg"},{"bike_id":"07a479cc-0e08-4f70-ada9-253ede2efb42","system_id":"levelo_inurba_marseille","lat":43.2619,"lon":5.37451,"is_reserved":false,"is_disabled":false,"rental_uris":{"android":"levelo://app?vid=07a479cc-0e08-4f70-ada9-253ede2efb42","ios":"levelo://app?vid=07a479cc-0e08-4f70-ada9-253ede2efb42"},"vehicle_type_id":"4","last_reported":1740243998,"current_range_meters":13600,"station_id":"ce4bhgp2rcd13ifvqfc0","pricing_plan_id":"cebpf4jnsgd1na2vs0mg"},{"bike_id":"0dc10df1-2422-4347-8406-45044f046857","system_id":"levelo_inurba_marseille","lat":43.27372,"lon":5.36242,"is_reserved":false,"is_disabled":false,"rental_uris":{"android":"levelo://app?vid=0dc10df1-2422-4347-8406-45044f046857","ios":"levelo://app?vid=0dc10df1-2422-4347-8406-45044f046857"},"vehicle_type_id":"4","last_reported":1740243998,"current_range_meters":13600,"station_id":"ce4bhbh2rcd13ifvqeo0","pricing_plan_id":"cebpf4jnsgd1na2vs0mg"},{"bike_id":"b2616e31-79a9-48f4-961d-0249f5973ee0","system_id":"levelo_inurba_marseille","lat":43.29595,"lon":5.38103,"is_reserved":false,"is_disabled":false,"rental_uris":{"android":"levelo://app?vid=b2616e31-79a9-48f4-961d-0249f5973ee0","ios":"levelo://app?vid=b2616e31-79a9-48f4-961d-0249f5973ee0"},"vehicle_type_id":"4","last_reported":1740243998,"current_range_meters":13600,"station_id":"ce4bgl12rcd13ifvqbo0","pricing_plan_id":"cebpf4jnsgd1na2vs0mg"},{"bike_id":"1f7411cd-9379-4bab-a8bc-411b928d8602","system_id":"levelo_inurba_marseille","lat":43.27496,"lon":5.42454,"is_reserved":false,"is_disabled":false,"rental_uris":{"android":"levelo://app?vid=1f7411cd-9379-4bab-a8bc-411b928d8602","ios":"levelo://app?vid=1f7411cd-9379-4bab-a8bc-411b928d8602"},"vehicle_type_id":"4","last_reported":1740243998,"current_range_meters":14000,"station_id":"ce4bhn92rcd13ifvqgrg","pricing_plan_id":"cebpf4jnsgd1na2vs0mg"},{"bike_id":"61f8131e-6f6e-4b66-9454-f5a0d893a217","system_id":"levelo_inurba_marseille","lat":43.3078,"lon":5.37651,"is_reserved":false,"is_disabled":false,"rental_uris":{"android":"levelo://app?vid=61f8131e-6f6e-4b66-9454-f5a0d893a217","ios":"levelo://app?vid=61f8131e-6f6e-4b66-9454-f5a0d893a217"},"vehicle_type_id":"4","last_reported":1740243998,"current_range_meters":14000,"station_id":"ce4bgv92rcd13ifvqcq0","pricing_plan_id":"cebpf4jnsgd1na2vs0mg"},{"bike_id":"96d6269e-df53-445b-b7fe-76b1076b0b10","system_id":"levelo_inurba_marseille","lat":43.23966,"lon":5.36637,"is_reserved":false,"is_disabled":false,"rental_uris":{"android":"levelo://app?vid=96d6269e-df53-445b-b7fe-76b1076b0b10","ios":"levelo://app?vid=96d6269e-df53-445b-b7fe-76b1076b0b10"},"vehicle_type_id":"4","last_reported":1740243998,"current_range_meters":14000,"station_id":"ce4bhi12rcd13ifvqfp0","pricing_plan_id":"cebpf4jnsgd1na2vs0mg"},{"bike_id":"ade42ec7-3852-4921-ab95-2833a9e1a4ed","system_id":"levelo_inurba_marseille","lat":43.31323,"lon":5.39705,"is_reserved":false,"is_disabled":false,"rental_uris":{"android":"levelo://app?vid=ade42ec7-3852-4921-ab95-2833a9e1a4ed","ios":"levelo://app?vid=ade42ec7-3852-4921-ab95-2833a9e1a4ed"},"vehicle_type_id":"4","last_reported":1740243998,"current_range_meters":14000,"station_id":"ce4bgvp2rcd13ifvqcu0","pricing_plan_id":"cebpf4jnsgd1na2vs0mg"},{"bike_id":"ba56a155-c96b-44da-bad2-7c1936fb3d64","system_id":"levelo_inurba_marseille","lat":43.2872,"lon":5.37943,"is_reserved":false,"is_disabled":false,"rental_uris":{"android":"levelo://app?vid=ba56a155-c96b-44da-bad2-7c1936fb3d64","ios":"levelo://app?vid=ba56a155-c96b-44da-bad2-7c1936fb3d64"},"vehicle_type_id":"4","last_reported":1740243998,"current_range_meters":14000,"station_id":"ce4bh9p2rcd13ifvqec0","pricing_plan_id":"cebpf4jnsgd1na2vs0mg"},{"bike_id":"4f864959-2f79-4a57-8afb-d5cb0ea31626","system_id":"levelo_inurba_marseille","lat":43.30437,"lon":5.38894,"is_reserved":false,"is_disabled":false,"rental_uris":{"android":"levelo://app?vid=4f864959-2f79-4a57-8afb-d5cb0ea31626","ios":"levelo://app?vid=4f864959-2f79-4a57-8afb-d5cb0ea31626"},"vehicle_type_id":"4","last_reported":1740243998,"current_range_meters":14000,"station_id":"ce4bgk12rcd13ifvqbi0","pricing_plan_id":"cebpf4jnsgd1na2vs0mg"},{"bike_id":"4cc1b263-c509-4659-950d-f8de49907c13","system_id":"levelo_inurba_marseille","lat":43.2952,"lon":5.3751,"is_reserved":false,"is_disabled":false,"rental_uris":{"android":"levelo://app?vid=4cc1b263-c509-4659-950d-f8de49907c13","ios":"levelo://app?vid=4cc1b263-c509-4659-950d-f8de49907c13"},"vehicle_type_id":"4","last_reported":1740243998,"current_range_meters":14000,"station_id":"ce4bgkp2rcd13ifvqbmg","pricing_plan_id":"cebpf4jnsgd1na2vs0mg"},{"bike_id":"cd7d9584-7077-4592-b066-8054861a20e8","system_id":"levelo_inurba_marseille","lat":43.29558,"lon":5.37518,"is_reserved":false,"is_disabled":false,"rental_uris":{"android":"levelo://app?vid=cd7d9584-7077-4592-b066-8054861a20e8","ios":"levelo://app?vid=cd7d9584-7077-4592-b066-8054861a20e8"},"vehicle_type_id":"4","last_reported":1740243998,"current_range_meters":14000,"station_id":"ce4bgh92rcd13ifvqb50","pricing_plan_id":"cebpf4jnsgd1na2vs0mg"},{"bike_id":"029edfd1-00eb-4ff7-8e59-974c8fe45f33","system_id":"levelo_inurba_marseille","lat":43.26595,"lon":5.39036,"is_reserved":false,"is_disabled":false,"rental_uris":{"android":"levelo://app?vid=029edfd1-00eb-4ff7-8e59-974c8fe45f33","ios":"levelo://app?vid=029edfd1-00eb-4ff7-8e59-974c8fe45f33"},"vehicle_type_id":"4","last_reported":1740243998,"current_range_meters":14000,"station_id":"ce4bhe12rcd13ifvqf30","pricing_plan_id":"cebpf4jnsgd1na2vs0mg"},{"bike_id":"f75b7c43-b1e9-419b-9e88-97af31d30220","system_id":"levelo_inurba_marseille","lat":43.23954,"lon":5.3665,"is_reserved":false,"is_disabled":false,"rental_uris":{"android":"levelo://app?vid=f75b7c43-b1e9-419b-9e88-97af31d30220","ios":"levelo://app?vid=f75b7c43-b1e9-419b-9e88-97af31d30220"},"vehicle_type_id":"4","last_reported":1740243998,"current_range_meters":14400,"station_id":"ce4bhi12rcd13ifvqfp0","pricing_plan_id":"cebpf4jnsgd1na2vs0mg"},{"bike_id":"db244059-75ad-4de7-ae35-99a34bc9667e","system_id":"levelo_inurba_marseille","lat":43.26954,"lon":5.4021,"is_reserved":false,"is_disabled":false,"rental_uris":{"android":"levelo://app?vid=db244059-75ad-4de7-ae35-99a34bc9667e","ios":"levelo://app?vid=db244059-75ad-4de7-ae35-99a34bc9667e"},"vehicle_type_id":"4","last_reported":1740243998,"current_range_meters":14400,"station_id":"cjm6bp8fraef2m0cb0m0","pricing_plan_id":"cebpf4jnsgd1na2vs0mg"},{"bike_id":"1b53e3d4-b770-4f76-b1de-4fff2228f420","system_id":"levelo_inurba_marseille","lat":43.29596,"lon":5.38107,"is_reserved":false,"is_disabled":false,"rental_uris":{"android":"levelo://app?vid=1b53e3d4-b770-4f76-b1de-4fff2228f420","ios":"levelo://app?vid=1b53e3d4-b770-4f76-b1de-4fff2228f420"},"vehicle_type_id":"4","last_reported":1740243998,"current_range_meters":14400,"station_id":"ce4bgl12rcd13ifvqbo0","pricing_plan_id":"cebpf4jnsgd1na2vs0mg"},{"bike_id":"d5a6d216-d8f4-4854-9201-b5fb01080273","system_id":"levelo_inurba_marseille","lat":43.2862,"lon":5.35103,"is_reserved":false,"is_disabled":false,"rental_uris":{"android":"levelo://app?vid=d5a6d216-d8f4-4854-9201-b5fb01080273","ios":"levelo://app?vid=d5a6d216-d8f4-4854-9201-b5fb01080273"},"vehicle_type_id":"4","last_reported":1740243998,"current_range_meters":14800,"station_id":"ce4bhch2rcd13ifvqeug","pricing_plan_id":"cebpf4jnsgd1na2vs0mg"},{"bike_id":"422aab6a-12ac-47f7-ab9b-c92108e06d42","system_id":"levelo_inurba_marseille","lat":43.25498,"lon":5.37651,"is_reserved":false,"is_disabled":false,"rental_uris":{"android":"levelo://app?vid=422aab6a-12ac-47f7-ab9b-c92108e06d42","ios":"levelo://app?vid=422aab6a-12ac-47f7-ab9b-c92108e06d42"},"vehicle_type_id":"4","last_reported":1740243998,"current_range_meters":14800,"station_id":"ce4bhh12rcd13ifvqff0","pricing_plan_id":"cebpf4jnsgd1na2vs0mg"},{"bike_id":"dddcb2de-6549-4dff-8ef8-50b07deea5f5","system_id":"levelo_inurba_marseille","lat":43.29004,"lon":5.3561,"is_reserved":false,"is_disabled":false,"rental_uris":{"android":"levelo://app?vid=dddcb2de-6549-4dff-8ef8-50b07deea5f5","ios":"levelo://app?vid=dddcb2de-6549-4dff-8ef8-50b07deea5f5"},"vehicle_type_id":"4","last_reported":1740243998,"current_range_meters":14800,"station_id":"ce4bhb92rcd13ifvqen0","pricing_plan_id":"cebpf4jnsgd1na2vs0mg"},{"bike_id":"efedddb5-b9d1-4400-992c-c394f45f9ecd","system_id":"levelo_inurba_marseille","lat":43.29897,"lon":5.43657,"is_reserved":false,"is_disabled":false,"rental_uris":{"android":"levelo://app?vid=efedddb5-b9d1-4400-992c-c394f45f9ecd","ios":"levelo://app?vid=efedddb5-b9d1-4400-992c-c394f45f9ecd"},"vehicle_type_id":"4","last_reported":1740243998,"current_range_meters":14800,"station_id":"ce4bhpp2rcd13ifvqhfg","pricing_plan_id":"cebpf4jnsgd1na2vs0mg"},{"bike_id":"3fd2a98c-7939-498c-8625-9658300a849b","system_id":"levelo_inurba_marseille","lat":43.25939,"lon":5.40903,"is_reserved":false,"is_disabled":false,"rental_uris":{"android":"levelo://app?vid=3fd2a98c-7939-498c-8625-9658300a849b","ios":"levelo://app?vid=3fd2a98c-7939-498c-8625-9658300a849b"},"vehicle_type_id":"4","last_reported":1740243998,"current_range_meters":14800,"station_id":"ce4bhm92rcd13ifvqglg","pricing_plan_id":"cebpf4jnsgd1na2vs0mg"},{"bike_id":"180e1488-f29d-44a0-b5d6-968c27740ce6","system_id":"levelo_inurba_marseille","lat":43.26208,"lon":5.37443,"is_reserved":false,"is_disabled":false,"rental_uris":{"android":"levelo://app?vid=180e1488-f29d-44a0-b5d6-968c27740ce6","ios":"levelo://app?vid=180e1488-f29d-44a0-b5d6-968c27740ce6"},"vehicle_type_id":"4","last_reported":1740243998,"current_range_meters":14800,"station_id":"ce4bhgp2rcd13ifvqfc0","pricing_plan_id":"cebpf4jnsgd1na2vs0mg"},{"bike_id":"26985d78-417f-478c-982d-898e4e69d136","system_id":"levelo_inurba_marseille","lat":43.27919,"lon":5.39579,"is_reserved":false,"is_disabled":false,"rental_uris":{"android":"levelo://app?vid=26985d78-417f-478c-982d-898e4e69d136","ios":"levelo://app?vid=26985d78-417f-478c-982d-898e4e69d136"},"vehicle_type_id":"4","last_reported":1740243998,"current_range_meters":14800,"station_id":"ce4bhf92rcd13ifvqf40","pricing_plan_id":"cebpf4jnsgd1na2vs0mg"},{"bike_id":"79669527-8374-4a68-afc4-50139293fd4f","system_id":"levelo_inurba_marseille","lat":43.26057,"lon":5.39396,"is_reserved":false,"is_disabled":false,"rental_uris":{"android":"levelo://app?vid=79669527-8374-4a68-afc4-50139293fd4f","ios":"levelo://app?vid=79669527-8374-4a68-afc4-50139293fd4f"},"vehicle_type_id":"4","last_reported":1740243998,"current_range_meters":14800,"station_id":"ce4bhh92rcd13ifvqfj0","pricing_plan_id":"cebpf4jnsgd1na2vs0mg"},{"bike_id":"ad5d970e-426b-4f89-94bd-e7196f45d370","system_id":"levelo_inurba_marseille","lat":43.32116,"lon":5.36753,"is_reserved":false,"is_disabled":false,"rental_uris":{"android":"levelo://app?vid=ad5d970e-426b-4f89-94bd-e7196f45d370","ios":"levelo://app?vid=ad5d970e-426b-4f89-94bd-e7196f45d370"},"vehicle_type_id":"4","last_reported":1740243998,"current_range_meters":14800,"station_id":"ce4bhrh2rcd13ifvqhug","pricing_plan_id":"cebpf4jnsgd1na2vs0mg"},{"bike_id":"6bb44f71-e2a4-4da1-9a53-fbfa8fde2d17","system_id":"levelo_inurba_marseille","lat":43.28371,"lon":5.38635,"is_reserved":false,"is_disabled":false,"rental_uris":{"android":"levelo://app?vid=6bb44f71-e2a4-4da1-9a53-fbfa8fde2d17","ios":"levelo://app?vid=6bb44f71-e2a4-4da1-9a53-fbfa8fde2d17"},"vehicle_type_id":"4","last_reported":1740243998,"current_range_meters":15200,"station_id":"ce4bh492rcd13ifvqdvg","pricing_plan_id":"cebpf4jnsgd1na2vs0mg"},{"bike_id":"a6f31c2c-2516-48ad-ac90-24f57bca7a2b","system_id":"levelo_inurba_marseille","lat":43.29529,"lon":5.38542,"is_reserved":false,"is_disabled":false,"rental_uris":{"android":"levelo://app?vid=a6f31c2c-2516-48ad-ac90-24f57bca7a2b","ios":"levelo://app?vid=a6f31c2c-2516-48ad-ac90-24f57bca7a2b"},"vehicle_type_id":"4","last_reported":1740243998,"current_range_meters":15200,"station_id":"ce4bgih2rcd13ifvqba0","pricing_plan_id":"cebpf4jnsgd1na2vs0mg"},{"bike_id":"a545807c-63f8-4f83-90de-2002a723e026","system_id":"levelo_inurba_marseille","lat":43.2981,"lon":5.40408,"is_reserved":false,"is_disabled":false,"rental_uris":{"android":"levelo://app?vid=a545807c-63f8-4f83-90de-2002a723e026","ios":"levelo://app?vid=a545807c-63f8-4f83-90de-2002a723e026"},"vehicle_type_id":"4","last_reported":1740243998,"current_range_meters":15200,"station_id":"ce4bh112rcd13ifvqd90","pricing_plan_id":"cebpf4jnsgd1na2vs0mg"},{"bike_id":"0d2fbb93-0001-4e90-a9c9-3aa713112486","system_id":"levelo_inurba_marseille","lat":43.29777,"lon":5.39335,"is_reserved":false,"is_disabled":false,"rental_uris":{"android":"levelo://app?vid=0d2fbb93-0001-4e90-a9c9-3aa713112486","ios":"levelo://app?vid=0d2fbb93-0001-4e90-a9c9-3aa713112486"},"vehicle_type_id":"4","last_reported":1740243998,"current_range_meters":15200,"station_id":"chh1huq6cuj3fo74tm60","pricing_plan_id":"cebpf4jnsgd1na2vs0mg"},{"bike_id":"8e403f8a-b998-4fb1-bb90-54bf70e024a5","system_id":"levelo_inurba_marseille","lat":43.26935,"lon":5.389166,"is_reserved":false,"is_disabled":false,"rental_uris":{"android":"levelo://app?vid=8e403f8a-b998-4fb1-bb90-54bf70e024a5","ios":"levelo://app?vid=8e403f8a-b998-4fb1-bb90-54bf70e024a5"},"vehicle_type_id":"4","last_reported":1740243998,"current_range_meters":15200,"station_id":"ce4bhhh2rcd13ifvqfl0","pricing_plan_id":"cebpf4jnsgd1na2vs0mg"},{"bike_id":"6a02cb0f-f82c-49bb-932d-aed6a9803681","system_id":"levelo_inurba_marseille","lat":43.29173,"lon":5.37147,"is_reserved":false,"is_disabled":false,"rental_uris":{"android":"levelo://app?vid=6a02cb0f-f82c-49bb-932d-aed6a9803681","ios":"levelo://app?vid=6a02cb0f-f82c-49bb-932d-aed6a9803681"},"vehicle_type_id":"4","last_reported":1740243998,"current_range_meters":16000,"station_id":"ce4bha92rcd13ifvqeh0","pricing_plan_id":"cebpf4jnsgd1na2vs0mg"},{"bike_id":"cfb6e34f-9677-4118-8a62-0aa9ff42b2e7","system_id":"levelo_inurba_marseille","lat":43.29563,"lon":5.37521,"is_reserved":false,"is_disabled":false,"rental_uris":{"android":"levelo://app?vid=cfb6e34f-9677-4118-8a62-0aa9ff42b2e7","ios":"levelo://app?vid=cfb6e34f-9677-4118-8a62-0aa9ff42b2e7"},"vehicle_type_id":"4","last_reported":1740243998,"current_range_meters":16000,"station_id":"ce4bgh92rcd13ifvqb50","pricing_plan_id":"cebpf4jnsgd1na2vs0mg"},{"bike_id":"73be53bd-934c-44cf-8ded-0b08f5ac6550","system_id":"levelo_inurba_marseille","lat":43.280355,"lon":5.369506,"is_reserved":false,"is_disabled":false,"rental_uris":{"android":"levelo://app?vid=73be53bd-934c-44cf-8ded-0b08f5ac6550","ios":"levelo://app?vid=73be53bd-934c-44cf-8ded-0b08f5ac6550"},"vehicle_type_id":"4","last_reported":1740243998,"current_range_meters":16000,"station_id":"ce4bha12rcd13ifvqef0","pricing_plan_id":"cebpf4jnsgd1na2vs0mg"},{"bike_id":"bf955d35-f5d5-4c7a-acee-2eb7e71c40f9","system_id":"levelo_inurba_marseille","lat":43.26687,"lon":5.38275,"is_reserved":false,"is_disabled":false,"rental_uris":{"android":"levelo://app?vid=bf955d35-f5d5-4c7a-acee-2eb7e71c40f9","ios":"levelo://app?vid=bf955d35-f5d5-4c7a-acee-2eb7e71c40f9"},"vehicle_type_id":"4","last_reported":1740243998,"current_range_meters":16000,"station_id":"ce4bhg92rcd13ifvqf90","pricing_plan_id":"cebpf4jnsgd1na2vs0mg"},{"bike_id":"056c60ac-2ce9-4906-8008-6449aa7259bc","system_id":"levelo_inurba_marseille","lat":43.2961,"lon":5.37725,"is_reserved":false,"is_disabled":false,"rental_uris":{"android":"levelo://app?vid=056c60ac-2ce9-4906-8008-6449aa7259bc","ios":"levelo://app?vid=056c60ac-2ce9-4906-8008-6449aa7259bc"},"vehicle_type_id":"4","last_reported":1740243998,"current_range_meters":16000,"station_id":"ce4bgi92rcd13ifvqb90","pricing_plan_id":"cebpf4jnsgd1na2vs0mg"},{"bike_id":"ccdefed6-13d5-4f99-a8e0-201599b40ebb","system_id":"levelo_inurba_marseille","lat":43.22933,"lon":5.35382,"is_reserved":false,"is_disabled":false,"rental_uris":{"android":"levelo://app?vid=ccdefed6-13d5-4f99-a8e0-201599b40ebb","ios":"levelo://app?vid=ccdefed6-13d5-4f99-a8e0-201599b40ebb"},"vehicle_type_id":"4","last_reported":1740243998,"current_range_meters":16000,"station_id":"cpo3532slgdg3j2ikp40","pricing_plan_id":"cebpf4jnsgd1na2vs0mg"},{"bike_id":"7d01ed45-064b-418b-a80f-60a44c6d11ba","system_id":"levelo_inurba_marseille","lat":43.23061,"lon":5.35487,"is_reserved":false,"is_disabled":false,"rental_uris":{"android":"levelo://app?vid=7d01ed45-064b-418b-a80f-60a44c6d11ba","ios":"levelo://app?vid=7d01ed45-064b-418b-a80f-60a44c6d11ba"},"vehicle_type_id":"4","last_reported":1740243998,"current_range_meters":16000,"station_id":"cpo3342slgdg3j2ifvpg","pricing_plan_id":"cebpf4jnsgd1na2vs0mg"},{"bike_id":"8bebe458-1103-45f6-94e5-56cda3f81a00","system_id":"levelo_inurba_marseille","lat":43.27919,"lon":5.3958,"is_reserved":false,"is_disabled":false,"rental_uris":{"android":"levelo://app?vid=8bebe458-1103-45f6-94e5-56cda3f81a00","ios":"levelo://app?vid=8bebe458-1103-45f6-94e5-56cda3f81a00"},"vehicle_type_id":"4","last_reported":1740243998,"current_range_meters":16000,"station_id":"ce4bhf92rcd13ifvqf40","pricing_plan_id":"cebpf4jnsgd1na2vs0mg"},{"bike_id":"e4465a00-8376-4498-a0e6-8bb5789368eb","system_id":"levelo_inurba_marseille","lat":43.30309,"lon":5.39212,"is_reserved":false,"is_disabled":false,"rental_uris":{"android":"levelo://app?vid=e4465a00-8376-4498-a0e6-8bb5789368eb","ios":"levelo://app?vid=e4465a00-8376-4498-a0e6-8bb5789368eb"},"vehicle_type_id":"4","last_reported":1740243998,"current_range_meters":16000,"station_id":"ce4bgkh2rcd13ifvqbk0","pricing_plan_id":"cebpf4jnsgd1na2vs0mg"},{"bike_id":"19d1a5ab-670e-4386-875b-41b8b46ee488","system_id":"levelo_inurba_marseille","lat":43.23961,"lon":5.36645,"is_reserved":false,"is_disabled":false,"rental_uris":{"android":"levelo://app?vid=19d1a5ab-670e-4386-875b-41b8b46ee488","ios":"levelo://app?vid=19d1a5ab-670e-4386-875b-41b8b46ee488"},"vehicle_type_id":"4","last_reported":1740243998,"current_range_meters":16000,"station_id":"ce4bhi12rcd13ifvqfp0","pricing_plan_id":"cebpf4jnsgd1na2vs0mg"},{"bike_id":"2b55d732-7264-4751-841c-f63cdb42bafe","system_id":"levelo_inurba_marseille","lat":43.30957,"lon":5.39049,"is_reserved":false,"is_disabled":false,"rental_uris":{"android":"levelo://app?vid=2b55d732-7264-4751-841c-f63cdb42bafe","ios":"levelo://app?vid=2b55d732-7264-4751-841c-f63cdb42bafe"},"vehicle_type_id":"4","last_reported":1740243998,"current_range_meters":16000,"station_id":"ce4bgup2rcd13ifvqco0","pricing_plan_id":"cebpf4jnsgd1na2vs0mg"},{"bike_id":"6a0545c2-4c5f-4403-a0cc-10c0d93ab43f","system_id":"levelo_inurba_marseille","lat":43.28847,"lon":5.39306,"is_reserved":false,"is_disabled":false,"rental_uris":{"android":"levelo://app?vid=6a0545c2-4c5f-4403-a0cc-10c0d93ab43f","ios":"levelo://app?vid=6a0545c2-4c5f-4403-a0cc-10c0d93ab43f"},"vehicle_type_id":"4","last_reported":1740243998,"current_range_meters":16000,"station_id":"ce4bh2p2rcd13ifvqdi0","pricing_plan_id":"cebpf4jnsgd1na2vs0mg"},{"bike_id":"9de7bc96-f5c6-48ae-86b6-887443faf6de","system_id":"levelo_inurba_marseille","lat":43.27313,"lon":5.39107,"is_reserved":false,"is_disabled":false,"rental_uris":{"android":"levelo://app?vid=9de7bc96-f5c6-48ae-86b6-887443faf6de","ios":"levelo://app?vid=9de7bc96-f5c6-48ae-86b6-887443faf6de"},"vehicle_type_id":"4","last_reported":1740243998,"current_range_meters":16000,"station_id":"ce4bhgp2rcd13ifvqfe0","pricing_plan_id":"cebpf4jnsgd1na2vs0mg"},{"bike_id":"f6c82db5-cd0a-460a-a076-5bc78e053260","system_id":"levelo_inurba_marseille","lat":43.29296,"lon":5.37157,"is_reserved":false,"is_disabled":false,"rental_uris":{"android":"levelo://app?vid=f6c82db5-cd0a-460a-a076-5bc78e053260","ios":"levelo://app?vid=f6c82db5-cd0a-460a-a076-5bc78e053260"},"vehicle_type_id":"4","last_reported":1740243998,"current_range_meters":16000,"station_id":"ce4bgh92rcd13ifvqb40","pricing_plan_id":"cebpf4jnsgd1na2vs0mg"},{"bike_id":"cd1c00f0-c8b9-4e04-b4b5-658ee63fda16","system_id":"levelo_inurba_marseille","lat":43.29257,"lon":5.37615,"is_reserved":false,"is_disabled":false,"rental_uris":{"android":"levelo://app?vid=cd1c00f0-c8b9-4e04-b4b5-658ee63fda16","ios":"levelo://app?vid=cd1c00f0-c8b9-4e04-b4b5-658ee63fda16"},"vehicle_type_id":"4","last_reported":1740243998,"current_range_meters":16000,"station_id":"ce4bgi12rcd13ifvqb80","pricing_plan_id":"cebpf4jnsgd1na2vs0mg"},{"bike_id":"025e813a-671a-4ec8-9fc4-a9ae492304f7","system_id":"levelo_inurba_marseille","lat":43.31992,"lon":5.38148,"is_reserved":false,"is_disabled":false,"rental_uris":{"android":"levelo://app?vid=025e813a-671a-4ec8-9fc4-a9ae492304f7","ios":"levelo://app?vid=025e813a-671a-4ec8-9fc4-a9ae492304f7"},"vehicle_type_id":"4","last_reported":1740243998,"current_range_meters":16400,"station_id":"ce4bhr12rcd13ifvqhpg","pricing_plan_id":"cebpf4jnsgd1na2vs0mg"},{"bike_id":"6cee15f5-f5b0-4f78-80d2-62dd5deb5a0a","system_id":"levelo_inurba_marseille","lat":43.26561,"lon":5.39013,"is_reserved":false,"is_disabled":false,"rental_uris":{"android":"levelo://app?vid=6cee15f5-f5b0-4f78-80d2-62dd5deb5a0a","ios":"levelo://app?vid=6cee15f5-f5b0-4f78-80d2-62dd5deb5a0a"},"vehicle_type_id":"4","last_reported":1740243998,"current_range_meters":16400,"station_id":"ce4bhe12rcd13ifvqf30","pricing_plan_id":"cebpf4jnsgd1na2vs0mg"},{"bike_id":"2b6ecb53-343a-44d5-9a14-0fcac3e7f07f","system_id":"levelo_inurba_marseille","lat":43.30411,"lon":5.41289,"is_reserved":false,"is_disabled":false,"rental_uris":{"android":"levelo://app?vid=2b6ecb53-343a-44d5-9a14-0fcac3e7f07f","ios":"levelo://app?vid=2b6ecb53-343a-44d5-9a14-0fcac3e7f07f"},"vehicle_type_id":"4","last_reported":1740243998,"current_range_meters":16400,"station_id":"ce4bhop2rcd13ifvqh8g","pricing_plan_id":"cebpf4jnsgd1na2vs0mg"},{"bike_id":"f23c390c-c825-49e2-a478-4d6b8b763ff2","system_id":"levelo_inurba_marseille","lat":43.27173,"lon":5.40996,"is_reserved":false,"is_disabled":false,"rental_uris":{"android":"levelo://app?vid=f23c390c-c825-49e2-a478-4d6b8b763ff2","ios":"levelo://app?vid=f23c390c-c825-49e2-a478-4d6b8b763ff2"},"vehicle_type_id":"4","last_reported":1740243998,"current_range_meters":16400,"station_id":"ce4bhl12rcd13ifvqgf0","pricing_plan_id":"cebpf4jnsgd1na2vs0mg"},{"bike_id":"4262437a-7f00-4b16-8724-a70cfff4e6b1","system_id":"levelo_inurba_marseille","lat":43.29611,"lon":5.3771,"is_reserved":false,"is_disabled":false,"rental_uris":{"android":"levelo://app?vid=4262437a-7f00-4b16-8724-a70cfff4e6b1","ios":"levelo://app?vid=4262437a-7f00-4b16-8724-a70cfff4e6b1"},"vehicle_type_id":"4","last_reported":1740243998,"current_range_meters":16400,"station_id":"ce4bgi92rcd13ifvqb90","pricing_plan_id":"cebpf4jnsgd1na2vs0mg"},{"bike_id":"27fbdb13-6250-4da6-a292-878b65e631be","system_id":"levelo_inurba_marseille","lat":43.26783,"lon":5.39389,"is_reserved":false,"is_disabled":false,"rental_uris":{"android":"levelo://app?vid=27fbdb13-6250-4da6-a292-878b65e631be","ios":"levelo://app?vid=27fbdb13-6250-4da6-a292-878b65e631be"},"vehicle_type_id":"4","last_reported":1740243998,"current_range_meters":16400,"station_id":"ce4bhh12rcd13ifvqfg0","pricing_plan_id":"cebpf4jnsgd1na2vs0mg"},{"bike_id":"2be46ca5-9a7e-4748-b2fc-0ce7b4d7bf6e","system_id":"levelo_inurba_marseille","lat":43.29586,"lon":5.37731,"is_reserved":false,"is_disabled":false,"rental_uris":{"android":"levelo://app?vid=2be46ca5-9a7e-4748-b2fc-0ce7b4d7bf6e","ios":"levelo://app?vid=2be46ca5-9a7e-4748-b2fc-0ce7b4d7bf6e"},"vehicle_type_id":"4","last_reported":1740243998,"current_range_meters":16400,"station_id":"ce4bgi92rcd13ifvqb90","pricing_plan_id":"cebpf4jnsgd1na2vs0mg"},{"bike_id":"43674aa9-e1da-47ca-9ed0-1a05531b0e4a","system_id":"levelo_inurba_marseille","lat":43.3058,"lon":5.37184,"is_reserved":false,"is_disabled":false,"rental_uris":{"android":"levelo://app?vid=43674aa9-e1da-47ca-9ed0-1a05531b0e4a","ios":"levelo://app?vid=43674aa9-e1da-47ca-9ed0-1a05531b0e4a"},"vehicle_type_id":"4","last_reported":1740243998,"current_range_meters":16400,"station_id":"ce4bgqh2rcd13ifvqc4g","pricing_plan_id":"cebpf4jnsgd1na2vs0mg"},{"bike_id":"cef499f1-8704-421e-b1be-5c3f0277c6c7","system_id":"levelo_inurba_marseille","lat":43.28356,"lon":5.38635,"is_reserved":false,"is_disabled":false,"rental_uris":{"android":"levelo://app?vid=cef499f1-8704-421e-b1be-5c3f0277c6c7","ios":"levelo://app?vid=cef499f1-8704-421e-b1be-5c3f0277c6c7"},"vehicle_type_id":"4","last_reported":1740243998,"current_range_meters":16400,"station_id":"ce4bh492rcd13ifvqdvg","pricing_plan_id":"cebpf4jnsgd1na2vs0mg"},{"bike_id":"d0bb6e41-80c1-4c43-b652-1b70203c66ac","system_id":"levelo_inurba_marseille","lat":43.29894,"lon":5.43646,"is_reserved":false,"is_disabled":false,"rental_uris":{"android":"levelo://app?vid=d0bb6e41-80c1-4c43-b652-1b70203c66ac","ios":"levelo://app?vid=d0bb6e41-80c1-4c43-b652-1b70203c66ac"},"vehicle_type_id":"4","last_reported":1740243998,"current_range_meters":16400,"station_id":"ce4bhpp2rcd13ifvqhfg","pricing_plan_id":"cebpf4jnsgd1na2vs0mg"},{"bike_id":"299ff637-8f42-4bc6-8403-f99119dc6441","system_id":"levelo_inurba_marseille","lat":43.27387,"lon":5.36238,"is_reserved":false,"is_disabled":false,"rental_uris":{"android":"levelo://app?vid=299ff637-8f42-4bc6-8403-f99119dc6441","ios":"levelo://app?vid=299ff637-8f42-4bc6-8403-f99119dc6441"},"vehicle_type_id":"4","last_reported":1740243998,"current_range_meters":16400,"station_id":"ce4bhbh2rcd13ifvqeo0","pricing_plan_id":"cebpf4jnsgd1na2vs0mg"},{"bike_id":"085c5776-9daa-4525-94aa-d6342f2eb656","system_id":"levelo_inurba_marseille","lat":43.29003,"lon":5.35611,"is_reserved":false,"is_disabled":false,"rental_uris":{"android":"levelo://app?vid=085c5776-9daa-4525-94aa-d6342f2eb656","ios":"levelo://app?vid=085c5776-9daa-4525-94aa-d6342f2eb656"},"vehicle_type_id":"4","last_reported":1740243998,"current_range_meters":16400,"station_id":"ce4bhb92rcd13ifvqen0","pricing_plan_id":"cebpf4jnsgd1na2vs0mg"},{"bike_id":"2e193ad2-1d43-4cac-8342-bcef9743f59a","system_id":"levelo_inurba_marseille","lat":43.23188,"lon":5.3555,"is_reserved":false,"is_disabled":false,"rental_uris":{"android":"levelo://app?vid=2e193ad2-1d43-4cac-8342-bcef9743f59a","ios":"levelo://app?vid=2e193ad2-1d43-4cac-8342-bcef9743f59a"},"vehicle_type_id":"4","last_reported":1740243998,"current_range_meters":16800,"station_id":"ce4bhu92rcd13ifvqi70","pricing_plan_id":"cebpf4jnsgd1na2vs0mg"},{"bike_id":"627c5add-4147-48b0-b7cb-f0b199e341ef","system_id":"levelo_inurba_marseille","lat":43.2842,"lon":5.34977,"is_reserved":false,"is_disabled":false,"rental_uris":{"android":"levelo://app?vid=627c5add-4147-48b0-b7cb-f0b199e341ef","ios":"levelo://app?vid=627c5add-4147-48b0-b7cb-f0b199e341ef"},"vehicle_type_id":"4","last_reported":1740243998,"current_range_meters":16800,"station_id":"ce4bhbh2rcd13ifvqepg","pricing_plan_id":"cebpf4jnsgd1na2vs0mg"},{"bike_id":"49f0cfbd-4a05-40e7-84e3-188b77d24ee2","system_id":"levelo_inurba_marseille","lat":43.29344,"lon":5.37172,"is_reserved":false,"is_disabled":false,"rental_uris":{"android":"levelo://app?vid=49f0cfbd-4a05-40e7-84e3-188b77d24ee2","ios":"levelo://app?vid=49f0cfbd-4a05-40e7-84e3-188b77d24ee2"},"vehicle_type_id":"4","last_reported":1740243998,"current_range_meters":16800,"station_id":"ce4bgh92rcd13ifvqb40","pricing_plan_id":"cebpf4jnsgd1na2vs0mg"},{"bike_id":"a730d1f4-90aa-4115-be16-9d572f12016a","system_id":"levelo_inurba_marseille","lat":43.2928,"lon":5.37439,"is_reserved":false,"is_disabled":false,"rental_uris":{"android":"levelo://app?vid=a730d1f4-90aa-4115-be16-9d572f12016a","ios":"levelo://app?vid=a730d1f4-90aa-4115-be16-9d572f12016a"},"vehicle_type_id":"4","last_reported":1740243998,"current_range_meters":16800,"station_id":"ce4bgi12rcd13ifvqb70","pricing_plan_id":"cebpf4jnsgd1na2vs0mg"},{"bike_id":"29e74182-9cc7-4f06-99f2-45a8be67bfba","system_id":"levelo_inurba_marseille","lat":43.29784,"lon":5.39336,"is_reserved":false,"is_disabled":false,"rental_uris":{"android":"levelo://app?vid=29e74182-9cc7-4f06-99f2-45a8be67bfba","ios":"levelo://app?vid=29e74182-9cc7-4f06-99f2-45a8be67bfba"},"vehicle_type_id":"4","last_reported":1740243998,"current_range_meters":16800,"station_id":"chh1huq6cuj3fo74tm60","pricing_plan_id":"cebpf4jnsgd1na2vs0mg"},{"bike_id":"33cc0fcb-f6e1-44bc-9328-d3f75a5791c5","system_id":"levelo_inurba_marseille","lat":43.232,"lon":5.35555,"is_reserved":false,"is_disabled":false,"rental_uris":{"android":"levelo://app?vid=33cc0fcb-f6e1-44bc-9328-d3f75a5791c5","ios":"levelo://app?vid=33cc0fcb-f6e1-44bc-9328-d3f75a5791c5"},"vehicle_type_id":"4","last_reported":1740243998,"current_range_meters":16800,"station_id":"ce4bhu92rcd13ifvqi70","pricing_plan_id":"cebpf4jnsgd1na2vs0mg"},{"bike_id":"ccacbf74-37d6-4793-b513-215856727a7c","system_id":"levelo_inurba_marseille","lat":43.282638,"lon":5.350688,"is_reserved":false,"is_disabled":false,"rental_uris":{"android":"levelo://app?vid=ccacbf74-37d6-4793-b513-215856727a7c","ios":"levelo://app?vid=ccacbf74-37d6-4793-b513-215856727a7c"},"vehicle_type_id":"4","last_reported":1740243998,"current_range_meters":16800,"station_id":"ce4bhbp2rcd13ifvqerg","pricing_plan_id":"cebpf4jnsgd1na2vs0mg"},{"bike_id":"6874cabe-922f-4995-b906-7820f568a189","system_id":"levelo_inurba_marseille","lat":43.296256,"lon":5.377248,"is_reserved":false,"is_disabled":false,"rental_uris":{"android":"levelo://app?vid=6874cabe-922f-4995-b906-7820f568a189","ios":"levelo://app?vid=6874cabe-922f-4995-b906-7820f568a189"},"vehicle_type_id":"4","last_reported":1740243998,"current_range_meters":17200,"station_id":"ce4bgi92rcd13ifvqb90","pricing_plan_id":"cebpf4jnsgd1na2vs0mg"},{"bike_id":"e636832d-d31d-492b-9bcd-b899a106503d","system_id":"levelo_inurba_marseille","lat":43.2417,"lon":5.3639,"is_reserved":false,"is_disabled":false,"rental_uris":{"android":"levelo://app?vid=e636832d-d31d-492b-9bcd-b899a106503d","ios":"levelo://app?vid=e636832d-d31d-492b-9bcd-b899a106503d"},"vehicle_type_id":"4","last_reported":1740243998,"current_range_meters":17200,"station_id":"cpo36qri1sfpv3e86is0","pricing_plan_id":"cebpf4jnsgd1na2vs0mg"},{"bike_id":"4deb238d-2d9f-4358-b9a6-01f8fd38b603","system_id":"levelo_inurba_marseille","lat":43.29266,"lon":5.38449,"is_reserved":false,"is_disabled":false,"rental_uris":{"android":"levelo://app?vid=4deb238d-2d9f-4358-b9a6-01f8fd38b603","ios":"levelo://app?vid=4deb238d-2d9f-4358-b9a6-01f8fd38b603"},"vehicle_type_id":"4","last_reported":1740243998,"current_range_meters":17200,"station_id":"ce4bh692rcd13ifvqea0","pricing_plan_id":"cebpf4jnsgd1na2vs0mg"},{"bike_id":"9a0440b2-2d87-4d42-9e5a-19c640f58f17","system_id":"levelo_inurba_marseille","lat":43.2815,"lon":5.42642,"is_reserved":false,"is_disabled":false,"rental_uris":{"android":"levelo://app?vid=9a0440b2-2d87-4d42-9e5a-19c640f58f17","ios":"levelo://app?vid=9a0440b2-2d87-4d42-9e5a-19c640f58f17"},"vehicle_type_id":"4","last_reported":1740243998,"current_range_meters":17200,"station_id":"ce4bhnh2rcd13ifvqgug","pricing_plan_id":"cebpf4jnsgd1na2vs0mg"},{"bike_id":"7d4b257a-c60d-48e8-85d7-7dc3f985241e","system_id":"levelo_inurba_marseille","lat":43.29629,"lon":5.38562,"is_reserved":false,"is_disabled":false,"rental_uris":{"android":"levelo://app?vid=7d4b257a-c60d-48e8-85d7-7dc3f985241e","ios":"levelo://app?vid=7d4b257a-c60d-48e8-85d7-7dc3f985241e"},"vehicle_type_id":"4","last_reported":1740243998,"current_range_meters":17200,"station_id":"","pricing_plan_id":"cebpf4jnsgd1na2vs0mg"},{"bike_id":"a3610751-bbe4-4d3e-a717-1a0eebd2fb2a","system_id":"levelo_inurba_marseille","lat":43.30427,"lon":5.3759,"is_reserved":false,"is_disabled":false,"rental_uris":{"android":"levelo://app?vid=a3610751-bbe4-4d3e-a717-1a0eebd2fb2a","ios":"levelo://app?vid=a3610751-bbe4-4d3e-a717-1a0eebd2fb2a"},"vehicle_type_id":"4","last_reported":1740243998,"current_range_meters":17200,"station_id":"","pricing_plan_id":"cebpf4jnsgd1na2vs0mg"},{"bike_id":"6dbca27a-b11b-4578-88ad-29a3e981a514","system_id":"levelo_inurba_marseille","lat":43.30305,"lon":5.39227,"is_reserved":false,"is_disabled":false,"rental_uris":{"android":"levelo://app?vid=6dbca27a-b11b-4578-88ad-29a3e981a514","ios":"levelo://app?vid=6dbca27a-b11b-4578-88ad-29a3e981a514"},"vehicle_type_id":"4","last_reported":1740243998,"current_range_meters":17200,"station_id":"ce4bgkh2rcd13ifvqbk0","pricing_plan_id":"cebpf4jnsgd1na2vs0mg"},{"bike_id":"73a3ca88-4b12-49c9-b99a-6d2433b41fc9","system_id":"levelo_inurba_marseille","lat":43.27974,"lon":5.38735,"is_reserved":false,"is_disabled":false,"rental_uris":{"android":"levelo://app?vid=73a3ca88-4b12-49c9-b99a-6d2433b41fc9","ios":"levelo://app?vid=73a3ca88-4b12-49c9-b99a-6d2433b41fc9"},"vehicle_type_id":"4","last_reported":1740243998,"current_range_meters":17600,"station_id":"ce4bhg12rcd13ifvqf80","pricing_plan_id":"cebpf4jnsgd1na2vs0mg"},{"bike_id":"4caf490d-10e5-4073-8dae-a68a285775aa","system_id":"levelo_inurba_marseille","lat":43.24383,"lon":5.37054,"is_reserved":false,"is_disabled":false,"rental_uris":{"android":"levelo://app?vid=4caf490d-10e5-4073-8dae-a68a285775aa","ios":"levelo://app?vid=4caf490d-10e5-4073-8dae-a68a285775aa"},"vehicle_type_id":"4","last_reported":1740243998,"current_range_meters":17600,"station_id":"ce4bhhh2rcd13ifvqfk0","pricing_plan_id":"cebpf4jnsgd1na2vs0mg"},{"bike_id":"45e7a147-ed38-4ec3-b217-294172325861","system_id":"levelo_inurba_marseille","lat":43.27992,"lon":5.41661,"is_reserved":false,"is_disabled":false,"rental_uris":{"android":"levelo://app?vid=45e7a147-ed38-4ec3-b217-294172325861","ios":"levelo://app?vid=45e7a147-ed38-4ec3-b217-294172325861"},"vehicle_type_id":"4","last_reported":1740243998,"current_range_meters":17600,"station_id":"ce4bho12rcd13ifvqh1g","pricing_plan_id":"cebpf4jnsgd1na2vs0mg"},{"bike_id":"492adc2d-cf03-427e-9309-361c48b77834","system_id":"levelo_inurba_marseille","lat":43.29702,"lon":5.37316,"is_reserved":false,"is_disabled":false,"rental_uris":{"android":"levelo://app?vid=492adc2d-cf03-427e-9309-361c48b77834","ios":"levelo://app?vid=492adc2d-cf03-427e-9309-361c48b77834"},"vehicle_type_id":"4","last_reported":1740243998,"current_range_meters":17600,"station_id":"ce4bgk12rcd13ifvqbj0","pricing_plan_id":"cebpf4jnsgd1na2vs0mg"},{"bike_id":"7edad6f1-bb02-4747-8467-5494540e990b","system_id":"levelo_inurba_marseille","lat":43.250136,"lon":5.389143,"is_reserved":false,"is_disabled":false,"rental_uris":{"android":"levelo://app?vid=7edad6f1-bb02-4747-8467-5494540e990b","ios":"levelo://app?vid=7edad6f1-bb02-4747-8467-5494540e990b"},"vehicle_type_id":"4","last_reported":1740243998,"current_range_meters":17600,"station_id":"ce4bhgp2rcd13ifvqfd0","pricing_plan_id":"cebpf4jnsgd1na2vs0mg"},{"bike_id":"3e85bf3b-85fc-40b8-ba57-57a9f0e15acd","system_id":"levelo_inurba_marseille","lat":43.29028,"lon":5.38126,"is_reserved":false,"is_disabled":false,"rental_uris":{"android":"levelo://app?vid=3e85bf3b-85fc-40b8-ba57-57a9f0e15acd","ios":"levelo://app?vid=3e85bf3b-85fc-40b8-ba57-57a9f0e15acd"},"vehicle_type_id":"4","last_reported":1740243998,"current_range_meters":17600,"station_id":"ce4bh4p2rcd13ifvqe1g","pricing_plan_id":"cebpf4jnsgd1na2vs0mg"},{"bike_id":"5d48b9c8-c739-4d7b-adb2-45592683c436","system_id":"levelo_inurba_marseille","lat":43.31898,"lon":5.40725,"is_reserved":false,"is_disabled":false,"rental_uris":{"android":"levelo://app?vid=5d48b9c8-c739-4d7b-adb2-45592683c436","ios":"levelo://app?vid=5d48b9c8-c739-4d7b-adb2-45592683c436"},"vehicle_type_id":"4","last_reported":1740243998,"current_range_meters":18000,"station_id":"ce4bhq12rcd13ifvqhig","pricing_plan_id":"cebpf4jnsgd1na2vs0mg"},{"bike_id":"80e30e07-59ff-4807-b06b-c6dc1a9e08e2","system_id":"levelo_inurba_marseille","lat":43.33591,"lon":5.41011,"is_reserved":false,"is_disabled":true,"rental_uris":{"android":"levelo://app?vid=80e30e07-59ff-4807-b06b-c6dc1a9e08e2","ios":"levelo://app?vid=80e30e07-59ff-4807-b06b-c6dc1a9e08e2"},"vehicle_type_id":"4","last_reported":1740243998,"current_range_meters":18000,"station_id":"ce4bhqh2rcd13ifvqhmg","pricing_plan_id":"cebpf4jnsgd1na2vs0mg"},{"bike_id":"0e323633-b9b5-4343-bed5-c5f746e30f43","system_id":"levelo_inurba_marseille","lat":43.29523,"lon":5.37505,"is_reserved":false,"is_disabled":false,"rental_uris":{"android":"levelo://app?vid=0e323633-b9b5-4343-bed5-c5f746e30f43","ios":"levelo://app?vid=0e323633-b9b5-4343-bed5-c5f746e30f43"},"vehicle_type_id":"4","last_reported":1740243998,"current_range_meters":18000,"station_id":"ce4bgkp2rcd13ifvqbmg","pricing_plan_id":"cebpf4jnsgd1na2vs0mg"},{"bike_id":"28461393-61f9-4035-a3a1-f2dc97d1f71d","system_id":"levelo_inurba_marseille","lat":43.32008,"lon":5.41561,"is_reserved":false,"is_disabled":false,"rental_uris":{"android":"levelo://app?vid=28461393-61f9-4035-a3a1-f2dc97d1f71d","ios":"levelo://app?vid=28461393-61f9-4035-a3a1-f2dc97d1f71d"},"vehicle_type_id":"4","last_reported":1740243998,"current_range_meters":18000,"station_id":"ce4bhq92rcd13ifvqhkg","pricing_plan_id":"cebpf4jnsgd1na2vs0mg"},{"bike_id":"73c26411-8558-4cfc-903b-b0b94ad4e178","system_id":"levelo_inurba_marseille","lat":43.28613,"lon":5.35105,"is_reserved":false,"is_disabled":false,"rental_uris":{"android":"levelo://app?vid=73c26411-8558-4cfc-903b-b0b94ad4e178","ios":"levelo://app?vid=73c26411-8558-4cfc-903b-b0b94ad4e178"},"vehicle_type_id":"4","last_reported":1740243998,"current_range_meters":18000,"station_id":"ce4bhch2rcd13ifvqeug","pricing_plan_id":"cebpf4jnsgd1na2vs0mg"},{"bike_id":"24c85528-2e94-42c8-810a-70b04018934c","system_id":"levelo_inurba_marseille","lat":43.2926,"lon":5.40889,"is_reserved":false,"is_disabled":false,"rental_uris":{"android":"levelo://app?vid=24c85528-2e94-42c8-810a-70b04018934c","ios":"levelo://app?vid=24c85528-2e94-42c8-810a-70b04018934c"},"vehicle_type_id":"4","last_reported":1740243998,"current_range_meters":18000,"station_id":"ce4bh192rcd13ifvqdc0","pricing_plan_id":"cebpf4jnsgd1na2vs0mg"},{"bike_id":"fb4574cd-9f8d-413a-a653-b6171e037412","system_id":"levelo_inurba_marseille","lat":43.294182,"lon":5.386398,"is_reserved":false,"is_disabled":false,"rental_uris":{"android":"levelo://app?vid=fb4574cd-9f8d-413a-a653-b6171e037412","ios":"levelo://app?vid=fb4574cd-9f8d-413a-a653-b6171e037412"},"vehicle_type_id":"4","last_reported":1740243998,"current_range_meters":18000,"station_id":"ce4bh2h2rcd13ifvqdh0","pricing_plan_id":"cebpf4jnsgd1na2vs0mg"},{"bike_id":"869dbfde-2fd9-4695-8fd6-e1c922f42902","system_id":"levelo_inurba_marseille","lat":43.30538,"lon":5.38421,"is_reserved":false,"is_disabled":false,"rental_uris":{"android":"levelo://app?vid=869dbfde-2fd9-4695-8fd6-e1c922f42902","ios":"levelo://app?vid=869dbfde-2fd9-4695-8fd6-e1c922f42902"},"vehicle_type_id":"4","last_reported":1740243998,"current_range_meters":18000,"station_id":"ce4bgg92rcd13ifvqb30","pricing_plan_id":"cebpf4jnsgd1na2vs0mg"},{"bike_id":"0a07fd8f-07c3-44b3-88ee-91c445239a2f","system_id":"levelo_inurba_marseille","lat":43.2894,"lon":5.36635,"is_reserved":false,"is_disabled":false,"rental_uris":{"android":"levelo://app?vid=0a07fd8f-07c3-44b3-88ee-91c445239a2f","ios":"levelo://app?vid=0a07fd8f-07c3-44b3-88ee-91c445239a2f"},"vehicle_type_id":"4","last_reported":1740243998,"current_range_meters":18000,"station_id":"ce4bhap2rcd13ifvqek0","pricing_plan_id":"cebpf4jnsgd1na2vs0mg"},{"bike_id":"43c1fbec-7cb7-47e5-a536-0e8d7bf8b6f9","system_id":"levelo_inurba_marseille","lat":43.29252,"lon":5.40905,"is_reserved":false,"is_disabled":false,"rental_uris":{"android":"levelo://app?vid=43c1fbec-7cb7-47e5-a536-0e8d7bf8b6f9","ios":"levelo://app?vid=43c1fbec-7cb7-47e5-a536-0e8d7bf8b6f9"},"vehicle_type_id":"4","last_reported":1740243998,"current_range_meters":18000,"station_id":"ce4bh192rcd13ifvqdc0","pricing_plan_id":"cebpf4jnsgd1na2vs0mg"},{"bike_id":"6446150c-3214-4d63-b79e-72df80eb0418","system_id":"levelo_inurba_marseille","lat":43.29778,"lon":5.39333,"is_reserved":false,"is_disabled":false,"rental_uris":{"android":"levelo://app?vid=6446150c-3214-4d63-b79e-72df80eb0418","ios":"levelo://app?vid=6446150c-3214-4d63-b79e-72df80eb0418"},"vehicle_type_id":"4","last_reported":1740243998,"current_range_meters":18000,"station_id":"chh1huq6cuj3fo74tm60","pricing_plan_id":"cebpf4jnsgd1na2vs0mg"},{"bike_id":"94d81672-f077-455d-ad5d-d4332136c2a8","system_id":"levelo_inurba_marseille","lat":43.22941,"lon":5.35376,"is_reserved":false,"is_disabled":false,"rental_uris":{"android":"levelo://app?vid=94d81672-f077-455d-ad5d-d4332136c2a8","ios":"levelo://app?vid=94d81672-f077-455d-ad5d-d4332136c2a8"},"vehicle_type_id":"4","last_reported":1740243998,"current_range_meters":18800,"station_id":"cpo3532slgdg3j2ikp40","pricing_plan_id":"cebpf4jnsgd1na2vs0mg"},{"bike_id":"9faf844a-413f-419f-bdea-64830f7f2bfb","system_id":"levelo_inurba_marseille","lat":43.29905,"lon":5.37925,"is_reserved":false,"is_disabled":false,"rental_uris":{"android":"levelo://app?vid=9faf844a-413f-419f-bdea-64830f7f2bfb","ios":"levelo://app?vid=9faf844a-413f-419f-bdea-64830f7f2bfb"},"vehicle_type_id":"4","last_reported":1740243998,"current_range_meters":18800,"station_id":"","pricing_plan_id":"cebpf4jnsgd1na2vs0mg"},{"bike_id":"633582ee-71bf-4267-a690-605550763ab9","system_id":"levelo_inurba_marseille","lat":43.28038,"lon":5.36941,"is_reserved":false,"is_disabled":false,"rental_uris":{"android":"levelo://app?vid=633582ee-71bf-4267-a690-605550763ab9","ios":"levelo://app?vid=633582ee-71bf-4267-a690-605550763ab9"},"vehicle_type_id":"4","last_reported":1740243998,"current_range_meters":18800,"station_id":"ce4bha12rcd13ifvqef0","pricing_plan_id":"cebpf4jnsgd1na2vs0mg"},{"bike_id":"cffd3f51-0d89-4bb2-a95a-1be3aa1d0fd0","system_id":"levelo_inurba_marseille","lat":43.28147,"lon":5.42635,"is_reserved":false,"is_disabled":false,"rental_uris":{"android":"levelo://app?vid=cffd3f51-0d89-4bb2-a95a-1be3aa1d0fd0","ios":"levelo://app?vid=cffd3f51-0d89-4bb2-a95a-1be3aa1d0fd0"},"vehicle_type_id":"4","last_reported":1740243998,"current_range_meters":18800,"station_id":"ce4bhnh2rcd13ifvqgug","pricing_plan_id":"cebpf4jnsgd1na2vs0mg"},{"bike_id":"91358726-bd2f-4853-bfaa-394979c5d892","system_id":"levelo_inurba_marseille","lat":43.29575,"lon":5.37517,"is_reserved":false,"is_disabled":false,"rental_uris":{"android":"levelo://app?vid=91358726-bd2f-4853-bfaa-394979c5d892","ios":"levelo://app?vid=91358726-bd2f-4853-bfaa-394979c5d892"},"vehicle_type_id":"4","last_reported":1740243998,"current_range_meters":18800,"station_id":"ce4bgh92rcd13ifvqb50","pricing_plan_id":"cebpf4jnsgd1na2vs0mg"},{"bike_id":"302c7acf-8f44-482d-90af-d2c49654e15d","system_id":"levelo_inurba_marseille","lat":43.30896,"lon":5.372,"is_reserved":false,"is_disabled":false,"rental_uris":{"android":"levelo://app?vid=302c7acf-8f44-482d-90af-d2c49654e15d","ios":"levelo://app?vid=302c7acf-8f44-482d-90af-d2c49654e15d"},"vehicle_type_id":"4","last_reported":1740243998,"current_range_meters":18800,"station_id":"ce4bguh2rcd13ifvqckg","pricing_plan_id":"cebpf4jnsgd1na2vs0mg"},{"bike_id":"8c1665d2-90f4-489b-a313-34719ad3b252","system_id":"levelo_inurba_marseille","lat":43.28476,"lon":5.38551,"is_reserved":false,"is_disabled":false,"rental_uris":{"android":"levelo://app?vid=8c1665d2-90f4-489b-a313-34719ad3b252","ios":"levelo://app?vid=8c1665d2-90f4-489b-a313-34719ad3b252"},"vehicle_type_id":"4","last_reported":1740243998,"current_range_meters":18800,"station_id":"ce4bh8p2rcd13ifvqeb0","pricing_plan_id":"cebpf4jnsgd1na2vs0mg"},