{"last_updated":1721938138,"ttl":30,"version":"2.2","data":{"bikes":[{"bike_id":"3b3e6e07-a077-49e7-b598-833f79e261f0","system_id":"levelo_inurba_marseille","lat":43.31341,"lon":5.367098,"is_reserved":false,"is_disabled":false,"rental_uris":{"android":"levelo://app?vid=3b3e6e07-a077-49e7-b598-833f79e261f0","ios":"levelo://app?vid=3b3e6e07-a077-49e7-b598-833f79e261f0"},"vehicle_type_id":"4","last_reported":1721938138,"current_range_meters":26800,"station_id":"ce4bgr92rcd13ifvqc6g","pricing_plan_id":"cebpf4jnsgd1na2vs0mg"},{"bike_id":"225f7201-c00a-48d8-8e66-9c61792f14c1","system_id":"levelo_inurba_marseille","lat":43.31243,"lon":5.36825,"is_reserved":false,"is_disabled":false,"rental_uris":{"android":"levelo://app?vid=225f7201-c00a-48d8-8e66-9c61792f14c1","ios":"levelo://app?vid=225f7201-c00a-48d8-8e66-9c61792f14c1"},"vehicle_type_id":"4","last_reported":1721938138,"current_range_meters":17200,"station_id":"ce4bgl92rcd13ifvqbq0","pricing_plan_id":"cebpf4jnsgd1na2vs0mg"},{"bike_id":"b442c444-b37e-45b3-91c3-29675e82ad76","system_id":"levelo_inurba_marseille","lat":43.312239,"lon":5.368562,"is_reserved":false,"is_disabled":false,"rental_uris":{"android":"levelo://app?vid=b442c444-b37e-45b3-91c3-29675e82ad76","ios":"levelo://app?vid=b442c444-b37e-45b3-91c3-29675e82ad76"},"vehicle_type_id":"4","last_reported":1721938138,"current_range_meters":4800,"station_id":"ce4bgl92rcd13ifvqbq0","pricing_plan_id":"cebpf4jnsgd1na2vs0mg"},{"bike_id":"ccb505ab-9888-45b7-9663-30a926f9e78c","system_id":"levelo_inurba_marseille","lat":43.312239,"lon":5.368562,"is_reserved":false,"is_disabled":false,"rental_uris":{"android":"levelo://app?vid=ccb505ab-9888-45b7-9663-30a926f9e78c","ios":"levelo://app?vid=ccb505ab-9888-45b7-9663-30a926f9e78c"},"vehicle_type_id":"4","last_reported":1721938138,"current_range_meters":10000,"station_id":"ce4bgl92rcd13ifvqbq0","pricing_plan_id":"cebpf4jnsgd1na2vs0mg"},{"bike_id":"85a6733a-ecbb-4399-877c-5d9fc4b0a94a","system_id":"levelo_inurba_marseille","lat":43.312239,"lon":5.368562,"is_reserved":false,"is_disabled":false,"rental_uris":{"android":"levelo://app?vid=85a6733a-ecbb-4399-877c-5d9fc4b0a94a","ios":"levelo://app?vid=85a6733a-ecbb-4399-877c-5d9fc4b0a94a"},"vehicle_type_id":"4","last_reported":1721938138,"current_range_meters":13200,"station_id":"ce4bgl92rcd13ifvqbq0","pricing_plan_id":"cebpf4jnsgd1na2vs0mg"},{"bike_id":"a6b089a7-0b28-467f-8f75-93092ff1150c","system_id":"levelo_inurba_marseille","lat":43.309076,"lon":5.368465,"is_reserved":false,"is_disabled":false,"rental_uris":{"android":"levelo://app?vid=a6b089a7-0b28-467f-8f75-93092ff1150c","ios":"levelo://app?vid=a6b089a7-0b28-467f-8f75-93092ff1150c"},"vehicle_type_id":"4","last_reported":1721938138,"current_range_meters":16400,"station_id":"ce4bgn92rcd13ifvqbvg","pricing_plan_id":"cebpf4jnsgd1na2vs0mg"},{"bike_id":"213212b6-0bb3-430b-914c-2784802b69c4","system_id":"levelo_inurba_marseille","lat":43.309076,"lon":5.368465,"is_reserved":false,"is_disabled":false,"rental_uris":{"android":"levelo://app?vid=213212b6-0bb3-430b-914c-2784802b69c4","ios":"levelo://app?vid=213212b6-0bb3-430b-914c-2784802b69c4"},"vehicle_type_id":"4","last_reported":1721938138,"current_range_meters":5600,"station_id":"ce4bgn92rcd13ifvqbvg","pricing_plan_id":"cebpf4jnsgd1na2vs0mg"},{"bike_id":"126935d3-ebf3-4907-99c5-c6a2a29026c0","system_id":"levelo_inurba_marseille","lat":43.314811,"lon":5.373103,"is_reserved":false,"is_disabled":false,"rental_uris":{"android":"levelo://app?vid=126935d3-ebf3-4907-99c5-c6a2a29026c0","ios":"levelo://app?vid=126935d3-ebf3-4907-99c5-c6a2a29026c0"},"vehicle_type_id":"4","last_reported":1721938138,"current_range_meters":14400,"station_id":"ce4bgt12rcd13ifvqcd0","pricing_plan_id":"cebpf4jnsgd1na2vs0mg"},{"bike_id":"df9770f7-0018-4b48-9a28-2f0e63eb46d7","system_id":"levelo_inurba_marseille","lat":43.314811,"lon":5.373103,"is_reserved":false,"is_disabled":false,"rental_uris":{"android":"levelo://app?vid=df9770f7-0018-4b48-9a28-2f0e63eb46d7","ios":"levelo://app?vid=df9770f7-0018-4b48-9a28-2f0e63eb46d7"},"vehicle_type_id":"4","last_reported":1721938138,"current_range_meters":0,"station_id":"ce4bgt12rcd13ifvqcd0","pricing_plan_id":"cebpf4jnsgd1na2vs0mg"},{"bike_id":"923b014b-be64-4895-bf3a-5fba8e084b17","system_id":"levelo_inurba_marseille","lat":43.309039,"lon":5.371797,"is_reserved":false,"is_disabled":false,"rental_uris":{"android":"levelo://app?vid=923b014b-be64-4895-bf3a-5fba8e084b17","ios":"levelo://app?vid=923b014b-be64-4895-bf3a-5fba8e084b17"},"vehicle_type_id":"4","last_reported":1721938138,"current_range_meters":3200,"station_id":"ce4bguh2rcd13ifvqckg","pricing_plan_id":"cebpf4jnsgd1na2vs0mg"},{"bike_id":"5821d628-9cfe-420e-bbff-4a38295a21d0","system_id":"levelo_inurba_marseille","lat":43.309039,"lon":5.371797,"is_reserved":false,"is_disabled":false,"rental_uris":{"android":"levelo://app?vid=5821d628-9cfe-420e-bbff-4a38295a21d0","ios":"levelo://app?vid=5821d628-9cfe-420e-bbff-4a38295a21d0"},"vehicle_type_id":"4","last_reported":1721938138,"current_range_meters":2800,"station_id":"ce4bguh2rcd13ifvqckg","pricing_plan_id":"cebpf4jnsgd1na2vs0mg"},{"bike_id":"c0c8caf3-ea3c-4317-baf1-78c06feb5a39","system_id":"levelo_inurba_marseille","lat":43.309034,"lon":5.371783,"is_reserved":false,"is_disabled":false,"rental_uris":{"android":"levelo://app?vid=c0c8caf3-ea3c-4317-baf1-78c06feb5a39","ios":"levelo://app?vid=c0c8caf3-ea3c-4317-baf1-78c06feb5a39"},"vehicle_type_id":"4","last_reported":1721938138,"current_range_meters":24800,"station_id":"ce4bguh2rcd13ifvqckg","pricing_plan_id":"cebpf4jnsgd1na2vs0mg"},{"bike_id":"b1a838e5-c71a-45a5-82ac-e3d50ffad908","system_id":"levelo_inurba_marseille","lat":43.305712,"lon":5.365641,"is_reserved":false,"is_disabled":false,"rental_uris":{"android":"levelo://app?vid=b1a838e5-c71a-45a5-82ac-e3d50ffad908","ios":"levelo://app?vid=b1a838e5-c71a-45a5-82ac-e3d50ffad908"},"vehicle_type_id":"4","last_reported":1721938138,"current_range_meters":20000,"station_id":"ce4bgs12rcd13ifvqcag","pricing_plan_id":"cebpf4jnsgd1na2vs0mg"},{"bike_id":"b40a4fb1-b47e-4ebc-9df9-c0a47c4062fb","system_id":"levelo_inurba_marseille","lat":43.30544,"lon":5.367093,"is_reserved":false,"is_disabled":false,"rental_uris":{"android":"levelo://app?vid=b40a4fb1-b47e-4ebc-9df9-c0a47c4062fb","ios":"levelo://app?vid=b40a4fb1-b47e-4ebc-9df9-c0a47c4062fb"},"vehicle_type_id":"4","last_reported":1721938138,"current_range_meters":17600,"station_id":"ce4bgrp2rcd13ifvqc9g","pricing_plan_id":"cebpf4jnsgd1na2vs0mg"},{"bike_id":"fe1fefad-def8-44f1-88bf-11d737271fde","system_id":"levelo_inurba_marseille","lat":43.30546,"lon":5.36544,"is_reserved":false,"is_disabled":false,"rental_uris":{"android":"levelo://app?vid=fe1fefad-def8-44f1-88bf-11d737271fde","ios":"levelo://app?vid=fe1fefad-def8-44f1-88bf-11d737271fde"},"vehicle_type_id":"4","last_reported":1721938138,"current_range_meters":14000,"station_id":"ce4bgs12rcd13ifvqcag","pricing_plan_id":"cebpf4jnsgd1na2vs0mg"},{"bike_id":"fff2a7e3-441b-459c-8448-f362848e21bd","system_id":"levelo_inurba_marseille","lat":43.305714,"lon":5.365633,"is_reserved":false,"is_disabled":false,"rental_uris":{"android":"levelo://app?vid=fff2a7e3-441b-459c-8448-f362848e21bd","ios":"levelo://app?vid=fff2a7e3-441b-459c-8448-f362848e21bd"},"vehicle_type_id":"4","last_reported":1721938138,"current_range_meters":2400,"station_id":"ce4bgs12rcd13ifvqcag","pricing_plan_id":"cebpf4jnsgd1na2vs0mg"},{"bike_id":"3512dd76-933e-4514-97ea-bb38b60ad315","system_id":"levelo_inurba_marseille","lat":43.30545,"lon":5.3654,"is_reserved":false,"is_disabled":false,"rental_uris":{"android":"levelo://app?vid=3512dd76-933e-4514-97ea-bb38b60ad315","ios":"levelo://app?vid=3512dd76-933e-4514-97ea-bb38b60ad315"},"vehicle_type_id":"4","last_reported":1721938138,"current_range_meters":10800,"station_id":"ce4bgs12rcd13ifvqcag","pricing_plan_id":"cebpf4jnsgd1na2vs0mg"},{"bike_id":"a460306a-7481-4338-8213-90c197db9e34","system_id":"levelo_inurba_marseille","lat":43.305714,"lon":5.365633,"is_reserved":false,"is_disabled":false,"rental_uris":{"android":"levelo://app?vid=a460306a-7481-4338-8213-90c197db9e34","ios":"levelo://app?vid=a460306a-7481-4338-8213-90c197db9e34"},"vehicle_type_id":"4","last_reported":1721938138,"current_range_meters":8800,"station_id":"ce4bgs12rcd13ifvqcag","pricing_plan_id":"cebpf4jnsgd1na2vs0mg"},{"bike_id":"b6749ab4-b43a-4149-81bf-6f5d81a2f6da","system_id":"levelo_inurba_marseille","lat":43.305368,"lon":5.367343,"is_reserved":false,"is_disabled":false,"rental_uris":{"android":"levelo://app?vid=b6749ab4-b43a-4149-81bf-6f5d81a2f6da","ios":"levelo://app?vid=b6749ab4-b43a-4149-81bf-6f5d81a2f6da"},"vehicle_type_id":"4","last_reported":1721938138,"current_range_meters":31200,"station_id":"ce4bgrp2rcd13ifvqc9g","pricing_plan_id":"cebpf4jnsgd1na2vs0mg"},{"bike_id":"a42cb3b2-fd68-4b44-b8b1-81e96a8ef9f4","system_id":"levelo_inurba_marseille","lat":43.30539,"lon":5.36542,"is_reserved":false,"is_disabled":false,"rental_uris":{"android":"levelo://app?vid=a42cb3b2-fd68-4b44-b8b1-81e96a8ef9f4","ios":"levelo://app?vid=a42cb3b2-fd68-4b44-b8b1-81e96a8ef9f4"},"vehicle_type_id":"4","last_reported":1721938138,"current_range_meters":31200,"station_id":"ce4bgs12rcd13ifvqcag","pricing_plan_id":"cebpf4jnsgd1na2vs0mg"},{"bike_id":"832419a0-0ec4-4b6c-92e5-c2b5a6525b42","system_id":"levelo_inurba_marseille","lat":43.30536,"lon":5.3656,"is_reserved":false,"is_disabled":false,"rental_uris":{"android":"levelo://app?vid=832419a0-0ec4-4b6c-92e5-c2b5a6525b42","ios":"levelo://app?vid=832419a0-0ec4-4b6c-92e5-c2b5a6525b42"},"vehicle_type_id":"4","last_reported":1721938138,"current_range_meters":22800,"station_id":"ce4bgs12rcd13ifvqcag","pricing_plan_id":"cebpf4jnsgd1na2vs0mg"},{"bike_id":"bb08f516-2d08-4ffd-a33e-2fcaf9addeac","system_id":"levelo_inurba_marseille","lat":43.305368,"lon":5.367343,"is_reserved":false,"is_disabled":false,"rental_uris":{"android":"levelo://app?vid=bb08f516-2d08-4ffd-a33e-2fcaf9addeac","ios":"levelo://app?vid=bb08f516-2d08-4ffd-a33e-2fcaf9addeac"},"vehicle_type_id":"4","last_reported":1721938138,"current_range_meters":8400,"station_id":"ce4bgrp2rcd13ifvqc9g","pricing_plan_id":"cebpf4jnsgd1na2vs0mg"},{"bike_id":"684e555b-f2bb-4ca8-a0a0-3eef9f72ebe2","system_id":"levelo_inurba_marseille","lat":43.30593,"lon":5.37205,"is_reserved":false,"is_disabled":false,"rental_uris":{"android":"levelo://app?vid=684e555b-f2bb-4ca8-a0a0-3eef9f72ebe2","ios":"levelo://app?vid=684e555b-f2bb-4ca8-a0a0-3eef9f72ebe2"},"vehicle_type_id":"4","last_reported":1721938138,"current_range_meters":0,"station_id":"ce4bgqh2rcd13ifvqc4g","pricing_plan_id":"cebpf4jnsgd1na2vs0mg"},{"bike_id":"6f8e5f02-570f-4306-b35c-ff7043cb567e","system_id":"levelo_inurba_marseille","lat":43.311131,"lon":5.377651,"is_reserved":false,"is_disabled":false,"rental_uris":{"android":"levelo://app?vid=6f8e5f02-570f-4306-b35c-ff7043cb567e","ios":"levelo://app?vid=6f8e5f02-570f-4306-b35c-ff7043cb567e"},"vehicle_type_id":"4","last_reported":1721938138,"current_range_meters":16000,"station_id":"ce4bgt92rcd13ifvqcg0","pricing_plan_id":"cebpf4jnsgd1na2vs0mg"},{"bike_id":"fee9ab30-5301-4508-81c1-2ddbd8be9d17","system_id":"levelo_inurba_marseille","lat":43.311131,"lon":5.377651,"is_reserved":false,"is_disabled":false,"rental_uris":{"android":"levelo://app?vid=fee9ab30-5301-4508-81c1-2ddbd8be9d17","ios":"levelo://app?vid=fee9ab30-5301-4508-81c1-2ddbd8be9d17"},"vehicle_type_id":"4","last_reported":1721938138,"current_range_meters":0,"station_id":"ce4bgt92rcd13ifvqcg0","pricing_plan_id":"cebpf4jnsgd1na2vs0mg"},{"bike_id":"1f1401ca-c5cc-46e8-a38a-d6b290b1615c","system_id":"levelo_inurba_marseille","lat":43.307945,"lon":5.376487,"is_reserved":false,"is_disabled":false,"rental_uris":{"android":"levelo://app?vid=1f1401ca-c5cc-46e8-a38a-d6b290b1615c","ios":"levelo://app?vid=1f1401ca-c5cc-46e8-a38a-d6b290b1615c"},"vehicle_type_id":"4","last_reported":1721938138,"current_range_meters":13200,"station_id":"ce4bgv92rcd13ifvqcq0","pricing_plan_id":"cebpf4jnsgd1na2vs0mg"},{"bike_id":"2a8c312a-1ca7-4fd8-b43f-255703bab8d2","system_id":"levelo_inurba_marseille","lat":43.307945,"lon":5.376487,"is_reserved":false,"is_disabled":false,"rental_uris":{"android":"levelo://app?vid=2a8c312a-1ca7-4fd8-b43f-255703bab8d2","ios":"levelo://app?vid=2a8c312a-1ca7-4fd8-b43f-255703bab8d2"},"vehicle_type_id":"4","last_reported":1721938138,"current_range_meters":0,"station_id":"ce4bgv92rcd13ifvqcq0","pricing_plan_id":"cebpf4jnsgd1na2vs0mg"},{"bike_id":"27792423-070d-4c4c-b523-83401b526eb0","system_id":"levelo_inurba_marseille","lat":43.317075,"lon":5.377367,"is_reserved":false,"is_disabled":false,"rental_uris":{"android":"levelo://app?vid=27792423-070d-4c4c-b523-83401b526eb0","ios":"levelo://app?vid=27792423-070d-4c4c-b523-83401b526eb0"},"vehicle_type_id":"4","last_reported":1721938138,"current_range_meters":5200,"station_id":"ce4bgth2rcd13ifvqch0","pricing_plan_id":"cebpf4jnsgd1na2vs0mg"},{"bike_id":"5698c5ee-be7c-4462-9ee6-f3a6aa027e58","system_id":"levelo_inurba_marseille","lat":43.317075,"lon":5.377367,"is_reserved":false,"is_disabled":false,"rental_uris":{"android":"levelo://app?vid=5698c5ee-be7c-4462-9ee6-f3a6aa027e58","ios":"levelo://app?vid=5698c5ee-be7c-4462-9ee6-f3a6aa027e58"},"vehicle_type_id":"4","last_reported":1721938138,"current_range_meters":10400,"station_id":"ce4bgth2rcd13ifvqch0","pricing_plan_id":"cebpf4jnsgd1na2vs0mg"},{"bike_id":"51fe2f7f-c03c-4317-b47a-0d6c013b66eb","system_id":"levelo_inurba_marseille","lat":43.30304,"lon":5.368987,"is_reserved":false,"is_disabled":false,"rental_uris":{"android":"levelo://app?vid=51fe2f7f-c03c-4317-b47a-0d6c013b66eb","ios":"levelo://app?vid=51fe2f7f-c03c-4317-b47a-0d6c013b66eb"},"vehicle_type_id":"4","last_reported":1721938138,"current_range_meters":31600,"station_id":"ce4bgqh2rcd13ifvqc5g","pricing_plan_id":"cebpf4jnsgd1na2vs0mg"},{"bike_id":"f5947b1c-f8c7-4483-94e7-605f910949ba","system_id":"levelo_inurba_marseille","lat":43.30304,"lon":5.368987,"is_reserved":false,"is_disabled":false,"rental_uris":{"android":"levelo://app?vid=f5947b1c-f8c7-4483-94e7-605f910949ba","ios":"levelo://app?vid=f5947b1c-f8c7-4483-94e7-605f910949ba"},"vehicle_type_id":"4","last_reported":1721938138,"current_range_meters":21600,"station_id":"ce4bgqh2rcd13ifvqc5g","pricing_plan_id":"cebpf4jnsgd1na2vs0mg"},{"bike_id":"2a20b022-2b00-43ab-a9a1-89db111473ef","system_id":"levelo_inurba_marseille","lat":43.315289,"lon":5.380349,"is_reserved":false,"is_disabled":false,"rental_uris":{"android":"levelo://app?vid=2a20b022-2b00-43ab-a9a1-89db111473ef","ios":"levelo://app?vid=2a20b022-2b00-43ab-a9a1-89db111473ef"},"vehicle_type_id":"4","last_reported":1721938138,"current_range_meters":9600,"station_id":"ce4bhsp2rcd13ifvqi50","pricing_plan_id":"cebpf4jnsgd1na2vs0mg"},{"bike_id":"4b6c3a28-9f8e-41ea-a116-36b0f02cde31","system_id":"levelo_inurba_marseille","lat":43.301939,"lon":5.366286,"is_reserved":false,"is_disabled":false,"rental_uris":{"android":"levelo://app?vid=4b6c3a28-9f8e-41ea-a116-36b0f02cde31","ios":"levelo://app?vid=4b6c3a28-9f8e-41ea-a116-36b0f02cde31"},"vehicle_type_id":"4","last_reported":1721938138,"current_range_meters":5200,"station_id":"ce4bgrh2rcd13ifvqc8g","pricing_plan_id":"cebpf4jnsgd1na2vs0mg"},{"bike_id":"8d08651b-d34d-4665-8819-dfbacf26d0c8","system_id":"levelo_inurba_marseille","lat":43.308012,"lon":5.381511,"is_reserved":false,"is_disabled":false,"rental_uris":{"android":"levelo://app?vid=8d08651b-d34d-4665-8819-dfbacf26d0c8","ios":"levelo://app?vid=8d08651b-d34d-4665-8819-dfbacf26d0c8"},"vehicle_type_id":"4","last_reported":1721938138,"current_range_meters":24800,"station_id":"ce4bgt12rcd13ifvqce0","pricing_plan_id":"cebpf4jnsgd1na2vs0mg"},{"bike_id":"c1cba89d-d6a4-465e-8e5f-04d71a6065b0","system_id":"levelo_inurba_marseille","lat":43.30472,"lon":5.37907,"is_reserved":false,"is_disabled":false,"rental_uris":{"android":"levelo://app?vid=c1cba89d-d6a4-465e-8e5f-04d71a6065b0","ios":"levelo://app?vid=c1cba89d-d6a4-465e-8e5f-04d71a6065b0"},"vehicle_type_id":"4","last_reported":1721938138,"current_range_meters":1600,"station_id":"ce4bgup2rcd13ifvqcn0","pricing_plan_id":"cebpf4jnsgd1na2vs0mg"},{"bike_id":"f51b9014-6d9c-4012-8c63-a61c00d97c27","system_id":"levelo_inurba_marseille","lat":43.304606,"lon":5.379026,"is_reserved":false,"is_disabled":false,"rental_uris":{"android":"levelo://app?vid=f51b9014-6d9c-4012-8c63-a61c00d97c27","ios":"levelo://app?vid=f51b9014-6d9c-4012-8c63-a61c00d97c27"},"vehicle_type_id":"4","last_reported":1721938138,"current_range_meters":1200,"station_id":"ce4bgup2rcd13ifvqcn0","pricing_plan_id":"cebpf4jnsgd1na2vs0mg"},{"bike_id":"5b9e47f1-9f57-4878-849d-6792a84f12f4","system_id":"levelo_inurba_marseille","lat":43.324771,"lon":5.36557,"is_reserved":false,"is_disabled":false,"rental_uris":{"android":"levelo://app?vid=5b9e47f1-9f57-4878-849d-6792a84f12f4","ios":"levelo://app?vid=5b9e47f1-9f57-4878-849d-6792a84f12f4"},"vehicle_type_id":"4","last_reported":1721938138,"current_range_meters":18800,"station_id":"ce4bhs12rcd13ifvqhvg","pricing_plan_id":"cebpf4jnsgd1na2vs0mg"},{"bike_id":"e0ac4db4-8cf7-4453-9661-fcfb8ae2eef3","system_id":"levelo_inurba_marseille","lat":43.324771,"lon":5.36557,"is_reserved":false,"is_disabled":false,"rental_uris":{"android":"levelo://app?vid=e0ac4db4-8cf7-4453-9661-fcfb8ae2eef3","ios":"levelo://app?vid=e0ac4db4-8cf7-4453-9661-fcfb8ae2eef3"},"vehicle_type_id":"4","last_reported":1721938138,"current_range_meters":24800,"station_id":"ce4bhs12rcd13ifvqhvg","pricing_plan_id":"cebpf4jnsgd1na2vs0mg"},{"bike_id":"d6355855-8d2b-47ee-ac3b-bd1215bcc58d","system_id":"levelo_inurba_marseille","lat":43.310804,"lon":5.38359,"is_reserved":false,"is_disabled":false,"rental_uris":{"android":"levelo://app?vid=d6355855-8d2b-47ee-ac3b-bd1215bcc58d","ios":"levelo://app?vid=d6355855-8d2b-47ee-ac3b-bd1215bcc58d"},"vehicle_type_id":"4","last_reported":1721938138,"current_range_meters":26800,"station_id":"ce4bgv92rcd13ifvqcr0","pricing_plan_id":"cebpf4jnsgd1na2vs0mg"},{"bike_id":"47d2c9d1-59cb-4860-b95d-b34d323e7e50","system_id":"levelo_inurba_marseille","lat":43.310804,"lon":5.38359,"is_reserved":false,"is_disabled":false,"rental_uris":{"android":"levelo://app?vid=47d2c9d1-59cb-4860-b95d-b34d323e7e50","ios":"levelo://app?vid=47d2c9d1-59cb-4860-b95d-b34d323e7e50"},"vehicle_type_id":"4","last_reported":1721938138,"current_range_meters":800,"station_id":"ce4bgv92rcd13ifvqcr0","pricing_plan_id":"cebpf4jnsgd1na2vs0mg"},{"bike_id":"03d42f86-814f-4479-af22-5b311ef70518","system_id":"levelo_inurba_marseille","lat":43.302784,"lon":5.377158,"is_reserved":false,"is_disabled":false,"rental_uris":{"android":"levelo://app?vid=03d42f86-814f-4479-af22-5b311ef70518","ios":"levelo://app?vid=03d42f86-814f-4479-af22-5b311ef70518"},"vehicle_type_id":"4","last_reported":1721938138,"current_range_meters":30000,"station_id":"ce4bguh2rcd13ifvqcj0","pricing_plan_id":"cebpf4jnsgd1na2vs0mg"},{"bike_id":"305edaf4-821c-4fda-8d6e-0821451c8f3d","system_id":"levelo_inurba_marseille","lat":43.304606,"lon":5.379026,"is_reserved":false,"is_disabled":false,"rental_uris":{"android":"levelo://app?vid=305edaf4-821c-4fda-8d6e-0821451c8f3d","ios":"levelo://app?vid=305edaf4-821c-4fda-8d6e-0821451c8f3d"},"vehicle_type_id":"4","last_reported":1721938138,"current_range_meters":26000,"station_id":"ce4bgup2rcd13ifvqcn0","pricing_plan_id":"cebpf4jnsgd1na2vs0mg"},{"bike_id":"8bc61738-7066-4ca9-bbbb-e912258e1ec1","system_id":"levelo_inurba_marseille","lat":43.301429,"lon":5.37413,"is_reserved":false,"is_disabled":false,"rental_uris":{"android":"levelo://app?vid=8bc61738-7066-4ca9-bbbb-e912258e1ec1","ios":"levelo://app?vid=8bc61738-7066-4ca9-bbbb-e912258e1ec1"},"vehicle_type_id":"4","last_reported":1721938138,"current_range_meters":8000,"station_id":"ce4bgs92rcd13ifvqcc0","pricing_plan_id":"cebpf4jnsgd1na2vs0mg"},{"bike_id":"c17f7ecb-d87c-4dc1-b403-8fb278ad39ac","system_id":"levelo_inurba_marseille","lat":43.30133,"lon":5.37427,"is_reserved":false,"is_disabled":false,"rental_uris":{"android":"levelo://app?vid=c17f7ecb-d87c-4dc1-b403-8fb278ad39ac","ios":"levelo://app?vid=c17f7ecb-d87c-4dc1-b403-8fb278ad39ac"},"vehicle_type_id":"4","last_reported":1721938138,"current_range_meters":0,"station_id":"ce4bgs92rcd13ifvqcc0","pricing_plan_id":"cebpf4jnsgd1na2vs0mg"},{"bike_id":"730f683c-5ab4-4897-9ca4-f287c26d70d2","system_id":"levelo_inurba_marseille","lat":43.31995,"lon":5.38149,"is_reserved":false,"is_disabled":false,"rental_uris":{"android":"levelo://app?vid=730f683c-5ab4-4897-9ca4-f287c26d70d2","ios":"levelo://app?vid=730f683c-5ab4-4897-9ca4-f287c26d70d2"},"vehicle_type_id":"4","last_reported":1721938138,"current_range_meters":28000,"station_id":"ce4bhr12rcd13ifvqhpg","pricing_plan_id":"cebpf4jnsgd1na2vs0mg"},{"bike_id":"db69cf9b-347f-4bf7-a167-1baf57a6f084","system_id":"levelo_inurba_marseille","lat":43.319935,"lon":5.381699,"is_reserved":false,"is_disabled":false,"rental_uris":{"android":"levelo://app?vid=db69cf9b-347f-4bf7-a167-1baf57a6f084","ios":"levelo://app?vid=db69cf9b-347f-4bf7-a167-1baf57a6f084"},"vehicle_type_id":"4","last_reported":1721938138,"current_range_meters":21600,"station_id":"ce4bhr12rcd13ifvqhpg","pricing_plan_id":"cebpf4jnsgd1na2vs0mg"},{"bike_id":"54ab7098-f579-472b-8284-33f9ae27e31b","system_id":"levelo_inurba_marseille","lat":43.313571,"lon":5.384829,"is_reserved":false,"is_disabled":false,"rental_uris":{"android":"levelo://app?vid=54ab7098-f579-472b-8284-33f9ae27e31b","ios":"levelo://app?vid=54ab7098-f579-472b-8284-33f9ae27e31b"},"vehicle_type_id":"4","last_reported":1721938138,"current_range_meters":12400,"station_id":"ce4bgt92rcd13ifvqcf0","pricing_plan_id":"cebpf4jnsgd1na2vs0mg"},{"bike_id":"838b1cca-c197-4a4d-9550-d9135a68f192","system_id":"levelo_inurba_marseille","lat":43.313571,"lon":5.384829,"is_reserved":false,"is_disabled":false,"rental_uris":{"android":"levelo://app?vid=838b1cca-c197-4a4d-9550-d9135a68f192","ios":"levelo://app?vid=838b1cca-c197-4a4d-9550-d9135a68f192"},"vehicle_type_id":"4","last_reported":1721938138,"current_range_meters":19200,"station_id":"ce4bgt92rcd13ifvqcf0","pricing_plan_id":"cebpf4jnsgd1na2vs0mg"},{"bike_id":"21215f98-a188-4f17-8e8a-149e27ea3191","system_id":"levelo_inurba_marseille","lat":43.313571,"lon":5.384829,"is_reserved":false,"is_disabled":false,"rental_uris":{"android":"levelo://app?vid=21215f98-a188-4f17-8e8a-149e27ea3191","ios":"levelo://app?vid=21215f98-a188-4f17-8e8a-149e27ea3191"},"vehicle_type_id":"4","last_reported":1721938138,"current_range_meters":18400,"station_id":"ce4bgt92rcd13ifvqcf0","pricing_plan_id":"cebpf4jnsgd1na2vs0mg"},{"bike_id":"e56137c9-5024-4f6f-8d2d-633817e8c847","system_id":"levelo_inurba_marseille","lat":43.313571,"lon":5.384829,"is_reserved":false,"is_disabled":false,"rental_uris":{"android":"levelo://app?vid=e56137c9-5024-4f6f-8d2d-633817e8c847","ios":"levelo://app?vid=e56137c9-5024-4f6f-8d2d-633817e8c847"},"vehicle_type_id":"4","last_reported":1721938138,"current_range_meters":13600,"station_id":"ce4bgt92rcd13ifvqcf0","pricing_plan_id":"cebpf4jnsgd1na2vs0mg"},{"bike_id":"e1151f6d-7610-447f-8301-2b4a47f7e897","system_id":"levelo_inurba_marseille","lat":43.299222,"lon":5.365554,"is_reserved":false,"is_disabled":false,"rental_uris":{"android":"levelo://app?vid=e1151f6d-7610-447f-8301-2b4a47f7e897","ios":"levelo://app?vid=e1151f6d-7610-447f-8301-2b4a47f7e897"},"vehicle_type_id":"4","last_reported":1721938138,"current_range_meters":26800,"station_id":"ce4bgm92rcd13ifvqbr0","pricing_plan_id":"cebpf4jnsgd1na2vs0mg"},{"bike_id":"5d9085b3-f22b-4ba3-ac48-b7e4a2700c4c","system_id":"levelo_inurba_marseille","lat":43.299724,"lon":5.371829,"is_reserved":false,"is_disabled":false,"rental_uris":{"android":"levelo://app?vid=5d9085b3-f22b-4ba3-ac48-b7e4a2700c4c","ios":"levelo://app?vid=5d9085b3-f22b-4ba3-ac48-b7e4a2700c4c"},"vehicle_type_id":"4","last_reported":1721938138,"current_range_meters":20400,"station_id":"ce4bgr92rcd13ifvqc7g","pricing_plan_id":"cebpf4jnsgd1na2vs0mg"},{"bike_id":"497477e6-74b8-43d8-b0ff-384db2e7744d","system_id":"levelo_inurba_marseille","lat":43.322872,"lon":5.382756,"is_reserved":false,"is_disabled":false,"rental_uris":{"android":"levelo://app?vid=497477e6-74b8-43d8-b0ff-384db2e7744d","ios":"levelo://app?vid=497477e6-74b8-43d8-b0ff-384db2e7744d"},"vehicle_type_id":"4","last_reported":1721938138,"current_range_meters":28400,"station_id":"ce4bhr12rcd13ifvqhqg","pricing_plan_id":"cebpf4jnsgd1na2vs0mg"},{"bike_id":"ae7f2396-f6ff-4474-a1dc-fb2917f39d13","system_id":"levelo_inurba_marseille","lat":43.322872,"lon":5.382756,"is_reserved":false,"is_disabled":false,"rental_uris":{"android":"levelo://app?vid=ae7f2396-f6ff-4474-a1dc-fb2917f39d13","ios":"levelo://app?vid=ae7f2396-f6ff-4474-a1dc-fb2917f39d13"},"vehicle_type_id":"4","last_reported":1721938138,"current_range_meters":12400,"station_id":"ce4bhr12rcd13ifvqhqg","pricing_plan_id":"cebpf4jnsgd1na2vs0mg"},{"bike_id":"724b23cc-eeb1-4f6f-ab06-e149326ac78c","system_id":"levelo_inurba_marseille","lat":43.298433,"lon":5.362774,"is_reserved":false,"is_disabled":false,"rental_uris":{"android":"levelo://app?vid=724b23cc-eeb1-4f6f-ab06-e149326ac78c","ios":"levelo://app?vid=724b23cc-eeb1-4f6f-ab06-e149326ac78c"},"vehicle_type_id":"4","last_reported":1721938138,"current_range_meters":27200,"station_id":"ce4bgpp2rcd13ifvqc3g","pricing_plan_id":"cebpf4jnsgd1na2vs0mg"},{"bike_id":"d4255d28-8e76-4ea2-a1b0-bb7c3fe091e4","system_id":"levelo_inurba_marseille","lat":43.298433,"lon":5.362774,"is_reserved":false,"is_disabled":false,"rental_uris":{"android":"levelo://app?vid=d4255d28-8e76-4ea2-a1b0-bb7c3fe091e4","ios":"levelo://app?vid=d4255d28-8e76-4ea2-a1b0-bb7c3fe091e4"},"vehicle_type_id":"4","last_reported":1721938138,"current_range_meters":28400,"station_id":"ce4bgpp2rcd13ifvqc3g","pricing_plan_id":"cebpf4jnsgd1na2vs0mg"},{"bike_id":"453e1f54-bc1c-4482-b2b0-5f555e221259","system_id":"levelo_inurba_marseille","lat":43.311722,"lon":5.387247,"is_reserved":false,"is_disabled":false,"rental_uris":{"android":"levelo://app?vid=453e1f54-bc1c-4482-b2b0-5f555e221259","ios":"levelo://app?vid=453e1f54-bc1c-4482-b2b0-5f555e221259"},"vehicle_type_id":"4","last_reported":1721938138,"current_range_meters":20400,"station_id":"ce4bgv12rcd13ifvqcp0","pricing_plan_id":"cebpf4jnsgd1na2vs0mg"},{"bike_id":"a2ea553e-322a-425e-b3a6-795aa1254aa6","system_id":"levelo_inurba_marseille","lat":43.311722,"lon":5.387247,"is_reserved":false,"is_disabled":false,"rental_uris":{"android":"levelo://app?vid=a2ea553e-322a-425e-b3a6-795aa1254aa6","ios":"levelo://app?vid=a2ea553e-322a-425e-b3a6-795aa1254aa6"},"vehicle_type_id":"4","last_reported":1721938138,"current_range_meters":24000,"station_id":"ce4bgv12rcd13ifvqcp0","pricing_plan_id":"cebpf4jnsgd1na2vs0mg"},{"bike_id":"fbdbc67f-d5fd-42f2-95b8-e5f945477838","system_id":"levelo_inurba_marseille","lat":43.311722,"lon":5.387247,"is_reserved":false,"is_disabled":false,"rental_uris":{"android":"levelo://app?vid=fbdbc67f-d5fd-42f2-95b8-e5f945477838","ios":"levelo://app?vid=fbdbc67f-d5fd-42f2-95b8-e5f945477838"},"vehicle_type_id":"4","last_reported":1721938138,"current_range_meters":31600,"station_id":"ce4bgv12rcd13ifvqcp0","pricing_plan_id":"cebpf4jnsgd1na2vs0mg"},{"bike_id":"9ea2a1e7-a057-4880-beac-6b32dd595737","system_id":"levelo_inurba_marseille","lat":43.31173,"lon":5.38708,"is_reserved":false,"is_disabled":false,"rental_uris":{"android":"levelo://app?vid=9ea2a1e7-a057-4880-beac-6b32dd595737","ios":"levelo://app?vid=9ea2a1e7-a057-4880-beac-6b32dd595737"},"vehicle_type_id":"4","last_reported":1721938138,"current_range_meters":2800,"station_id":"ce4bgv12rcd13ifvqcp0","pricing_plan_id":"cebpf4jnsgd1na2vs0mg"},{"bike_id":"af902747-d193-4a94-a6fe-a8a55b5c3866","system_id":"levelo_inurba_marseille","lat":43.311722,"lon":5.387247,"is_reserved":false,"is_disabled":false,"rental_uris":{"android":"levelo://app?vid=af902747-d193-4a94-a6fe-a8a55b5c3866","ios":"levelo://app?vid=af902747-d193-4a94-a6fe-a8a55b5c3866"},"vehicle_type_id":"4","last_reported":1721938138,"current_range_meters":8800,"station_id":"ce4bgv12rcd13ifvqcp0","pricing_plan_id":"cebpf4jnsgd1na2vs0mg"},{"bike_id":"62c85cd2-e156-4d48-b323-b497afcf0e3b","system_id":"levelo_inurba_marseille","lat":43.311722,"lon":5.387247,"is_reserved":false,"is_disabled":false,"rental_uris":{"android":"levelo://app?vid=62c85cd2-e156-4d48-b323-b497afcf0e3b","ios":"levelo://app?vid=62c85cd2-e156-4d48-b323-b497afcf0e3b"},"vehicle_type_id":"4","last_reported":1721938138,"current_range_meters":12000,"station_id":"ce4bgv12rcd13ifvqcp0","pricing_plan_id":"cebpf4jnsgd1na2vs0mg"},{"bike_id":"69ea121f-95cc-4724-9c5a-83c41de66230","system_id":"levelo_inurba_marseille","lat":43.311722,"lon":5.387247,"is_reserved":false,"is_disabled":false,"rental_uris":{"android":"levelo://app?vid=69ea121f-95cc-4724-9c5a-83c41de66230","ios":"levelo://app?vid=69ea121f-95cc-4724-9c5a-83c41de66230"},"vehicle_type_id":"4","last_reported":1721938138,"current_range_meters":26000,"station_id":"ce4bgv12rcd13ifvqcp0","pricing_plan_id":"cebpf4jnsgd1na2vs0mg"},{"bike_id":"d6496aec-b6ae-4f0a-b7f0-c99152dfa7a5","system_id":"levelo_inurba_marseille","lat":43.311722,"lon":5.387247,"is_reserved":false,"is_disabled":false,"rental_uris":{"android":"levelo://app?vid=d6496aec-b6ae-4f0a-b7f0-c99152dfa7a5","ios":"levelo://app?vid=d6496aec-b6ae-4f0a-b7f0-c99152dfa7a5"},"vehicle_type_id":"4","last_reported":1721938138,"current_range_meters":22400,"station_id":"ce4bgv12rcd13ifvqcp0","pricing_plan_id":"cebpf4jnsgd1na2vs0mg"},{"bike_id":"6468817e-0e8f-4888-bcb2-0a82121a0243","system_id":"levelo_inurba_marseille","lat":43.311722,"lon":5.387247,"is_reserved":false,"is_disabled":false,"rental_uris":{"android":"levelo://app?vid=6468817e-0e8f-4888-bcb2-0a82121a0243","ios":"levelo://app?vid=6468817e-0e8f-4888-bcb2-0a82121a0243"},"vehicle_type_id":"4","last_reported":1721938138,"current_range_meters":2000,"station_id":"ce4bgv12rcd13ifvqcp0","pricing_plan_id":"cebpf4jnsgd1na2vs0mg"},{"bike_id":"9511b561-8cf4-41f0-a004-49a4c673ea1e","system_id":"levelo_inurba_marseille","lat":43.311722,"lon":5.387247,"is_reserved":false,"is_disabled":false,"rental_uris":{"android":"levelo://app?vid=9511b561-8cf4-41f0-a004-49a4c673ea1e","ios":"levelo://app?vid=9511b561-8cf4-41f0-a004-49a4c673ea1e"},"vehicle_type_id":"4","last_reported":1721938138,"current_range_meters":30800,"station_id":"ce4bgv12rcd13ifvqcp0","pricing_plan_id":"cebpf4jnsgd1na2vs0mg"},{"bike_id":"c0469aef-93f5-46ba-9195-fd461e9166fb","system_id":"levelo_inurba_marseille","lat":43.311722,"lon":5.387247,"is_reserved":false,"is_disabled":false,"rental_uris":{"android":"levelo://app?vid=c0469aef-93f5-46ba-9195-fd461e9166fb","ios":"levelo://app?vid=c0469aef-93f5-46ba-9195-fd461e9166fb"},"vehicle_type_id":"4","last_reported":1721938138,"current_range_meters":9200,"station_id":"ce4bgv12rcd13ifvqcp0","pricing_plan_id":"cebpf4jnsgd1na2vs0mg"},{"bike_id":"ee026c99-db47-4935-8704-05c1c92e966f","system_id":"levelo_inurba_marseille","lat":43.311722,"lon":5.387247,"is_reserved":false,"is_disabled":false,"rental_uris":{"android":"levelo://app?vid=ee026c99-db47-4935-8704-05c1c92e966f","ios":"levelo://app?vid=ee026c99-db47-4935-8704-05c1c92e966f"},"vehicle_type_id":"4","last_reported":1721938138,"current_range_meters":22400,"station_id":"ce4bgv12rcd13ifvqcp0","pricing_plan_id":"cebpf4jnsgd1na2vs0mg"},{"bike_id":"f7721833-17e8-40da-bf55-6e97648edf36","system_id":"levelo_inurba_marseille","lat":43.311722,"lon":5.387247,"is_reserved":false,"is_disabled":false,"rental_uris":{"android":"levelo://app?vid=f7721833-17e8-40da-bf55-6e97648edf36","ios":"levelo://app?vid=f7721833-17e8-40da-bf55-6e97648edf36"},"vehicle_type_id":"4","last_reported":1721938138,"current_range_meters":12400,"station_id":"ce4bgv12rcd13ifvqcp0","pricing_plan_id":"cebpf4jnsgd1na2vs0mg"},{"bike_id":"d8fb52a0-a041-478d-9142-2c8d8fe4326a","system_id":"levelo_inurba_marseille","lat":43.311722,"lon":5.387247,"is_reserved":false,"is_disabled":false,"rental_uris":{"android":"levelo://app?vid=d8fb52a0-a041-478d-9142-2c8d8fe4326a","ios":"levelo://app?vid=d8fb52a0-a041-478d-9142-2c8d8fe4326a"},"vehicle_type_id":"4","last_reported":1721938138,"current_range_meters":20000,"station_id":"ce4bgv12rcd13ifvqcp0","pricing_plan_id":"cebpf4jnsgd1na2vs0mg"},{"bike_id":"81c102aa-b039-4032-847a-ad30db51c8a8","system_id":"levelo_inurba_marseille","lat":43.31169,"lon":5.38723,"is_reserved":false,"is_disabled":false,"rental_uris":{"android":"levelo://app?vid=81c102aa-b039-4032-847a-ad30db51c8a8","ios":"levelo://app?vid=81c102aa-b039-4032-847a-ad30db51c8a8"},"vehicle_type_id":"4","last_reported":1721938138,"current_range_meters":16000,"station_id":"ce4bgv12rcd13ifvqcp0","pricing_plan_id":"cebpf4jnsgd1na2vs0mg"},{"bike_id":"18c273a8-7621-41c2-a9df-de8a82f32767","system_id":"levelo_inurba_marseille","lat":43.311722,"lon":5.387247,"is_reserved":false,"is_disabled":false,"rental_uris":{"android":"levelo://app?vid=18c273a8-7621-41c2-a9df-de8a82f32767","ios":"levelo://app?vid=18c273a8-7621-41c2-a9df-de8a82f32767"},"vehicle_type_id":"4","last_reported":1721938138,"current_range_meters":20400,"station_id":"ce4bgv12rcd13ifvqcp0","pricing_plan_id":"cebpf4jnsgd1na2vs0mg"},{"bike_id":"e5e7a712-06cc-432e-8017-20cd8330c96b","system_id":"levelo_inurba_marseille","lat":43.301517,"lon":5.38083,"is_reserved":false,"is_disabled":false,"rental_uris":{"android":"levelo://app?vid=e5e7a712-06cc-432e-8017-20cd8330c96b","ios":"levelo://app?vid=e5e7a712-06cc-432e-8017-20cd8330c96b"},"vehicle_type_id":"4","last_reported":1721938138,"current_range_meters":0,"station_id":"","pricing_plan_id":"cebpf4jnsgd1na2vs0mg"},{"bike_id":"5089fdd1-af77-486d-a739-9113f421cf8c","system_id":"levelo_inurba_marseille","lat":43.297774,"lon":5.370875,"is_reserved":false,"is_disabled":false,"rental_uris":{"android":"levelo://app?vid=5089fdd1-af77-486d-a739-9113f421cf8c","ios":"levelo://app?vid=5089fdd1-af77-486d-a739-9113f421cf8c"},"vehicle_type_id":"4","last_reported":1721938138,"current_range_meters":400,"station_id":"ce4bgop2rcd13ifvqc1g","pricing_plan_id":"cebpf4jnsgd1na2vs0mg"},{"bike_id":"cdfb6b3f-d6fb-4d7e-9a55-66403d9de1cd","system_id":"levelo_inurba_marseille","lat":43.32288,"lon":5.38256,"is_reserved":false,"is_disabled":false,"rental_uris":{"android":"levelo://app?vid=cdfb6b3f-d6fb-4d7e-9a55-66403d9de1cd","ios":"levelo://app?vid=cdfb6b3f-d6fb-4d7e-9a55-66403d9de1cd"},"vehicle_type_id":"4","last_reported":1721938138,"current_range_meters":4800,"station_id":"ce4bhr12rcd13ifvqhqg","pricing_plan_id":"cebpf4jnsgd1na2vs0mg"},{"bike_id":"1179828c-361f-4bc1-93f4-0e765201d705","system_id":"levelo_inurba_marseille","lat":43.29773,"lon":5.37104,"is_reserved":false,"is_disabled":false,"rental_uris":{"android":"levelo://app?vid=1179828c-361f-4bc1-93f4-0e765201d705","ios":"levelo://app?vid=1179828c-361f-4bc1-93f4-0e765201d705"},"vehicle_type_id":"4","last_reported":1721938138,"current_range_meters":3600,"station_id":"ce4bgop2rcd13ifvqc1g","pricing_plan_id":"cebpf4jnsgd1na2vs0mg"},{"bike_id":"755085da-42c7-40b4-8064-524d8f499308","system_id":"levelo_inurba_marseille","lat":43.322872,"lon":5.382756,"is_reserved":false,"is_disabled":false,"rental_uris":{"android":"levelo://app?vid=755085da-42c7-40b4-8064-524d8f499308","ios":"levelo://app?vid=755085da-42c7-40b4-8064-524d8f499308"},"vehicle_type_id":"4","last_reported":1721938138,"current_range_meters":1600,"station_id":"ce4bhr12rcd13ifvqhqg","pricing_plan_id":"cebpf4jnsgd1na2vs0mg"},{"bike_id":"f2d9fa02-73b3-4c0b-b068-549cbcae3f51","system_id":"levelo_inurba_marseille","lat":43.322903,"lon":5.382713,"is_reserved":false,"is_disabled":false,"rental_uris":{"android":"levelo://app?vid=f2d9fa02-73b3-4c0b-b068-549cbcae3f51","ios":"levelo://app?vid=f2d9fa02-73b3-4c0b-b068-549cbcae3f51"},"vehicle_type_id":"4","last_reported":1721938138,"current_range_meters":31200,"station_id":"ce4bhr12rcd13ifvqhqg","pricing_plan_id":"cebpf4jnsgd1na2vs0mg"},{"bike_id":"89d98eaf-2036-4c0f-87c5-44827628eab8","system_id":"levelo_inurba_marseille","lat":43.297163,"lon":5.365866,"is_reserved":false,"is_disabled":false,"rental_uris":{"android":"levelo://app?vid=89d98eaf-2036-4c0f-87c5-44827628eab8","ios":"levelo://app?vid=89d98eaf-2036-4c0f-87c5-44827628eab8"},"vehicle_type_id":"4","last_reported":1721938138,"current_range_meters":21600,"station_id":"ce4bgn12rcd13ifvqbt0","pricing_plan_id":"cebpf4jnsgd1na2vs0mg"},{"bike_id":"a9550344-4ca4-4886-ad70-054b42cbb1f7","system_id":"levelo_inurba_marseille","lat":43.2968,"lon":5.37291,"is_reserved":false,"is_disabled":false,"rental_uris":{"android":"levelo://app?vid=a9550344-4ca4-4886-ad70-054b42cbb1f7","ios":"levelo://app?vid=a9550344-4ca4-4886-ad70-054b42cbb1f7"},"vehicle_type_id":"4","last_reported":1721938138,"current_range_meters":15200,"station_id":"ce4bgk12rcd13ifvqbj0","pricing_plan_id":"cebpf4jnsgd1na2vs0mg"},{"bike_id":"df895ca6-4f66-4719-87a0-58537c125dea","system_id":"levelo_inurba_marseille","lat":43.296129,"lon":5.370777,"is_reserved":false,"is_disabled":false,"rental_uris":{"android":"levelo://app?vid=df895ca6-4f66-4719-87a0-58537c125dea","ios":"levelo://app?vid=df895ca6-4f66-4719-87a0-58537c125dea"},"vehicle_type_id":"4","last_reported":1721938138,"current_range_meters":24000,"station_id":"ce4bgnh2rcd13ifvqc0g","pricing_plan_id":"cebpf4jnsgd1na2vs0mg"},{"bike_id":"975f73a4-5bac-48e4-aa0a-20cfe7c60723","system_id":"levelo_inurba_marseille","lat":43.29624,"lon":5.37167,"is_reserved":false,"is_disabled":false,"rental_uris":{"android":"levelo://app?vid=975f73a4-5bac-48e4-aa0a-20cfe7c60723","ios":"levelo://app?vid=975f73a4-5bac-48e4-aa0a-20cfe7c60723"},"vehicle_type_id":"4","last_reported":1721938138,"current_range_meters":31200,"station_id":"","pricing_plan_id":"cebpf4jnsgd1na2vs0mg"},{"bike_id":"4e3971fb-835f-4f49-8a41-dfc5c6fd3d26","system_id":"levelo_inurba_marseille","lat":43.296129,"lon":5.370777,"is_reserved":false,"is_disabled":false,"rental_uris":{"android":"levelo://app?vid=4e3971fb-835f-4f49-8a41-dfc5c6fd3d26","ios":"levelo://app?vid=4e3971fb-835f-4f49-8a41-dfc5c6fd3d26"},"vehicle_type_id":"4","last_reported":1721938138,"current_range_meters":31600,"station_id":"ce4bgnh2rcd13ifvqc0g","pricing_plan_id":"cebpf4jnsgd1na2vs0mg"},{"bike_id":"81e656a2-d163-446d-9e63-8b061b7b3b3e","system_id":"levelo_inurba_marseille","lat":43.296131,"lon":5.370773,"is_reserved":false,"is_disabled":false,"rental_uris":{"android":"levelo://app?vid=81e656a2-d163-446d-9e63-8b061b7b3b3e","ios":"levelo://app?vid=81e656a2-d163-446d-9e63-8b061b7b3b3e"},"vehicle_type_id":"4","last_reported":1721938138,"current_range_meters":6800,"station_id":"ce4bgnh2rcd13ifvqc0g","pricing_plan_id":"cebpf4jnsgd1na2vs0mg"},{"bike_id":"88d8f044-ddd3-46f8-bb5e-b04b0d305b60","system_id":"levelo_inurba_marseille","lat":43.2962,"lon":5.37172,"is_reserved":false,"is_disabled":false,"rental_uris":{"android":"levelo://app?vid=88d8f044-ddd3-46f8-bb5e-b04b0d305b60","ios":"levelo://app?vid=88d8f044-ddd3-46f8-bb5e-b04b0d305b60"},"vehicle_type_id":"4","last_reported":1721938138,"current_range_meters":24800,"station_id":"","pricing_plan_id":"cebpf4jnsgd1na2vs0mg"},{"bike_id":"c90baed3-d1b9-498f-8ffb-7858f6986bc2","system_id":"levelo_inurba_marseille","lat":43.29573,"lon":5.367355,"is_reserved":false,"is_disabled":false,"rental_uris":{"android":"levelo://app?vid=c90baed3-d1b9-498f-8ffb-7858f6986bc2","ios":"levelo://app?vid=c90baed3-d1b9-498f-8ffb-7858f6986bc2"},"vehicle_type_id":"4","last_reported":1721938138,"current_range_meters":20800,"station_id":"ce4bgph2rcd13ifvqc2g","pricing_plan_id":"cebpf4jnsgd1na2vs0mg"},{"bike_id":"66ce940c-7337-4226-8853-7177c4d63901","system_id":"levelo_inurba_marseille","lat":43.299028,"lon":5.381509,"is_reserved":false,"is_disabled":false,"rental_uris":{"android":"levelo://app?vid=66ce940c-7337-4226-8853-7177c4d63901","ios":"levelo://app?vid=66ce940c-7337-4226-8853-7177c4d63901"},"vehicle_type_id":"4","last_reported":1721938138,"current_range_meters":8400,"station_id":"ce4bgj12rcd13ifvqbc0","pricing_plan_id":"cebpf4jnsgd1na2vs0mg"},{"bike_id":"6724a692-9701-4b15-828d-08078ebc7e2a","system_id":"levelo_inurba_marseille","lat":43.299028,"lon":5.381509,"is_reserved":false,"is_disabled":false,"rental_uris":{"android":"levelo://app?vid=6724a692-9701-4b15-828d-08078ebc7e2a","ios":"levelo://app?vid=6724a692-9701-4b15-828d-08078ebc7e2a"},"vehicle_type_id":"4","last_reported":1721938138,"current_range_meters":17200,"station_id":"ce4bgj12rcd13ifvqbc0","pricing_plan_id":"cebpf4jnsgd1na2vs0mg"},{"bike_id":"dc80e0e2-ec6b-4174-a12d-54effa365ab3","system_id":"levelo_inurba_marseille","lat":43.309589,"lon":5.390258,"is_reserved":false,"is_disabled":false,"rental_uris":{"android":"levelo://app?vid=dc80e0e2-ec6b-4174-a12d-54effa365ab3","ios":"levelo://app?vid=dc80e0e2-ec6b-4174-a12d-54effa365ab3"},"vehicle_type_id":"4","last_reported":1721938138,"current_range_meters":31200,"station_id":"ce4bgup2rcd13ifvqco0","pricing_plan_id":"cebpf4jnsgd1na2vs0mg"},{"bike_id":"3f5806a7-aaae-4692-a848-5209932f69c1","system_id":"levelo_inurba_marseille","lat":43.309589,"lon":5.390258,"is_reserved":false,"is_disabled":false,"rental_uris":{"android":"levelo://app?vid=3f5806a7-aaae-4692-a848-5209932f69c1","ios":"levelo://app?vid=3f5806a7-aaae-4692-a848-5209932f69c1"},"vehicle_type_id":"4","last_reported":1721938138,"current_range_meters":6000,"station_id":"ce4bgup2rcd13ifvqco0","pricing_plan_id":"cebpf4jnsgd1na2vs0mg"},{"bike_id":"ea5715db-81d7-4833-8ffa-0d021627eac2","system_id":"levelo_inurba_marseille","lat":43.299028,"lon":5.381509,"is_reserved":false,"is_disabled":false,"rental_uris":{"android":"levelo://app?vid=ea5715db-81d7-4833-8ffa-0d021627eac2","ios":"levelo://app?vid=ea5715db-81d7-4833-8ffa-0d021627eac2"},"vehicle_type_id":"4","last_reported":1721938138,"current_range_meters":20800,"station_id":"ce4bgj12rcd13ifvqbc0","pricing_plan_id":"cebpf4jnsgd1na2vs0mg"},{"bike_id":"c367e7cd-890e-4558-8138-ed992aab372e","system_id":"levelo_inurba_marseille","lat":43.309589,"lon":5.390258,"is_reserved":false,"is_disabled":false,"rental_uris":{"android":"levelo://app?vid=c367e7cd-890e-4558-8138-ed992aab372e","ios":"levelo://app?vid=c367e7cd-890e-4558-8138-ed992aab372e"},"vehicle_type_id":"4","last_reported":1721938138,"current_range_meters":22000,"station_id":"ce4bgup2rcd13ifvqco0","pricing_plan_id":"cebpf4jnsgd1na2vs0mg"},{"bike_id":"b03c0999-a3e3-4245-8069-dc33f6fa0cb9","system_id":"levelo_inurba_marseille","lat":43.299028,"lon":5.381509,"is_reserved":false,"is_disabled":false,"rental_uris":{"android":"levelo://app?vid=b03c0999-a3e3-4245-8069-dc33f6fa0cb9","ios":"levelo://app?vid=b03c0999-a3e3-4245-8069-dc33f6fa0cb9"},"vehicle_type_id":"4","last_reported":1721938138,"current_range_meters":22000,"station_id":"ce4bgj12rcd13ifvqbc0","pricing_plan_id":"cebpf4jnsgd1na2vs0mg"},{"bike_id":"c128ccb9-f491-4c5f-99b9-ddd5551222dc","system_id":"levelo_inurba_marseille","lat":43.309589,"lon":5.390258,"is_reserved":false,"is_disabled":false,"rental_uris":{"android":"levelo://app?vid=c128ccb9-f491-4c5f-99b9-ddd5551222dc","ios":"levelo://app?vid=c128ccb9-f491-4c5f-99b9-ddd5551222dc"},"vehicle_type_id":"4","last_reported":1721938138,"current_range_meters":28400,"station_id":"ce4bgup2rcd13ifvqco0","pricing_plan_id":"cebpf4jnsgd1na2vs0mg"},{"bike_id":"94f7ec61-d2af-427d-befb-4c284f71aebc","system_id":"levelo_inurba_marseille","lat":43.309589,"lon":5.390258,"is_reserved":false,"is_disabled":false,"rental_uris":{"android":"levelo://app?vid=94f7ec61-d2af-427d-befb-4c284f71aebc","ios":"levelo://app?vid=94f7ec61-d2af-427d-befb-4c284f71aebc"},"vehicle_type_id":"4","last_reported":1721938138,"current_range_meters":20400,"station_id":"ce4bgup2rcd13ifvqco0","pricing_plan_id":"cebpf4jnsgd1na2vs0mg"},{"bike_id":"53e1e4ca-9601-4bcd-8354-ab2e7b09567e","system_id":"levelo_inurba_marseille","lat":43.309589,"lon":5.390258,"is_reserved":false,"is_disabled":false,"rental_uris":{"android":"levelo://app?vid=53e1e4ca-9601-4bcd-8354-ab2e7b09567e","ios":"levelo://app?vid=53e1e4ca-9601-4bcd-8354-ab2e7b09567e"},"vehicle_type_id":"4","last_reported":1721938138,"current_range_meters":5600,"station_id":"ce4bgup2rcd13ifvqco0","pricing_plan_id":"cebpf4jnsgd1na2vs0mg"},{"bike_id":"7ae844be-febd-4376-a285-c5268036ba77","system_id":"levelo_inurba_marseille","lat":43.299028,"lon":5.381509,"is_reserved":false,"is_disabled":false,"rental_uris":{"android":"levelo://app?vid=7ae844be-febd-4376-a285-c5268036ba77","ios":"levelo://app?vid=7ae844be-febd-4376-a285-c5268036ba77"},"vehicle_type_id":"4","last_reported":1721938138,"current_range_meters":31200,"station_id":"ce4bgj12rcd13ifvqbc0","pricing_plan_id":"cebpf4jnsgd1na2vs0mg"},{"bike_id":"35553e69-33f3-4b82-b8c7-72c965f7b5e0","system_id":"levelo_inurba_marseille","lat":43.309589,"lon":5.390258,"is_reserved":false,"is_disabled":false,"rental_uris":{"android":"levelo://app?vid=35553e69-33f3-4b82-b8c7-72c965f7b5e0","ios":"levelo://app?vid=35553e69-33f3-4b82-b8c7-72c965f7b5e0"},"vehicle_type_id":"4","last_reported":1721938138,"current_range_meters":16400,"station_id":"ce4bgup2rcd13ifvqco0","pricing_plan_id":"cebpf4jnsgd1na2vs0mg"},{"bike_id":"12633fb0-8c16-4445-9176-71aa1d4e0b3c","system_id":"levelo_inurba_marseille","lat":43.309589,"lon":5.390258,"is_reserved":false,"is_disabled":false,"rental_uris":{"android":"levelo://app?vid=12633fb0-8c16-4445-9176-71aa1d4e0b3c","ios":"levelo://app?vid=12633fb0-8c16-4445-9176-71aa1d4e0b3c"},"vehicle_type_id":"4","last_reported":1721938138,"current_range_meters":19200,"station_id":"ce4bgup2rcd13ifvqco0","pricing_plan_id":"cebpf4jnsgd1na2vs0mg"},{"bike_id":"dc7e82d0-be87-4811-9f5e-1800dffb3f7e","system_id":"levelo_inurba_marseille","lat":43.309589,"lon":5.390258,"is_reserved":false,"is_disabled":false,"rental_uris":{"android":"levelo://app?vid=dc7e82d0-be87-4811-9f5e-1800dffb3f7e","ios":"levelo://app?vid=dc7e82d0-be87-4811-9f5e-1800dffb3f7e"},"vehicle_type_id":"4","last_reported":1721938138,"current_range_meters":0,"station_id":"ce4bgup2rcd13ifvqco0","pricing_plan_id":"cebpf4jnsgd1na2vs0mg"},{"bike_id":"574c7af5-f70a-41d8-a69d-405bd61c7a6d","system_id":"levelo_inurba_marseille","lat":43.309589,"lon":5.390258,"is_reserved":false,"is_disabled":false,"rental_uris":{"android":"levelo://app?vid=574c7af5-f70a-41d8-a69d-405bd61c7a6d","ios":"levelo://app?vid=574c7af5-f70a-41d8-a69d-405bd61c7a6d"},"vehicle_type_id":"4","last_reported":1721938138,"current_range_meters":18800,"station_id":"ce4bgup2rcd13ifvqco0","pricing_plan_id":"cebpf4jnsgd1na2vs0mg"},{"bike_id":"7a3f8dba-584e-4cc9-9faf-7fd04b899f7e","system_id":"levelo_inurba_marseille","lat":43.309589,"lon":5.390258,"is_reserved":false,"is_disabled":false,"rental_uris":{"android":"levelo://app?vid=7a3f8dba-584e-4cc9-9faf-7fd04b899f7e","ios":"levelo://app?vid=7a3f8dba-584e-4cc9-9faf-7fd04b899f7e"},"vehicle_type_id":"4","last_reported":1721938138,"current_range_meters":7600,"station_id":"ce4bgup2rcd13ifvqco0","pricing_plan_id":"cebpf4jnsgd1na2vs0mg"},{"bike_id":"9f3c496a-2bb8-4a3b-9916-aeaa7ad39f28","system_id":"levelo_inurba_marseille","lat":43.309589,"lon":5.390258,"is_reserved":false,"is_disabled":false,"rental_uris":{"android":"levelo://app?vid=9f3c496a-2bb8-4a3b-9916-aeaa7ad39f28","ios":"levelo://app?vid=9f3c496a-2bb8-4a3b-9916-aeaa7ad39f28"},"vehicle_type_id":"4","last_reported":1721938138,"current_range_meters":11200,"station_id":"ce4bgup2rcd13ifvqco0","pricing_plan_id":"cebpf4jnsgd1na2vs0mg"},{"bike_id":"c2cde880-dbbe-4682-8c19-b21a6732d372","system_id":"levelo_inurba_marseille","lat":43.309589,"lon":5.390258,"is_reserved":false,"is_disabled":false,"rental_uris":{"android":"levelo://app?vid=c2cde880-dbbe-4682-8c19-b21a6732d372","ios":"levelo://app?vid=c2cde880-dbbe-4682-8c19-b21a6732d372"},"vehicle_type_id":"4","last_reported":1721938138,"current_range_meters":0,"station_id":"ce4bgup2rcd13ifvqco0","pricing_plan_id":"cebpf4jnsgd1na2vs0mg"},{"bike_id":"b01f8e05-9d76-470e-aeb8-27e49b6d698d","system_id":"levelo_inurba_marseille","lat":43.309589,"lon":5.390258,"is_reserved":false,"is_disabled":false,"rental_uris":{"android":"levelo://app?vid=b01f8e05-9d76-470e-aeb8-27e49b6d698d","ios":"levelo://app?vid=b01f8e05-9d76-470e-aeb8-27e49b6d698d"},"vehicle_type_id":"4","last_reported":1721938138,"current_range_meters":800,"station_id":"ce4bgup2rcd13ifvqco0","pricing_plan_id":"cebpf4jnsgd1na2vs0mg"},{"bike_id":"745ec319-a734-4f0e-a598-55dfa22eb8eb","system_id":"levelo_inurba_marseille","lat":43.309589,"lon":5.390258,"is_reserved":false,"is_disabled":false,"rental_uris":{"android":"levelo://app?vid=745ec319-a734-4f0e-a598-55dfa22eb8eb","ios":"levelo://app?vid=745ec319-a734-4f0e-a598-55dfa22eb8eb"},"vehicle_type_id":"4","last_reported":1721938138,"current_range_meters":24800,"station_id":"ce4bgup2rcd13ifvqco0","pricing_plan_id":"cebpf4jnsgd1na2vs0mg"},{"bike_id":"e0c6f5d4-a071-445c-b9d3-da4ddc33494f","system_id":"levelo_inurba_marseille","lat":43.309589,"lon":5.390258,"is_reserved":false,"is_disabled":false,"rental_uris":{"android":"levelo://app?vid=e0c6f5d4-a071-445c-b9d3-da4ddc33494f","ios":"levelo://app?vid=e0c6f5d4-a071-445c-b9d3-da4ddc33494f"},"vehicle_type_id":"4","last_reported":1721938138,"current_range_meters":17600,"station_id":"ce4bgup2rcd13ifvqco0","pricing_plan_id":"cebpf4jnsgd1na2vs0mg"},{"bike_id":"e8e347fc-f710-4d4e-b94d-917a66b5f14c","system_id":"levelo_inurba_marseille","lat":43.299028,"lon":5.381509,"is_reserved":false,"is_disabled":false,"rental_uris":{"android":"levelo://app?vid=e8e347fc-f710-4d4e-b94d-917a66b5f14c","ios":"levelo://app?vid=e8e347fc-f710-4d4e-b94d-917a66b5f14c"},"vehicle_type_id":"4","last_reported":1721938138,"current_range_meters":18800,"station_id":"ce4bgj12rcd13ifvqbc0","pricing_plan_id":"cebpf4jnsgd1na2vs0mg"},{"bike_id":"f84c7c69-ea86-4e19-957e-8c114a25cbcf","system_id":"levelo_inurba_marseille","lat":43.309589,"lon":5.390258,"is_reserved":false,"is_disabled":false,"rental_uris":{"android":"levelo://app?vid=f84c7c69-ea86-4e19-957e-8c114a25cbcf","ios":"levelo://app?vid=f84c7c69-ea86-4e19-957e-8c114a25cbcf"},"vehicle_type_id":"4","last_reported":1721938138,"current_range_meters":8800,"station_id":"ce4bgup2rcd13ifvqco0","pricing_plan_id":"cebpf4jnsgd1na2vs0mg"},{"bike_id":"51341d4d-d562-414b-b8b8-4901c61eb52d","system_id":"levelo_inurba_marseille","lat":43.309589,"lon":5.390258,"is_reserved":false,"is_disabled":false,"rental_uris":{"android":"levelo://app?vid=51341d4d-d562-414b-b8b8-4901c61eb52d","ios":"levelo://app?vid=51341d4d-d562-414b-b8b8-4901c61eb52d"},"vehicle_type_id":"4","last_reported":1721938138,"current_range_meters":4800,"station_id":"ce4bgup2rcd13ifvqco0","pricing_plan_id":"cebpf4jnsgd1na2vs0mg"},{"bike_id":"ab8f529c-9deb-4eef-a453-3285e31b7c73","system_id":"levelo_inurba_marseille","lat":43.29636,"lon":5.37482,"is_reserved":false,"is_disabled":false,"rental_uris":{"android":"levelo://app?vid=ab8f529c-9deb-4eef-a453-3285e31b7c73","ios":"levelo://app?vid=ab8f529c-9deb-4eef-a453-3285e31b7c73"},"vehicle_type_id":"4","last_reported":1721938138,"current_range_meters":24800,"station_id":"","pricing_plan_id":"cebpf4jnsgd1na2vs0mg"},{"bike_id":"11e14b06-a9c5-44bb-b3b5-4c23a6a9b3ee","system_id":"levelo_inurba_marseille","lat":43.309589,"lon":5.390258,"is_reserved":false,"is_disabled":false,"rental_uris":{"android":"levelo://app?vid=11e14b06-a9c5-44bb-b3b5-4c23a6a9b3ee","ios":"levelo://app?vid=11e14b06-a9c5-44bb-b3b5-4c23a6a9b3ee"},"vehicle_type_id":"4","last_reported":1721938138,"current_range_meters":30000,"station_id":"ce4bgup2rcd13ifvqco0","pricing_plan_id":"cebpf4jnsgd1na2vs0mg"},{"bike_id":"3ce39da5-ba6d-42cb-baed-e442e8e3f256","system_id":"levelo_inurba_marseille","lat":43.309589,"lon":5.390258,"is_reserved":false,"is_disabled":false,"rental_uris":{"android":"levelo://app?vid=3ce39da5-ba6d-42cb-baed-e442e8e3f256","ios":"levelo://app?vid=3ce39da5-ba6d-42cb-baed-e442e8e3f256"},"vehicle_type_id":"4","last_reported":1721938138,"current_range_meters":26400,"station_id":"ce4bgup2rcd13ifvqco0","pricing_plan_id":"cebpf4jnsgd1na2vs0mg"},{"bike_id":"d5dea0ab-7c27-42c9-9a46-bc704bafd2bb","system_id":"levelo_inurba_marseille","lat":43.309589,"lon":5.390258,"is_reserved":false,"is_disabled":false,"rental_uris":{"android":"levelo://app?vid=d5dea0ab-7c27-42c9-9a46-bc704bafd2bb","ios":"levelo://app?vid=d5dea0ab-7c27-42c9-9a46-bc704bafd2bb"},"vehicle_type_id":"4","last_reported":1721938138,"current_range_meters":2000,"station_id":"ce4bgup2rcd13ifvqco0","pricing_plan_id":"cebpf4jnsgd1na2vs0mg"},{"bike_id":"70b1e0b4-9f3f-4598-bd43-fdfcb745a820","system_id":"levelo_inurba_marseille","lat":43.309589,"lon":5.390258,"is_reserved":false,"is_disabled":false,"rental_uris":{"android":"levelo://app?vid=70b1e0b4-9f3f-4598-bd43-fdfcb745a820","ios":"levelo://app?vid=70b1e0b4-9f3f-4598-bd43-fdfcb745a820"},"vehicle_type_id":"4","last_reported":1721938138,"current_range_meters":31200,"station_id":"ce4bgup2rcd13ifvqco0","pricing_plan_id":"cebpf4jnsgd1na2vs0mg"},{"bike_id":"0acababc-e9a3-409a-9a4e-bd6c45ba86cd","system_id":"levelo_inurba_marseille","lat":43.309589,"lon":5.390258,"is_reserved":false,"is_disabled":false,"rental_uris":{"android":"levelo://app?vid=0acababc-e9a3-409a-9a4e-bd6c45ba86cd","ios":"levelo://app?vid=0acababc-e9a3-409a-9a4e-bd6c45ba86cd"},"vehicle_type_id":"4","last_reported":1721938138,"current_range_meters":0,"station_id":"ce4bgup2rcd13ifvqco0","pricing_plan_id":"cebpf4jnsgd1na2vs0mg"},{"bike_id":"30c808df-47fc-4cf8-aec8-a8edc6f6eb01","system_id":"levelo_inurba_marseille","lat":43.317557,"lon":5.390173,"is_reserved":false,"is_disabled":false,"rental_uris":{"android":"levelo://app?vid=30c808df-47fc-4cf8-aec8-a8edc6f6eb01","ios":"levelo://app?vid=30c808df-47fc-4cf8-aec8-a8edc6f6eb01"},"vehicle_type_id":"4","last_reported":1721938138,"current_range_meters":8000,"station_id":"ce4bhqp2rcd13ifvqhng","pricing_plan_id":"cebpf4jnsgd1na2vs0mg"},{"bike_id":"90519bc8-1a7d-40bd-99d3-e02e0a21f5de","system_id":"levelo_inurba_marseille","lat":43.317557,"lon":5.390173,"is_reserved":false,"is_disabled":false,"rental_uris":{"android":"levelo://app?vid=90519bc8-1a7d-40bd-99d3-e02e0a21f5de","ios":"levelo://app?vid=90519bc8-1a7d-40bd-99d3-e02e0a21f5de"},"vehicle_type_id":"4","last_reported":1721938138,"current_range_meters":28400,"station_id":"ce4bhqp2rcd13ifvqhng","pricing_plan_id":"cebpf4jnsgd1na2vs0mg"},{"bike_id":"79248592-d9de-4241-bf5e-37b5cd5cb962","system_id":"levelo_inurba_marseille","lat":43.317557,"lon":5.390173,"is_reserved":false,"is_disabled":false,"rental_uris":{"android":"levelo://app?vid=79248592-d9de-4241-bf5e-37b5cd5cb962","ios":"levelo://app?vid=79248592-d9de-4241-bf5e-37b5cd5cb962"},"vehicle_type_id":"4","last_reported":1721938138,"current_range_meters":18800,"station_id":"ce4bhqp2rcd13ifvqhng","pricing_plan_id":"cebpf4jnsgd1na2vs0mg"},{"bike_id":"ab73ad04-6cf6-48f5-9af5-1f03a0d9422e","system_id":"levelo_inurba_marseille","lat":43.304274,"lon":5.388873,"is_reserved":false,"is_disabled":false,"rental_uris":{"android":"levelo://app?vid=ab73ad04-6cf6-48f5-9af5-1f03a0d9422e","ios":"levelo://app?vid=ab73ad04-6cf6-48f5-9af5-1f03a0d9422e"},"vehicle_type_id":"4","last_reported":1721938138,"current_range_meters":8000,"station_id":"ce4bgk12rcd13ifvqbi0","pricing_plan_id":"cebpf4jnsgd1na2vs0mg"},{"bike_id":"a9baec7a-a94e-4e36-968a-c87ef3934ac6","system_id":"levelo_inurba_marseille","lat":43.2958,"lon":5.375,"is_reserved":false,"is_disabled":false,"rental_uris":{"android":"levelo://app?vid=a9baec7a-a94e-4e36-968a-c87ef3934ac6","ios":"levelo://app?vid=a9baec7a-a94e-4e36-968a-c87ef3934ac6"},"vehicle_type_id":"4","last_reported":1721938138,"current_range_meters":26400,"station_id":"ce4bgh92rcd13ifvqb50","pricing_plan_id":"cebpf4jnsgd1na2vs0mg"},{"bike_id":"2565f953-27b5-47ca-af10-35665a6a4123","system_id":"levelo_inurba_marseille","lat":43.304274,"lon":5.388873,"is_reserved":false,"is_disabled":false,"rental_uris":{"android":"levelo://app?vid=2565f953-27b5-47ca-af10-35665a6a4123","ios":"levelo://app?vid=2565f953-27b5-47ca-af10-35665a6a4123"},"vehicle_type_id":"4","last_reported":1721938138,"current_range_meters":31600,"station_id":"ce4bgk12rcd13ifvqbi0","pricing_plan_id":"cebpf4jnsgd1na2vs0mg"},{"bike_id":"93c405bb-f3b5-4841-a570-a36cb7fc1ea8","system_id":"levelo_inurba_marseille","lat":43.304407,"lon":5.388875,"is_reserved":false,"is_disabled":false,"rental_uris":{"android":"levelo://app?vid=93c405bb-f3b5-4841-a570-a36cb7fc1ea8","ios":"levelo://app?vid=93c405bb-f3b5-4841-a570-a36cb7fc1ea8"},"vehicle_type_id":"4","last_reported":1721938138,"current_range_meters":12000,"station_id":"ce4bgk12rcd13ifvqbi0","pricing_plan_id":"cebpf4jnsgd1na2vs0mg"},{"bike_id":"01e0abb6-77da-47cf-8a9f-94c4d226ea65","system_id":"levelo_inurba_marseille","lat":43.304274,"lon":5.388873,"is_reserved":false,"is_disabled":false,"rental_uris":{"android":"levelo://app?vid=01e0abb6-77da-47cf-8a9f-94c4d226ea65","ios":"levelo://app?vid=01e0abb6-77da-47cf-8a9f-94c4d226ea65"},"vehicle_type_id":"4","last_reported":1721938138,"current_range_meters":26000,"station_id":"ce4bgk12rcd13ifvqbi0","pricing_plan_id":"cebpf4jnsgd1na2vs0mg"},{"bike_id":"d7a1e463-f1ae-4f2c-8710-797eed4c237c","system_id":"levelo_inurba_marseille","lat":43.304274,"lon":5.388873,"is_reserved":false,"is_disabled":false,"rental_uris":{"android":"levelo://app?vid=d7a1e463-f1ae-4f2c-8710-797eed4c237c","ios":"levelo://app?vid=d7a1e463-f1ae-4f2c-8710-797eed4c237c"},"vehicle_type_id":"4","last_reported":1721938138,"current_range_meters":31600,"station_id":"ce4bgk12rcd13ifvqbi0","pricing_plan_id":"cebpf4jnsgd1na2vs0mg"},{"bike_id":"908279d0-49b8-4f14-b81a-a91af9e057df","system_id":"levelo_inurba_marseille","lat":43.29789,"lon":5.38103,"is_reserved":false,"is_disabled":false,"rental_uris":{"android":"levelo://app?vid=908279d0-49b8-4f14-b81a-a91af9e057df","ios":"levelo://app?vid=908279d0-49b8-4f14-b81a-a91af9e057df"},"vehicle_type_id":"4","last_reported":1721938138,"current_range_meters":23600,"station_id":"ce4bgip2rcd13ifvqbb0","pricing_plan_id":"cebpf4jnsgd1na2vs0mg"},{"bike_id":"e3f0e1c4-d976-4f01-8dd6-1174aae14b0e","system_id":"levelo_inurba_marseille","lat":43.30429,"lon":5.38887,"is_reserved":false,"is_disabled":false,"rental_uris":{"android":"levelo://app?vid=e3f0e1c4-d976-4f01-8dd6-1174aae14b0e","ios":"levelo://app?vid=e3f0e1c4-d976-4f01-8dd6-1174aae14b0e"},"vehicle_type_id":"4","last_reported":1721938138,"current_range_meters":800,"station_id":"ce4bgk12rcd13ifvqbi0","pricing_plan_id":"cebpf4jnsgd1na2vs0mg"},{"bike_id":"9ff89b9b-4b2b-4b4e-b621-299c5be6573e","system_id":"levelo_inurba_marseille","lat":43.304278,"lon":5.388868,"is_reserved":false,"is_disabled":false,"rental_uris":{"android":"levelo://app?vid=9ff89b9b-4b2b-4b4e-b621-299c5be6573e","ios":"levelo://app?vid=9ff89b9b-4b2b-4b4e-b621-299c5be6573e"},"vehicle_type_id":"4","last_reported":1721938138,"current_range_meters":30400,"station_id":"ce4bgk12rcd13ifvqbi0","pricing_plan_id":"cebpf4jnsgd1na2vs0mg"},{"bike_id":"ca33ca96-41c3-4eea-bcb9-f170657f2ce8","system_id":"levelo_inurba_marseille","lat":43.29671,"lon":5.3784,"is_reserved":false,"is_disabled":false,"rental_uris":{"android":"levelo://app?vid=ca33ca96-41c3-4eea-bcb9-f170657f2ce8","ios":"levelo://app?vid=ca33ca96-41c3-4eea-bcb9-f170657f2ce8"},"vehicle_type_id":"4","last_reported":1721938138,"current_range_meters":29600,"station_id":"","pricing_plan_id":"cebpf4jnsgd1na2vs0mg"},{"bike_id":"bc956ee9-0f55-49c5-8878-be463be102ba","system_id":"levelo_inurba_marseille","lat":43.304274,"lon":5.388873,"is_reserved":false,"is_disabled":false,"rental_uris":{"android":"levelo://app?vid=bc956ee9-0f55-49c5-8878-be463be102ba","ios":"levelo://app?vid=bc956ee9-0f55-49c5-8878-be463be102ba"},"vehicle_type_id":"4","last_reported":1721938138,"current_range_meters":21600,"station_id":"ce4bgk12rcd13ifvqbi0","pricing_plan_id":"cebpf4jnsgd1na2vs0mg"},{"bike_id":"e9c60d60-0c8f-42e0-905f-59c95865d8ff","system_id":"levelo_inurba_marseille","lat":43.29785,"lon":5.38101,"is_reserved":false,"is_disabled":false,"rental_uris":{"android":"levelo://app?vid=e9c60d60-0c8f-42e0-905f-59c95865d8ff","ios":"levelo://app?vid=e9c60d60-0c8f-42e0-905f-59c95865d8ff"},"vehicle_type_id":"4","last_reported":1721938138,"current_range_meters":30000,"station_id":"ce4bgip2rcd13ifvqbb0","pricing_plan_id":"cebpf4jnsgd1na2vs0mg"},{"bike_id":"0a0c2ad3-9d17-464c-bc49-98a7db02cf57","system_id":"levelo_inurba_marseille","lat":43.30434,"lon":5.38894,"is_reserved":false,"is_disabled":false,"rental_uris":{"android":"levelo://app?vid=0a0c2ad3-9d17-464c-bc49-98a7db02cf57","ios":"levelo://app?vid=0a0c2ad3-9d17-464c-bc49-98a7db02cf57"},"vehicle_type_id":"4","last_reported":1721938138,"current_range_meters":29600,"station_id":"ce4bgk12rcd13ifvqbi0","pricing_plan_id":"cebpf4jnsgd1na2vs0mg"},{"bike_id":"93a224e4-d7fe-480a-8f38-251737219111","system_id":"levelo_inurba_marseille","lat":43.304274,"lon":5.388873,"is_reserved":false,"is_disabled":false,"rental_uris":{"android":"levelo://app?vid=93a224e4-d7fe-480a-8f38-251737219111","ios":"levelo://app?vid=93a224e4-d7fe-480a-8f38-251737219111"},"vehicle_type_id":"4","last_reported":1721938138,"current_range_meters":12800,"station_id":"ce4bgk12rcd13ifvqbi0","pricing_plan_id":"cebpf4jnsgd1na2vs0mg"},{"bike_id":"b782eea2-e17e-4911-aea8-ca0686bfc9d5","system_id":"levelo_inurba_marseille","lat":43.304274,"lon":5.388873,"is_reserved":false,"is_disabled":false,"rental_uris":{"android":"levelo://app?vid=b782eea2-e17e-4911-aea8-ca0686bfc9d5","ios":"levelo://app?vid=b782eea2-e17e-4911-aea8-ca0686bfc9d5"},"vehicle_type_id":"4","last_reported":1721938138,"current_range_meters":16800,"station_id":"ce4bgk12rcd13ifvqbi0","pricing_plan_id":"cebpf4jnsgd1na2vs0mg"},{"bike_id":"c90a079c-43e0-47f1-adb9-d3845e88770a","system_id":"levelo_inurba_marseille","lat":43.3043,"lon":5.38894,"is_reserved":false,"is_disabled":false,"rental_uris":{"android":"levelo://app?vid=c90a079c-43e0-47f1-adb9-d3845e88770a","ios":"levelo://app?vid=c90a079c-43e0-47f1-adb9-d3845e88770a"},"vehicle_type_id":"4","last_reported":1721938138,"current_range_meters":4400,"station_id":"ce4bgk12rcd13ifvqbi0","pricing_plan_id":"cebpf4jnsgd1na2vs0mg"},{"bike_id":"65e667a7-af73-47ab-8bf7-c833f97da469","system_id":"levelo_inurba_marseille","lat":43.304274,"lon":5.388873,"is_reserved":false,"is_disabled":false,"rental_uris":{"android":"levelo://app?vid=65e667a7-af73-47ab-8bf7-c833f97da469","ios":"levelo://app?vid=65e667a7-af73-47ab-8bf7-c833f97da469"},"vehicle_type_id":"4","last_reported":1721938138,"current_range_meters":26000,"station_id":"ce4bgk12rcd13ifvqbi0","pricing_plan_id":"cebpf4jnsgd1na2vs0mg"},{"bike_id":"b0039ace-8722-4e45-a840-4a54f9e07732","system_id":"levelo_inurba_marseille","lat":43.29543,"lon":5.37454,"is_reserved":false,"is_disabled":false,"rental_uris":{"android":"levelo://app?vid=b0039ace-8722-4e45-a840-4a54f9e07732","ios":"levelo://app?vid=b0039ace-8722-4e45-a840-4a54f9e07732"},"vehicle_type_id":"4","last_reported":1721938138,"current_range_meters":30800,"station_id":"ce4bgkp2rcd13ifvqbmg","pricing_plan_id":"cebpf4jnsgd1na2vs0mg"},{"bike_id":"091c158b-a865-47e1-bd78-aeaf2c2d88b6","system_id":"levelo_inurba_marseille","lat":43.296277,"lon":5.377108,"is_reserved":false,"is_disabled":false,"rental_uris":{"android":"levelo://app?vid=091c158b-a865-47e1-bd78-aeaf2c2d88b6","ios":"levelo://app?vid=091c158b-a865-47e1-bd78-aeaf2c2d88b6"},"vehicle_type_id":"4","last_reported":1721938138,"current_range_meters":5600,"station_id":"ce4bgi92rcd13ifvqb90","pricing_plan_id":"cebpf4jnsgd1na2vs0mg"},{"bike_id":"6dd17991-2360-476e-9cc4-394838b49cfc","system_id":"levelo_inurba_marseille","lat":43.29663,"lon":5.37955,"is_reserved":false,"is_disabled":false,"rental_uris":{"android":"levelo://app?vid=6dd17991-2360-476e-9cc4-394838b49cfc","ios":"levelo://app?vid=6dd17991-2360-476e-9cc4-394838b49cfc"},"vehicle_type_id":"4","last_reported":1721938138,"current_range_meters":800,"station_id":"","pricing_plan_id":"cebpf4jnsgd1na2vs0mg"},{"bike_id":"9c07415a-d545-49af-938a-52f301590f4a","system_id":"levelo_inurba_marseille","lat":43.32085,"lon":5.39006,"is_reserved":false,"is_disabled":false,"rental_uris":{"android":"levelo://app?vid=9c07415a-d545-49af-938a-52f301590f4a","ios":"levelo://app?vid=9c07415a-d545-49af-938a-52f301590f4a"},"vehicle_type_id":"4","last_reported":1721938138,"current_range_meters":8800,"station_id":"","pricing_plan_id":"cebpf4jnsgd1na2vs0mg"},{"bike_id":"731a8d85-e464-4549-8b48-02be6f4953ee","system_id":"levelo_inurba_marseille","lat":43.301396,"lon":5.387812,"is_reserved":false,"is_disabled":false,"rental_uris":{"android":"levelo://app?vid=731a8d85-e464-4549-8b48-02be6f4953ee","ios":"levelo://app?vid=731a8d85-e464-4549-8b48-02be6f4953ee"},"vehicle_type_id":"4","last_reported":1721938138,"current_range_meters":28000,"station_id":"ce4bghh2rcd13ifvqb60","pricing_plan_id":"cebpf4jnsgd1na2vs0mg"},{"bike_id":"f0fb6f09-eb92-47fc-b661-2f6c427e82e9","system_id":"levelo_inurba_marseille","lat":43.32367,"lon":5.388836,"is_reserved":false,"is_disabled":false,"rental_uris":{"android":"levelo://app?vid=f0fb6f09-eb92-47fc-b661-2f6c427e82e9","ios":"levelo://app?vid=f0fb6f09-eb92-47fc-b661-2f6c427e82e9"},"vehicle_type_id":"4","last_reported":1721938138,"current_range_meters":21200,"station_id":"ce4bhqp2rcd13ifvqhog","pricing_plan_id":"cebpf4jnsgd1na2vs0mg"},{"bike_id":"eb16e139-9e93-45f4-a7a6-1f1bea722756","system_id":"levelo_inurba_marseille","lat":43.32367,"lon":5.388836,"is_reserved":false,"is_disabled":false,"rental_uris":{"android":"levelo://app?vid=eb16e139-9e93-45f4-a7a6-1f1bea722756","ios":"levelo://app?vid=eb16e139-9e93-45f4-a7a6-1f1bea722756"},"vehicle_type_id":"4","last_reported":1721938138,"current_range_meters":30800,"station_id":"ce4bhqp2rcd13ifvqhog","pricing_plan_id":"cebpf4jnsgd1na2vs0mg"},{"bike_id":"41c8a164-4a6f-4dd6-9b59-a07169df2954","system_id":"levelo_inurba_marseille","lat":43.32367,"lon":5.388836,"is_reserved":false,"is_disabled":false,"rental_uris":{"android":"levelo://app?vid=41c8a164-4a6f-4dd6-9b59-a07169df2954","ios":"levelo://app?vid=41c8a164-4a6f-4dd6-9b59-a07169df2954"},"vehicle_type_id":"4","last_reported":1721938138,"current_range_meters":30800,"station_id":"ce4bhqp2rcd13ifvqhog","pricing_plan_id":"cebpf4jnsgd1na2vs0mg"},{"bike_id":"e7fa3156-09f2-41b5-b8f6-cc641eb2cccf","system_id":"levelo_inurba_marseille","lat":43.32367,"lon":5.388836,"is_reserved":false,"is_disabled":false,"rental_uris":{"android":"levelo://app?vid=e7fa3156-09f2-41b5-b8f6-cc641eb2cccf","ios":"levelo://app?vid=e7fa3156-09f2-41b5-b8f6-cc641eb2cccf"},"vehicle_type_id":"4","last_reported":1721938138,"current_range_meters":14000,"station_id":"ce4bhqp2rcd13ifvqhog","pricing_plan_id":"cebpf4jnsgd1na2vs0mg"},{"bike_id":"ec1d77ea-4b6f-4868-98b7-022ab2107e0f","system_id":"levelo_inurba_marseille","lat":43.32367,"lon":5.388836,"is_reserved":false,"is_disabled":false,"rental_uris":{"android":"levelo://app?vid=ec1d77ea-4b6f-4868-98b7-022ab2107e0f","ios":"levelo://app?vid=ec1d77ea-4b6f-4868-98b7-022ab2107e0f"},"vehicle_type_id":"4","last_reported":1721938138,"current_range_meters":19600,"station_id":"ce4bhqp2rcd13ifvqhog","pricing_plan_id":"cebpf4jnsgd1na2vs0mg"},{"bike_id":"f3d689ce-6fcc-4fa4-beb2-f3c36a0bbebc","system_id":"levelo_inurba_marseille","lat":43.32367,"lon":5.388836,"is_reserved":false,"is_disabled":false,"rental_uris":{"android":"levelo://app?vid=f3d689ce-6fcc-4fa4-beb2-f3c36a0bbebc","ios":"levelo://app?vid=f3d689ce-6fcc-4fa4-beb2-f3c36a0bbebc"},"vehicle_type_id":"4","last_reported":1721938138,"current_range_meters":7200,"station_id":"ce4bhqp2rcd13ifvqhog","pricing_plan_id":"cebpf4jnsgd1na2vs0mg"},{"bike_id":"81d6e670-9d86-48d9-9a44-5d71f70165bb","system_id":"levelo_inurba_marseille","lat":43.32367,"lon":5.388836,"is_reserved":false,"is_disabled":false,"rental_uris":{"android":"levelo://app?vid=81d6e670-9d86-48d9-9a44-5d71f70165bb","ios":"levelo://app?vid=81d6e670-9d86-48d9-9a44-5d71f70165bb"},"vehicle_type_id":"4","last_reported":1721938138,"current_range_meters":26000,"station_id":"ce4bhqp2rcd13ifvqhog","pricing_plan_id":"cebpf4jnsgd1na2vs0mg"},{"bike_id":"bd164c80-6425-4501-aaef-533fb2a2e863","system_id":"levelo_inurba_marseille","lat":43.293395,"lon":5.37157,"is_reserved":false,"is_disabled":false,"rental_uris":{"android":"levelo://app?vid=bd164c80-6425-4501-aaef-533fb2a2e863","ios":"levelo://app?vid=bd164c80-6425-4501-aaef-533fb2a2e863"},"vehicle_type_id":"4","last_reported":1721938138,"current_range_meters":17600,"station_id":"ce4bgh92rcd13ifvqb40","pricing_plan_id":"cebpf4jnsgd1na2vs0mg"},{"bike_id":"c63d9150-9d25-480c-bfa2-1b1746d0690c","system_id":"levelo_inurba_marseille","lat":43.293259,"lon":5.371586,"is_reserved":false,"is_disabled":false,"rental_uris":{"android":"levelo://app?vid=c63d9150-9d25-480c-bfa2-1b1746d0690c","ios":"levelo://app?vid=c63d9150-9d25-480c-bfa2-1b1746d0690c"},"vehicle_type_id":"4","last_reported":1721938138,"current_range_meters":0,"station_id":"ce4bgh92rcd13ifvqb40","pricing_plan_id":"cebpf4jnsgd1na2vs0mg"},{"bike_id":"15f2e49e-a3dc-401e-b9ef-1ca997084766","system_id":"levelo_inurba_marseille","lat":43.29271,"lon":5.36842,"is_reserved":false,"is_disabled":false,"rental_uris":{"android":"levelo://app?vid=15f2e49e-a3dc-401e-b9ef-1ca997084766","ios":"levelo://app?vid=15f2e49e-a3dc-401e-b9ef-1ca997084766"},"vehicle_type_id":"4","last_reported":1721938138,"current_range_meters":14800,"station_id":"ce4bhbp2rcd13ifvqesg","pricing_plan_id":"cebpf4jnsgd1na2vs0mg"},{"bike_id":"219c895b-cedc-4ba3-9575-76dbb21cab5b","system_id":"levelo_inurba_marseille","lat":43.29266,"lon":5.3684,"is_reserved":false,"is_disabled":false,"rental_uris":{"android":"levelo://app?vid=219c895b-cedc-4ba3-9575-76dbb21cab5b","ios":"levelo://app?vid=219c895b-cedc-4ba3-9575-76dbb21cab5b"},"vehicle_type_id":"4","last_reported":1721938138,"current_range_meters":20800,"station_id":"ce4bhbp2rcd13ifvqesg","pricing_plan_id":"cebpf4jnsgd1na2vs0mg"},{"bike_id":"0e64bf9b-fcd0-47c4-8669-c8f27838d2d5","system_id":"levelo_inurba_marseille","lat":43.29304,"lon":5.37457,"is_reserved":false,"is_disabled":false,"rental_uris":{"android":"levelo://app?vid=0e64bf9b-fcd0-47c4-8669-c8f27838d2d5","ios":"levelo://app?vid=0e64bf9b-fcd0-47c4-8669-c8f27838d2d5"},"vehicle_type_id":"4","last_reported":1721938138,"current_range_meters":0,"station_id":"ce4bgi12rcd13ifvqb70","pricing_plan_id":"cebpf4jnsgd1na2vs0mg"},{"bike_id":"211b605c-c39f-41ae-90df-2fac4e9fcff3","system_id":"levelo_inurba_marseille","lat":43.305994,"lon":5.393687,"is_reserved":false,"is_disabled":false,"rental_uris":{"android":"levelo://app?vid=211b605c-c39f-41ae-90df-2fac4e9fcff3","ios":"levelo://app?vid=211b605c-c39f-41ae-90df-2fac4e9fcff3"},"vehicle_type_id":"4","last_reported":1721938138,"current_range_meters":8000,"station_id":"ce4bh0p2rcd13ifvqd80","pricing_plan_id":"cebpf4jnsgd1na2vs0mg"},{"bike_id":"64e947c0-2a7c-4669-913c-c3f2f275e13f","system_id":"levelo_inurba_marseille","lat":43.293009,"lon":5.374584,"is_reserved":false,"is_disabled":false,"rental_uris":{"android":"levelo://app?vid=64e947c0-2a7c-4669-913c-c3f2f275e13f","ios":"levelo://app?vid=64e947c0-2a7c-4669-913c-c3f2f275e13f"},"vehicle_type_id":"4","last_reported":1721938138,"current_range_meters":2400,"station_id":"ce4bgi12rcd13ifvqb70","pricing_plan_id":"cebpf4jnsgd1na2vs0mg"},{"bike_id":"573c0268-5be4-402f-8dad-84d870ef7b1f","system_id":"levelo_inurba_marseille","lat":43.305994,"lon":5.393687,"is_reserved":false,"is_disabled":false,"rental_uris":{"android":"levelo://app?vid=573c0268-5be4-402f-8dad-84d870ef7b1f","ios":"levelo://app?vid=573c0268-5be4-402f-8dad-84d870ef7b1f"},"vehicle_type_id":"4","last_reported":1721938138,"current_range_meters":20800,"station_id":"ce4bh0p2rcd13ifvqd80","pricing_plan_id":"cebpf4jnsgd1na2vs0mg"},{"bike_id":"aff68bc2-1af5-4671-9609-7ed7041fd728","system_id":"levelo_inurba_marseille","lat":43.29241,"lon":5.37135,"is_reserved":false,"is_disabled":false,"rental_uris":{"android":"levelo://app?vid=aff68bc2-1af5-4671-9609-7ed7041fd728","ios":"levelo://app?vid=aff68bc2-1af5-4671-9609-7ed7041fd728"},"vehicle_type_id":"4","last_reported":1721938138,"current_range_meters":8400,"station_id":"","pricing_plan_id":"cebpf4jnsgd1na2vs0mg"},{"bike_id":"f3791b40-0d2b-413b-a13c-ac0519956a3c","system_id":"levelo_inurba_marseille","lat":43.302992,"lon":5.392136,"is_reserved":false,"is_disabled":false,"rental_uris":{"android":"levelo://app?vid=f3791b40-0d2b-413b-a13c-ac0519956a3c","ios":"levelo://app?vid=f3791b40-0d2b-413b-a13c-ac0519956a3c"},"vehicle_type_id":"4","last_reported":1721938138,"current_range_meters":7600,"station_id":"ce4bgkh2rcd13ifvqbk0","pricing_plan_id":"cebpf4jnsgd1na2vs0mg"},{"bike_id":"ec9f59e8-8fec-42da-bc7a-471f192332a3","system_id":"levelo_inurba_marseille","lat":43.302992,"lon":5.392136,"is_reserved":false,"is_disabled":false,"rental_uris":{"android":"levelo://app?vid=ec9f59e8-8fec-42da-bc7a-471f192332a3","ios":"levelo://app?vid=ec9f59e8-8fec-42da-bc7a-471f192332a3"},"vehicle_type_id":"4","last_reported":1721938138,"current_range_meters":30800,"station_id":"ce4bgkh2rcd13ifvqbk0","pricing_plan_id":"cebpf4jnsgd1na2vs0mg"},{"bike_id":"fd424fd1-c19b-4194-952d-64d18033fc96","system_id":"levelo_inurba_marseille","lat":43.231923,"lon":5.355545,"is_reserved":false,"is_disabled":false,"rental_uris":{"android":"levelo://app?vid=fd424fd1-c19b-4194-952d-64d18033fc96","ios":"levelo://app?vid=fd424fd1-c19b-4194-952d-64d18033fc96"},"vehicle_type_id":"4","last_reported":1721938138,"current_range_meters":4000,"station_id":"ce4bhu92rcd13ifvqi70","pricing_plan_id":"cebpf4jnsgd1na2vs0mg"},{"bike_id":"df589300-27c4-4139-83f4-b1f4e24cc184","system_id":"levelo_inurba_marseille","lat":43.2936,"lon":5.37835,"is_reserved":false,"is_disabled":false,"rental_uris":{"android":"levelo://app?vid=df589300-27c4-4139-83f4-b1f4e24cc184","ios":"levelo://app?vid=df589300-27c4-4139-83f4-b1f4e24cc184"},"vehicle_type_id":"4","last_reported":1721938138,"current_range_meters":2800,"station_id":"ce4bgjh2rcd13ifvqbf0","pricing_plan_id":"cebpf4jnsgd1na2vs0mg"},{"bike_id":"63658bd0-5b8a-4fa3-82e9-550c13080acc","system_id":"levelo_inurba_marseille","lat":43.2936,"lon":5.37835,"is_reserved":false,"is_disabled":false,"rental_uris":{"android":"levelo://app?vid=63658bd0-5b8a-4fa3-82e9-550c13080acc","ios":"levelo://app?vid=63658bd0-5b8a-4fa3-82e9-550c13080acc"},"vehicle_type_id":"4","last_reported":1721938138,"current_range_meters":17600,"station_id":"ce4bgjh2rcd13ifvqbf0","pricing_plan_id":"cebpf4jnsgd1na2vs0mg"},{"bike_id":"e5b05e77-f15a-4df6-99ed-042c54e85f71","system_id":"levelo_inurba_marseille","lat":43.2936,"lon":5.37835,"is_reserved":false,"is_disabled":false,"rental_uris":{"android":"levelo://app?vid=e5b05e77-f15a-4df6-99ed-042c54e85f71","ios":"levelo://app?vid=e5b05e77-f15a-4df6-99ed-042c54e85f71"},"vehicle_type_id":"4","last_reported":1721938138,"current_range_meters":5600,"station_id":"ce4bgjh2rcd13ifvqbf0","pricing_plan_id":"cebpf4jnsgd1na2vs0mg"},{"bike_id":"e68e557b-7e16-4d86-8dd5-2b2dc132ed1b","system_id":"levelo_inurba_marseille","lat":43.2936,"lon":5.37835,"is_reserved":false,"is_disabled":false,"rental_uris":{"android":"levelo://app?vid=e68e557b-7e16-4d86-8dd5-2b2dc132ed1b","ios":"levelo://app?vid=e68e557b-7e16-4d86-8dd5-2b2dc132ed1b"},"vehicle_type_id":"4","last_reported":1721938138,"current_range_meters":1600,"station_id":"ce4bgjh2rcd13ifvqbf0","pricing_plan_id":"cebpf4jnsgd1na2vs0mg"},{"bike_id":"00dcbeda-8280-4da8-9f0a-d4d1a05f269e","system_id":"levelo_inurba_marseille","lat":43.302992,"lon":5.392136,"is_reserved":false,"is_disabled":false,"rental_uris":{"android":"levelo://app?vid=00dcbeda-8280-4da8-9f0a-d4d1a05f269e","ios":"levelo://app?vid=00dcbeda-8280-4da8-9f0a-d4d1a05f269e"},"vehicle_type_id":"4","last_reported":1721938138,"current_range_meters":23600,"station_id":"ce4bgkh2rcd13ifvqbk0","pricing_plan_id":"cebpf4jnsgd1na2vs0mg"},{"bike_id":"f43012a8-244f-40e9-8f2a-312e246b8dd2","system_id":"levelo_inurba_marseille","lat":43.313291,"lon":5.396838,"is_reserved":false,"is_disabled":false,"rental_uris":{"android":"levelo://app?vid=f43012a8-244f-40e9-8f2a-312e246b8dd2","ios":"levelo://app?vid=f43012a8-244f-40e9-8f2a-312e246b8dd2"},"vehicle_type_id":"4","last_reported":1721938138,"current_range_meters":1600,"station_id":"ce4bgvp2rcd13ifvqcu0","pricing_plan_id":"cebpf4jnsgd1na2vs0mg"},{"bike_id":"8240099e-9788-4340-ae2a-8d5de76f3631","system_id":"levelo_inurba_marseille","lat":43.302992,"lon":5.392136,"is_reserved":false,"is_disabled":false,"rental_uris":{"android":"levelo://app?vid=8240099e-9788-4340-ae2a-8d5de76f3631","ios":"levelo://app?vid=8240099e-9788-4340-ae2a-8d5de76f3631"},"vehicle_type_id":"4","last_reported":1721938138,"current_range_meters":16000,"station_id":"ce4bgkh2rcd13ifvqbk0","pricing_plan_id":"cebpf4jnsgd1na2vs0mg"},{"bike_id":"8058fd8a-744e-4fca-ab16-756b87ac3fc0","system_id":"levelo_inurba_marseille","lat":43.300852,"lon":5.390859,"is_reserved":false,"is_disabled":false,"rental_uris":{"android":"levelo://app?vid=8058fd8a-744e-4fca-ab16-756b87ac3fc0","ios":"levelo://app?vid=8058fd8a-744e-4fca-ab16-756b87ac3fc0"},"vehicle_type_id":"4","last_reported":1721938138,"current_range_meters":28000,"station_id":"ce4bh192rcd13ifvqdb0","pricing_plan_id":"cebpf4jnsgd1na2vs0mg"},{"bike_id":"1cfdd14a-6154-4392-ae30-8ba81a446e4e","system_id":"levelo_inurba_marseille","lat":43.29228,"lon":5.36064,"is_reserved":false,"is_disabled":false,"rental_uris":{"android":"levelo://app?vid=1cfdd14a-6154-4392-ae30-8ba81a446e4e","ios":"levelo://app?vid=1cfdd14a-6154-4392-ae30-8ba81a446e4e"},"vehicle_type_id":"4","last_reported":1721938138,"current_range_meters":0,"station_id":"ce4bhbh2rcd13ifvqeqg","pricing_plan_id":"cebpf4jnsgd1na2vs0mg"},{"bike_id":"308b6063-c104-462c-aa80-926888d59ead","system_id":"levelo_inurba_marseille","lat":43.29223,"lon":5.3607,"is_reserved":false,"is_disabled":false,"rental_uris":{"android":"levelo://app?vid=308b6063-c104-462c-aa80-926888d59ead","ios":"levelo://app?vid=308b6063-c104-462c-aa80-926888d59ead"},"vehicle_type_id":"4","last_reported":1721938138,"current_range_meters":0,"station_id":"ce4bhbh2rcd13ifvqeqg","pricing_plan_id":"cebpf4jnsgd1na2vs0mg"},{"bike_id":"bc5137d7-d3a5-445a-8ee6-87ed8c45a14a","system_id":"levelo_inurba_marseille","lat":43.298764,"lon":5.388973,"is_reserved":false,"is_disabled":false,"rental_uris":{"android":"levelo://app?vid=bc5137d7-d3a5-445a-8ee6-87ed8c45a14a","ios":"levelo://app?vid=bc5137d7-d3a5-445a-8ee6-87ed8c45a14a"},"vehicle_type_id":"4","last_reported":1721938138,"current_range_meters":23600,"station_id":"ce4bh392rcd13ifvqdl0","pricing_plan_id":"cebpf4jnsgd1na2vs0mg"},{"bike_id":"6fe7f47a-4271-4ec5-82cf-cf18ce64ccf9","system_id":"levelo_inurba_marseille","lat":43.298764,"lon":5.388973,"is_reserved":false,"is_disabled":false,"rental_uris":{"android":"levelo://app?vid=6fe7f47a-4271-4ec5-82cf-cf18ce64ccf9","ios":"levelo://app?vid=6fe7f47a-4271-4ec5-82cf-cf18ce64ccf9"},"vehicle_type_id":"4","last_reported":1721938138,"current_range_meters":4800,"station_id":"ce4bh392rcd13ifvqdl0","pricing_plan_id":"cebpf4jnsgd1na2vs0mg"},{"bike_id":"68e7dbff-4070-4c60-9275-59c321bbfe5b","system_id":"levelo_inurba_marseille","lat":43.298764,"lon":5.388973,"is_reserved":false,"is_disabled":false,"rental_uris":{"android":"levelo://app?vid=68e7dbff-4070-4c60-9275-59c321bbfe5b","ios":"levelo://app?vid=68e7dbff-4070-4c60-9275-59c321bbfe5b"},"vehicle_type_id":"4","last_reported":1721938138,"current_range_meters":800,"station_id":"ce4bh392rcd13ifvqdl0","pricing_plan_id":"cebpf4jnsgd1na2vs0mg"},{"bike_id":"5bc6ffb5-8fa4-41c1-927a-f04ace349668","system_id":"levelo_inurba_marseille","lat":43.298764,"lon":5.388973,"is_reserved":false,"is_disabled":false,"rental_uris":{"android":"levelo://app?vid=5bc6ffb5-8fa4-41c1-927a-f04ace349668","ios":"levelo://app?vid=5bc6ffb5-8fa4-41c1-927a-f04ace349668"},"vehicle_type_id":"4","last_reported":1721938138,"current_range_meters":16800,"station_id":"ce4bh392rcd13ifvqdl0","pricing_plan_id":"cebpf4jnsgd1na2vs0mg"},{"bike_id":"634d97a4-dacd-4c6c-8d91-dd993ccc73f5","system_id":"levelo_inurba_marseille","lat":43.291675,"lon":5.371583,"is_reserved":false,"is_disabled":false,"rental_uris":{"android":"levelo://app?vid=634d97a4-dacd-4c6c-8d91-dd993ccc73f5","ios":"levelo://app?vid=634d97a4-dacd-4c6c-8d91-dd993ccc73f5"},"vehicle_type_id":"4","last_reported":1721938138,"current_range_meters":20400,"station_id":"ce4bha92rcd13ifvqeh0","pricing_plan_id":"cebpf4jnsgd1na2vs0mg"},{"bike_id":"ecb11bfe-70c8-443a-bad2-431709ce5c0f","system_id":"levelo_inurba_marseille","lat":43.298764,"lon":5.388973,"is_reserved":false,"is_disabled":false,"rental_uris":{"android":"levelo://app?vid=ecb11bfe-70c8-443a-bad2-431709ce5c0f","ios":"levelo://app?vid=ecb11bfe-70c8-443a-bad2-431709ce5c0f"},"vehicle_type_id":"4","last_reported":1721938138,"current_range_meters":14400,"station_id":"ce4bh392rcd13ifvqdl0","pricing_plan_id":"cebpf4jnsgd1na2vs0mg"},{"bike_id":"4c30d74a-d823-428a-bcb1-a051b4a6119b","system_id":"levelo_inurba_marseille","lat":43.29721,"lon":5.38724,"is_reserved":false,"is_disabled":false,"rental_uris":{"android":"levelo://app?vid=4c30d74a-d823-428a-bcb1-a051b4a6119b","ios":"levelo://app?vid=4c30d74a-d823-428a-bcb1-a051b4a6119b"},"vehicle_type_id":"4","last_reported":1721938138,"current_range_meters":0,"station_id":"","pricing_plan_id":"cebpf4jnsgd1na2vs0mg"},{"bike_id":"ba32c2db-afdb-43bb-8fe1-5b636b4ec1fa","system_id":"levelo_inurba_marseille","lat":43.313291,"lon":5.396838,"is_reserved":false,"is_disabled":false,"rental_uris":{"android":"levelo://app?vid=ba32c2db-afdb-43bb-8fe1-5b636b4ec1fa","ios":"levelo://app?vid=ba32c2db-afdb-43bb-8fe1-5b636b4ec1fa"},"vehicle_type_id":"4","last_reported":1721938138,"current_range_meters":0,"station_id":"ce4bgvp2rcd13ifvqcu0","pricing_plan_id":"cebpf4jnsgd1na2vs0mg"},{"bike_id":"2ceca993-bd72-4c8b-aad8-02abb97f2a8e","system_id":"levelo_inurba_marseille","lat":43.313291,"lon":5.396838,"is_reserved":false,"is_disabled":false,"rental_uris":{"android":"levelo://app?vid=2ceca993-bd72-4c8b-aad8-02abb97f2a8e","ios":"levelo://app?vid=2ceca993-bd72-4c8b-aad8-02abb97f2a8e"},"vehicle_type_id":"4","last_reported":1721938138,"current_range_meters":2400,"station_id":"ce4bgvp2rcd13ifvqcu0","pricing_plan_id":"cebpf4jnsgd1na2vs0mg"},{"bike_id":"59da5bd8-8465-4a50-bc63-ff8e2f44455f","system_id":"levelo_inurba_marseille","lat":43.313291,"lon":5.396838,"is_reserved":false,"is_disabled":false,"rental_uris":{"android":"levelo://app?vid=59da5bd8-8465-4a50-bc63-ff8e2f44455f","ios":"levelo://app?vid=59da5bd8-8465-4a50-bc63-ff8e2f44455f"},"vehicle_type_id":"4","last_reported":1721938138,"current_range_meters":11200,"station_id":"ce4bgvp2rcd13ifvqcu0","pricing_plan_id":"cebpf4jnsgd1na2vs0mg"},{"bike_id":"2822a61b-180f-42f0-a6af-80039bf09e7f","system_id":"levelo_inurba_marseille","lat":43.313291,"lon":5.396838,"is_reserved":false,"is_disabled":false,"rental_uris":{"android":"levelo://app?vid=2822a61b-180f-42f0-a6af-80039bf09e7f","ios":"levelo://app?vid=2822a61b-180f-42f0-a6af-80039bf09e7f"},"vehicle_type_id":"4","last_reported":1721938138,"current_range_meters":22400,"station_id":"ce4bgvp2rcd13ifvqcu0","pricing_plan_id":"cebpf4jnsgd1na2vs0mg"},{"bike_id":"b7b5ab7b-048c-4be5-87d1-6e75d9311361","system_id":"levelo_inurba_marseille","lat":43.292005,"lon":5.357875,"is_reserved":false,"is_disabled":false,"rental_uris":{"android":"levelo://app?vid=b7b5ab7b-048c-4be5-87d1-6e75d9311361","ios":"levelo://app?vid=b7b5ab7b-048c-4be5-87d1-6e75d9311361"},"vehicle_type_id":"4","last_reported":1721938138,"current_range_meters":0,"station_id":"ce4bhb12rcd13ifvqel0","pricing_plan_id":"cebpf4jnsgd1na2vs0mg"},{"bike_id":"8f492483-6bdd-4459-8c62-e00a6da0d369","system_id":"levelo_inurba_marseille","lat":43.313291,"lon":5.396838,"is_reserved":false,"is_disabled":false,"rental_uris":{"android":"levelo://app?vid=8f492483-6bdd-4459-8c62-e00a6da0d369","ios":"levelo://app?vid=8f492483-6bdd-4459-8c62-e00a6da0d369"},"vehicle_type_id":"4","last_reported":1721938138,"current_range_meters":14400,"station_id":"ce4bgvp2rcd13ifvqcu0","pricing_plan_id":"cebpf4jnsgd1na2vs0mg"},{"bike_id":"ba7467f7-e506-43ac-97e0-6762694c876a","system_id":"levelo_inurba_marseille","lat":43.313291,"lon":5.396838,"is_reserved":false,"is_disabled":false,"rental_uris":{"android":"levelo://app?vid=ba7467f7-e506-43ac-97e0-6762694c876a","ios":"levelo://app?vid=ba7467f7-e506-43ac-97e0-6762694c876a"},"vehicle_type_id":"4","last_reported":1721938138,"current_range_meters":800,"station_id":"ce4bgvp2rcd13ifvqcu0","pricing_plan_id":"cebpf4jnsgd1na2vs0mg"},{"bike_id":"baba0ba9-a920-4331-a9a9-11449985bab6","system_id":"levelo_inurba_marseille","lat":43.30882,"lon":5.39656,"is_reserved":false,"is_disabled":false,"rental_uris":{"android":"levelo://app?vid=baba0ba9-a920-4331-a9a9-11449985bab6","ios":"levelo://app?vid=baba0ba9-a920-4331-a9a9-11449985bab6"},"vehicle_type_id":"4","last_reported":1721938138,"current_range_meters":3600,"station_id":"ce4bh012rcd13ifvqcv0","pricing_plan_id":"cebpf4jnsgd1na2vs0mg"},{"bike_id":"046ad1dd-719c-480e-917a-1c943d8765a9","system_id":"levelo_inurba_marseille","lat":43.309038,"lon":5.396546,"is_reserved":false,"is_disabled":false,"rental_uris":{"android":"levelo://app?vid=046ad1dd-719c-480e-917a-1c943d8765a9","ios":"levelo://app?vid=046ad1dd-719c-480e-917a-1c943d8765a9"},"vehicle_type_id":"4","last_reported":1721938138,"current_range_meters":11200,"station_id":"ce4bh012rcd13ifvqcv0","pricing_plan_id":"cebpf4jnsgd1na2vs0mg"},{"bike_id":"76ac8210-92c0-42c5-b524-bd8249809476","system_id":"levelo_inurba_marseille","lat":43.29529,"lon":5.385581,"is_reserved":false,"is_disabled":false,"rental_uris":{"android":"levelo://app?vid=76ac8210-92c0-42c5-b524-bd8249809476","ios":"levelo://app?vid=76ac8210-92c0-42c5-b524-bd8249809476"},"vehicle_type_id":"4","last_reported":1721938138,"current_range_meters":30000,"station_id":"ce4bgih2rcd13ifvqba0","pricing_plan_id":"cebpf4jnsgd1na2vs0mg"},{"bike_id":"f1caea80-be8d-4bef-94c2-caaf42c74f89","system_id":"levelo_inurba_marseille","lat":43.29529,"lon":5.385581,"is_reserved":false,"is_disabled":false,"rental_uris":{"android":"levelo://app?vid=f1caea80-be8d-4bef-94c2-caaf42c74f89","ios":"levelo://app?vid=f1caea80-be8d-4bef-94c2-caaf42c74f89"},"vehicle_type_id":"4","last_reported":1721938138,"current_range_meters":3600,"station_id":"ce4bgih2rcd13ifvqba0","pricing_plan_id":"cebpf4jnsgd1na2vs0mg"},{"bike_id":"5a265c30-f65c-4fa2-b689-30340b98017b","system_id":"levelo_inurba_marseille","lat":43.29529,"lon":5.385581,"is_reserved":false,"is_disabled":false,"rental_uris":{"android":"levelo://app?vid=5a265c30-f65c-4fa2-b689-30340b98017b","ios":"levelo://app?vid=5a265c30-f65c-4fa2-b689-30340b98017b"},"vehicle_type_id":"4","last_reported":1721938138,"current_range_meters":17600,"station_id":"ce4bgih2rcd13ifvqba0","pricing_plan_id":"cebpf4jnsgd1na2vs0mg"},{"bike_id":"37cd8c22-5a5e-44c7-ae72-5a5392f22b3e","system_id":"levelo_inurba_marseille","lat":43.29529,"lon":5.385581,"is_reserved":false,"is_disabled":false,"rental_uris":{"android":"levelo://app?vid=37cd8c22-5a5e-44c7-ae72-5a5392f22b3e","ios":"levelo://app?vid=37cd8c22-5a5e-44c7-ae72-5a5392f22b3e"},"vehicle_type_id":"4","last_reported":1721938138,"current_range_meters":25200,"station_id":"ce4bgih2rcd13ifvqba0","pricing_plan_id":"cebpf4jnsgd1na2vs0mg"},{"bike_id":"325a52e3-0377-4c83-9ca9-1c42ba31817c","system_id":"levelo_inurba_marseille","lat":43.29529,"lon":5.385581,"is_reserved":false,"is_disabled":false,"rental_uris":{"android":"levelo://app?vid=325a52e3-0377-4c83-9ca9-1c42ba31817c","ios":"levelo://app?vid=325a52e3-0377-4c83-9ca9-1c42ba31817c"},"vehicle_type_id":"4","last_reported":1721938138,"current_range_meters":9600,"station_id":"ce4bgih2rcd13ifvqba0","pricing_plan_id":"cebpf4jnsgd1na2vs0mg"},{"bike_id":"f2f74cb2-1bf0-4e01-b505-38588824d2ec","system_id":"levelo_inurba_marseille","lat":43.29529,"lon":5.385581,"is_reserved":false,"is_disabled":false,"rental_uris":{"android":"levelo://app?vid=f2f74cb2-1bf0-4e01-b505-38588824d2ec","ios":"levelo://app?vid=f2f74cb2-1bf0-4e01-b505-38588824d2ec"},"vehicle_type_id":"4","last_reported":1721938138,"current_range_meters":0,"station_id":"ce4bgih2rcd13ifvqba0","pricing_plan_id":"cebpf4jnsgd1na2vs0mg"},{"bike_id":"6c03b4a3-80ed-4e8b-ad72-3176c1a8432b","system_id":"levelo_inurba_marseille","lat":43.29059,"lon":5.371543,"is_reserved":false,"is_disabled":false,"rental_uris":{"android":"levelo://app?vid=6c03b4a3-80ed-4e8b-ad72-3176c1a8432b","ios":"levelo://app?vid=6c03b4a3-80ed-4e8b-ad72-3176c1a8432b"},"vehicle_type_id":"4","last_reported":1721938138,"current_range_meters":0,"station_id":"ce4bh5p2rcd13ifvqe4g","pricing_plan_id":"cebpf4jnsgd1na2vs0mg"},{"bike_id":"cf9f088e-d61f-4207-bc1e-6faac008be1f","system_id":"levelo_inurba_marseille","lat":43.302008,"lon":5.394694,"is_reserved":false,"is_disabled":false,"rental_uris":{"android":"levelo://app?vid=cf9f088e-d61f-4207-bc1e-6faac008be1f","ios":"levelo://app?vid=cf9f088e-d61f-4207-bc1e-6faac008be1f"},"vehicle_type_id":"4","last_reported":1721938138,"current_range_meters":9600,"station_id":"ce4bh0p2rcd13ifvqd70","pricing_plan_id":"cebpf4jnsgd1na2vs0mg"},{"bike_id":"cbb5ec74-0580-4caf-a87d-39132dfdbd5a","system_id":"levelo_inurba_marseille","lat":43.290624,"lon":5.359245,"is_reserved":false,"is_disabled":false,"rental_uris":{"android":"levelo://app?vid=cbb5ec74-0580-4caf-a87d-39132dfdbd5a","ios":"levelo://app?vid=cbb5ec74-0580-4caf-a87d-39132dfdbd5a"},"vehicle_type_id":"4","last_reported":1721938138,"current_range_meters":0,"station_id":"ce4bha92rcd13ifvqeg0","pricing_plan_id":"cebpf4jnsgd1na2vs0mg"},{"bike_id":"2f05c5e9-3d8f-4096-b7cb-223b9bd9072d","system_id":"levelo_inurba_marseille","lat":43.290631,"lon":5.359244,"is_reserved":false,"is_disabled":false,"rental_uris":{"android":"levelo://app?vid=2f05c5e9-3d8f-4096-b7cb-223b9bd9072d","ios":"levelo://app?vid=2f05c5e9-3d8f-4096-b7cb-223b9bd9072d"},"vehicle_type_id":"4","last_reported":1721938138,"current_range_meters":0,"station_id":"ce4bha92rcd13ifvqeg0","pricing_plan_id":"cebpf4jnsgd1na2vs0mg"},{"bike_id":"b805fd5f-8fa7-4b6f-abe3-0bcc0880bd33","system_id":"levelo_inurba_marseille","lat":43.294153,"lon":5.386305,"is_reserved":false,"is_disabled":false,"rental_uris":{"android":"levelo://app?vid=b805fd5f-8fa7-4b6f-abe3-0bcc0880bd33","ios":"levelo://app?vid=b805fd5f-8fa7-4b6f-abe3-0bcc0880bd33"},"vehicle_type_id":"4","last_reported":1721938138,"current_range_meters":2800,"station_id":"ce4bh2h2rcd13ifvqdh0","pricing_plan_id":"cebpf4jnsgd1na2vs0mg"},{"bike_id":"281cca65-c304-4150-ad01-a3a261b05fff","system_id":"levelo_inurba_marseille","lat":43.290319,"lon":5.375732,"is_reserved":false,"is_disabled":false,"rental_uris":{"android":"levelo://app?vid=281cca65-c304-4150-ad01-a3a261b05fff","ios":"levelo://app?vid=281cca65-c304-4150-ad01-a3a261b05fff"},"vehicle_type_id":"4","last_reported":1721938138,"current_range_meters":26000,"station_id":"ce4bh692rcd13ifvqe90","pricing_plan_id":"cebpf4jnsgd1na2vs0mg"},{"bike_id":"f1b2b1ce-97b5-4b63-b2f4-74d6fa321cd5","system_id":"levelo_inurba_marseille","lat":43.294162,"lon":5.386292,"is_reserved":false,"is_disabled":false,"rental_uris":{"android":"levelo://app?vid=f1b2b1ce-97b5-4b63-b2f4-74d6fa321cd5","ios":"levelo://app?vid=f1b2b1ce-97b5-4b63-b2f4-74d6fa321cd5"},"vehicle_type_id":"4","last_reported":1721938138,"current_range_meters":9200,"station_id":"ce4bh2h2rcd13ifvqdh0","pricing_plan_id":"cebpf4jnsgd1na2vs0mg"},{"bike_id":"a581e9d6-e2de-45e5-a9a8-6a938d2bd50a","system_id":"levelo_inurba_marseille","lat":43.29421,"lon":5.38621,"is_reserved":false,"is_disabled":false,"rental_uris":{"android":"levelo://app?vid=a581e9d6-e2de-45e5-a9a8-6a938d2bd50a","ios":"levelo://app?vid=a581e9d6-e2de-45e5-a9a8-6a938d2bd50a"},"vehicle_type_id":"4","last_reported":1721938138,"current_range_meters":14000,"station_id":"ce4bh2h2rcd13ifvqdh0","pricing_plan_id":"cebpf4jnsgd1na2vs0mg"},{"bike_id":"73194638-262c-4909-a6c8-f573bfd22414","system_id":"levelo_inurba_marseille","lat":43.29421,"lon":5.38622,"is_reserved":false,"is_disabled":false,"rental_uris":{"android":"levelo://app?vid=73194638-262c-4909-a6c8-f573bfd22414","ios":"levelo://app?vid=73194638-262c-4909-a6c8-f573bfd22414"},"vehicle_type_id":"4","last_reported":1721938138,"current_range_meters":5600,"station_id":"ce4bh2h2rcd13ifvqdh0","pricing_plan_id":"cebpf4jnsgd1na2vs0mg"},{"bike_id":"d5063d2f-9569-49b8-9df4-702c4c8c5381","system_id":"levelo_inurba_marseille","lat":43.294162,"lon":5.386292,"is_reserved":false,"is_disabled":false,"rental_uris":{"android":"levelo://app?vid=d5063d2f-9569-49b8-9df4-702c4c8c5381","ios":"levelo://app?vid=d5063d2f-9569-49b8-9df4-702c4c8c5381"},"vehicle_type_id":"4","last_reported":1721938138,"current_range_meters":3600,"station_id":"ce4bh2h2rcd13ifvqdh0","pricing_plan_id":"cebpf4jnsgd1na2vs0mg"},{"bike_id":"78237274-6413-43ea-893e-f35724150359","system_id":"levelo_inurba_marseille","lat":43.294153,"lon":5.386305,"is_reserved":false,"is_disabled":false,"rental_uris":{"android":"levelo://app?vid=78237274-6413-43ea-893e-f35724150359","ios":"levelo://app?vid=78237274-6413-43ea-893e-f35724150359"},"vehicle_type_id":"4","last_reported":1721938138,"current_range_meters":17600,"station_id":"ce4bh2h2rcd13ifvqdh0","pricing_plan_id":"cebpf4jnsgd1na2vs0mg"},{"bike_id":"9ca80c15-db88-4237-85f8-992877f1533f","system_id":"levelo_inurba_marseille","lat":43.29036,"lon":5.3757,"is_reserved":false,"is_disabled":false,"rental_uris":{"android":"levelo://app?vid=9ca80c15-db88-4237-85f8-992877f1533f","ios":"levelo://app?vid=9ca80c15-db88-4237-85f8-992877f1533f"},"vehicle_type_id":"4","last_reported":1721938138,"current_range_meters":20000,"station_id":"ce4bh692rcd13ifvqe90","pricing_plan_id":"cebpf4jnsgd1na2vs0mg"},{"bike_id":"1e13fb13-7edc-468c-a853-34c2235d9af9","system_id":"levelo_inurba_marseille","lat":43.294162,"lon":5.386292,"is_reserved":false,"is_disabled":false,"rental_uris":{"android":"levelo://app?vid=1e13fb13-7edc-468c-a853-34c2235d9af9","ios":"levelo://app?vid=1e13fb13-7edc-468c-a853-34c2235d9af9"},"vehicle_type_id":"4","last_reported":1721938138,"current_range_meters":25600,"station_id":"ce4bh2h2rcd13ifvqdh0","pricing_plan_id":"cebpf4jnsgd1na2vs0mg"},{"bike_id":"244dece6-054d-43be-8ef4-1d775bd54fc9","system_id":"levelo_inurba_marseille","lat":43.294162,"lon":5.386292,"is_reserved":false,"is_disabled":false,"rental_uris":{"android":"levelo://app?vid=244dece6-054d-43be-8ef4-1d775bd54fc9","ios":"levelo://app?vid=244dece6-054d-43be-8ef4-1d775bd54fc9"},"vehicle_type_id":"4","last_reported":1721938138,"current_range_meters":0,"station_id":"ce4bh2h2rcd13ifvqdh0","pricing_plan_id":"cebpf4jnsgd1na2vs0mg"},{"bike_id":"f1cb53c2-a698-4ae4-828a-b2a204a7926b","system_id":"levelo_inurba_marseille","lat":43.294162,"lon":5.386292,"is_reserved":false,"is_disabled":false,"rental_uris":{"android":"levelo://app?vid=f1cb53c2-a698-4ae4-828a-b2a204a7926b","ios":"levelo://app?vid=f1cb53c2-a698-4ae4-828a-b2a204a7926b"},"vehicle_type_id":"4","last_reported":1721938138,"current_range_meters":21600,"station_id":"ce4bh2h2rcd13ifvqdh0","pricing_plan_id":"cebpf4jnsgd1na2vs0mg"},{"bike_id":"b17dd96f-9b93-4c1b-8149-731b63e0fa1a","system_id":"levelo_inurba_marseille","lat":43.29423,"lon":5.38634,"is_reserved":false,"is_disabled":false,"rental_uris":{"android":"levelo://app?vid=b17dd96f-9b93-4c1b-8149-731b63e0fa1a","ios":"levelo://app?vid=b17dd96f-9b93-4c1b-8149-731b63e0fa1a"},"vehicle_type_id":"4","last_reported":1721938138,"current_range_meters":12000,"station_id":"ce4bh2h2rcd13ifvqdh0","pricing_plan_id":"cebpf4jnsgd1na2vs0mg"},{"bike_id":"98efdce5-dff4-4f57-b50f-7bd9784dc436","system_id":"levelo_inurba_marseille","lat":43.294162,"lon":5.386292,"is_reserved":false,"is_disabled":false,"rental_uris":{"android":"levelo://app?vid=98efdce5-dff4-4f57-b50f-7bd9784dc436","ios":"levelo://app?vid=98efdce5-dff4-4f57-b50f-7bd9784dc436"},"vehicle_type_id":"4","last_reported":1721938138,"current_range_meters":800,"station_id":"ce4bh2h2rcd13ifvqdh0","pricing_plan_id":"cebpf4jnsgd1na2vs0mg"},{"bike_id":"907ce336-f21c-4740-a9ce-9e04000c8c3c","system_id":"levelo_inurba_marseille","lat":43.29416,"lon":5.38622,"is_reserved":false,"is_disabled":false,"rental_uris":{"android":"levelo://app?vid=907ce336-f21c-4740-a9ce-9e04000c8c3c","ios":"levelo://app?vid=907ce336-f21c-4740-a9ce-9e04000c8c3c"},"vehicle_type_id":"4","last_reported":1721938138,"current_range_meters":24400,"station_id":"ce4bh2h2rcd13ifvqdh0","pricing_plan_id":"cebpf4jnsgd1na2vs0mg"},{"bike_id":"970b6d90-8248-4882-bad4-ad10c108e6d2","system_id":"levelo_inurba_marseille","lat":43.294162,"lon":5.386292,"is_reserved":false,"is_disabled":false,"rental_uris":{"android":"levelo://app?vid=970b6d90-8248-4882-bad4-ad10c108e6d2","ios":"levelo://app?vid=970b6d90-8248-4882-bad4-ad10c108e6d2"},"vehicle_type_id":"4","last_reported":1721938138,"current_range_meters":5600,"station_id":"ce4bh2h2rcd13ifvqdh0","pricing_plan_id":"cebpf4jnsgd1na2vs0mg"},{"bike_id":"7b993c68-234d-48f9-9bca-502ca0a0cd57","system_id":"levelo_inurba_marseille","lat":43.294162,"lon":5.386292,"is_reserved":false,"is_disabled":false,"rental_uris":{"android":"levelo://app?vid=7b993c68-234d-48f9-9bca-502ca0a0cd57","ios":"levelo://app?vid=7b993c68-234d-48f9-9bca-502ca0a0cd57"},"vehicle_type_id":"4","last_reported":1721938138,"current_range_meters":25600,"station_id":"ce4bh2h2rcd13ifvqdh0","pricing_plan_id":"cebpf4jnsgd1na2vs0mg"},{"bike_id":"6e8c7d2f-bb78-4c05-b707-561182eb4784","system_id":"levelo_inurba_marseille","lat":43.29415,"lon":5.38622,"is_reserved":false,"is_disabled":false,"rental_uris":{"android":"levelo://app?vid=6e8c7d2f-bb78-4c05-b707-561182eb4784","ios":"levelo://app?vid=6e8c7d2f-bb78-4c05-b707-561182eb4784"},"vehicle_type_id":"4","last_reported":1721938138,"current_range_meters":10000,"station_id":"ce4bh2h2rcd13ifvqdh0","pricing_plan_id":"cebpf4jnsgd1na2vs0mg"},{"bike_id":"3955a183-0596-4b0f-88cf-a767d76bace8","system_id":"levelo_inurba_marseille","lat":43.29415,"lon":5.38624,"is_reserved":false,"is_disabled":false,"rental_uris":{"android":"levelo://app?vid=3955a183-0596-4b0f-88cf-a767d76bace8","ios":"levelo://app?vid=3955a183-0596-4b0f-88cf-a767d76bace8"},"vehicle_type_id":"4","last_reported":1721938138,"current_range_meters":2400,"station_id":"ce4bh2h2rcd13ifvqdh0","pricing_plan_id":"cebpf4jnsgd1na2vs0mg"},{"bike_id":"d69d0365-402d-4ae6-9ea2-6338acd1fb63","system_id":"levelo_inurba_marseille","lat":43.294162,"lon":5.386292,"is_reserved":false,"is_disabled":false,"rental_uris":{"android":"levelo://app?vid=d69d0365-402d-4ae6-9ea2-6338acd1fb63","ios":"levelo://app?vid=d69d0365-402d-4ae6-9ea2-6338acd1fb63"},"vehicle_type_id":"4","last_reported":1721938138,"current_range_meters":30800,"station_id":"ce4bh2h2rcd13ifvqdh0","pricing_plan_id":"cebpf4jnsgd1na2vs0mg"},{"bike_id":"bf7f15e9-4b56-4148-b01b-41265557b97a","system_id":"levelo_inurba_marseille","lat":43.29418,"lon":5.3863,"is_reserved":false,"is_disabled":false,"rental_uris":{"android":"levelo://app?vid=bf7f15e9-4b56-4148-b01b-41265557b97a","ios":"levelo://app?vid=bf7f15e9-4b56-4148-b01b-41265557b97a"},"vehicle_type_id":"4","last_reported":1721938138,"current_range_meters":0,"station_id":"ce4bh2h2rcd13ifvqdh0","pricing_plan_id":"cebpf4jnsgd1na2vs0mg"},{"bike_id":"af4e66e7-0c8d-4729-92eb-73d1adcd086f","system_id":"levelo_inurba_marseille","lat":43.29414,"lon":5.38627,"is_reserved":false,"is_disabled":false,"rental_uris":{"android":"levelo://app?vid=af4e66e7-0c8d-4729-92eb-73d1adcd086f","ios":"levelo://app?vid=af4e66e7-0c8d-4729-92eb-73d1adcd086f"},"vehicle_type_id":"4","last_reported":1721938138,"current_range_meters":18000,"station_id":"ce4bh2h2rcd13ifvqdh0","pricing_plan_id":"cebpf4jnsgd1na2vs0mg"},{"bike_id":"1f99d55d-2548-4197-a979-ba8a231538af","system_id":"levelo_inurba_marseille","lat":43.294162,"lon":5.386292,"is_reserved":false,"is_disabled":false,"rental_uris":{"android":"levelo://app?vid=1f99d55d-2548-4197-a979-ba8a231538af","ios":"levelo://app?vid=1f99d55d-2548-4197-a979-ba8a231538af"},"vehicle_type_id":"4","last_reported":1721938138,"current_range_meters":3600,"station_id":"ce4bh2h2rcd13ifvqdh0","pricing_plan_id":"cebpf4jnsgd1na2vs0mg"},{"bike_id":"7e13396f-1114-4ef9-9723-ce65811d8a0e","system_id":"levelo_inurba_marseille","lat":43.294162,"lon":5.386292,"is_reserved":false,"is_disabled":false,"rental_uris":{"android":"levelo://app?vid=7e13396f-1114-4ef9-9723-ce65811d8a0e","ios":"levelo://app?vid=7e13396f-1114-4ef9-9723-ce65811d8a0e"},