{"last_updated":1739290309,"ttl":60,"version":"2.2","data":{"bikes":[{"bike_id":"5cda301b-bce8-41d3-abea-2e981f99524e","system_id":"levelo_inurba_marseille","lat":43.29864,"lon":5.36288,"is_reserved":false,"is_disabled":false,"rental_uris":{"android":"levelo://app?vid=5cda301b-bce8-41d3-abea-2e981f99524e","ios":"levelo://app?vid=5cda301b-bce8-41d3-abea-2e981f99524e"},"vehicle_type_id":"4","last_reported":1739290309,"current_range_meters":24800,"station_id":"ce4bgpp2rcd13ifvqc3g","pricing_plan_id":"cebpf4jnsgd1na2vs0mg"},{"bike_id":"2af0db4e-a293-499c-95f0-6fa7cf2d6107","system_id":"levelo_inurba_marseille","lat":43.29561,"lon":5.39985,"is_reserved":false,"is_disabled":false,"rental_uris":{"android":"levelo://app?vid=2af0db4e-a293-499c-95f0-6fa7cf2d6107","ios":"levelo://app?vid=2af0db4e-a293-499c-95f0-6fa7cf2d6107"},"vehicle_type_id":"4","last_reported":1739290309,"current_range_meters":11200,"station_id":"ce4bh312rcd13ifvqdj0","pricing_plan_id":"cebpf4jnsgd1na2vs0mg"},{"bike_id":"2eb427ba-c8bf-4469-8ed4-76ec13ff6139","system_id":"levelo_inurba_marseille","lat":43.31194,"lon":5.36848,"is_reserved":false,"is_disabled":false,"rental_uris":{"android":"levelo://app?vid=2eb427ba-c8bf-4469-8ed4-76ec13ff6139","ios":"levelo://app?vid=2eb427ba-c8bf-4469-8ed4-76ec13ff6139"},"vehicle_type_id":"4","last_reported":1739290309,"current_range_meters":25600,"station_id":"ce4bgl92rcd13ifvqbq0","pricing_plan_id":"cebpf4jnsgd1na2vs0mg"},{"bike_id":"77fc8b4c-94e7-413f-ba24-49239e361f9a","system_id":"levelo_inurba_marseille","lat":43.283997,"lon":5.375166,"is_reserved":false,"is_disabled":false,"rental_uris":{"android":"levelo://app?vid=77fc8b4c-94e7-413f-ba24-49239e361f9a","ios":"levelo://app?vid=77fc8b4c-94e7-413f-ba24-49239e361f9a"},"vehicle_type_id":"4","last_reported":1739290309,"current_range_meters":30000,"station_id":"ce4bh412rcd13ifvqds0","pricing_plan_id":"cebpf4jnsgd1na2vs0mg"},{"bike_id":"7b24e5a6-9b24-4c8c-83ea-096770c697a6","system_id":"levelo_inurba_marseille","lat":43.31328,"lon":5.39696,"is_reserved":false,"is_disabled":false,"rental_uris":{"android":"levelo://app?vid=7b24e5a6-9b24-4c8c-83ea-096770c697a6","ios":"levelo://app?vid=7b24e5a6-9b24-4c8c-83ea-096770c697a6"},"vehicle_type_id":"4","last_reported":1739290309,"current_range_meters":38800,"station_id":"ce4bgvp2rcd13ifvqcu0","pricing_plan_id":"cebpf4jnsgd1na2vs0mg"},{"bike_id":"171a83fc-f4cb-43b0-8790-bc2b44a8dd6f","system_id":"levelo_inurba_marseille","lat":43.30405,"lon":5.3971,"is_reserved":false,"is_disabled":false,"rental_uris":{"android":"levelo://app?vid=171a83fc-f4cb-43b0-8790-bc2b44a8dd6f","ios":"levelo://app?vid=171a83fc-f4cb-43b0-8790-bc2b44a8dd6f"},"vehicle_type_id":"4","last_reported":1739290309,"current_range_meters":28000,"station_id":"ce4bh092rcd13ifvqd20","pricing_plan_id":"cebpf4jnsgd1na2vs0mg"},{"bike_id":"7662219c-9ef7-43ab-a72f-34becfbbe2fa","system_id":"levelo_inurba_marseille","lat":43.29991,"lon":5.37176,"is_reserved":false,"is_disabled":false,"rental_uris":{"android":"levelo://app?vid=7662219c-9ef7-43ab-a72f-34becfbbe2fa","ios":"levelo://app?vid=7662219c-9ef7-43ab-a72f-34becfbbe2fa"},"vehicle_type_id":"4","last_reported":1739290309,"current_range_meters":32800,"station_id":"ce4bgr92rcd13ifvqc7g","pricing_plan_id":"cebpf4jnsgd1na2vs0mg"},{"bike_id":"209825e8-b65b-4721-abb7-09695cd0f82f","system_id":"levelo_inurba_marseille","lat":43.29025,"lon":5.38635,"is_reserved":false,"is_disabled":false,"rental_uris":{"android":"levelo://app?vid=209825e8-b65b-4721-abb7-09695cd0f82f","ios":"levelo://app?vid=209825e8-b65b-4721-abb7-09695cd0f82f"},"vehicle_type_id":"4","last_reported":1739290309,"current_range_meters":30800,"station_id":"ce4bh4p2rcd13ifvqe0g","pricing_plan_id":"cebpf4jnsgd1na2vs0mg"},{"bike_id":"6ad12fed-a7c3-4ded-a0c5-213958e34b8e","system_id":"levelo_inurba_marseille","lat":43.32496,"lon":5.36585,"is_reserved":false,"is_disabled":false,"rental_uris":{"android":"levelo://app?vid=6ad12fed-a7c3-4ded-a0c5-213958e34b8e","ios":"levelo://app?vid=6ad12fed-a7c3-4ded-a0c5-213958e34b8e"},"vehicle_type_id":"4","last_reported":1739290309,"current_range_meters":39200,"station_id":"ce4bhs12rcd13ifvqhvg","pricing_plan_id":"cebpf4jnsgd1na2vs0mg"},{"bike_id":"15e34e7f-d9d2-42d1-a4f3-b8d04c42a957","system_id":"levelo_inurba_marseille","lat":43.27925,"lon":5.39588,"is_reserved":false,"is_disabled":false,"rental_uris":{"android":"levelo://app?vid=15e34e7f-d9d2-42d1-a4f3-b8d04c42a957","ios":"levelo://app?vid=15e34e7f-d9d2-42d1-a4f3-b8d04c42a957"},"vehicle_type_id":"4","last_reported":1739290309,"current_range_meters":38000,"station_id":"ce4bhf92rcd13ifvqf40","pricing_plan_id":"cebpf4jnsgd1na2vs0mg"},{"bike_id":"070ded19-db45-4133-9e69-a50aacceab14","system_id":"levelo_inurba_marseille","lat":43.26798,"lon":5.40234,"is_reserved":false,"is_disabled":false,"rental_uris":{"android":"levelo://app?vid=070ded19-db45-4133-9e69-a50aacceab14","ios":"levelo://app?vid=070ded19-db45-4133-9e69-a50aacceab14"},"vehicle_type_id":"4","last_reported":1739290309,"current_range_meters":38800,"station_id":"ce501612rcd8frsf0b60","pricing_plan_id":"cebpf4jnsgd1na2vs0mg"},{"bike_id":"f759837a-69cc-4770-96c2-faf60f712aca","system_id":"levelo_inurba_marseille","lat":43.30547,"lon":5.36531,"is_reserved":false,"is_disabled":false,"rental_uris":{"android":"levelo://app?vid=f759837a-69cc-4770-96c2-faf60f712aca","ios":"levelo://app?vid=f759837a-69cc-4770-96c2-faf60f712aca"},"vehicle_type_id":"4","last_reported":1739290309,"current_range_meters":10000,"station_id":"ce4bgs12rcd13ifvqcag","pricing_plan_id":"cebpf4jnsgd1na2vs0mg"},{"bike_id":"9cebbfac-f2bd-4a25-81be-e499c5a5f4c8","system_id":"levelo_inurba_marseille","lat":43.30282,"lon":5.37723,"is_reserved":false,"is_disabled":false,"rental_uris":{"android":"levelo://app?vid=9cebbfac-f2bd-4a25-81be-e499c5a5f4c8","ios":"levelo://app?vid=9cebbfac-f2bd-4a25-81be-e499c5a5f4c8"},"vehicle_type_id":"4","last_reported":1739290309,"current_range_meters":38800,"station_id":"ce4bguh2rcd13ifvqcj0","pricing_plan_id":"cebpf4jnsgd1na2vs0mg"},{"bike_id":"0497d784-c056-45f5-a997-c997e3fb1a75","system_id":"levelo_inurba_marseille","lat":43.31729,"lon":5.40459,"is_reserved":false,"is_disabled":true,"rental_uris":{"android":"levelo://app?vid=0497d784-c056-45f5-a997-c997e3fb1a75","ios":"levelo://app?vid=0497d784-c056-45f5-a997-c997e3fb1a75"},"vehicle_type_id":"4","last_reported":1739290309,"current_range_meters":38800,"station_id":"ce4bh012rcd13ifvqd00","pricing_plan_id":"cebpf4jnsgd1na2vs0mg"},{"bike_id":"9e4564f0-0519-46c9-beea-73f529a3ce6a","system_id":"levelo_inurba_marseille","lat":43.2481,"lon":5.37456,"is_reserved":false,"is_disabled":false,"rental_uris":{"android":"levelo://app?vid=9e4564f0-0519-46c9-beea-73f529a3ce6a","ios":"levelo://app?vid=9e4564f0-0519-46c9-beea-73f529a3ce6a"},"vehicle_type_id":"4","last_reported":1739290309,"current_range_meters":32000,"station_id":"ce4bhgh2rcd13ifvqfb0","pricing_plan_id":"cebpf4jnsgd1na2vs0mg"},{"bike_id":"46e433ac-b519-4d59-9231-189aeeb0c3a5","system_id":"levelo_inurba_marseille","lat":43.30604,"lon":5.3722,"is_reserved":false,"is_disabled":false,"rental_uris":{"android":"levelo://app?vid=46e433ac-b519-4d59-9231-189aeeb0c3a5","ios":"levelo://app?vid=46e433ac-b519-4d59-9231-189aeeb0c3a5"},"vehicle_type_id":"4","last_reported":1739290309,"current_range_meters":38800,"station_id":"ce4bgqh2rcd13ifvqc4g","pricing_plan_id":"cebpf4jnsgd1na2vs0mg"},{"bike_id":"a94d2018-f678-4713-bf2d-5da0b28f3e59","system_id":"levelo_inurba_marseille","lat":43.29799,"lon":5.3713,"is_reserved":false,"is_disabled":false,"rental_uris":{"android":"levelo://app?vid=a94d2018-f678-4713-bf2d-5da0b28f3e59","ios":"levelo://app?vid=a94d2018-f678-4713-bf2d-5da0b28f3e59"},"vehicle_type_id":"4","last_reported":1739290309,"current_range_meters":36800,"station_id":"ce4bgop2rcd13ifvqc1g","pricing_plan_id":"cebpf4jnsgd1na2vs0mg"},{"bike_id":"6e1261de-61ca-45f3-8263-50cd9c374486","system_id":"levelo_inurba_marseille","lat":43.29617,"lon":5.37753,"is_reserved":false,"is_disabled":false,"rental_uris":{"android":"levelo://app?vid=6e1261de-61ca-45f3-8263-50cd9c374486","ios":"levelo://app?vid=6e1261de-61ca-45f3-8263-50cd9c374486"},"vehicle_type_id":"4","last_reported":1739290309,"current_range_meters":36000,"station_id":"ce4bgi92rcd13ifvqb90","pricing_plan_id":"cebpf4jnsgd1na2vs0mg"},{"bike_id":"3df3041b-27b7-4def-8d60-99d6191bfdce","system_id":"levelo_inurba_marseille","lat":43.275,"lon":5.42452,"is_reserved":false,"is_disabled":false,"rental_uris":{"android":"levelo://app?vid=3df3041b-27b7-4def-8d60-99d6191bfdce","ios":"levelo://app?vid=3df3041b-27b7-4def-8d60-99d6191bfdce"},"vehicle_type_id":"4","last_reported":1739290309,"current_range_meters":39200,"station_id":"ce4bhn92rcd13ifvqgrg","pricing_plan_id":"cebpf4jnsgd1na2vs0mg"},{"bike_id":"0f3fc1e5-f257-4fd1-a5d1-902c6ea3a724","system_id":"levelo_inurba_marseille","lat":43.29102,"lon":5.4244,"is_reserved":false,"is_disabled":false,"rental_uris":{"android":"levelo://app?vid=0f3fc1e5-f257-4fd1-a5d1-902c6ea3a724","ios":"levelo://app?vid=0f3fc1e5-f257-4fd1-a5d1-902c6ea3a724"},"vehicle_type_id":"4","last_reported":1739290309,"current_range_meters":27200,"station_id":"ce4bhph2rcd13ifvqhdg","pricing_plan_id":"cebpf4jnsgd1na2vs0mg"},{"bike_id":"b00cd1fe-6986-4a4a-9e4b-6dd0afa33530","system_id":"levelo_inurba_marseille","lat":43.29706,"lon":5.36615,"is_reserved":false,"is_disabled":false,"rental_uris":{"android":"levelo://app?vid=b00cd1fe-6986-4a4a-9e4b-6dd0afa33530","ios":"levelo://app?vid=b00cd1fe-6986-4a4a-9e4b-6dd0afa33530"},"vehicle_type_id":"4","last_reported":1739290309,"current_range_meters":39200,"station_id":"ce4bgn12rcd13ifvqbt0","pricing_plan_id":"cebpf4jnsgd1na2vs0mg"},{"bike_id":"8258c8e4-7775-45b7-a1f1-6659658d08a6","system_id":"levelo_inurba_marseille","lat":43.26564,"lon":5.37282,"is_reserved":false,"is_disabled":false,"rental_uris":{"android":"levelo://app?vid=8258c8e4-7775-45b7-a1f1-6659658d08a6","ios":"levelo://app?vid=8258c8e4-7775-45b7-a1f1-6659658d08a6"},"vehicle_type_id":"4","last_reported":1739290309,"current_range_meters":38800,"station_id":"ce4bhg12rcd13ifvqf70","pricing_plan_id":"cebpf4jnsgd1na2vs0mg"},{"bike_id":"03e763eb-2ea5-4191-8380-138ad06f19b1","system_id":"levelo_inurba_marseille","lat":43.325,"lon":5.36584,"is_reserved":false,"is_disabled":false,"rental_uris":{"android":"levelo://app?vid=03e763eb-2ea5-4191-8380-138ad06f19b1","ios":"levelo://app?vid=03e763eb-2ea5-4191-8380-138ad06f19b1"},"vehicle_type_id":"4","last_reported":1739290309,"current_range_meters":29600,"station_id":"ce4bhs12rcd13ifvqhvg","pricing_plan_id":"cebpf4jnsgd1na2vs0mg"},{"bike_id":"26c79ef5-6f5f-49d9-b4aa-17fb6a7df4bb","system_id":"levelo_inurba_marseille","lat":43.29867,"lon":5.36292,"is_reserved":false,"is_disabled":false,"rental_uris":{"android":"levelo://app?vid=26c79ef5-6f5f-49d9-b4aa-17fb6a7df4bb","ios":"levelo://app?vid=26c79ef5-6f5f-49d9-b4aa-17fb6a7df4bb"},"vehicle_type_id":"4","last_reported":1739290309,"current_range_meters":39200,"station_id":"ce4bgpp2rcd13ifvqc3g","pricing_plan_id":"cebpf4jnsgd1na2vs0mg"},{"bike_id":"39e55a90-fe76-4904-bf9c-9841fe168f13","system_id":"levelo_inurba_marseille","lat":43.33723,"lon":5.39188,"is_reserved":false,"is_disabled":false,"rental_uris":{"android":"levelo://app?vid=39e55a90-fe76-4904-bf9c-9841fe168f13","ios":"levelo://app?vid=39e55a90-fe76-4904-bf9c-9841fe168f13"},"vehicle_type_id":"4","last_reported":1739290309,"current_range_meters":39200,"station_id":"ce4bhr92rcd13ifvqhsg","pricing_plan_id":"cebpf4jnsgd1na2vs0mg"},{"bike_id":"e2ecba3b-994d-4509-bdd5-01437c5e31f4","system_id":"levelo_inurba_marseille","lat":43.29639,"lon":5.37743,"is_reserved":false,"is_disabled":false,"rental_uris":{"android":"levelo://app?vid=e2ecba3b-994d-4509-bdd5-01437c5e31f4","ios":"levelo://app?vid=e2ecba3b-994d-4509-bdd5-01437c5e31f4"},"vehicle_type_id":"4","last_reported":1739290309,"current_range_meters":37600,"station_id":"ce4bgi92rcd13ifvqb90","pricing_plan_id":"cebpf4jnsgd1na2vs0mg"},{"bike_id":"f798cbc4-a869-471f-bce8-f64397eebe81","system_id":"levelo_inurba_marseille","lat":43.23954,"lon":5.36625,"is_reserved":false,"is_disabled":false,"rental_uris":{"android":"levelo://app?vid=f798cbc4-a869-471f-bce8-f64397eebe81","ios":"levelo://app?vid=f798cbc4-a869-471f-bce8-f64397eebe81"},"vehicle_type_id":"4","last_reported":1739290309,"current_range_meters":21600,"station_id":"ce4bhi12rcd13ifvqfp0","pricing_plan_id":"cebpf4jnsgd1na2vs0mg"},{"bike_id":"4879b1cd-b778-4e6d-9bfa-224e88237d63","system_id":"levelo_inurba_marseille","lat":43.30602,"lon":5.3722,"is_reserved":false,"is_disabled":false,"rental_uris":{"android":"levelo://app?vid=4879b1cd-b778-4e6d-9bfa-224e88237d63","ios":"levelo://app?vid=4879b1cd-b778-4e6d-9bfa-224e88237d63"},"vehicle_type_id":"4","last_reported":1739290309,"current_range_meters":38800,"station_id":"ce4bgqh2rcd13ifvqc4g","pricing_plan_id":"cebpf4jnsgd1na2vs0mg"},{"bike_id":"28413155-a714-4c6f-956c-f41cd00ef255","system_id":"levelo_inurba_marseille","lat":43.30425,"lon":5.39763,"is_reserved":false,"is_disabled":false,"rental_uris":{"android":"levelo://app?vid=28413155-a714-4c6f-956c-f41cd00ef255","ios":"levelo://app?vid=28413155-a714-4c6f-956c-f41cd00ef255"},"vehicle_type_id":"4","last_reported":1739290309,"current_range_meters":32400,"station_id":"ce4bh092rcd13ifvqd20","pricing_plan_id":"cebpf4jnsgd1na2vs0mg"},{"bike_id":"30e15755-4421-4ffd-b252-ccac53c81cda","system_id":"levelo_inurba_marseille","lat":43.279057,"lon":5.380055,"is_reserved":false,"is_disabled":false,"rental_uris":{"android":"levelo://app?vid=30e15755-4421-4ffd-b252-ccac53c81cda","ios":"levelo://app?vid=30e15755-4421-4ffd-b252-ccac53c81cda"},"vehicle_type_id":"4","last_reported":1739290309,"current_range_meters":30000,"station_id":"ce4bhf92rcd13ifvqf50","pricing_plan_id":"cebpf4jnsgd1na2vs0mg"},{"bike_id":"d815c757-8f8b-46a2-80b5-f462157ae95b","system_id":"levelo_inurba_marseille","lat":43.28858,"lon":5.39326,"is_reserved":false,"is_disabled":false,"rental_uris":{"android":"levelo://app?vid=d815c757-8f8b-46a2-80b5-f462157ae95b","ios":"levelo://app?vid=d815c757-8f8b-46a2-80b5-f462157ae95b"},"vehicle_type_id":"4","last_reported":1739290309,"current_range_meters":4400,"station_id":"ce4bh2p2rcd13ifvqdi0","pricing_plan_id":"cebpf4jnsgd1na2vs0mg"},{"bike_id":"e4027082-2951-4fc7-8757-8363e1bf79f7","system_id":"levelo_inurba_marseille","lat":43.29597,"lon":5.37515,"is_reserved":false,"is_disabled":false,"rental_uris":{"android":"levelo://app?vid=e4027082-2951-4fc7-8757-8363e1bf79f7","ios":"levelo://app?vid=e4027082-2951-4fc7-8757-8363e1bf79f7"},"vehicle_type_id":"4","last_reported":1739290309,"current_range_meters":39200,"station_id":"ce4bgh92rcd13ifvqb50","pricing_plan_id":"cebpf4jnsgd1na2vs0mg"},{"bike_id":"6f27f202-02b4-415a-960d-26ca2e3bc833","system_id":"levelo_inurba_marseille","lat":43.29042,"lon":5.38671,"is_reserved":false,"is_disabled":false,"rental_uris":{"android":"levelo://app?vid=6f27f202-02b4-415a-960d-26ca2e3bc833","ios":"levelo://app?vid=6f27f202-02b4-415a-960d-26ca2e3bc833"},"vehicle_type_id":"4","last_reported":1739290309,"current_range_meters":30800,"station_id":"ce4bh4p2rcd13ifvqe0g","pricing_plan_id":"cebpf4jnsgd1na2vs0mg"},{"bike_id":"bf8cd02e-ccdc-4523-894a-3fce83d782e3","system_id":"levelo_inurba_marseille","lat":43.33723,"lon":5.39174,"is_reserved":false,"is_disabled":false,"rental_uris":{"android":"levelo://app?vid=bf8cd02e-ccdc-4523-894a-3fce83d782e3","ios":"levelo://app?vid=bf8cd02e-ccdc-4523-894a-3fce83d782e3"},"vehicle_type_id":"4","last_reported":1739290309,"current_range_meters":39200,"station_id":"ce4bhr92rcd13ifvqhsg","pricing_plan_id":"cebpf4jnsgd1na2vs0mg"},{"bike_id":"b737ae82-c86e-4ede-80b2-31fc6f755e14","system_id":"levelo_inurba_marseille","lat":43.29539,"lon":5.38546,"is_reserved":false,"is_disabled":false,"rental_uris":{"android":"levelo://app?vid=b737ae82-c86e-4ede-80b2-31fc6f755e14","ios":"levelo://app?vid=b737ae82-c86e-4ede-80b2-31fc6f755e14"},"vehicle_type_id":"4","last_reported":1739290309,"current_range_meters":3600,"station_id":"ce4bgih2rcd13ifvqba0","pricing_plan_id":"cebpf4jnsgd1na2vs0mg"},{"bike_id":"bf8e0073-3935-4e32-86d0-9614b299b0c3","system_id":"levelo_inurba_marseille","lat":43.30637,"lon":5.40093,"is_reserved":false,"is_disabled":false,"rental_uris":{"android":"levelo://app?vid=bf8e0073-3935-4e32-86d0-9614b299b0c3","ios":"levelo://app?vid=bf8e0073-3935-4e32-86d0-9614b299b0c3"},"vehicle_type_id":"4","last_reported":1739290309,"current_range_meters":23200,"station_id":"ce4bh112rcd13ifvqda0","pricing_plan_id":"cebpf4jnsgd1na2vs0mg"},{"bike_id":"b14158d5-4115-46d1-a95e-2b94ab05c3fa","system_id":"levelo_inurba_marseille","lat":43.292,"lon":5.3582,"is_reserved":false,"is_disabled":false,"rental_uris":{"android":"levelo://app?vid=b14158d5-4115-46d1-a95e-2b94ab05c3fa","ios":"levelo://app?vid=b14158d5-4115-46d1-a95e-2b94ab05c3fa"},"vehicle_type_id":"4","last_reported":1739290309,"current_range_meters":38800,"station_id":"ce4bhb12rcd13ifvqel0","pricing_plan_id":"cebpf4jnsgd1na2vs0mg"},{"bike_id":"2de2f146-f7f7-4372-bf86-bd7c99aeb810","system_id":"levelo_inurba_marseille","lat":43.30309,"lon":5.36902,"is_reserved":false,"is_disabled":false,"rental_uris":{"android":"levelo://app?vid=2de2f146-f7f7-4372-bf86-bd7c99aeb810","ios":"levelo://app?vid=2de2f146-f7f7-4372-bf86-bd7c99aeb810"},"vehicle_type_id":"4","last_reported":1739290309,"current_range_meters":17200,"station_id":"ce4bgqh2rcd13ifvqc5g","pricing_plan_id":"cebpf4jnsgd1na2vs0mg"},{"bike_id":"7363b34c-f4e3-4a4d-a370-ef3739411451","system_id":"levelo_inurba_marseille","lat":43.26811,"lon":5.4027,"is_reserved":false,"is_disabled":false,"rental_uris":{"android":"levelo://app?vid=7363b34c-f4e3-4a4d-a370-ef3739411451","ios":"levelo://app?vid=7363b34c-f4e3-4a4d-a370-ef3739411451"},"vehicle_type_id":"4","last_reported":1739290309,"current_range_meters":38800,"station_id":"ce501612rcd8frsf0b60","pricing_plan_id":"cebpf4jnsgd1na2vs0mg"},{"bike_id":"16b62dc5-bf34-4765-86ef-9156b4685fff","system_id":"levelo_inurba_marseille","lat":43.303,"lon":5.36877,"is_reserved":false,"is_disabled":false,"rental_uris":{"android":"levelo://app?vid=16b62dc5-bf34-4765-86ef-9156b4685fff","ios":"levelo://app?vid=16b62dc5-bf34-4765-86ef-9156b4685fff"},"vehicle_type_id":"4","last_reported":1739290309,"current_range_meters":38800,"station_id":"ce4bgqh2rcd13ifvqc5g","pricing_plan_id":"cebpf4jnsgd1na2vs0mg"},{"bike_id":"c179f179-1614-4d6a-9586-627695823c73","system_id":"levelo_inurba_marseille","lat":43.26808,"lon":5.40268,"is_reserved":false,"is_disabled":false,"rental_uris":{"android":"levelo://app?vid=c179f179-1614-4d6a-9586-627695823c73","ios":"levelo://app?vid=c179f179-1614-4d6a-9586-627695823c73"},"vehicle_type_id":"4","last_reported":1739290309,"current_range_meters":29600,"station_id":"ce501612rcd8frsf0b60","pricing_plan_id":"cebpf4jnsgd1na2vs0mg"},{"bike_id":"c573048d-b0bb-4a11-b456-07d3f804372d","system_id":"levelo_inurba_marseille","lat":43.28861,"lon":5.39331,"is_reserved":false,"is_disabled":false,"rental_uris":{"android":"levelo://app?vid=c573048d-b0bb-4a11-b456-07d3f804372d","ios":"levelo://app?vid=c573048d-b0bb-4a11-b456-07d3f804372d"},"vehicle_type_id":"4","last_reported":1739290309,"current_range_meters":33200,"station_id":"ce4bh2p2rcd13ifvqdi0","pricing_plan_id":"cebpf4jnsgd1na2vs0mg"},{"bike_id":"542c162a-2c01-4221-88ba-bc0cf2c81047","system_id":"levelo_inurba_marseille","lat":43.268037,"lon":5.402658,"is_reserved":false,"is_disabled":false,"rental_uris":{"android":"levelo://app?vid=542c162a-2c01-4221-88ba-bc0cf2c81047","ios":"levelo://app?vid=542c162a-2c01-4221-88ba-bc0cf2c81047"},"vehicle_type_id":"4","last_reported":1739290309,"current_range_meters":38800,"station_id":"ce501612rcd8frsf0b60","pricing_plan_id":"cebpf4jnsgd1na2vs0mg"},{"bike_id":"3779b7ec-5844-49dc-82f0-30c8adf5a2a6","system_id":"levelo_inurba_marseille","lat":43.28419,"lon":5.37506,"is_reserved":false,"is_disabled":false,"rental_uris":{"android":"levelo://app?vid=3779b7ec-5844-49dc-82f0-30c8adf5a2a6","ios":"levelo://app?vid=3779b7ec-5844-49dc-82f0-30c8adf5a2a6"},"vehicle_type_id":"4","last_reported":1739290309,"current_range_meters":5600,"station_id":"ce4bh412rcd13ifvqds0","pricing_plan_id":"cebpf4jnsgd1na2vs0mg"},{"bike_id":"18ab6661-7f05-48fe-b693-65f1fab70ba8","system_id":"levelo_inurba_marseille","lat":43.31283,"lon":5.40176,"is_reserved":false,"is_disabled":false,"rental_uris":{"android":"levelo://app?vid=18ab6661-7f05-48fe-b693-65f1fab70ba8","ios":"levelo://app?vid=18ab6661-7f05-48fe-b693-65f1fab70ba8"},"vehicle_type_id":"4","last_reported":1739290309,"current_range_meters":38800,"station_id":"ce4bh092rcd13ifvqd30","pricing_plan_id":"cebpf4jnsgd1na2vs0mg"},{"bike_id":"1add35ea-4fc7-486b-99a6-cfb5eca5d89c","system_id":"levelo_inurba_marseille","lat":43.3022,"lon":5.39476,"is_reserved":false,"is_disabled":false,"rental_uris":{"android":"levelo://app?vid=1add35ea-4fc7-486b-99a6-cfb5eca5d89c","ios":"levelo://app?vid=1add35ea-4fc7-486b-99a6-cfb5eca5d89c"},"vehicle_type_id":"4","last_reported":1739290309,"current_range_meters":32800,"station_id":"ce4bh0p2rcd13ifvqd70","pricing_plan_id":"cebpf4jnsgd1na2vs0mg"},{"bike_id":"8dc60ba6-d690-49b8-8adf-a6261b5bfebb","system_id":"levelo_inurba_marseille","lat":43.24395,"lon":5.37052,"is_reserved":false,"is_disabled":false,"rental_uris":{"android":"levelo://app?vid=8dc60ba6-d690-49b8-8adf-a6261b5bfebb","ios":"levelo://app?vid=8dc60ba6-d690-49b8-8adf-a6261b5bfebb"},"vehicle_type_id":"4","last_reported":1739290309,"current_range_meters":32800,"station_id":"ce4bhhh2rcd13ifvqfk0","pricing_plan_id":"cebpf4jnsgd1na2vs0mg"},{"bike_id":"022bfa62-7cd3-460d-bff2-01870edd9da6","system_id":"levelo_inurba_marseille","lat":43.28716,"lon":5.36097,"is_reserved":false,"is_disabled":false,"rental_uris":{"android":"levelo://app?vid=022bfa62-7cd3-460d-bff2-01870edd9da6","ios":"levelo://app?vid=022bfa62-7cd3-460d-bff2-01870edd9da6"},"vehicle_type_id":"4","last_reported":1739290309,"current_range_meters":36800,"station_id":"cki0cbj6b192h4jlfktg","pricing_plan_id":"cebpf4jnsgd1na2vs0mg"},{"bike_id":"681e670a-9847-47b8-a1f9-81b80e2b2b37","system_id":"levelo_inurba_marseille","lat":43.25111,"lon":5.40325,"is_reserved":false,"is_disabled":false,"rental_uris":{"android":"levelo://app?vid=681e670a-9847-47b8-a1f9-81b80e2b2b37","ios":"levelo://app?vid=681e670a-9847-47b8-a1f9-81b80e2b2b37"},"vehicle_type_id":"4","last_reported":1739290309,"current_range_meters":38800,"station_id":"ce4bhlh2rcd13ifvqgig","pricing_plan_id":"cebpf4jnsgd1na2vs0mg"},{"bike_id":"d6e53530-3cc7-4db9-8a0d-93dc58983b28","system_id":"levelo_inurba_marseille","lat":43.29707,"lon":5.36602,"is_reserved":false,"is_disabled":false,"rental_uris":{"android":"levelo://app?vid=d6e53530-3cc7-4db9-8a0d-93dc58983b28","ios":"levelo://app?vid=d6e53530-3cc7-4db9-8a0d-93dc58983b28"},"vehicle_type_id":"4","last_reported":1739290309,"current_range_meters":28000,"station_id":"ce4bgn12rcd13ifvqbt0","pricing_plan_id":"cebpf4jnsgd1na2vs0mg"},{"bike_id":"8d9024d1-e65d-448c-be5d-fcc051bd95bc","system_id":"levelo_inurba_marseille","lat":43.30147,"lon":5.38798,"is_reserved":false,"is_disabled":false,"rental_uris":{"android":"levelo://app?vid=8d9024d1-e65d-448c-be5d-fcc051bd95bc","ios":"levelo://app?vid=8d9024d1-e65d-448c-be5d-fcc051bd95bc"},"vehicle_type_id":"4","last_reported":1739290309,"current_range_meters":39200,"station_id":"ce4bghh2rcd13ifvqb60","pricing_plan_id":"cebpf4jnsgd1na2vs0mg"},{"bike_id":"20cbd611-5c99-4a77-91e7-7774ed0302d9","system_id":"levelo_inurba_marseille","lat":43.2681,"lon":5.40256,"is_reserved":false,"is_disabled":false,"rental_uris":{"android":"levelo://app?vid=20cbd611-5c99-4a77-91e7-7774ed0302d9","ios":"levelo://app?vid=20cbd611-5c99-4a77-91e7-7774ed0302d9"},"vehicle_type_id":"4","last_reported":1739290309,"current_range_meters":32400,"station_id":"ce501612rcd8frsf0b60","pricing_plan_id":"cebpf4jnsgd1na2vs0mg"},{"bike_id":"e169a236-33c1-4557-8a4d-0eca73ad1806","system_id":"levelo_inurba_marseille","lat":43.27998,"lon":5.40016,"is_reserved":false,"is_disabled":false,"rental_uris":{"android":"levelo://app?vid=e169a236-33c1-4557-8a4d-0eca73ad1806","ios":"levelo://app?vid=e169a236-33c1-4557-8a4d-0eca73ad1806"},"vehicle_type_id":"4","last_reported":1739290309,"current_range_meters":25600,"station_id":"ce4bho92rcd13ifvqh4g","pricing_plan_id":"cebpf4jnsgd1na2vs0mg"},{"bike_id":"6c6e41aa-bf59-4d38-ad71-14907a175229","system_id":"levelo_inurba_marseille","lat":43.293065,"lon":5.371826,"is_reserved":false,"is_disabled":false,"rental_uris":{"android":"levelo://app?vid=6c6e41aa-bf59-4d38-ad71-14907a175229","ios":"levelo://app?vid=6c6e41aa-bf59-4d38-ad71-14907a175229"},"vehicle_type_id":"4","last_reported":1739290309,"current_range_meters":38000,"station_id":"ce4bhb92rcd13ifvqen0","pricing_plan_id":"cebpf4jnsgd1na2vs0mg"},{"bike_id":"960f15e1-8da1-4a2d-b024-52b6c0bb2e46","system_id":"levelo_inurba_marseille","lat":43.241706,"lon":5.363969,"is_reserved":false,"is_disabled":false,"rental_uris":{"android":"levelo://app?vid=960f15e1-8da1-4a2d-b024-52b6c0bb2e46","ios":"levelo://app?vid=960f15e1-8da1-4a2d-b024-52b6c0bb2e46"},"vehicle_type_id":"4","last_reported":1739290309,"current_range_meters":18800,"station_id":"ce4bgih2rcd13ifvqba0","pricing_plan_id":"cebpf4jnsgd1na2vs0mg"},{"bike_id":"f96d9290-7566-4c01-a4f3-765d931e8a38","system_id":"levelo_inurba_marseille","lat":43.29817,"lon":5.38103,"is_reserved":false,"is_disabled":false,"rental_uris":{"android":"levelo://app?vid=f96d9290-7566-4c01-a4f3-765d931e8a38","ios":"levelo://app?vid=f96d9290-7566-4c01-a4f3-765d931e8a38"},"vehicle_type_id":"4","last_reported":1739290309,"current_range_meters":28400,"station_id":"ce4bgip2rcd13ifvqbb0","pricing_plan_id":"cebpf4jnsgd1na2vs0mg"},{"bike_id":"76ebc75d-2fe5-45e0-9f44-dea2f5f86814","system_id":"levelo_inurba_marseille","lat":43.2438,"lon":5.37043,"is_reserved":false,"is_disabled":false,"rental_uris":{"android":"levelo://app?vid=76ebc75d-2fe5-45e0-9f44-dea2f5f86814","ios":"levelo://app?vid=76ebc75d-2fe5-45e0-9f44-dea2f5f86814"},"vehicle_type_id":"4","last_reported":1739290309,"current_range_meters":32000,"station_id":"ce4bhhh2rcd13ifvqfk0","pricing_plan_id":"cebpf4jnsgd1na2vs0mg"},{"bike_id":"c30dfd55-b891-4456-a6ce-f5e9d05e4a09","system_id":"levelo_inurba_marseille","lat":43.28632,"lon":5.351,"is_reserved":false,"is_disabled":false,"rental_uris":{"android":"levelo://app?vid=c30dfd55-b891-4456-a6ce-f5e9d05e4a09","ios":"levelo://app?vid=c30dfd55-b891-4456-a6ce-f5e9d05e4a09"},"vehicle_type_id":"4","last_reported":1739290309,"current_range_meters":11600,"station_id":"ce4bhch2rcd13ifvqeug","pricing_plan_id":"cebpf4jnsgd1na2vs0mg"},{"bike_id":"76305925-afef-4e0d-9960-6de968abbadf","system_id":"levelo_inurba_marseille","lat":43.24809,"lon":5.3746,"is_reserved":false,"is_disabled":false,"rental_uris":{"android":"levelo://app?vid=76305925-afef-4e0d-9960-6de968abbadf","ios":"levelo://app?vid=76305925-afef-4e0d-9960-6de968abbadf"},"vehicle_type_id":"4","last_reported":1739290309,"current_range_meters":36800,"station_id":"ce4bhgh2rcd13ifvqfb0","pricing_plan_id":"cebpf4jnsgd1na2vs0mg"},{"bike_id":"1fb1a03a-258b-416a-92dc-66b98dcbe7d9","system_id":"levelo_inurba_marseille","lat":43.337235,"lon":5.39185,"is_reserved":false,"is_disabled":false,"rental_uris":{"android":"levelo://app?vid=1fb1a03a-258b-416a-92dc-66b98dcbe7d9","ios":"levelo://app?vid=1fb1a03a-258b-416a-92dc-66b98dcbe7d9"},"vehicle_type_id":"4","last_reported":1739290309,"current_range_meters":39200,"station_id":"ce4bhr92rcd13ifvqhsg","pricing_plan_id":"cebpf4jnsgd1na2vs0mg"},{"bike_id":"0dbd0d81-4da6-4a7b-a928-c122921cd867","system_id":"levelo_inurba_marseille","lat":43.28925,"lon":5.38404,"is_reserved":false,"is_disabled":false,"rental_uris":{"android":"levelo://app?vid=0dbd0d81-4da6-4a7b-a928-c122921cd867","ios":"levelo://app?vid=0dbd0d81-4da6-4a7b-a928-c122921cd867"},"vehicle_type_id":"4","last_reported":1739290309,"current_range_meters":39200,"station_id":"ce4bh612rcd13ifvqe6g","pricing_plan_id":"cebpf4jnsgd1na2vs0mg"},{"bike_id":"51ab7186-5043-4bed-baca-73708608a302","system_id":"levelo_inurba_marseille","lat":43.29584,"lon":5.37026,"is_reserved":false,"is_disabled":true,"rental_uris":{"android":"levelo://app?vid=51ab7186-5043-4bed-baca-73708608a302","ios":"levelo://app?vid=51ab7186-5043-4bed-baca-73708608a302"},"vehicle_type_id":"4","last_reported":1739290309,"current_range_meters":6800,"station_id":"","pricing_plan_id":"cebpf4jnsgd1na2vs0mg"},{"bike_id":"770b9dad-3bfe-421f-b4ac-d1656285cf59","system_id":"levelo_inurba_marseille","lat":43.29379,"lon":5.37848,"is_reserved":false,"is_disabled":false,"rental_uris":{"android":"levelo://app?vid=770b9dad-3bfe-421f-b4ac-d1656285cf59","ios":"levelo://app?vid=770b9dad-3bfe-421f-b4ac-d1656285cf59"},"vehicle_type_id":"4","last_reported":1739290309,"current_range_meters":38800,"station_id":"ce4bgjh2rcd13ifvqbf0","pricing_plan_id":"cebpf4jnsgd1na2vs0mg"},{"bike_id":"c1c62079-fbea-40be-949c-1b6d20fbe8d2","system_id":"levelo_inurba_marseille","lat":43.30597,"lon":5.39361,"is_reserved":false,"is_disabled":false,"rental_uris":{"android":"levelo://app?vid=c1c62079-fbea-40be-949c-1b6d20fbe8d2","ios":"levelo://app?vid=c1c62079-fbea-40be-949c-1b6d20fbe8d2"},"vehicle_type_id":"4","last_reported":1739290309,"current_range_meters":26000,"station_id":"ce4bh0p2rcd13ifvqd80","pricing_plan_id":"cebpf4jnsgd1na2vs0mg"},{"bike_id":"c4038e97-41ca-4def-a28d-f02b6208ecc2","system_id":"levelo_inurba_marseille","lat":43.29516,"lon":5.37506,"is_reserved":false,"is_disabled":false,"rental_uris":{"android":"levelo://app?vid=c4038e97-41ca-4def-a28d-f02b6208ecc2","ios":"levelo://app?vid=c4038e97-41ca-4def-a28d-f02b6208ecc2"},"vehicle_type_id":"4","last_reported":1739290309,"current_range_meters":38400,"station_id":"ce4bgkp2rcd13ifvqbmg","pricing_plan_id":"cebpf4jnsgd1na2vs0mg"},{"bike_id":"2df9ea44-1468-43c2-82ec-de1fd1b84b65","system_id":"levelo_inurba_marseille","lat":43.26941,"lon":5.40253,"is_reserved":false,"is_disabled":false,"rental_uris":{"android":"levelo://app?vid=2df9ea44-1468-43c2-82ec-de1fd1b84b65","ios":"levelo://app?vid=2df9ea44-1468-43c2-82ec-de1fd1b84b65"},"vehicle_type_id":"4","last_reported":1739290309,"current_range_meters":28000,"station_id":"cjm6bp8fraef2m0cb0m0","pricing_plan_id":"cebpf4jnsgd1na2vs0mg"},{"bike_id":"20a48ecc-be84-4a19-af41-d4d79c7ee9f1","system_id":"levelo_inurba_marseille","lat":43.29524,"lon":5.39061,"is_reserved":false,"is_disabled":false,"rental_uris":{"android":"levelo://app?vid=20a48ecc-be84-4a19-af41-d4d79c7ee9f1","ios":"levelo://app?vid=20a48ecc-be84-4a19-af41-d4d79c7ee9f1"},"vehicle_type_id":"4","last_reported":1739290309,"current_range_meters":33600,"station_id":"ce4bh3p2rcd13ifvqdp0","pricing_plan_id":"cebpf4jnsgd1na2vs0mg"},{"bike_id":"e9d6d52e-ae73-4562-b275-f61781a951b6","system_id":"levelo_inurba_marseille","lat":43.28473,"lon":5.38403,"is_reserved":false,"is_disabled":false,"rental_uris":{"android":"levelo://app?vid=e9d6d52e-ae73-4562-b275-f61781a951b6","ios":"levelo://app?vid=e9d6d52e-ae73-4562-b275-f61781a951b6"},"vehicle_type_id":"4","last_reported":1739290309,"current_range_meters":38000,"station_id":"ce4bh512rcd13ifvqe3g","pricing_plan_id":"cebpf4jnsgd1na2vs0mg"},{"bike_id":"a9b142c9-8146-4cd2-9929-de6fa12b9ff4","system_id":"levelo_inurba_marseille","lat":43.29811,"lon":5.40411,"is_reserved":false,"is_disabled":false,"rental_uris":{"android":"levelo://app?vid=a9b142c9-8146-4cd2-9929-de6fa12b9ff4","ios":"levelo://app?vid=a9b142c9-8146-4cd2-9929-de6fa12b9ff4"},"vehicle_type_id":"4","last_reported":1739290309,"current_range_meters":39200,"station_id":"ce4bh112rcd13ifvqd90","pricing_plan_id":"cebpf4jnsgd1na2vs0mg"},{"bike_id":"5f18bd7f-07eb-4b1a-bd30-3819fff5fcc5","system_id":"levelo_inurba_marseille","lat":43.29905,"lon":5.38151,"is_reserved":false,"is_disabled":false,"rental_uris":{"android":"levelo://app?vid=5f18bd7f-07eb-4b1a-bd30-3819fff5fcc5","ios":"levelo://app?vid=5f18bd7f-07eb-4b1a-bd30-3819fff5fcc5"},"vehicle_type_id":"4","last_reported":1739290309,"current_range_meters":38800,"station_id":"ce4bgj12rcd13ifvqbc0","pricing_plan_id":"cebpf4jnsgd1na2vs0mg"},{"bike_id":"79009f4e-d6ab-4421-b79f-aa84067c324b","system_id":"levelo_inurba_marseille","lat":43.24166,"lon":5.39715,"is_reserved":false,"is_disabled":false,"rental_uris":{"android":"levelo://app?vid=79009f4e-d6ab-4421-b79f-aa84067c324b","ios":"levelo://app?vid=79009f4e-d6ab-4421-b79f-aa84067c324b"},"vehicle_type_id":"4","last_reported":1739290309,"current_range_meters":27200,"station_id":"ce4bhn12rcd13ifvqgpg","pricing_plan_id":"cebpf4jnsgd1na2vs0mg"},{"bike_id":"f9fcd84c-9a0b-4471-a4a8-56349dc37728","system_id":"levelo_inurba_marseille","lat":43.27261,"lon":5.39148,"is_reserved":false,"is_disabled":false,"rental_uris":{"android":"levelo://app?vid=f9fcd84c-9a0b-4471-a4a8-56349dc37728","ios":"levelo://app?vid=f9fcd84c-9a0b-4471-a4a8-56349dc37728"},"vehicle_type_id":"4","last_reported":1739290309,"current_range_meters":27600,"station_id":"","pricing_plan_id":"cebpf4jnsgd1na2vs0mg"},{"bike_id":"0cdcc8f7-f674-43f1-9b73-0f1949650402","system_id":"levelo_inurba_marseille","lat":43.2396,"lon":5.36627,"is_reserved":false,"is_disabled":false,"rental_uris":{"android":"levelo://app?vid=0cdcc8f7-f674-43f1-9b73-0f1949650402","ios":"levelo://app?vid=0cdcc8f7-f674-43f1-9b73-0f1949650402"},"vehicle_type_id":"4","last_reported":1739290309,"current_range_meters":34800,"station_id":"ce4bhi12rcd13ifvqfp0","pricing_plan_id":"cebpf4jnsgd1na2vs0mg"},{"bike_id":"dcd4b525-77ac-4259-8ab3-b627e3be70cc","system_id":"levelo_inurba_marseille","lat":43.27999,"lon":5.40013,"is_reserved":false,"is_disabled":false,"rental_uris":{"android":"levelo://app?vid=dcd4b525-77ac-4259-8ab3-b627e3be70cc","ios":"levelo://app?vid=dcd4b525-77ac-4259-8ab3-b627e3be70cc"},"vehicle_type_id":"4","last_reported":1739290309,"current_range_meters":29600,"station_id":"ce4bho92rcd13ifvqh4g","pricing_plan_id":"cebpf4jnsgd1na2vs0mg"},{"bike_id":"de77abfa-6f74-40e9-8131-b7884eda37eb","system_id":"levelo_inurba_marseille","lat":43.29957,"lon":5.3938,"is_reserved":false,"is_disabled":false,"rental_uris":{"android":"levelo://app?vid=de77abfa-6f74-40e9-8131-b7884eda37eb","ios":"levelo://app?vid=de77abfa-6f74-40e9-8131-b7884eda37eb"},"vehicle_type_id":"4","last_reported":1739290309,"current_range_meters":28400,"station_id":"","pricing_plan_id":"cebpf4jnsgd1na2vs0mg"},{"bike_id":"ba7f9e16-87e4-4884-b219-10693d0d2aa0","system_id":"levelo_inurba_marseille","lat":43.2962,"lon":5.40647,"is_reserved":false,"is_disabled":false,"rental_uris":{"android":"levelo://app?vid=ba7f9e16-87e4-4884-b219-10693d0d2aa0","ios":"levelo://app?vid=ba7f9e16-87e4-4884-b219-10693d0d2aa0"},"vehicle_type_id":"4","last_reported":1739290309,"current_range_meters":32400,"station_id":"ce4bh0h2rcd13ifvqd60","pricing_plan_id":"cebpf4jnsgd1na2vs0mg"},{"bike_id":"aa081435-b5f9-4834-b16c-7f35c836b33a","system_id":"levelo_inurba_marseille","lat":43.30149,"lon":5.37407,"is_reserved":false,"is_disabled":false,"rental_uris":{"android":"levelo://app?vid=aa081435-b5f9-4834-b16c-7f35c836b33a","ios":"levelo://app?vid=aa081435-b5f9-4834-b16c-7f35c836b33a"},"vehicle_type_id":"4","last_reported":1739290309,"current_range_meters":38800,"station_id":"ce4bgs92rcd13ifvqcc0","pricing_plan_id":"cebpf4jnsgd1na2vs0mg"},{"bike_id":"ee079ffa-4416-4a91-bc98-3bd665acea3b","system_id":"levelo_inurba_marseille","lat":43.33724,"lon":5.39213,"is_reserved":false,"is_disabled":false,"rental_uris":{"android":"levelo://app?vid=ee079ffa-4416-4a91-bc98-3bd665acea3b","ios":"levelo://app?vid=ee079ffa-4416-4a91-bc98-3bd665acea3b"},"vehicle_type_id":"4","last_reported":1739290309,"current_range_meters":39200,"station_id":"ce4bhr92rcd13ifvqhsg","pricing_plan_id":"cebpf4jnsgd1na2vs0mg"},{"bike_id":"1fa82dc6-47d4-4356-bbca-393bf4461726","system_id":"levelo_inurba_marseille","lat":43.23965,"lon":5.36623,"is_reserved":false,"is_disabled":false,"rental_uris":{"android":"levelo://app?vid=1fa82dc6-47d4-4356-bbca-393bf4461726","ios":"levelo://app?vid=1fa82dc6-47d4-4356-bbca-393bf4461726"},"vehicle_type_id":"4","last_reported":1739290309,"current_range_meters":18000,"station_id":"ce4bhi12rcd13ifvqfp0","pricing_plan_id":"cebpf4jnsgd1na2vs0mg"},{"bike_id":"8f27805b-e45e-482f-800b-3745204b0141","system_id":"levelo_inurba_marseille","lat":43.24683,"lon":5.38166,"is_reserved":false,"is_disabled":false,"rental_uris":{"android":"levelo://app?vid=8f27805b-e45e-482f-800b-3745204b0141","ios":"levelo://app?vid=8f27805b-e45e-482f-800b-3745204b0141"},"vehicle_type_id":"4","last_reported":1739290309,"current_range_meters":27600,"station_id":"ce4bhih2rcd13ifvqfr0","pricing_plan_id":"cebpf4jnsgd1na2vs0mg"},{"bike_id":"e5ba9ab0-7b95-4237-920a-dddcbb547c08","system_id":"levelo_inurba_marseille","lat":43.2954,"lon":5.39037,"is_reserved":false,"is_disabled":false,"rental_uris":{"android":"levelo://app?vid=e5ba9ab0-7b95-4237-920a-dddcbb547c08","ios":"levelo://app?vid=e5ba9ab0-7b95-4237-920a-dddcbb547c08"},"vehicle_type_id":"4","last_reported":1739290309,"current_range_meters":28800,"station_id":"ce4bh3p2rcd13ifvqdp0","pricing_plan_id":"cebpf4jnsgd1na2vs0mg"},{"bike_id":"bcb645d7-c598-4777-888d-2e2637a0a4f2","system_id":"levelo_inurba_marseille","lat":43.27911,"lon":5.38015,"is_reserved":false,"is_disabled":false,"rental_uris":{"android":"levelo://app?vid=bcb645d7-c598-4777-888d-2e2637a0a4f2","ios":"levelo://app?vid=bcb645d7-c598-4777-888d-2e2637a0a4f2"},"vehicle_type_id":"4","last_reported":1739290309,"current_range_meters":33600,"station_id":"ce4bhf92rcd13ifvqf50","pricing_plan_id":"cebpf4jnsgd1na2vs0mg"},{"bike_id":"43d9c899-b698-4010-980b-b17004dc2d7c","system_id":"levelo_inurba_marseille","lat":43.29982,"lon":5.37158,"is_reserved":false,"is_disabled":false,"rental_uris":{"android":"levelo://app?vid=43d9c899-b698-4010-980b-b17004dc2d7c","ios":"levelo://app?vid=43d9c899-b698-4010-980b-b17004dc2d7c"},"vehicle_type_id":"4","last_reported":1739290309,"current_range_meters":39200,"station_id":"ce4bgr92rcd13ifvqc7g","pricing_plan_id":"cebpf4jnsgd1na2vs0mg"},{"bike_id":"67c77a93-95e0-4dde-b030-1b6a0f65cf9a","system_id":"levelo_inurba_marseille","lat":43.27184,"lon":5.41009,"is_reserved":false,"is_disabled":false,"rental_uris":{"android":"levelo://app?vid=67c77a93-95e0-4dde-b030-1b6a0f65cf9a","ios":"levelo://app?vid=67c77a93-95e0-4dde-b030-1b6a0f65cf9a"},"vehicle_type_id":"4","last_reported":1739290309,"current_range_meters":8000,"station_id":"ce4bhl12rcd13ifvqgf0","pricing_plan_id":"cebpf4jnsgd1na2vs0mg"},{"bike_id":"78850cd1-3f23-4e2d-b033-f72c6653650a","system_id":"levelo_inurba_marseille","lat":43.26942,"lon":5.389256,"is_reserved":false,"is_disabled":false,"rental_uris":{"android":"levelo://app?vid=78850cd1-3f23-4e2d-b033-f72c6653650a","ios":"levelo://app?vid=78850cd1-3f23-4e2d-b033-f72c6653650a"},"vehicle_type_id":"4","last_reported":1739290309,"current_range_meters":38800,"station_id":"ce4bhhh2rcd13ifvqfl0","pricing_plan_id":"cebpf4jnsgd1na2vs0mg"},{"bike_id":"496fa2ad-a547-4095-b8b9-a29f1a78ab4b","system_id":"levelo_inurba_marseille","lat":43.27834,"lon":5.407,"is_reserved":false,"is_disabled":true,"rental_uris":{"android":"levelo://app?vid=496fa2ad-a547-4095-b8b9-a29f1a78ab4b","ios":"levelo://app?vid=496fa2ad-a547-4095-b8b9-a29f1a78ab4b"},"vehicle_type_id":"4","last_reported":1739290309,"current_range_meters":36400,"station_id":"ce4bhnh2rcd13ifvqgtg","pricing_plan_id":"cebpf4jnsgd1na2vs0mg"},{"bike_id":"726ae336-bb50-4e54-8a7d-95388aae943d","system_id":"levelo_inurba_marseille","lat":43.27071,"lon":5.42281,"is_reserved":false,"is_disabled":false,"rental_uris":{"android":"levelo://app?vid=726ae336-bb50-4e54-8a7d-95388aae943d","ios":"levelo://app?vid=726ae336-bb50-4e54-8a7d-95388aae943d"},"vehicle_type_id":"4","last_reported":1739290309,"current_range_meters":23200,"station_id":"ce4bhk92rcd13ifvqgb0","pricing_plan_id":"cebpf4jnsgd1na2vs0mg"},{"bike_id":"3db29e58-0383-464f-82dd-fb2e9d4db242","system_id":"levelo_inurba_marseille","lat":43.28097,"lon":5.37844,"is_reserved":false,"is_disabled":false,"rental_uris":{"android":"levelo://app?vid=3db29e58-0383-464f-82dd-fb2e9d4db242","ios":"levelo://app?vid=3db29e58-0383-464f-82dd-fb2e9d4db242"},"vehicle_type_id":"4","last_reported":1739290309,"current_range_meters":34000,"station_id":"ce4bha12rcd13ifvqee0","pricing_plan_id":"cebpf4jnsgd1na2vs0mg"},{"bike_id":"05f6ac8f-0127-4e39-bd11-d53a74225ef8","system_id":"levelo_inurba_marseille","lat":43.27874,"lon":5.40597,"is_reserved":false,"is_disabled":true,"rental_uris":{"android":"levelo://app?vid=05f6ac8f-0127-4e39-bd11-d53a74225ef8","ios":"levelo://app?vid=05f6ac8f-0127-4e39-bd11-d53a74225ef8"},"vehicle_type_id":"4","last_reported":1739290309,"current_range_meters":0,"station_id":"","pricing_plan_id":"cebpf4jnsgd1na2vs0mg"},{"bike_id":"a3d2302b-9b93-49df-85ba-bce6080207a0","system_id":"levelo_inurba_marseille","lat":43.23155,"lon":5.43711,"is_reserved":false,"is_disabled":false,"rental_uris":{"android":"levelo://app?vid=a3d2302b-9b93-49df-85ba-bce6080207a0","ios":"levelo://app?vid=a3d2302b-9b93-49df-85ba-bce6080207a0"},"vehicle_type_id":"4","last_reported":1739290309,"current_range_meters":3600,"station_id":"ce4bhmp2rcd13ifvqgog","pricing_plan_id":"cebpf4jnsgd1na2vs0mg"},{"bike_id":"1a977b22-108e-45ce-bfbb-a16bbbb07843","system_id":"levelo_inurba_marseille","lat":43.30552,"lon":5.36539,"is_reserved":false,"is_disabled":false,"rental_uris":{"android":"levelo://app?vid=1a977b22-108e-45ce-bfbb-a16bbbb07843","ios":"levelo://app?vid=1a977b22-108e-45ce-bfbb-a16bbbb07843"},"vehicle_type_id":"4","last_reported":1739290309,"current_range_meters":24400,"station_id":"ce4bgs12rcd13ifvqcag","pricing_plan_id":"cebpf4jnsgd1na2vs0mg"},{"bike_id":"ec2f4f73-b3b1-40fd-be35-03f69b445aed","system_id":"levelo_inurba_marseille","lat":43.29625,"lon":5.40616,"is_reserved":false,"is_disabled":false,"rental_uris":{"android":"levelo://app?vid=ec2f4f73-b3b1-40fd-be35-03f69b445aed","ios":"levelo://app?vid=ec2f4f73-b3b1-40fd-be35-03f69b445aed"},"vehicle_type_id":"4","last_reported":1739290309,"current_range_meters":20400,"station_id":"ce4bh0h2rcd13ifvqd60","pricing_plan_id":"cebpf4jnsgd1na2vs0mg"},{"bike_id":"4bc69c7f-9593-488a-a501-daee6e543a6d","system_id":"levelo_inurba_marseille","lat":43.27052,"lon":5.40271,"is_reserved":false,"is_disabled":false,"rental_uris":{"android":"levelo://app?vid=4bc69c7f-9593-488a-a501-daee6e543a6d","ios":"levelo://app?vid=4bc69c7f-9593-488a-a501-daee6e543a6d"},"vehicle_type_id":"4","last_reported":1739290309,"current_range_meters":36800,"station_id":"ce4bhk92rcd13ifvqgc0","pricing_plan_id":"cebpf4jnsgd1na2vs0mg"},{"bike_id":"3d01ee57-be5d-4165-815d-c5b06c8be331","system_id":"levelo_inurba_marseille","lat":43.25008,"lon":5.3893,"is_reserved":false,"is_disabled":false,"rental_uris":{"android":"levelo://app?vid=3d01ee57-be5d-4165-815d-c5b06c8be331","ios":"levelo://app?vid=3d01ee57-be5d-4165-815d-c5b06c8be331"},"vehicle_type_id":"4","last_reported":1739290309,"current_range_meters":38800,"station_id":"ce4bhgp2rcd13ifvqfd0","pricing_plan_id":"cebpf4jnsgd1na2vs0mg"},{"bike_id":"c9f66a3b-63cf-4ad4-8d82-46ec7c71c1e3","system_id":"levelo_inurba_marseille","lat":43.28494,"lon":5.38429,"is_reserved":false,"is_disabled":false,"rental_uris":{"android":"levelo://app?vid=c9f66a3b-63cf-4ad4-8d82-46ec7c71c1e3","ios":"levelo://app?vid=c9f66a3b-63cf-4ad4-8d82-46ec7c71c1e3"},"vehicle_type_id":"4","last_reported":1739290309,"current_range_meters":28800,"station_id":"ce4bh512rcd13ifvqe3g","pricing_plan_id":"cebpf4jnsgd1na2vs0mg"},{"bike_id":"721f5fb6-7349-49b7-a109-77ff84c72bdd","system_id":"levelo_inurba_marseille","lat":43.3021,"lon":5.39474,"is_reserved":false,"is_disabled":false,"rental_uris":{"android":"levelo://app?vid=721f5fb6-7349-49b7-a109-77ff84c72bdd","ios":"levelo://app?vid=721f5fb6-7349-49b7-a109-77ff84c72bdd"},"vehicle_type_id":"4","last_reported":1739290309,"current_range_meters":39200,"station_id":"ce4bh0p2rcd13ifvqd70","pricing_plan_id":"cebpf4jnsgd1na2vs0mg"},{"bike_id":"a97e7cae-6e81-4ac6-8619-27cc708c66ad","system_id":"levelo_inurba_marseille","lat":43.27315,"lon":5.39075,"is_reserved":false,"is_disabled":false,"rental_uris":{"android":"levelo://app?vid=a97e7cae-6e81-4ac6-8619-27cc708c66ad","ios":"levelo://app?vid=a97e7cae-6e81-4ac6-8619-27cc708c66ad"},"vehicle_type_id":"4","last_reported":1739290309,"current_range_meters":8400,"station_id":"ce4bhgp2rcd13ifvqfe0","pricing_plan_id":"cebpf4jnsgd1na2vs0mg"},{"bike_id":"76ed4e97-7fa9-4836-bcd3-e52753ef31b4","system_id":"levelo_inurba_marseille","lat":43.29842,"lon":5.36283,"is_reserved":false,"is_disabled":false,"rental_uris":{"android":"levelo://app?vid=76ed4e97-7fa9-4836-bcd3-e52753ef31b4","ios":"levelo://app?vid=76ed4e97-7fa9-4836-bcd3-e52753ef31b4"},"vehicle_type_id":"4","last_reported":1739290309,"current_range_meters":38000,"station_id":"ce4bgpp2rcd13ifvqc3g","pricing_plan_id":"cebpf4jnsgd1na2vs0mg"},{"bike_id":"fd7cd6eb-8023-4160-9061-39fa556cf25c","system_id":"levelo_inurba_marseille","lat":43.303135,"lon":5.404393,"is_reserved":false,"is_disabled":true,"rental_uris":{"android":"levelo://app?vid=fd7cd6eb-8023-4160-9061-39fa556cf25c","ios":"levelo://app?vid=fd7cd6eb-8023-4160-9061-39fa556cf25c"},"vehicle_type_id":"4","last_reported":1739290309,"current_range_meters":28000,"station_id":"ce4bh012rcd13ifvqd10","pricing_plan_id":"cebpf4jnsgd1na2vs0mg"},{"bike_id":"f2e8a72d-ae6d-4e30-9ce5-c4eaa8529e01","system_id":"levelo_inurba_marseille","lat":43.28848,"lon":5.39312,"is_reserved":false,"is_disabled":false,"rental_uris":{"android":"levelo://app?vid=f2e8a72d-ae6d-4e30-9ce5-c4eaa8529e01","ios":"levelo://app?vid=f2e8a72d-ae6d-4e30-9ce5-c4eaa8529e01"},"vehicle_type_id":"4","last_reported":1739290309,"current_range_meters":36000,"station_id":"ce4bh2p2rcd13ifvqdi0","pricing_plan_id":"cebpf4jnsgd1na2vs0mg"},{"bike_id":"d32849cf-4c14-4032-9063-172d06d3f04f","system_id":"levelo_inurba_marseille","lat":43.23203,"lon":5.35513,"is_reserved":false,"is_disabled":false,"rental_uris":{"android":"levelo://app?vid=d32849cf-4c14-4032-9063-172d06d3f04f","ios":"levelo://app?vid=d32849cf-4c14-4032-9063-172d06d3f04f"},"vehicle_type_id":"4","last_reported":1739290309,"current_range_meters":34800,"station_id":"ce4bhu92rcd13ifvqi70","pricing_plan_id":"cebpf4jnsgd1na2vs0mg"},{"bike_id":"a4eaaa69-6c5f-4bbb-8db1-625e149d651e","system_id":"levelo_inurba_marseille","lat":43.29538,"lon":5.39048,"is_reserved":false,"is_disabled":false,"rental_uris":{"android":"levelo://app?vid=a4eaaa69-6c5f-4bbb-8db1-625e149d651e","ios":"levelo://app?vid=a4eaaa69-6c5f-4bbb-8db1-625e149d651e"},"vehicle_type_id":"4","last_reported":1739290309,"current_range_meters":39200,"station_id":"ce4bh3p2rcd13ifvqdp0","pricing_plan_id":"cebpf4jnsgd1na2vs0mg"},{"bike_id":"4b0a6ee5-b117-4b15-be14-763e1826c0a1","system_id":"levelo_inurba_marseille","lat":43.25714,"lon":5.41115,"is_reserved":false,"is_disabled":false,"rental_uris":{"android":"levelo://app?vid=4b0a6ee5-b117-4b15-be14-763e1826c0a1","ios":"levelo://app?vid=4b0a6ee5-b117-4b15-be14-763e1826c0a1"},"vehicle_type_id":"4","last_reported":1739290309,"current_range_meters":38800,"station_id":"ce4bhkp2rcd13ifvqgd0","pricing_plan_id":"cebpf4jnsgd1na2vs0mg"},{"bike_id":"09a31e22-31a3-4a8b-a8f3-c6b84a9cc357","system_id":"levelo_inurba_marseille","lat":43.27565,"lon":5.38434,"is_reserved":false,"is_disabled":false,"rental_uris":{"android":"levelo://app?vid=09a31e22-31a3-4a8b-a8f3-c6b84a9cc357","ios":"levelo://app?vid=09a31e22-31a3-4a8b-a8f3-c6b84a9cc357"},"vehicle_type_id":"4","last_reported":1739290309,"current_range_meters":27200,"station_id":"ce4bhh92rcd13ifvqfi0","pricing_plan_id":"cebpf4jnsgd1na2vs0mg"},{"bike_id":"b7cfafc0-fba3-47fa-8c3d-d96c6bee1f7a","system_id":"levelo_inurba_marseille","lat":43.24394,"lon":5.37061,"is_reserved":false,"is_disabled":false,"rental_uris":{"android":"levelo://app?vid=b7cfafc0-fba3-47fa-8c3d-d96c6bee1f7a","ios":"levelo://app?vid=b7cfafc0-fba3-47fa-8c3d-d96c6bee1f7a"},"vehicle_type_id":"4","last_reported":1739290309,"current_range_meters":33200,"station_id":"ce4bhhh2rcd13ifvqfk0","pricing_plan_id":"cebpf4jnsgd1na2vs0mg"},{"bike_id":"9ba133ba-7b58-4607-8737-7fb5bce66e58","system_id":"levelo_inurba_marseille","lat":43.2439,"lon":5.37057,"is_reserved":false,"is_disabled":false,"rental_uris":{"android":"levelo://app?vid=9ba133ba-7b58-4607-8737-7fb5bce66e58","ios":"levelo://app?vid=9ba133ba-7b58-4607-8737-7fb5bce66e58"},"vehicle_type_id":"4","last_reported":1739290309,"current_range_meters":38800,"station_id":"ce4bhhh2rcd13ifvqfk0","pricing_plan_id":"cebpf4jnsgd1na2vs0mg"},{"bike_id":"ecdfe505-0b95-40f1-b982-8e170cccca5d","system_id":"levelo_inurba_marseille","lat":43.3266,"lon":5.40998,"is_reserved":false,"is_disabled":false,"rental_uris":{"android":"levelo://app?vid=ecdfe505-0b95-40f1-b982-8e170cccca5d","ios":"levelo://app?vid=ecdfe505-0b95-40f1-b982-8e170cccca5d"},"vehicle_type_id":"4","last_reported":1739290309,"current_range_meters":28800,"station_id":"ce4bhpp2rcd13ifvqhgg","pricing_plan_id":"cebpf4jnsgd1na2vs0mg"},{"bike_id":"f6e41f32-e235-432e-b657-0d4bc89c9b05","system_id":"levelo_inurba_marseille","lat":43.26557,"lon":5.37285,"is_reserved":false,"is_disabled":false,"rental_uris":{"android":"levelo://app?vid=f6e41f32-e235-432e-b657-0d4bc89c9b05","ios":"levelo://app?vid=f6e41f32-e235-432e-b657-0d4bc89c9b05"},"vehicle_type_id":"4","last_reported":1739290309,"current_range_meters":37600,"station_id":"ce4bhg12rcd13ifvqf70","pricing_plan_id":"cebpf4jnsgd1na2vs0mg"},{"bike_id":"13852333-758e-410b-bb6e-a82ae1bc3a77","system_id":"levelo_inurba_marseille","lat":43.28937,"lon":5.36646,"is_reserved":false,"is_disabled":true,"rental_uris":{"android":"levelo://app?vid=13852333-758e-410b-bb6e-a82ae1bc3a77","ios":"levelo://app?vid=13852333-758e-410b-bb6e-a82ae1bc3a77"},"vehicle_type_id":"4","last_reported":1739290309,"current_range_meters":0,"station_id":"ce4bhap2rcd13ifvqek0","pricing_plan_id":"cebpf4jnsgd1na2vs0mg"},{"bike_id":"a31059c9-b8b5-4ad8-a4f0-735d0ee6470b","system_id":"levelo_inurba_marseille","lat":43.2998,"lon":5.38508,"is_reserved":false,"is_disabled":false,"rental_uris":{"android":"levelo://app?vid=a31059c9-b8b5-4ad8-a4f0-735d0ee6470b","ios":"levelo://app?vid=a31059c9-b8b5-4ad8-a4f0-735d0ee6470b"},"vehicle_type_id":"4","last_reported":1739290309,"current_range_meters":16400,"station_id":"ce4bgj92rcd13ifvqbd0","pricing_plan_id":"cebpf4jnsgd1na2vs0mg"},{"bike_id":"14b2070b-6ddc-42e3-b1e8-9c0cbc081f72","system_id":"levelo_inurba_marseille","lat":43.33727,"lon":5.39191,"is_reserved":false,"is_disabled":false,"rental_uris":{"android":"levelo://app?vid=14b2070b-6ddc-42e3-b1e8-9c0cbc081f72","ios":"levelo://app?vid=14b2070b-6ddc-42e3-b1e8-9c0cbc081f72"},"vehicle_type_id":"4","last_reported":1739290309,"current_range_meters":38000,"station_id":"ce4bhr92rcd13ifvqhsg","pricing_plan_id":"cebpf4jnsgd1na2vs0mg"},{"bike_id":"3ad78980-d954-4439-b88d-56e0dcfe7b89","system_id":"levelo_inurba_marseille","lat":43.23974,"lon":5.36608,"is_reserved":false,"is_disabled":false,"rental_uris":{"android":"levelo://app?vid=3ad78980-d954-4439-b88d-56e0dcfe7b89","ios":"levelo://app?vid=3ad78980-d954-4439-b88d-56e0dcfe7b89"},"vehicle_type_id":"4","last_reported":1739290309,"current_range_meters":9200,"station_id":"ce4bhi12rcd13ifvqfp0","pricing_plan_id":"cebpf4jnsgd1na2vs0mg"},{"bike_id":"f654d2d3-817a-4c55-8ebd-8025694bc89f","system_id":"levelo_inurba_marseille","lat":43.30164,"lon":5.38102,"is_reserved":false,"is_disabled":false,"rental_uris":{"android":"levelo://app?vid=f654d2d3-817a-4c55-8ebd-8025694bc89f","ios":"levelo://app?vid=f654d2d3-817a-4c55-8ebd-8025694bc89f"},"vehicle_type_id":"4","last_reported":1739290309,"current_range_meters":26800,"station_id":"ce4bgjp2rcd13ifvqbh0","pricing_plan_id":"cebpf4jnsgd1na2vs0mg"},{"bike_id":"80add0e5-578d-4fa0-bbf3-9381574c8b08","system_id":"levelo_inurba_marseille","lat":43.29055,"lon":5.37593,"is_reserved":false,"is_disabled":false,"rental_uris":{"android":"levelo://app?vid=80add0e5-578d-4fa0-bbf3-9381574c8b08","ios":"levelo://app?vid=80add0e5-578d-4fa0-bbf3-9381574c8b08"},"vehicle_type_id":"4","last_reported":1739290309,"current_range_meters":39200,"station_id":"ce4bh692rcd13ifvqe90","pricing_plan_id":"cebpf4jnsgd1na2vs0mg"},{"bike_id":"b507b4d5-abc0-4e38-97c9-745526e1e06d","system_id":"levelo_inurba_marseille","lat":43.27327,"lon":5.39092,"is_reserved":false,"is_disabled":false,"rental_uris":{"android":"levelo://app?vid=b507b4d5-abc0-4e38-97c9-745526e1e06d","ios":"levelo://app?vid=b507b4d5-abc0-4e38-97c9-745526e1e06d"},"vehicle_type_id":"4","last_reported":1739290309,"current_range_meters":12800,"station_id":"ce4bhgp2rcd13ifvqfe0","pricing_plan_id":"cebpf4jnsgd1na2vs0mg"},{"bike_id":"2f9fa20d-f7ac-4209-b2dc-c07725e33917","system_id":"levelo_inurba_marseille","lat":43.31699,"lon":5.37766,"is_reserved":false,"is_disabled":false,"rental_uris":{"android":"levelo://app?vid=2f9fa20d-f7ac-4209-b2dc-c07725e33917","ios":"levelo://app?vid=2f9fa20d-f7ac-4209-b2dc-c07725e33917"},"vehicle_type_id":"4","last_reported":1739290309,"current_range_meters":38800,"station_id":"ce4bgth2rcd13ifvqch0","pricing_plan_id":"cebpf4jnsgd1na2vs0mg"},{"bike_id":"22d74d04-1961-4f7f-92af-3cd3da99f40b","system_id":"levelo_inurba_marseille","lat":43.296,"lon":5.38119,"is_reserved":false,"is_disabled":false,"rental_uris":{"android":"levelo://app?vid=22d74d04-1961-4f7f-92af-3cd3da99f40b","ios":"levelo://app?vid=22d74d04-1961-4f7f-92af-3cd3da99f40b"},"vehicle_type_id":"4","last_reported":1739290309,"current_range_meters":24400,"station_id":"ce4bgl12rcd13ifvqbo0","pricing_plan_id":"cebpf4jnsgd1na2vs0mg"},{"bike_id":"a59b1799-366c-4f90-b175-fea2f17ac49c","system_id":"levelo_inurba_marseille","lat":43.30545,"lon":5.36688,"is_reserved":false,"is_disabled":false,"rental_uris":{"android":"levelo://app?vid=a59b1799-366c-4f90-b175-fea2f17ac49c","ios":"levelo://app?vid=a59b1799-366c-4f90-b175-fea2f17ac49c"},"vehicle_type_id":"4","last_reported":1739290309,"current_range_meters":36000,"station_id":"ce4bgrp2rcd13ifvqc9g","pricing_plan_id":"cebpf4jnsgd1na2vs0mg"},{"bike_id":"201b14f4-65c7-45ff-8010-fe136e6675ac","system_id":"levelo_inurba_marseille","lat":43.24177,"lon":5.3972,"is_reserved":false,"is_disabled":false,"rental_uris":{"android":"levelo://app?vid=201b14f4-65c7-45ff-8010-fe136e6675ac","ios":"levelo://app?vid=201b14f4-65c7-45ff-8010-fe136e6675ac"},"vehicle_type_id":"4","last_reported":1739290309,"current_range_meters":25200,"station_id":"ce4bhn12rcd13ifvqgpg","pricing_plan_id":"cebpf4jnsgd1na2vs0mg"},{"bike_id":"3961718d-b06e-48a7-aa89-a2b4157d65da","system_id":"levelo_inurba_marseille","lat":43.302,"lon":5.36599,"is_reserved":false,"is_disabled":false,"rental_uris":{"android":"levelo://app?vid=3961718d-b06e-48a7-aa89-a2b4157d65da","ios":"levelo://app?vid=3961718d-b06e-48a7-aa89-a2b4157d65da"},"vehicle_type_id":"4","last_reported":1739290309,"current_range_meters":38800,"station_id":"ce4bgrh2rcd13ifvqc8g","pricing_plan_id":"cebpf4jnsgd1na2vs0mg"},{"bike_id":"9207b0f3-9707-4707-b4f6-b2339a5ec8ff","system_id":"levelo_inurba_marseille","lat":43.28158,"lon":5.42625,"is_reserved":false,"is_disabled":false,"rental_uris":{"android":"levelo://app?vid=9207b0f3-9707-4707-b4f6-b2339a5ec8ff","ios":"levelo://app?vid=9207b0f3-9707-4707-b4f6-b2339a5ec8ff"},"vehicle_type_id":"4","last_reported":1739290309,"current_range_meters":36000,"station_id":"ce4bhnh2rcd13ifvqgug","pricing_plan_id":"cebpf4jnsgd1na2vs0mg"},{"bike_id":"8e1e0f28-c56b-406c-8b35-b22f9b1b11e2","system_id":"levelo_inurba_marseille","lat":43.28858,"lon":5.39328,"is_reserved":false,"is_disabled":false,"rental_uris":{"android":"levelo://app?vid=8e1e0f28-c56b-406c-8b35-b22f9b1b11e2","ios":"levelo://app?vid=8e1e0f28-c56b-406c-8b35-b22f9b1b11e2"},"vehicle_type_id":"4","last_reported":1739290309,"current_range_meters":8400,"station_id":"ce4bh2p2rcd13ifvqdi0","pricing_plan_id":"cebpf4jnsgd1na2vs0mg"},{"bike_id":"56533ae9-01e0-4fbd-a2eb-8ec6e6269a75","system_id":"levelo_inurba_marseille","lat":43.27057,"lon":5.40271,"is_reserved":false,"is_disabled":false,"rental_uris":{"android":"levelo://app?vid=56533ae9-01e0-4fbd-a2eb-8ec6e6269a75","ios":"levelo://app?vid=56533ae9-01e0-4fbd-a2eb-8ec6e6269a75"},"vehicle_type_id":"4","last_reported":1739290309,"current_range_meters":25600,"station_id":"ce4bhk92rcd13ifvqgc0","pricing_plan_id":"cebpf4jnsgd1na2vs0mg"},{"bike_id":"4044c475-d5ce-4138-885c-26c9aabe4961","system_id":"levelo_inurba_marseille","lat":43.29793,"lon":5.38088,"is_reserved":false,"is_disabled":false,"rental_uris":{"android":"levelo://app?vid=4044c475-d5ce-4138-885c-26c9aabe4961","ios":"levelo://app?vid=4044c475-d5ce-4138-885c-26c9aabe4961"},"vehicle_type_id":"4","last_reported":1739290309,"current_range_meters":38800,"station_id":"ce4bgip2rcd13ifvqbb0","pricing_plan_id":"cebpf4jnsgd1na2vs0mg"},{"bike_id":"ddbfc913-16cf-4d9f-a892-35d08e1e6767","system_id":"levelo_inurba_marseille","lat":43.29599,"lon":5.36745,"is_reserved":false,"is_disabled":false,"rental_uris":{"android":"levelo://app?vid=ddbfc913-16cf-4d9f-a892-35d08e1e6767","ios":"levelo://app?vid=ddbfc913-16cf-4d9f-a892-35d08e1e6767"},"vehicle_type_id":"4","last_reported":1739290309,"current_range_meters":16000,"station_id":"ce4bgph2rcd13ifvqc2g","pricing_plan_id":"cebpf4jnsgd1na2vs0mg"},{"bike_id":"a3d3e759-ab29-4062-a50c-3dba63550269","system_id":"levelo_inurba_marseille","lat":43.27365,"lon":5.36258,"is_reserved":false,"is_disabled":false,"rental_uris":{"android":"levelo://app?vid=a3d3e759-ab29-4062-a50c-3dba63550269","ios":"levelo://app?vid=a3d3e759-ab29-4062-a50c-3dba63550269"},"vehicle_type_id":"4","last_reported":1739290309,"current_range_meters":38000,"station_id":"ce4bhbh2rcd13ifvqeo0","pricing_plan_id":"cebpf4jnsgd1na2vs0mg"},{"bike_id":"2f9bd2bf-a185-422b-bd75-db406051386b","system_id":"levelo_inurba_marseille","lat":43.2847,"lon":5.38426,"is_reserved":false,"is_disabled":false,"rental_uris":{"android":"levelo://app?vid=2f9bd2bf-a185-422b-bd75-db406051386b","ios":"levelo://app?vid=2f9bd2bf-a185-422b-bd75-db406051386b"},"vehicle_type_id":"4","last_reported":1739290309,"current_range_meters":38800,"station_id":"ce4bh512rcd13ifvqe3g","pricing_plan_id":"cebpf4jnsgd1na2vs0mg"},{"bike_id":"83a2a506-9d34-46d4-9534-d25047a14e5f","system_id":"levelo_inurba_marseille","lat":43.28,"lon":5.4,"is_reserved":false,"is_disabled":false,"rental_uris":{"android":"levelo://app?vid=83a2a506-9d34-46d4-9534-d25047a14e5f","ios":"levelo://app?vid=83a2a506-9d34-46d4-9534-d25047a14e5f"},"vehicle_type_id":"4","last_reported":1739290309,"current_range_meters":25600,"station_id":"ce4bho92rcd13ifvqh4g","pricing_plan_id":"cebpf4jnsgd1na2vs0mg"},{"bike_id":"c2250f20-2283-4e17-b7ce-382f2f740aa1","system_id":"levelo_inurba_marseille","lat":43.24806,"lon":5.37458,"is_reserved":false,"is_disabled":false,"rental_uris":{"android":"levelo://app?vid=c2250f20-2283-4e17-b7ce-382f2f740aa1","ios":"levelo://app?vid=c2250f20-2283-4e17-b7ce-382f2f740aa1"},"vehicle_type_id":"4","last_reported":1739290309,"current_range_meters":39200,"station_id":"ce4bhgh2rcd13ifvqfb0","pricing_plan_id":"cebpf4jnsgd1na2vs0mg"},{"bike_id":"2ba57bae-d489-49e7-95d5-93a9bbd24d80","system_id":"levelo_inurba_marseille","lat":43.29604,"lon":5.38098,"is_reserved":false,"is_disabled":false,"rental_uris":{"android":"levelo://app?vid=2ba57bae-d489-49e7-95d5-93a9bbd24d80","ios":"levelo://app?vid=2ba57bae-d489-49e7-95d5-93a9bbd24d80"},"vehicle_type_id":"4","last_reported":1739290309,"current_range_meters":36400,"station_id":"ce4bgl12rcd13ifvqbo0","pricing_plan_id":"cebpf4jnsgd1na2vs0mg"},{"bike_id":"a7553041-8337-41cf-859f-54b65f7556fc","system_id":"levelo_inurba_marseille","lat":43.26809,"lon":5.40257,"is_reserved":false,"is_disabled":false,"rental_uris":{"android":"levelo://app?vid=a7553041-8337-41cf-859f-54b65f7556fc","ios":"levelo://app?vid=a7553041-8337-41cf-859f-54b65f7556fc"},"vehicle_type_id":"4","last_reported":1739290309,"current_range_meters":28000,"station_id":"ce501612rcd8frsf0b60","pricing_plan_id":"cebpf4jnsgd1na2vs0mg"},{"bike_id":"b02787c6-1773-463a-b894-5d28034066fe","system_id":"levelo_inurba_marseille","lat":43.27423,"lon":5.39433,"is_reserved":false,"is_disabled":false,"rental_uris":{"android":"levelo://app?vid=b02787c6-1773-463a-b894-5d28034066fe","ios":"levelo://app?vid=b02787c6-1773-463a-b894-5d28034066fe"},"vehicle_type_id":"4","last_reported":1739290309,"current_range_meters":39200,"station_id":"ce4bhdp2rcd13ifvqf20","pricing_plan_id":"cebpf4jnsgd1na2vs0mg"},{"bike_id":"3a46e6af-4441-4eb5-9ea7-9d3a275672cd","system_id":"levelo_inurba_marseille","lat":43.27678,"lon":5.38927,"is_reserved":false,"is_disabled":false,"rental_uris":{"android":"levelo://app?vid=3a46e6af-4441-4eb5-9ea7-9d3a275672cd","ios":"levelo://app?vid=3a46e6af-4441-4eb5-9ea7-9d3a275672cd"},"vehicle_type_id":"4","last_reported":1739290309,"current_range_meters":38000,"station_id":"ce4bhi12rcd13ifvqfo0","pricing_plan_id":"cebpf4jnsgd1na2vs0mg"},{"bike_id":"baf358ae-086d-4010-83ca-6eb774131dfe","system_id":"levelo_inurba_marseille","lat":43.290188,"lon":5.386218,"is_reserved":false,"is_disabled":false,"rental_uris":{"android":"levelo://app?vid=baf358ae-086d-4010-83ca-6eb774131dfe","ios":"levelo://app?vid=baf358ae-086d-4010-83ca-6eb774131dfe"},"vehicle_type_id":"4","last_reported":1739290309,"current_range_meters":8400,"station_id":"ce4bh4p2rcd13ifvqe0g","pricing_plan_id":"cebpf4jnsgd1na2vs0mg"},{"bike_id":"f85fd452-5bde-4296-ab83-dac7111c9b77","system_id":"levelo_inurba_marseille","lat":43.32536,"lon":5.41434,"is_reserved":false,"is_disabled":false,"rental_uris":{"android":"levelo://app?vid=f85fd452-5bde-4296-ab83-dac7111c9b77","ios":"levelo://app?vid=f85fd452-5bde-4296-ab83-dac7111c9b77"},"vehicle_type_id":"4","last_reported":1739290309,"current_range_meters":38400,"station_id":"ce4bhq12rcd13ifvqhhg","pricing_plan_id":"cebpf4jnsgd1na2vs0mg"},{"bike_id":"0e3d7d83-7350-4753-8e79-cf72cf757409","system_id":"levelo_inurba_marseille","lat":43.27059,"lon":5.40273,"is_reserved":false,"is_disabled":false,"rental_uris":{"android":"levelo://app?vid=0e3d7d83-7350-4753-8e79-cf72cf757409","ios":"levelo://app?vid=0e3d7d83-7350-4753-8e79-cf72cf757409"},"vehicle_type_id":"4","last_reported":1739290309,"current_range_meters":38800,"station_id":"ce4bhk92rcd13ifvqgc0","pricing_plan_id":"cebpf4jnsgd1na2vs0mg"},{"bike_id":"40c8a688-58f2-44ef-8f91-ac265ecb16b2","system_id":"levelo_inurba_marseille","lat":43.25585,"lon":5.38234,"is_reserved":false,"is_disabled":false,"rental_uris":{"android":"levelo://app?vid=40c8a688-58f2-44ef-8f91-ac265ecb16b2","ios":"levelo://app?vid=40c8a688-58f2-44ef-8f91-ac265ecb16b2"},"vehicle_type_id":"4","last_reported":1739290309,"current_range_meters":16000,"station_id":"ce4bhih2rcd13ifvqfs0","pricing_plan_id":"cebpf4jnsgd1na2vs0mg"},{"bike_id":"07215eee-c324-4691-b348-a25c804e4c42","system_id":"levelo_inurba_marseille","lat":43.29151,"lon":5.40003,"is_reserved":false,"is_disabled":true,"rental_uris":{"android":"levelo://app?vid=07215eee-c324-4691-b348-a25c804e4c42","ios":"levelo://app?vid=07215eee-c324-4691-b348-a25c804e4c42"},"vehicle_type_id":"4","last_reported":1739290309,"current_range_meters":0,"station_id":"","pricing_plan_id":"cebpf4jnsgd1na2vs0mg"},{"bike_id":"063856c1-f07c-4c5e-9eb5-aee10cbef2b0","system_id":"levelo_inurba_marseille","lat":43.29974,"lon":5.37178,"is_reserved":false,"is_disabled":false,"rental_uris":{"android":"levelo://app?vid=063856c1-f07c-4c5e-9eb5-aee10cbef2b0","ios":"levelo://app?vid=063856c1-f07c-4c5e-9eb5-aee10cbef2b0"},"vehicle_type_id":"4","last_reported":1739290309,"current_range_meters":28400,"station_id":"ce4bgr92rcd13ifvqc7g","pricing_plan_id":"cebpf4jnsgd1na2vs0mg"},{"bike_id":"39519f5b-272a-429f-ba9f-e8cf270820e0","system_id":"levelo_inurba_marseille","lat":43.31313,"lon":5.3972,"is_reserved":false,"is_disabled":false,"rental_uris":{"android":"levelo://app?vid=39519f5b-272a-429f-ba9f-e8cf270820e0","ios":"levelo://app?vid=39519f5b-272a-429f-ba9f-e8cf270820e0"},"vehicle_type_id":"4","last_reported":1739290309,"current_range_meters":38800,"station_id":"ce4bgvp2rcd13ifvqcu0","pricing_plan_id":"cebpf4jnsgd1na2vs0mg"},{"bike_id":"c66b0c10-3fd0-4fdf-90ff-239fa926541d","system_id":"levelo_inurba_marseille","lat":43.26935,"lon":5.40258,"is_reserved":false,"is_disabled":false,"rental_uris":{"android":"levelo://app?vid=c66b0c10-3fd0-4fdf-90ff-239fa926541d","ios":"levelo://app?vid=c66b0c10-3fd0-4fdf-90ff-239fa926541d"},"vehicle_type_id":"4","last_reported":1739290309,"current_range_meters":21600,"station_id":"cjm6bp8fraef2m0cb0m0","pricing_plan_id":"cebpf4jnsgd1na2vs0mg"},{"bike_id":"64387a61-7414-453e-8131-28fa15536541","system_id":"levelo_inurba_marseille","lat":43.25868,"lon":5.39898,"is_reserved":false,"is_disabled":false,"rental_uris":{"android":"levelo://app?vid=64387a61-7414-453e-8131-28fa15536541","ios":"levelo://app?vid=64387a61-7414-453e-8131-28fa15536541"},"vehicle_type_id":"4","last_reported":1739290309,"current_range_meters":6000,"station_id":"ce4bhl92rcd13ifvqghg","pricing_plan_id":"cebpf4jnsgd1na2vs0mg"},{"bike_id":"ac3db915-85ff-460a-b948-c32ecd7db728","system_id":"levelo_inurba_marseille","lat":43.30186,"lon":5.38102,"is_reserved":false,"is_disabled":false,"rental_uris":{"android":"levelo://app?vid=ac3db915-85ff-460a-b948-c32ecd7db728","ios":"levelo://app?vid=ac3db915-85ff-460a-b948-c32ecd7db728"},"vehicle_type_id":"4","last_reported":1739290309,"current_range_meters":38000,"station_id":"","pricing_plan_id":"cebpf4jnsgd1na2vs0mg"},{"bike_id":"1d2000e3-6e82-4c8d-9a0a-5d8181e36eb3","system_id":"levelo_inurba_marseille","lat":43.25009,"lon":5.38915,"is_reserved":false,"is_disabled":false,"rental_uris":{"android":"levelo://app?vid=1d2000e3-6e82-4c8d-9a0a-5d8181e36eb3","ios":"levelo://app?vid=1d2000e3-6e82-4c8d-9a0a-5d8181e36eb3"},"vehicle_type_id":"4","last_reported":1739290309,"current_range_meters":38800,"station_id":"ce4bhgp2rcd13ifvqfd0","pricing_plan_id":"cebpf4jnsgd1na2vs0mg"},{"bike_id":"1ecb6694-20ff-4bc8-ac28-3228262fb33f","system_id":"levelo_inurba_marseille","lat":43.24091,"lon":5.37761,"is_reserved":false,"is_disabled":false,"rental_uris":{"android":"levelo://app?vid=1ecb6694-20ff-4bc8-ac28-3228262fb33f","ios":"levelo://app?vid=1ecb6694-20ff-4bc8-ac28-3228262fb33f"},"vehicle_type_id":"4","last_reported":1739290309,"current_range_meters":38400,"station_id":"ce4bhnp2rcd13ifvqgvg","pricing_plan_id":"cebpf4jnsgd1na2vs0mg"},{"bike_id":"e673b253-bd7c-45ce-a06f-ff88a62a7e4e","system_id":"levelo_inurba_marseille","lat":43.30155,"lon":5.3809,"is_reserved":false,"is_disabled":false,"rental_uris":{"android":"levelo://app?vid=e673b253-bd7c-45ce-a06f-ff88a62a7e4e","ios":"levelo://app?vid=e673b253-bd7c-45ce-a06f-ff88a62a7e4e"},"vehicle_type_id":"4","last_reported":1739290309,"current_range_meters":38800,"station_id":"ce4bgjp2rcd13ifvqbh0","pricing_plan_id":"cebpf4jnsgd1na2vs0mg"},{"bike_id":"114230f1-fda9-4a9e-962b-4f7a3ae198a2","system_id":"levelo_inurba_marseille","lat":43.27456,"lon":5.39408,"is_reserved":false,"is_disabled":false,"rental_uris":{"android":"levelo://app?vid=114230f1-fda9-4a9e-962b-4f7a3ae198a2","ios":"levelo://app?vid=114230f1-fda9-4a9e-962b-4f7a3ae198a2"},"vehicle_type_id":"4","last_reported":1739290309,"current_range_meters":39200,"station_id":"ce4bhdp2rcd13ifvqf20","pricing_plan_id":"cebpf4jnsgd1na2vs0mg"},{"bike_id":"a76c7d73-686f-4a71-a421-b010005502c6","system_id":"levelo_inurba_marseille","lat":43.29917,"lon":5.38138,"is_reserved":false,"is_disabled":false,"rental_uris":{"android":"levelo://app?vid=a76c7d73-686f-4a71-a421-b010005502c6","ios":"levelo://app?vid=a76c7d73-686f-4a71-a421-b010005502c6"},"vehicle_type_id":"4","last_reported":1739290309,"current_range_meters":30400,"station_id":"ce4bgj12rcd13ifvqbc0","pricing_plan_id":"cebpf4jnsgd1na2vs0mg"},{"bike_id":"5ba2da70-c964-4d97-af15-e3dfa7451eec","system_id":"levelo_inurba_marseille","lat":43.28706,"lon":5.39978,"is_reserved":false,"is_disabled":false,"rental_uris":{"android":"levelo://app?vid=5ba2da70-c964-4d97-af15-e3dfa7451eec","ios":"levelo://app?vid=5ba2da70-c964-4d97-af15-e3dfa7451eec"},"vehicle_type_id":"4","last_reported":1739290309,"current_range_meters":38800,"station_id":"ce4bho92rcd13ifvqh3g","pricing_plan_id":"cebpf4jnsgd1na2vs0mg"},{"bike_id":"8f958795-1d0e-4a72-96cf-46fac3cf00bf","system_id":"levelo_inurba_marseille","lat":43.25509,"lon":5.39419,"is_reserved":false,"is_disabled":false,"rental_uris":{"android":"levelo://app?vid=8f958795-1d0e-4a72-96cf-46fac3cf00bf","ios":"levelo://app?vid=8f958795-1d0e-4a72-96cf-46fac3cf00bf"},"vehicle_type_id":"4","last_reported":1739290309,"current_range_meters":27600,"station_id":"","pricing_plan_id":"cebpf4jnsgd1na2vs0mg"},{"bike_id":"32020c72-6bb8-4c31-872e-de8e89eb4946","system_id":"levelo_inurba_marseille","lat":43.31181,"lon":5.38697,"is_reserved":false,"is_disabled":true,"rental_uris":{"android":"levelo://app?vid=32020c72-6bb8-4c31-872e-de8e89eb4946","ios":"levelo://app?vid=32020c72-6bb8-4c31-872e-de8e89eb4946"},"vehicle_type_id":"4","last_reported":1739290309,"current_range_meters":800,"station_id":"ce4bgv12rcd13ifvqcp0","pricing_plan_id":"cebpf4jnsgd1na2vs0mg"},{"bike_id":"6707432f-ea7c-4d55-8ae1-c563a2980138","system_id":"levelo_inurba_marseille","lat":43.26571,"lon":5.39011,"is_reserved":false,"is_disabled":false,"rental_uris":{"android":"levelo://app?vid=6707432f-ea7c-4d55-8ae1-c563a2980138","ios":"levelo://app?vid=6707432f-ea7c-4d55-8ae1-c563a2980138"},"vehicle_type_id":"4","last_reported":1739290309,"current_range_meters":5600,"station_id":"ce4bhe12rcd13ifvqf30","pricing_plan_id":"cebpf4jnsgd1na2vs0mg"},{"bike_id":"04d4b8ab-1d4d-44ab-9d49-e10f569c0553","system_id":"levelo_inurba_marseille","lat":43.29847,"lon":5.36259,"is_reserved":false,"is_disabled":false,"rental_uris":{"android":"levelo://app?vid=04d4b8ab-1d4d-44ab-9d49-e10f569c0553","ios":"levelo://app?vid=04d4b8ab-1d4d-44ab-9d49-e10f569c0553"},"vehicle_type_id":"4","last_reported":1739290309,"current_range_meters":38000,"station_id":"ce4bgpp2rcd13ifvqc3g","pricing_plan_id":"cebpf4jnsgd1na2vs0mg"},{"bike_id":"1aa20f28-8d10-4408-8fc5-fd6e535e6f55","system_id":"levelo_inurba_marseille","lat":43.30821,"lon":5.43548,"is_reserved":false,"is_disabled":false,"rental_uris":{"android":"levelo://app?vid=1aa20f28-8d10-4408-8fc5-fd6e535e6f55","ios":"levelo://app?vid=1aa20f28-8d10-4408-8fc5-fd6e535e6f55"},"vehicle_type_id":"4","last_reported":1739290309,"current_range_meters":38800,"station_id":"ce4bhph2rcd13ifvqheg","pricing_plan_id":"cebpf4jnsgd1na2vs0mg"},{"bike_id":"31ef7217-bcfe-43ce-b994-2ac5b1fe87c2","system_id":"levelo_inurba_marseille","lat":43.25747,"lon":5.4109,"is_reserved":false,"is_disabled":true,"rental_uris":{"android":"levelo://app?vid=31ef7217-bcfe-43ce-b994-2ac5b1fe87c2","ios":"levelo://app?vid=31ef7217-bcfe-43ce-b994-2ac5b1fe87c2"},"vehicle_type_id":"4","last_reported":1739290309,"current_range_meters":38800,"station_id":"ce4bhkp2rcd13ifvqgd0","pricing_plan_id":"cebpf4jnsgd1na2vs0mg"},{"bike_id":"90037e4a-a934-46fa-8514-6ab0532a1c0b","system_id":"levelo_inurba_marseille","lat":43.27929,"lon":5.41202,"is_reserved":false,"is_disabled":false,"rental_uris":{"android":"levelo://app?vid=90037e4a-a934-46fa-8514-6ab0532a1c0b","ios":"levelo://app?vid=90037e4a-a934-46fa-8514-6ab0532a1c0b"},"vehicle_type_id":"4","last_reported":1739290309,"current_range_meters":38800,"station_id":"","pricing_plan_id":"cebpf4jnsgd1na2vs0mg"},{"bike_id":"b241ded4-5ef0-43cd-9909-3624018db950","system_id":"levelo_inurba_marseille","lat":43.3206,"lon":5.41563,"is_reserved":false,"is_disabled":false,"rental_uris":{"android":"levelo://app?vid=b241ded4-5ef0-43cd-9909-3624018db950","ios":"levelo://app?vid=b241ded4-5ef0-43cd-9909-3624018db950"},"vehicle_type_id":"4","last_reported":1739290309,"current_range_meters":38000,"station_id":"ce4bhq92rcd13ifvqhkg","pricing_plan_id":"cebpf4jnsgd1na2vs0mg"},{"bike_id":"c4813b27-4250-43ea-8be5-ccd7321d2af3","system_id":"levelo_inurba_marseille","lat":43.2823,"lon":5.3699,"is_reserved":false,"is_disabled":false,"rental_uris":{"android":"levelo://app?vid=c4813b27-4250-43ea-8be5-ccd7321d2af3","ios":"levelo://app?vid=c4813b27-4250-43ea-8be5-ccd7321d2af3"},"vehicle_type_id":"4","last_reported":1739290309,"current_range_meters":20800,"station_id":"","pricing_plan_id":"cebpf4jnsgd1na2vs0mg"},{"bike_id":"1cb1ae18-3eaa-4ed0-a602-b3691cf72e16","system_id":"levelo_inurba_marseille","lat":43.3082,"lon":5.38171,"is_reserved":false,"is_disabled":false,"rental_uris":{"android":"levelo://app?vid=1cb1ae18-3eaa-4ed0-a602-b3691cf72e16","ios":"levelo://app?vid=1cb1ae18-3eaa-4ed0-a602-b3691cf72e16"},"vehicle_type_id":"4","last_reported":1739290309,"current_range_meters":37600,"station_id":"ce4bgt12rcd13ifvqce0","pricing_plan_id":"cebpf4jnsgd1na2vs0mg"},{"bike_id":"f1d30769-9bd3-41d2-b021-ea6e3a654137","system_id":"levelo_inurba_marseille","lat":43.30537,"lon":5.36701,"is_reserved":false,"is_disabled":false,"rental_uris":{"android":"levelo://app?vid=f1d30769-9bd3-41d2-b021-ea6e3a654137","ios":"levelo://app?vid=f1d30769-9bd3-41d2-b021-ea6e3a654137"},"vehicle_type_id":"4","last_reported":1739290309,"current_range_meters":24400,"station_id":"ce4bgrp2rcd13ifvqc9g","pricing_plan_id":"cebpf4jnsgd1na2vs0mg"},{"bike_id":"42f49824-5dbd-4245-b0ef-e9b83256b3c9","system_id":"levelo_inurba_marseille","lat":43.27951,"lon":5.4104,"is_reserved":false,"is_disabled":true,"rental_uris":{"android":"levelo://app?vid=42f49824-5dbd-4245-b0ef-e9b83256b3c9","ios":"levelo://app?vid=42f49824-5dbd-4245-b0ef-e9b83256b3c9"},"vehicle_type_id":"4","last_reported":1739290309,"current_range_meters":23200,"station_id":"ce4bhnp2rcd13ifvqh0g","pricing_plan_id":"cebpf4jnsgd1na2vs0mg"},{"bike_id":"cd59f4ff-0812-4c8f-ae01-036ffad71a2a","system_id":"levelo_inurba_marseille","lat":43.28353,"lon":5.38101,"is_reserved":false,"is_disabled":false,"rental_uris":{"android":"levelo://app?vid=cd59f4ff-0812-4c8f-ae01-036ffad71a2a","ios":"levelo://app?vid=cd59f4ff-0812-4c8f-ae01-036ffad71a2a"},"vehicle_type_id":"4","last_reported":1739290309,"current_range_meters":23200,"station_id":"ce4bh412rcd13ifvqdr0","pricing_plan_id":"cebpf4jnsgd1na2vs0mg"},{"bike_id":"36ff92ad-ebc1-4fd8-8dd7-e924b8bea389","system_id":"levelo_inurba_marseille","lat":43.30469,"lon":5.37903,"is_reserved":false,"is_disabled":true,"rental_uris":{"android":"levelo://app?vid=36ff92ad-ebc1-4fd8-8dd7-e924b8bea389","ios":"levelo://app?vid=36ff92ad-ebc1-4fd8-8dd7-e924b8bea389"},"vehicle_type_id":"4","last_reported":1739290309,"current_range_meters":22800,"station_id":"ce4bho92rcd13ifvqh3g","pricing_plan_id":"cebpf4jnsgd1na2vs0mg"},{"bike_id":"c6e9e330-1aab-422c-8245-ce8d62525fd3","system_id":"levelo_inurba_marseille","lat":43.2893,"lon":5.38395,"is_reserved":false,"is_disabled":false,"rental_uris":{"android":"levelo://app?vid=c6e9e330-1aab-422c-8245-ce8d62525fd3","ios":"levelo://app?vid=c6e9e330-1aab-422c-8245-ce8d62525fd3"},"vehicle_type_id":"4","last_reported":1739290309,"current_range_meters":34800,"station_id":"ce4bh612rcd13ifvqe6g","pricing_plan_id":"cebpf4jnsgd1na2vs0mg"},{"bike_id":"7aecc94e-b93d-4ef2-8aeb-7239752cbb5a","system_id":"levelo_inurba_marseille","lat":43.30809,"lon":5.37666,"is_reserved":false,"is_disabled":false,"rental_uris":{"android":"levelo://app?vid=7aecc94e-b93d-4ef2-8aeb-7239752cbb5a","ios":"levelo://app?vid=7aecc94e-b93d-4ef2-8aeb-7239752cbb5a"},"vehicle_type_id":"4","last_reported":1739290309,"current_range_meters":18800,"station_id":"ce4bgv92rcd13ifvqcq0","pricing_plan_id":"cebpf4jnsgd1na2vs0mg"},{"bike_id":"260e9838-2399-4eb1-b0ca-e79e7c0785e4","system_id":"levelo_inurba_marseille","lat":43.29849,"lon":5.36257,"is_reserved":false,"is_disabled":false,"rental_uris":{"android":"levelo://app?vid=260e9838-2399-4eb1-b0ca-e79e7c0785e4","ios":"levelo://app?vid=260e9838-2399-4eb1-b0ca-e79e7c0785e4"},"vehicle_type_id":"4","last_reported":1739290309,"current_range_meters":14000,"station_id":"ce4bgpp2rcd13ifvqc3g","pricing_plan_id":"cebpf4jnsgd1na2vs0mg"},{"bike_id":"22b0a8f3-5fc9-41ea-8850-8c8053a5ef50","system_id":"levelo_inurba_marseille","lat":43.30786,"lon":5.37645,"is_reserved":false,"is_disabled":false,"rental_uris":{"android":"levelo://app?vid=22b0a8f3-5fc9-41ea-8850-8c8053a5ef50","ios":"levelo://app?vid=22b0a8f3-5fc9-41ea-8850-8c8053a5ef50"},"vehicle_type_id":"4","last_reported":1739290309,"current_range_meters":29600,"station_id":"ce4bgv92rcd13ifvqcq0","pricing_plan_id":"cebpf4jnsgd1na2vs0mg"},{"bike_id":"841e0f04-b00a-44de-83b7-b9b92c40d93b","system_id":"levelo_inurba_marseille","lat":43.281561,"lon":5.426447,"is_reserved":false,"is_disabled":false,"rental_uris":{"android":"levelo://app?vid=841e0f04-b00a-44de-83b7-b9b92c40d93b","ios":"levelo://app?vid=841e0f04-b00a-44de-83b7-b9b92c40d93b"},"vehicle_type_id":"4","last_reported":1739290309,"current_range_meters":12800,"station_id":"ce4bhnh2rcd13ifvqgug","pricing_plan_id":"cebpf4jnsgd1na2vs0mg"},{"bike_id":"30c0885a-ee3f-424b-8753-d2f0c1a6c3c4","system_id":"levelo_inurba_marseille","lat":43.31701,"lon":5.37764,"is_reserved":false,"is_disabled":false,"rental_uris":{"android":"levelo://app?vid=30c0885a-ee3f-424b-8753-d2f0c1a6c3c4","ios":"levelo://app?vid=30c0885a-ee3f-424b-8753-d2f0c1a6c3c4"},"vehicle_type_id":"4","last_reported":1739290309,"current_range_meters":39200,"station_id":"ce4bgth2rcd13ifvqch0","pricing_plan_id":"cebpf4jnsgd1na2vs0mg"},{"bike_id":"d672dfd1-eb49-41bd-98e9-cf0079bce74f","system_id":"levelo_inurba_marseille","lat":43.31217,"lon":5.36851,"is_reserved":false,"is_disabled":false,"rental_uris":{"android":"levelo://app?vid=d672dfd1-eb49-41bd-98e9-cf0079bce74f","ios":"levelo://app?vid=d672dfd1-eb49-41bd-98e9-cf0079bce74f"},"vehicle_type_id":"4","last_reported":1739290309,"current_range_meters":39200,"station_id":"ce4bgl92rcd13ifvqbq0","pricing_plan_id":"cebpf4jnsgd1na2vs0mg"},{"bike_id":"1ec14052-2d33-4aa1-9ab8-58cc71db74d1","system_id":"levelo_inurba_marseille","lat":43.24172,"lon":5.36398,"is_reserved":false,"is_disabled":false,"rental_uris":{"android":"levelo://app?vid=1ec14052-2d33-4aa1-9ab8-58cc71db74d1","ios":"levelo://app?vid=1ec14052-2d33-4aa1-9ab8-58cc71db74d1"},"vehicle_type_id":"4","last_reported":1739290309,"current_range_meters":13600,"station_id":"cpo36qri1sfpv3e86is0","pricing_plan_id":"cebpf4jnsgd1na2vs0mg"},{"bike_id":"d9adf657-8e97-4a75-b51f-a1e4025f23fe","system_id":"levelo_inurba_marseille","lat":43.29791,"lon":5.39335,"is_reserved":false,"is_disabled":false,"rental_uris":{"android":"levelo://app?vid=d9adf657-8e97-4a75-b51f-a1e4025f23fe","ios":"levelo://app?vid=d9adf657-8e97-4a75-b51f-a1e4025f23fe"},"vehicle_type_id":"4","last_reported":1739290309,"current_range_meters":38800,"station_id":"chh1huq6cuj3fo74tm60","pricing_plan_id":"cebpf4jnsgd1na2vs0mg"},{"bike_id":"b3b45130-4456-4f49-a726-9923bcb61db7","system_id":"levelo_inurba_marseille","lat":43.26955,"lon":5.38639,"is_reserved":false,"is_disabled":false,"rental_uris":{"android":"levelo://app?vid=b3b45130-4456-4f49-a726-9923bcb61db7","ios":"levelo://app?vid=b3b45130-4456-4f49-a726-9923bcb61db7"},"vehicle_type_id":"4","last_reported":1739290309,"current_range_meters":38800,"station_id":"ce4bhh92rcd13ifvqfh0","pricing_plan_id":"cebpf4jnsgd1na2vs0mg"},{"bike_id":"ad9a8e20-6138-4324-b9eb-7464360cb0c1","system_id":"levelo_inurba_marseille","lat":43.29042,"lon":5.35919,"is_reserved":false,"is_disabled":false,"rental_uris":{"android":"levelo://app?vid=ad9a8e20-6138-4324-b9eb-7464360cb0c1","ios":"levelo://app?vid=ad9a8e20-6138-4324-b9eb-7464360cb0c1"},"vehicle_type_id":"4","last_reported":1739290309,"current_range_meters":27200,"station_id":"ce4bha92rcd13ifvqeg0","pricing_plan_id":"cebpf4jnsgd1na2vs0mg"},{"bike_id":"e859d2f4-21a5-41bf-aa12-2604d8d6afc4","system_id":"levelo_inurba_marseille","lat":43.29977,"lon":5.38508,"is_reserved":false,"is_disabled":false,"rental_uris":{"android":"levelo://app?vid=e859d2f4-21a5-41bf-aa12-2604d8d6afc4","ios":"levelo://app?vid=e859d2f4-21a5-41bf-aa12-2604d8d6afc4"},"vehicle_type_id":"4","last_reported":1739290309,"current_range_meters":29600,"station_id":"ce4bgj92rcd13ifvqbd0","pricing_plan_id":"cebpf4jnsgd1na2vs0mg"},{"bike_id":"347897ed-9a6b-4171-ba6b-f9aefaee5b0a","system_id":"levelo_inurba_marseille","lat":43.28079,"lon":5.39666,"is_reserved":false,"is_disabled":false,"rental_uris":{"android":"levelo://app?vid=347897ed-9a6b-4171-ba6b-f9aefaee5b0a","ios":"levelo://app?vid=347897ed-9a6b-4171-ba6b-f9aefaee5b0a"},"vehicle_type_id":"4","last_reported":1739290309,"current_range_meters":20400,"station_id":"ce4bho12rcd13ifvqh2g","pricing_plan_id":"cebpf4jnsgd1na2vs0mg"},{"bike_id":"79df8d93-a019-4f4d-ad9b-607d770a7910","system_id":"levelo_inurba_marseille","lat":43.29396,"lon":5.38906,"is_reserved":false,"is_disabled":false,"rental_uris":{"android":"levelo://app?vid=79df8d93-a019-4f4d-ad9b-607d770a7910","ios":"levelo://app?vid=79df8d93-a019-4f4d-ad9b-607d770a7910"},"vehicle_type_id":"4","last_reported":1739290309,"current_range_meters":25600,"station_id":"","pricing_plan_id":"cebpf4jnsgd1na2vs0mg"},{"bike_id":"fbb98623-bd6f-4427-9463-8f7fc3b3bd20","system_id":"levelo_inurba_marseille","lat":43.28046,"lon":5.36962,"is_reserved":false,"is_disabled":false,"rental_uris":{"android":"levelo://app?vid=fbb98623-bd6f-4427-9463-8f7fc3b3bd20","ios":"levelo://app?vid=fbb98623-bd6f-4427-9463-8f7fc3b3bd20"},"vehicle_type_id":"4","last_reported":1739290309,"current_range_meters":28000,"station_id":"ce4bha12rcd13ifvqef0","pricing_plan_id":"cebpf4jnsgd1na2vs0mg"},{"bike_id":"10a8a33b-62d6-4137-a5b2-ed208638ca88","system_id":"levelo_inurba_marseille","lat":43.29713,"lon":5.3661,"is_reserved":false,"is_disabled":false,"rental_uris":{"android":"levelo://app?vid=10a8a33b-62d6-4137-a5b2-ed208638ca88","ios":"levelo://app?vid=10a8a33b-62d6-4137-a5b2-ed208638ca88"},"vehicle_type_id":"4","last_reported":1739290309,"current_range_meters":33600,"station_id":"ce4bgn12rcd13ifvqbt0","pricing_plan_id":"cebpf4jnsgd1na2vs0mg"},{"bike_id":"abd43be8-2660-4e35-9228-a738a27f86ec","system_id":"levelo_inurba_marseille","lat":43.28424,"lon":5.34984,"is_reserved":false,"is_disabled":false,"rental_uris":{"android":"levelo://app?vid=abd43be8-2660-4e35-9228-a738a27f86ec","ios":"levelo://app?vid=abd43be8-2660-4e35-9228-a738a27f86ec"},"vehicle_type_id":"4","last_reported":1739290309,"current_range_meters":38000,"station_id":"ce4bhbh2rcd13ifvqepg","pricing_plan_id":"cebpf4jnsgd1na2vs0mg"},{"bike_id":"29c3ac46-78a2-45ae-8d8f-cdd8abdf7857","system_id":"levelo_inurba_marseille","lat":43.2846,"lon":5.35893,"is_reserved":false,"is_disabled":false,"rental_uris":{"android":"levelo://app?vid=29c3ac46-78a2-45ae-8d8f-cdd8abdf7857","ios":"levelo://app?vid=29c3ac46-78a2-45ae-8d8f-cdd8abdf7857"},"vehicle_type_id":"4","last_reported":1739290309,"current_range_meters":33600,"station_id":"ce4bhah2rcd13ifvqei0","pricing_plan_id":"cebpf4jnsgd1na2vs0mg"},{"bike_id":"3072c860-6a06-4429-8629-72daeba313c2","system_id":"levelo_inurba_marseille","lat":43.29874,"lon":5.39733,"is_reserved":false,"is_disabled":false,"rental_uris":{"android":"levelo://app?vid=3072c860-6a06-4429-8629-72daeba313c2","ios":"levelo://app?vid=3072c860-6a06-4429-8629-72daeba313c2"},"vehicle_type_id":"4","last_reported":1739290309,"current_range_meters":32000,"station_id":"ce4bh0h2rcd13ifvqd50","pricing_plan_id":"cebpf4jnsgd1na2vs0mg"},{"bike_id":"ea93fbec-e91a-412d-bc1c-7eb78a8d03fa","system_id":"levelo_inurba_marseille","lat":43.30166,"lon":5.37314,"is_reserved":false,"is_disabled":false,"rental_uris":{"android":"levelo://app?vid=ea93fbec-e91a-412d-bc1c-7eb78a8d03fa","ios":"levelo://app?vid=ea93fbec-e91a-412d-bc1c-7eb78a8d03fa"},"vehicle_type_id":"4","last_reported":1739290309,"current_range_meters":38800,"station_id":"","pricing_plan_id":"cebpf4jnsgd1na2vs0mg"},{"bike_id":"e74edd37-0ec7-4f56-b77f-e7249fd01314","system_id":"levelo_inurba_marseille","lat":43.3059,"lon":5.36437,"is_reserved":false,"is_disabled":false,"rental_uris":{"android":"levelo://app?vid=e74edd37-0ec7-4f56-b77f-e7249fd01314","ios":"levelo://app?vid=e74edd37-0ec7-4f56-b77f-e7249fd01314"},"vehicle_type_id":"4","last_reported":1739290309,"current_range_meters":12000,"station_id":"","pricing_plan_id":"cebpf4jnsgd1na2vs0mg"},{"bike_id":"fa55914f-96a1-4fa2-9ccb-a6cf23d5b031","system_id":"levelo_inurba_marseille","lat":43.29927,"lon":5.37481,"is_reserved":false,"is_disabled":false,"rental_uris":{"android":"levelo://app?vid=fa55914f-96a1-4fa2-9ccb-a6cf23d5b031","ios":"levelo://app?vid=fa55914f-96a1-4fa2-9ccb-a6cf23d5b031"},"vehicle_type_id":"4","last_reported":1739290309,"current_range_meters":39200,"station_id":"ce4bgjh2rcd13ifvqbg0","pricing_plan_id":"cebpf4jnsgd1na2vs0mg"},{"bike_id":"ba3f64c0-487a-409d-a0e0-8c8795d8a1c4","system_id":"levelo_inurba_marseille","lat":43.27995,"lon":5.40024,"is_reserved":false,"is_disabled":false,"rental_uris":{"android":"levelo://app?vid=ba3f64c0-487a-409d-a0e0-8c8795d8a1c4","ios":"levelo://app?vid=ba3f64c0-487a-409d-a0e0-8c8795d8a1c4"},"vehicle_type_id":"4","last_reported":1739290309,"current_range_meters":19600,"station_id":"ce4bho92rcd13ifvqh4g","pricing_plan_id":"cebpf4jnsgd1na2vs0mg"},{"bike_id":"ca63d75f-d551-49cb-bec7-e060cadddd73","system_id":"levelo_inurba_marseille","lat":43.28096,"lon":5.44163,"is_reserved":false,"is_disabled":false,"rental_uris":{"android":"levelo://app?vid=ca63d75f-d551-49cb-bec7-e060cadddd73","ios":"levelo://app?vid=ca63d75f-d551-49cb-bec7-e060cadddd73"},"vehicle_type_id":"4","last_reported":1739290309,"current_range_meters":14000,"station_id":"","pricing_plan_id":"cebpf4jnsgd1na2vs0mg"},{"bike_id":"f7ae9a97-641a-4598-bcd7-5d3ae922b145","system_id":"levelo_inurba_marseille","lat":43.30425,"lon":5.39746,"is_reserved":false,"is_disabled":false,"rental_uris":{"android":"levelo://app?vid=f7ae9a97-641a-4598-bcd7-5d3ae922b145","ios":"levelo://app?vid=f7ae9a97-641a-4598-bcd7-5d3ae922b145"},"vehicle_type_id":"4","last_reported":1739290309,"current_range_meters":38800,"station_id":"ce4bh092rcd13ifvqd20","pricing_plan_id":"cebpf4jnsgd1na2vs0mg"},{"bike_id":"dd7e4e2f-f2db-4c41-9b95-8e20b6da1267","system_id":"levelo_inurba_marseille","lat":43.32497,"lon":5.36571,"is_reserved":false,"is_disabled":false,"rental_uris":{"android":"levelo://app?vid=dd7e4e2f-f2db-4c41-9b95-8e20b6da1267","ios":"levelo://app?vid=dd7e4e2f-f2db-4c41-9b95-8e20b6da1267"},"vehicle_type_id":"4","last_reported":1739290309,"current_range_meters":16800,"station_id":"ce4bhs12rcd13ifvqhvg","pricing_plan_id":"cebpf4jnsgd1na2vs0mg"},{"bike_id":"d06b3b54-dc24-493e-97db-e54b37ab5416","system_id":"levelo_inurba_marseille","lat":43.30536,"lon":5.36525,"is_reserved":false,"is_disabled":false,"rental_uris":{"android":"levelo://app?vid=d06b3b54-dc24-493e-97db-e54b37ab5416","ios":"levelo://app?vid=d06b3b54-dc24-493e-97db-e54b37ab5416"},"vehicle_type_id":"4","last_reported":1739290309,"current_range_meters":30000,"station_id":"ce4bgs12rcd13ifvqcag","pricing_plan_id":"cebpf4jnsgd1na2vs0mg"},{"bike_id":"91f8274d-f215-4cef-97ab-b8259e58eb3d","system_id":"levelo_inurba_marseille","lat":43.3042,"lon":5.39738,"is_reserved":false,"is_disabled":false,"rental_uris":{"android":"levelo://app?vid=91f8274d-f215-4cef-97ab-b8259e58eb3d","ios":"levelo://app?vid=91f8274d-f215-4cef-97ab-b8259e58eb3d"},"vehicle_type_id":"4","last_reported":1739290309,"current_range_meters":39200,"station_id":"ce4bh092rcd13ifvqd20","pricing_plan_id":"cebpf4jnsgd1na2vs0mg"},{"bike_id":"3e547249-8f35-44a1-b0ee-daf3d4634f39","system_id":"levelo_inurba_marseille","lat":43.29097,"lon":5.38145,"is_reserved":false,"is_disabled":false,"rental_uris":{"android":"levelo://app?vid=3e547249-8f35-44a1-b0ee-daf3d4634f39","ios":"levelo://app?vid=3e547249-8f35-44a1-b0ee-daf3d4634f39"},"vehicle_type_id":"4","last_reported":1739290309,"current_range_meters":3600,"station_id":"ce4bh512rcd13ifvqe2g","pricing_plan_id":"cebpf4jnsgd1na2vs0mg"},{"bike_id":"debbad9f-290b-4c06-b4b6-2a3155046c21","system_id":"levelo_inurba_marseille","lat":43.29631,"lon":5.40603,"is_reserved":false,"is_disabled":true,"rental_uris":{"android":"levelo://app?vid=debbad9f-290b-4c06-b4b6-2a3155046c21","ios":"levelo://app?vid=debbad9f-290b-4c06-b4b6-2a3155046c21"},"vehicle_type_id":"4","last_reported":1739290309,"current_range_meters":1200,"station_id":"ce4bh0h2rcd13ifvqd60","pricing_plan_id":"cebpf4jnsgd1na2vs0mg"},{"bike_id":"78a0ff31-2bef-44af-9b3a-71e73e703ca9","system_id":"levelo_inurba_marseille","lat":43.29926,"lon":5.36538,"is_reserved":false,"is_disabled":false,"rental_uris":{"android":"levelo://app?vid=78a0ff31-2bef-44af-9b3a-71e73e703ca9","ios":"levelo://app?vid=78a0ff31-2bef-44af-9b3a-71e73e703ca9"},"vehicle_type_id":"4","last_reported":1739290309,"current_range_meters":38800,"station_id":"ce4bgm92rcd13ifvqbr0","pricing_plan_id":"cebpf4jnsgd1na2vs0mg"},{"bike_id":"118acaa8-c377-4759-a8f9-c3303973ef34","system_id":"levelo_inurba_marseille","lat":43.29872,"lon":5.38915,"is_reserved":false,"is_disabled":false,"rental_uris":{"android":"levelo://app?vid=118acaa8-c377-4759-a8f9-c3303973ef34","ios":"levelo://app?vid=118acaa8-c377-4759-a8f9-c3303973ef34"},"vehicle_type_id":"4","last_reported":1739290309,"current_range_meters":24400,"station_id":"ce4bh392rcd13ifvqdl0","pricing_plan_id":"cebpf4jnsgd1na2vs0mg"},{"bike_id":"c749e49e-c96a-45c4-ae57-725bdc44bfb9","system_id":"levelo_inurba_marseille","lat":43.29628,"lon":5.40601,"is_reserved":false,"is_disabled":false,"rental_uris":{"android":"levelo://app?vid=c749e49e-c96a-45c4-ae57-725bdc44bfb9","ios":"levelo://app?vid=c749e49e-c96a-45c4-ae57-725bdc44bfb9"},"vehicle_type_id":"4","last_reported":1739290309,"current_range_meters":26000,"station_id":"ce4bh0h2rcd13ifvqd60","pricing_plan_id":"cebpf4jnsgd1na2vs0mg"},{"bike_id":"72439510-9364-4b4d-92f9-a88d26b23c0e","system_id":"levelo_inurba_marseille","lat":43.30208,"lon":5.39489,"is_reserved":false,"is_disabled":false,"rental_uris":{"android":"levelo://app?vid=72439510-9364-4b4d-92f9-a88d26b23c0e","ios":"levelo://app?vid=72439510-9364-4b4d-92f9-a88d26b23c0e"},"vehicle_type_id":"4","last_reported":1739290309,"current_range_meters":17200,"station_id":"ce4bh0p2rcd13ifvqd70","pricing_plan_id":"cebpf4jnsgd1na2vs0mg"},{"bike_id":"e476b422-69b1-4f74-9e6f-2e8608063c5f","system_id":"levelo_inurba_marseille","lat":43.30541,"lon":5.36541,"is_reserved":false,"is_disabled":false,"rental_uris":{"android":"levelo://app?vid=e476b422-69b1-4f74-9e6f-2e8608063c5f","ios":"levelo://app?vid=e476b422-69b1-4f74-9e6f-2e8608063c5f"},"vehicle_type_id":"4","last_reported":1739290309,"current_range_meters":17600,"station_id":"ce4bgs12rcd13ifvqcag","pricing_plan_id":"cebpf4jnsgd1na2vs0mg"},{"bike_id":"bb2c3666-e655-4322-865e-a1fcfe1f8a0c","system_id":"levelo_inurba_marseille","lat":43.30171,"lon":5.38088,"is_reserved":false,"is_disabled":false,"rental_uris":{"android":"levelo://app?vid=bb2c3666-e655-4322-865e-a1fcfe1f8a0c","ios":"levelo://app?vid=bb2c3666-e655-4322-865e-a1fcfe1f8a0c"},"vehicle_type_id":"4","last_reported":1739290309,"current_range_meters":32000,"station_id":"ce4bgjp2rcd13ifvqbh0","pricing_plan_id":"cebpf4jnsgd1na2vs0mg"},{"bike_id":"54ce597b-1ca1-4d62-923d-d4b29eec04b3","system_id":"levelo_inurba_marseille","lat":43.31131,"lon":5.38261,"is_reserved":false,"is_disabled":false,"rental_uris":{"android":"levelo://app?vid=54ce597b-1ca1-4d62-923d-d4b29eec04b3","ios":"levelo://app?vid=54ce597b-1ca1-4d62-923d-d4b29eec04b3"},"vehicle_type_id":"4","last_reported":1739290309,"current_range_meters":19600,"station_id":"","pricing_plan_id":"cebpf4jnsgd1na2vs0mg"},{"bike_id":"b4765ae2-b7fb-4718-bf68-ce7ba2c817f9","system_id":"levelo_inurba_marseille","lat":43.27073,"lon":5.42284,"is_reserved":false,"is_disabled":false,"rental_uris":{"android":"levelo://app?vid=b4765ae2-b7fb-4718-bf68-ce7ba2c817f9","ios":"levelo://app?vid=b4765ae2-b7fb-4718-bf68-ce7ba2c817f9"},"vehicle_type_id":"4","last_reported":1739290309,"current_range_meters":22800,"station_id":"ce4bhk92rcd13ifvqgb0","pricing_plan_id":"cebpf4jnsgd1na2vs0mg"},{"bike_id":"ace7c7c4-55ef-471c-935e-108dd26488b5","system_id":"levelo_inurba_marseille","lat":43.2455,"lon":5.39532,"is_reserved":false,"is_disabled":false,"rental_uris":{"android":"levelo://app?vid=ace7c7c4-55ef-471c-935e-108dd26488b5","ios":"levelo://app?vid=ace7c7c4-55ef-471c-935e-108dd26488b5"},"vehicle_type_id":"4","last_reported":1739290309,"current_range_meters":30000,"station_id":"ce4bhlp2rcd13ifvqgjg","pricing_plan_id":"cebpf4jnsgd1na2vs0mg"},{"bike_id":"ed22b738-1280-4e28-bdfe-5a8aa889b31d","system_id":"levelo_inurba_marseille","lat":43.30445,"lon":5.38884,"is_reserved":false,"is_disabled":false,"rental_uris":{"android":"levelo://app?vid=ed22b738-1280-4e28-bdfe-5a8aa889b31d","ios":"levelo://app?vid=ed22b738-1280-4e28-bdfe-5a8aa889b31d"},"vehicle_type_id":"4","last_reported":1739290309,"current_range_meters":38800,"station_id":"ce4bgk12rcd13ifvqbi0","pricing_plan_id":"cebpf4jnsgd1na2vs0mg"},{"bike_id":"6781aa85-34f7-4835-bddc-391492c4d5fe","system_id":"levelo_inurba_marseille","lat":43.25002,"lon":5.38939,"is_reserved":false,"is_disabled":false,"rental_uris":{"android":"levelo://app?vid=6781aa85-34f7-4835-bddc-391492c4d5fe","ios":"levelo://app?vid=6781aa85-34f7-4835-bddc-391492c4d5fe"},"vehicle_type_id":"4","last_reported":1739290309,"current_range_meters":38800,"station_id":"ce4bhgp2rcd13ifvqfd0","pricing_plan_id":"cebpf4jnsgd1na2vs0mg"},{"bike_id":"edaca68b-6267-4d88-b9f6-6caf88338e54","system_id":"levelo_inurba_marseille","lat":43.33028,"lon":5.39036,"is_reserved":false,"is_disabled":false,"rental_uris":{"android":"levelo://app?vid=edaca68b-6267-4d88-b9f6-6caf88338e54","ios":"levelo://app?vid=edaca68b-6267-4d88-b9f6-6caf88338e54"},"vehicle_type_id":"4","last_reported":1739290309,"current_range_meters":38000,"station_id":"ce4bhr92rcd13ifvqhrg","pricing_plan_id":"cebpf4jnsgd1na2vs0mg"},{"bike_id":"d53a558b-0c38-4c69-b0fe-36512d9e5c19","system_id":"levelo_inurba_marseille","lat":43.31221,"lon":5.36883,"is_reserved":false,"is_disabled":false,"rental_uris":{"android":"levelo://app?vid=d53a558b-0c38-4c69-b0fe-36512d9e5c19","ios":"levelo://app?vid=d53a558b-0c38-4c69-b0fe-36512d9e5c19"},"vehicle_type_id":"4","last_reported":1739290309,"current_range_meters":18800,"station_id":"ce4bgl92rcd13ifvqbq0","pricing_plan_id":"cebpf4jnsgd1na2vs0mg"},{"bike_id":"fa2a3872-083d-45d4-83dc-0f3069d49b31","system_id":"levelo_inurba_marseille","lat":43.27059,"lon":5.40258,"is_reserved":false,"is_disabled":false,"rental_uris":{"android":"levelo://app?vid=fa2a3872-083d-45d4-83dc-0f3069d49b31","ios":"levelo://app?vid=fa2a3872-083d-45d4-83dc-0f3069d49b31"},"vehicle_type_id":"4","last_reported":1739290309,"current_range_meters":8400,"station_id":"ce4bhk92rcd13ifvqgc0","pricing_plan_id":"cebpf4jnsgd1na2vs0mg"},{"bike_id":"6ddc67a1-e7a6-4418-af2d-aa1d54b32514","system_id":"levelo_inurba_marseille","lat":43.31896,"lon":5.40732,"is_reserved":false,"is_disabled":false,"rental_uris":{"android":"levelo://app?vid=6ddc67a1-e7a6-4418-af2d-aa1d54b32514","ios":"levelo://app?vid=6ddc67a1-e7a6-4418-af2d-aa1d54b32514"},"vehicle_type_id":"4","last_reported":1739290309,"current_range_meters":38400,"station_id":"ce4bhq12rcd13ifvqhig","pricing_plan_id":"cebpf4jnsgd1na2vs0mg"},{"bike_id":"206207ed-2d37-45ff-a143-313018554f9c","system_id":"levelo_inurba_marseille","lat":43.31355,"lon":5.3675,"is_reserved":false,"is_disabled":false,"rental_uris":{"android":"levelo://app?vid=206207ed-2d37-45ff-a143-313018554f9c","ios":"levelo://app?vid=206207ed-2d37-45ff-a143-313018554f9c"},"vehicle_type_id":"4","last_reported":1739290309,"current_range_meters":38800,"station_id":"ce4bgr92rcd13ifvqc6g","pricing_plan_id":"cebpf4jnsgd1na2vs0mg"},{"bike_id":"2ecfc064-16ee-47ea-a726-26c86c17056d","system_id":"levelo_inurba_marseille","lat":43.25503,"lon":5.37653,"is_reserved":false,"is_disabled":false,"rental_uris":{"android":"levelo://app?vid=2ecfc064-16ee-47ea-a726-26c86c17056d","ios":"levelo://app?vid=2ecfc064-16ee-47ea-a726-26c86c17056d"},"vehicle_type_id":"4","last_reported":1739290309,"current_range_meters":32000,"station_id":"ce4bhh12rcd13ifvqff0","pricing_plan_id":"cebpf4jnsgd1na2vs0mg"},{"bike_id":"aab4804f-5aed-4d66-91a7-87685a4c27c3","system_id":"levelo_inurba_marseille","lat":43.29515,"lon":5.37519,"is_reserved":false,"is_disabled":false,"rental_uris":{"android":"levelo://app?vid=aab4804f-5aed-4d66-91a7-87685a4c27c3","ios":"levelo://app?vid=aab4804f-5aed-4d66-91a7-87685a4c27c3"},"vehicle_type_id":"4","last_reported":1739290309,"current_range_meters":38800,"station_id":"ce4bgkp2rcd13ifvqbmg","pricing_plan_id":"cebpf4jnsgd1na2vs0mg"},{"bike_id":"05aea084-9309-4129-88a8-0007d66f184f","system_id":"levelo_inurba_marseille","lat":43.32545,"lon":5.41487,"is_reserved":false,"is_disabled":false,"rental_uris":{"android":"levelo://app?vid=05aea084-9309-4129-88a8-0007d66f184f","ios":"levelo://app?vid=05aea084-9309-4129-88a8-0007d66f184f"},"vehicle_type_id":"4","last_reported":1739290309,"current_range_meters":37600,"station_id":"ce4bhq12rcd13ifvqhhg","pricing_plan_id":"cebpf4jnsgd1na2vs0mg"},{"bike_id":"a3684267-7c7f-4c35-8049-6e34eadee257","system_id":"levelo_inurba_marseille","lat":43.30429,"lon":5.39742,"is_reserved":false,"is_disabled":false,"rental_uris":{"android":"levelo://app?vid=a3684267-7c7f-4c35-8049-6e34eadee257","ios":"levelo://app?vid=a3684267-7c7f-4c35-8049-6e34eadee257"},"vehicle_type_id":"4","last_reported":1739290309,"current_range_meters":12000,"station_id":"ce4bh092rcd13ifvqd20","pricing_plan_id":"cebpf4jnsgd1na2vs0mg"},{"bike_id":"49e9d985-ed08-4871-b429-7eba37a2e633","system_id":"levelo_inurba_marseille","lat":43.24071,"lon":5.37764,"is_reserved":false,"is_disabled":false,"rental_uris":{"android":"levelo://app?vid=49e9d985-ed08-4871-b429-7eba37a2e633","ios":"levelo://app?vid=49e9d985-ed08-4871-b429-7eba37a2e633"},"vehicle_type_id":"4","last_reported":1739290309,"current_range_meters":20000,"station_id":"ce4bhnp2rcd13ifvqgvg","pricing_plan_id":"cebpf4jnsgd1na2vs0mg"},{"bike_id":"7b37eb36-5784-4f91-a2b1-df3773c900b7","system_id":"levelo_inurba_marseille","lat":43.27995,"lon":5.39998,"is_reserved":false,"is_disabled":false,"rental_uris":{"android":"levelo://app?vid=7b37eb36-5784-4f91-a2b1-df3773c900b7","ios":"levelo://app?vid=7b37eb36-5784-4f91-a2b1-df3773c900b7"},"vehicle_type_id":"4","last_reported":1739290309,"current_range_meters":33600,"station_id":"ce4bho92rcd13ifvqh4g","pricing_plan_id":"cebpf4jnsgd1na2vs0mg"},{"bike_id":"81dc18dc-3bdd-4dec-8d6e-5cbe0dfce1ab","system_id":"levelo_inurba_marseille","lat":43.30525,"lon":5.36537,"is_reserved":false,"is_disabled":false,"rental_uris":{"android":"levelo://app?vid=81dc18dc-3bdd-4dec-8d6e-5cbe0dfce1ab","ios":"levelo://app?vid=81dc18dc-3bdd-4dec-8d6e-5cbe0dfce1ab"},"vehicle_type_id":"4","last_reported":1739290309,"current_range_meters":26800,"station_id":"ce4bgs12rcd13ifvqcag","pricing_plan_id":"cebpf4jnsgd1na2vs0mg"},{"bike_id":"aa73f3e1-5d29-48cf-86fc-acab720e3734","system_id":"levelo_inurba_marseille","lat":43.23969,"lon":5.36628,"is_reserved":false,"is_disabled":false,"rental_uris":{"android":"levelo://app?vid=aa73f3e1-5d29-48cf-86fc-acab720e3734","ios":"levelo://app?vid=aa73f3e1-5d29-48cf-86fc-acab720e3734"},"vehicle_type_id":"4","last_reported":1739290309,"current_range_meters":10000,"station_id":"ce4bhi12rcd13ifvqfp0","pricing_plan_id":"cebpf4jnsgd1na2vs0mg"},{"bike_id":"f17f084e-b6c7-45c8-92c0-b718ab2f3029","system_id":"levelo_inurba_marseille","lat":43.24392,"lon":5.37066,"is_reserved":false,"is_disabled":false,"rental_uris":{"android":"levelo://app?vid=f17f084e-b6c7-45c8-92c0-b718ab2f3029","ios":"levelo://app?vid=f17f084e-b6c7-45c8-92c0-b718ab2f3029"},"vehicle_type_id":"4","last_reported":1739290309,"current_range_meters":36800,"station_id":"ce4bhhh2rcd13ifvqfk0","pricing_plan_id":"cebpf4jnsgd1na2vs0mg"},{"bike_id":"23b2054e-db22-4a4d-9c0d-5fe4d3bc8a0c","system_id":"levelo_inurba_marseille","lat":43.2987,"lon":5.38911,"is_reserved":false,"is_disabled":false,"rental_uris":{"android":"levelo://app?vid=23b2054e-db22-4a4d-9c0d-5fe4d3bc8a0c","ios":"levelo://app?vid=23b2054e-db22-4a4d-9c0d-5fe4d3bc8a0c"},"vehicle_type_id":"4","last_reported":1739290309,"current_range_meters":36800,"station_id":"ce4bh392rcd13ifvqdl0","pricing_plan_id":"cebpf4jnsgd1na2vs0mg"},