{"last_updated":1762593006,"ttl":60,"version":"2.2","data":{"bikes":[{"bike_id":"85d17653-a127-4064-8941-5c78fb20f89f","system_id":"levelo_inurba_marseille","lat":43.29845,"lon":5.36274,"is_reserved":false,"is_disabled":false,"rental_uris":{"android":"levelo://app?vid=85d17653-a127-4064-8941-5c78fb20f89f","ios":"levelo://app?vid=85d17653-a127-4064-8941-5c78fb20f89f"},"vehicle_type_id":"4","last_reported":1762593006,"current_range_meters":2800,"station_id":"ce4bgpp2rcd13ifvqc3g","pricing_plan_id":"cebpf4jnsgd1na2vs0mg"},{"bike_id":"04be5aae-71eb-460b-9037-869e79d6f169","system_id":"levelo_inurba_marseille","lat":43.29897,"lon":5.38891,"is_reserved":false,"is_disabled":false,"rental_uris":{"android":"levelo://app?vid=04be5aae-71eb-460b-9037-869e79d6f169","ios":"levelo://app?vid=04be5aae-71eb-460b-9037-869e79d6f169"},"vehicle_type_id":"4","last_reported":1762593006,"current_range_meters":2800,"station_id":"ce4bh392rcd13ifvqdl0","pricing_plan_id":"cebpf4jnsgd1na2vs0mg"},{"bike_id":"9ba0509c-e480-435a-a9dd-b4dc36ec7f62","system_id":"levelo_inurba_marseille","lat":43.29307,"lon":5.39424,"is_reserved":false,"is_disabled":false,"rental_uris":{"android":"levelo://app?vid=9ba0509c-e480-435a-a9dd-b4dc36ec7f62","ios":"levelo://app?vid=9ba0509c-e480-435a-a9dd-b4dc36ec7f62"},"vehicle_type_id":"4","last_reported":1762593006,"current_range_meters":3200,"station_id":"","pricing_plan_id":"cebpf4jnsgd1na2vs0mg"},{"bike_id":"71967476-752a-4f5e-b222-99c0eea95f39","system_id":"levelo_inurba_marseille","lat":43.32326,"lon":5.38417,"is_reserved":false,"is_disabled":false,"rental_uris":{"android":"levelo://app?vid=71967476-752a-4f5e-b222-99c0eea95f39","ios":"levelo://app?vid=71967476-752a-4f5e-b222-99c0eea95f39"},"vehicle_type_id":"4","last_reported":1762593006,"current_range_meters":3200,"station_id":"","pricing_plan_id":"cebpf4jnsgd1na2vs0mg"},{"bike_id":"8a5a3ce7-f58f-4c0c-9911-7d755553cfb8","system_id":"levelo_inurba_marseille","lat":43.29918,"lon":5.37463,"is_reserved":false,"is_disabled":false,"rental_uris":{"android":"levelo://app?vid=8a5a3ce7-f58f-4c0c-9911-7d755553cfb8","ios":"levelo://app?vid=8a5a3ce7-f58f-4c0c-9911-7d755553cfb8"},"vehicle_type_id":"4","last_reported":1762593006,"current_range_meters":4000,"station_id":"ce4bgjh2rcd13ifvqbg0","pricing_plan_id":"cebpf4jnsgd1na2vs0mg"},{"bike_id":"a9209167-81d7-40c2-9e2e-d551de1eeaf3","system_id":"levelo_inurba_marseille","lat":43.30669,"lon":5.37385,"is_reserved":false,"is_disabled":false,"rental_uris":{"android":"levelo://app?vid=a9209167-81d7-40c2-9e2e-d551de1eeaf3","ios":"levelo://app?vid=a9209167-81d7-40c2-9e2e-d551de1eeaf3"},"vehicle_type_id":"4","last_reported":1762593006,"current_range_meters":4000,"station_id":"","pricing_plan_id":"cebpf4jnsgd1na2vs0mg"},{"bike_id":"aa073d3c-91f3-4920-9d1e-90bf82850b1e","system_id":"levelo_inurba_marseille","lat":43.33802,"lon":5.37437,"is_reserved":false,"is_disabled":false,"rental_uris":{"android":"levelo://app?vid=aa073d3c-91f3-4920-9d1e-90bf82850b1e","ios":"levelo://app?vid=aa073d3c-91f3-4920-9d1e-90bf82850b1e"},"vehicle_type_id":"4","last_reported":1762593006,"current_range_meters":4400,"station_id":"","pricing_plan_id":"cebpf4jnsgd1na2vs0mg"},{"bike_id":"bc9a55eb-c20b-454d-9da8-0f1718438310","system_id":"levelo_inurba_marseille","lat":43.30809,"lon":5.43535,"is_reserved":false,"is_disabled":true,"rental_uris":{"android":"levelo://app?vid=bc9a55eb-c20b-454d-9da8-0f1718438310","ios":"levelo://app?vid=bc9a55eb-c20b-454d-9da8-0f1718438310"},"vehicle_type_id":"4","last_reported":1762593006,"current_range_meters":4800,"station_id":"","pricing_plan_id":"cebpf4jnsgd1na2vs0mg"},{"bike_id":"b6902786-373f-4a21-b2ab-b79ccecd4316","system_id":"levelo_inurba_marseille","lat":43.29622,"lon":5.3772,"is_reserved":false,"is_disabled":false,"rental_uris":{"android":"levelo://app?vid=b6902786-373f-4a21-b2ab-b79ccecd4316","ios":"levelo://app?vid=b6902786-373f-4a21-b2ab-b79ccecd4316"},"vehicle_type_id":"4","last_reported":1762593006,"current_range_meters":4800,"station_id":"ce4bgi92rcd13ifvqb90","pricing_plan_id":"cebpf4jnsgd1na2vs0mg"},{"bike_id":"759ffaf6-e2ca-49b5-aac1-0bc4e1e02db6","system_id":"levelo_inurba_marseille","lat":43.26953,"lon":5.3863,"is_reserved":false,"is_disabled":false,"rental_uris":{"android":"levelo://app?vid=759ffaf6-e2ca-49b5-aac1-0bc4e1e02db6","ios":"levelo://app?vid=759ffaf6-e2ca-49b5-aac1-0bc4e1e02db6"},"vehicle_type_id":"4","last_reported":1762593006,"current_range_meters":4800,"station_id":"ce4bhh92rcd13ifvqfh0","pricing_plan_id":"cebpf4jnsgd1na2vs0mg"},{"bike_id":"59b31ef2-3fe3-46e5-b5a5-685f264695ce","system_id":"levelo_inurba_marseille","lat":43.28475,"lon":5.48395,"is_reserved":false,"is_disabled":false,"rental_uris":{"android":"levelo://app?vid=59b31ef2-3fe3-46e5-b5a5-685f264695ce","ios":"levelo://app?vid=59b31ef2-3fe3-46e5-b5a5-685f264695ce"},"vehicle_type_id":"4","last_reported":1762593006,"current_range_meters":5600,"station_id":"","pricing_plan_id":"cebpf4jnsgd1na2vs0mg"},{"bike_id":"1051b9b9-9903-41d2-9539-9d912f1658b0","system_id":"levelo_inurba_marseille","lat":43.30373,"lon":5.42491,"is_reserved":false,"is_disabled":false,"rental_uris":{"android":"levelo://app?vid=1051b9b9-9903-41d2-9539-9d912f1658b0","ios":"levelo://app?vid=1051b9b9-9903-41d2-9539-9d912f1658b0"},"vehicle_type_id":"4","last_reported":1762593006,"current_range_meters":6000,"station_id":"ce4bhoh2rcd13ifvqh6g","pricing_plan_id":"cebpf4jnsgd1na2vs0mg"},{"bike_id":"639ac14e-e506-4902-a449-38a298d6e823","system_id":"levelo_inurba_marseille","lat":43.290417,"lon":5.399644,"is_reserved":false,"is_disabled":false,"rental_uris":{"android":"levelo://app?vid=639ac14e-e506-4902-a449-38a298d6e823","ios":"levelo://app?vid=639ac14e-e506-4902-a449-38a298d6e823"},"vehicle_type_id":"4","last_reported":1762593006,"current_range_meters":6000,"station_id":"","pricing_plan_id":"cebpf4jnsgd1na2vs0mg"},{"bike_id":"32c4054d-c111-4f1c-b188-9138aed42210","system_id":"levelo_inurba_marseille","lat":43.31981,"lon":5.41577,"is_reserved":false,"is_disabled":false,"rental_uris":{"android":"levelo://app?vid=32c4054d-c111-4f1c-b188-9138aed42210","ios":"levelo://app?vid=32c4054d-c111-4f1c-b188-9138aed42210"},"vehicle_type_id":"4","last_reported":1762593006,"current_range_meters":6000,"station_id":"","pricing_plan_id":"cebpf4jnsgd1na2vs0mg"},{"bike_id":"719197b0-fa49-4835-b229-05d0de9918da","system_id":"levelo_inurba_marseille","lat":43.27957,"lon":5.38738,"is_reserved":false,"is_disabled":false,"rental_uris":{"android":"levelo://app?vid=719197b0-fa49-4835-b229-05d0de9918da","ios":"levelo://app?vid=719197b0-fa49-4835-b229-05d0de9918da"},"vehicle_type_id":"4","last_reported":1762593006,"current_range_meters":6000,"station_id":"ce4bhg12rcd13ifvqf80","pricing_plan_id":"cebpf4jnsgd1na2vs0mg"},{"bike_id":"11b968ee-44e4-4807-8754-3db01b1bc5ae","system_id":"levelo_inurba_marseille","lat":43.22927,"lon":5.35385,"is_reserved":false,"is_disabled":false,"rental_uris":{"android":"levelo://app?vid=11b968ee-44e4-4807-8754-3db01b1bc5ae","ios":"levelo://app?vid=11b968ee-44e4-4807-8754-3db01b1bc5ae"},"vehicle_type_id":"4","last_reported":1762593006,"current_range_meters":6000,"station_id":"cpo3532slgdg3j2ikp40","pricing_plan_id":"cebpf4jnsgd1na2vs0mg"},{"bike_id":"ab3a4d6b-b442-44b9-8f02-c1c222f445ba","system_id":"levelo_inurba_marseille","lat":43.27497,"lon":5.39245,"is_reserved":false,"is_disabled":false,"rental_uris":{"android":"levelo://app?vid=ab3a4d6b-b442-44b9-8f02-c1c222f445ba","ios":"levelo://app?vid=ab3a4d6b-b442-44b9-8f02-c1c222f445ba"},"vehicle_type_id":"4","last_reported":1762593006,"current_range_meters":6400,"station_id":"","pricing_plan_id":"cebpf4jnsgd1na2vs0mg"},{"bike_id":"c83327aa-7d1f-4f7b-9ccb-c6cdf43b2653","system_id":"levelo_inurba_marseille","lat":43.286153,"lon":5.351093,"is_reserved":false,"is_disabled":false,"rental_uris":{"android":"levelo://app?vid=c83327aa-7d1f-4f7b-9ccb-c6cdf43b2653","ios":"levelo://app?vid=c83327aa-7d1f-4f7b-9ccb-c6cdf43b2653"},"vehicle_type_id":"4","last_reported":1762593006,"current_range_meters":6400,"station_id":"ce4bhch2rcd13ifvqeug","pricing_plan_id":"cebpf4jnsgd1na2vs0mg"},{"bike_id":"89162ece-2a45-462a-807b-41bfe0b8c3c0","system_id":"levelo_inurba_marseille","lat":43.29577,"lon":5.37504,"is_reserved":false,"is_disabled":false,"rental_uris":{"android":"levelo://app?vid=89162ece-2a45-462a-807b-41bfe0b8c3c0","ios":"levelo://app?vid=89162ece-2a45-462a-807b-41bfe0b8c3c0"},"vehicle_type_id":"4","last_reported":1762593006,"current_range_meters":6400,"station_id":"ce4bgh92rcd13ifvqb50","pricing_plan_id":"cebpf4jnsgd1na2vs0mg"},{"bike_id":"c8bad69d-ef99-4aad-b7db-6ceda12fe1b7","system_id":"levelo_inurba_marseille","lat":43.2293,"lon":5.35386,"is_reserved":false,"is_disabled":false,"rental_uris":{"android":"levelo://app?vid=c8bad69d-ef99-4aad-b7db-6ceda12fe1b7","ios":"levelo://app?vid=c8bad69d-ef99-4aad-b7db-6ceda12fe1b7"},"vehicle_type_id":"4","last_reported":1762593006,"current_range_meters":6800,"station_id":"cpo3532slgdg3j2ikp40","pricing_plan_id":"cebpf4jnsgd1na2vs0mg"},{"bike_id":"ef2fe57e-ecba-4765-96d3-8349654ec56e","system_id":"levelo_inurba_marseille","lat":43.32927,"lon":5.36412,"is_reserved":false,"is_disabled":false,"rental_uris":{"android":"levelo://app?vid=ef2fe57e-ecba-4765-96d3-8349654ec56e","ios":"levelo://app?vid=ef2fe57e-ecba-4765-96d3-8349654ec56e"},"vehicle_type_id":"4","last_reported":1762593006,"current_range_meters":6800,"station_id":"","pricing_plan_id":"cebpf4jnsgd1na2vs0mg"},{"bike_id":"0e20a5d9-0ab3-4e71-a3ef-c9be28fc5551","system_id":"levelo_inurba_marseille","lat":43.28535,"lon":5.44097,"is_reserved":false,"is_disabled":false,"rental_uris":{"android":"levelo://app?vid=0e20a5d9-0ab3-4e71-a3ef-c9be28fc5551","ios":"levelo://app?vid=0e20a5d9-0ab3-4e71-a3ef-c9be28fc5551"},"vehicle_type_id":"4","last_reported":1762593006,"current_range_meters":6800,"station_id":"st_d3j3df2ikq2c7380ej80","pricing_plan_id":"cebpf4jnsgd1na2vs0mg"},{"bike_id":"43cfab9e-f547-4304-9999-4a8329474751","system_id":"levelo_inurba_marseille","lat":43.212,"lon":5.350665,"is_reserved":false,"is_disabled":false,"rental_uris":{"android":"levelo://app?vid=43cfab9e-f547-4304-9999-4a8329474751","ios":"levelo://app?vid=43cfab9e-f547-4304-9999-4a8329474751"},"vehicle_type_id":"4","last_reported":1762593006,"current_range_meters":6800,"station_id":"st_cvj6sg6p6f1abm77japg","pricing_plan_id":"cebpf4jnsgd1na2vs0mg"},{"bike_id":"fcc67df6-d106-4007-b169-b70b369613ec","system_id":"levelo_inurba_marseille","lat":43.27202,"lon":5.39169,"is_reserved":false,"is_disabled":false,"rental_uris":{"android":"levelo://app?vid=fcc67df6-d106-4007-b169-b70b369613ec","ios":"levelo://app?vid=fcc67df6-d106-4007-b169-b70b369613ec"},"vehicle_type_id":"4","last_reported":1762593006,"current_range_meters":6800,"station_id":"ce4bhhp2rcd13ifvqfm0","pricing_plan_id":"cebpf4jnsgd1na2vs0mg"},{"bike_id":"ae548c76-3524-40dd-9546-15bf79570561","system_id":"levelo_inurba_marseille","lat":43.29176,"lon":5.37163,"is_reserved":false,"is_disabled":false,"rental_uris":{"android":"levelo://app?vid=ae548c76-3524-40dd-9546-15bf79570561","ios":"levelo://app?vid=ae548c76-3524-40dd-9546-15bf79570561"},"vehicle_type_id":"4","last_reported":1762593006,"current_range_meters":6800,"station_id":"ce4bha92rcd13ifvqeh0","pricing_plan_id":"cebpf4jnsgd1na2vs0mg"},{"bike_id":"62b597ad-0183-45ab-83ea-6b1f25540269","system_id":"levelo_inurba_marseille","lat":43.32744,"lon":5.45203,"is_reserved":false,"is_disabled":true,"rental_uris":{"android":"levelo://app?vid=62b597ad-0183-45ab-83ea-6b1f25540269","ios":"levelo://app?vid=62b597ad-0183-45ab-83ea-6b1f25540269"},"vehicle_type_id":"4","last_reported":1762593006,"current_range_meters":6800,"station_id":"","pricing_plan_id":"cebpf4jnsgd1na2vs0mg"},{"bike_id":"29286810-4e00-47d2-931c-f00791dac858","system_id":"levelo_inurba_marseille","lat":43.28767,"lon":5.38418,"is_reserved":false,"is_disabled":false,"rental_uris":{"android":"levelo://app?vid=29286810-4e00-47d2-931c-f00791dac858","ios":"levelo://app?vid=29286810-4e00-47d2-931c-f00791dac858"},"vehicle_type_id":"4","last_reported":1762593006,"current_range_meters":6800,"station_id":"","pricing_plan_id":"cebpf4jnsgd1na2vs0mg"},{"bike_id":"c3012cc0-580e-4494-ba7c-1007acc81fe6","system_id":"levelo_inurba_marseille","lat":43.30146,"lon":5.38087,"is_reserved":false,"is_disabled":false,"rental_uris":{"android":"levelo://app?vid=c3012cc0-580e-4494-ba7c-1007acc81fe6","ios":"levelo://app?vid=c3012cc0-580e-4494-ba7c-1007acc81fe6"},"vehicle_type_id":"4","last_reported":1762593006,"current_range_meters":7200,"station_id":"ce4bgjp2rcd13ifvqbh0","pricing_plan_id":"cebpf4jnsgd1na2vs0mg"},{"bike_id":"05c639a2-6660-40ed-a12f-85b485fe188e","system_id":"levelo_inurba_marseille","lat":43.29251,"lon":5.35784,"is_reserved":false,"is_disabled":false,"rental_uris":{"android":"levelo://app?vid=05c639a2-6660-40ed-a12f-85b485fe188e","ios":"levelo://app?vid=05c639a2-6660-40ed-a12f-85b485fe188e"},"vehicle_type_id":"4","last_reported":1762593006,"current_range_meters":7200,"station_id":"","pricing_plan_id":"cebpf4jnsgd1na2vs0mg"},{"bike_id":"70c2a076-2d80-4849-8902-80b36fb4d0c9","system_id":"levelo_inurba_marseille","lat":43.24817,"lon":5.37461,"is_reserved":false,"is_disabled":false,"rental_uris":{"android":"levelo://app?vid=70c2a076-2d80-4849-8902-80b36fb4d0c9","ios":"levelo://app?vid=70c2a076-2d80-4849-8902-80b36fb4d0c9"},"vehicle_type_id":"4","last_reported":1762593006,"current_range_meters":7200,"station_id":"ce4bhgh2rcd13ifvqfb0","pricing_plan_id":"cebpf4jnsgd1na2vs0mg"},{"bike_id":"6f1a8a8a-e152-4a99-87c3-898769b93268","system_id":"levelo_inurba_marseille","lat":43.24386,"lon":5.37051,"is_reserved":false,"is_disabled":false,"rental_uris":{"android":"levelo://app?vid=6f1a8a8a-e152-4a99-87c3-898769b93268","ios":"levelo://app?vid=6f1a8a8a-e152-4a99-87c3-898769b93268"},"vehicle_type_id":"4","last_reported":1762593006,"current_range_meters":7200,"station_id":"ce4bhhh2rcd13ifvqfk0","pricing_plan_id":"cebpf4jnsgd1na2vs0mg"},{"bike_id":"c687f5b8-73fc-4bba-bdba-8dae557f7ae6","system_id":"levelo_inurba_marseille","lat":43.273762,"lon":5.362389,"is_reserved":false,"is_disabled":true,"rental_uris":{"android":"levelo://app?vid=c687f5b8-73fc-4bba-bdba-8dae557f7ae6","ios":"levelo://app?vid=c687f5b8-73fc-4bba-bdba-8dae557f7ae6"},"vehicle_type_id":"4","last_reported":1762593006,"current_range_meters":8000,"station_id":"ce4bhbh2rcd13ifvqeo0","pricing_plan_id":"cebpf4jnsgd1na2vs0mg"},{"bike_id":"711b5184-06a1-46c6-b1ad-270408b914a4","system_id":"levelo_inurba_marseille","lat":43.300063,"lon":5.40972,"is_reserved":false,"is_disabled":false,"rental_uris":{"android":"levelo://app?vid=711b5184-06a1-46c6-b1ad-270408b914a4","ios":"levelo://app?vid=711b5184-06a1-46c6-b1ad-270408b914a4"},"vehicle_type_id":"4","last_reported":1762593006,"current_range_meters":8000,"station_id":"","pricing_plan_id":"cebpf4jnsgd1na2vs0mg"},{"bike_id":"6580beb2-f281-473f-9ef4-7b331653ef2e","system_id":"levelo_inurba_marseille","lat":43.29135,"lon":5.40799,"is_reserved":false,"is_disabled":false,"rental_uris":{"android":"levelo://app?vid=6580beb2-f281-473f-9ef4-7b331653ef2e","ios":"levelo://app?vid=6580beb2-f281-473f-9ef4-7b331653ef2e"},"vehicle_type_id":"4","last_reported":1762593006,"current_range_meters":8000,"station_id":"","pricing_plan_id":"cebpf4jnsgd1na2vs0mg"},{"bike_id":"b5fe95f2-7a01-4bbd-9daa-85666d970e75","system_id":"levelo_inurba_marseille","lat":43.286187,"lon":5.351044,"is_reserved":false,"is_disabled":false,"rental_uris":{"android":"levelo://app?vid=b5fe95f2-7a01-4bbd-9daa-85666d970e75","ios":"levelo://app?vid=b5fe95f2-7a01-4bbd-9daa-85666d970e75"},"vehicle_type_id":"4","last_reported":1762593006,"current_range_meters":8000,"station_id":"ce4bhch2rcd13ifvqeug","pricing_plan_id":"cebpf4jnsgd1na2vs0mg"},{"bike_id":"ff52e6d2-0126-428b-8241-f19a2cd5a014","system_id":"levelo_inurba_marseille","lat":43.26953,"lon":5.38624,"is_reserved":false,"is_disabled":false,"rental_uris":{"android":"levelo://app?vid=ff52e6d2-0126-428b-8241-f19a2cd5a014","ios":"levelo://app?vid=ff52e6d2-0126-428b-8241-f19a2cd5a014"},"vehicle_type_id":"4","last_reported":1762593006,"current_range_meters":8000,"station_id":"ce4bhh92rcd13ifvqfh0","pricing_plan_id":"cebpf4jnsgd1na2vs0mg"},{"bike_id":"34c14480-831b-41a9-b30b-a1e8f994a110","system_id":"levelo_inurba_marseille","lat":43.30829,"lon":5.37153,"is_reserved":false,"is_disabled":false,"rental_uris":{"android":"levelo://app?vid=34c14480-831b-41a9-b30b-a1e8f994a110","ios":"levelo://app?vid=34c14480-831b-41a9-b30b-a1e8f994a110"},"vehicle_type_id":"4","last_reported":1762593006,"current_range_meters":8400,"station_id":"","pricing_plan_id":"cebpf4jnsgd1na2vs0mg"},{"bike_id":"5bee8f0f-57fe-4257-a72a-04a4967570b5","system_id":"levelo_inurba_marseille","lat":43.30044,"lon":5.37722,"is_reserved":false,"is_disabled":false,"rental_uris":{"android":"levelo://app?vid=5bee8f0f-57fe-4257-a72a-04a4967570b5","ios":"levelo://app?vid=5bee8f0f-57fe-4257-a72a-04a4967570b5"},"vehicle_type_id":"4","last_reported":1762593006,"current_range_meters":8400,"station_id":"","pricing_plan_id":"cebpf4jnsgd1na2vs0mg"},{"bike_id":"5c17ed12-8897-4f84-bbfc-85419a7f8038","system_id":"levelo_inurba_marseille","lat":43.27045,"lon":5.39424,"is_reserved":false,"is_disabled":false,"rental_uris":{"android":"levelo://app?vid=5c17ed12-8897-4f84-bbfc-85419a7f8038","ios":"levelo://app?vid=5c17ed12-8897-4f84-bbfc-85419a7f8038"},"vehicle_type_id":"4","last_reported":1762593006,"current_range_meters":8800,"station_id":"","pricing_plan_id":"cebpf4jnsgd1na2vs0mg"},{"bike_id":"7c392732-2900-41fd-8c6d-e5b49cdf67b5","system_id":"levelo_inurba_marseille","lat":43.2973,"lon":5.38244,"is_reserved":false,"is_disabled":false,"rental_uris":{"android":"levelo://app?vid=7c392732-2900-41fd-8c6d-e5b49cdf67b5","ios":"levelo://app?vid=7c392732-2900-41fd-8c6d-e5b49cdf67b5"},"vehicle_type_id":"4","last_reported":1762593006,"current_range_meters":8800,"station_id":"","pricing_plan_id":"cebpf4jnsgd1na2vs0mg"},{"bike_id":"b428b1a6-dd43-457e-8848-748f7ce90ced","system_id":"levelo_inurba_marseille","lat":43.24387,"lon":5.37051,"is_reserved":false,"is_disabled":false,"rental_uris":{"android":"levelo://app?vid=b428b1a6-dd43-457e-8848-748f7ce90ced","ios":"levelo://app?vid=b428b1a6-dd43-457e-8848-748f7ce90ced"},"vehicle_type_id":"4","last_reported":1762593006,"current_range_meters":8800,"station_id":"ce4bhhh2rcd13ifvqfk0","pricing_plan_id":"cebpf4jnsgd1na2vs0mg"},{"bike_id":"01e3363f-3b9f-494b-aa41-8a85ec8f9829","system_id":"levelo_inurba_marseille","lat":43.30317,"lon":5.36893,"is_reserved":false,"is_disabled":false,"rental_uris":{"android":"levelo://app?vid=01e3363f-3b9f-494b-aa41-8a85ec8f9829","ios":"levelo://app?vid=01e3363f-3b9f-494b-aa41-8a85ec8f9829"},"vehicle_type_id":"4","last_reported":1762593006,"current_range_meters":8800,"station_id":"ce4bgqh2rcd13ifvqc5g","pricing_plan_id":"cebpf4jnsgd1na2vs0mg"},{"bike_id":"676f9b84-4eb4-49d4-bb45-1c4cb446cd66","system_id":"levelo_inurba_marseille","lat":43.330242,"lon":5.390353,"is_reserved":false,"is_disabled":false,"rental_uris":{"android":"levelo://app?vid=676f9b84-4eb4-49d4-bb45-1c4cb446cd66","ios":"levelo://app?vid=676f9b84-4eb4-49d4-bb45-1c4cb446cd66"},"vehicle_type_id":"4","last_reported":1762593006,"current_range_meters":9200,"station_id":"ce4bhr92rcd13ifvqhrg","pricing_plan_id":"cebpf4jnsgd1na2vs0mg"},{"bike_id":"6ae27e65-4b34-46fc-815d-2ae60ff8a279","system_id":"levelo_inurba_marseille","lat":43.29536,"lon":5.37493,"is_reserved":false,"is_disabled":false,"rental_uris":{"android":"levelo://app?vid=6ae27e65-4b34-46fc-815d-2ae60ff8a279","ios":"levelo://app?vid=6ae27e65-4b34-46fc-815d-2ae60ff8a279"},"vehicle_type_id":"4","last_reported":1762593006,"current_range_meters":9200,"station_id":"ce4bgkp2rcd13ifvqbmg","pricing_plan_id":"cebpf4jnsgd1na2vs0mg"},{"bike_id":"71289b84-c0ad-4ae0-bb8e-6d9998ccc276","system_id":"levelo_inurba_marseille","lat":43.29691,"lon":5.37303,"is_reserved":false,"is_disabled":false,"rental_uris":{"android":"levelo://app?vid=71289b84-c0ad-4ae0-bb8e-6d9998ccc276","ios":"levelo://app?vid=71289b84-c0ad-4ae0-bb8e-6d9998ccc276"},"vehicle_type_id":"4","last_reported":1762593006,"current_range_meters":9200,"station_id":"ce4bgk12rcd13ifvqbj0","pricing_plan_id":"cebpf4jnsgd1na2vs0mg"},{"bike_id":"78bd5f74-b07f-4aac-b566-26ecec6fd5df","system_id":"levelo_inurba_marseille","lat":43.30665,"lon":5.38047,"is_reserved":false,"is_disabled":false,"rental_uris":{"android":"levelo://app?vid=78bd5f74-b07f-4aac-b566-26ecec6fd5df","ios":"levelo://app?vid=78bd5f74-b07f-4aac-b566-26ecec6fd5df"},"vehicle_type_id":"4","last_reported":1762593006,"current_range_meters":9200,"station_id":"","pricing_plan_id":"cebpf4jnsgd1na2vs0mg"},{"bike_id":"23d4b732-c785-4a74-a220-93191f06591d","system_id":"levelo_inurba_marseille","lat":43.212023,"lon":5.3506,"is_reserved":false,"is_disabled":false,"rental_uris":{"android":"levelo://app?vid=23d4b732-c785-4a74-a220-93191f06591d","ios":"levelo://app?vid=23d4b732-c785-4a74-a220-93191f06591d"},"vehicle_type_id":"4","last_reported":1762593006,"current_range_meters":9200,"station_id":"st_cvj6sg6p6f1abm77japg","pricing_plan_id":"cebpf4jnsgd1na2vs0mg"},{"bike_id":"da0a9d5c-860b-4383-8050-0d50a711bc1b","system_id":"levelo_inurba_marseille","lat":43.29815,"lon":5.44067,"is_reserved":false,"is_disabled":false,"rental_uris":{"android":"levelo://app?vid=da0a9d5c-860b-4383-8050-0d50a711bc1b","ios":"levelo://app?vid=da0a9d5c-860b-4383-8050-0d50a711bc1b"},"vehicle_type_id":"4","last_reported":1762593006,"current_range_meters":9200,"station_id":"st_d3jp68qikq2c7381ktn0","pricing_plan_id":"cebpf4jnsgd1na2vs0mg"},{"bike_id":"451c4f52-5f8a-48bf-8d08-37cdee36fff2","system_id":"levelo_inurba_marseille","lat":43.2853,"lon":5.44097,"is_reserved":false,"is_disabled":false,"rental_uris":{"android":"levelo://app?vid=451c4f52-5f8a-48bf-8d08-37cdee36fff2","ios":"levelo://app?vid=451c4f52-5f8a-48bf-8d08-37cdee36fff2"},"vehicle_type_id":"4","last_reported":1762593006,"current_range_meters":9200,"station_id":"st_d3j3df2ikq2c7380ej80","pricing_plan_id":"cebpf4jnsgd1na2vs0mg"},{"bike_id":"591b61b5-10ee-4526-adc5-5194893cdab6","system_id":"levelo_inurba_marseille","lat":43.255718,"lon":5.382369,"is_reserved":false,"is_disabled":false,"rental_uris":{"android":"levelo://app?vid=591b61b5-10ee-4526-adc5-5194893cdab6","ios":"levelo://app?vid=591b61b5-10ee-4526-adc5-5194893cdab6"},"vehicle_type_id":"4","last_reported":1762593006,"current_range_meters":9600,"station_id":"ce4bhih2rcd13ifvqfs0","pricing_plan_id":"cebpf4jnsgd1na2vs0mg"},{"bike_id":"a0ea519d-554f-42a0-93a3-d4c181552c78","system_id":"levelo_inurba_marseille","lat":43.31271,"lon":5.37752,"is_reserved":false,"is_disabled":false,"rental_uris":{"android":"levelo://app?vid=a0ea519d-554f-42a0-93a3-d4c181552c78","ios":"levelo://app?vid=a0ea519d-554f-42a0-93a3-d4c181552c78"},"vehicle_type_id":"4","last_reported":1762593006,"current_range_meters":9600,"station_id":"","pricing_plan_id":"cebpf4jnsgd1na2vs0mg"},{"bike_id":"e29dcacd-c5cb-4908-af39-1ab6b3c10bce","system_id":"levelo_inurba_marseille","lat":43.28097,"lon":5.37846,"is_reserved":false,"is_disabled":false,"rental_uris":{"android":"levelo://app?vid=e29dcacd-c5cb-4908-af39-1ab6b3c10bce","ios":"levelo://app?vid=e29dcacd-c5cb-4908-af39-1ab6b3c10bce"},"vehicle_type_id":"4","last_reported":1762593006,"current_range_meters":9600,"station_id":"ce4bha12rcd13ifvqee0","pricing_plan_id":"cebpf4jnsgd1na2vs0mg"},{"bike_id":"3a6b939b-8483-4a00-8652-d825cdd856d7","system_id":"levelo_inurba_marseille","lat":43.22559,"lon":5.41644,"is_reserved":false,"is_disabled":false,"rental_uris":{"android":"levelo://app?vid=3a6b939b-8483-4a00-8652-d825cdd856d7","ios":"levelo://app?vid=3a6b939b-8483-4a00-8652-d825cdd856d7"},"vehicle_type_id":"4","last_reported":1762593006,"current_range_meters":9600,"station_id":"st_d2o4gvlbi1j2169b742g","pricing_plan_id":"cebpf4jnsgd1na2vs0mg"},{"bike_id":"310115a0-7bf2-4a4a-9d53-56bf6918e4d0","system_id":"levelo_inurba_marseille","lat":43.28468,"lon":5.48398,"is_reserved":false,"is_disabled":false,"rental_uris":{"android":"levelo://app?vid=310115a0-7bf2-4a4a-9d53-56bf6918e4d0","ios":"levelo://app?vid=310115a0-7bf2-4a4a-9d53-56bf6918e4d0"},"vehicle_type_id":"4","last_reported":1762593006,"current_range_meters":10000,"station_id":"st_d3svhcjqgbts73a3dn0g","pricing_plan_id":"cebpf4jnsgd1na2vs0mg"},{"bike_id":"4548bfb3-06f4-4b10-aaa4-465cca5b7e05","system_id":"levelo_inurba_marseille","lat":43.285394,"lon":5.441004,"is_reserved":false,"is_disabled":false,"rental_uris":{"android":"levelo://app?vid=4548bfb3-06f4-4b10-aaa4-465cca5b7e05","ios":"levelo://app?vid=4548bfb3-06f4-4b10-aaa4-465cca5b7e05"},"vehicle_type_id":"4","last_reported":1762593006,"current_range_meters":10000,"station_id":"st_d3j3df2ikq2c7380ej80","pricing_plan_id":"cebpf4jnsgd1na2vs0mg"},{"bike_id":"22918fb7-a391-4f35-8c21-8eb60e2ab03f","system_id":"levelo_inurba_marseille","lat":43.22552,"lon":5.41633,"is_reserved":false,"is_disabled":false,"rental_uris":{"android":"levelo://app?vid=22918fb7-a391-4f35-8c21-8eb60e2ab03f","ios":"levelo://app?vid=22918fb7-a391-4f35-8c21-8eb60e2ab03f"},"vehicle_type_id":"4","last_reported":1762593006,"current_range_meters":10000,"station_id":"st_d2o4gvlbi1j2169b742g","pricing_plan_id":"cebpf4jnsgd1na2vs0mg"},{"bike_id":"0e14dedf-40be-4923-a146-e112f5802199","system_id":"levelo_inurba_marseille","lat":43.29582,"lon":5.36737,"is_reserved":false,"is_disabled":false,"rental_uris":{"android":"levelo://app?vid=0e14dedf-40be-4923-a146-e112f5802199","ios":"levelo://app?vid=0e14dedf-40be-4923-a146-e112f5802199"},"vehicle_type_id":"4","last_reported":1762593006,"current_range_meters":10000,"station_id":"ce4bgph2rcd13ifvqc2g","pricing_plan_id":"cebpf4jnsgd1na2vs0mg"},{"bike_id":"28731ee2-3f6c-441a-810e-5b7ef268b4a3","system_id":"levelo_inurba_marseille","lat":43.29935,"lon":5.36544,"is_reserved":false,"is_disabled":false,"rental_uris":{"android":"levelo://app?vid=28731ee2-3f6c-441a-810e-5b7ef268b4a3","ios":"levelo://app?vid=28731ee2-3f6c-441a-810e-5b7ef268b4a3"},"vehicle_type_id":"4","last_reported":1762593006,"current_range_meters":10800,"station_id":"ce4bgm92rcd13ifvqbr0","pricing_plan_id":"cebpf4jnsgd1na2vs0mg"},{"bike_id":"9af0687b-3e79-4e11-b844-dd239618aeba","system_id":"levelo_inurba_marseille","lat":43.28868,"lon":5.42513,"is_reserved":false,"is_disabled":false,"rental_uris":{"android":"levelo://app?vid=9af0687b-3e79-4e11-b844-dd239618aeba","ios":"levelo://app?vid=9af0687b-3e79-4e11-b844-dd239618aeba"},"vehicle_type_id":"4","last_reported":1762593006,"current_range_meters":10800,"station_id":"st_d3b462108ojc7389ooeg","pricing_plan_id":"cebpf4jnsgd1na2vs0mg"},{"bike_id":"5597e945-289a-4c33-a31b-9f7b4f4082bc","system_id":"levelo_inurba_marseille","lat":43.2795,"lon":5.38714,"is_reserved":false,"is_disabled":false,"rental_uris":{"android":"levelo://app?vid=5597e945-289a-4c33-a31b-9f7b4f4082bc","ios":"levelo://app?vid=5597e945-289a-4c33-a31b-9f7b4f4082bc"},"vehicle_type_id":"4","last_reported":1762593006,"current_range_meters":10800,"station_id":"ce4bhg12rcd13ifvqf80","pricing_plan_id":"cebpf4jnsgd1na2vs0mg"},{"bike_id":"401209f9-1098-407a-9275-182f209531f6","system_id":"levelo_inurba_marseille","lat":43.29554,"lon":5.42281,"is_reserved":false,"is_disabled":false,"rental_uris":{"android":"levelo://app?vid=401209f9-1098-407a-9275-182f209531f6","ios":"levelo://app?vid=401209f9-1098-407a-9275-182f209531f6"},"vehicle_type_id":"4","last_reported":1762593006,"current_range_meters":10800,"station_id":"ce4bhph2rcd13ifvqhdg","pricing_plan_id":"cebpf4jnsgd1na2vs0mg"},{"bike_id":"fd658234-bc11-47f9-aa2d-b6e9ecd08417","system_id":"levelo_inurba_marseille","lat":43.32499,"lon":5.36635,"is_reserved":false,"is_disabled":false,"rental_uris":{"android":"levelo://app?vid=fd658234-bc11-47f9-aa2d-b6e9ecd08417","ios":"levelo://app?vid=fd658234-bc11-47f9-aa2d-b6e9ecd08417"},"vehicle_type_id":"4","last_reported":1762593006,"current_range_meters":10800,"station_id":"","pricing_plan_id":"cebpf4jnsgd1na2vs0mg"},{"bike_id":"8e6ed807-f053-47d1-b4b3-1f37f36e767e","system_id":"levelo_inurba_marseille","lat":43.26805,"lon":5.40259,"is_reserved":false,"is_disabled":false,"rental_uris":{"android":"levelo://app?vid=8e6ed807-f053-47d1-b4b3-1f37f36e767e","ios":"levelo://app?vid=8e6ed807-f053-47d1-b4b3-1f37f36e767e"},"vehicle_type_id":"4","last_reported":1762593006,"current_range_meters":11200,"station_id":"ce501612rcd8frsf0b60","pricing_plan_id":"cebpf4jnsgd1na2vs0mg"},{"bike_id":"cbaf6e70-be37-4c92-8bb7-677f9be0a37d","system_id":"levelo_inurba_marseille","lat":43.30128,"lon":5.431096,"is_reserved":false,"is_disabled":false,"rental_uris":{"android":"levelo://app?vid=cbaf6e70-be37-4c92-8bb7-677f9be0a37d","ios":"levelo://app?vid=cbaf6e70-be37-4c92-8bb7-677f9be0a37d"},"vehicle_type_id":"4","last_reported":1762593006,"current_range_meters":11200,"station_id":"st_d3js3co5814s73ftftug","pricing_plan_id":"cebpf4jnsgd1na2vs0mg"},{"bike_id":"cb7f5392-ae0a-4ba8-b998-2f6fbc338fe1","system_id":"levelo_inurba_marseille","lat":43.22559,"lon":5.41623,"is_reserved":false,"is_disabled":false,"rental_uris":{"android":"levelo://app?vid=cb7f5392-ae0a-4ba8-b998-2f6fbc338fe1","ios":"levelo://app?vid=cb7f5392-ae0a-4ba8-b998-2f6fbc338fe1"},"vehicle_type_id":"4","last_reported":1762593006,"current_range_meters":11600,"station_id":"st_d2o4gvlbi1j2169b742g","pricing_plan_id":"cebpf4jnsgd1na2vs0mg"},{"bike_id":"60c2843d-f2d7-4dfd-9606-aeac5cb1d069","system_id":"levelo_inurba_marseille","lat":43.307367,"lon":5.424379,"is_reserved":false,"is_disabled":false,"rental_uris":{"android":"levelo://app?vid=60c2843d-f2d7-4dfd-9606-aeac5cb1d069","ios":"levelo://app?vid=60c2843d-f2d7-4dfd-9606-aeac5cb1d069"},"vehicle_type_id":"4","last_reported":1762593006,"current_range_meters":11600,"station_id":"st_cvj6ca6bvosntc0bfgr0","pricing_plan_id":"cebpf4jnsgd1na2vs0mg"},{"bike_id":"eb493fb7-22d4-43e3-afb6-2c2db0dae41b","system_id":"levelo_inurba_marseille","lat":43.282787,"lon":5.350669,"is_reserved":false,"is_disabled":false,"rental_uris":{"android":"levelo://app?vid=eb493fb7-22d4-43e3-afb6-2c2db0dae41b","ios":"levelo://app?vid=eb493fb7-22d4-43e3-afb6-2c2db0dae41b"},"vehicle_type_id":"4","last_reported":1762593006,"current_range_meters":11600,"station_id":"ce4bhbp2rcd13ifvqerg","pricing_plan_id":"cebpf4jnsgd1na2vs0mg"},{"bike_id":"25b5592b-971d-495a-b72c-d7d4eaabefb2","system_id":"levelo_inurba_marseille","lat":43.27368,"lon":5.36253,"is_reserved":false,"is_disabled":false,"rental_uris":{"android":"levelo://app?vid=25b5592b-971d-495a-b72c-d7d4eaabefb2","ios":"levelo://app?vid=25b5592b-971d-495a-b72c-d7d4eaabefb2"},"vehicle_type_id":"4","last_reported":1762593006,"current_range_meters":11600,"station_id":"ce4bhbh2rcd13ifvqeo0","pricing_plan_id":"cebpf4jnsgd1na2vs0mg"},{"bike_id":"1bf477b3-55e6-4f59-a7a7-7034928d8403","system_id":"levelo_inurba_marseille","lat":43.25319,"lon":5.42154,"is_reserved":false,"is_disabled":false,"rental_uris":{"android":"levelo://app?vid=1bf477b3-55e6-4f59-a7a7-7034928d8403","ios":"levelo://app?vid=1bf477b3-55e6-4f59-a7a7-7034928d8403"},"vehicle_type_id":"4","last_reported":1762593006,"current_range_meters":11600,"station_id":"st_d2m65c5bi1j21697t3ng","pricing_plan_id":"cebpf4jnsgd1na2vs0mg"},{"bike_id":"7a399f82-0892-45c9-a828-80f939bd334e","system_id":"levelo_inurba_marseille","lat":43.27376,"lon":5.3625,"is_reserved":false,"is_disabled":false,"rental_uris":{"android":"levelo://app?vid=7a399f82-0892-45c9-a828-80f939bd334e","ios":"levelo://app?vid=7a399f82-0892-45c9-a828-80f939bd334e"},"vehicle_type_id":"4","last_reported":1762593006,"current_range_meters":12000,"station_id":"ce4bhbh2rcd13ifvqeo0","pricing_plan_id":"cebpf4jnsgd1na2vs0mg"},{"bike_id":"2f373a5f-e6e9-4abe-805d-f20b12d39ee9","system_id":"levelo_inurba_marseille","lat":43.249609,"lon":5.404782,"is_reserved":false,"is_disabled":false,"rental_uris":{"android":"levelo://app?vid=2f373a5f-e6e9-4abe-805d-f20b12d39ee9","ios":"levelo://app?vid=2f373a5f-e6e9-4abe-805d-f20b12d39ee9"},"vehicle_type_id":"4","last_reported":1762593006,"current_range_meters":12000,"station_id":"st_d2ngiaodas8pm72gd1h0","pricing_plan_id":"cebpf4jnsgd1na2vs0mg"},{"bike_id":"a4b610ef-5dc5-47fb-9228-87e17fe490d3","system_id":"levelo_inurba_marseille","lat":43.270767,"lon":5.422694,"is_reserved":false,"is_disabled":true,"rental_uris":{"android":"levelo://app?vid=a4b610ef-5dc5-47fb-9228-87e17fe490d3","ios":"levelo://app?vid=a4b610ef-5dc5-47fb-9228-87e17fe490d3"},"vehicle_type_id":"4","last_reported":1762593006,"current_range_meters":12000,"station_id":"ce4bhk92rcd13ifvqgb0","pricing_plan_id":"cebpf4jnsgd1na2vs0mg"},{"bike_id":"3b294fa9-3f9f-4381-a2a8-e3592d375a68","system_id":"levelo_inurba_marseille","lat":43.2669,"lon":5.39684,"is_reserved":false,"is_disabled":false,"rental_uris":{"android":"levelo://app?vid=3b294fa9-3f9f-4381-a2a8-e3592d375a68","ios":"levelo://app?vid=3b294fa9-3f9f-4381-a2a8-e3592d375a68"},"vehicle_type_id":"4","last_reported":1762593006,"current_range_meters":12000,"station_id":"","pricing_plan_id":"cebpf4jnsgd1na2vs0mg"},{"bike_id":"757599eb-51ee-4c92-80f1-2bbcbba2438b","system_id":"levelo_inurba_marseille","lat":43.29009,"lon":5.35601,"is_reserved":false,"is_disabled":false,"rental_uris":{"android":"levelo://app?vid=757599eb-51ee-4c92-80f1-2bbcbba2438b","ios":"levelo://app?vid=757599eb-51ee-4c92-80f1-2bbcbba2438b"},"vehicle_type_id":"4","last_reported":1762593006,"current_range_meters":12400,"station_id":"ce4bhb92rcd13ifvqen0","pricing_plan_id":"cebpf4jnsgd1na2vs0mg"},{"bike_id":"29cf3847-f099-42d5-9c47-7deb0213c3ad","system_id":"levelo_inurba_marseille","lat":43.28055,"lon":5.40847,"is_reserved":false,"is_disabled":false,"rental_uris":{"android":"levelo://app?vid=29cf3847-f099-42d5-9c47-7deb0213c3ad","ios":"levelo://app?vid=29cf3847-f099-42d5-9c47-7deb0213c3ad"},"vehicle_type_id":"4","last_reported":1762593006,"current_range_meters":12400,"station_id":"","pricing_plan_id":"cebpf4jnsgd1na2vs0mg"},{"bike_id":"06f59d9a-5839-4467-a505-be65276aa5da","system_id":"levelo_inurba_marseille","lat":43.25495,"lon":5.37649,"is_reserved":false,"is_disabled":false,"rental_uris":{"android":"levelo://app?vid=06f59d9a-5839-4467-a505-be65276aa5da","ios":"levelo://app?vid=06f59d9a-5839-4467-a505-be65276aa5da"},"vehicle_type_id":"4","last_reported":1762593006,"current_range_meters":12400,"station_id":"ce4bhh12rcd13ifvqff0","pricing_plan_id":"cebpf4jnsgd1na2vs0mg"},{"bike_id":"e12b069e-6626-4ec5-9dbe-18cc71084546","system_id":"levelo_inurba_marseille","lat":43.29224,"lon":5.36062,"is_reserved":false,"is_disabled":false,"rental_uris":{"android":"levelo://app?vid=e12b069e-6626-4ec5-9dbe-18cc71084546","ios":"levelo://app?vid=e12b069e-6626-4ec5-9dbe-18cc71084546"},"vehicle_type_id":"4","last_reported":1762593006,"current_range_meters":12400,"station_id":"ce4bhbh2rcd13ifvqeqg","pricing_plan_id":"cebpf4jnsgd1na2vs0mg"},{"bike_id":"08800a7f-3058-4ed0-a60f-c12bee9e25dd","system_id":"levelo_inurba_marseille","lat":43.24625,"lon":5.4313,"is_reserved":false,"is_disabled":false,"rental_uris":{"android":"levelo://app?vid=08800a7f-3058-4ed0-a60f-c12bee9e25dd","ios":"levelo://app?vid=08800a7f-3058-4ed0-a60f-c12bee9e25dd"},"vehicle_type_id":"4","last_reported":1762593006,"current_range_meters":12800,"station_id":"st_d2m6c4gdas8pm72e190g","pricing_plan_id":"cebpf4jnsgd1na2vs0mg"},{"bike_id":"a680ff65-75d5-4ec8-a4b4-7012b93f518c","system_id":"levelo_inurba_marseille","lat":43.29983,"lon":5.38486,"is_reserved":false,"is_disabled":false,"rental_uris":{"android":"levelo://app?vid=a680ff65-75d5-4ec8-a4b4-7012b93f518c","ios":"levelo://app?vid=a680ff65-75d5-4ec8-a4b4-7012b93f518c"},"vehicle_type_id":"4","last_reported":1762593006,"current_range_meters":12800,"station_id":"ce4bgj92rcd13ifvqbd0","pricing_plan_id":"cebpf4jnsgd1na2vs0mg"},{"bike_id":"d510b29d-06c6-4a67-8cee-2182097a14e2","system_id":"levelo_inurba_marseille","lat":43.29281,"lon":5.37613,"is_reserved":false,"is_disabled":true,"rental_uris":{"android":"levelo://app?vid=d510b29d-06c6-4a67-8cee-2182097a14e2","ios":"levelo://app?vid=d510b29d-06c6-4a67-8cee-2182097a14e2"},"vehicle_type_id":"4","last_reported":1762593006,"current_range_meters":12800,"station_id":"ce4bgi12rcd13ifvqb80","pricing_plan_id":"cebpf4jnsgd1na2vs0mg"},{"bike_id":"89a5bbd1-095f-4352-a2e3-cb62f8f5ac94","system_id":"levelo_inurba_marseille","lat":43.26499,"lon":5.39535,"is_reserved":false,"is_disabled":false,"rental_uris":{"android":"levelo://app?vid=89a5bbd1-095f-4352-a2e3-cb62f8f5ac94","ios":"levelo://app?vid=89a5bbd1-095f-4352-a2e3-cb62f8f5ac94"},"vehicle_type_id":"4","last_reported":1762593006,"current_range_meters":12800,"station_id":"ce4bhi12rcd13ifvqfq0","pricing_plan_id":"cebpf4jnsgd1na2vs0mg"},{"bike_id":"c748f4a4-0eae-4507-ae90-4004e54712a2","system_id":"levelo_inurba_marseille","lat":43.33524,"lon":5.410379,"is_reserved":false,"is_disabled":false,"rental_uris":{"android":"levelo://app?vid=c748f4a4-0eae-4507-ae90-4004e54712a2","ios":"levelo://app?vid=c748f4a4-0eae-4507-ae90-4004e54712a2"},"vehicle_type_id":"4","last_reported":1762593006,"current_range_meters":12800,"station_id":"ce4bhqh2rcd13ifvqhmg","pricing_plan_id":"cebpf4jnsgd1na2vs0mg"},{"bike_id":"58df984d-f6ad-47ef-818a-7818e887c7c9","system_id":"levelo_inurba_marseille","lat":43.30131,"lon":5.43096,"is_reserved":false,"is_disabled":false,"rental_uris":{"android":"levelo://app?vid=58df984d-f6ad-47ef-818a-7818e887c7c9","ios":"levelo://app?vid=58df984d-f6ad-47ef-818a-7818e887c7c9"},"vehicle_type_id":"4","last_reported":1762593006,"current_range_meters":13600,"station_id":"st_d3js3co5814s73ftftug","pricing_plan_id":"cebpf4jnsgd1na2vs0mg"},{"bike_id":"652ac06c-c620-4138-8feb-58185b3c4145","system_id":"levelo_inurba_marseille","lat":43.30125,"lon":5.398622,"is_reserved":false,"is_disabled":false,"rental_uris":{"android":"levelo://app?vid=652ac06c-c620-4138-8feb-58185b3c4145","ios":"levelo://app?vid=652ac06c-c620-4138-8feb-58185b3c4145"},"vehicle_type_id":"4","last_reported":1762593006,"current_range_meters":13600,"station_id":"","pricing_plan_id":"cebpf4jnsgd1na2vs0mg"},{"bike_id":"0c5c19f2-426c-43e3-b284-708f087fa98a","system_id":"levelo_inurba_marseille","lat":43.299435,"lon":5.365359,"is_reserved":false,"is_disabled":false,"rental_uris":{"android":"levelo://app?vid=0c5c19f2-426c-43e3-b284-708f087fa98a","ios":"levelo://app?vid=0c5c19f2-426c-43e3-b284-708f087fa98a"},"vehicle_type_id":"4","last_reported":1762593006,"current_range_meters":13600,"station_id":"ce4bgm92rcd13ifvqbr0","pricing_plan_id":"cebpf4jnsgd1na2vs0mg"},{"bike_id":"46748178-17b8-4dc8-80b3-39159ff743e0","system_id":"levelo_inurba_marseille","lat":43.30054,"lon":5.38293,"is_reserved":false,"is_disabled":false,"rental_uris":{"android":"levelo://app?vid=46748178-17b8-4dc8-80b3-39159ff743e0","ios":"levelo://app?vid=46748178-17b8-4dc8-80b3-39159ff743e0"},"vehicle_type_id":"4","last_reported":1762593006,"current_range_meters":13600,"station_id":"","pricing_plan_id":"cebpf4jnsgd1na2vs0mg"},{"bike_id":"a718cc29-6f54-49e3-862a-351d7a32001f","system_id":"levelo_inurba_marseille","lat":43.284818,"lon":5.484007,"is_reserved":false,"is_disabled":false,"rental_uris":{"android":"levelo://app?vid=a718cc29-6f54-49e3-862a-351d7a32001f","ios":"levelo://app?vid=a718cc29-6f54-49e3-862a-351d7a32001f"},"vehicle_type_id":"4","last_reported":1762593006,"current_range_meters":13600,"station_id":"","pricing_plan_id":"cebpf4jnsgd1na2vs0mg"},{"bike_id":"05304b88-08bd-4258-888f-ad77e8550455","system_id":"levelo_inurba_marseille","lat":43.28038,"lon":5.36936,"is_reserved":false,"is_disabled":false,"rental_uris":{"android":"levelo://app?vid=05304b88-08bd-4258-888f-ad77e8550455","ios":"levelo://app?vid=05304b88-08bd-4258-888f-ad77e8550455"},"vehicle_type_id":"4","last_reported":1762593006,"current_range_meters":13600,"station_id":"ce4bha12rcd13ifvqef0","pricing_plan_id":"cebpf4jnsgd1na2vs0mg"},{"bike_id":"65c6be5e-7566-45a1-99cf-c105e6b5b495","system_id":"levelo_inurba_marseille","lat":43.30159,"lon":5.38083,"is_reserved":false,"is_disabled":false,"rental_uris":{"android":"levelo://app?vid=65c6be5e-7566-45a1-99cf-c105e6b5b495","ios":"levelo://app?vid=65c6be5e-7566-45a1-99cf-c105e6b5b495"},"vehicle_type_id":"4","last_reported":1762593006,"current_range_meters":13600,"station_id":"ce4bgjp2rcd13ifvqbh0","pricing_plan_id":"cebpf4jnsgd1na2vs0mg"},{"bike_id":"e77852c2-33bc-47ad-b7ea-d6c83bc7fe1a","system_id":"levelo_inurba_marseille","lat":43.29275,"lon":5.40144,"is_reserved":false,"is_disabled":true,"rental_uris":{"android":"levelo://app?vid=e77852c2-33bc-47ad-b7ea-d6c83bc7fe1a","ios":"levelo://app?vid=e77852c2-33bc-47ad-b7ea-d6c83bc7fe1a"},"vehicle_type_id":"4","last_reported":1762593006,"current_range_meters":14000,"station_id":"ce4bh312rcd13ifvqdk0","pricing_plan_id":"cebpf4jnsgd1na2vs0mg"},{"bike_id":"66ede687-7d6f-461f-b962-d2e7e57ee6c2","system_id":"levelo_inurba_marseille","lat":43.284378,"lon":5.392076,"is_reserved":false,"is_disabled":false,"rental_uris":{"android":"levelo://app?vid=66ede687-7d6f-461f-b962-d2e7e57ee6c2","ios":"levelo://app?vid=66ede687-7d6f-461f-b962-d2e7e57ee6c2"},"vehicle_type_id":"4","last_reported":1762593006,"current_range_meters":14000,"station_id":"ce4bhoh2rcd13ifvqh5g","pricing_plan_id":"cebpf4jnsgd1na2vs0mg"},{"bike_id":"8311171f-809c-443a-8011-692afb49e5d2","system_id":"levelo_inurba_marseille","lat":43.28269,"lon":5.35063,"is_reserved":false,"is_disabled":false,"rental_uris":{"android":"levelo://app?vid=8311171f-809c-443a-8011-692afb49e5d2","ios":"levelo://app?vid=8311171f-809c-443a-8011-692afb49e5d2"},"vehicle_type_id":"4","last_reported":1762593006,"current_range_meters":14000,"station_id":"ce4bhbp2rcd13ifvqerg","pricing_plan_id":"cebpf4jnsgd1na2vs0mg"},{"bike_id":"74bb8ce2-1ec5-4414-94bf-bc4889d1e14c","system_id":"levelo_inurba_marseille","lat":43.324767,"lon":5.395437,"is_reserved":false,"is_disabled":false,"rental_uris":{"android":"levelo://app?vid=74bb8ce2-1ec5-4414-94bf-bc4889d1e14c","ios":"levelo://app?vid=74bb8ce2-1ec5-4414-94bf-bc4889d1e14c"},"vehicle_type_id":"4","last_reported":1762593006,"current_range_meters":14000,"station_id":"","pricing_plan_id":"cebpf4jnsgd1na2vs0mg"},{"bike_id":"0156806f-c055-4737-9c0a-1e173ed8da66","system_id":"levelo_inurba_marseille","lat":43.27214,"lon":5.39167,"is_reserved":false,"is_disabled":false,"rental_uris":{"android":"levelo://app?vid=0156806f-c055-4737-9c0a-1e173ed8da66","ios":"levelo://app?vid=0156806f-c055-4737-9c0a-1e173ed8da66"},"vehicle_type_id":"4","last_reported":1762593006,"current_range_meters":14000,"station_id":"ce4bhhp2rcd13ifvqfm0","pricing_plan_id":"cebpf4jnsgd1na2vs0mg"},{"bike_id":"c006eebd-22d1-492e-aeb9-34fd1a08d045","system_id":"levelo_inurba_marseille","lat":43.28925,"lon":5.36641,"is_reserved":false,"is_disabled":false,"rental_uris":{"android":"levelo://app?vid=c006eebd-22d1-492e-aeb9-34fd1a08d045","ios":"levelo://app?vid=c006eebd-22d1-492e-aeb9-34fd1a08d045"},"vehicle_type_id":"4","last_reported":1762593006,"current_range_meters":14400,"station_id":"ce4bhap2rcd13ifvqek0","pricing_plan_id":"cebpf4jnsgd1na2vs0mg"},{"bike_id":"6ba0f1d1-5706-4a14-b89f-505a4c6aa756","system_id":"levelo_inurba_marseille","lat":43.294883,"lon":5.432999,"is_reserved":false,"is_disabled":false,"rental_uris":{"android":"levelo://app?vid=6ba0f1d1-5706-4a14-b89f-505a4c6aa756","ios":"levelo://app?vid=6ba0f1d1-5706-4a14-b89f-505a4c6aa756"},"vehicle_type_id":"4","last_reported":1762593006,"current_range_meters":14400,"station_id":"st_d3j5ugp08ojc73fj9d10","pricing_plan_id":"cebpf4jnsgd1na2vs0mg"},{"bike_id":"dff6b6ac-b7da-4e65-b854-fe9dc1ccc19c","system_id":"levelo_inurba_marseille","lat":43.32054,"lon":5.41577,"is_reserved":false,"is_disabled":false,"rental_uris":{"android":"levelo://app?vid=dff6b6ac-b7da-4e65-b854-fe9dc1ccc19c","ios":"levelo://app?vid=dff6b6ac-b7da-4e65-b854-fe9dc1ccc19c"},"vehicle_type_id":"4","last_reported":1762593006,"current_range_meters":14400,"station_id":"ce4bhq92rcd13ifvqhkg","pricing_plan_id":"cebpf4jnsgd1na2vs0mg"},{"bike_id":"eb24a2bd-2b28-4cb0-b958-b275082fe034","system_id":"levelo_inurba_marseille","lat":43.2534,"lon":5.42161,"is_reserved":false,"is_disabled":false,"rental_uris":{"android":"levelo://app?vid=eb24a2bd-2b28-4cb0-b958-b275082fe034","ios":"levelo://app?vid=eb24a2bd-2b28-4cb0-b958-b275082fe034"},"vehicle_type_id":"4","last_reported":1762593006,"current_range_meters":14400,"station_id":"st_d2m65c5bi1j21697t3ng","pricing_plan_id":"cebpf4jnsgd1na2vs0mg"},{"bike_id":"ca06630c-cd58-47fd-a4f0-6635c015d1a3","system_id":"levelo_inurba_marseille","lat":43.30152,"lon":5.38092,"is_reserved":false,"is_disabled":false,"rental_uris":{"android":"levelo://app?vid=ca06630c-cd58-47fd-a4f0-6635c015d1a3","ios":"levelo://app?vid=ca06630c-cd58-47fd-a4f0-6635c015d1a3"},"vehicle_type_id":"4","last_reported":1762593006,"current_range_meters":14800,"station_id":"ce4bgjp2rcd13ifvqbh0","pricing_plan_id":"cebpf4jnsgd1na2vs0mg"},{"bike_id":"e06aa656-202c-4f17-9192-701f3525e4ab","system_id":"levelo_inurba_marseille","lat":43.337443,"lon":5.37462,"is_reserved":false,"is_disabled":false,"rental_uris":{"android":"levelo://app?vid=e06aa656-202c-4f17-9192-701f3525e4ab","ios":"levelo://app?vid=e06aa656-202c-4f17-9192-701f3525e4ab"},"vehicle_type_id":"4","last_reported":1762593006,"current_range_meters":14800,"station_id":"","pricing_plan_id":"cebpf4jnsgd1na2vs0mg"},{"bike_id":"239c858d-7982-4aa9-ac75-31cef5e5ac93","system_id":"levelo_inurba_marseille","lat":43.29581,"lon":5.36742,"is_reserved":false,"is_disabled":false,"rental_uris":{"android":"levelo://app?vid=239c858d-7982-4aa9-ac75-31cef5e5ac93","ios":"levelo://app?vid=239c858d-7982-4aa9-ac75-31cef5e5ac93"},"vehicle_type_id":"4","last_reported":1762593006,"current_range_meters":14800,"station_id":"ce4bgph2rcd13ifvqc2g","pricing_plan_id":"cebpf4jnsgd1na2vs0mg"},{"bike_id":"f4d93ad5-82a1-4e57-9bcb-fab27fded0c4","system_id":"levelo_inurba_marseille","lat":43.27208,"lon":5.39179,"is_reserved":false,"is_disabled":false,"rental_uris":{"android":"levelo://app?vid=f4d93ad5-82a1-4e57-9bcb-fab27fded0c4","ios":"levelo://app?vid=f4d93ad5-82a1-4e57-9bcb-fab27fded0c4"},"vehicle_type_id":"4","last_reported":1762593006,"current_range_meters":15200,"station_id":"ce4bhhp2rcd13ifvqfm0","pricing_plan_id":"cebpf4jnsgd1na2vs0mg"},{"bike_id":"d2991a60-dcfa-4252-8f9d-bfff4b1dc433","system_id":"levelo_inurba_marseille","lat":43.31091,"lon":5.37174,"is_reserved":false,"is_disabled":false,"rental_uris":{"android":"levelo://app?vid=d2991a60-dcfa-4252-8f9d-bfff4b1dc433","ios":"levelo://app?vid=d2991a60-dcfa-4252-8f9d-bfff4b1dc433"},"vehicle_type_id":"4","last_reported":1762593006,"current_range_meters":15200,"station_id":"","pricing_plan_id":"cebpf4jnsgd1na2vs0mg"},{"bike_id":"4bce02cb-bdba-488a-a39f-eae80d4c7da8","system_id":"levelo_inurba_marseille","lat":43.28236,"lon":5.39061,"is_reserved":false,"is_disabled":true,"rental_uris":{"android":"levelo://app?vid=4bce02cb-bdba-488a-a39f-eae80d4c7da8","ios":"levelo://app?vid=4bce02cb-bdba-488a-a39f-eae80d4c7da8"},"vehicle_type_id":"4","last_reported":1762593006,"current_range_meters":15200,"station_id":"ce4bhn92rcd13ifvqgsg","pricing_plan_id":"cebpf4jnsgd1na2vs0mg"},{"bike_id":"41e3ce19-32f1-408b-9926-0ccafae4e7e1","system_id":"levelo_inurba_marseille","lat":43.28262,"lon":5.35066,"is_reserved":false,"is_disabled":false,"rental_uris":{"android":"levelo://app?vid=41e3ce19-32f1-408b-9926-0ccafae4e7e1","ios":"levelo://app?vid=41e3ce19-32f1-408b-9926-0ccafae4e7e1"},"vehicle_type_id":"4","last_reported":1762593006,"current_range_meters":16000,"station_id":"ce4bhbp2rcd13ifvqerg","pricing_plan_id":"cebpf4jnsgd1na2vs0mg"},{"bike_id":"3439a8cb-8214-4321-b614-d69fa7098072","system_id":"levelo_inurba_marseille","lat":43.31275,"lon":5.38954,"is_reserved":false,"is_disabled":false,"rental_uris":{"android":"levelo://app?vid=3439a8cb-8214-4321-b614-d69fa7098072","ios":"levelo://app?vid=3439a8cb-8214-4321-b614-d69fa7098072"},"vehicle_type_id":"4","last_reported":1762593006,"current_range_meters":16000,"station_id":"","pricing_plan_id":"cebpf4jnsgd1na2vs0mg"},{"bike_id":"bbf70108-510c-4f86-9f4b-23e9766d9b05","system_id":"levelo_inurba_marseille","lat":43.30164,"lon":5.3808,"is_reserved":false,"is_disabled":false,"rental_uris":{"android":"levelo://app?vid=bbf70108-510c-4f86-9f4b-23e9766d9b05","ios":"levelo://app?vid=bbf70108-510c-4f86-9f4b-23e9766d9b05"},"vehicle_type_id":"4","last_reported":1762593006,"current_range_meters":16000,"station_id":"ce4bgjp2rcd13ifvqbh0","pricing_plan_id":"cebpf4jnsgd1na2vs0mg"},{"bike_id":"983dfb64-9c72-4a1c-a3a8-71c6de7d4885","system_id":"levelo_inurba_marseille","lat":43.303075,"lon":5.369062,"is_reserved":false,"is_disabled":true,"rental_uris":{"android":"levelo://app?vid=983dfb64-9c72-4a1c-a3a8-71c6de7d4885","ios":"levelo://app?vid=983dfb64-9c72-4a1c-a3a8-71c6de7d4885"},"vehicle_type_id":"4","last_reported":1762593006,"current_range_meters":16400,"station_id":"ce4bgqh2rcd13ifvqc5g","pricing_plan_id":"cebpf4jnsgd1na2vs0mg"},{"bike_id":"cfe6041c-eeb8-4331-88ac-3d89c3a5f24a","system_id":"levelo_inurba_marseille","lat":43.2986,"lon":5.36283,"is_reserved":false,"is_disabled":false,"rental_uris":{"android":"levelo://app?vid=cfe6041c-eeb8-4331-88ac-3d89c3a5f24a","ios":"levelo://app?vid=cfe6041c-eeb8-4331-88ac-3d89c3a5f24a"},"vehicle_type_id":"4","last_reported":1762593006,"current_range_meters":16400,"station_id":"ce4bgpp2rcd13ifvqc3g","pricing_plan_id":"cebpf4jnsgd1na2vs0mg"},{"bike_id":"aa1eec89-7f75-4e60-8caf-7b88980efd4a","system_id":"levelo_inurba_marseille","lat":43.27373,"lon":5.36253,"is_reserved":false,"is_disabled":false,"rental_uris":{"android":"levelo://app?vid=aa1eec89-7f75-4e60-8caf-7b88980efd4a","ios":"levelo://app?vid=aa1eec89-7f75-4e60-8caf-7b88980efd4a"},"vehicle_type_id":"4","last_reported":1762593006,"current_range_meters":16400,"station_id":"ce4bhbh2rcd13ifvqeo0","pricing_plan_id":"cebpf4jnsgd1na2vs0mg"},{"bike_id":"be9dbc5e-3613-4c65-8d26-e2868783517d","system_id":"levelo_inurba_marseille","lat":43.30613,"lon":5.39353,"is_reserved":false,"is_disabled":false,"rental_uris":{"android":"levelo://app?vid=be9dbc5e-3613-4c65-8d26-e2868783517d","ios":"levelo://app?vid=be9dbc5e-3613-4c65-8d26-e2868783517d"},"vehicle_type_id":"4","last_reported":1762593006,"current_range_meters":16400,"station_id":"ce4bh0p2rcd13ifvqd80","pricing_plan_id":"cebpf4jnsgd1na2vs0mg"},{"bike_id":"099d54dc-1153-468f-a2db-9faf8a27aefd","system_id":"levelo_inurba_marseille","lat":43.29608,"lon":5.37726,"is_reserved":false,"is_disabled":false,"rental_uris":{"android":"levelo://app?vid=099d54dc-1153-468f-a2db-9faf8a27aefd","ios":"levelo://app?vid=099d54dc-1153-468f-a2db-9faf8a27aefd"},"vehicle_type_id":"4","last_reported":1762593006,"current_range_meters":16400,"station_id":"ce4bgi92rcd13ifvqb90","pricing_plan_id":"cebpf4jnsgd1na2vs0mg"},{"bike_id":"0fe28076-79a4-4c58-8cb9-d4750cea7c8d","system_id":"levelo_inurba_marseille","lat":43.25331,"lon":5.42172,"is_reserved":false,"is_disabled":false,"rental_uris":{"android":"levelo://app?vid=0fe28076-79a4-4c58-8cb9-d4750cea7c8d","ios":"levelo://app?vid=0fe28076-79a4-4c58-8cb9-d4750cea7c8d"},"vehicle_type_id":"4","last_reported":1762593006,"current_range_meters":16400,"station_id":"st_d2m65c5bi1j21697t3ng","pricing_plan_id":"cebpf4jnsgd1na2vs0mg"},{"bike_id":"2922600f-d584-4950-aefa-70c5fe9180b6","system_id":"levelo_inurba_marseille","lat":43.29247,"lon":5.36135,"is_reserved":false,"is_disabled":false,"rental_uris":{"android":"levelo://app?vid=2922600f-d584-4950-aefa-70c5fe9180b6","ios":"levelo://app?vid=2922600f-d584-4950-aefa-70c5fe9180b6"},"vehicle_type_id":"4","last_reported":1762593006,"current_range_meters":16400,"station_id":"","pricing_plan_id":"cebpf4jnsgd1na2vs0mg"},{"bike_id":"33a5b7bf-6d64-4ae6-bdcb-20730f349367","system_id":"levelo_inurba_marseille","lat":43.30933,"lon":5.40137,"is_reserved":false,"is_disabled":false,"rental_uris":{"android":"levelo://app?vid=33a5b7bf-6d64-4ae6-bdcb-20730f349367","ios":"levelo://app?vid=33a5b7bf-6d64-4ae6-bdcb-20730f349367"},"vehicle_type_id":"4","last_reported":1762593006,"current_range_meters":16800,"station_id":"ce4bgvp2rcd13ifvqct0","pricing_plan_id":"cebpf4jnsgd1na2vs0mg"},{"bike_id":"9e1b0508-9718-4838-ba3f-5fbec5c9ff14","system_id":"levelo_inurba_marseille","lat":43.284126,"lon":5.349773,"is_reserved":false,"is_disabled":true,"rental_uris":{"android":"levelo://app?vid=9e1b0508-9718-4838-ba3f-5fbec5c9ff14","ios":"levelo://app?vid=9e1b0508-9718-4838-ba3f-5fbec5c9ff14"},"vehicle_type_id":"4","last_reported":1762593006,"current_range_meters":16800,"station_id":"ce4bhbh2rcd13ifvqepg","pricing_plan_id":"cebpf4jnsgd1na2vs0mg"},{"bike_id":"9012bcf8-bb63-442b-8823-1b956a32ae9e","system_id":"levelo_inurba_marseille","lat":43.30126,"lon":5.43114,"is_reserved":false,"is_disabled":false,"rental_uris":{"android":"levelo://app?vid=9012bcf8-bb63-442b-8823-1b956a32ae9e","ios":"levelo://app?vid=9012bcf8-bb63-442b-8823-1b956a32ae9e"},"vehicle_type_id":"4","last_reported":1762593006,"current_range_meters":16800,"station_id":"st_d3js3co5814s73ftftug","pricing_plan_id":"cebpf4jnsgd1na2vs0mg"},{"bike_id":"925866b3-6873-40d9-b75d-4fc5d99e2d54","system_id":"levelo_inurba_marseille","lat":43.30792,"lon":5.3816,"is_reserved":false,"is_disabled":false,"rental_uris":{"android":"levelo://app?vid=925866b3-6873-40d9-b75d-4fc5d99e2d54","ios":"levelo://app?vid=925866b3-6873-40d9-b75d-4fc5d99e2d54"},"vehicle_type_id":"4","last_reported":1762593006,"current_range_meters":16800,"station_id":"ce4bgt12rcd13ifvqce0","pricing_plan_id":"cebpf4jnsgd1na2vs0mg"},{"bike_id":"491e9827-9a50-4ebd-9de9-717b1c4b1f4b","system_id":"levelo_inurba_marseille","lat":43.31326,"lon":5.3969,"is_reserved":false,"is_disabled":false,"rental_uris":{"android":"levelo://app?vid=491e9827-9a50-4ebd-9de9-717b1c4b1f4b","ios":"levelo://app?vid=491e9827-9a50-4ebd-9de9-717b1c4b1f4b"},"vehicle_type_id":"4","last_reported":1762593006,"current_range_meters":16800,"station_id":"ce4bgvp2rcd13ifvqcu0","pricing_plan_id":"cebpf4jnsgd1na2vs0mg"},{"bike_id":"309a1e5e-51c8-4860-8bb7-12924ece393e","system_id":"levelo_inurba_marseille","lat":43.31005,"lon":5.37496,"is_reserved":false,"is_disabled":false,"rental_uris":{"android":"levelo://app?vid=309a1e5e-51c8-4860-8bb7-12924ece393e","ios":"levelo://app?vid=309a1e5e-51c8-4860-8bb7-12924ece393e"},"vehicle_type_id":"4","last_reported":1762593006,"current_range_meters":16800,"station_id":"","pricing_plan_id":"cebpf4jnsgd1na2vs0mg"},{"bike_id":"65d83eaf-428a-43cd-a356-ecaed95948ff","system_id":"levelo_inurba_marseille","lat":43.24841,"lon":5.39797,"is_reserved":false,"is_disabled":false,"rental_uris":{"android":"levelo://app?vid=65d83eaf-428a-43cd-a356-ecaed95948ff","ios":"levelo://app?vid=65d83eaf-428a-43cd-a356-ecaed95948ff"},"vehicle_type_id":"4","last_reported":1762593006,"current_range_meters":17200,"station_id":"","pricing_plan_id":"cebpf4jnsgd1na2vs0mg"},{"bike_id":"53529ee7-fa79-4bfe-8ac3-2ffb63a46b11","system_id":"levelo_inurba_marseille","lat":43.31805,"lon":5.38822,"is_reserved":false,"is_disabled":false,"rental_uris":{"android":"levelo://app?vid=53529ee7-fa79-4bfe-8ac3-2ffb63a46b11","ios":"levelo://app?vid=53529ee7-fa79-4bfe-8ac3-2ffb63a46b11"},"vehicle_type_id":"4","last_reported":1762593006,"current_range_meters":17200,"station_id":"","pricing_plan_id":"cebpf4jnsgd1na2vs0mg"},{"bike_id":"c73c5513-728d-4700-9395-e31e4399cd51","system_id":"levelo_inurba_marseille","lat":43.291853,"lon":5.402918,"is_reserved":false,"is_disabled":false,"rental_uris":{"android":"levelo://app?vid=c73c5513-728d-4700-9395-e31e4399cd51","ios":"levelo://app?vid=c73c5513-728d-4700-9395-e31e4399cd51"},"vehicle_type_id":"4","last_reported":1762593006,"current_range_meters":17200,"station_id":"","pricing_plan_id":"cebpf4jnsgd1na2vs0mg"},{"bike_id":"15db09df-59b0-446a-87c5-e354a3319258","system_id":"levelo_inurba_marseille","lat":43.28484,"lon":5.48388,"is_reserved":false,"is_disabled":false,"rental_uris":{"android":"levelo://app?vid=15db09df-59b0-446a-87c5-e354a3319258","ios":"levelo://app?vid=15db09df-59b0-446a-87c5-e354a3319258"},"vehicle_type_id":"4","last_reported":1762593006,"current_range_meters":17200,"station_id":"","pricing_plan_id":"cebpf4jnsgd1na2vs0mg"},{"bike_id":"d9406ae0-a7d7-4070-8130-6f1d39eec4aa","system_id":"levelo_inurba_marseille","lat":43.28596,"lon":5.3707,"is_reserved":false,"is_disabled":false,"rental_uris":{"android":"levelo://app?vid=d9406ae0-a7d7-4070-8130-6f1d39eec4aa","ios":"levelo://app?vid=d9406ae0-a7d7-4070-8130-6f1d39eec4aa"},"vehicle_type_id":"4","last_reported":1762593006,"current_range_meters":17200,"station_id":"ce4bht12rcd13ifvqi60","pricing_plan_id":"cebpf4jnsgd1na2vs0mg"},{"bike_id":"06b572d6-d95a-4f1a-9a9a-b316897ad6d5","system_id":"levelo_inurba_marseille","lat":43.29545,"lon":5.3752,"is_reserved":false,"is_disabled":false,"rental_uris":{"android":"levelo://app?vid=06b572d6-d95a-4f1a-9a9a-b316897ad6d5","ios":"levelo://app?vid=06b572d6-d95a-4f1a-9a9a-b316897ad6d5"},"vehicle_type_id":"4","last_reported":1762593006,"current_range_meters":17200,"station_id":"ce4bgkp2rcd13ifvqbmg","pricing_plan_id":"cebpf4jnsgd1na2vs0mg"},{"bike_id":"f51d1ccd-a1ec-48b3-b995-f08e0103ff96","system_id":"levelo_inurba_marseille","lat":43.27672,"lon":5.38901,"is_reserved":false,"is_disabled":false,"rental_uris":{"android":"levelo://app?vid=f51d1ccd-a1ec-48b3-b995-f08e0103ff96","ios":"levelo://app?vid=f51d1ccd-a1ec-48b3-b995-f08e0103ff96"},"vehicle_type_id":"4","last_reported":1762593006,"current_range_meters":17200,"station_id":"ce4bhi12rcd13ifvqfo0","pricing_plan_id":"cebpf4jnsgd1na2vs0mg"},{"bike_id":"cf78c577-f784-4054-9298-4eadfd68926b","system_id":"levelo_inurba_marseille","lat":43.31176,"lon":5.39352,"is_reserved":false,"is_disabled":false,"rental_uris":{"android":"levelo://app?vid=cf78c577-f784-4054-9298-4eadfd68926b","ios":"levelo://app?vid=cf78c577-f784-4054-9298-4eadfd68926b"},"vehicle_type_id":"4","last_reported":1762593006,"current_range_meters":17200,"station_id":"","pricing_plan_id":"cebpf4jnsgd1na2vs0mg"},{"bike_id":"8582a586-3912-4818-9249-459b3c95239d","system_id":"levelo_inurba_marseille","lat":43.231477,"lon":5.437165,"is_reserved":false,"is_disabled":false,"rental_uris":{"android":"levelo://app?vid=8582a586-3912-4818-9249-459b3c95239d","ios":"levelo://app?vid=8582a586-3912-4818-9249-459b3c95239d"},"vehicle_type_id":"4","last_reported":1762593006,"current_range_meters":17600,"station_id":"ce4bhmp2rcd13ifvqgog","pricing_plan_id":"cebpf4jnsgd1na2vs0mg"},{"bike_id":"2fb7e599-67d9-4248-a320-dd2be3039c5f","system_id":"levelo_inurba_marseille","lat":43.29771,"lon":5.39007,"is_reserved":false,"is_disabled":false,"rental_uris":{"android":"levelo://app?vid=2fb7e599-67d9-4248-a320-dd2be3039c5f","ios":"levelo://app?vid=2fb7e599-67d9-4248-a320-dd2be3039c5f"},"vehicle_type_id":"4","last_reported":1762593006,"current_range_meters":17600,"station_id":"","pricing_plan_id":"cebpf4jnsgd1na2vs0mg"},{"bike_id":"378ef682-dcd4-4c48-ac4f-b07600e5cc4d","system_id":"levelo_inurba_marseille","lat":43.28721,"lon":5.37949,"is_reserved":false,"is_disabled":false,"rental_uris":{"android":"levelo://app?vid=378ef682-dcd4-4c48-ac4f-b07600e5cc4d","ios":"levelo://app?vid=378ef682-dcd4-4c48-ac4f-b07600e5cc4d"},"vehicle_type_id":"4","last_reported":1762593006,"current_range_meters":17600,"station_id":"ce4bh9p2rcd13ifvqec0","pricing_plan_id":"cebpf4jnsgd1na2vs0mg"},{"bike_id":"0e40b977-8772-43e1-98d4-439c6ff7226d","system_id":"levelo_inurba_marseille","lat":43.27362,"lon":5.36251,"is_reserved":false,"is_disabled":false,"rental_uris":{"android":"levelo://app?vid=0e40b977-8772-43e1-98d4-439c6ff7226d","ios":"levelo://app?vid=0e40b977-8772-43e1-98d4-439c6ff7226d"},"vehicle_type_id":"4","last_reported":1762593006,"current_range_meters":17600,"station_id":"ce4bhbh2rcd13ifvqeo0","pricing_plan_id":"cebpf4jnsgd1na2vs0mg"},{"bike_id":"f61d5205-9f56-4c50-901f-9e6ecb95d223","system_id":"levelo_inurba_marseille","lat":43.24069,"lon":5.37769,"is_reserved":false,"is_disabled":false,"rental_uris":{"android":"levelo://app?vid=f61d5205-9f56-4c50-901f-9e6ecb95d223","ios":"levelo://app?vid=f61d5205-9f56-4c50-901f-9e6ecb95d223"},"vehicle_type_id":"4","last_reported":1762593006,"current_range_meters":17600,"station_id":"ce4bhnp2rcd13ifvqgvg","pricing_plan_id":"cebpf4jnsgd1na2vs0mg"},{"bike_id":"ec3ac19f-2708-4c17-8ab9-77983f6aee60","system_id":"levelo_inurba_marseille","lat":43.23199,"lon":5.35547,"is_reserved":false,"is_disabled":false,"rental_uris":{"android":"levelo://app?vid=ec3ac19f-2708-4c17-8ab9-77983f6aee60","ios":"levelo://app?vid=ec3ac19f-2708-4c17-8ab9-77983f6aee60"},"vehicle_type_id":"4","last_reported":1762593006,"current_range_meters":17600,"station_id":"ce4bhu92rcd13ifvqi70","pricing_plan_id":"cebpf4jnsgd1na2vs0mg"},{"bike_id":"639e2119-feb2-41ef-a04a-8097682df0bb","system_id":"levelo_inurba_marseille","lat":43.31475,"lon":5.37298,"is_reserved":false,"is_disabled":false,"rental_uris":{"android":"levelo://app?vid=639e2119-feb2-41ef-a04a-8097682df0bb","ios":"levelo://app?vid=639e2119-feb2-41ef-a04a-8097682df0bb"},"vehicle_type_id":"4","last_reported":1762593006,"current_range_meters":17600,"station_id":"ce4bgt12rcd13ifvqcd0","pricing_plan_id":"cebpf4jnsgd1na2vs0mg"},{"bike_id":"95c2a582-1eba-4ebc-bdda-a353604dc20d","system_id":"levelo_inurba_marseille","lat":43.314876,"lon":5.372968,"is_reserved":false,"is_disabled":false,"rental_uris":{"android":"levelo://app?vid=95c2a582-1eba-4ebc-bdda-a353604dc20d","ios":"levelo://app?vid=95c2a582-1eba-4ebc-bdda-a353604dc20d"},"vehicle_type_id":"4","last_reported":1762593006,"current_range_meters":17600,"station_id":"ce4bgt12rcd13ifvqcd0","pricing_plan_id":"cebpf4jnsgd1na2vs0mg"},{"bike_id":"1a45f863-91ee-405d-8ab5-0e5299819332","system_id":"levelo_inurba_marseille","lat":43.30125,"lon":5.39851,"is_reserved":false,"is_disabled":false,"rental_uris":{"android":"levelo://app?vid=1a45f863-91ee-405d-8ab5-0e5299819332","ios":"levelo://app?vid=1a45f863-91ee-405d-8ab5-0e5299819332"},"vehicle_type_id":"4","last_reported":1762593006,"current_range_meters":17600,"station_id":"ce4bh0h2rcd13ifvqd40","pricing_plan_id":"cebpf4jnsgd1na2vs0mg"},{"bike_id":"3d786202-4265-4ff8-9dd9-e729b5ec6a80","system_id":"levelo_inurba_marseille","lat":43.27813,"lon":5.40706,"is_reserved":false,"is_disabled":false,"rental_uris":{"android":"levelo://app?vid=3d786202-4265-4ff8-9dd9-e729b5ec6a80","ios":"levelo://app?vid=3d786202-4265-4ff8-9dd9-e729b5ec6a80"},"vehicle_type_id":"4","last_reported":1762593006,"current_range_meters":17600,"station_id":"ce4bhnh2rcd13ifvqgtg","pricing_plan_id":"cebpf4jnsgd1na2vs0mg"},{"bike_id":"a3fc670e-6246-44cc-be04-017cbc4c499a","system_id":"levelo_inurba_marseille","lat":43.26495,"lon":5.39552,"is_reserved":false,"is_disabled":false,"rental_uris":{"android":"levelo://app?vid=a3fc670e-6246-44cc-be04-017cbc4c499a","ios":"levelo://app?vid=a3fc670e-6246-44cc-be04-017cbc4c499a"},"vehicle_type_id":"4","last_reported":1762593006,"current_range_meters":18000,"station_id":"ce4bhi12rcd13ifvqfq0","pricing_plan_id":"cebpf4jnsgd1na2vs0mg"},{"bike_id":"1b729129-9342-4894-9908-13a243ba50c3","system_id":"levelo_inurba_marseille","lat":43.27483,"lon":5.42433,"is_reserved":false,"is_disabled":true,"rental_uris":{"android":"levelo://app?vid=1b729129-9342-4894-9908-13a243ba50c3","ios":"levelo://app?vid=1b729129-9342-4894-9908-13a243ba50c3"},"vehicle_type_id":"4","last_reported":1762593006,"current_range_meters":18000,"station_id":"ce4bhn92rcd13ifvqgrg","pricing_plan_id":"cebpf4jnsgd1na2vs0mg"},{"bike_id":"28a71d57-b7a5-4879-9084-0c83588ea2f6","system_id":"levelo_inurba_marseille","lat":43.29594,"lon":5.381,"is_reserved":false,"is_disabled":false,"rental_uris":{"android":"levelo://app?vid=28a71d57-b7a5-4879-9084-0c83588ea2f6","ios":"levelo://app?vid=28a71d57-b7a5-4879-9084-0c83588ea2f6"},"vehicle_type_id":"4","last_reported":1762593006,"current_range_meters":18000,"station_id":"ce4bgl12rcd13ifvqbo0","pricing_plan_id":"cebpf4jnsgd1na2vs0mg"},{"bike_id":"ac1012d0-7872-4c6e-85e6-fc8eaff39396","system_id":"levelo_inurba_marseille","lat":43.28463,"lon":5.35882,"is_reserved":false,"is_disabled":true,"rental_uris":{"android":"levelo://app?vid=ac1012d0-7872-4c6e-85e6-fc8eaff39396","ios":"levelo://app?vid=ac1012d0-7872-4c6e-85e6-fc8eaff39396"},"vehicle_type_id":"4","last_reported":1762593006,"current_range_meters":18000,"station_id":"ce4bhah2rcd13ifvqei0","pricing_plan_id":"cebpf4jnsgd1na2vs0mg"},{"bike_id":"d944d73b-ea69-4cf1-a45f-3ab81e2fe1f6","system_id":"levelo_inurba_marseille","lat":43.29569,"lon":5.375238,"is_reserved":false,"is_disabled":false,"rental_uris":{"android":"levelo://app?vid=d944d73b-ea69-4cf1-a45f-3ab81e2fe1f6","ios":"levelo://app?vid=d944d73b-ea69-4cf1-a45f-3ab81e2fe1f6"},"vehicle_type_id":"4","last_reported":1762593006,"current_range_meters":18000,"station_id":"ce4bgh92rcd13ifvqb50","pricing_plan_id":"cebpf4jnsgd1na2vs0mg"},{"bike_id":"20419e9b-f15b-48a7-8991-ce0ca6ef3309","system_id":"levelo_inurba_marseille","lat":43.314946,"lon":5.372853,"is_reserved":false,"is_disabled":false,"rental_uris":{"android":"levelo://app?vid=20419e9b-f15b-48a7-8991-ce0ca6ef3309","ios":"levelo://app?vid=20419e9b-f15b-48a7-8991-ce0ca6ef3309"},"vehicle_type_id":"4","last_reported":1762593006,"current_range_meters":18800,"station_id":"ce4bgt12rcd13ifvqcd0","pricing_plan_id":"cebpf4jnsgd1na2vs0mg"},{"bike_id":"795dcb60-15e2-473d-8357-7eaddd3fe0e0","system_id":"levelo_inurba_marseille","lat":43.25587,"lon":5.38243,"is_reserved":false,"is_disabled":false,"rental_uris":{"android":"levelo://app?vid=795dcb60-15e2-473d-8357-7eaddd3fe0e0","ios":"levelo://app?vid=795dcb60-15e2-473d-8357-7eaddd3fe0e0"},"vehicle_type_id":"4","last_reported":1762593006,"current_range_meters":18800,"station_id":"ce4bhih2rcd13ifvqfs0","pricing_plan_id":"cebpf4jnsgd1na2vs0mg"},{"bike_id":"5ca7e156-456f-4551-95d1-e6d848f54d66","system_id":"levelo_inurba_marseille","lat":43.303834,"lon":5.42489,"is_reserved":false,"is_disabled":true,"rental_uris":{"android":"levelo://app?vid=5ca7e156-456f-4551-95d1-e6d848f54d66","ios":"levelo://app?vid=5ca7e156-456f-4551-95d1-e6d848f54d66"},"vehicle_type_id":"4","last_reported":1762593006,"current_range_meters":18800,"station_id":"ce4bhoh2rcd13ifvqh6g","pricing_plan_id":"cebpf4jnsgd1na2vs0mg"},{"bike_id":"79f7b99c-2121-4a7e-85f5-a862866da10b","system_id":"levelo_inurba_marseille","lat":43.30299,"lon":5.39212,"is_reserved":false,"is_disabled":false,"rental_uris":{"android":"levelo://app?vid=79f7b99c-2121-4a7e-85f5-a862866da10b","ios":"levelo://app?vid=79f7b99c-2121-4a7e-85f5-a862866da10b"},"vehicle_type_id":"4","last_reported":1762593006,"current_range_meters":18800,"station_id":"ce4bgkh2rcd13ifvqbk0","pricing_plan_id":"cebpf4jnsgd1na2vs0mg"},{"bike_id":"6e40ebcb-97cf-4e7d-83c4-17b6c04e849d","system_id":"levelo_inurba_marseille","lat":43.28863,"lon":5.42526,"is_reserved":false,"is_disabled":false,"rental_uris":{"android":"levelo://app?vid=6e40ebcb-97cf-4e7d-83c4-17b6c04e849d","ios":"levelo://app?vid=6e40ebcb-97cf-4e7d-83c4-17b6c04e849d"},"vehicle_type_id":"4","last_reported":1762593006,"current_range_meters":18800,"station_id":"st_d3b462108ojc7389ooeg","pricing_plan_id":"cebpf4jnsgd1na2vs0mg"},{"bike_id":"9b86eb38-757c-46db-be71-48b95ca2155c","system_id":"levelo_inurba_marseille","lat":43.29963,"lon":5.38498,"is_reserved":false,"is_disabled":false,"rental_uris":{"android":"levelo://app?vid=9b86eb38-757c-46db-be71-48b95ca2155c","ios":"levelo://app?vid=9b86eb38-757c-46db-be71-48b95ca2155c"},"vehicle_type_id":"4","last_reported":1762593006,"current_range_meters":18800,"station_id":"ce4bgj92rcd13ifvqbd0","pricing_plan_id":"cebpf4jnsgd1na2vs0mg"},{"bike_id":"2a98206d-ae1c-4849-805c-a6471bf2e6ca","system_id":"levelo_inurba_marseille","lat":43.299336,"lon":5.365439,"is_reserved":false,"is_disabled":false,"rental_uris":{"android":"levelo://app?vid=2a98206d-ae1c-4849-805c-a6471bf2e6ca","ios":"levelo://app?vid=2a98206d-ae1c-4849-805c-a6471bf2e6ca"},"vehicle_type_id":"4","last_reported":1762593006,"current_range_meters":18800,"station_id":"ce4bgm92rcd13ifvqbr0","pricing_plan_id":"cebpf4jnsgd1na2vs0mg"},{"bike_id":"d8a2355e-a776-4b85-8a3e-22368796688d","system_id":"levelo_inurba_marseille","lat":43.30791,"lon":5.36844,"is_reserved":false,"is_disabled":false,"rental_uris":{"android":"levelo://app?vid=d8a2355e-a776-4b85-8a3e-22368796688d","ios":"levelo://app?vid=d8a2355e-a776-4b85-8a3e-22368796688d"},"vehicle_type_id":"4","last_reported":1762593006,"current_range_meters":18800,"station_id":"","pricing_plan_id":"cebpf4jnsgd1na2vs0mg"},{"bike_id":"3b5e44bb-66b7-4be2-a0e8-b41e2051a92b","system_id":"levelo_inurba_marseille","lat":43.25728,"lon":5.41109,"is_reserved":false,"is_disabled":false,"rental_uris":{"android":"levelo://app?vid=3b5e44bb-66b7-4be2-a0e8-b41e2051a92b","ios":"levelo://app?vid=3b5e44bb-66b7-4be2-a0e8-b41e2051a92b"},"vehicle_type_id":"4","last_reported":1762593006,"current_range_meters":19200,"station_id":"ce4bhkp2rcd13ifvqgd0","pricing_plan_id":"cebpf4jnsgd1na2vs0mg"},{"bike_id":"07925b9c-02f4-4f2c-91df-3e2d937b2d54","system_id":"levelo_inurba_marseille","lat":43.27993,"lon":5.41638,"is_reserved":false,"is_disabled":false,"rental_uris":{"android":"levelo://app?vid=07925b9c-02f4-4f2c-91df-3e2d937b2d54","ios":"levelo://app?vid=07925b9c-02f4-4f2c-91df-3e2d937b2d54"},"vehicle_type_id":"4","last_reported":1762593006,"current_range_meters":19200,"station_id":"ce4bho12rcd13ifvqh1g","pricing_plan_id":"cebpf4jnsgd1na2vs0mg"},{"bike_id":"7d8fbbfd-dac6-4621-97e8-1f3eefc015db","system_id":"levelo_inurba_marseille","lat":43.30141,"lon":5.38086,"is_reserved":false,"is_disabled":false,"rental_uris":{"android":"levelo://app?vid=7d8fbbfd-dac6-4621-97e8-1f3eefc015db","ios":"levelo://app?vid=7d8fbbfd-dac6-4621-97e8-1f3eefc015db"},"vehicle_type_id":"4","last_reported":1762593006,"current_range_meters":19200,"station_id":"ce4bgjp2rcd13ifvqbh0","pricing_plan_id":"cebpf4jnsgd1na2vs0mg"},{"bike_id":"07a45692-c485-40fe-a2fa-8a4aea90b388","system_id":"levelo_inurba_marseille","lat":43.30167,"lon":5.38074,"is_reserved":false,"is_disabled":false,"rental_uris":{"android":"levelo://app?vid=07a45692-c485-40fe-a2fa-8a4aea90b388","ios":"levelo://app?vid=07a45692-c485-40fe-a2fa-8a4aea90b388"},"vehicle_type_id":"4","last_reported":1762593006,"current_range_meters":19200,"station_id":"ce4bgjp2rcd13ifvqbh0","pricing_plan_id":"cebpf4jnsgd1na2vs0mg"},{"bike_id":"3585dd0d-06ba-43cf-a48a-a08f0c0af516","system_id":"levelo_inurba_marseille","lat":43.27372,"lon":5.36267,"is_reserved":false,"is_disabled":false,"rental_uris":{"android":"levelo://app?vid=3585dd0d-06ba-43cf-a48a-a08f0c0af516","ios":"levelo://app?vid=3585dd0d-06ba-43cf-a48a-a08f0c0af516"},"vehicle_type_id":"4","last_reported":1762593006,"current_range_meters":19600,"station_id":"ce4bhbh2rcd13ifvqeo0","pricing_plan_id":"cebpf4jnsgd1na2vs0mg"},{"bike_id":"f4b3610c-ddfd-461d-9ea3-633c91510343","system_id":"levelo_inurba_marseille","lat":43.24633,"lon":5.43142,"is_reserved":false,"is_disabled":false,"rental_uris":{"android":"levelo://app?vid=f4b3610c-ddfd-461d-9ea3-633c91510343","ios":"levelo://app?vid=f4b3610c-ddfd-461d-9ea3-633c91510343"},"vehicle_type_id":"4","last_reported":1762593006,"current_range_meters":19600,"station_id":"st_d2m6c4gdas8pm72e190g","pricing_plan_id":"cebpf4jnsgd1na2vs0mg"},{"bike_id":"3e46d7d6-5986-4a58-b8da-702fc9c0a645","system_id":"levelo_inurba_marseille","lat":43.301719,"lon":5.366372,"is_reserved":false,"is_disabled":false,"rental_uris":{"android":"levelo://app?vid=3e46d7d6-5986-4a58-b8da-702fc9c0a645","ios":"levelo://app?vid=3e46d7d6-5986-4a58-b8da-702fc9c0a645"},"vehicle_type_id":"4","last_reported":1762593006,"current_range_meters":19600,"station_id":"ce4bgrh2rcd13ifvqc8g","pricing_plan_id":"cebpf4jnsgd1na2vs0mg"},{"bike_id":"4674d9f4-3d44-468c-a3d6-5f45963b3858","system_id":"levelo_inurba_marseille","lat":43.21173,"lon":5.3507,"is_reserved":false,"is_disabled":false,"rental_uris":{"android":"levelo://app?vid=4674d9f4-3d44-468c-a3d6-5f45963b3858","ios":"levelo://app?vid=4674d9f4-3d44-468c-a3d6-5f45963b3858"},"vehicle_type_id":"4","last_reported":1762593006,"current_range_meters":19600,"station_id":"st_cvj6sg6p6f1abm77japg","pricing_plan_id":"cebpf4jnsgd1na2vs0mg"},{"bike_id":"345285ad-10a7-49ef-b97f-7faa01587ccf","system_id":"levelo_inurba_marseille","lat":43.24631,"lon":5.431495,"is_reserved":false,"is_disabled":false,"rental_uris":{"android":"levelo://app?vid=345285ad-10a7-49ef-b97f-7faa01587ccf","ios":"levelo://app?vid=345285ad-10a7-49ef-b97f-7faa01587ccf"},"vehicle_type_id":"4","last_reported":1762593006,"current_range_meters":19600,"station_id":"st_d2m6c4gdas8pm72e190g","pricing_plan_id":"cebpf4jnsgd1na2vs0mg"},{"bike_id":"95b9f51d-46f7-48a7-917f-8885cd6dcbdc","system_id":"levelo_inurba_marseille","lat":43.27353,"lon":5.41511,"is_reserved":false,"is_disabled":false,"rental_uris":{"android":"levelo://app?vid=95b9f51d-46f7-48a7-917f-8885cd6dcbdc","ios":"levelo://app?vid=95b9f51d-46f7-48a7-917f-8885cd6dcbdc"},"vehicle_type_id":"4","last_reported":1762593006,"current_range_meters":19600,"station_id":"","pricing_plan_id":"cebpf4jnsgd1na2vs0mg"},{"bike_id":"024464bc-efe1-4d89-8270-70ec06dc7eca","system_id":"levelo_inurba_marseille","lat":43.31076,"lon":5.38358,"is_reserved":false,"is_disabled":false,"rental_uris":{"android":"levelo://app?vid=024464bc-efe1-4d89-8270-70ec06dc7eca","ios":"levelo://app?vid=024464bc-efe1-4d89-8270-70ec06dc7eca"},"vehicle_type_id":"4","last_reported":1762593006,"current_range_meters":19600,"station_id":"ce4bgv92rcd13ifvqcr0","pricing_plan_id":"cebpf4jnsgd1na2vs0mg"},{"bike_id":"f2c46f73-3079-4633-a1e9-872027ecc305","system_id":"levelo_inurba_marseille","lat":43.29881,"lon":5.39751,"is_reserved":false,"is_disabled":false,"rental_uris":{"android":"levelo://app?vid=f2c46f73-3079-4633-a1e9-872027ecc305","ios":"levelo://app?vid=f2c46f73-3079-4633-a1e9-872027ecc305"},"vehicle_type_id":"4","last_reported":1762593006,"current_range_meters":19600,"station_id":"ce4bh0h2rcd13ifvqd50","pricing_plan_id":"cebpf4jnsgd1na2vs0mg"},{"bike_id":"045d9afd-334b-4d41-bf2d-262cda9fc4da","system_id":"levelo_inurba_marseille","lat":43.31263,"lon":5.36871,"is_reserved":false,"is_disabled":false,"rental_uris":{"android":"levelo://app?vid=045d9afd-334b-4d41-bf2d-262cda9fc4da","ios":"levelo://app?vid=045d9afd-334b-4d41-bf2d-262cda9fc4da"},"vehicle_type_id":"4","last_reported":1762593006,"current_range_meters":19600,"station_id":"ce4bgl92rcd13ifvqbq0","pricing_plan_id":"cebpf4jnsgd1na2vs0mg"},{"bike_id":"f4631bc2-f6ef-4dfb-bc8e-46a4d590fb08","system_id":"levelo_inurba_marseille","lat":43.24078,"lon":5.37757,"is_reserved":false,"is_disabled":false,"rental_uris":{"android":"levelo://app?vid=f4631bc2-f6ef-4dfb-bc8e-46a4d590fb08","ios":"levelo://app?vid=f4631bc2-f6ef-4dfb-bc8e-46a4d590fb08"},"vehicle_type_id":"4","last_reported":1762593006,"current_range_meters":19600,"station_id":"ce4bhnp2rcd13ifvqgvg","pricing_plan_id":"cebpf4jnsgd1na2vs0mg"},{"bike_id":"0111257e-9335-4bbd-88a4-b7ae9c6d1b9a","system_id":"levelo_inurba_marseille","lat":43.28077,"lon":5.39049,"is_reserved":false,"is_disabled":false,"rental_uris":{"android":"levelo://app?vid=0111257e-9335-4bbd-88a4-b7ae9c6d1b9a","ios":"levelo://app?vid=0111257e-9335-4bbd-88a4-b7ae9c6d1b9a"},"vehicle_type_id":"4","last_reported":1762593006,"current_range_meters":19600,"station_id":"","pricing_plan_id":"cebpf4jnsgd1na2vs0mg"},{"bike_id":"c59a4c0b-541a-4cf4-ae18-597390d77672","system_id":"levelo_inurba_marseille","lat":43.24086,"lon":5.37755,"is_reserved":false,"is_disabled":false,"rental_uris":{"android":"levelo://app?vid=c59a4c0b-541a-4cf4-ae18-597390d77672","ios":"levelo://app?vid=c59a4c0b-541a-4cf4-ae18-597390d77672"},"vehicle_type_id":"4","last_reported":1762593006,"current_range_meters":19600,"station_id":"ce4bhnp2rcd13ifvqgvg","pricing_plan_id":"cebpf4jnsgd1na2vs0mg"},{"bike_id":"5f51530e-ad6d-4525-9dbe-df8ccdff7435","system_id":"levelo_inurba_marseille","lat":43.31608,"lon":5.38198,"is_reserved":false,"is_disabled":false,"rental_uris":{"android":"levelo://app?vid=5f51530e-ad6d-4525-9dbe-df8ccdff7435","ios":"levelo://app?vid=5f51530e-ad6d-4525-9dbe-df8ccdff7435"},"vehicle_type_id":"4","last_reported":1762593006,"current_range_meters":19600,"station_id":"","pricing_plan_id":"cebpf4jnsgd1na2vs0mg"},{"bike_id":"e1d2ac3e-a5c1-45dd-a71e-8ef6269474fa","system_id":"levelo_inurba_marseille","lat":43.2986,"lon":5.38589,"is_reserved":false,"is_disabled":false,"rental_uris":{"android":"levelo://app?vid=e1d2ac3e-a5c1-45dd-a71e-8ef6269474fa","ios":"levelo://app?vid=e1d2ac3e-a5c1-45dd-a71e-8ef6269474fa"},"vehicle_type_id":"4","last_reported":1762593006,"current_range_meters":20000,"station_id":"","pricing_plan_id":"cebpf4jnsgd1na2vs0mg"},{"bike_id":"c20140d9-42e7-4f8a-af33-0379b6c3bab1","system_id":"levelo_inurba_marseille","lat":43.24079,"lon":5.3776,"is_reserved":false,"is_disabled":false,"rental_uris":{"android":"levelo://app?vid=c20140d9-42e7-4f8a-af33-0379b6c3bab1","ios":"levelo://app?vid=c20140d9-42e7-4f8a-af33-0379b6c3bab1"},"vehicle_type_id":"4","last_reported":1762593006,"current_range_meters":20000,"station_id":"ce4bhnp2rcd13ifvqgvg","pricing_plan_id":"cebpf4jnsgd1na2vs0mg"},{"bike_id":"adc728c4-7d88-468c-be89-220c19218372","system_id":"levelo_inurba_marseille","lat":43.30967,"lon":5.38369,"is_reserved":false,"is_disabled":false,"rental_uris":{"android":"levelo://app?vid=adc728c4-7d88-468c-be89-220c19218372","ios":"levelo://app?vid=adc728c4-7d88-468c-be89-220c19218372"},"vehicle_type_id":"4","last_reported":1762593006,"current_range_meters":20000,"station_id":"","pricing_plan_id":"cebpf4jnsgd1na2vs0mg"},{"bike_id":"3fd95134-3ed7-4fd0-9793-bc954e2e42ea","system_id":"levelo_inurba_marseille","lat":43.284341,"lon":5.375058,"is_reserved":false,"is_disabled":true,"rental_uris":{"android":"levelo://app?vid=3fd95134-3ed7-4fd0-9793-bc954e2e42ea","ios":"levelo://app?vid=3fd95134-3ed7-4fd0-9793-bc954e2e42ea"},"vehicle_type_id":"4","last_reported":1762593006,"current_range_meters":20000,"station_id":"ce4bh412rcd13ifvqds0","pricing_plan_id":"cebpf4jnsgd1na2vs0mg"},{"bike_id":"0624675e-eee0-4321-99e1-32672173e901","system_id":"levelo_inurba_marseille","lat":43.241789,"lon":5.363921,"is_reserved":false,"is_disabled":false,"rental_uris":{"android":"levelo://app?vid=0624675e-eee0-4321-99e1-32672173e901","ios":"levelo://app?vid=0624675e-eee0-4321-99e1-32672173e901"},"vehicle_type_id":"4","last_reported":1762593006,"current_range_meters":20000,"station_id":"cpo36qri1sfpv3e86is0","pricing_plan_id":"cebpf4jnsgd1na2vs0mg"},{"bike_id":"08a5ed99-8f81-411f-9ef1-95406e1abdf9","system_id":"levelo_inurba_marseille","lat":43.27742,"lon":5.41661,"is_reserved":false,"is_disabled":false,"rental_uris":{"android":"levelo://app?vid=08a5ed99-8f81-411f-9ef1-95406e1abdf9","ios":"levelo://app?vid=08a5ed99-8f81-411f-9ef1-95406e1abdf9"},"vehicle_type_id":"4","last_reported":1762593006,"current_range_meters":20000,"station_id":"","pricing_plan_id":"cebpf4jnsgd1na2vs0mg"},{"bike_id":"fe37d70c-62e3-435f-b14e-020870c70fc9","system_id":"levelo_inurba_marseille","lat":43.244006,"lon":5.370721,"is_reserved":false,"is_disabled":true,"rental_uris":{"android":"levelo://app?vid=fe37d70c-62e3-435f-b14e-020870c70fc9","ios":"levelo://app?vid=fe37d70c-62e3-435f-b14e-020870c70fc9"},"vehicle_type_id":"4","last_reported":1762593006,"current_range_meters":20000,"station_id":"ce4bhhh2rcd13ifvqfk0","pricing_plan_id":"cebpf4jnsgd1na2vs0mg"},{"bike_id":"3e3426b8-ee47-4783-8d1e-7b9b22dbb94c","system_id":"levelo_inurba_marseille","lat":43.25489,"lon":5.37647,"is_reserved":false,"is_disabled":false,"rental_uris":{"android":"levelo://app?vid=3e3426b8-ee47-4783-8d1e-7b9b22dbb94c","ios":"levelo://app?vid=3e3426b8-ee47-4783-8d1e-7b9b22dbb94c"},"vehicle_type_id":"4","last_reported":1762593006,"current_range_meters":20000,"station_id":"ce4bhh12rcd13ifvqff0","pricing_plan_id":"cebpf4jnsgd1na2vs0mg"},{"bike_id":"b0f72875-371c-4064-be25-05b7d91c7177","system_id":"levelo_inurba_marseille","lat":43.2827,"lon":5.35058,"is_reserved":false,"is_disabled":false,"rental_uris":{"android":"levelo://app?vid=b0f72875-371c-4064-be25-05b7d91c7177","ios":"levelo://app?vid=b0f72875-371c-4064-be25-05b7d91c7177"},"vehicle_type_id":"4","last_reported":1762593006,"current_range_meters":20000,"station_id":"ce4bhbp2rcd13ifvqerg","pricing_plan_id":"cebpf4jnsgd1na2vs0mg"},{"bike_id":"a2065f9f-990a-43c3-a87b-80363570cf38","system_id":"levelo_inurba_marseille","lat":43.32505,"lon":5.36566,"is_reserved":false,"is_disabled":false,"rental_uris":{"android":"levelo://app?vid=a2065f9f-990a-43c3-a87b-80363570cf38","ios":"levelo://app?vid=a2065f9f-990a-43c3-a87b-80363570cf38"},"vehicle_type_id":"4","last_reported":1762593006,"current_range_meters":20000,"station_id":"ce4bhs12rcd13ifvqhvg","pricing_plan_id":"cebpf4jnsgd1na2vs0mg"},{"bike_id":"1acb33f3-8213-40fe-944c-e135d34695db","system_id":"levelo_inurba_marseille","lat":43.28602,"lon":5.39363,"is_reserved":false,"is_disabled":false,"rental_uris":{"android":"levelo://app?vid=1acb33f3-8213-40fe-944c-e135d34695db","ios":"levelo://app?vid=1acb33f3-8213-40fe-944c-e135d34695db"},"vehicle_type_id":"4","last_reported":1762593006,"current_range_meters":20000,"station_id":"","pricing_plan_id":"cebpf4jnsgd1na2vs0mg"},{"bike_id":"edbab5ea-5fbf-43f9-9998-2230b6aa2905","system_id":"levelo_inurba_marseille","lat":43.2848,"lon":5.38425,"is_reserved":false,"is_disabled":false,"rental_uris":{"android":"levelo://app?vid=edbab5ea-5fbf-43f9-9998-2230b6aa2905","ios":"levelo://app?vid=edbab5ea-5fbf-43f9-9998-2230b6aa2905"},"vehicle_type_id":"4","last_reported":1762593006,"current_range_meters":20400,"station_id":"","pricing_plan_id":"cebpf4jnsgd1na2vs0mg"},{"bike_id":"34287b7a-a13d-4508-86b2-e19fe6d9adcb","system_id":"levelo_inurba_marseille","lat":43.24964,"lon":5.40512,"is_reserved":false,"is_disabled":false,"rental_uris":{"android":"levelo://app?vid=34287b7a-a13d-4508-86b2-e19fe6d9adcb","ios":"levelo://app?vid=34287b7a-a13d-4508-86b2-e19fe6d9adcb"},"vehicle_type_id":"4","last_reported":1762593006,"current_range_meters":20400,"station_id":"st_d2ngiaodas8pm72gd1h0","pricing_plan_id":"cebpf4jnsgd1na2vs0mg"},{"bike_id":"a5a51bf9-9908-420d-8212-6ef8d2db5d39","system_id":"levelo_inurba_marseille","lat":43.27381,"lon":5.36249,"is_reserved":false,"is_disabled":false,"rental_uris":{"android":"levelo://app?vid=a5a51bf9-9908-420d-8212-6ef8d2db5d39","ios":"levelo://app?vid=a5a51bf9-9908-420d-8212-6ef8d2db5d39"},"vehicle_type_id":"4","last_reported":1762593006,"current_range_meters":20400,"station_id":"ce4bhbh2rcd13ifvqeo0","pricing_plan_id":"cebpf4jnsgd1na2vs0mg"},{"bike_id":"a0e54e31-a279-4abc-9e71-e56764854bff","system_id":"levelo_inurba_marseille","lat":43.27375,"lon":5.36247,"is_reserved":false,"is_disabled":false,"rental_uris":{"android":"levelo://app?vid=a0e54e31-a279-4abc-9e71-e56764854bff","ios":"levelo://app?vid=a0e54e31-a279-4abc-9e71-e56764854bff"},"vehicle_type_id":"4","last_reported":1762593006,"current_range_meters":20400,"station_id":"ce4bhbh2rcd13ifvqeo0","pricing_plan_id":"cebpf4jnsgd1na2vs0mg"},{"bike_id":"6612d057-d04e-446c-84b0-f7489ba06db0","system_id":"levelo_inurba_marseille","lat":43.23145,"lon":5.437,"is_reserved":false,"is_disabled":false,"rental_uris":{"android":"levelo://app?vid=6612d057-d04e-446c-84b0-f7489ba06db0","ios":"levelo://app?vid=6612d057-d04e-446c-84b0-f7489ba06db0"},"vehicle_type_id":"4","last_reported":1762593006,"current_range_meters":20400,"station_id":"ce4bhmp2rcd13ifvqgog","pricing_plan_id":"cebpf4jnsgd1na2vs0mg"},{"bike_id":"780ea5ff-c46d-4360-8f6d-0cba85e08b67","system_id":"levelo_inurba_marseille","lat":43.27375,"lon":5.36246,"is_reserved":false,"is_disabled":false,"rental_uris":{"android":"levelo://app?vid=780ea5ff-c46d-4360-8f6d-0cba85e08b67","ios":"levelo://app?vid=780ea5ff-c46d-4360-8f6d-0cba85e08b67"},"vehicle_type_id":"4","last_reported":1762593006,"current_range_meters":20400,"station_id":"ce4bhbh2rcd13ifvqeo0","pricing_plan_id":"cebpf4jnsgd1na2vs0mg"},{"bike_id":"c57215d2-21b5-42d7-89f1-b3de14ced29e","system_id":"levelo_inurba_marseille","lat":43.28972,"lon":5.37825,"is_reserved":false,"is_disabled":false,"rental_uris":{"android":"levelo://app?vid=c57215d2-21b5-42d7-89f1-b3de14ced29e","ios":"levelo://app?vid=c57215d2-21b5-42d7-89f1-b3de14ced29e"},"vehicle_type_id":"4","last_reported":1762593006,"current_range_meters":20400,"station_id":"ce4bh9p2rcd13ifvqed0","pricing_plan_id":"cebpf4jnsgd1na2vs0mg"},{"bike_id":"e8b6d1b2-9aeb-4db2-a322-897007e252db","system_id":"levelo_inurba_marseille","lat":43.30061,"lon":5.36624,"is_reserved":false,"is_disabled":false,"rental_uris":{"android":"levelo://app?vid=e8b6d1b2-9aeb-4db2-a322-897007e252db","ios":"levelo://app?vid=e8b6d1b2-9aeb-4db2-a322-897007e252db"},"vehicle_type_id":"4","last_reported":1762593006,"current_range_meters":20400,"station_id":"","pricing_plan_id":"cebpf4jnsgd1na2vs0mg"},{"bike_id":"94dbf29a-9c3b-466d-9520-9a135a8f85b6","system_id":"levelo_inurba_marseille","lat":43.26233,"lon":5.40447,"is_reserved":false,"is_disabled":false,"rental_uris":{"android":"levelo://app?vid=94dbf29a-9c3b-466d-9520-9a135a8f85b6","ios":"levelo://app?vid=94dbf29a-9c3b-466d-9520-9a135a8f85b6"},"vehicle_type_id":"4","last_reported":1762593006,"current_range_meters":20400,"station_id":"ce4bhmh2rcd13ifvqgmg","pricing_plan_id":"cebpf4jnsgd1na2vs0mg"},{"bike_id":"5d2deb05-5afc-410c-9398-4e84ae75ab15","system_id":"levelo_inurba_marseille","lat":43.27546,"lon":5.42734,"is_reserved":false,"is_disabled":false,"rental_uris":{"android":"levelo://app?vid=5d2deb05-5afc-410c-9398-4e84ae75ab15","ios":"levelo://app?vid=5d2deb05-5afc-410c-9398-4e84ae75ab15"},"vehicle_type_id":"4","last_reported":1762593006,"current_range_meters":20400,"station_id":"","pricing_plan_id":"cebpf4jnsgd1na2vs0mg"},{"bike_id":"50b934ea-2e5e-4bfd-9f59-7765d8fb6050","system_id":"levelo_inurba_marseille","lat":43.26067,"lon":5.39394,"is_reserved":false,"is_disabled":false,"rental_uris":{"android":"levelo://app?vid=50b934ea-2e5e-4bfd-9f59-7765d8fb6050","ios":"levelo://app?vid=50b934ea-2e5e-4bfd-9f59-7765d8fb6050"},"vehicle_type_id":"4","last_reported":1762593006,"current_range_meters":20400,"station_id":"ce4bhh92rcd13ifvqfj0","pricing_plan_id":"cebpf4jnsgd1na2vs0mg"},{"bike_id":"46fcd681-5830-473a-991a-0b223d575c50","system_id":"levelo_inurba_marseille","lat":43.30934,"lon":5.40147,"is_reserved":false,"is_disabled":false,"rental_uris":{"android":"levelo://app?vid=46fcd681-5830-473a-991a-0b223d575c50","ios":"levelo://app?vid=46fcd681-5830-473a-991a-0b223d575c50"},"vehicle_type_id":"4","last_reported":1762593006,"current_range_meters":20400,"station_id":"ce4bgvp2rcd13ifvqct0","pricing_plan_id":"cebpf4jnsgd1na2vs0mg"},{"bike_id":"49f5680b-2a17-4961-a78f-f46a198f7d8a","system_id":"levelo_inurba_marseille","lat":43.26228,"lon":5.40447,"is_reserved":false,"is_disabled":false,"rental_uris":{"android":"levelo://app?vid=49f5680b-2a17-4961-a78f-f46a198f7d8a","ios":"levelo://app?vid=49f5680b-2a17-4961-a78f-f46a198f7d8a"},"vehicle_type_id":"4","last_reported":1762593006,"current_range_meters":20400,"station_id":"ce4bhmh2rcd13ifvqgmg","pricing_plan_id":"cebpf4jnsgd1na2vs0mg"},{"bike_id":"fee4f445-bba8-4be4-a3da-4decf51271b2","system_id":"levelo_inurba_marseille","lat":43.318246,"lon":5.4071,"is_reserved":false,"is_disabled":false,"rental_uris":{"android":"levelo://app?vid=fee4f445-bba8-4be4-a3da-4decf51271b2","ios":"levelo://app?vid=fee4f445-bba8-4be4-a3da-4decf51271b2"},"vehicle_type_id":"4","last_reported":1762593006,"current_range_meters":20800,"station_id":"","pricing_plan_id":"cebpf4jnsgd1na2vs0mg"},{"bike_id":"2b077b78-5a8c-42b8-afe3-a4166193f769","system_id":"levelo_inurba_marseille","lat":43.30123,"lon":5.43115,"is_reserved":false,"is_disabled":false,"rental_uris":{"android":"levelo://app?vid=2b077b78-5a8c-42b8-afe3-a4166193f769","ios":"levelo://app?vid=2b077b78-5a8c-42b8-afe3-a4166193f769"},"vehicle_type_id":"4","last_reported":1762593006,"current_range_meters":20800,"station_id":"st_d3js3co5814s73ftftug","pricing_plan_id":"cebpf4jnsgd1na2vs0mg"},{"bike_id":"f0e4600a-7b88-4cc1-8e32-52e03d52b3cc","system_id":"levelo_inurba_marseille","lat":43.25725,"lon":5.41101,"is_reserved":false,"is_disabled":false,"rental_uris":{"android":"levelo://app?vid=f0e4600a-7b88-4cc1-8e32-52e03d52b3cc","ios":"levelo://app?vid=f0e4600a-7b88-4cc1-8e32-52e03d52b3cc"},"vehicle_type_id":"4","last_reported":1762593006,"current_range_meters":20800,"station_id":"ce4bhkp2rcd13ifvqgd0","pricing_plan_id":"cebpf4jnsgd1na2vs0mg"},{"bike_id":"d960de7a-5ef1-4dee-ac7c-401f4c178df2","system_id":"levelo_inurba_marseille","lat":43.28607,"lon":5.37056,"is_reserved":false,"is_disabled":false,"rental_uris":{"android":"levelo://app?vid=d960de7a-5ef1-4dee-ac7c-401f4c178df2","ios":"levelo://app?vid=d960de7a-5ef1-4dee-ac7c-401f4c178df2"},"vehicle_type_id":"4","last_reported":1762593006,"current_range_meters":20800,"station_id":"ce4bht12rcd13ifvqi60","pricing_plan_id":"cebpf4jnsgd1na2vs0mg"},{"bike_id":"e047552d-89f1-43ec-9fda-59df7dbc587a","system_id":"levelo_inurba_marseille","lat":43.27958,"lon":5.38762,"is_reserved":false,"is_disabled":false,"rental_uris":{"android":"levelo://app?vid=e047552d-89f1-43ec-9fda-59df7dbc587a","ios":"levelo://app?vid=e047552d-89f1-43ec-9fda-59df7dbc587a"},"vehicle_type_id":"4","last_reported":1762593006,"current_range_meters":20800,"station_id":"ce4bhg12rcd13ifvqf80","pricing_plan_id":"cebpf4jnsgd1na2vs0mg"},{"bike_id":"02e65b32-a545-4b07-80f2-1574459d8b68","system_id":"levelo_inurba_marseille","lat":43.30933,"lon":5.40138,"is_reserved":false,"is_disabled":false,"rental_uris":{"android":"levelo://app?vid=02e65b32-a545-4b07-80f2-1574459d8b68","ios":"levelo://app?vid=02e65b32-a545-4b07-80f2-1574459d8b68"},"vehicle_type_id":"4","last_reported":1762593006,"current_range_meters":20800,"station_id":"ce4bgvp2rcd13ifvqct0","pricing_plan_id":"cebpf4jnsgd1na2vs0mg"},{"bike_id":"a3ec4ec7-9558-4a05-9238-5ff5eb3ac71d","system_id":"levelo_inurba_marseille","lat":43.24387,"lon":5.37048,"is_reserved":false,"is_disabled":false,"rental_uris":{"android":"levelo://app?vid=a3ec4ec7-9558-4a05-9238-5ff5eb3ac71d","ios":"levelo://app?vid=a3ec4ec7-9558-4a05-9238-5ff5eb3ac71d"},"vehicle_type_id":"4","last_reported":1762593006,"current_range_meters":21600,"station_id":"ce4bhhh2rcd13ifvqfk0","pricing_plan_id":"cebpf4jnsgd1na2vs0mg"},{"bike_id":"00c54668-2ac7-4f4a-8e20-b07aa1a7ff6d","system_id":"levelo_inurba_marseille","lat":43.292208,"lon":5.360522,"is_reserved":false,"is_disabled":false,"rental_uris":{"android":"levelo://app?vid=00c54668-2ac7-4f4a-8e20-b07aa1a7ff6d","ios":"levelo://app?vid=00c54668-2ac7-4f4a-8e20-b07aa1a7ff6d"},"vehicle_type_id":"4","last_reported":1762593006,"current_range_meters":21600,"station_id":"ce4bhbh2rcd13ifvqeqg","pricing_plan_id":"cebpf4jnsgd1na2vs0mg"},{"bike_id":"f114550f-0e97-467f-a15f-491fe7ea5021","system_id":"levelo_inurba_marseille","lat":43.293,"lon":5.37182,"is_reserved":false,"is_disabled":true,"rental_uris":{"android":"levelo://app?vid=f114550f-0e97-467f-a15f-491fe7ea5021","ios":"levelo://app?vid=f114550f-0e97-467f-a15f-491fe7ea5021"},"vehicle_type_id":"4","last_reported":1762593006,"current_range_meters":21600,"station_id":"ce4bgh92rcd13ifvqb40","pricing_plan_id":"cebpf4jnsgd1na2vs0mg"},{"bike_id":"f3e4cabb-b94a-42a4-808f-3c4a07879aca","system_id":"levelo_inurba_marseille","lat":43.25487,"lon":5.3764,"is_reserved":false,"is_disabled":false,"rental_uris":{"android":"levelo://app?vid=f3e4cabb-b94a-42a4-808f-3c4a07879aca","ios":"levelo://app?vid=f3e4cabb-b94a-42a4-808f-3c4a07879aca"},"vehicle_type_id":"4","last_reported":1762593006,"current_range_meters":21600,"station_id":"ce4bhh12rcd13ifvqff0","pricing_plan_id":"cebpf4jnsgd1na2vs0mg"},{"bike_id":"219c96a4-4057-463b-9da4-4db27901081b","system_id":"levelo_inurba_marseille","lat":43.29932,"lon":5.37466,"is_reserved":false,"is_disabled":true,"rental_uris":{"android":"levelo://app?vid=219c96a4-4057-463b-9da4-4db27901081b","ios":"levelo://app?vid=219c96a4-4057-463b-9da4-4db27901081b"},"vehicle_type_id":"4","last_reported":1762593006,"current_range_meters":21600,"station_id":"ce4bgjh2rcd13ifvqbg0","pricing_plan_id":"cebpf4jnsgd1na2vs0mg"},{"bike_id":"d976b8a1-ebe4-4aa1-8c1a-a5cf55dee6c7","system_id":"levelo_inurba_marseille","lat":43.29715,"lon":5.36604,"is_reserved":false,"is_disabled":false,"rental_uris":{"android":"levelo://app?vid=d976b8a1-ebe4-4aa1-8c1a-a5cf55dee6c7","ios":"levelo://app?vid=d976b8a1-ebe4-4aa1-8c1a-a5cf55dee6c7"},"vehicle_type_id":"4","last_reported":1762593006,"current_range_meters":21600,"station_id":"ce4bgn12rcd13ifvqbt0","pricing_plan_id":"cebpf4jnsgd1na2vs0mg"},{"bike_id":"801e4d61-52e9-4f77-b7b7-238bd7f1ddaa","system_id":"levelo_inurba_marseille","lat":43.2293,"lon":5.35379,"is_reserved":false,"is_disabled":false,"rental_uris":{"android":"levelo://app?vid=801e4d61-52e9-4f77-b7b7-238bd7f1ddaa","ios":"levelo://app?vid=801e4d61-52e9-4f77-b7b7-238bd7f1ddaa"},"vehicle_type_id":"4","last_reported":1762593006,"current_range_meters":21600,"station_id":"cpo3532slgdg3j2ikp40","pricing_plan_id":"cebpf4jnsgd1na2vs0mg"},{"bike_id":"11e60ff5-b1c8-4230-9403-d58f2d0519ce","system_id":"levelo_inurba_marseille","lat":43.31176,"lon":5.38703,"is_reserved":false,"is_disabled":false,"rental_uris":{"android":"levelo://app?vid=11e60ff5-b1c8-4230-9403-d58f2d0519ce","ios":"levelo://app?vid=11e60ff5-b1c8-4230-9403-d58f2d0519ce"},"vehicle_type_id":"4","last_reported":1762593006,"current_range_meters":22000,"station_id":"ce4bgv12rcd13ifvqcp0","pricing_plan_id":"cebpf4jnsgd1na2vs0mg"},{"bike_id":"ab4ac132-5519-4aac-ac12-8b8c2929bb7e","system_id":"levelo_inurba_marseille","lat":43.323493,"lon":5.385068,"is_reserved":false,"is_disabled":false,"rental_uris":{"android":"levelo://app?vid=ab4ac132-5519-4aac-ac12-8b8c2929bb7e","ios":"levelo://app?vid=ab4ac132-5519-4aac-ac12-8b8c2929bb7e"},"vehicle_type_id":"4","last_reported":1762593006,"current_range_meters":22000,"station_id":"st_d45171o9ee8s73djdqug","pricing_plan_id":"cebpf4jnsgd1na2vs0mg"},{"bike_id":"4a299e7b-fa77-4d39-93fa-a705e8d40c9f","system_id":"levelo_inurba_marseille","lat":43.3133,"lon":5.37923,"is_reserved":false,"is_disabled":false,"rental_uris":{"android":"levelo://app?vid=4a299e7b-fa77-4d39-93fa-a705e8d40c9f","ios":"levelo://app?vid=4a299e7b-fa77-4d39-93fa-a705e8d40c9f"},"vehicle_type_id":"4","last_reported":1762593006,"current_range_meters":22000,"station_id":"","pricing_plan_id":"cebpf4jnsgd1na2vs0mg"},{"bike_id":"8e570552-a09f-485b-84b2-78e34bf0aa93","system_id":"levelo_inurba_marseille","lat":43.24622,"lon":5.43135,"is_reserved":false,"is_disabled":false,"rental_uris":{"android":"levelo://app?vid=8e570552-a09f-485b-84b2-78e34bf0aa93","ios":"levelo://app?vid=8e570552-a09f-485b-84b2-78e34bf0aa93"},"vehicle_type_id":"4","last_reported":1762593006,"current_range_meters":22000,"station_id":"st_d2m6c4gdas8pm72e190g","pricing_plan_id":"cebpf4jnsgd1na2vs0mg"},{"bike_id":"d479bf52-1e7e-4cc3-8591-7c5507d6ecab","system_id":"levelo_inurba_marseille","lat":43.22941,"lon":5.35377,"is_reserved":false,"is_disabled":false,"rental_uris":{"android":"levelo://app?vid=d479bf52-1e7e-4cc3-8591-7c5507d6ecab","ios":"levelo://app?vid=d479bf52-1e7e-4cc3-8591-7c5507d6ecab"},"vehicle_type_id":"4","last_reported":1762593006,"current_range_meters":22000,"station_id":"cpo3532slgdg3j2ikp40","pricing_plan_id":"cebpf4jnsgd1na2vs0mg"},{"bike_id":"52bf01b4-7a62-448a-a3bf-42f54e24f24a","system_id":"levelo_inurba_marseille","lat":43.30165,"lon":5.38108,"is_reserved":false,"is_disabled":true,"rental_uris":{"android":"levelo://app?vid=52bf01b4-7a62-448a-a3bf-42f54e24f24a","ios":"levelo://app?vid=52bf01b4-7a62-448a-a3bf-42f54e24f24a"},"vehicle_type_id":"4","last_reported":1762593006,"current_range_meters":22000,"station_id":"ce4bgjp2rcd13ifvqbh0","pricing_plan_id":"cebpf4jnsgd1na2vs0mg"},{"bike_id":"4f6a8492-0f08-48dd-b6d2-6038ab89e278","system_id":"levelo_inurba_marseille","lat":43.27372,"lon":5.362609,"is_reserved":false,"is_disabled":false,"rental_uris":{"android":"levelo://app?vid=4f6a8492-0f08-48dd-b6d2-6038ab89e278","ios":"levelo://app?vid=4f6a8492-0f08-48dd-b6d2-6038ab89e278"},"vehicle_type_id":"4","last_reported":1762593006,"current_range_meters":22400,"station_id":"ce4bhbh2rcd13ifvqeo0","pricing_plan_id":"cebpf4jnsgd1na2vs0mg"},{"bike_id":"868f4c8e-5644-49d0-b835-6f09738dc650","system_id":"levelo_inurba_marseille","lat":43.29316,"lon":5.37167,"is_reserved":false,"is_disabled":false,"rental_uris":{"android":"levelo://app?vid=868f4c8e-5644-49d0-b835-6f09738dc650","ios":"levelo://app?vid=868f4c8e-5644-49d0-b835-6f09738dc650"},"vehicle_type_id":"4","last_reported":1762593006,"current_range_meters":22400,"station_id":"ce4bgh92rcd13ifvqb40","pricing_plan_id":"cebpf4jnsgd1na2vs0mg"},{"bike_id":"39ff6a52-7c15-4e36-9056-950efe8be9ca","system_id":"levelo_inurba_marseille","lat":43.28496,"lon":5.48388,"is_reserved":false,"is_disabled":false,"rental_uris":{"android":"levelo://app?vid=39ff6a52-7c15-4e36-9056-950efe8be9ca","ios":"levelo://app?vid=39ff6a52-7c15-4e36-9056-950efe8be9ca"},"vehicle_type_id":"4","last_reported":1762593006,"current_range_meters":22400,"station_id":"","pricing_plan_id":"cebpf4jnsgd1na2vs0mg"},{"bike_id":"8a178fde-5dfc-4676-8c4e-f75589a9d220","system_id":"levelo_inurba_marseille","lat":43.27199,"lon":5.39163,"is_reserved":false,"is_disabled":false,"rental_uris":{"android":"levelo://app?vid=8a178fde-5dfc-4676-8c4e-f75589a9d220","ios":"levelo://app?vid=8a178fde-5dfc-4676-8c4e-f75589a9d220"},"vehicle_type_id":"4","last_reported":1762593006,"current_range_meters":22400,"station_id":"ce4bhhp2rcd13ifvqfm0","pricing_plan_id":"cebpf4jnsgd1na2vs0mg"},{"bike_id":"96807a8e-1b45-4a36-b7ed-92091f4bcaf6","system_id":"levelo_inurba_marseille","lat":43.309306,"lon":5.401424,"is_reserved":false,"is_disabled":true,"rental_uris":{"android":"levelo://app?vid=96807a8e-1b45-4a36-b7ed-92091f4bcaf6","ios":"levelo://app?vid=96807a8e-1b45-4a36-b7ed-92091f4bcaf6"},"vehicle_type_id":"4","last_reported":1762593006,"current_range_meters":22800,"station_id":"","pricing_plan_id":"cebpf4jnsgd1na2vs0mg"},{"bike_id":"321f86d8-35db-4f43-a4d9-e653f4b1dead","system_id":"levelo_inurba_marseille","lat":43.28419,"lon":5.3752,"is_reserved":false,"is_disabled":false,"rental_uris":{"android":"levelo://app?vid=321f86d8-35db-4f43-a4d9-e653f4b1dead","ios":"levelo://app?vid=321f86d8-35db-4f43-a4d9-e653f4b1dead"},"vehicle_type_id":"4","last_reported":1762593006,"current_range_meters":22800,"station_id":"ce4bh412rcd13ifvqds0","pricing_plan_id":"cebpf4jnsgd1na2vs0mg"},{"bike_id":"3a78c201-e786-4e39-96ca-d21f313ce1e4","system_id":"levelo_inurba_marseille","lat":43.291612,"lon":5.371518,"is_reserved":false,"is_disabled":false,"rental_uris":{"android":"levelo://app?vid=3a78c201-e786-4e39-96ca-d21f313ce1e4","ios":"levelo://app?vid=3a78c201-e786-4e39-96ca-d21f313ce1e4"},"vehicle_type_id":"4","last_reported":1762593006,"current_range_meters":22800,"station_id":"ce4bha92rcd13ifvqeh0","pricing_plan_id":"cebpf4jnsgd1na2vs0mg"},{"bike_id":"896a0fc4-e98e-425f-b646-7db4d5ace172","system_id":"levelo_inurba_marseille","lat":43.3199,"lon":5.38155,"is_reserved":false,"is_disabled":false,"rental_uris":{"android":"levelo://app?vid=896a0fc4-e98e-425f-b646-7db4d5ace172","ios":"levelo://app?vid=896a0fc4-e98e-425f-b646-7db4d5ace172"},"vehicle_type_id":"4","last_reported":1762593006,"current_range_meters":22800,"station_id":"ce4bhr12rcd13ifvqhpg","pricing_plan_id":"cebpf4jnsgd1na2vs0mg"},{"bike_id":"27bf3962-75f8-4cfd-942a-5c92a6ea4c99","system_id":"levelo_inurba_marseille","lat":43.30963,"lon":5.38305,"is_reserved":false,"is_disabled":false,"rental_uris":{"android":"levelo://app?vid=27bf3962-75f8-4cfd-942a-5c92a6ea4c99","ios":"levelo://app?vid=27bf3962-75f8-4cfd-942a-5c92a6ea4c99"},"vehicle_type_id":"4","last_reported":1762593006,"current_range_meters":22800,"station_id":"","pricing_plan_id":"cebpf4jnsgd1na2vs0mg"},{"bike_id":"114f66d4-1403-4604-9263-f916be0a11ba","system_id":"levelo_inurba_marseille","lat":43.27499,"lon":5.424458,"is_reserved":false,"is_disabled":false,"rental_uris":{"android":"levelo://app?vid=114f66d4-1403-4604-9263-f916be0a11ba","ios":"levelo://app?vid=114f66d4-1403-4604-9263-f916be0a11ba"},