{"last_updated":1747984253,"ttl":60,"version":"2.2","data":{"bikes":[{"bike_id":"0bf60af2-2324-443a-ae1d-f403363e04f5","system_id":"levelo_inurba_marseille","lat":43.29975,"lon":5.37176,"is_reserved":false,"is_disabled":false,"rental_uris":{"android":"levelo://app?vid=0bf60af2-2324-443a-ae1d-f403363e04f5","ios":"levelo://app?vid=0bf60af2-2324-443a-ae1d-f403363e04f5"},"vehicle_type_id":"4","last_reported":1747984253,"current_range_meters":2800,"station_id":"ce4bgr92rcd13ifvqc7g","pricing_plan_id":"cebpf4jnsgd1na2vs0mg"},{"bike_id":"c3510b1e-84a5-45ba-a56f-57b85c87a04b","system_id":"levelo_inurba_marseille","lat":43.267911,"lon":5.394063,"is_reserved":false,"is_disabled":false,"rental_uris":{"android":"levelo://app?vid=c3510b1e-84a5-45ba-a56f-57b85c87a04b","ios":"levelo://app?vid=c3510b1e-84a5-45ba-a56f-57b85c87a04b"},"vehicle_type_id":"4","last_reported":1747984253,"current_range_meters":3200,"station_id":"ce4bhh12rcd13ifvqfg0","pricing_plan_id":"cebpf4jnsgd1na2vs0mg"},{"bike_id":"35b62aa6-a570-48d8-8fff-f4a2c0f14560","system_id":"levelo_inurba_marseille","lat":43.22935,"lon":5.35378,"is_reserved":false,"is_disabled":false,"rental_uris":{"android":"levelo://app?vid=35b62aa6-a570-48d8-8fff-f4a2c0f14560","ios":"levelo://app?vid=35b62aa6-a570-48d8-8fff-f4a2c0f14560"},"vehicle_type_id":"4","last_reported":1747984253,"current_range_meters":3200,"station_id":"cpo3532slgdg3j2ikp40","pricing_plan_id":"cebpf4jnsgd1na2vs0mg"},{"bike_id":"b2d1f41d-36e8-41aa-bb44-6f0169a18dcf","system_id":"levelo_inurba_marseille","lat":43.24808,"lon":5.37457,"is_reserved":false,"is_disabled":false,"rental_uris":{"android":"levelo://app?vid=b2d1f41d-36e8-41aa-bb44-6f0169a18dcf","ios":"levelo://app?vid=b2d1f41d-36e8-41aa-bb44-6f0169a18dcf"},"vehicle_type_id":"4","last_reported":1747984253,"current_range_meters":3200,"station_id":"ce4bhgh2rcd13ifvqfb0","pricing_plan_id":"cebpf4jnsgd1na2vs0mg"},{"bike_id":"3c7d6040-11ce-4bf8-9037-e1949ad10a41","system_id":"levelo_inurba_marseille","lat":43.23149,"lon":5.43719,"is_reserved":false,"is_disabled":false,"rental_uris":{"android":"levelo://app?vid=3c7d6040-11ce-4bf8-9037-e1949ad10a41","ios":"levelo://app?vid=3c7d6040-11ce-4bf8-9037-e1949ad10a41"},"vehicle_type_id":"4","last_reported":1747984253,"current_range_meters":3200,"station_id":"ce4bhmp2rcd13ifvqgog","pricing_plan_id":"cebpf4jnsgd1na2vs0mg"},{"bike_id":"3af79b42-6096-4663-af6b-1c1a30cd189b","system_id":"levelo_inurba_marseille","lat":43.31082,"lon":5.42426,"is_reserved":false,"is_disabled":false,"rental_uris":{"android":"levelo://app?vid=3af79b42-6096-4663-af6b-1c1a30cd189b","ios":"levelo://app?vid=3af79b42-6096-4663-af6b-1c1a30cd189b"},"vehicle_type_id":"4","last_reported":1747984253,"current_range_meters":4000,"station_id":"ce4bhp92rcd13ifvqhag","pricing_plan_id":"cebpf4jnsgd1na2vs0mg"},{"bike_id":"4ce0010a-10e2-4d4a-8e62-47336a3c317e","system_id":"levelo_inurba_marseille","lat":43.30535,"lon":5.38993,"is_reserved":false,"is_disabled":false,"rental_uris":{"android":"levelo://app?vid=4ce0010a-10e2-4d4a-8e62-47336a3c317e","ios":"levelo://app?vid=4ce0010a-10e2-4d4a-8e62-47336a3c317e"},"vehicle_type_id":"4","last_reported":1747984253,"current_range_meters":4000,"station_id":"","pricing_plan_id":"cebpf4jnsgd1na2vs0mg"},{"bike_id":"bb9cde83-a8e3-4c5a-92c4-bb50d54b173d","system_id":"levelo_inurba_marseille","lat":43.28936,"lon":5.36636,"is_reserved":false,"is_disabled":false,"rental_uris":{"android":"levelo://app?vid=bb9cde83-a8e3-4c5a-92c4-bb50d54b173d","ios":"levelo://app?vid=bb9cde83-a8e3-4c5a-92c4-bb50d54b173d"},"vehicle_type_id":"4","last_reported":1747984253,"current_range_meters":4000,"station_id":"ce4bhap2rcd13ifvqek0","pricing_plan_id":"cebpf4jnsgd1na2vs0mg"},{"bike_id":"1814a150-29b6-45ad-927a-0e5c48cdc020","system_id":"levelo_inurba_marseille","lat":43.28938,"lon":5.36386,"is_reserved":false,"is_disabled":false,"rental_uris":{"android":"levelo://app?vid=1814a150-29b6-45ad-927a-0e5c48cdc020","ios":"levelo://app?vid=1814a150-29b6-45ad-927a-0e5c48cdc020"},"vehicle_type_id":"4","last_reported":1747984253,"current_range_meters":6400,"station_id":"ce4bhc92rcd13ifvqetg","pricing_plan_id":"cebpf4jnsgd1na2vs0mg"},{"bike_id":"5fbf18c3-70da-4dfb-b95c-a9faf8e61bc4","system_id":"levelo_inurba_marseille","lat":43.23969,"lon":5.36631,"is_reserved":false,"is_disabled":false,"rental_uris":{"android":"levelo://app?vid=5fbf18c3-70da-4dfb-b95c-a9faf8e61bc4","ios":"levelo://app?vid=5fbf18c3-70da-4dfb-b95c-a9faf8e61bc4"},"vehicle_type_id":"4","last_reported":1747984253,"current_range_meters":4400,"station_id":"ce4bhi12rcd13ifvqfp0","pricing_plan_id":"cebpf4jnsgd1na2vs0mg"},{"bike_id":"93ee2ce1-e52e-41eb-9588-f163a435bf46","system_id":"levelo_inurba_marseille","lat":43.289363,"lon":5.366441,"is_reserved":false,"is_disabled":false,"rental_uris":{"android":"levelo://app?vid=93ee2ce1-e52e-41eb-9588-f163a435bf46","ios":"levelo://app?vid=93ee2ce1-e52e-41eb-9588-f163a435bf46"},"vehicle_type_id":"4","last_reported":1747984253,"current_range_meters":4400,"station_id":"","pricing_plan_id":"cebpf4jnsgd1na2vs0mg"},{"bike_id":"490cfea9-fbaf-4353-81f0-ee1052d69c71","system_id":"levelo_inurba_marseille","lat":43.254864,"lon":5.376544,"is_reserved":false,"is_disabled":false,"rental_uris":{"android":"levelo://app?vid=490cfea9-fbaf-4353-81f0-ee1052d69c71","ios":"levelo://app?vid=490cfea9-fbaf-4353-81f0-ee1052d69c71"},"vehicle_type_id":"4","last_reported":1747984253,"current_range_meters":4400,"station_id":"ce4bhh12rcd13ifvqff0","pricing_plan_id":"cebpf4jnsgd1na2vs0mg"},{"bike_id":"b98ca7fe-8bb6-4af4-a7ad-cd940117269b","system_id":"levelo_inurba_marseille","lat":43.24079,"lon":5.37752,"is_reserved":false,"is_disabled":false,"rental_uris":{"android":"levelo://app?vid=b98ca7fe-8bb6-4af4-a7ad-cd940117269b","ios":"levelo://app?vid=b98ca7fe-8bb6-4af4-a7ad-cd940117269b"},"vehicle_type_id":"4","last_reported":1747984253,"current_range_meters":4400,"station_id":"ce4bhnp2rcd13ifvqgvg","pricing_plan_id":"cebpf4jnsgd1na2vs0mg"},{"bike_id":"761238ad-91b3-461c-8a38-a0ece0b4d137","system_id":"levelo_inurba_marseille","lat":43.24181,"lon":5.39721,"is_reserved":false,"is_disabled":false,"rental_uris":{"android":"levelo://app?vid=761238ad-91b3-461c-8a38-a0ece0b4d137","ios":"levelo://app?vid=761238ad-91b3-461c-8a38-a0ece0b4d137"},"vehicle_type_id":"4","last_reported":1747984253,"current_range_meters":4400,"station_id":"ce4bhn12rcd13ifvqgpg","pricing_plan_id":"cebpf4jnsgd1na2vs0mg"},{"bike_id":"e57e114b-3500-41ea-9bed-7002cdc4e5ab","system_id":"levelo_inurba_marseille","lat":43.31164,"lon":5.38722,"is_reserved":false,"is_disabled":false,"rental_uris":{"android":"levelo://app?vid=e57e114b-3500-41ea-9bed-7002cdc4e5ab","ios":"levelo://app?vid=e57e114b-3500-41ea-9bed-7002cdc4e5ab"},"vehicle_type_id":"4","last_reported":1747984253,"current_range_meters":4800,"station_id":"ce4bgv12rcd13ifvqcp0","pricing_plan_id":"cebpf4jnsgd1na2vs0mg"},{"bike_id":"ed21e130-9484-42bf-bdce-ecb9b8b0dd1b","system_id":"levelo_inurba_marseille","lat":43.29555,"lon":5.42293,"is_reserved":false,"is_disabled":false,"rental_uris":{"android":"levelo://app?vid=ed21e130-9484-42bf-bdce-ecb9b8b0dd1b","ios":"levelo://app?vid=ed21e130-9484-42bf-bdce-ecb9b8b0dd1b"},"vehicle_type_id":"4","last_reported":1747984253,"current_range_meters":4800,"station_id":"ce4bhph2rcd13ifvqhdg","pricing_plan_id":"cebpf4jnsgd1na2vs0mg"},{"bike_id":"33bd5f7f-9bca-4c08-a1f1-a06b567a0d03","system_id":"levelo_inurba_marseille","lat":43.24385,"lon":5.37059,"is_reserved":false,"is_disabled":false,"rental_uris":{"android":"levelo://app?vid=33bd5f7f-9bca-4c08-a1f1-a06b567a0d03","ios":"levelo://app?vid=33bd5f7f-9bca-4c08-a1f1-a06b567a0d03"},"vehicle_type_id":"4","last_reported":1747984253,"current_range_meters":4400,"station_id":"ce4bhhh2rcd13ifvqfk0","pricing_plan_id":"cebpf4jnsgd1na2vs0mg"},{"bike_id":"7f374a0c-9ab4-412c-a8dd-1f59fe7a5317","system_id":"levelo_inurba_marseille","lat":43.25581,"lon":5.38247,"is_reserved":false,"is_disabled":false,"rental_uris":{"android":"levelo://app?vid=7f374a0c-9ab4-412c-a8dd-1f59fe7a5317","ios":"levelo://app?vid=7f374a0c-9ab4-412c-a8dd-1f59fe7a5317"},"vehicle_type_id":"4","last_reported":1747984253,"current_range_meters":4800,"station_id":"ce4bhih2rcd13ifvqfs0","pricing_plan_id":"cebpf4jnsgd1na2vs0mg"},{"bike_id":"7d1eac40-8bb7-48c3-a81a-c121fa8b3295","system_id":"levelo_inurba_marseille","lat":43.2749,"lon":5.42456,"is_reserved":false,"is_disabled":false,"rental_uris":{"android":"levelo://app?vid=7d1eac40-8bb7-48c3-a81a-c121fa8b3295","ios":"levelo://app?vid=7d1eac40-8bb7-48c3-a81a-c121fa8b3295"},"vehicle_type_id":"4","last_reported":1747984253,"current_range_meters":5600,"station_id":"ce4bhn92rcd13ifvqgrg","pricing_plan_id":"cebpf4jnsgd1na2vs0mg"},{"bike_id":"44ff3e00-4917-4af0-a307-caf23af5a3a5","system_id":"levelo_inurba_marseille","lat":43.29842,"lon":5.36273,"is_reserved":false,"is_disabled":false,"rental_uris":{"android":"levelo://app?vid=44ff3e00-4917-4af0-a307-caf23af5a3a5","ios":"levelo://app?vid=44ff3e00-4917-4af0-a307-caf23af5a3a5"},"vehicle_type_id":"4","last_reported":1747984253,"current_range_meters":4800,"station_id":"ce4bgpp2rcd13ifvqc3g","pricing_plan_id":"cebpf4jnsgd1na2vs0mg"},{"bike_id":"6e6bf280-26a5-41e7-a2fb-4eadef3690f4","system_id":"levelo_inurba_marseille","lat":43.28445,"lon":5.39193,"is_reserved":false,"is_disabled":false,"rental_uris":{"android":"levelo://app?vid=6e6bf280-26a5-41e7-a2fb-4eadef3690f4","ios":"levelo://app?vid=6e6bf280-26a5-41e7-a2fb-4eadef3690f4"},"vehicle_type_id":"4","last_reported":1747984253,"current_range_meters":5600,"station_id":"ce4bhoh2rcd13ifvqh5g","pricing_plan_id":"cebpf4jnsgd1na2vs0mg"},{"bike_id":"81e6d09b-47aa-494c-ae88-d9068255f922","system_id":"levelo_inurba_marseille","lat":43.3054,"lon":5.36688,"is_reserved":false,"is_disabled":false,"rental_uris":{"android":"levelo://app?vid=81e6d09b-47aa-494c-ae88-d9068255f922","ios":"levelo://app?vid=81e6d09b-47aa-494c-ae88-d9068255f922"},"vehicle_type_id":"4","last_reported":1747984253,"current_range_meters":6000,"station_id":"ce4bgrp2rcd13ifvqc9g","pricing_plan_id":"cebpf4jnsgd1na2vs0mg"},{"bike_id":"9923a36f-ade4-4d63-b46a-e9964f737c33","system_id":"levelo_inurba_marseille","lat":43.29598,"lon":5.38099,"is_reserved":false,"is_disabled":false,"rental_uris":{"android":"levelo://app?vid=9923a36f-ade4-4d63-b46a-e9964f737c33","ios":"levelo://app?vid=9923a36f-ade4-4d63-b46a-e9964f737c33"},"vehicle_type_id":"4","last_reported":1747984253,"current_range_meters":6000,"station_id":"ce4bgl12rcd13ifvqbo0","pricing_plan_id":"cebpf4jnsgd1na2vs0mg"},{"bike_id":"c3c7ae58-40dc-49fe-91c8-045c830c98b8","system_id":"levelo_inurba_marseille","lat":43.31799,"lon":5.44912,"is_reserved":false,"is_disabled":false,"rental_uris":{"android":"levelo://app?vid=c3c7ae58-40dc-49fe-91c8-045c830c98b8","ios":"levelo://app?vid=c3c7ae58-40dc-49fe-91c8-045c830c98b8"},"vehicle_type_id":"4","last_reported":1747984253,"current_range_meters":6000,"station_id":"","pricing_plan_id":"cebpf4jnsgd1na2vs0mg"},{"bike_id":"3fe3d6c4-138a-47df-b6b4-e6f19e8f7d46","system_id":"levelo_inurba_marseille","lat":43.21404,"lon":5.34125,"is_reserved":false,"is_disabled":false,"rental_uris":{"android":"levelo://app?vid=3fe3d6c4-138a-47df-b6b4-e6f19e8f7d46","ios":"levelo://app?vid=3fe3d6c4-138a-47df-b6b4-e6f19e8f7d46"},"vehicle_type_id":"4","last_reported":1747984253,"current_range_meters":6000,"station_id":"","pricing_plan_id":"cebpf4jnsgd1na2vs0mg"},{"bike_id":"3944f00c-e9fc-4706-a38a-ade0f43ef779","system_id":"levelo_inurba_marseille","lat":43.251022,"lon":5.403401,"is_reserved":false,"is_disabled":false,"rental_uris":{"android":"levelo://app?vid=3944f00c-e9fc-4706-a38a-ade0f43ef779","ios":"levelo://app?vid=3944f00c-e9fc-4706-a38a-ade0f43ef779"},"vehicle_type_id":"4","last_reported":1747984253,"current_range_meters":6000,"station_id":"ce4bhlh2rcd13ifvqgig","pricing_plan_id":"cebpf4jnsgd1na2vs0mg"},{"bike_id":"b91980aa-60ff-467c-bd75-7d53cde9d475","system_id":"levelo_inurba_marseille","lat":43.25123,"lon":5.40345,"is_reserved":false,"is_disabled":false,"rental_uris":{"android":"levelo://app?vid=b91980aa-60ff-467c-bd75-7d53cde9d475","ios":"levelo://app?vid=b91980aa-60ff-467c-bd75-7d53cde9d475"},"vehicle_type_id":"4","last_reported":1747984253,"current_range_meters":6400,"station_id":"ce4bhlh2rcd13ifvqgig","pricing_plan_id":"cebpf4jnsgd1na2vs0mg"},{"bike_id":"4a29547f-7f0f-461d-8e78-ad8b67faf9d8","system_id":"levelo_inurba_marseille","lat":43.25932,"lon":5.40901,"is_reserved":false,"is_disabled":false,"rental_uris":{"android":"levelo://app?vid=4a29547f-7f0f-461d-8e78-ad8b67faf9d8","ios":"levelo://app?vid=4a29547f-7f0f-461d-8e78-ad8b67faf9d8"},"vehicle_type_id":"4","last_reported":1747984253,"current_range_meters":6400,"station_id":"ce4bhm92rcd13ifvqglg","pricing_plan_id":"cebpf4jnsgd1na2vs0mg"},{"bike_id":"aaa846a4-bce6-4c84-9744-ea40f2e82a74","system_id":"levelo_inurba_marseille","lat":43.30932,"lon":5.40155,"is_reserved":false,"is_disabled":false,"rental_uris":{"android":"levelo://app?vid=aaa846a4-bce6-4c84-9744-ea40f2e82a74","ios":"levelo://app?vid=aaa846a4-bce6-4c84-9744-ea40f2e82a74"},"vehicle_type_id":"4","last_reported":1747984253,"current_range_meters":6400,"station_id":"ce4bgvp2rcd13ifvqct0","pricing_plan_id":"cebpf4jnsgd1na2vs0mg"},{"bike_id":"736e4d62-3f2b-4e9d-8dde-40914d12020c","system_id":"levelo_inurba_marseille","lat":43.29975,"lon":5.38486,"is_reserved":false,"is_disabled":false,"rental_uris":{"android":"levelo://app?vid=736e4d62-3f2b-4e9d-8dde-40914d12020c","ios":"levelo://app?vid=736e4d62-3f2b-4e9d-8dde-40914d12020c"},"vehicle_type_id":"4","last_reported":1747984253,"current_range_meters":6000,"station_id":"ce4bgj92rcd13ifvqbd0","pricing_plan_id":"cebpf4jnsgd1na2vs0mg"},{"bike_id":"b129cbfe-85c4-43db-b6cf-216c06489afc","system_id":"levelo_inurba_marseille","lat":43.26681,"lon":5.38258,"is_reserved":false,"is_disabled":false,"rental_uris":{"android":"levelo://app?vid=b129cbfe-85c4-43db-b6cf-216c06489afc","ios":"levelo://app?vid=b129cbfe-85c4-43db-b6cf-216c06489afc"},"vehicle_type_id":"4","last_reported":1747984253,"current_range_meters":6400,"station_id":"ce4bhg92rcd13ifvqf90","pricing_plan_id":"cebpf4jnsgd1na2vs0mg"},{"bike_id":"ad4d8099-03a6-43ca-966f-189fb83ff678","system_id":"levelo_inurba_marseille","lat":43.31272,"lon":5.37408,"is_reserved":false,"is_disabled":false,"rental_uris":{"android":"levelo://app?vid=ad4d8099-03a6-43ca-966f-189fb83ff678","ios":"levelo://app?vid=ad4d8099-03a6-43ca-966f-189fb83ff678"},"vehicle_type_id":"4","last_reported":1747984253,"current_range_meters":6400,"station_id":"","pricing_plan_id":"cebpf4jnsgd1na2vs0mg"},{"bike_id":"dd190780-4074-4c96-be71-3da41fe9e38d","system_id":"levelo_inurba_marseille","lat":43.25098,"lon":5.40327,"is_reserved":false,"is_disabled":false,"rental_uris":{"android":"levelo://app?vid=dd190780-4074-4c96-be71-3da41fe9e38d","ios":"levelo://app?vid=dd190780-4074-4c96-be71-3da41fe9e38d"},"vehicle_type_id":"4","last_reported":1747984253,"current_range_meters":6400,"station_id":"ce4bhlh2rcd13ifvqgig","pricing_plan_id":"cebpf4jnsgd1na2vs0mg"},{"bike_id":"f9fb40c0-1fcd-48cb-8e26-3f2dc0fb2451","system_id":"levelo_inurba_marseille","lat":43.33751,"lon":5.37509,"is_reserved":false,"is_disabled":false,"rental_uris":{"android":"levelo://app?vid=f9fb40c0-1fcd-48cb-8e26-3f2dc0fb2451","ios":"levelo://app?vid=f9fb40c0-1fcd-48cb-8e26-3f2dc0fb2451"},"vehicle_type_id":"4","last_reported":1747984253,"current_range_meters":6400,"station_id":"","pricing_plan_id":"cebpf4jnsgd1na2vs0mg"},{"bike_id":"55b790a0-213a-4336-bea1-d8f7753bff20","system_id":"levelo_inurba_marseille","lat":43.26191,"lon":5.37452,"is_reserved":false,"is_disabled":false,"rental_uris":{"android":"levelo://app?vid=55b790a0-213a-4336-bea1-d8f7753bff20","ios":"levelo://app?vid=55b790a0-213a-4336-bea1-d8f7753bff20"},"vehicle_type_id":"4","last_reported":1747984253,"current_range_meters":6400,"station_id":"ce4bhgp2rcd13ifvqfc0","pricing_plan_id":"cebpf4jnsgd1na2vs0mg"},{"bike_id":"a8cec40b-61c6-447f-8322-cc0f71214283","system_id":"levelo_inurba_marseille","lat":43.278334,"lon":5.392137,"is_reserved":false,"is_disabled":false,"rental_uris":{"android":"levelo://app?vid=a8cec40b-61c6-447f-8322-cc0f71214283","ios":"levelo://app?vid=a8cec40b-61c6-447f-8322-cc0f71214283"},"vehicle_type_id":"4","last_reported":1747984253,"current_range_meters":6400,"station_id":"ce4bgr92rcd13ifvqc6g","pricing_plan_id":"cebpf4jnsgd1na2vs0mg"},{"bike_id":"1ba9aa4d-0c34-4019-baf5-5f50a55b558d","system_id":"levelo_inurba_marseille","lat":43.29963,"lon":5.38501,"is_reserved":false,"is_disabled":false,"rental_uris":{"android":"levelo://app?vid=1ba9aa4d-0c34-4019-baf5-5f50a55b558d","ios":"levelo://app?vid=1ba9aa4d-0c34-4019-baf5-5f50a55b558d"},"vehicle_type_id":"4","last_reported":1747984253,"current_range_meters":6000,"station_id":"ce4bgj92rcd13ifvqbd0","pricing_plan_id":"cebpf4jnsgd1na2vs0mg"},{"bike_id":"b99e8633-de01-4259-88d4-efb2ee19f3ed","system_id":"levelo_inurba_marseille","lat":43.240665,"lon":5.377505,"is_reserved":false,"is_disabled":false,"rental_uris":{"android":"levelo://app?vid=b99e8633-de01-4259-88d4-efb2ee19f3ed","ios":"levelo://app?vid=b99e8633-de01-4259-88d4-efb2ee19f3ed"},"vehicle_type_id":"4","last_reported":1747984253,"current_range_meters":6800,"station_id":"ce4bhnp2rcd13ifvqgvg","pricing_plan_id":"cebpf4jnsgd1na2vs0mg"},{"bike_id":"cd2b9d97-3676-4c83-8e3b-aa4857457d9a","system_id":"levelo_inurba_marseille","lat":43.31498,"lon":5.37037,"is_reserved":false,"is_disabled":false,"rental_uris":{"android":"levelo://app?vid=cd2b9d97-3676-4c83-8e3b-aa4857457d9a","ios":"levelo://app?vid=cd2b9d97-3676-4c83-8e3b-aa4857457d9a"},"vehicle_type_id":"4","last_reported":1747984253,"current_range_meters":6800,"station_id":"","pricing_plan_id":"cebpf4jnsgd1na2vs0mg"},{"bike_id":"a07478c7-80ac-4f15-a1ee-c92951f16d5e","system_id":"levelo_inurba_marseille","lat":43.30798,"lon":5.43534,"is_reserved":false,"is_disabled":true,"rental_uris":{"android":"levelo://app?vid=a07478c7-80ac-4f15-a1ee-c92951f16d5e","ios":"levelo://app?vid=a07478c7-80ac-4f15-a1ee-c92951f16d5e"},"vehicle_type_id":"4","last_reported":1747984253,"current_range_meters":7200,"station_id":"ce4bhph2rcd13ifvqheg","pricing_plan_id":"cebpf4jnsgd1na2vs0mg"},{"bike_id":"971c8a5c-db56-48ea-b476-188519cb0562","system_id":"levelo_inurba_marseille","lat":43.30063,"lon":5.40505,"is_reserved":false,"is_disabled":false,"rental_uris":{"android":"levelo://app?vid=971c8a5c-db56-48ea-b476-188519cb0562","ios":"levelo://app?vid=971c8a5c-db56-48ea-b476-188519cb0562"},"vehicle_type_id":"4","last_reported":1747984253,"current_range_meters":7200,"station_id":"","pricing_plan_id":"cebpf4jnsgd1na2vs0mg"},{"bike_id":"7aae4ae8-7818-4c68-aea7-b7f338b36e37","system_id":"levelo_inurba_marseille","lat":43.240798,"lon":5.377581,"is_reserved":false,"is_disabled":false,"rental_uris":{"android":"levelo://app?vid=7aae4ae8-7818-4c68-aea7-b7f338b36e37","ios":"levelo://app?vid=7aae4ae8-7818-4c68-aea7-b7f338b36e37"},"vehicle_type_id":"4","last_reported":1747984253,"current_range_meters":7200,"station_id":"ce4bhnp2rcd13ifvqgvg","pricing_plan_id":"cebpf4jnsgd1na2vs0mg"},{"bike_id":"c13997ad-d3f6-44a3-a3f9-05a96af4a920","system_id":"levelo_inurba_marseille","lat":43.32478,"lon":5.36567,"is_reserved":false,"is_disabled":false,"rental_uris":{"android":"levelo://app?vid=c13997ad-d3f6-44a3-a3f9-05a96af4a920","ios":"levelo://app?vid=c13997ad-d3f6-44a3-a3f9-05a96af4a920"},"vehicle_type_id":"4","last_reported":1747984253,"current_range_meters":7200,"station_id":"ce4bhs12rcd13ifvqhvg","pricing_plan_id":"cebpf4jnsgd1na2vs0mg"},{"bike_id":"3022497e-9a24-4d16-b5d2-78aa7c07375d","system_id":"levelo_inurba_marseille","lat":43.290369,"lon":5.37834,"is_reserved":false,"is_disabled":false,"rental_uris":{"android":"levelo://app?vid=3022497e-9a24-4d16-b5d2-78aa7c07375d","ios":"levelo://app?vid=3022497e-9a24-4d16-b5d2-78aa7c07375d"},"vehicle_type_id":"4","last_reported":1747984253,"current_range_meters":7200,"station_id":"","pricing_plan_id":"cebpf4jnsgd1na2vs0mg"},{"bike_id":"63734ce8-02b3-42c0-bee9-218e784cbe7f","system_id":"levelo_inurba_marseille","lat":43.32283,"lon":5.3827,"is_reserved":false,"is_disabled":false,"rental_uris":{"android":"levelo://app?vid=63734ce8-02b3-42c0-bee9-218e784cbe7f","ios":"levelo://app?vid=63734ce8-02b3-42c0-bee9-218e784cbe7f"},"vehicle_type_id":"4","last_reported":1747984253,"current_range_meters":7200,"station_id":"ce4bhr12rcd13ifvqhqg","pricing_plan_id":"cebpf4jnsgd1na2vs0mg"},{"bike_id":"aa2013ca-7259-4f66-b0c8-bcdf349796c5","system_id":"levelo_inurba_marseille","lat":43.3013,"lon":5.39844,"is_reserved":false,"is_disabled":false,"rental_uris":{"android":"levelo://app?vid=aa2013ca-7259-4f66-b0c8-bcdf349796c5","ios":"levelo://app?vid=aa2013ca-7259-4f66-b0c8-bcdf349796c5"},"vehicle_type_id":"4","last_reported":1747984253,"current_range_meters":7200,"station_id":"ce4bh0h2rcd13ifvqd40","pricing_plan_id":"cebpf4jnsgd1na2vs0mg"},{"bike_id":"27653dcd-dec9-4f13-b172-8968c20c1725","system_id":"levelo_inurba_marseille","lat":43.23852,"lon":5.43088,"is_reserved":false,"is_disabled":false,"rental_uris":{"android":"levelo://app?vid=27653dcd-dec9-4f13-b172-8968c20c1725","ios":"levelo://app?vid=27653dcd-dec9-4f13-b172-8968c20c1725"},"vehicle_type_id":"4","last_reported":1747984253,"current_range_meters":7200,"station_id":"","pricing_plan_id":"cebpf4jnsgd1na2vs0mg"},{"bike_id":"9f77cae3-9ee4-4f8d-9508-03dd93c77bb6","system_id":"levelo_inurba_marseille","lat":43.25936,"lon":5.40903,"is_reserved":false,"is_disabled":false,"rental_uris":{"android":"levelo://app?vid=9f77cae3-9ee4-4f8d-9508-03dd93c77bb6","ios":"levelo://app?vid=9f77cae3-9ee4-4f8d-9508-03dd93c77bb6"},"vehicle_type_id":"4","last_reported":1747984253,"current_range_meters":7200,"station_id":"ce4bhm92rcd13ifvqglg","pricing_plan_id":"cebpf4jnsgd1na2vs0mg"},{"bike_id":"7840330f-1868-47b7-b454-a81947a4dcc6","system_id":"levelo_inurba_marseille","lat":43.217447,"lon":5.346191,"is_reserved":false,"is_disabled":false,"rental_uris":{"android":"levelo://app?vid=7840330f-1868-47b7-b454-a81947a4dcc6","ios":"levelo://app?vid=7840330f-1868-47b7-b454-a81947a4dcc6"},"vehicle_type_id":"4","last_reported":1747984253,"current_range_meters":7200,"station_id":"st_cvj6r9ubvosntc0bgbag","pricing_plan_id":"cebpf4jnsgd1na2vs0mg"},{"bike_id":"85188710-b537-45c6-bcd9-3c24194644c0","system_id":"levelo_inurba_marseille","lat":43.26928,"lon":5.38634,"is_reserved":false,"is_disabled":false,"rental_uris":{"android":"levelo://app?vid=85188710-b537-45c6-bcd9-3c24194644c0","ios":"levelo://app?vid=85188710-b537-45c6-bcd9-3c24194644c0"},"vehicle_type_id":"4","last_reported":1747984253,"current_range_meters":8000,"station_id":"ce4bhh92rcd13ifvqfh0","pricing_plan_id":"cebpf4jnsgd1na2vs0mg"},{"bike_id":"41f3880c-c80d-49bf-a6c3-6aeeab95bda8","system_id":"levelo_inurba_marseille","lat":43.30188,"lon":5.36616,"is_reserved":false,"is_disabled":false,"rental_uris":{"android":"levelo://app?vid=41f3880c-c80d-49bf-a6c3-6aeeab95bda8","ios":"levelo://app?vid=41f3880c-c80d-49bf-a6c3-6aeeab95bda8"},"vehicle_type_id":"4","last_reported":1747984253,"current_range_meters":8000,"station_id":"ce4bgrh2rcd13ifvqc8g","pricing_plan_id":"cebpf4jnsgd1na2vs0mg"},{"bike_id":"6a1456dd-cc1a-45a9-8949-eda76d39bbf7","system_id":"levelo_inurba_marseille","lat":43.272073,"lon":5.391817,"is_reserved":false,"is_disabled":false,"rental_uris":{"android":"levelo://app?vid=6a1456dd-cc1a-45a9-8949-eda76d39bbf7","ios":"levelo://app?vid=6a1456dd-cc1a-45a9-8949-eda76d39bbf7"},"vehicle_type_id":"4","last_reported":1747984253,"current_range_meters":7200,"station_id":"ce4bhhp2rcd13ifvqfm0","pricing_plan_id":"cebpf4jnsgd1na2vs0mg"},{"bike_id":"6a85369f-636f-4448-91f6-e3994a0fb52b","system_id":"levelo_inurba_marseille","lat":43.277541,"lon":5.386899,"is_reserved":false,"is_disabled":false,"rental_uris":{"android":"levelo://app?vid=6a85369f-636f-4448-91f6-e3994a0fb52b","ios":"levelo://app?vid=6a85369f-636f-4448-91f6-e3994a0fb52b"},"vehicle_type_id":"4","last_reported":1747984253,"current_range_meters":8400,"station_id":"","pricing_plan_id":"cebpf4jnsgd1na2vs0mg"},{"bike_id":"0ac388b9-2711-44ee-bfb8-c58b1e0d81b7","system_id":"levelo_inurba_marseille","lat":43.23152,"lon":5.43709,"is_reserved":false,"is_disabled":false,"rental_uris":{"android":"levelo://app?vid=0ac388b9-2711-44ee-bfb8-c58b1e0d81b7","ios":"levelo://app?vid=0ac388b9-2711-44ee-bfb8-c58b1e0d81b7"},"vehicle_type_id":"4","last_reported":1747984253,"current_range_meters":8000,"station_id":"ce4bhmp2rcd13ifvqgog","pricing_plan_id":"cebpf4jnsgd1na2vs0mg"},{"bike_id":"b2421589-4e6b-4946-a0a8-9c5526af668b","system_id":"levelo_inurba_marseille","lat":43.24084,"lon":5.37774,"is_reserved":false,"is_disabled":false,"rental_uris":{"android":"levelo://app?vid=b2421589-4e6b-4946-a0a8-9c5526af668b","ios":"levelo://app?vid=b2421589-4e6b-4946-a0a8-9c5526af668b"},"vehicle_type_id":"4","last_reported":1747984253,"current_range_meters":8000,"station_id":"ce4bhnp2rcd13ifvqgvg","pricing_plan_id":"cebpf4jnsgd1na2vs0mg"},{"bike_id":"6f292ab3-2899-4f1b-8b79-40d26ddd0df1","system_id":"levelo_inurba_marseille","lat":43.27111,"lon":5.38496,"is_reserved":false,"is_disabled":false,"rental_uris":{"android":"levelo://app?vid=6f292ab3-2899-4f1b-8b79-40d26ddd0df1","ios":"levelo://app?vid=6f292ab3-2899-4f1b-8b79-40d26ddd0df1"},"vehicle_type_id":"4","last_reported":1747984253,"current_range_meters":8000,"station_id":"","pricing_plan_id":"cebpf4jnsgd1na2vs0mg"},{"bike_id":"950cad50-4e47-43b4-ba8e-d97ac6386634","system_id":"levelo_inurba_marseille","lat":43.25563,"lon":5.38251,"is_reserved":false,"is_disabled":false,"rental_uris":{"android":"levelo://app?vid=950cad50-4e47-43b4-ba8e-d97ac6386634","ios":"levelo://app?vid=950cad50-4e47-43b4-ba8e-d97ac6386634"},"vehicle_type_id":"4","last_reported":1747984253,"current_range_meters":8000,"station_id":"","pricing_plan_id":"cebpf4jnsgd1na2vs0mg"},{"bike_id":"0815fd33-a825-49ef-90ec-ee19dc7387e0","system_id":"levelo_inurba_marseille","lat":43.27769,"lon":5.39976,"is_reserved":false,"is_disabled":false,"rental_uris":{"android":"levelo://app?vid=0815fd33-a825-49ef-90ec-ee19dc7387e0","ios":"levelo://app?vid=0815fd33-a825-49ef-90ec-ee19dc7387e0"},"vehicle_type_id":"4","last_reported":1747984253,"current_range_meters":8000,"station_id":"","pricing_plan_id":"cebpf4jnsgd1na2vs0mg"},{"bike_id":"daa1fa20-a4fc-4e4c-a5e0-a46c69fa4a94","system_id":"levelo_inurba_marseille","lat":43.25103,"lon":5.40335,"is_reserved":false,"is_disabled":false,"rental_uris":{"android":"levelo://app?vid=daa1fa20-a4fc-4e4c-a5e0-a46c69fa4a94","ios":"levelo://app?vid=daa1fa20-a4fc-4e4c-a5e0-a46c69fa4a94"},"vehicle_type_id":"4","last_reported":1747984253,"current_range_meters":8400,"station_id":"ce4bhlh2rcd13ifvqgig","pricing_plan_id":"cebpf4jnsgd1na2vs0mg"},{"bike_id":"f6060218-a4fa-4cc9-bdb7-79b96992d8b3","system_id":"levelo_inurba_marseille","lat":43.29982,"lon":5.38493,"is_reserved":false,"is_disabled":true,"rental_uris":{"android":"levelo://app?vid=f6060218-a4fa-4cc9-bdb7-79b96992d8b3","ios":"levelo://app?vid=f6060218-a4fa-4cc9-bdb7-79b96992d8b3"},"vehicle_type_id":"4","last_reported":1747984253,"current_range_meters":8400,"station_id":"ce4bgj92rcd13ifvqbd0","pricing_plan_id":"cebpf4jnsgd1na2vs0mg"},{"bike_id":"7dfdfdc8-9c79-46b6-9a4b-924773b53f29","system_id":"levelo_inurba_marseille","lat":43.26866,"lon":5.39161,"is_reserved":false,"is_disabled":false,"rental_uris":{"android":"levelo://app?vid=7dfdfdc8-9c79-46b6-9a4b-924773b53f29","ios":"levelo://app?vid=7dfdfdc8-9c79-46b6-9a4b-924773b53f29"},"vehicle_type_id":"4","last_reported":1747984253,"current_range_meters":8400,"station_id":"","pricing_plan_id":"cebpf4jnsgd1na2vs0mg"},{"bike_id":"895fec85-4848-4820-b938-243da6ee2367","system_id":"levelo_inurba_marseille","lat":43.304598,"lon":5.379112,"is_reserved":false,"is_disabled":false,"rental_uris":{"android":"levelo://app?vid=895fec85-4848-4820-b938-243da6ee2367","ios":"levelo://app?vid=895fec85-4848-4820-b938-243da6ee2367"},"vehicle_type_id":"4","last_reported":1747984253,"current_range_meters":8400,"station_id":"ce4bhs12rcd13ifvqhvg","pricing_plan_id":"cebpf4jnsgd1na2vs0mg"},{"bike_id":"2ddd45c3-f391-4f2c-9a61-6bca39cf9c30","system_id":"levelo_inurba_marseille","lat":43.30156,"lon":5.38086,"is_reserved":false,"is_disabled":false,"rental_uris":{"android":"levelo://app?vid=2ddd45c3-f391-4f2c-9a61-6bca39cf9c30","ios":"levelo://app?vid=2ddd45c3-f391-4f2c-9a61-6bca39cf9c30"},"vehicle_type_id":"4","last_reported":1747984253,"current_range_meters":8400,"station_id":"ce4bgjp2rcd13ifvqbh0","pricing_plan_id":"cebpf4jnsgd1na2vs0mg"},{"bike_id":"d15f0fc2-d9c5-484e-bb68-0cf60307641f","system_id":"levelo_inurba_marseille","lat":43.26956,"lon":5.38634,"is_reserved":false,"is_disabled":false,"rental_uris":{"android":"levelo://app?vid=d15f0fc2-d9c5-484e-bb68-0cf60307641f","ios":"levelo://app?vid=d15f0fc2-d9c5-484e-bb68-0cf60307641f"},"vehicle_type_id":"4","last_reported":1747984253,"current_range_meters":8400,"station_id":"ce4bhh92rcd13ifvqfh0","pricing_plan_id":"cebpf4jnsgd1na2vs0mg"},{"bike_id":"5bbd1f12-d5ec-41a6-935f-c9aa6f7ee177","system_id":"levelo_inurba_marseille","lat":43.2751,"lon":5.42468,"is_reserved":false,"is_disabled":false,"rental_uris":{"android":"levelo://app?vid=5bbd1f12-d5ec-41a6-935f-c9aa6f7ee177","ios":"levelo://app?vid=5bbd1f12-d5ec-41a6-935f-c9aa6f7ee177"},"vehicle_type_id":"4","last_reported":1747984253,"current_range_meters":8400,"station_id":"ce4bhn92rcd13ifvqgrg","pricing_plan_id":"cebpf4jnsgd1na2vs0mg"},{"bike_id":"31110881-d64f-45f8-9810-bbf84a002836","system_id":"levelo_inurba_marseille","lat":43.28358,"lon":5.46016,"is_reserved":false,"is_disabled":false,"rental_uris":{"android":"levelo://app?vid=31110881-d64f-45f8-9810-bbf84a002836","ios":"levelo://app?vid=31110881-d64f-45f8-9810-bbf84a002836"},"vehicle_type_id":"4","last_reported":1747984253,"current_range_meters":8400,"station_id":"","pricing_plan_id":"cebpf4jnsgd1na2vs0mg"},{"bike_id":"fb338999-43d7-40ab-8484-01e01b2819d8","system_id":"levelo_inurba_marseille","lat":43.27375,"lon":5.362498,"is_reserved":false,"is_disabled":false,"rental_uris":{"android":"levelo://app?vid=fb338999-43d7-40ab-8484-01e01b2819d8","ios":"levelo://app?vid=fb338999-43d7-40ab-8484-01e01b2819d8"},"vehicle_type_id":"4","last_reported":1747984253,"current_range_meters":8400,"station_id":"ce4bhbh2rcd13ifvqeo0","pricing_plan_id":"cebpf4jnsgd1na2vs0mg"},{"bike_id":"5d24afeb-d275-4f73-a0ea-a839b51088ac","system_id":"levelo_inurba_marseille","lat":43.247662,"lon":5.37467,"is_reserved":false,"is_disabled":false,"rental_uris":{"android":"levelo://app?vid=5d24afeb-d275-4f73-a0ea-a839b51088ac","ios":"levelo://app?vid=5d24afeb-d275-4f73-a0ea-a839b51088ac"},"vehicle_type_id":"4","last_reported":1747984253,"current_range_meters":8400,"station_id":"ce4bhgh2rcd13ifvqfb0","pricing_plan_id":"cebpf4jnsgd1na2vs0mg"},{"bike_id":"4b043e01-a5de-42bf-a94a-514363515081","system_id":"levelo_inurba_marseille","lat":43.25114,"lon":5.40304,"is_reserved":false,"is_disabled":false,"rental_uris":{"android":"levelo://app?vid=4b043e01-a5de-42bf-a94a-514363515081","ios":"levelo://app?vid=4b043e01-a5de-42bf-a94a-514363515081"},"vehicle_type_id":"4","last_reported":1747984253,"current_range_meters":8400,"station_id":"ce4bhlh2rcd13ifvqgig","pricing_plan_id":"cebpf4jnsgd1na2vs0mg"},{"bike_id":"7abcd9a9-8d1f-454e-9807-cab6497c60fc","system_id":"levelo_inurba_marseille","lat":43.26221,"lon":5.40467,"is_reserved":false,"is_disabled":false,"rental_uris":{"android":"levelo://app?vid=7abcd9a9-8d1f-454e-9807-cab6497c60fc","ios":"levelo://app?vid=7abcd9a9-8d1f-454e-9807-cab6497c60fc"},"vehicle_type_id":"4","last_reported":1747984253,"current_range_meters":4800,"station_id":"ce4bhmh2rcd13ifvqgmg","pricing_plan_id":"cebpf4jnsgd1na2vs0mg"},{"bike_id":"ca5d4306-f84c-4e20-9b88-830ffa4263d2","system_id":"levelo_inurba_marseille","lat":43.2294,"lon":5.35381,"is_reserved":false,"is_disabled":false,"rental_uris":{"android":"levelo://app?vid=ca5d4306-f84c-4e20-9b88-830ffa4263d2","ios":"levelo://app?vid=ca5d4306-f84c-4e20-9b88-830ffa4263d2"},"vehicle_type_id":"4","last_reported":1747984253,"current_range_meters":8800,"station_id":"cpo3532slgdg3j2ikp40","pricing_plan_id":"cebpf4jnsgd1na2vs0mg"},{"bike_id":"f2078ae5-2f5e-4d79-b314-93d80adc7ac8","system_id":"levelo_inurba_marseille","lat":43.30442,"lon":5.38901,"is_reserved":false,"is_disabled":false,"rental_uris":{"android":"levelo://app?vid=f2078ae5-2f5e-4d79-b314-93d80adc7ac8","ios":"levelo://app?vid=f2078ae5-2f5e-4d79-b314-93d80adc7ac8"},"vehicle_type_id":"4","last_reported":1747984253,"current_range_meters":8800,"station_id":"ce4bgk12rcd13ifvqbi0","pricing_plan_id":"cebpf4jnsgd1na2vs0mg"},{"bike_id":"98b924e8-dca0-4407-9938-a65d84c50dad","system_id":"levelo_inurba_marseille","lat":43.21744,"lon":5.34605,"is_reserved":false,"is_disabled":false,"rental_uris":{"android":"levelo://app?vid=98b924e8-dca0-4407-9938-a65d84c50dad","ios":"levelo://app?vid=98b924e8-dca0-4407-9938-a65d84c50dad"},"vehicle_type_id":"4","last_reported":1747984253,"current_range_meters":8800,"station_id":"","pricing_plan_id":"cebpf4jnsgd1na2vs0mg"},{"bike_id":"59fc1262-3d50-4832-ae48-6404648611ae","system_id":"levelo_inurba_marseille","lat":43.28149,"lon":5.42641,"is_reserved":false,"is_disabled":false,"rental_uris":{"android":"levelo://app?vid=59fc1262-3d50-4832-ae48-6404648611ae","ios":"levelo://app?vid=59fc1262-3d50-4832-ae48-6404648611ae"},"vehicle_type_id":"4","last_reported":1747984253,"current_range_meters":8800,"station_id":"ce4bhnh2rcd13ifvqgug","pricing_plan_id":"cebpf4jnsgd1na2vs0mg"},{"bike_id":"d7fa22b5-1bed-4592-894a-ee5cf0016828","system_id":"levelo_inurba_marseille","lat":43.23959,"lon":5.36628,"is_reserved":false,"is_disabled":false,"rental_uris":{"android":"levelo://app?vid=d7fa22b5-1bed-4592-894a-ee5cf0016828","ios":"levelo://app?vid=d7fa22b5-1bed-4592-894a-ee5cf0016828"},"vehicle_type_id":"4","last_reported":1747984253,"current_range_meters":8800,"station_id":"ce4bhi12rcd13ifvqfp0","pricing_plan_id":"cebpf4jnsgd1na2vs0mg"},{"bike_id":"77d351e7-4031-43fb-a118-368e81529b6f","system_id":"levelo_inurba_marseille","lat":43.286189,"lon":5.35113,"is_reserved":false,"is_disabled":false,"rental_uris":{"android":"levelo://app?vid=77d351e7-4031-43fb-a118-368e81529b6f","ios":"levelo://app?vid=77d351e7-4031-43fb-a118-368e81529b6f"},"vehicle_type_id":"4","last_reported":1747984253,"current_range_meters":8800,"station_id":"ce4bhch2rcd13ifvqeug","pricing_plan_id":"cebpf4jnsgd1na2vs0mg"},{"bike_id":"0f590af5-5348-43c4-92f2-0b855bfc59b6","system_id":"levelo_inurba_marseille","lat":43.24667,"lon":5.3903,"is_reserved":false,"is_disabled":false,"rental_uris":{"android":"levelo://app?vid=0f590af5-5348-43c4-92f2-0b855bfc59b6","ios":"levelo://app?vid=0f590af5-5348-43c4-92f2-0b855bfc59b6"},"vehicle_type_id":"4","last_reported":1747984253,"current_range_meters":8800,"station_id":"","pricing_plan_id":"cebpf4jnsgd1na2vs0mg"},{"bike_id":"b5f9e8c1-abe5-4841-898d-cc6d95725c25","system_id":"levelo_inurba_marseille","lat":43.24163,"lon":5.39717,"is_reserved":false,"is_disabled":false,"rental_uris":{"android":"levelo://app?vid=b5f9e8c1-abe5-4841-898d-cc6d95725c25","ios":"levelo://app?vid=b5f9e8c1-abe5-4841-898d-cc6d95725c25"},"vehicle_type_id":"4","last_reported":1747984253,"current_range_meters":8800,"station_id":"ce4bhn12rcd13ifvqgpg","pricing_plan_id":"cebpf4jnsgd1na2vs0mg"},{"bike_id":"beba2d62-15d6-47a9-a467-1e6c70004af0","system_id":"levelo_inurba_marseille","lat":43.2606,"lon":5.37533,"is_reserved":false,"is_disabled":false,"rental_uris":{"android":"levelo://app?vid=beba2d62-15d6-47a9-a467-1e6c70004af0","ios":"levelo://app?vid=beba2d62-15d6-47a9-a467-1e6c70004af0"},"vehicle_type_id":"4","last_reported":1747984253,"current_range_meters":9200,"station_id":"ce4bhgh2rcd13ifvqfa0","pricing_plan_id":"cebpf4jnsgd1na2vs0mg"},{"bike_id":"323209f8-081e-48f0-9ff3-ab93090f3288","system_id":"levelo_inurba_marseille","lat":43.30143,"lon":5.37417,"is_reserved":false,"is_disabled":false,"rental_uris":{"android":"levelo://app?vid=323209f8-081e-48f0-9ff3-ab93090f3288","ios":"levelo://app?vid=323209f8-081e-48f0-9ff3-ab93090f3288"},"vehicle_type_id":"4","last_reported":1747984253,"current_range_meters":9200,"station_id":"ce4bgs92rcd13ifvqcc0","pricing_plan_id":"cebpf4jnsgd1na2vs0mg"},{"bike_id":"b5af5f86-f6ab-4a3a-a5fa-efb0141ee615","system_id":"levelo_inurba_marseille","lat":43.292653,"lon":5.376267,"is_reserved":false,"is_disabled":false,"rental_uris":{"android":"levelo://app?vid=b5af5f86-f6ab-4a3a-a5fa-efb0141ee615","ios":"levelo://app?vid=b5af5f86-f6ab-4a3a-a5fa-efb0141ee615"},"vehicle_type_id":"4","last_reported":1747984253,"current_range_meters":9200,"station_id":"ce4bgi12rcd13ifvqb80","pricing_plan_id":"cebpf4jnsgd1na2vs0mg"},{"bike_id":"89495d62-122a-4e69-ab37-b811c27f0462","system_id":"levelo_inurba_marseille","lat":43.25134,"lon":5.40311,"is_reserved":false,"is_disabled":false,"rental_uris":{"android":"levelo://app?vid=89495d62-122a-4e69-ab37-b811c27f0462","ios":"levelo://app?vid=89495d62-122a-4e69-ab37-b811c27f0462"},"vehicle_type_id":"4","last_reported":1747984253,"current_range_meters":9200,"station_id":"ce4bhlh2rcd13ifvqgig","pricing_plan_id":"cebpf4jnsgd1na2vs0mg"},{"bike_id":"def39d66-3c80-4d73-9c0a-14d11a6d5494","system_id":"levelo_inurba_marseille","lat":43.336104,"lon":5.41036,"is_reserved":false,"is_disabled":false,"rental_uris":{"android":"levelo://app?vid=def39d66-3c80-4d73-9c0a-14d11a6d5494","ios":"levelo://app?vid=def39d66-3c80-4d73-9c0a-14d11a6d5494"},"vehicle_type_id":"4","last_reported":1747984253,"current_range_meters":9200,"station_id":"ce4bhqh2rcd13ifvqhmg","pricing_plan_id":"cebpf4jnsgd1na2vs0mg"},{"bike_id":"18fff3da-92d5-49ac-88d8-4876f7d59aa3","system_id":"levelo_inurba_marseille","lat":43.30157,"lon":5.38068,"is_reserved":false,"is_disabled":false,"rental_uris":{"android":"levelo://app?vid=18fff3da-92d5-49ac-88d8-4876f7d59aa3","ios":"levelo://app?vid=18fff3da-92d5-49ac-88d8-4876f7d59aa3"},"vehicle_type_id":"4","last_reported":1747984253,"current_range_meters":9200,"station_id":"ce4bgjp2rcd13ifvqbh0","pricing_plan_id":"cebpf4jnsgd1na2vs0mg"},{"bike_id":"e4562ad1-0a39-4300-91ec-1f0dc2c1ff97","system_id":"levelo_inurba_marseille","lat":43.32484,"lon":5.36578,"is_reserved":false,"is_disabled":false,"rental_uris":{"android":"levelo://app?vid=e4562ad1-0a39-4300-91ec-1f0dc2c1ff97","ios":"levelo://app?vid=e4562ad1-0a39-4300-91ec-1f0dc2c1ff97"},"vehicle_type_id":"4","last_reported":1747984253,"current_range_meters":9200,"station_id":"ce4bhs12rcd13ifvqhvg","pricing_plan_id":"cebpf4jnsgd1na2vs0mg"},{"bike_id":"fc478b53-8c86-4331-b685-e08cb1f0dc78","system_id":"levelo_inurba_marseille","lat":43.28431,"lon":5.35023,"is_reserved":false,"is_disabled":false,"rental_uris":{"android":"levelo://app?vid=fc478b53-8c86-4331-b685-e08cb1f0dc78","ios":"levelo://app?vid=fc478b53-8c86-4331-b685-e08cb1f0dc78"},"vehicle_type_id":"4","last_reported":1747984253,"current_range_meters":9200,"station_id":"ce4bhbh2rcd13ifvqepg","pricing_plan_id":"cebpf4jnsgd1na2vs0mg"},{"bike_id":"4e8fa508-b328-4cf6-af3c-1336267fe6b6","system_id":"levelo_inurba_marseille","lat":43.32484,"lon":5.36554,"is_reserved":false,"is_disabled":false,"rental_uris":{"android":"levelo://app?vid=4e8fa508-b328-4cf6-af3c-1336267fe6b6","ios":"levelo://app?vid=4e8fa508-b328-4cf6-af3c-1336267fe6b6"},"vehicle_type_id":"4","last_reported":1747984253,"current_range_meters":9200,"station_id":"ce4bhs12rcd13ifvqhvg","pricing_plan_id":"cebpf4jnsgd1na2vs0mg"},{"bike_id":"c2ea5a9c-8fd7-40ac-8515-427466010d70","system_id":"levelo_inurba_marseille","lat":43.32095,"lon":5.3677,"is_reserved":false,"is_disabled":false,"rental_uris":{"android":"levelo://app?vid=c2ea5a9c-8fd7-40ac-8515-427466010d70","ios":"levelo://app?vid=c2ea5a9c-8fd7-40ac-8515-427466010d70"},"vehicle_type_id":"4","last_reported":1747984253,"current_range_meters":9200,"station_id":"ce4bhrh2rcd13ifvqhug","pricing_plan_id":"cebpf4jnsgd1na2vs0mg"},{"bike_id":"ad54631a-a0ce-46ef-804a-f6ebeba027b0","system_id":"levelo_inurba_marseille","lat":43.26953,"lon":5.3862,"is_reserved":false,"is_disabled":false,"rental_uris":{"android":"levelo://app?vid=ad54631a-a0ce-46ef-804a-f6ebeba027b0","ios":"levelo://app?vid=ad54631a-a0ce-46ef-804a-f6ebeba027b0"},"vehicle_type_id":"4","last_reported":1747984253,"current_range_meters":9200,"station_id":"ce4bhh92rcd13ifvqfh0","pricing_plan_id":"cebpf4jnsgd1na2vs0mg"},{"bike_id":"af3ff304-0657-4097-865e-cc038f6001f7","system_id":"levelo_inurba_marseille","lat":43.2465,"lon":5.3888,"is_reserved":false,"is_disabled":false,"rental_uris":{"android":"levelo://app?vid=af3ff304-0657-4097-865e-cc038f6001f7","ios":"levelo://app?vid=af3ff304-0657-4097-865e-cc038f6001f7"},"vehicle_type_id":"4","last_reported":1747984253,"current_range_meters":9600,"station_id":"ce4bhg12rcd13ifvqf60","pricing_plan_id":"cebpf4jnsgd1na2vs0mg"},{"bike_id":"f72ba028-fa78-4e85-a6be-9ca4b661ccc4","system_id":"levelo_inurba_marseille","lat":43.27064,"lon":5.42259,"is_reserved":false,"is_disabled":false,"rental_uris":{"android":"levelo://app?vid=f72ba028-fa78-4e85-a6be-9ca4b661ccc4","ios":"levelo://app?vid=f72ba028-fa78-4e85-a6be-9ca4b661ccc4"},"vehicle_type_id":"4","last_reported":1747984253,"current_range_meters":9600,"station_id":"ce4bhk92rcd13ifvqgb0","pricing_plan_id":"cebpf4jnsgd1na2vs0mg"},{"bike_id":"a3896e9a-b111-4a5e-9fba-9fce87836ccc","system_id":"levelo_inurba_marseille","lat":43.25582,"lon":5.38223,"is_reserved":false,"is_disabled":false,"rental_uris":{"android":"levelo://app?vid=a3896e9a-b111-4a5e-9fba-9fce87836ccc","ios":"levelo://app?vid=a3896e9a-b111-4a5e-9fba-9fce87836ccc"},"vehicle_type_id":"4","last_reported":1747984253,"current_range_meters":9600,"station_id":"ce4bhih2rcd13ifvqfs0","pricing_plan_id":"cebpf4jnsgd1na2vs0mg"},{"bike_id":"174b104e-9dbf-4977-9875-ad8de535145c","system_id":"levelo_inurba_marseille","lat":43.2624,"lon":5.38755,"is_reserved":false,"is_disabled":false,"rental_uris":{"android":"levelo://app?vid=174b104e-9dbf-4977-9875-ad8de535145c","ios":"levelo://app?vid=174b104e-9dbf-4977-9875-ad8de535145c"},"vehicle_type_id":"4","last_reported":1747984253,"current_range_meters":9600,"station_id":"","pricing_plan_id":"cebpf4jnsgd1na2vs0mg"},{"bike_id":"d5ef9bfd-47f0-45d4-b59f-f18ac0ae1387","system_id":"levelo_inurba_marseille","lat":43.24064,"lon":5.37772,"is_reserved":false,"is_disabled":false,"rental_uris":{"android":"levelo://app?vid=d5ef9bfd-47f0-45d4-b59f-f18ac0ae1387","ios":"levelo://app?vid=d5ef9bfd-47f0-45d4-b59f-f18ac0ae1387"},"vehicle_type_id":"4","last_reported":1747984253,"current_range_meters":9600,"station_id":"ce4bhnp2rcd13ifvqgvg","pricing_plan_id":"cebpf4jnsgd1na2vs0mg"},{"bike_id":"13684d16-f2e9-4f3f-8955-45e3cfb9e261","system_id":"levelo_inurba_marseille","lat":43.24169,"lon":5.3972,"is_reserved":false,"is_disabled":false,"rental_uris":{"android":"levelo://app?vid=13684d16-f2e9-4f3f-8955-45e3cfb9e261","ios":"levelo://app?vid=13684d16-f2e9-4f3f-8955-45e3cfb9e261"},"vehicle_type_id":"4","last_reported":1747984253,"current_range_meters":9600,"station_id":"ce4bhn12rcd13ifvqgpg","pricing_plan_id":"cebpf4jnsgd1na2vs0mg"},{"bike_id":"9d9aba93-9205-47c7-82bb-697233efc896","system_id":"levelo_inurba_marseille","lat":43.24076,"lon":5.37752,"is_reserved":false,"is_disabled":false,"rental_uris":{"android":"levelo://app?vid=9d9aba93-9205-47c7-82bb-697233efc896","ios":"levelo://app?vid=9d9aba93-9205-47c7-82bb-697233efc896"},"vehicle_type_id":"4","last_reported":1747984253,"current_range_meters":9600,"station_id":"ce4bhnp2rcd13ifvqgvg","pricing_plan_id":"cebpf4jnsgd1na2vs0mg"},{"bike_id":"d728391c-c980-4ed4-9760-86ff41c7f94b","system_id":"levelo_inurba_marseille","lat":43.24649,"lon":5.38899,"is_reserved":false,"is_disabled":false,"rental_uris":{"android":"levelo://app?vid=d728391c-c980-4ed4-9760-86ff41c7f94b","ios":"levelo://app?vid=d728391c-c980-4ed4-9760-86ff41c7f94b"},"vehicle_type_id":"4","last_reported":1747984253,"current_range_meters":9600,"station_id":"ce4bhg12rcd13ifvqf60","pricing_plan_id":"cebpf4jnsgd1na2vs0mg"},{"bike_id":"14feda73-7baf-4b64-8ae9-79f4fe7d4a5f","system_id":"levelo_inurba_marseille","lat":43.323724,"lon":5.367613,"is_reserved":false,"is_disabled":false,"rental_uris":{"android":"levelo://app?vid=14feda73-7baf-4b64-8ae9-79f4fe7d4a5f","ios":"levelo://app?vid=14feda73-7baf-4b64-8ae9-79f4fe7d4a5f"},"vehicle_type_id":"4","last_reported":1747984253,"current_range_meters":9600,"station_id":"ce4bhsh2rcd13ifvqi2g","pricing_plan_id":"cebpf4jnsgd1na2vs0mg"},{"bike_id":"82d1f923-9add-4416-8cb0-5eb6fb63470d","system_id":"levelo_inurba_marseille","lat":43.24184,"lon":5.39713,"is_reserved":false,"is_disabled":false,"rental_uris":{"android":"levelo://app?vid=82d1f923-9add-4416-8cb0-5eb6fb63470d","ios":"levelo://app?vid=82d1f923-9add-4416-8cb0-5eb6fb63470d"},"vehicle_type_id":"4","last_reported":1747984253,"current_range_meters":9600,"station_id":"ce4bhn12rcd13ifvqgpg","pricing_plan_id":"cebpf4jnsgd1na2vs0mg"},{"bike_id":"906e884a-10ef-4eac-af13-1b7b5e2a317c","system_id":"levelo_inurba_marseille","lat":43.27937,"lon":5.39569,"is_reserved":false,"is_disabled":false,"rental_uris":{"android":"levelo://app?vid=906e884a-10ef-4eac-af13-1b7b5e2a317c","ios":"levelo://app?vid=906e884a-10ef-4eac-af13-1b7b5e2a317c"},"vehicle_type_id":"4","last_reported":1747984253,"current_range_meters":10000,"station_id":"ce4bhf92rcd13ifvqf40","pricing_plan_id":"cebpf4jnsgd1na2vs0mg"},{"bike_id":"682e8c54-3f77-4582-937b-7490f31456f6","system_id":"levelo_inurba_marseille","lat":43.2587,"lon":5.39871,"is_reserved":false,"is_disabled":false,"rental_uris":{"android":"levelo://app?vid=682e8c54-3f77-4582-937b-7490f31456f6","ios":"levelo://app?vid=682e8c54-3f77-4582-937b-7490f31456f6"},"vehicle_type_id":"4","last_reported":1747984253,"current_range_meters":10000,"station_id":"ce4bhl92rcd13ifvqghg","pricing_plan_id":"cebpf4jnsgd1na2vs0mg"},{"bike_id":"84f00b51-2429-41be-8a43-83978d7764de","system_id":"levelo_inurba_marseille","lat":43.27993,"lon":5.400242,"is_reserved":false,"is_disabled":false,"rental_uris":{"android":"levelo://app?vid=84f00b51-2429-41be-8a43-83978d7764de","ios":"levelo://app?vid=84f00b51-2429-41be-8a43-83978d7764de"},"vehicle_type_id":"4","last_reported":1747984253,"current_range_meters":10000,"station_id":"ce4bho92rcd13ifvqh4g","pricing_plan_id":"cebpf4jnsgd1na2vs0mg"},{"bike_id":"e122320e-ad02-4ea8-aa38-50b1d4e3550a","system_id":"levelo_inurba_marseille","lat":43.26677,"lon":5.38271,"is_reserved":false,"is_disabled":false,"rental_uris":{"android":"levelo://app?vid=e122320e-ad02-4ea8-aa38-50b1d4e3550a","ios":"levelo://app?vid=e122320e-ad02-4ea8-aa38-50b1d4e3550a"},"vehicle_type_id":"4","last_reported":1747984253,"current_range_meters":10000,"station_id":"ce4bhg92rcd13ifvqf90","pricing_plan_id":"cebpf4jnsgd1na2vs0mg"},{"bike_id":"bf21fbac-8cdf-4a10-916c-dcceec71ff08","system_id":"levelo_inurba_marseille","lat":43.240673,"lon":5.377533,"is_reserved":false,"is_disabled":false,"rental_uris":{"android":"levelo://app?vid=bf21fbac-8cdf-4a10-916c-dcceec71ff08","ios":"levelo://app?vid=bf21fbac-8cdf-4a10-916c-dcceec71ff08"},"vehicle_type_id":"4","last_reported":1747984253,"current_range_meters":10000,"station_id":"ce4bhnp2rcd13ifvqgvg","pricing_plan_id":"cebpf4jnsgd1na2vs0mg"},{"bike_id":"25143845-338b-4539-8a75-bd3edcef998e","system_id":"levelo_inurba_marseille","lat":43.290006,"lon":5.381449,"is_reserved":false,"is_disabled":false,"rental_uris":{"android":"levelo://app?vid=25143845-338b-4539-8a75-bd3edcef998e","ios":"levelo://app?vid=25143845-338b-4539-8a75-bd3edcef998e"},"vehicle_type_id":"4","last_reported":1747984253,"current_range_meters":9600,"station_id":"ce4bh4p2rcd13ifvqe1g","pricing_plan_id":"cebpf4jnsgd1na2vs0mg"},{"bike_id":"5766901a-d64b-4433-8dfc-7659cdf01d80","system_id":"levelo_inurba_marseille","lat":43.25106,"lon":5.40312,"is_reserved":false,"is_disabled":false,"rental_uris":{"android":"levelo://app?vid=5766901a-d64b-4433-8dfc-7659cdf01d80","ios":"levelo://app?vid=5766901a-d64b-4433-8dfc-7659cdf01d80"},"vehicle_type_id":"4","last_reported":1747984253,"current_range_meters":10000,"station_id":"ce4bhlh2rcd13ifvqgig","pricing_plan_id":"cebpf4jnsgd1na2vs0mg"},{"bike_id":"e28ac931-3ffd-4918-a141-beb765a6a446","system_id":"levelo_inurba_marseille","lat":43.25871,"lon":5.39888,"is_reserved":false,"is_disabled":false,"rental_uris":{"android":"levelo://app?vid=e28ac931-3ffd-4918-a141-beb765a6a446","ios":"levelo://app?vid=e28ac931-3ffd-4918-a141-beb765a6a446"},"vehicle_type_id":"4","last_reported":1747984253,"current_range_meters":10000,"station_id":"ce4bhl92rcd13ifvqghg","pricing_plan_id":"cebpf4jnsgd1na2vs0mg"},{"bike_id":"bde1835f-3aa2-45a2-be22-1c1394d4242c","system_id":"levelo_inurba_marseille","lat":43.26679,"lon":5.38266,"is_reserved":false,"is_disabled":false,"rental_uris":{"android":"levelo://app?vid=bde1835f-3aa2-45a2-be22-1c1394d4242c","ios":"levelo://app?vid=bde1835f-3aa2-45a2-be22-1c1394d4242c"},"vehicle_type_id":"4","last_reported":1747984253,"current_range_meters":10800,"station_id":"ce4bhg92rcd13ifvqf90","pricing_plan_id":"cebpf4jnsgd1na2vs0mg"},{"bike_id":"e3e19b90-9823-4b53-b8a7-4c599b3176c2","system_id":"levelo_inurba_marseille","lat":43.25101,"lon":5.40336,"is_reserved":false,"is_disabled":false,"rental_uris":{"android":"levelo://app?vid=e3e19b90-9823-4b53-b8a7-4c599b3176c2","ios":"levelo://app?vid=e3e19b90-9823-4b53-b8a7-4c599b3176c2"},"vehicle_type_id":"4","last_reported":1747984253,"current_range_meters":10800,"station_id":"ce4bhlh2rcd13ifvqgig","pricing_plan_id":"cebpf4jnsgd1na2vs0mg"},{"bike_id":"18ca849a-bab9-472d-80e2-f3856fcd9684","system_id":"levelo_inurba_marseille","lat":43.2396,"lon":5.36639,"is_reserved":false,"is_disabled":false,"rental_uris":{"android":"levelo://app?vid=18ca849a-bab9-472d-80e2-f3856fcd9684","ios":"levelo://app?vid=18ca849a-bab9-472d-80e2-f3856fcd9684"},"vehicle_type_id":"4","last_reported":1747984253,"current_range_meters":10800,"station_id":"ce4bhi12rcd13ifvqfp0","pricing_plan_id":"cebpf4jnsgd1na2vs0mg"},{"bike_id":"93ae5e0f-22ce-49e4-9b6f-ad87db404300","system_id":"levelo_inurba_marseille","lat":43.27906,"lon":5.39585,"is_reserved":false,"is_disabled":false,"rental_uris":{"android":"levelo://app?vid=93ae5e0f-22ce-49e4-9b6f-ad87db404300","ios":"levelo://app?vid=93ae5e0f-22ce-49e4-9b6f-ad87db404300"},"vehicle_type_id":"4","last_reported":1747984253,"current_range_meters":10800,"station_id":"ce4bhf92rcd13ifvqf40","pricing_plan_id":"cebpf4jnsgd1na2vs0mg"},{"bike_id":"7b8dafff-9079-40f1-aeef-34f7aff0021a","system_id":"levelo_inurba_marseille","lat":43.28412,"lon":5.34987,"is_reserved":false,"is_disabled":false,"rental_uris":{"android":"levelo://app?vid=7b8dafff-9079-40f1-aeef-34f7aff0021a","ios":"levelo://app?vid=7b8dafff-9079-40f1-aeef-34f7aff0021a"},"vehicle_type_id":"4","last_reported":1747984253,"current_range_meters":10800,"station_id":"ce4bhbh2rcd13ifvqepg","pricing_plan_id":"cebpf4jnsgd1na2vs0mg"},{"bike_id":"e77b9d43-a803-4f5c-912a-7a91f5e7da59","system_id":"levelo_inurba_marseille","lat":43.28402,"lon":5.34923,"is_reserved":false,"is_disabled":false,"rental_uris":{"android":"levelo://app?vid=e77b9d43-a803-4f5c-912a-7a91f5e7da59","ios":"levelo://app?vid=e77b9d43-a803-4f5c-912a-7a91f5e7da59"},"vehicle_type_id":"4","last_reported":1747984253,"current_range_meters":10800,"station_id":"ce4bhbh2rcd13ifvqepg","pricing_plan_id":"cebpf4jnsgd1na2vs0mg"},{"bike_id":"2c87c810-7a38-4e57-b8f4-53b1ff151be1","system_id":"levelo_inurba_marseille","lat":43.28605,"lon":5.3512,"is_reserved":false,"is_disabled":false,"rental_uris":{"android":"levelo://app?vid=2c87c810-7a38-4e57-b8f4-53b1ff151be1","ios":"levelo://app?vid=2c87c810-7a38-4e57-b8f4-53b1ff151be1"},"vehicle_type_id":"4","last_reported":1747984253,"current_range_meters":10800,"station_id":"ce4bhch2rcd13ifvqeug","pricing_plan_id":"cebpf4jnsgd1na2vs0mg"},{"bike_id":"dc28e5bb-5a43-4516-b2c4-f618ce7c4fd5","system_id":"levelo_inurba_marseille","lat":43.29277,"lon":5.36841,"is_reserved":false,"is_disabled":false,"rental_uris":{"android":"levelo://app?vid=dc28e5bb-5a43-4516-b2c4-f618ce7c4fd5","ios":"levelo://app?vid=dc28e5bb-5a43-4516-b2c4-f618ce7c4fd5"},"vehicle_type_id":"4","last_reported":1747984253,"current_range_meters":10800,"station_id":"ce4bhbp2rcd13ifvqesg","pricing_plan_id":"cebpf4jnsgd1na2vs0mg"},{"bike_id":"6d1cb606-1c94-4517-ba68-430249f17729","system_id":"levelo_inurba_marseille","lat":43.26566,"lon":5.39012,"is_reserved":false,"is_disabled":false,"rental_uris":{"android":"levelo://app?vid=6d1cb606-1c94-4517-ba68-430249f17729","ios":"levelo://app?vid=6d1cb606-1c94-4517-ba68-430249f17729"},"vehicle_type_id":"4","last_reported":1747984253,"current_range_meters":10800,"station_id":"ce4bhe12rcd13ifvqf30","pricing_plan_id":"cebpf4jnsgd1na2vs0mg"},{"bike_id":"eed511be-1a62-4434-a2ef-3b183c6b312b","system_id":"levelo_inurba_marseille","lat":43.30372,"lon":5.42508,"is_reserved":false,"is_disabled":false,"rental_uris":{"android":"levelo://app?vid=eed511be-1a62-4434-a2ef-3b183c6b312b","ios":"levelo://app?vid=eed511be-1a62-4434-a2ef-3b183c6b312b"},"vehicle_type_id":"4","last_reported":1747984253,"current_range_meters":10800,"station_id":"ce4bhoh2rcd13ifvqh6g","pricing_plan_id":"cebpf4jnsgd1na2vs0mg"},{"bike_id":"e8696730-c76e-423f-bed3-49193bee12d8","system_id":"levelo_inurba_marseille","lat":43.31359,"lon":5.38503,"is_reserved":false,"is_disabled":false,"rental_uris":{"android":"levelo://app?vid=e8696730-c76e-423f-bed3-49193bee12d8","ios":"levelo://app?vid=e8696730-c76e-423f-bed3-49193bee12d8"},"vehicle_type_id":"4","last_reported":1747984253,"current_range_meters":11200,"station_id":"ce4bgt92rcd13ifvqcf0","pricing_plan_id":"cebpf4jnsgd1na2vs0mg"},{"bike_id":"23d143d1-3ad0-448c-a704-752010e19e0b","system_id":"levelo_inurba_marseille","lat":43.2549,"lon":5.37661,"is_reserved":false,"is_disabled":false,"rental_uris":{"android":"levelo://app?vid=23d143d1-3ad0-448c-a704-752010e19e0b","ios":"levelo://app?vid=23d143d1-3ad0-448c-a704-752010e19e0b"},"vehicle_type_id":"4","last_reported":1747984253,"current_range_meters":11200,"station_id":"ce4bhh12rcd13ifvqff0","pricing_plan_id":"cebpf4jnsgd1na2vs0mg"},{"bike_id":"fd3a1cca-59de-4871-b6fc-9573362f6a40","system_id":"levelo_inurba_marseille","lat":43.32045,"lon":5.41546,"is_reserved":false,"is_disabled":false,"rental_uris":{"android":"levelo://app?vid=fd3a1cca-59de-4871-b6fc-9573362f6a40","ios":"levelo://app?vid=fd3a1cca-59de-4871-b6fc-9573362f6a40"},"vehicle_type_id":"4","last_reported":1747984253,"current_range_meters":11200,"station_id":"ce4bhq92rcd13ifvqhkg","pricing_plan_id":"cebpf4jnsgd1na2vs0mg"},{"bike_id":"60e4ed4d-cb67-42d1-aa59-cd42a0868b56","system_id":"levelo_inurba_marseille","lat":43.241937,"lon":5.397407,"is_reserved":false,"is_disabled":false,"rental_uris":{"android":"levelo://app?vid=60e4ed4d-cb67-42d1-aa59-cd42a0868b56","ios":"levelo://app?vid=60e4ed4d-cb67-42d1-aa59-cd42a0868b56"},"vehicle_type_id":"4","last_reported":1747984253,"current_range_meters":11200,"station_id":"ce4bhn12rcd13ifvqgpg","pricing_plan_id":"cebpf4jnsgd1na2vs0mg"},{"bike_id":"70fe806d-6b8b-4310-8fe1-5a3e8b0e57d8","system_id":"levelo_inurba_marseille","lat":43.22932,"lon":5.35399,"is_reserved":false,"is_disabled":false,"rental_uris":{"android":"levelo://app?vid=70fe806d-6b8b-4310-8fe1-5a3e8b0e57d8","ios":"levelo://app?vid=70fe806d-6b8b-4310-8fe1-5a3e8b0e57d8"},"vehicle_type_id":"4","last_reported":1747984253,"current_range_meters":11600,"station_id":"cpo3532slgdg3j2ikp40","pricing_plan_id":"cebpf4jnsgd1na2vs0mg"},{"bike_id":"c8d9bc33-a149-462f-b623-e3403de0b5a0","system_id":"levelo_inurba_marseille","lat":43.26662,"lon":5.38269,"is_reserved":false,"is_disabled":false,"rental_uris":{"android":"levelo://app?vid=c8d9bc33-a149-462f-b623-e3403de0b5a0","ios":"levelo://app?vid=c8d9bc33-a149-462f-b623-e3403de0b5a0"},"vehicle_type_id":"4","last_reported":1747984253,"current_range_meters":7200,"station_id":"ce4bhg92rcd13ifvqf90","pricing_plan_id":"cebpf4jnsgd1na2vs0mg"},{"bike_id":"94b59e0e-f4aa-4499-9fcd-abfeca6d8b77","system_id":"levelo_inurba_marseille","lat":43.28724,"lon":5.37945,"is_reserved":false,"is_disabled":false,"rental_uris":{"android":"levelo://app?vid=94b59e0e-f4aa-4499-9fcd-abfeca6d8b77","ios":"levelo://app?vid=94b59e0e-f4aa-4499-9fcd-abfeca6d8b77"},"vehicle_type_id":"4","last_reported":1747984253,"current_range_meters":11600,"station_id":"ce4bh9p2rcd13ifvqec0","pricing_plan_id":"cebpf4jnsgd1na2vs0mg"},{"bike_id":"d9cedd87-60a9-44d9-b244-855865e44d16","system_id":"levelo_inurba_marseille","lat":43.2602,"lon":5.37565,"is_reserved":false,"is_disabled":false,"rental_uris":{"android":"levelo://app?vid=d9cedd87-60a9-44d9-b244-855865e44d16","ios":"levelo://app?vid=d9cedd87-60a9-44d9-b244-855865e44d16"},"vehicle_type_id":"4","last_reported":1747984253,"current_range_meters":11600,"station_id":"ce4bhgh2rcd13ifvqfa0","pricing_plan_id":"cebpf4jnsgd1na2vs0mg"},{"bike_id":"78d6a209-fed5-4de9-a5db-bd3b974836d1","system_id":"levelo_inurba_marseille","lat":43.28616,"lon":5.35123,"is_reserved":false,"is_disabled":false,"rental_uris":{"android":"levelo://app?vid=78d6a209-fed5-4de9-a5db-bd3b974836d1","ios":"levelo://app?vid=78d6a209-fed5-4de9-a5db-bd3b974836d1"},"vehicle_type_id":"4","last_reported":1747984253,"current_range_meters":11600,"station_id":"ce4bhch2rcd13ifvqeug","pricing_plan_id":"cebpf4jnsgd1na2vs0mg"},{"bike_id":"128b961f-095c-4274-96a2-512541a28542","system_id":"levelo_inurba_marseille","lat":43.30426,"lon":5.39752,"is_reserved":false,"is_disabled":false,"rental_uris":{"android":"levelo://app?vid=128b961f-095c-4274-96a2-512541a28542","ios":"levelo://app?vid=128b961f-095c-4274-96a2-512541a28542"},"vehicle_type_id":"4","last_reported":1747984253,"current_range_meters":11600,"station_id":"ce4bh092rcd13ifvqd20","pricing_plan_id":"cebpf4jnsgd1na2vs0mg"},{"bike_id":"bbd48f16-c6b8-435c-a262-a4bc20795b51","system_id":"levelo_inurba_marseille","lat":43.2558,"lon":5.38232,"is_reserved":false,"is_disabled":false,"rental_uris":{"android":"levelo://app?vid=bbd48f16-c6b8-435c-a262-a4bc20795b51","ios":"levelo://app?vid=bbd48f16-c6b8-435c-a262-a4bc20795b51"},"vehicle_type_id":"4","last_reported":1747984253,"current_range_meters":11600,"station_id":"ce4bhih2rcd13ifvqfs0","pricing_plan_id":"cebpf4jnsgd1na2vs0mg"},{"bike_id":"e85710d8-0451-4310-9d43-3629429d8bc9","system_id":"levelo_inurba_marseille","lat":43.30904,"lon":5.36854,"is_reserved":false,"is_disabled":false,"rental_uris":{"android":"levelo://app?vid=e85710d8-0451-4310-9d43-3629429d8bc9","ios":"levelo://app?vid=e85710d8-0451-4310-9d43-3629429d8bc9"},"vehicle_type_id":"4","last_reported":1747984253,"current_range_meters":11600,"station_id":"ce4bgn92rcd13ifvqbvg","pricing_plan_id":"cebpf4jnsgd1na2vs0mg"},{"bike_id":"f0210ffb-a914-482e-a7bf-b2f81f6a2770","system_id":"levelo_inurba_marseille","lat":43.298404,"lon":5.362651,"is_reserved":false,"is_disabled":false,"rental_uris":{"android":"levelo://app?vid=f0210ffb-a914-482e-a7bf-b2f81f6a2770","ios":"levelo://app?vid=f0210ffb-a914-482e-a7bf-b2f81f6a2770"},"vehicle_type_id":"4","last_reported":1747984253,"current_range_meters":12000,"station_id":"ce4bgpp2rcd13ifvqc3g","pricing_plan_id":"cebpf4jnsgd1na2vs0mg"},{"bike_id":"4b060928-8dfe-46f4-895f-164d86f4d66c","system_id":"levelo_inurba_marseille","lat":43.31215,"lon":5.36845,"is_reserved":false,"is_disabled":false,"rental_uris":{"android":"levelo://app?vid=4b060928-8dfe-46f4-895f-164d86f4d66c","ios":"levelo://app?vid=4b060928-8dfe-46f4-895f-164d86f4d66c"},"vehicle_type_id":"4","last_reported":1747984253,"current_range_meters":12000,"station_id":"ce4bgl92rcd13ifvqbq0","pricing_plan_id":"cebpf4jnsgd1na2vs0mg"},{"bike_id":"b57ac6a9-d433-42b7-9163-cc0feeee9ae9","system_id":"levelo_inurba_marseille","lat":43.3136,"lon":5.36707,"is_reserved":false,"is_disabled":false,"rental_uris":{"android":"levelo://app?vid=b57ac6a9-d433-42b7-9163-cc0feeee9ae9","ios":"levelo://app?vid=b57ac6a9-d433-42b7-9163-cc0feeee9ae9"},"vehicle_type_id":"4","last_reported":1747984253,"current_range_meters":12000,"station_id":"ce4bgr92rcd13ifvqc6g","pricing_plan_id":"cebpf4jnsgd1na2vs0mg"},{"bike_id":"0af4b539-b3d1-405d-9a81-35e90e2fc76e","system_id":"levelo_inurba_marseille","lat":43.337157,"lon":5.391784,"is_reserved":false,"is_disabled":false,"rental_uris":{"android":"levelo://app?vid=0af4b539-b3d1-405d-9a81-35e90e2fc76e","ios":"levelo://app?vid=0af4b539-b3d1-405d-9a81-35e90e2fc76e"},"vehicle_type_id":"4","last_reported":1747984253,"current_range_meters":12000,"station_id":"ce4bhr92rcd13ifvqhsg","pricing_plan_id":"cebpf4jnsgd1na2vs0mg"},{"bike_id":"33416cf4-f5b4-4c12-8feb-dff0d93413c2","system_id":"levelo_inurba_marseille","lat":43.2175,"lon":5.34599,"is_reserved":false,"is_disabled":false,"rental_uris":{"android":"levelo://app?vid=33416cf4-f5b4-4c12-8feb-dff0d93413c2","ios":"levelo://app?vid=33416cf4-f5b4-4c12-8feb-dff0d93413c2"},"vehicle_type_id":"4","last_reported":1747984253,"current_range_meters":12000,"station_id":"","pricing_plan_id":"cebpf4jnsgd1na2vs0mg"},{"bike_id":"1f8f2cf8-e258-4b66-9b66-66da44b9c55c","system_id":"levelo_inurba_marseille","lat":43.30989,"lon":5.40222,"is_reserved":false,"is_disabled":false,"rental_uris":{"android":"levelo://app?vid=1f8f2cf8-e258-4b66-9b66-66da44b9c55c","ios":"levelo://app?vid=1f8f2cf8-e258-4b66-9b66-66da44b9c55c"},"vehicle_type_id":"4","last_reported":1747984253,"current_range_meters":12000,"station_id":"","pricing_plan_id":"cebpf4jnsgd1na2vs0mg"},{"bike_id":"7a174cf0-49bb-442b-9787-ed977ba34ca4","system_id":"levelo_inurba_marseille","lat":43.241665,"lon":5.397362,"is_reserved":false,"is_disabled":false,"rental_uris":{"android":"levelo://app?vid=7a174cf0-49bb-442b-9787-ed977ba34ca4","ios":"levelo://app?vid=7a174cf0-49bb-442b-9787-ed977ba34ca4"},"vehicle_type_id":"4","last_reported":1747984253,"current_range_meters":12400,"station_id":"ce4bhn12rcd13ifvqgpg","pricing_plan_id":"cebpf4jnsgd1na2vs0mg"},{"bike_id":"d531f528-bbd2-48f6-8940-7849c3891d75","system_id":"levelo_inurba_marseille","lat":43.24177,"lon":5.39721,"is_reserved":false,"is_disabled":false,"rental_uris":{"android":"levelo://app?vid=d531f528-bbd2-48f6-8940-7849c3891d75","ios":"levelo://app?vid=d531f528-bbd2-48f6-8940-7849c3891d75"},"vehicle_type_id":"4","last_reported":1747984253,"current_range_meters":12400,"station_id":"ce4bhn12rcd13ifvqgpg","pricing_plan_id":"cebpf4jnsgd1na2vs0mg"},{"bike_id":"3a1e6be1-b28c-44d5-9fff-616b72420ce6","system_id":"levelo_inurba_marseille","lat":43.32233,"lon":5.36781,"is_reserved":false,"is_disabled":false,"rental_uris":{"android":"levelo://app?vid=3a1e6be1-b28c-44d5-9fff-616b72420ce6","ios":"levelo://app?vid=3a1e6be1-b28c-44d5-9fff-616b72420ce6"},"vehicle_type_id":"4","last_reported":1747984253,"current_range_meters":12400,"station_id":"","pricing_plan_id":"cebpf4jnsgd1na2vs0mg"},{"bike_id":"23b29c1f-1523-4c9d-b430-950a0d2bd022","system_id":"levelo_inurba_marseille","lat":43.305369,"lon":5.366983,"is_reserved":false,"is_disabled":false,"rental_uris":{"android":"levelo://app?vid=23b29c1f-1523-4c9d-b430-950a0d2bd022","ios":"levelo://app?vid=23b29c1f-1523-4c9d-b430-950a0d2bd022"},"vehicle_type_id":"4","last_reported":1747984253,"current_range_meters":12400,"station_id":"ce4bgrp2rcd13ifvqc9g","pricing_plan_id":"cebpf4jnsgd1na2vs0mg"},{"bike_id":"0c713d98-0666-4d95-b0d3-651ec2560a13","system_id":"levelo_inurba_marseille","lat":43.26567,"lon":5.38997,"is_reserved":false,"is_disabled":false,"rental_uris":{"android":"levelo://app?vid=0c713d98-0666-4d95-b0d3-651ec2560a13","ios":"levelo://app?vid=0c713d98-0666-4d95-b0d3-651ec2560a13"},"vehicle_type_id":"4","last_reported":1747984253,"current_range_meters":12400,"station_id":"ce4bhe12rcd13ifvqf30","pricing_plan_id":"cebpf4jnsgd1na2vs0mg"},{"bike_id":"6dde22b3-be2c-4353-838d-05c85608e4d3","system_id":"levelo_inurba_marseille","lat":43.323626,"lon":5.367543,"is_reserved":false,"is_disabled":false,"rental_uris":{"android":"levelo://app?vid=6dde22b3-be2c-4353-838d-05c85608e4d3","ios":"levelo://app?vid=6dde22b3-be2c-4353-838d-05c85608e4d3"},"vehicle_type_id":"4","last_reported":1747984253,"current_range_meters":12400,"station_id":"ce4bhsh2rcd13ifvqi2g","pricing_plan_id":"cebpf4jnsgd1na2vs0mg"},{"bike_id":"1a340bac-8012-4c7c-b50a-247d19f083a9","system_id":"levelo_inurba_marseille","lat":43.22504,"lon":5.34779,"is_reserved":false,"is_disabled":false,"rental_uris":{"android":"levelo://app?vid=1a340bac-8012-4c7c-b50a-247d19f083a9","ios":"levelo://app?vid=1a340bac-8012-4c7c-b50a-247d19f083a9"},"vehicle_type_id":"4","last_reported":1747984253,"current_range_meters":12800,"station_id":"st_cvj5dfep6f1abm77gieg","pricing_plan_id":"cebpf4jnsgd1na2vs0mg"},{"bike_id":"e00d1631-b17a-423c-b795-22b9c0d43bd1","system_id":"levelo_inurba_marseille","lat":43.296344,"lon":5.390832,"is_reserved":false,"is_disabled":true,"rental_uris":{"android":"levelo://app?vid=e00d1631-b17a-423c-b795-22b9c0d43bd1","ios":"levelo://app?vid=e00d1631-b17a-423c-b795-22b9c0d43bd1"},"vehicle_type_id":"4","last_reported":1747984253,"current_range_meters":12800,"station_id":"","pricing_plan_id":"cebpf4jnsgd1na2vs0mg"},{"bike_id":"ca6e9c93-0d92-4299-a33a-b6224bc297cc","system_id":"levelo_inurba_marseille","lat":43.2953,"lon":5.36553,"is_reserved":false,"is_disabled":false,"rental_uris":{"android":"levelo://app?vid=ca6e9c93-0d92-4299-a33a-b6224bc297cc","ios":"levelo://app?vid=ca6e9c93-0d92-4299-a33a-b6224bc297cc"},"vehicle_type_id":"4","last_reported":1747984253,"current_range_meters":12800,"station_id":"","pricing_plan_id":"cebpf4jnsgd1na2vs0mg"},{"bike_id":"6be23796-656d-43a9-8a5e-8bddb7cd877b","system_id":"levelo_inurba_marseille","lat":43.29367,"lon":5.37866,"is_reserved":false,"is_disabled":false,"rental_uris":{"android":"levelo://app?vid=6be23796-656d-43a9-8a5e-8bddb7cd877b","ios":"levelo://app?vid=6be23796-656d-43a9-8a5e-8bddb7cd877b"},"vehicle_type_id":"4","last_reported":1747984253,"current_range_meters":12800,"station_id":"ce4bgjh2rcd13ifvqbf0","pricing_plan_id":"cebpf4jnsgd1na2vs0mg"},{"bike_id":"1c89264d-8d92-4d34-817f-246beae49705","system_id":"levelo_inurba_marseille","lat":43.33719,"lon":5.39193,"is_reserved":false,"is_disabled":false,"rental_uris":{"android":"levelo://app?vid=1c89264d-8d92-4d34-817f-246beae49705","ios":"levelo://app?vid=1c89264d-8d92-4d34-817f-246beae49705"},"vehicle_type_id":"4","last_reported":1747984253,"current_range_meters":12800,"station_id":"ce4bhr92rcd13ifvqhsg","pricing_plan_id":"cebpf4jnsgd1na2vs0mg"},{"bike_id":"0e27a530-5aca-4bdb-bcfe-2711f03311f8","system_id":"levelo_inurba_marseille","lat":43.21757,"lon":5.346,"is_reserved":false,"is_disabled":false,"rental_uris":{"android":"levelo://app?vid=0e27a530-5aca-4bdb-bcfe-2711f03311f8","ios":"levelo://app?vid=0e27a530-5aca-4bdb-bcfe-2711f03311f8"},"vehicle_type_id":"4","last_reported":1747984253,"current_range_meters":12800,"station_id":"st_cvj6r9ubvosntc0bgbag","pricing_plan_id":"cebpf4jnsgd1na2vs0mg"},{"bike_id":"9cf1e069-b39a-4361-b521-5cabe80764de","system_id":"levelo_inurba_marseille","lat":43.30907,"lon":5.3685,"is_reserved":false,"is_disabled":false,"rental_uris":{"android":"levelo://app?vid=9cf1e069-b39a-4361-b521-5cabe80764de","ios":"levelo://app?vid=9cf1e069-b39a-4361-b521-5cabe80764de"},"vehicle_type_id":"4","last_reported":1747984253,"current_range_meters":13600,"station_id":"ce4bgn92rcd13ifvqbvg","pricing_plan_id":"cebpf4jnsgd1na2vs0mg"},{"bike_id":"98636e2d-ec4c-42d5-83c3-4655d1233854","system_id":"levelo_inurba_marseille","lat":43.27956,"lon":5.41028,"is_reserved":false,"is_disabled":false,"rental_uris":{"android":"levelo://app?vid=98636e2d-ec4c-42d5-83c3-4655d1233854","ios":"levelo://app?vid=98636e2d-ec4c-42d5-83c3-4655d1233854"},"vehicle_type_id":"4","last_reported":1747984253,"current_range_meters":13600,"station_id":"ce4bhnp2rcd13ifvqh0g","pricing_plan_id":"cebpf4jnsgd1na2vs0mg"},{"bike_id":"385308a2-acae-4fef-b6b4-6747c278b644","system_id":"levelo_inurba_marseille","lat":43.28346,"lon":5.38109,"is_reserved":false,"is_disabled":false,"rental_uris":{"android":"levelo://app?vid=385308a2-acae-4fef-b6b4-6747c278b644","ios":"levelo://app?vid=385308a2-acae-4fef-b6b4-6747c278b644"},"vehicle_type_id":"4","last_reported":1747984253,"current_range_meters":13600,"station_id":"ce4bh412rcd13ifvqdr0","pricing_plan_id":"cebpf4jnsgd1na2vs0mg"},{"bike_id":"1e164eaf-2ffb-4814-9442-b43f6b5c9f80","system_id":"levelo_inurba_marseille","lat":43.24162,"lon":5.36376,"is_reserved":false,"is_disabled":false,"rental_uris":{"android":"levelo://app?vid=1e164eaf-2ffb-4814-9442-b43f6b5c9f80","ios":"levelo://app?vid=1e164eaf-2ffb-4814-9442-b43f6b5c9f80"},"vehicle_type_id":"4","last_reported":1747984253,"current_range_meters":13600,"station_id":"cpo36qri1sfpv3e86is0","pricing_plan_id":"cebpf4jnsgd1na2vs0mg"},{"bike_id":"8f5ad702-5ff8-41ee-b034-3d5a2428c0c5","system_id":"levelo_inurba_marseille","lat":43.25101,"lon":5.40338,"is_reserved":false,"is_disabled":false,"rental_uris":{"android":"levelo://app?vid=8f5ad702-5ff8-41ee-b034-3d5a2428c0c5","ios":"levelo://app?vid=8f5ad702-5ff8-41ee-b034-3d5a2428c0c5"},"vehicle_type_id":"4","last_reported":1747984253,"current_range_meters":13600,"station_id":"ce4bhlh2rcd13ifvqgig","pricing_plan_id":"cebpf4jnsgd1na2vs0mg"},{"bike_id":"5bc4128a-3434-4133-89a1-0af1db724532","system_id":"levelo_inurba_marseille","lat":43.24064,"lon":5.37744,"is_reserved":false,"is_disabled":false,"rental_uris":{"android":"levelo://app?vid=5bc4128a-3434-4133-89a1-0af1db724532","ios":"levelo://app?vid=5bc4128a-3434-4133-89a1-0af1db724532"},"vehicle_type_id":"4","last_reported":1747984253,"current_range_meters":13600,"station_id":"ce4bhnp2rcd13ifvqgvg","pricing_plan_id":"cebpf4jnsgd1na2vs0mg"},{"bike_id":"ba5eadb5-9efa-4a3c-9986-6df8786774b6","system_id":"levelo_inurba_marseille","lat":43.29174,"lon":5.37164,"is_reserved":false,"is_disabled":false,"rental_uris":{"android":"levelo://app?vid=ba5eadb5-9efa-4a3c-9986-6df8786774b6","ios":"levelo://app?vid=ba5eadb5-9efa-4a3c-9986-6df8786774b6"},"vehicle_type_id":"4","last_reported":1747984253,"current_range_meters":7200,"station_id":"ce4bha92rcd13ifvqeh0","pricing_plan_id":"cebpf4jnsgd1na2vs0mg"},{"bike_id":"b138d1cc-9fe4-4dad-b078-790748d99d8e","system_id":"levelo_inurba_marseille","lat":43.273739,"lon":5.362505,"is_reserved":false,"is_disabled":false,"rental_uris":{"android":"levelo://app?vid=b138d1cc-9fe4-4dad-b078-790748d99d8e","ios":"levelo://app?vid=b138d1cc-9fe4-4dad-b078-790748d99d8e"},"vehicle_type_id":"4","last_reported":1747984253,"current_range_meters":13600,"station_id":"ce4bhbh2rcd13ifvqeo0","pricing_plan_id":"cebpf4jnsgd1na2vs0mg"},{"bike_id":"02fa3c1b-6747-4d87-9fea-4d22298c9b47","system_id":"levelo_inurba_marseille","lat":43.246516,"lon":5.388955,"is_reserved":false,"is_disabled":false,"rental_uris":{"android":"levelo://app?vid=02fa3c1b-6747-4d87-9fea-4d22298c9b47","ios":"levelo://app?vid=02fa3c1b-6747-4d87-9fea-4d22298c9b47"},"vehicle_type_id":"4","last_reported":1747984253,"current_range_meters":14000,"station_id":"ce4bhg12rcd13ifvqf60","pricing_plan_id":"cebpf4jnsgd1na2vs0mg"},{"bike_id":"85142c3d-3ba2-4b4a-bc77-ebbfc5378a88","system_id":"levelo_inurba_marseille","lat":43.254953,"lon":5.376721,"is_reserved":false,"is_disabled":false,"rental_uris":{"android":"levelo://app?vid=85142c3d-3ba2-4b4a-bc77-ebbfc5378a88","ios":"levelo://app?vid=85142c3d-3ba2-4b4a-bc77-ebbfc5378a88"},"vehicle_type_id":"4","last_reported":1747984253,"current_range_meters":14000,"station_id":"ce4bhh12rcd13ifvqff0","pricing_plan_id":"cebpf4jnsgd1na2vs0mg"},{"bike_id":"166b3818-fb53-41f9-bcdb-edbb9f4c7daf","system_id":"levelo_inurba_marseille","lat":43.2655,"lon":5.39006,"is_reserved":false,"is_disabled":false,"rental_uris":{"android":"levelo://app?vid=166b3818-fb53-41f9-bcdb-edbb9f4c7daf","ios":"levelo://app?vid=166b3818-fb53-41f9-bcdb-edbb9f4c7daf"},"vehicle_type_id":"4","last_reported":1747984253,"current_range_meters":14000,"station_id":"ce4bhe12rcd13ifvqf30","pricing_plan_id":"cebpf4jnsgd1na2vs0mg"},{"bike_id":"beb93ece-8a2b-401d-b7e3-ad77b01ce941","system_id":"levelo_inurba_marseille","lat":43.21752,"lon":5.34599,"is_reserved":false,"is_disabled":false,"rental_uris":{"android":"levelo://app?vid=beb93ece-8a2b-401d-b7e3-ad77b01ce941","ios":"levelo://app?vid=beb93ece-8a2b-401d-b7e3-ad77b01ce941"},"vehicle_type_id":"4","last_reported":1747984253,"current_range_meters":14000,"station_id":"st_cvj6r9ubvosntc0bgbag","pricing_plan_id":"cebpf4jnsgd1na2vs0mg"},{"bike_id":"4361fdbb-1b9e-4029-89d4-17f54a273297","system_id":"levelo_inurba_marseille","lat":43.24073,"lon":5.37756,"is_reserved":false,"is_disabled":false,"rental_uris":{"android":"levelo://app?vid=4361fdbb-1b9e-4029-89d4-17f54a273297","ios":"levelo://app?vid=4361fdbb-1b9e-4029-89d4-17f54a273297"},"vehicle_type_id":"4","last_reported":1747984253,"current_range_meters":14400,"station_id":"ce4bhnp2rcd13ifvqgvg","pricing_plan_id":"cebpf4jnsgd1na2vs0mg"},{"bike_id":"5d4db667-067b-4829-8b02-a50562979fa9","system_id":"levelo_inurba_marseille","lat":43.30555,"lon":5.36699,"is_reserved":false,"is_disabled":false,"rental_uris":{"android":"levelo://app?vid=5d4db667-067b-4829-8b02-a50562979fa9","ios":"levelo://app?vid=5d4db667-067b-4829-8b02-a50562979fa9"},"vehicle_type_id":"4","last_reported":1747984253,"current_range_meters":14400,"station_id":"ce4bgrp2rcd13ifvqc9g","pricing_plan_id":"cebpf4jnsgd1na2vs0mg"},{"bike_id":"511cce51-86bb-4065-8fb6-11ddee609409","system_id":"levelo_inurba_marseille","lat":43.25592,"lon":5.38224,"is_reserved":false,"is_disabled":false,"rental_uris":{"android":"levelo://app?vid=511cce51-86bb-4065-8fb6-11ddee609409","ios":"levelo://app?vid=511cce51-86bb-4065-8fb6-11ddee609409"},"vehicle_type_id":"4","last_reported":1747984253,"current_range_meters":14000,"station_id":"ce4bhih2rcd13ifvqfs0","pricing_plan_id":"cebpf4jnsgd1na2vs0mg"},{"bike_id":"385a65af-0f0c-4b2d-bfb3-0a61e71f87d1","system_id":"levelo_inurba_marseille","lat":43.28616,"lon":5.35103,"is_reserved":false,"is_disabled":false,"rental_uris":{"android":"levelo://app?vid=385a65af-0f0c-4b2d-bfb3-0a61e71f87d1","ios":"levelo://app?vid=385a65af-0f0c-4b2d-bfb3-0a61e71f87d1"},"vehicle_type_id":"4","last_reported":1747984253,"current_range_meters":14800,"station_id":"ce4bhch2rcd13ifvqeug","pricing_plan_id":"cebpf4jnsgd1na2vs0mg"},{"bike_id":"a63517d6-1d09-4803-a217-893c80757b63","system_id":"levelo_inurba_marseille","lat":43.28438,"lon":5.34999,"is_reserved":false,"is_disabled":false,"rental_uris":{"android":"levelo://app?vid=a63517d6-1d09-4803-a217-893c80757b63","ios":"levelo://app?vid=a63517d6-1d09-4803-a217-893c80757b63"},"vehicle_type_id":"4","last_reported":1747984253,"current_range_meters":14800,"station_id":"ce4bhbh2rcd13ifvqepg","pricing_plan_id":"cebpf4jnsgd1na2vs0mg"},{"bike_id":"1daed858-eab9-44a6-990a-cd3dc3a8078f","system_id":"levelo_inurba_marseille","lat":43.24025,"lon":5.37702,"is_reserved":false,"is_disabled":true,"rental_uris":{"android":"levelo://app?vid=1daed858-eab9-44a6-990a-cd3dc3a8078f","ios":"levelo://app?vid=1daed858-eab9-44a6-990a-cd3dc3a8078f"},"vehicle_type_id":"4","last_reported":1747984253,"current_range_meters":14800,"station_id":"","pricing_plan_id":"cebpf4jnsgd1na2vs0mg"},{"bike_id":"3f66cb67-d77d-438d-9cea-3915d2842f58","system_id":"levelo_inurba_marseille","lat":43.3149,"lon":5.37324,"is_reserved":false,"is_disabled":false,"rental_uris":{"android":"levelo://app?vid=3f66cb67-d77d-438d-9cea-3915d2842f58","ios":"levelo://app?vid=3f66cb67-d77d-438d-9cea-3915d2842f58"},"vehicle_type_id":"4","last_reported":1747984253,"current_range_meters":14800,"station_id":"ce4bgt12rcd13ifvqcd0","pricing_plan_id":"cebpf4jnsgd1na2vs0mg"},{"bike_id":"c6bf2e46-fb2f-4485-b1e5-f93500b0678b","system_id":"levelo_inurba_marseille","lat":43.23048,"lon":5.35502,"is_reserved":false,"is_disabled":false,"rental_uris":{"android":"levelo://app?vid=c6bf2e46-fb2f-4485-b1e5-f93500b0678b","ios":"levelo://app?vid=c6bf2e46-fb2f-4485-b1e5-f93500b0678b"},"vehicle_type_id":"4","last_reported":1747984253,"current_range_meters":14800,"station_id":"cpo3342slgdg3j2ifvpg","pricing_plan_id":"cebpf4jnsgd1na2vs0mg"},{"bike_id":"9c5786ab-f880-4811-a809-ca4758267ae9","system_id":"levelo_inurba_marseille","lat":43.32485,"lon":5.36572,"is_reserved":false,"is_disabled":false,"rental_uris":{"android":"levelo://app?vid=9c5786ab-f880-4811-a809-ca4758267ae9","ios":"levelo://app?vid=9c5786ab-f880-4811-a809-ca4758267ae9"},"vehicle_type_id":"4","last_reported":1747984253,"current_range_meters":14800,"station_id":"ce4bhs12rcd13ifvqhvg","pricing_plan_id":"cebpf4jnsgd1na2vs0mg"},{"bike_id":"a798eef8-c007-4e16-853c-244b6e137a9a","system_id":"levelo_inurba_marseille","lat":43.28424,"lon":5.34979,"is_reserved":false,"is_disabled":false,"rental_uris":{"android":"levelo://app?vid=a798eef8-c007-4e16-853c-244b6e137a9a","ios":"levelo://app?vid=a798eef8-c007-4e16-853c-244b6e137a9a"},"vehicle_type_id":"4","last_reported":1747984253,"current_range_meters":14800,"station_id":"ce4bhbh2rcd13ifvqepg","pricing_plan_id":"cebpf4jnsgd1na2vs0mg"},{"bike_id":"07bbe7e2-a282-4052-9b7c-da14b753555a","system_id":"levelo_inurba_marseille","lat":43.2315,"lon":5.43719,"is_reserved":false,"is_disabled":false,"rental_uris":{"android":"levelo://app?vid=07bbe7e2-a282-4052-9b7c-da14b753555a","ios":"levelo://app?vid=07bbe7e2-a282-4052-9b7c-da14b753555a"},"vehicle_type_id":"4","last_reported":1747984253,"current_range_meters":15200,"station_id":"ce4bhmp2rcd13ifvqgog","pricing_plan_id":"cebpf4jnsgd1na2vs0mg"},{"bike_id":"8bdb214d-5cb4-4baf-b30b-ccb359c4ec87","system_id":"levelo_inurba_marseille","lat":43.23152,"lon":5.43705,"is_reserved":false,"is_disabled":false,"rental_uris":{"android":"levelo://app?vid=8bdb214d-5cb4-4baf-b30b-ccb359c4ec87","ios":"levelo://app?vid=8bdb214d-5cb4-4baf-b30b-ccb359c4ec87"},"vehicle_type_id":"4","last_reported":1747984253,"current_range_meters":15200,"station_id":"ce4bhmp2rcd13ifvqgog","pricing_plan_id":"cebpf4jnsgd1na2vs0mg"},{"bike_id":"8bf531c8-63c9-4599-a836-ffb8cfe6db01","system_id":"levelo_inurba_marseille","lat":43.24164,"lon":5.36393,"is_reserved":false,"is_disabled":false,"rental_uris":{"android":"levelo://app?vid=8bf531c8-63c9-4599-a836-ffb8cfe6db01","ios":"levelo://app?vid=8bf531c8-63c9-4599-a836-ffb8cfe6db01"},"vehicle_type_id":"4","last_reported":1747984253,"current_range_meters":15200,"station_id":"cpo36qri1sfpv3e86is0","pricing_plan_id":"cebpf4jnsgd1na2vs0mg"},{"bike_id":"fc9dd5db-3560-431b-abd5-a090cc00fde9","system_id":"levelo_inurba_marseille","lat":43.24175,"lon":5.39728,"is_reserved":false,"is_disabled":false,"rental_uris":{"android":"levelo://app?vid=fc9dd5db-3560-431b-abd5-a090cc00fde9","ios":"levelo://app?vid=fc9dd5db-3560-431b-abd5-a090cc00fde9"},"vehicle_type_id":"4","last_reported":1747984253,"current_range_meters":16000,"station_id":"ce4bhn12rcd13ifvqgpg","pricing_plan_id":"cebpf4jnsgd1na2vs0mg"},{"bike_id":"571522a2-1fee-424b-9333-44eb29a30989","system_id":"levelo_inurba_marseille","lat":43.27496,"lon":5.42449,"is_reserved":false,"is_disabled":false,"rental_uris":{"android":"levelo://app?vid=571522a2-1fee-424b-9333-44eb29a30989","ios":"levelo://app?vid=571522a2-1fee-424b-9333-44eb29a30989"},"vehicle_type_id":"4","last_reported":1747984253,"current_range_meters":9200,"station_id":"ce4bhn92rcd13ifvqgrg","pricing_plan_id":"cebpf4jnsgd1na2vs0mg"},{"bike_id":"5521636b-a3b4-4a1b-9cc4-a0ea5c14391c","system_id":"levelo_inurba_marseille","lat":43.240712,"lon":5.377594,"is_reserved":false,"is_disabled":false,"rental_uris":{"android":"levelo://app?vid=5521636b-a3b4-4a1b-9cc4-a0ea5c14391c","ios":"levelo://app?vid=5521636b-a3b4-4a1b-9cc4-a0ea5c14391c"},"vehicle_type_id":"4","last_reported":1747984253,"current_range_meters":15200,"station_id":"ce4bhnp2rcd13ifvqgvg","pricing_plan_id":"cebpf4jnsgd1na2vs0mg"},{"bike_id":"f84e7850-4e38-4a2f-8058-4b5888bcc49b","system_id":"levelo_inurba_marseille","lat":43.32106,"lon":5.36765,"is_reserved":false,"is_disabled":false,"rental_uris":{"android":"levelo://app?vid=f84e7850-4e38-4a2f-8058-4b5888bcc49b","ios":"levelo://app?vid=f84e7850-4e38-4a2f-8058-4b5888bcc49b"},"vehicle_type_id":"4","last_reported":1747984253,"current_range_meters":16000,"station_id":"ce4bhrh2rcd13ifvqhug","pricing_plan_id":"cebpf4jnsgd1na2vs0mg"},{"bike_id":"3c627d69-a2b4-4f60-8a0a-c04c968f8c35","system_id":"levelo_inurba_marseille","lat":43.21745,"lon":5.346,"is_reserved":false,"is_disabled":false,"rental_uris":{"android":"levelo://app?vid=3c627d69-a2b4-4f60-8a0a-c04c968f8c35","ios":"levelo://app?vid=3c627d69-a2b4-4f60-8a0a-c04c968f8c35"},"vehicle_type_id":"4","last_reported":1747984253,"current_range_meters":16000,"station_id":"st_cvj6r9ubvosntc0bgbag","pricing_plan_id":"cebpf4jnsgd1na2vs0mg"},{"bike_id":"493086b0-dac6-4907-b03d-f7e96956f412","system_id":"levelo_inurba_marseille","lat":43.31217,"lon":5.3687,"is_reserved":false,"is_disabled":false,"rental_uris":{"android":"levelo://app?vid=493086b0-dac6-4907-b03d-f7e96956f412","ios":"levelo://app?vid=493086b0-dac6-4907-b03d-f7e96956f412"},"vehicle_type_id":"4","last_reported":1747984253,"current_range_meters":16000,"station_id":"ce4bgl92rcd13ifvqbq0","pricing_plan_id":"cebpf4jnsgd1na2vs0mg"},{"bike_id":"d48973bb-f11d-4d41-9ace-101a4c93a2c3","system_id":"levelo_inurba_marseille","lat":43.26682,"lon":5.3827,"is_reserved":false,"is_disabled":false,"rental_uris":{"android":"levelo://app?vid=d48973bb-f11d-4d41-9ace-101a4c93a2c3","ios":"levelo://app?vid=d48973bb-f11d-4d41-9ace-101a4c93a2c3"},"vehicle_type_id":"4","last_reported":1747984253,"current_range_meters":16000,"station_id":"ce4bhg92rcd13ifvqf90","pricing_plan_id":"cebpf4jnsgd1na2vs0mg"},{"bike_id":"1f6bca8b-903e-498d-8ef0-7f16f5de50b5","system_id":"levelo_inurba_marseille","lat":43.28918,"lon":5.36408,"is_reserved":false,"is_disabled":false,"rental_uris":{"android":"levelo://app?vid=1f6bca8b-903e-498d-8ef0-7f16f5de50b5","ios":"levelo://app?vid=1f6bca8b-903e-498d-8ef0-7f16f5de50b5"},"vehicle_type_id":"4","last_reported":1747984253,"current_range_meters":16000,"station_id":"ce4bhc92rcd13ifvqetg","pricing_plan_id":"cebpf4jnsgd1na2vs0mg"},{"bike_id":"423c8253-bc75-4227-9474-eecfb2bfc1b9","system_id":"levelo_inurba_marseille","lat":43.27671,"lon":5.38881,"is_reserved":false,"is_disabled":false,"rental_uris":{"android":"levelo://app?vid=423c8253-bc75-4227-9474-eecfb2bfc1b9","ios":"levelo://app?vid=423c8253-bc75-4227-9474-eecfb2bfc1b9"},"vehicle_type_id":"4","last_reported":1747984253,"current_range_meters":16000,"station_id":"ce4bhi12rcd13ifvqfo0","pricing_plan_id":"cebpf4jnsgd1na2vs0mg"},{"bike_id":"03c27706-dafc-4e44-b173-3742dda15e11","system_id":"levelo_inurba_marseille","lat":43.23192,"lon":5.35555,"is_reserved":false,"is_disabled":false,"rental_uris":{"android":"levelo://app?vid=03c27706-dafc-4e44-b173-3742dda15e11","ios":"levelo://app?vid=03c27706-dafc-4e44-b173-3742dda15e11"},"vehicle_type_id":"4","last_reported":1747984253,"current_range_meters":16000,"station_id":"ce4bhu92rcd13ifvqi70","pricing_plan_id":"cebpf4jnsgd1na2vs0mg"},{"bike_id":"59e86a7a-e8b9-481c-93cf-968bdb5ba166","system_id":"levelo_inurba_marseille","lat":43.21191,"lon":5.3508,"is_reserved":false,"is_disabled":false,"rental_uris":{"android":"levelo://app?vid=59e86a7a-e8b9-481c-93cf-968bdb5ba166","ios":"levelo://app?vid=59e86a7a-e8b9-481c-93cf-968bdb5ba166"},"vehicle_type_id":"4","last_reported":1747984253,"current_range_meters":16000,"station_id":"st_cvj6sg6p6f1abm77japg","pricing_plan_id":"cebpf4jnsgd1na2vs0mg"},{"bike_id":"7a5bbfb1-dafb-4777-8f4b-4b1e0e7c5d19","system_id":"levelo_inurba_marseille","lat":43.27376,"lon":5.36256,"is_reserved":false,"is_disabled":false,"rental_uris":{"android":"levelo://app?vid=7a5bbfb1-dafb-4777-8f4b-4b1e0e7c5d19","ios":"levelo://app?vid=7a5bbfb1-dafb-4777-8f4b-4b1e0e7c5d19"},"vehicle_type_id":"4","last_reported":1747984253,"current_range_meters":16000,"station_id":"ce4bhbh2rcd13ifvqeo0","pricing_plan_id":"cebpf4jnsgd1na2vs0mg"},{"bike_id":"fc8c72ad-ca61-42c6-ae90-f61b57e45328","system_id":"levelo_inurba_marseille","lat":43.279001,"lon":5.418573,"is_reserved":false,"is_disabled":false,"rental_uris":{"android":"levelo://app?vid=fc8c72ad-ca61-42c6-ae90-f61b57e45328","ios":"levelo://app?vid=fc8c72ad-ca61-42c6-ae90-f61b57e45328"},"vehicle_type_id":"4","last_reported":1747984253,"current_range_meters":16400,"station_id":"","pricing_plan_id":"cebpf4jnsgd1na2vs0mg"},{"bike_id":"504f6044-b1b9-4079-a743-99d9ac21b4c6","system_id":"levelo_inurba_marseille","lat":43.33602,"lon":5.4102,"is_reserved":false,"is_disabled":false,"rental_uris":{"android":"levelo://app?vid=504f6044-b1b9-4079-a743-99d9ac21b4c6","ios":"levelo://app?vid=504f6044-b1b9-4079-a743-99d9ac21b4c6"},"vehicle_type_id":"4","last_reported":1747984253,"current_range_meters":16400,"station_id":"ce4bhqh2rcd13ifvqhmg","pricing_plan_id":"cebpf4jnsgd1na2vs0mg"},{"bike_id":"e4afbc14-4a07-4bbe-8f38-d32c5e59899e","system_id":"levelo_inurba_marseille","lat":43.31345,"lon":5.36717,"is_reserved":false,"is_disabled":false,"rental_uris":{"android":"levelo://app?vid=e4afbc14-4a07-4bbe-8f38-d32c5e59899e","ios":"levelo://app?vid=e4afbc14-4a07-4bbe-8f38-d32c5e59899e"},"vehicle_type_id":"4","last_reported":1747984253,"current_range_meters":16800,"station_id":"ce4bgr92rcd13ifvqc6g","pricing_plan_id":"cebpf4jnsgd1na2vs0mg"},{"bike_id":"cf2a0757-a304-4e45-9878-79d60b35dfbb","system_id":"levelo_inurba_marseille","lat":43.31349,"lon":5.36696,"is_reserved":false,"is_disabled":false,"rental_uris":{"android":"levelo://app?vid=cf2a0757-a304-4e45-9878-79d60b35dfbb","ios":"levelo://app?vid=cf2a0757-a304-4e45-9878-79d60b35dfbb"},"vehicle_type_id":"4","last_reported":1747984253,"current_range_meters":16800,"station_id":"ce4bgr92rcd13ifvqc6g","pricing_plan_id":"cebpf4jnsgd1na2vs0mg"},{"bike_id":"93517996-5a39-4256-ba1d-4d922dc1e004","system_id":"levelo_inurba_marseille","lat":43.25933,"lon":5.40908,"is_reserved":false,"is_disabled":false,"rental_uris":{"android":"levelo://app?vid=93517996-5a39-4256-ba1d-4d922dc1e004","ios":"levelo://app?vid=93517996-5a39-4256-ba1d-4d922dc1e004"},"vehicle_type_id":"4","last_reported":1747984253,"current_range_meters":16800,"station_id":"ce4bhm92rcd13ifvqglg","pricing_plan_id":"cebpf4jnsgd1na2vs0mg"},{"bike_id":"ee691d4e-a26d-4171-8fbd-6def5ed786af","system_id":"levelo_inurba_marseille","lat":43.28854,"lon":5.35834,"is_reserved":false,"is_disabled":true,"rental_uris":{"android":"levelo://app?vid=ee691d4e-a26d-4171-8fbd-6def5ed786af","ios":"levelo://app?vid=ee691d4e-a26d-4171-8fbd-6def5ed786af"},"vehicle_type_id":"4","last_reported":1747984253,"current_range_meters":16800,"station_id":"ce4bhb12rcd13ifvqem0","pricing_plan_id":"cebpf4jnsgd1na2vs0mg"},{"bike_id":"a233b715-2e4f-403b-98e8-0f9c79dd2702","system_id":"levelo_inurba_marseille","lat":43.26796,"lon":5.39387,"is_reserved":false,"is_disabled":false,"rental_uris":{"android":"levelo://app?vid=a233b715-2e4f-403b-98e8-0f9c79dd2702","ios":"levelo://app?vid=a233b715-2e4f-403b-98e8-0f9c79dd2702"},"vehicle_type_id":"4","last_reported":1747984253,"current_range_meters":16800,"station_id":"ce4bhh12rcd13ifvqfg0","pricing_plan_id":"cebpf4jnsgd1na2vs0mg"},{"bike_id":"75e91607-f093-41b1-947a-69b62fe724b6","system_id":"levelo_inurba_marseille","lat":43.34683,"lon":5.34528,"is_reserved":false,"is_disabled":false,"rental_uris":{"android":"levelo://app?vid=75e91607-f093-41b1-947a-69b62fe724b6","ios":"levelo://app?vid=75e91607-f093-41b1-947a-69b62fe724b6"},"vehicle_type_id":"4","last_reported":1747984253,"current_range_meters":16800,"station_id":"","pricing_plan_id":"cebpf4jnsgd1na2vs0mg"},{"bike_id":"b875afdc-2504-4f80-bc49-94241a847d08","system_id":"levelo_inurba_marseille","lat":43.242808,"lon":5.368602,"is_reserved":false,"is_disabled":false,"rental_uris":{"android":"levelo://app?vid=b875afdc-2504-4f80-bc49-94241a847d08","ios":"levelo://app?vid=b875afdc-2504-4f80-bc49-94241a847d08"},"vehicle_type_id":"4","last_reported":1747984253,"current_range_meters":16800,"station_id":"ce4bhh12rcd13ifvqff0","pricing_plan_id":"cebpf4jnsgd1na2vs0mg"},{"bike_id":"01e09790-234a-4c0f-85e6-b033b224dd39","system_id":"levelo_inurba_marseille","lat":43.2586,"lon":5.39928,"is_reserved":false,"is_disabled":false,"rental_uris":{"android":"levelo://app?vid=01e09790-234a-4c0f-85e6-b033b224dd39","ios":"levelo://app?vid=01e09790-234a-4c0f-85e6-b033b224dd39"},"vehicle_type_id":"4","last_reported":1747984253,"current_range_meters":16800,"station_id":"ce4bhl92rcd13ifvqghg","pricing_plan_id":"cebpf4jnsgd1na2vs0mg"},{"bike_id":"f5aa6fdf-ff4f-4431-a12e-a122171f0a50","system_id":"levelo_inurba_marseille","lat":43.31353,"lon":5.36718,"is_reserved":false,"is_disabled":false,"rental_uris":{"android":"levelo://app?vid=f5aa6fdf-ff4f-4431-a12e-a122171f0a50","ios":"levelo://app?vid=f5aa6fdf-ff4f-4431-a12e-a122171f0a50"},"vehicle_type_id":"4","last_reported":1747984253,"current_range_meters":16800,"station_id":"ce4bgr92rcd13ifvqc6g","pricing_plan_id":"cebpf4jnsgd1na2vs0mg"},{"bike_id":"0867c3ba-a397-4af5-ba94-04013ac2648d","system_id":"levelo_inurba_marseille","lat":43.24182,"lon":5.39719,"is_reserved":false,"is_disabled":false,"rental_uris":{"android":"levelo://app?vid=0867c3ba-a397-4af5-ba94-04013ac2648d","ios":"levelo://app?vid=0867c3ba-a397-4af5-ba94-04013ac2648d"},"vehicle_type_id":"4","last_reported":1747984253,"current_range_meters":16800,"station_id":"ce4bhn12rcd13ifvqgpg","pricing_plan_id":"cebpf4jnsgd1na2vs0mg"},{"bike_id":"810ec5e6-67f7-4f3e-800f-6267df654c69","system_id":"levelo_inurba_marseille","lat":43.30537,"lon":5.36556,"is_reserved":false,"is_disabled":false,"rental_uris":{"android":"levelo://app?vid=810ec5e6-67f7-4f3e-800f-6267df654c69","ios":"levelo://app?vid=810ec5e6-67f7-4f3e-800f-6267df654c69"},"vehicle_type_id":"4","last_reported":1747984253,"current_range_meters":16800,"station_id":"ce4bgs12rcd13ifvqcag","pricing_plan_id":"cebpf4jnsgd1na2vs0mg"},{"bike_id":"7ca2fc6a-b78a-40a6-9564-cac8aa1a3366","system_id":"levelo_inurba_marseille","lat":43.290463,"lon":5.399606,"is_reserved":false,"is_disabled":false,"rental_uris":{"android":"levelo://app?vid=7ca2fc6a-b78a-40a6-9564-cac8aa1a3366","ios":"levelo://app?vid=7ca2fc6a-b78a-40a6-9564-cac8aa1a3366"},"vehicle_type_id":"4","last_reported":1747984253,"current_range_meters":17200,"station_id":"ce4bh392rcd13ifvqdm0","pricing_plan_id":"cebpf4jnsgd1na2vs0mg"},{"bike_id":"22743132-0c14-4e19-9915-e38fe32a0e07","system_id":"levelo_inurba_marseille","lat":43.30945,"lon":5.39028,"is_reserved":false,"is_disabled":false,"rental_uris":{"android":"levelo://app?vid=22743132-0c14-4e19-9915-e38fe32a0e07","ios":"levelo://app?vid=22743132-0c14-4e19-9915-e38fe32a0e07"},"vehicle_type_id":"4","last_reported":1747984253,"current_range_meters":17200,"station_id":"ce4bgup2rcd13ifvqco0","pricing_plan_id":"cebpf4jnsgd1na2vs0mg"},{"bike_id":"549cdb9d-74f7-4497-bb2f-7af942d71412","system_id":"levelo_inurba_marseille","lat":43.258678,"lon":5.398955,"is_reserved":false,"is_disabled":false,"rental_uris":{"android":"levelo://app?vid=549cdb9d-74f7-4497-bb2f-7af942d71412","ios":"levelo://app?vid=549cdb9d-74f7-4497-bb2f-7af942d71412"},"vehicle_type_id":"4","last_reported":1747984253,"current_range_meters":17200,"station_id":"ce4bhl92rcd13ifvqghg","pricing_plan_id":"cebpf4jnsgd1na2vs0mg"},{"bike_id":"8f170d27-1eec-426e-b4ea-3593c59cd5b2","system_id":"levelo_inurba_marseille","lat":43.28634,"lon":5.38223,"is_reserved":false,"is_disabled":false,"rental_uris":{"android":"levelo://app?vid=8f170d27-1eec-426e-b4ea-3593c59cd5b2","ios":"levelo://app?vid=8f170d27-1eec-426e-b4ea-3593c59cd5b2"},"vehicle_type_id":"4","last_reported":1747984253,"current_range_meters":17200,"station_id":"","pricing_plan_id":"cebpf4jnsgd1na2vs0mg"},{"bike_id":"8fcdf39c-cdc3-4270-8329-72ecd32df0f9","system_id":"levelo_inurba_marseille","lat":43.25919,"lon":5.40897,"is_reserved":false,"is_disabled":false,"rental_uris":{"android":"levelo://app?vid=8fcdf39c-cdc3-4270-8329-72ecd32df0f9","ios":"levelo://app?vid=8fcdf39c-cdc3-4270-8329-72ecd32df0f9"},"vehicle_type_id":"4","last_reported":1747984253,"current_range_meters":17200,"station_id":"ce4bhm92rcd13ifvqglg","pricing_plan_id":"cebpf4jnsgd1na2vs0mg"},{"bike_id":"b962fd98-5f52-4a23-8bfc-93eda53c4124","system_id":"levelo_inurba_marseille","lat":43.30532,"lon":5.36558,"is_reserved":false,"is_disabled":false,"rental_uris":{"android":"levelo://app?vid=b962fd98-5f52-4a23-8bfc-93eda53c4124","ios":"levelo://app?vid=b962fd98-5f52-4a23-8bfc-93eda53c4124"},"vehicle_type_id":"4","last_reported":1747984253,"current_range_meters":17200,"station_id":"ce4bgs12rcd13ifvqcag","pricing_plan_id":"cebpf4jnsgd1na2vs0mg"},{"bike_id":"9b765297-e0a1-4b3b-945b-225eb7b1d03f","system_id":"levelo_inurba_marseille","lat":43.2508,"lon":5.39526,"is_reserved":false,"is_disabled":false,"rental_uris":{"android":"levelo://app?vid=9b765297-e0a1-4b3b-945b-225eb7b1d03f","ios":"levelo://app?vid=9b765297-e0a1-4b3b-945b-225eb7b1d03f"},"vehicle_type_id":"4","last_reported":1747984253,"current_range_meters":17600,"station_id":"ce4bhm12rcd13ifvqgkg","pricing_plan_id":"cebpf4jnsgd1na2vs0mg"},{"bike_id":"6e76e56c-f3bc-4130-9448-3b802dca905b","system_id":"levelo_inurba_marseille","lat":43.2894,"lon":5.36641,"is_reserved":false,"is_disabled":false,"rental_uris":{"android":"levelo://app?vid=6e76e56c-f3bc-4130-9448-3b802dca905b","ios":"levelo://app?vid=6e76e56c-f3bc-4130-9448-3b802dca905b"},"vehicle_type_id":"4","last_reported":1747984253,"current_range_meters":17600,"station_id":"ce4bhap2rcd13ifvqek0","pricing_plan_id":"cebpf4jnsgd1na2vs0mg"},{"bike_id":"06e4f6b3-d0ab-45db-b363-8413f86ed001","system_id":"levelo_inurba_marseille","lat":43.288957,"lon":5.428627,"is_reserved":false,"is_disabled":false,"rental_uris":{"android":"levelo://app?vid=06e4f6b3-d0ab-45db-b363-8413f86ed001","ios":"levelo://app?vid=06e4f6b3-d0ab-45db-b363-8413f86ed001"},"vehicle_type_id":"4","last_reported":1747984253,"current_range_meters":17600,"station_id":"","pricing_plan_id":"cebpf4jnsgd1na2vs0mg"},{"bike_id":"9a87fbb7-da03-4f3d-9e54-6acbdfaf70f2","system_id":"levelo_inurba_marseille","lat":43.225,"lon":5.34787,"is_reserved":false,"is_disabled":false,"rental_uris":{"android":"levelo://app?vid=9a87fbb7-da03-4f3d-9e54-6acbdfaf70f2","ios":"levelo://app?vid=9a87fbb7-da03-4f3d-9e54-6acbdfaf70f2"},"vehicle_type_id":"4","last_reported":1747984253,"current_range_meters":17600,"station_id":"ce4bhg12rcd13ifvqf60","pricing_plan_id":"cebpf4jnsgd1na2vs0mg"},{"bike_id":"c316ab04-03d3-4bba-bf18-70407493d45f","system_id":"levelo_inurba_marseille","lat":43.31707,"lon":5.43697,"is_reserved":false,"is_disabled":true,"rental_uris":{"android":"levelo://app?vid=c316ab04-03d3-4bba-bf18-70407493d45f","ios":"levelo://app?vid=c316ab04-03d3-4bba-bf18-70407493d45f"},"vehicle_type_id":"4","last_reported":1747984253,"current_range_meters":17600,"station_id":"ce4bhp92rcd13ifvqhcg","pricing_plan_id":"cebpf4jnsgd1na2vs0mg"},{"bike_id":"1f03eabf-40a9-43cc-8675-850bd9d3eb2a","system_id":"levelo_inurba_marseille","lat":43.29275,"lon":5.4011,"is_reserved":false,"is_disabled":false,"rental_uris":{"android":"levelo://app?vid=1f03eabf-40a9-43cc-8675-850bd9d3eb2a","ios":"levelo://app?vid=1f03eabf-40a9-43cc-8675-850bd9d3eb2a"},"vehicle_type_id":"4","last_reported":1747984253,"current_range_meters":17600,"station_id":"ce4bh312rcd13ifvqdk0","pricing_plan_id":"cebpf4jnsgd1na2vs0mg"},{"bike_id":"ec666862-00a2-482b-9244-002a6c788092","system_id":"levelo_inurba_marseille","lat":43.3095,"lon":5.39026,"is_reserved":false,"is_disabled":false,"rental_uris":{"android":"levelo://app?vid=ec666862-00a2-482b-9244-002a6c788092","ios":"levelo://app?vid=ec666862-00a2-482b-9244-002a6c788092"},"vehicle_type_id":"4","last_reported":1747984253,"current_range_meters":17600,"station_id":"ce4bgup2rcd13ifvqco0","pricing_plan_id":"cebpf4jnsgd1na2vs0mg"},{"bike_id":"05dabce4-7508-46a8-9cde-923cc596d37f","system_id":"levelo_inurba_marseille","lat":43.309494,"lon":5.390327,"is_reserved":false,"is_disabled":true,"rental_uris":{"android":"levelo://app?vid=05dabce4-7508-46a8-9cde-923cc596d37f","ios":"levelo://app?vid=05dabce4-7508-46a8-9cde-923cc596d37f"},"vehicle_type_id":"4","last_reported":1747984253,"current_range_meters":18000,"station_id":"ce4bgup2rcd13ifvqco0","pricing_plan_id":"cebpf4jnsgd1na2vs0mg"},{"bike_id":"d510f0cb-da43-4ad6-b9a1-0987fc893cbd","system_id":"levelo_inurba_marseille","lat":43.25938,"lon":5.40905,"is_reserved":false,"is_disabled":false,"rental_uris":{"android":"levelo://app?vid=d510f0cb-da43-4ad6-b9a1-0987fc893cbd","ios":"levelo://app?vid=d510f0cb-da43-4ad6-b9a1-0987fc893cbd"},"vehicle_type_id":"4","last_reported":1747984253,"current_range_meters":18000,"station_id":"ce4bhm92rcd13ifvqglg","pricing_plan_id":"cebpf4jnsgd1na2vs0mg"},{"bike_id":"1ca6194f-da2c-4248-9440-400562c7cd4f","system_id":"levelo_inurba_marseille","lat":43.31353,"lon":5.36714,"is_reserved":false,"is_disabled":false,"rental_uris":{"android":"levelo://app?vid=1ca6194f-da2c-4248-9440-400562c7cd4f","ios":"levelo://app?vid=1ca6194f-da2c-4248-9440-400562c7cd4f"},"vehicle_type_id":"4","last_reported":1747984253,"current_range_meters":18000,"station_id":"ce4bgr92rcd13ifvqc6g","pricing_plan_id":"cebpf4jnsgd1na2vs0mg"},{"bike_id":"ec81dc1b-d94a-4d1c-b460-4a686b848ec0","system_id":"levelo_inurba_marseille","lat":43.26681,"lon":5.38274,"is_reserved":false,"is_disabled":false,"rental_uris":{"android":"levelo://app?vid=ec81dc1b-d94a-4d1c-b460-4a686b848ec0","ios":"levelo://app?vid=ec81dc1b-d94a-4d1c-b460-4a686b848ec0"},"vehicle_type_id":"4","last_reported":1747984253,"current_range_meters":18000,"station_id":"ce4bhg92rcd13ifvqf90","pricing_plan_id":"cebpf4jnsgd1na2vs0mg"},{"bike_id":"f16bcea9-fc5e-4ea9-9ed1-3fddfca8147b","system_id":"levelo_inurba_marseille","lat":43.24075,"lon":5.3776,"is_reserved":false,"is_disabled":false,"rental_uris":{"android":"levelo://app?vid=f16bcea9-fc5e-4ea9-9ed1-3fddfca8147b","ios":"levelo://app?vid=f16bcea9-fc5e-4ea9-9ed1-3fddfca8147b"},"vehicle_type_id":"4","last_reported":1747984253,"current_range_meters":18000,"station_id":"ce4bhnp2rcd13ifvqgvg","pricing_plan_id":"cebpf4jnsgd1na2vs0mg"},{"bike_id":"d502a9fb-e8d3-4df5-aeef-a806c8fd7412","system_id":"levelo_inurba_marseille","lat":43.31361,"lon":5.36687,"is_reserved":false,"is_disabled":false,"rental_uris":{"android":"levelo://app?vid=d502a9fb-e8d3-4df5-aeef-a806c8fd7412","ios":"levelo://app?vid=d502a9fb-e8d3-4df5-aeef-a806c8fd7412"},"vehicle_type_id":"4","last_reported":1747984253,"current_range_meters":18000,"station_id":"ce4bgr92rcd13ifvqc6g","pricing_plan_id":"cebpf4jnsgd1na2vs0mg"},{"bike_id":"237b70b7-a148-4703-b4f6-63a7cab8d340","system_id":"levelo_inurba_marseille","lat":43.29277,"lon":5.40066,"is_reserved":false,"is_disabled":false,"rental_uris":{"android":"levelo://app?vid=237b70b7-a148-4703-b4f6-63a7cab8d340","ios":"levelo://app?vid=237b70b7-a148-4703-b4f6-63a7cab8d340"},"vehicle_type_id":"4","last_reported":1747984253,"current_range_meters":18000,"station_id":"ce4bh312rcd13ifvqdk0","pricing_plan_id":"cebpf4jnsgd1na2vs0mg"},{"bike_id":"05121924-d2f5-42fb-ad2c-6765d7d4a5ec","system_id":"levelo_inurba_marseille","lat":43.23964,"lon":5.36632,"is_reserved":false,"is_disabled":false,"rental_uris":{"android":"levelo://app?vid=05121924-d2f5-42fb-ad2c-6765d7d4a5ec","ios":"levelo://app?vid=05121924-d2f5-42fb-ad2c-6765d7d4a5ec"},"vehicle_type_id":"4","last_reported":1747984253,"current_range_meters":18000,"station_id":"ce4bhi12rcd13ifvqfp0","pricing_plan_id":"cebpf4jnsgd1na2vs0mg"},{"bike_id":"b2f4d418-d0ff-4f2d-a183-038cabae48f6","system_id":"levelo_inurba_marseille","lat":43.24066,"lon":5.37754,"is_reserved":false,"is_disabled":false,"rental_uris":{"android":"levelo://app?vid=b2f4d418-d0ff-4f2d-a183-038cabae48f6","ios":"levelo://app?vid=b2f4d418-d0ff-4f2d-a183-038cabae48f6"},"vehicle_type_id":"4","last_reported":1747984253,"current_range_meters":18000,"station_id":"ce4bhnp2rcd13ifvqgvg","pricing_plan_id":"cebpf4jnsgd1na2vs0mg"},{"bike_id":"a7ce6ec2-5778-4c61-b1c6-cfc303e12f95","system_id":"levelo_inurba_marseille","lat":43.289145,"lon":5.372941,"is_reserved":false,"is_disabled":false,"rental_uris":{"android":"levelo://app?vid=a7ce6ec2-5778-4c61-b1c6-cfc303e12f95","ios":"levelo://app?vid=a7ce6ec2-5778-4c61-b1c6-cfc303e12f95"},"vehicle_type_id":"4","last_reported":1747984253,"current_range_meters":18800,"station_id":"","pricing_plan_id":"cebpf4jnsgd1na2vs0mg"},