{"last_updated":1773859484,"ttl":60,"version":"2.2","data":{"bikes":[{"bike_id":"354caf00-8fc2-4fb8-aeb0-c6e4da3f5e7d","system_id":"levelo_inurba_marseille","lat":43.28931,"lon":5.36639,"is_reserved":false,"is_disabled":false,"rental_uris":{"android":"levelo://app?vid=354caf00-8fc2-4fb8-aeb0-c6e4da3f5e7d","ios":"levelo://app?vid=354caf00-8fc2-4fb8-aeb0-c6e4da3f5e7d"},"vehicle_type_id":"4","last_reported":1773859485,"current_range_meters":2800,"station_id":"ce4bhap2rcd13ifvqek0","pricing_plan_id":"cebpf4jnsgd1na2vs0mg"},{"bike_id":"9dc44536-acfb-4062-b142-f86cdbccbd82","system_id":"levelo_inurba_marseille","lat":43.25339,"lon":5.4215,"is_reserved":false,"is_disabled":false,"rental_uris":{"android":"levelo://app?vid=9dc44536-acfb-4062-b142-f86cdbccbd82","ios":"levelo://app?vid=9dc44536-acfb-4062-b142-f86cdbccbd82"},"vehicle_type_id":"4","last_reported":1773859485,"current_range_meters":2800,"station_id":"st_d2m65c5bi1j21697t3ng","pricing_plan_id":"cebpf4jnsgd1na2vs0mg"},{"bike_id":"1cc38b8a-263f-494a-9e91-4e3b6a20d657","system_id":"levelo_inurba_marseille","lat":43.23184,"lon":5.39985,"is_reserved":false,"is_disabled":false,"rental_uris":{"android":"levelo://app?vid=1cc38b8a-263f-494a-9e91-4e3b6a20d657","ios":"levelo://app?vid=1cc38b8a-263f-494a-9e91-4e3b6a20d657"},"vehicle_type_id":"4","last_reported":1773859485,"current_range_meters":2800,"station_id":"ce4bhn12rcd13ifvqgqg","pricing_plan_id":"cebpf4jnsgd1na2vs0mg"},{"bike_id":"0e65b593-d1d7-4d71-8570-6b958d0137ac","system_id":"levelo_inurba_marseille","lat":43.30144,"lon":5.37429,"is_reserved":false,"is_disabled":false,"rental_uris":{"android":"levelo://app?vid=0e65b593-d1d7-4d71-8570-6b958d0137ac","ios":"levelo://app?vid=0e65b593-d1d7-4d71-8570-6b958d0137ac"},"vehicle_type_id":"4","last_reported":1773859485,"current_range_meters":2800,"station_id":"ce4bgs92rcd13ifvqcc0","pricing_plan_id":"cebpf4jnsgd1na2vs0mg"},{"bike_id":"f2581bd2-7f15-4471-96d4-9105f08c24b4","system_id":"levelo_inurba_marseille","lat":43.29388,"lon":5.37872,"is_reserved":false,"is_disabled":false,"rental_uris":{"android":"levelo://app?vid=f2581bd2-7f15-4471-96d4-9105f08c24b4","ios":"levelo://app?vid=f2581bd2-7f15-4471-96d4-9105f08c24b4"},"vehicle_type_id":"4","last_reported":1773859485,"current_range_meters":2800,"station_id":"ce4bgjh2rcd13ifvqbf0","pricing_plan_id":"cebpf4jnsgd1na2vs0mg"},{"bike_id":"4781637b-638f-43e4-986e-d1453e79c6c3","system_id":"levelo_inurba_marseille","lat":43.29967,"lon":5.38479,"is_reserved":false,"is_disabled":false,"rental_uris":{"android":"levelo://app?vid=4781637b-638f-43e4-986e-d1453e79c6c3","ios":"levelo://app?vid=4781637b-638f-43e4-986e-d1453e79c6c3"},"vehicle_type_id":"4","last_reported":1773859485,"current_range_meters":2800,"station_id":"ce4bgj92rcd13ifvqbd0","pricing_plan_id":"cebpf4jnsgd1na2vs0mg"},{"bike_id":"46ef4082-49ce-4ed5-b6b7-83f6eed5d90f","system_id":"levelo_inurba_marseille","lat":43.25339,"lon":5.4217,"is_reserved":false,"is_disabled":false,"rental_uris":{"android":"levelo://app?vid=46ef4082-49ce-4ed5-b6b7-83f6eed5d90f","ios":"levelo://app?vid=46ef4082-49ce-4ed5-b6b7-83f6eed5d90f"},"vehicle_type_id":"4","last_reported":1773859485,"current_range_meters":2800,"station_id":"st_d2m65c5bi1j21697t3ng","pricing_plan_id":"cebpf4jnsgd1na2vs0mg"},{"bike_id":"a8ab54b1-7789-4df6-8176-c2a2b6ceda65","system_id":"levelo_inurba_marseille","lat":43.25328,"lon":5.42168,"is_reserved":false,"is_disabled":false,"rental_uris":{"android":"levelo://app?vid=a8ab54b1-7789-4df6-8176-c2a2b6ceda65","ios":"levelo://app?vid=a8ab54b1-7789-4df6-8176-c2a2b6ceda65"},"vehicle_type_id":"4","last_reported":1773859485,"current_range_meters":2800,"station_id":"st_d2m65c5bi1j21697t3ng","pricing_plan_id":"cebpf4jnsgd1na2vs0mg"},{"bike_id":"95d31319-d36d-403e-adf6-0b51cdaa5b1b","system_id":"levelo_inurba_marseille","lat":43.31364,"lon":5.39704,"is_reserved":false,"is_disabled":true,"rental_uris":{"android":"levelo://app?vid=95d31319-d36d-403e-adf6-0b51cdaa5b1b","ios":"levelo://app?vid=95d31319-d36d-403e-adf6-0b51cdaa5b1b"},"vehicle_type_id":"4","last_reported":1773859485,"current_range_meters":2800,"station_id":"ce4bgvp2rcd13ifvqcu0","pricing_plan_id":"cebpf4jnsgd1na2vs0mg"},{"bike_id":"6342f5fa-adf1-4f5d-a7d1-acf101731d57","system_id":"levelo_inurba_marseille","lat":43.29516,"lon":5.39394,"is_reserved":false,"is_disabled":false,"rental_uris":{"android":"levelo://app?vid=6342f5fa-adf1-4f5d-a7d1-acf101731d57","ios":"levelo://app?vid=6342f5fa-adf1-4f5d-a7d1-acf101731d57"},"vehicle_type_id":"4","last_reported":1773859485,"current_range_meters":2800,"station_id":"ce4bh292rcd13ifvqdf0","pricing_plan_id":"cebpf4jnsgd1na2vs0mg"},{"bike_id":"4e4ba8f7-60dc-4959-9a01-6da668abb084","system_id":"levelo_inurba_marseille","lat":43.21184,"lon":5.35079,"is_reserved":false,"is_disabled":false,"rental_uris":{"android":"levelo://app?vid=4e4ba8f7-60dc-4959-9a01-6da668abb084","ios":"levelo://app?vid=4e4ba8f7-60dc-4959-9a01-6da668abb084"},"vehicle_type_id":"4","last_reported":1773859485,"current_range_meters":2800,"station_id":"st_cvj6sg6p6f1abm77japg","pricing_plan_id":"cebpf4jnsgd1na2vs0mg"},{"bike_id":"7c5ff123-5877-455d-b601-cc3c1f7bc5b1","system_id":"levelo_inurba_marseille","lat":43.28936,"lon":5.36639,"is_reserved":false,"is_disabled":false,"rental_uris":{"android":"levelo://app?vid=7c5ff123-5877-455d-b601-cc3c1f7bc5b1","ios":"levelo://app?vid=7c5ff123-5877-455d-b601-cc3c1f7bc5b1"},"vehicle_type_id":"4","last_reported":1773859485,"current_range_meters":2800,"station_id":"ce4bhap2rcd13ifvqek0","pricing_plan_id":"cebpf4jnsgd1na2vs0mg"},{"bike_id":"ce1d1ed8-2c2f-44ec-8c2b-b0676219e9be","system_id":"levelo_inurba_marseille","lat":43.28482,"lon":5.385582,"is_reserved":false,"is_disabled":false,"rental_uris":{"android":"levelo://app?vid=ce1d1ed8-2c2f-44ec-8c2b-b0676219e9be","ios":"levelo://app?vid=ce1d1ed8-2c2f-44ec-8c2b-b0676219e9be"},"vehicle_type_id":"4","last_reported":1773859485,"current_range_meters":2800,"station_id":"ce4bh8p2rcd13ifvqeb0","pricing_plan_id":"cebpf4jnsgd1na2vs0mg"},{"bike_id":"278b8c85-4f62-4a9f-b3cd-a772131ca316","system_id":"levelo_inurba_marseille","lat":43.27991,"lon":5.40022,"is_reserved":false,"is_disabled":false,"rental_uris":{"android":"levelo://app?vid=278b8c85-4f62-4a9f-b3cd-a772131ca316","ios":"levelo://app?vid=278b8c85-4f62-4a9f-b3cd-a772131ca316"},"vehicle_type_id":"4","last_reported":1773859485,"current_range_meters":2800,"station_id":"ce4bho92rcd13ifvqh4g","pricing_plan_id":"cebpf4jnsgd1na2vs0mg"},{"bike_id":"6886e6e3-12ec-4a60-a15c-82859e132ee9","system_id":"levelo_inurba_marseille","lat":43.2998,"lon":5.38456,"is_reserved":false,"is_disabled":false,"rental_uris":{"android":"levelo://app?vid=6886e6e3-12ec-4a60-a15c-82859e132ee9","ios":"levelo://app?vid=6886e6e3-12ec-4a60-a15c-82859e132ee9"},"vehicle_type_id":"4","last_reported":1773859485,"current_range_meters":2800,"station_id":"ce4bgj92rcd13ifvqbd0","pricing_plan_id":"cebpf4jnsgd1na2vs0mg"},{"bike_id":"a1cfb408-da52-4413-a934-9b5c4a9189a4","system_id":"levelo_inurba_marseille","lat":43.29584,"lon":5.37524,"is_reserved":false,"is_disabled":false,"rental_uris":{"android":"levelo://app?vid=a1cfb408-da52-4413-a934-9b5c4a9189a4","ios":"levelo://app?vid=a1cfb408-da52-4413-a934-9b5c4a9189a4"},"vehicle_type_id":"4","last_reported":1773859485,"current_range_meters":2800,"station_id":"ce4bgh92rcd13ifvqb50","pricing_plan_id":"cebpf4jnsgd1na2vs0mg"},{"bike_id":"1fb19db4-5d4f-41f0-9ea9-386e0f28c193","system_id":"levelo_inurba_marseille","lat":43.29532,"lon":5.38538,"is_reserved":false,"is_disabled":false,"rental_uris":{"android":"levelo://app?vid=1fb19db4-5d4f-41f0-9ea9-386e0f28c193","ios":"levelo://app?vid=1fb19db4-5d4f-41f0-9ea9-386e0f28c193"},"vehicle_type_id":"4","last_reported":1773859485,"current_range_meters":2800,"station_id":"ce4bgih2rcd13ifvqba0","pricing_plan_id":"cebpf4jnsgd1na2vs0mg"},{"bike_id":"a3883991-e624-4185-8270-d361c4dbb42e","system_id":"levelo_inurba_marseille","lat":43.29868,"lon":5.39734,"is_reserved":false,"is_disabled":false,"rental_uris":{"android":"levelo://app?vid=a3883991-e624-4185-8270-d361c4dbb42e","ios":"levelo://app?vid=a3883991-e624-4185-8270-d361c4dbb42e"},"vehicle_type_id":"4","last_reported":1773859485,"current_range_meters":2800,"station_id":"ce4bh0h2rcd13ifvqd50","pricing_plan_id":"cebpf4jnsgd1na2vs0mg"},{"bike_id":"2134a193-4b3a-4038-a280-1a0ba6458570","system_id":"levelo_inurba_marseille","lat":43.29815,"lon":5.42142,"is_reserved":false,"is_disabled":false,"rental_uris":{"android":"levelo://app?vid=2134a193-4b3a-4038-a280-1a0ba6458570","ios":"levelo://app?vid=2134a193-4b3a-4038-a280-1a0ba6458570"},"vehicle_type_id":"4","last_reported":1773859485,"current_range_meters":3200,"station_id":"","pricing_plan_id":"cebpf4jnsgd1na2vs0mg"},{"bike_id":"d1e94812-6879-40ef-95d9-a5391f767197","system_id":"levelo_inurba_marseille","lat":43.29201,"lon":5.35782,"is_reserved":false,"is_disabled":false,"rental_uris":{"android":"levelo://app?vid=d1e94812-6879-40ef-95d9-a5391f767197","ios":"levelo://app?vid=d1e94812-6879-40ef-95d9-a5391f767197"},"vehicle_type_id":"4","last_reported":1773859485,"current_range_meters":3200,"station_id":"ce4bhb12rcd13ifvqel0","pricing_plan_id":"cebpf4jnsgd1na2vs0mg"},{"bike_id":"d4e74b6d-3b72-4b49-91d0-43821ae82615","system_id":"levelo_inurba_marseille","lat":43.2915,"lon":5.3828,"is_reserved":false,"is_disabled":false,"rental_uris":{"android":"levelo://app?vid=d4e74b6d-3b72-4b49-91d0-43821ae82615","ios":"levelo://app?vid=d4e74b6d-3b72-4b49-91d0-43821ae82615"},"vehicle_type_id":"4","last_reported":1773859485,"current_range_meters":3200,"station_id":"ce4bhg12rcd13ifvqf80","pricing_plan_id":"cebpf4jnsgd1na2vs0mg"},{"bike_id":"04699f09-1d09-4a41-aa65-3793c16ba70f","system_id":"levelo_inurba_marseille","lat":43.26497,"lon":5.39534,"is_reserved":false,"is_disabled":false,"rental_uris":{"android":"levelo://app?vid=04699f09-1d09-4a41-aa65-3793c16ba70f","ios":"levelo://app?vid=04699f09-1d09-4a41-aa65-3793c16ba70f"},"vehicle_type_id":"4","last_reported":1773859485,"current_range_meters":3200,"station_id":"ce4bhi12rcd13ifvqfq0","pricing_plan_id":"cebpf4jnsgd1na2vs0mg"},{"bike_id":"c94b1356-7e85-437c-b08c-c66071e3158e","system_id":"levelo_inurba_marseille","lat":43.24546,"lon":5.39521,"is_reserved":false,"is_disabled":false,"rental_uris":{"android":"levelo://app?vid=c94b1356-7e85-437c-b08c-c66071e3158e","ios":"levelo://app?vid=c94b1356-7e85-437c-b08c-c66071e3158e"},"vehicle_type_id":"4","last_reported":1773859485,"current_range_meters":3200,"station_id":"ce4bhlp2rcd13ifvqgjg","pricing_plan_id":"cebpf4jnsgd1na2vs0mg"},{"bike_id":"292abd82-4146-466f-9e34-79bd05209e5a","system_id":"levelo_inurba_marseille","lat":43.29949,"lon":5.38521,"is_reserved":false,"is_disabled":false,"rental_uris":{"android":"levelo://app?vid=292abd82-4146-466f-9e34-79bd05209e5a","ios":"levelo://app?vid=292abd82-4146-466f-9e34-79bd05209e5a"},"vehicle_type_id":"4","last_reported":1773859485,"current_range_meters":3200,"station_id":"ce4bgj92rcd13ifvqbd0","pricing_plan_id":"cebpf4jnsgd1na2vs0mg"},{"bike_id":"0a7689c5-49a7-40b4-8f79-83024edaab9a","system_id":"levelo_inurba_marseille","lat":43.2856,"lon":5.39522,"is_reserved":false,"is_disabled":false,"rental_uris":{"android":"levelo://app?vid=0a7689c5-49a7-40b4-8f79-83024edaab9a","ios":"levelo://app?vid=0a7689c5-49a7-40b4-8f79-83024edaab9a"},"vehicle_type_id":"4","last_reported":1773859485,"current_range_meters":3200,"station_id":"ce4bh292rcd13ifvqdg0","pricing_plan_id":"cebpf4jnsgd1na2vs0mg"},{"bike_id":"60d2ea08-2b7e-44e7-8315-9304b8a5f88f","system_id":"levelo_inurba_marseille","lat":43.31714,"lon":5.42392,"is_reserved":false,"is_disabled":true,"rental_uris":{"android":"levelo://app?vid=60d2ea08-2b7e-44e7-8315-9304b8a5f88f","ios":"levelo://app?vid=60d2ea08-2b7e-44e7-8315-9304b8a5f88f"},"vehicle_type_id":"4","last_reported":1773859485,"current_range_meters":3200,"station_id":"ce4bhp92rcd13ifvqhbg","pricing_plan_id":"cebpf4jnsgd1na2vs0mg"},{"bike_id":"b414f1f9-724b-4c6b-b6d0-ab86283fa7da","system_id":"levelo_inurba_marseille","lat":43.3059,"lon":5.39341,"is_reserved":false,"is_disabled":false,"rental_uris":{"android":"levelo://app?vid=b414f1f9-724b-4c6b-b6d0-ab86283fa7da","ios":"levelo://app?vid=b414f1f9-724b-4c6b-b6d0-ab86283fa7da"},"vehicle_type_id":"4","last_reported":1773859485,"current_range_meters":3200,"station_id":"ce4bh0p2rcd13ifvqd80","pricing_plan_id":"cebpf4jnsgd1na2vs0mg"},{"bike_id":"fae98e9a-2ca7-4fb7-8b98-a4d3430a57f0","system_id":"levelo_inurba_marseille","lat":43.31016,"lon":5.39363,"is_reserved":false,"is_disabled":false,"rental_uris":{"android":"levelo://app?vid=fae98e9a-2ca7-4fb7-8b98-a4d3430a57f0","ios":"levelo://app?vid=fae98e9a-2ca7-4fb7-8b98-a4d3430a57f0"},"vehicle_type_id":"4","last_reported":1773859485,"current_range_meters":3200,"station_id":"","pricing_plan_id":"cebpf4jnsgd1na2vs0mg"},{"bike_id":"ab2125f0-f477-425b-9c9a-e4231f7f002b","system_id":"levelo_inurba_marseille","lat":43.21752,"lon":5.34609,"is_reserved":false,"is_disabled":true,"rental_uris":{"android":"levelo://app?vid=ab2125f0-f477-425b-9c9a-e4231f7f002b","ios":"levelo://app?vid=ab2125f0-f477-425b-9c9a-e4231f7f002b"},"vehicle_type_id":"4","last_reported":1773859485,"current_range_meters":3200,"station_id":"st_cvj6r9ubvosntc0bgbag","pricing_plan_id":"cebpf4jnsgd1na2vs0mg"},{"bike_id":"6f6766ac-225c-4deb-ba72-6e4eef0dab31","system_id":"levelo_inurba_marseille","lat":43.29248,"lon":5.38428,"is_reserved":false,"is_disabled":false,"rental_uris":{"android":"levelo://app?vid=6f6766ac-225c-4deb-ba72-6e4eef0dab31","ios":"levelo://app?vid=6f6766ac-225c-4deb-ba72-6e4eef0dab31"},"vehicle_type_id":"4","last_reported":1773859485,"current_range_meters":3200,"station_id":"ce4bh692rcd13ifvqea0","pricing_plan_id":"cebpf4jnsgd1na2vs0mg"},{"bike_id":"b478840c-9ac5-4136-84c3-63233fe9c292","system_id":"levelo_inurba_marseille","lat":43.28077,"lon":5.39661,"is_reserved":false,"is_disabled":false,"rental_uris":{"android":"levelo://app?vid=b478840c-9ac5-4136-84c3-63233fe9c292","ios":"levelo://app?vid=b478840c-9ac5-4136-84c3-63233fe9c292"},"vehicle_type_id":"4","last_reported":1773859485,"current_range_meters":3200,"station_id":"ce4bho12rcd13ifvqh2g","pricing_plan_id":"cebpf4jnsgd1na2vs0mg"},{"bike_id":"03524ff5-52db-40b1-b2a7-d4e346bf9739","system_id":"levelo_inurba_marseille","lat":43.27572,"lon":5.38463,"is_reserved":false,"is_disabled":false,"rental_uris":{"android":"levelo://app?vid=03524ff5-52db-40b1-b2a7-d4e346bf9739","ios":"levelo://app?vid=03524ff5-52db-40b1-b2a7-d4e346bf9739"},"vehicle_type_id":"4","last_reported":1773859485,"current_range_meters":3200,"station_id":"ce4bhh92rcd13ifvqfi0","pricing_plan_id":"cebpf4jnsgd1na2vs0mg"},{"bike_id":"a9929dc7-f07d-487e-97ac-4a7875f73be3","system_id":"levelo_inurba_marseille","lat":43.3153,"lon":5.38043,"is_reserved":false,"is_disabled":false,"rental_uris":{"android":"levelo://app?vid=a9929dc7-f07d-487e-97ac-4a7875f73be3","ios":"levelo://app?vid=a9929dc7-f07d-487e-97ac-4a7875f73be3"},"vehicle_type_id":"4","last_reported":1773859485,"current_range_meters":3200,"station_id":"ce4bhsp2rcd13ifvqi50","pricing_plan_id":"cebpf4jnsgd1na2vs0mg"},{"bike_id":"458f604b-e062-47bf-ac14-a001a31d10d8","system_id":"levelo_inurba_marseille","lat":43.28476,"lon":5.48385,"is_reserved":false,"is_disabled":false,"rental_uris":{"android":"levelo://app?vid=458f604b-e062-47bf-ac14-a001a31d10d8","ios":"levelo://app?vid=458f604b-e062-47bf-ac14-a001a31d10d8"},"vehicle_type_id":"4","last_reported":1773859485,"current_range_meters":3600,"station_id":"","pricing_plan_id":"cebpf4jnsgd1na2vs0mg"},{"bike_id":"6192c4a9-d4b2-466d-8680-4c5903d88ffc","system_id":"levelo_inurba_marseille","lat":43.23834,"lon":5.39482,"is_reserved":false,"is_disabled":false,"rental_uris":{"android":"levelo://app?vid=6192c4a9-d4b2-466d-8680-4c5903d88ffc","ios":"levelo://app?vid=6192c4a9-d4b2-466d-8680-4c5903d88ffc"},"vehicle_type_id":"4","last_reported":1773859485,"current_range_meters":3600,"station_id":"","pricing_plan_id":"cebpf4jnsgd1na2vs0mg"},{"bike_id":"ed915b20-a18d-42c2-a82e-dd4e83193e35","system_id":"levelo_inurba_marseille","lat":43.3069,"lon":5.40621,"is_reserved":false,"is_disabled":false,"rental_uris":{"android":"levelo://app?vid=ed915b20-a18d-42c2-a82e-dd4e83193e35","ios":"levelo://app?vid=ed915b20-a18d-42c2-a82e-dd4e83193e35"},"vehicle_type_id":"4","last_reported":1773859485,"current_range_meters":3600,"station_id":"","pricing_plan_id":"cebpf4jnsgd1na2vs0mg"},{"bike_id":"35654e12-233a-4410-9b0d-c7a68cd6bff0","system_id":"levelo_inurba_marseille","lat":43.25091,"lon":5.39525,"is_reserved":false,"is_disabled":false,"rental_uris":{"android":"levelo://app?vid=35654e12-233a-4410-9b0d-c7a68cd6bff0","ios":"levelo://app?vid=35654e12-233a-4410-9b0d-c7a68cd6bff0"},"vehicle_type_id":"4","last_reported":1773859485,"current_range_meters":3600,"station_id":"ce4bhm12rcd13ifvqgkg","pricing_plan_id":"cebpf4jnsgd1na2vs0mg"},{"bike_id":"bf249f81-2ef0-45f9-a595-8436dd14fe0c","system_id":"levelo_inurba_marseille","lat":43.32105,"lon":5.36777,"is_reserved":false,"is_disabled":false,"rental_uris":{"android":"levelo://app?vid=bf249f81-2ef0-45f9-a595-8436dd14fe0c","ios":"levelo://app?vid=bf249f81-2ef0-45f9-a595-8436dd14fe0c"},"vehicle_type_id":"4","last_reported":1773859485,"current_range_meters":3600,"station_id":"ce4bhrh2rcd13ifvqhug","pricing_plan_id":"cebpf4jnsgd1na2vs0mg"},{"bike_id":"4eca5809-5573-477a-b5b4-ab8f5c84ba9d","system_id":"levelo_inurba_marseille","lat":43.287,"lon":5.37382,"is_reserved":false,"is_disabled":false,"rental_uris":{"android":"levelo://app?vid=4eca5809-5573-477a-b5b4-ab8f5c84ba9d","ios":"levelo://app?vid=4eca5809-5573-477a-b5b4-ab8f5c84ba9d"},"vehicle_type_id":"4","last_reported":1773859485,"current_range_meters":3600,"station_id":"ce4bh3p2rcd13ifvqdq0","pricing_plan_id":"cebpf4jnsgd1na2vs0mg"},{"bike_id":"3464d554-b763-4344-9691-af0456a9341f","system_id":"levelo_inurba_marseille","lat":43.29901,"lon":5.39761,"is_reserved":false,"is_disabled":false,"rental_uris":{"android":"levelo://app?vid=3464d554-b763-4344-9691-af0456a9341f","ios":"levelo://app?vid=3464d554-b763-4344-9691-af0456a9341f"},"vehicle_type_id":"4","last_reported":1773859485,"current_range_meters":3600,"station_id":"ce4bh0h2rcd13ifvqd50","pricing_plan_id":"cebpf4jnsgd1na2vs0mg"},{"bike_id":"3d49ca8b-8392-4da6-b6c1-920304e727a7","system_id":"levelo_inurba_marseille","lat":43.2976,"lon":5.42782,"is_reserved":false,"is_disabled":false,"rental_uris":{"android":"levelo://app?vid=3d49ca8b-8392-4da6-b6c1-920304e727a7","ios":"levelo://app?vid=3d49ca8b-8392-4da6-b6c1-920304e727a7"},"vehicle_type_id":"4","last_reported":1773859485,"current_range_meters":3600,"station_id":"st_d3md5207bmas73dh9klg","pricing_plan_id":"cebpf4jnsgd1na2vs0mg"},{"bike_id":"64e4942c-04ec-475a-8745-de522dcf5faa","system_id":"levelo_inurba_marseille","lat":43.22969,"lon":5.35416,"is_reserved":false,"is_disabled":false,"rental_uris":{"android":"levelo://app?vid=64e4942c-04ec-475a-8745-de522dcf5faa","ios":"levelo://app?vid=64e4942c-04ec-475a-8745-de522dcf5faa"},"vehicle_type_id":"4","last_reported":1773859485,"current_range_meters":3600,"station_id":"cpo3532slgdg3j2ikp40","pricing_plan_id":"cebpf4jnsgd1na2vs0mg"},{"bike_id":"96dac97a-0c76-4079-a74f-d3b50e0ff04c","system_id":"levelo_inurba_marseille","lat":43.21185,"lon":5.35065,"is_reserved":false,"is_disabled":false,"rental_uris":{"android":"levelo://app?vid=96dac97a-0c76-4079-a74f-d3b50e0ff04c","ios":"levelo://app?vid=96dac97a-0c76-4079-a74f-d3b50e0ff04c"},"vehicle_type_id":"4","last_reported":1773859485,"current_range_meters":3600,"station_id":"st_cvj6sg6p6f1abm77japg","pricing_plan_id":"cebpf4jnsgd1na2vs0mg"},{"bike_id":"a0ac2246-9e7f-437c-a4db-c626663f282c","system_id":"levelo_inurba_marseille","lat":43.31204,"lon":5.3678,"is_reserved":false,"is_disabled":false,"rental_uris":{"android":"levelo://app?vid=a0ac2246-9e7f-437c-a4db-c626663f282c","ios":"levelo://app?vid=a0ac2246-9e7f-437c-a4db-c626663f282c"},"vehicle_type_id":"4","last_reported":1773859485,"current_range_meters":3600,"station_id":"","pricing_plan_id":"cebpf4jnsgd1na2vs0mg"},{"bike_id":"3283b0e0-723b-4314-95cc-381df1215e03","system_id":"levelo_inurba_marseille","lat":43.308004,"lon":5.376592,"is_reserved":false,"is_disabled":false,"rental_uris":{"android":"levelo://app?vid=3283b0e0-723b-4314-95cc-381df1215e03","ios":"levelo://app?vid=3283b0e0-723b-4314-95cc-381df1215e03"},"vehicle_type_id":"4","last_reported":1773859485,"current_range_meters":3600,"station_id":"ce4bgv92rcd13ifvqcq0","pricing_plan_id":"cebpf4jnsgd1na2vs0mg"},{"bike_id":"aa0825b4-f837-4675-986b-7f33a4eab016","system_id":"levelo_inurba_marseille","lat":43.233835,"lon":5.412379,"is_reserved":false,"is_disabled":false,"rental_uris":{"android":"levelo://app?vid=aa0825b4-f837-4675-986b-7f33a4eab016","ios":"levelo://app?vid=aa0825b4-f837-4675-986b-7f33a4eab016"},"vehicle_type_id":"4","last_reported":1773859485,"current_range_meters":3600,"station_id":"","pricing_plan_id":"cebpf4jnsgd1na2vs0mg"},{"bike_id":"ff4d60f5-767c-4ae3-b27e-dfea0c87e749","system_id":"levelo_inurba_marseille","lat":43.22919,"lon":5.35399,"is_reserved":false,"is_disabled":false,"rental_uris":{"android":"levelo://app?vid=ff4d60f5-767c-4ae3-b27e-dfea0c87e749","ios":"levelo://app?vid=ff4d60f5-767c-4ae3-b27e-dfea0c87e749"},"vehicle_type_id":"4","last_reported":1773859485,"current_range_meters":3600,"station_id":"cpo3532slgdg3j2ikp40","pricing_plan_id":"cebpf4jnsgd1na2vs0mg"},{"bike_id":"77f82e91-30b6-4c8c-a0ef-dfcf78d748db","system_id":"levelo_inurba_marseille","lat":43.2886,"lon":5.42541,"is_reserved":false,"is_disabled":false,"rental_uris":{"android":"levelo://app?vid=77f82e91-30b6-4c8c-a0ef-dfcf78d748db","ios":"levelo://app?vid=77f82e91-30b6-4c8c-a0ef-dfcf78d748db"},"vehicle_type_id":"4","last_reported":1773859485,"current_range_meters":4000,"station_id":"","pricing_plan_id":"cebpf4jnsgd1na2vs0mg"},{"bike_id":"2961ca56-bacb-4dd1-a1f0-2e4bf1c1cf56","system_id":"levelo_inurba_marseille","lat":43.28464,"lon":5.38431,"is_reserved":false,"is_disabled":false,"rental_uris":{"android":"levelo://app?vid=2961ca56-bacb-4dd1-a1f0-2e4bf1c1cf56","ios":"levelo://app?vid=2961ca56-bacb-4dd1-a1f0-2e4bf1c1cf56"},"vehicle_type_id":"4","last_reported":1773859485,"current_range_meters":4000,"station_id":"ce4bh512rcd13ifvqe3g","pricing_plan_id":"cebpf4jnsgd1na2vs0mg"},{"bike_id":"df2b326a-f3d0-4c02-bbb7-620732c17092","system_id":"levelo_inurba_marseille","lat":43.29447,"lon":5.39762,"is_reserved":false,"is_disabled":false,"rental_uris":{"android":"levelo://app?vid=df2b326a-f3d0-4c02-bbb7-620732c17092","ios":"levelo://app?vid=df2b326a-f3d0-4c02-bbb7-620732c17092"},"vehicle_type_id":"4","last_reported":1773859485,"current_range_meters":4000,"station_id":"ce4bh3h2rcd13ifvqdo0","pricing_plan_id":"cebpf4jnsgd1na2vs0mg"},{"bike_id":"7e372e61-a4a4-4320-b78e-0115edf72ed5","system_id":"levelo_inurba_marseille","lat":43.24163,"lon":5.3642,"is_reserved":false,"is_disabled":true,"rental_uris":{"android":"levelo://app?vid=7e372e61-a4a4-4320-b78e-0115edf72ed5","ios":"levelo://app?vid=7e372e61-a4a4-4320-b78e-0115edf72ed5"},"vehicle_type_id":"4","last_reported":1773859485,"current_range_meters":4000,"station_id":"cpo36qri1sfpv3e86is0","pricing_plan_id":"cebpf4jnsgd1na2vs0mg"},{"bike_id":"01eaa32e-1702-4288-9ef4-adb775f51620","system_id":"levelo_inurba_marseille","lat":43.31257,"lon":5.41374,"is_reserved":false,"is_disabled":false,"rental_uris":{"android":"levelo://app?vid=01eaa32e-1702-4288-9ef4-adb775f51620","ios":"levelo://app?vid=01eaa32e-1702-4288-9ef4-adb775f51620"},"vehicle_type_id":"4","last_reported":1773859485,"current_range_meters":4000,"station_id":"","pricing_plan_id":"cebpf4jnsgd1na2vs0mg"},{"bike_id":"7fc82852-58fc-4b7a-bbbd-8a38707d5a18","system_id":"levelo_inurba_marseille","lat":43.29252,"lon":5.38439,"is_reserved":false,"is_disabled":false,"rental_uris":{"android":"levelo://app?vid=7fc82852-58fc-4b7a-bbbd-8a38707d5a18","ios":"levelo://app?vid=7fc82852-58fc-4b7a-bbbd-8a38707d5a18"},"vehicle_type_id":"4","last_reported":1773859485,"current_range_meters":4000,"station_id":"ce4bh692rcd13ifvqea0","pricing_plan_id":"cebpf4jnsgd1na2vs0mg"},{"bike_id":"d7e8d77f-bad8-482f-b62c-ab7a3f141468","system_id":"levelo_inurba_marseille","lat":43.2856,"lon":5.39518,"is_reserved":false,"is_disabled":false,"rental_uris":{"android":"levelo://app?vid=d7e8d77f-bad8-482f-b62c-ab7a3f141468","ios":"levelo://app?vid=d7e8d77f-bad8-482f-b62c-ab7a3f141468"},"vehicle_type_id":"4","last_reported":1773859485,"current_range_meters":4000,"station_id":"ce4bh292rcd13ifvqdg0","pricing_plan_id":"cebpf4jnsgd1na2vs0mg"},{"bike_id":"561f6b5e-f26c-49ab-bcb4-d3862e41ec30","system_id":"levelo_inurba_marseille","lat":43.29047,"lon":5.35903,"is_reserved":false,"is_disabled":false,"rental_uris":{"android":"levelo://app?vid=561f6b5e-f26c-49ab-bcb4-d3862e41ec30","ios":"levelo://app?vid=561f6b5e-f26c-49ab-bcb4-d3862e41ec30"},"vehicle_type_id":"4","last_reported":1773859485,"current_range_meters":4000,"station_id":"ce4bha92rcd13ifvqeg0","pricing_plan_id":"cebpf4jnsgd1na2vs0mg"},{"bike_id":"fde3eb8c-80ac-4c89-a0f3-ed3c3b176529","system_id":"levelo_inurba_marseille","lat":43.29948,"lon":5.38441,"is_reserved":false,"is_disabled":false,"rental_uris":{"android":"levelo://app?vid=fde3eb8c-80ac-4c89-a0f3-ed3c3b176529","ios":"levelo://app?vid=fde3eb8c-80ac-4c89-a0f3-ed3c3b176529"},"vehicle_type_id":"4","last_reported":1773859485,"current_range_meters":4000,"station_id":"ce4bgj92rcd13ifvqbd0","pricing_plan_id":"cebpf4jnsgd1na2vs0mg"},{"bike_id":"f098d9b7-2e86-49b7-b795-e3b7e2e73676","system_id":"levelo_inurba_marseille","lat":43.3012,"lon":5.37183,"is_reserved":false,"is_disabled":false,"rental_uris":{"android":"levelo://app?vid=f098d9b7-2e86-49b7-b795-e3b7e2e73676","ios":"levelo://app?vid=f098d9b7-2e86-49b7-b795-e3b7e2e73676"},"vehicle_type_id":"4","last_reported":1773859485,"current_range_meters":4000,"station_id":"","pricing_plan_id":"cebpf4jnsgd1na2vs0mg"},{"bike_id":"2874775b-146e-45de-9a13-98bbe699d55d","system_id":"levelo_inurba_marseille","lat":43.24615,"lon":5.4311,"is_reserved":false,"is_disabled":true,"rental_uris":{"android":"levelo://app?vid=2874775b-146e-45de-9a13-98bbe699d55d","ios":"levelo://app?vid=2874775b-146e-45de-9a13-98bbe699d55d"},"vehicle_type_id":"4","last_reported":1773859485,"current_range_meters":4000,"station_id":"","pricing_plan_id":"cebpf4jnsgd1na2vs0mg"},{"bike_id":"0940c0ab-3cca-4660-9974-509b4f5e9818","system_id":"levelo_inurba_marseille","lat":43.2897,"lon":5.3955,"is_reserved":false,"is_disabled":false,"rental_uris":{"android":"levelo://app?vid=0940c0ab-3cca-4660-9974-509b4f5e9818","ios":"levelo://app?vid=0940c0ab-3cca-4660-9974-509b4f5e9818"},"vehicle_type_id":"4","last_reported":1773859485,"current_range_meters":4000,"station_id":"","pricing_plan_id":"cebpf4jnsgd1na2vs0mg"},{"bike_id":"ba3a93e9-0ab6-4e6f-87e7-88a20529a0ea","system_id":"levelo_inurba_marseille","lat":43.31327,"lon":5.39708,"is_reserved":false,"is_disabled":false,"rental_uris":{"android":"levelo://app?vid=ba3a93e9-0ab6-4e6f-87e7-88a20529a0ea","ios":"levelo://app?vid=ba3a93e9-0ab6-4e6f-87e7-88a20529a0ea"},"vehicle_type_id":"4","last_reported":1773859485,"current_range_meters":4000,"station_id":"ce4bgvp2rcd13ifvqcu0","pricing_plan_id":"cebpf4jnsgd1na2vs0mg"},{"bike_id":"c2c7c530-5d90-493e-bc68-4654d00e1dc7","system_id":"levelo_inurba_marseille","lat":43.25226,"lon":5.40645,"is_reserved":false,"is_disabled":false,"rental_uris":{"android":"levelo://app?vid=c2c7c530-5d90-493e-bc68-4654d00e1dc7","ios":"levelo://app?vid=c2c7c530-5d90-493e-bc68-4654d00e1dc7"},"vehicle_type_id":"4","last_reported":1773859485,"current_range_meters":4000,"station_id":"","pricing_plan_id":"cebpf4jnsgd1na2vs0mg"},{"bike_id":"a918d57a-c48c-4085-ac42-61882623bc55","system_id":"levelo_inurba_marseille","lat":43.24462,"lon":5.4255,"is_reserved":false,"is_disabled":false,"rental_uris":{"android":"levelo://app?vid=a918d57a-c48c-4085-ac42-61882623bc55","ios":"levelo://app?vid=a918d57a-c48c-4085-ac42-61882623bc55"},"vehicle_type_id":"4","last_reported":1773859485,"current_range_meters":4400,"station_id":"st_d4a3vfp97mjs738cd8kg","pricing_plan_id":"cebpf4jnsgd1na2vs0mg"},{"bike_id":"4bddfc53-649e-4311-8fec-2da53103ff16","system_id":"levelo_inurba_marseille","lat":43.2971,"lon":5.36676,"is_reserved":false,"is_disabled":false,"rental_uris":{"android":"levelo://app?vid=4bddfc53-649e-4311-8fec-2da53103ff16","ios":"levelo://app?vid=4bddfc53-649e-4311-8fec-2da53103ff16"},"vehicle_type_id":"4","last_reported":1773859485,"current_range_meters":4400,"station_id":"ce4bgn12rcd13ifvqbt0","pricing_plan_id":"cebpf4jnsgd1na2vs0mg"},{"bike_id":"28732c45-0f89-48ef-878d-c91b36703d33","system_id":"levelo_inurba_marseille","lat":43.29801,"lon":5.38099,"is_reserved":false,"is_disabled":false,"rental_uris":{"android":"levelo://app?vid=28732c45-0f89-48ef-878d-c91b36703d33","ios":"levelo://app?vid=28732c45-0f89-48ef-878d-c91b36703d33"},"vehicle_type_id":"4","last_reported":1773859485,"current_range_meters":4400,"station_id":"ce4bgip2rcd13ifvqbb0","pricing_plan_id":"cebpf4jnsgd1na2vs0mg"},{"bike_id":"50de3b6b-38f5-44ec-a80e-69668f01c515","system_id":"levelo_inurba_marseille","lat":43.29752,"lon":5.4275,"is_reserved":false,"is_disabled":false,"rental_uris":{"android":"levelo://app?vid=50de3b6b-38f5-44ec-a80e-69668f01c515","ios":"levelo://app?vid=50de3b6b-38f5-44ec-a80e-69668f01c515"},"vehicle_type_id":"4","last_reported":1773859485,"current_range_meters":4400,"station_id":"st_d3md5207bmas73dh9klg","pricing_plan_id":"cebpf4jnsgd1na2vs0mg"},{"bike_id":"43657e78-fb56-41ef-bc11-2108667c04b0","system_id":"levelo_inurba_marseille","lat":43.24068,"lon":5.37746,"is_reserved":false,"is_disabled":false,"rental_uris":{"android":"levelo://app?vid=43657e78-fb56-41ef-bc11-2108667c04b0","ios":"levelo://app?vid=43657e78-fb56-41ef-bc11-2108667c04b0"},"vehicle_type_id":"4","last_reported":1773859485,"current_range_meters":4400,"station_id":"ce4bhnp2rcd13ifvqgvg","pricing_plan_id":"cebpf4jnsgd1na2vs0mg"},{"bike_id":"e19bbcec-af9d-483d-ac29-18df3b9c0ab9","system_id":"levelo_inurba_marseille","lat":43.28477,"lon":5.48388,"is_reserved":false,"is_disabled":false,"rental_uris":{"android":"levelo://app?vid=e19bbcec-af9d-483d-ac29-18df3b9c0ab9","ios":"levelo://app?vid=e19bbcec-af9d-483d-ac29-18df3b9c0ab9"},"vehicle_type_id":"4","last_reported":1773859485,"current_range_meters":4400,"station_id":"st_d3svhcjqgbts73a3dn0g","pricing_plan_id":"cebpf4jnsgd1na2vs0mg"},{"bike_id":"6747025e-a100-4603-a127-179df1804211","system_id":"levelo_inurba_marseille","lat":43.30943,"lon":5.3903,"is_reserved":false,"is_disabled":false,"rental_uris":{"android":"levelo://app?vid=6747025e-a100-4603-a127-179df1804211","ios":"levelo://app?vid=6747025e-a100-4603-a127-179df1804211"},"vehicle_type_id":"4","last_reported":1773859485,"current_range_meters":4400,"station_id":"ce4bgup2rcd13ifvqco0","pricing_plan_id":"cebpf4jnsgd1na2vs0mg"},{"bike_id":"a38fcbd5-57df-406e-9d6f-8c53750faaee","system_id":"levelo_inurba_marseille","lat":43.28617,"lon":5.35103,"is_reserved":false,"is_disabled":false,"rental_uris":{"android":"levelo://app?vid=a38fcbd5-57df-406e-9d6f-8c53750faaee","ios":"levelo://app?vid=a38fcbd5-57df-406e-9d6f-8c53750faaee"},"vehicle_type_id":"4","last_reported":1773859485,"current_range_meters":4400,"station_id":"ce4bhch2rcd13ifvqeug","pricing_plan_id":"cebpf4jnsgd1na2vs0mg"},{"bike_id":"f7cad0dd-4929-454b-8848-7575c69435e1","system_id":"levelo_inurba_marseille","lat":43.25849,"lon":5.39916,"is_reserved":false,"is_disabled":true,"rental_uris":{"android":"levelo://app?vid=f7cad0dd-4929-454b-8848-7575c69435e1","ios":"levelo://app?vid=f7cad0dd-4929-454b-8848-7575c69435e1"},"vehicle_type_id":"4","last_reported":1773859485,"current_range_meters":4400,"station_id":"ce4bhl92rcd13ifvqghg","pricing_plan_id":"cebpf4jnsgd1na2vs0mg"},{"bike_id":"daa4d2c5-b151-4bf6-bf3d-4d2c43839aea","system_id":"levelo_inurba_marseille","lat":43.27571,"lon":5.38376,"is_reserved":false,"is_disabled":false,"rental_uris":{"android":"levelo://app?vid=daa4d2c5-b151-4bf6-bf3d-4d2c43839aea","ios":"levelo://app?vid=daa4d2c5-b151-4bf6-bf3d-4d2c43839aea"},"vehicle_type_id":"4","last_reported":1773859485,"current_range_meters":4400,"station_id":"","pricing_plan_id":"cebpf4jnsgd1na2vs0mg"},{"bike_id":"b85cfc9c-0f71-45a6-8f8c-a9bf2503b88f","system_id":"levelo_inurba_marseille","lat":43.25081,"lon":5.39522,"is_reserved":false,"is_disabled":false,"rental_uris":{"android":"levelo://app?vid=b85cfc9c-0f71-45a6-8f8c-a9bf2503b88f","ios":"levelo://app?vid=b85cfc9c-0f71-45a6-8f8c-a9bf2503b88f"},"vehicle_type_id":"4","last_reported":1773859485,"current_range_meters":4400,"station_id":"ce4bhm12rcd13ifvqgkg","pricing_plan_id":"cebpf4jnsgd1na2vs0mg"},{"bike_id":"efa56788-fd95-4d6e-84ce-b31b80bc3dea","system_id":"levelo_inurba_marseille","lat":43.29298,"lon":5.37454,"is_reserved":false,"is_disabled":true,"rental_uris":{"android":"levelo://app?vid=efa56788-fd95-4d6e-84ce-b31b80bc3dea","ios":"levelo://app?vid=efa56788-fd95-4d6e-84ce-b31b80bc3dea"},"vehicle_type_id":"4","last_reported":1773859485,"current_range_meters":4400,"station_id":"ce4bgi12rcd13ifvqb70","pricing_plan_id":"cebpf4jnsgd1na2vs0mg"},{"bike_id":"242ce807-59bf-4eae-a0d6-777a6de90f59","system_id":"levelo_inurba_marseille","lat":43.27976,"lon":5.41671,"is_reserved":false,"is_disabled":false,"rental_uris":{"android":"levelo://app?vid=242ce807-59bf-4eae-a0d6-777a6de90f59","ios":"levelo://app?vid=242ce807-59bf-4eae-a0d6-777a6de90f59"},"vehicle_type_id":"4","last_reported":1773859485,"current_range_meters":4400,"station_id":"ce4bho12rcd13ifvqh1g","pricing_plan_id":"cebpf4jnsgd1na2vs0mg"},{"bike_id":"b9f2e5d5-d6ac-4c0d-86f2-4fe1a54ef3b3","system_id":"levelo_inurba_marseille","lat":43.32105,"lon":5.36762,"is_reserved":false,"is_disabled":false,"rental_uris":{"android":"levelo://app?vid=b9f2e5d5-d6ac-4c0d-86f2-4fe1a54ef3b3","ios":"levelo://app?vid=b9f2e5d5-d6ac-4c0d-86f2-4fe1a54ef3b3"},"vehicle_type_id":"4","last_reported":1773859485,"current_range_meters":4400,"station_id":"ce4bhrh2rcd13ifvqhug","pricing_plan_id":"cebpf4jnsgd1na2vs0mg"},{"bike_id":"d44c1a9c-785a-4af2-9cdf-c1cf47bed6bd","system_id":"levelo_inurba_marseille","lat":43.28952,"lon":5.36697,"is_reserved":false,"is_disabled":false,"rental_uris":{"android":"levelo://app?vid=d44c1a9c-785a-4af2-9cdf-c1cf47bed6bd","ios":"levelo://app?vid=d44c1a9c-785a-4af2-9cdf-c1cf47bed6bd"},"vehicle_type_id":"4","last_reported":1773859485,"current_range_meters":4400,"station_id":"","pricing_plan_id":"cebpf4jnsgd1na2vs0mg"},{"bike_id":"20016ea7-7447-4d49-9827-83294ca55bec","system_id":"levelo_inurba_marseille","lat":43.29155,"lon":5.37151,"is_reserved":false,"is_disabled":false,"rental_uris":{"android":"levelo://app?vid=20016ea7-7447-4d49-9827-83294ca55bec","ios":"levelo://app?vid=20016ea7-7447-4d49-9827-83294ca55bec"},"vehicle_type_id":"4","last_reported":1773859485,"current_range_meters":4400,"station_id":"ce4bha92rcd13ifvqeh0","pricing_plan_id":"cebpf4jnsgd1na2vs0mg"},{"bike_id":"962cf687-1766-4156-9249-f2a9c2642346","system_id":"levelo_inurba_marseille","lat":43.28445,"lon":5.35899,"is_reserved":false,"is_disabled":false,"rental_uris":{"android":"levelo://app?vid=962cf687-1766-4156-9249-f2a9c2642346","ios":"levelo://app?vid=962cf687-1766-4156-9249-f2a9c2642346"},"vehicle_type_id":"4","last_reported":1773859485,"current_range_meters":4800,"station_id":"ce4bhah2rcd13ifvqei0","pricing_plan_id":"cebpf4jnsgd1na2vs0mg"},{"bike_id":"cb2c175e-fc1a-43c7-8316-e12b1c668a27","system_id":"levelo_inurba_marseille","lat":43.3055,"lon":5.36739,"is_reserved":false,"is_disabled":true,"rental_uris":{"android":"levelo://app?vid=cb2c175e-fc1a-43c7-8316-e12b1c668a27","ios":"levelo://app?vid=cb2c175e-fc1a-43c7-8316-e12b1c668a27"},"vehicle_type_id":"4","last_reported":1773859485,"current_range_meters":4800,"station_id":"ce4bgrp2rcd13ifvqc9g","pricing_plan_id":"cebpf4jnsgd1na2vs0mg"},{"bike_id":"d9f68a66-aa52-464b-923f-9c77324e6b43","system_id":"levelo_inurba_marseille","lat":43.27587,"lon":5.38472,"is_reserved":false,"is_disabled":false,"rental_uris":{"android":"levelo://app?vid=d9f68a66-aa52-464b-923f-9c77324e6b43","ios":"levelo://app?vid=d9f68a66-aa52-464b-923f-9c77324e6b43"},"vehicle_type_id":"4","last_reported":1773859485,"current_range_meters":4800,"station_id":"ce4bhh92rcd13ifvqfi0","pricing_plan_id":"cebpf4jnsgd1na2vs0mg"},{"bike_id":"b703c509-0a53-4f14-907b-c60fb0017c10","system_id":"levelo_inurba_marseille","lat":43.31114,"lon":5.37202,"is_reserved":false,"is_disabled":false,"rental_uris":{"android":"levelo://app?vid=b703c509-0a53-4f14-907b-c60fb0017c10","ios":"levelo://app?vid=b703c509-0a53-4f14-907b-c60fb0017c10"},"vehicle_type_id":"4","last_reported":1773859485,"current_range_meters":4800,"station_id":"","pricing_plan_id":"cebpf4jnsgd1na2vs0mg"},{"bike_id":"a39f62ca-ec4f-483f-99b5-eddadeb4630f","system_id":"levelo_inurba_marseille","lat":43.27067,"lon":5.42278,"is_reserved":false,"is_disabled":false,"rental_uris":{"android":"levelo://app?vid=a39f62ca-ec4f-483f-99b5-eddadeb4630f","ios":"levelo://app?vid=a39f62ca-ec4f-483f-99b5-eddadeb4630f"},"vehicle_type_id":"4","last_reported":1773859485,"current_range_meters":4800,"station_id":"ce4bhk92rcd13ifvqgb0","pricing_plan_id":"cebpf4jnsgd1na2vs0mg"},{"bike_id":"e1282d04-f7b7-4606-b775-ed192685a5f4","system_id":"levelo_inurba_marseille","lat":43.2418,"lon":5.39716,"is_reserved":false,"is_disabled":true,"rental_uris":{"android":"levelo://app?vid=e1282d04-f7b7-4606-b775-ed192685a5f4","ios":"levelo://app?vid=e1282d04-f7b7-4606-b775-ed192685a5f4"},"vehicle_type_id":"4","last_reported":1773859485,"current_range_meters":4800,"station_id":"ce4bhn12rcd13ifvqgpg","pricing_plan_id":"cebpf4jnsgd1na2vs0mg"},{"bike_id":"7c27bbc1-43c8-4af1-8a34-48b79713d044","system_id":"levelo_inurba_marseille","lat":43.21232,"lon":5.35073,"is_reserved":false,"is_disabled":false,"rental_uris":{"android":"levelo://app?vid=7c27bbc1-43c8-4af1-8a34-48b79713d044","ios":"levelo://app?vid=7c27bbc1-43c8-4af1-8a34-48b79713d044"},"vehicle_type_id":"4","last_reported":1773859485,"current_range_meters":4800,"station_id":"","pricing_plan_id":"cebpf4jnsgd1na2vs0mg"},{"bike_id":"411c49cf-ed19-4546-b337-b30c00021e24","system_id":"levelo_inurba_marseille","lat":43.29173,"lon":5.35794,"is_reserved":false,"is_disabled":false,"rental_uris":{"android":"levelo://app?vid=411c49cf-ed19-4546-b337-b30c00021e24","ios":"levelo://app?vid=411c49cf-ed19-4546-b337-b30c00021e24"},"vehicle_type_id":"4","last_reported":1773859485,"current_range_meters":4800,"station_id":"ce4bhb12rcd13ifvqel0","pricing_plan_id":"cebpf4jnsgd1na2vs0mg"},{"bike_id":"cb3029c7-0149-4f9c-8dc1-4f0e046356bf","system_id":"levelo_inurba_marseille","lat":43.29888,"lon":5.39742,"is_reserved":false,"is_disabled":false,"rental_uris":{"android":"levelo://app?vid=cb3029c7-0149-4f9c-8dc1-4f0e046356bf","ios":"levelo://app?vid=cb3029c7-0149-4f9c-8dc1-4f0e046356bf"},"vehicle_type_id":"4","last_reported":1773859485,"current_range_meters":4800,"station_id":"ce4bh0h2rcd13ifvqd50","pricing_plan_id":"cebpf4jnsgd1na2vs0mg"},{"bike_id":"11c3714f-64e0-4fe0-b0c1-616251831226","system_id":"levelo_inurba_marseille","lat":43.26494,"lon":5.39545,"is_reserved":false,"is_disabled":false,"rental_uris":{"android":"levelo://app?vid=11c3714f-64e0-4fe0-b0c1-616251831226","ios":"levelo://app?vid=11c3714f-64e0-4fe0-b0c1-616251831226"},"vehicle_type_id":"4","last_reported":1773859485,"current_range_meters":4800,"station_id":"ce4bhi12rcd13ifvqfq0","pricing_plan_id":"cebpf4jnsgd1na2vs0mg"},{"bike_id":"b691bb6e-346a-4470-9414-c42ea142f4b3","system_id":"levelo_inurba_marseille","lat":43.30776,"lon":5.37638,"is_reserved":false,"is_disabled":false,"rental_uris":{"android":"levelo://app?vid=b691bb6e-346a-4470-9414-c42ea142f4b3","ios":"levelo://app?vid=b691bb6e-346a-4470-9414-c42ea142f4b3"},"vehicle_type_id":"4","last_reported":1773859485,"current_range_meters":4800,"station_id":"ce4bgv92rcd13ifvqcq0","pricing_plan_id":"cebpf4jnsgd1na2vs0mg"},{"bike_id":"13fddc9a-97e8-4156-ab0b-2a1269ff8188","system_id":"levelo_inurba_marseille","lat":43.30791,"lon":5.3815,"is_reserved":false,"is_disabled":false,"rental_uris":{"android":"levelo://app?vid=13fddc9a-97e8-4156-ab0b-2a1269ff8188","ios":"levelo://app?vid=13fddc9a-97e8-4156-ab0b-2a1269ff8188"},"vehicle_type_id":"4","last_reported":1773859485,"current_range_meters":4800,"station_id":"ce4bgt12rcd13ifvqce0","pricing_plan_id":"cebpf4jnsgd1na2vs0mg"},{"bike_id":"40b4c9a9-7a66-4906-8741-41c41b4ee56b","system_id":"levelo_inurba_marseille","lat":43.2708,"lon":5.42259,"is_reserved":false,"is_disabled":true,"rental_uris":{"android":"levelo://app?vid=40b4c9a9-7a66-4906-8741-41c41b4ee56b","ios":"levelo://app?vid=40b4c9a9-7a66-4906-8741-41c41b4ee56b"},"vehicle_type_id":"4","last_reported":1773859485,"current_range_meters":4800,"station_id":"ce4bhk92rcd13ifvqgb0","pricing_plan_id":"cebpf4jnsgd1na2vs0mg"},{"bike_id":"9e8e146c-82e2-49f5-9041-4c55b0efd471","system_id":"levelo_inurba_marseille","lat":43.29185,"lon":5.35801,"is_reserved":false,"is_disabled":false,"rental_uris":{"android":"levelo://app?vid=9e8e146c-82e2-49f5-9041-4c55b0efd471","ios":"levelo://app?vid=9e8e146c-82e2-49f5-9041-4c55b0efd471"},"vehicle_type_id":"4","last_reported":1773859485,"current_range_meters":4800,"station_id":"ce4bhb12rcd13ifvqel0","pricing_plan_id":"cebpf4jnsgd1na2vs0mg"},{"bike_id":"4ddefce6-aceb-49c5-be13-59b39b66cd17","system_id":"levelo_inurba_marseille","lat":43.27816,"lon":5.40723,"is_reserved":false,"is_disabled":false,"rental_uris":{"android":"levelo://app?vid=4ddefce6-aceb-49c5-be13-59b39b66cd17","ios":"levelo://app?vid=4ddefce6-aceb-49c5-be13-59b39b66cd17"},"vehicle_type_id":"4","last_reported":1773859485,"current_range_meters":4800,"station_id":"ce4bhnh2rcd13ifvqgtg","pricing_plan_id":"cebpf4jnsgd1na2vs0mg"},{"bike_id":"56dcc4fe-ac28-400c-a63f-b562d8415172","system_id":"levelo_inurba_marseille","lat":43.3117,"lon":5.3871,"is_reserved":false,"is_disabled":false,"rental_uris":{"android":"levelo://app?vid=56dcc4fe-ac28-400c-a63f-b562d8415172","ios":"levelo://app?vid=56dcc4fe-ac28-400c-a63f-b562d8415172"},"vehicle_type_id":"4","last_reported":1773859485,"current_range_meters":5600,"station_id":"ce4bgv12rcd13ifvqcp0","pricing_plan_id":"cebpf4jnsgd1na2vs0mg"},{"bike_id":"a75a2f36-b7bc-4d07-b3c7-e399c27327e9","system_id":"levelo_inurba_marseille","lat":43.29783,"lon":5.39351,"is_reserved":false,"is_disabled":false,"rental_uris":{"android":"levelo://app?vid=a75a2f36-b7bc-4d07-b3c7-e399c27327e9","ios":"levelo://app?vid=a75a2f36-b7bc-4d07-b3c7-e399c27327e9"},"vehicle_type_id":"4","last_reported":1773859485,"current_range_meters":5600,"station_id":"chh1huq6cuj3fo74tm60","pricing_plan_id":"cebpf4jnsgd1na2vs0mg"},{"bike_id":"814875ac-8d68-4ad9-9e29-030bb7d08de5","system_id":"levelo_inurba_marseille","lat":43.2884,"lon":5.39322,"is_reserved":false,"is_disabled":false,"rental_uris":{"android":"levelo://app?vid=814875ac-8d68-4ad9-9e29-030bb7d08de5","ios":"levelo://app?vid=814875ac-8d68-4ad9-9e29-030bb7d08de5"},"vehicle_type_id":"4","last_reported":1773859485,"current_range_meters":5600,"station_id":"ce4bh2p2rcd13ifvqdi0","pricing_plan_id":"cebpf4jnsgd1na2vs0mg"},{"bike_id":"11e2087a-6683-42ef-b3f6-16975928a219","system_id":"levelo_inurba_marseille","lat":43.29034,"lon":5.38636,"is_reserved":false,"is_disabled":false,"rental_uris":{"android":"levelo://app?vid=11e2087a-6683-42ef-b3f6-16975928a219","ios":"levelo://app?vid=11e2087a-6683-42ef-b3f6-16975928a219"},"vehicle_type_id":"4","last_reported":1773859485,"current_range_meters":5600,"station_id":"ce4bh4p2rcd13ifvqe0g","pricing_plan_id":"cebpf4jnsgd1na2vs0mg"},{"bike_id":"e563383a-8a89-4304-b11f-18268886193e","system_id":"levelo_inurba_marseille","lat":43.25558,"lon":5.38247,"is_reserved":false,"is_disabled":false,"rental_uris":{"android":"levelo://app?vid=e563383a-8a89-4304-b11f-18268886193e","ios":"levelo://app?vid=e563383a-8a89-4304-b11f-18268886193e"},"vehicle_type_id":"4","last_reported":1773859485,"current_range_meters":5600,"station_id":"ce4bhih2rcd13ifvqfs0","pricing_plan_id":"cebpf4jnsgd1na2vs0mg"},{"bike_id":"5490be4e-5b90-4e09-b806-8df0479a4da4","system_id":"levelo_inurba_marseille","lat":43.29524,"lon":5.3855,"is_reserved":false,"is_disabled":false,"rental_uris":{"android":"levelo://app?vid=5490be4e-5b90-4e09-b806-8df0479a4da4","ios":"levelo://app?vid=5490be4e-5b90-4e09-b806-8df0479a4da4"},"vehicle_type_id":"4","last_reported":1773859485,"current_range_meters":5600,"station_id":"ce4bgih2rcd13ifvqba0","pricing_plan_id":"cebpf4jnsgd1na2vs0mg"},{"bike_id":"b6f89c1d-9d87-487c-842f-47d7637847b1","system_id":"levelo_inurba_marseille","lat":43.27564,"lon":5.38421,"is_reserved":false,"is_disabled":false,"rental_uris":{"android":"levelo://app?vid=b6f89c1d-9d87-487c-842f-47d7637847b1","ios":"levelo://app?vid=b6f89c1d-9d87-487c-842f-47d7637847b1"},"vehicle_type_id":"4","last_reported":1773859485,"current_range_meters":5600,"station_id":"ce4bhh92rcd13ifvqfi0","pricing_plan_id":"cebpf4jnsgd1na2vs0mg"},{"bike_id":"70f98469-d2c0-43f4-9102-c6ad6fb97bca","system_id":"levelo_inurba_marseille","lat":43.21792,"lon":5.34651,"is_reserved":false,"is_disabled":false,"rental_uris":{"android":"levelo://app?vid=70f98469-d2c0-43f4-9102-c6ad6fb97bca","ios":"levelo://app?vid=70f98469-d2c0-43f4-9102-c6ad6fb97bca"},"vehicle_type_id":"4","last_reported":1773859485,"current_range_meters":5600,"station_id":"","pricing_plan_id":"cebpf4jnsgd1na2vs0mg"},{"bike_id":"c8aa0a73-9f26-4c78-89b2-33bd77029c1d","system_id":"levelo_inurba_marseille","lat":43.29976,"lon":5.38504,"is_reserved":false,"is_disabled":false,"rental_uris":{"android":"levelo://app?vid=c8aa0a73-9f26-4c78-89b2-33bd77029c1d","ios":"levelo://app?vid=c8aa0a73-9f26-4c78-89b2-33bd77029c1d"},"vehicle_type_id":"4","last_reported":1773859485,"current_range_meters":5600,"station_id":"ce4bgj92rcd13ifvqbd0","pricing_plan_id":"cebpf4jnsgd1na2vs0mg"},{"bike_id":"3feb4c73-6e63-47f9-927f-446525b49f72","system_id":"levelo_inurba_marseille","lat":43.31858,"lon":5.36748,"is_reserved":false,"is_disabled":false,"rental_uris":{"android":"levelo://app?vid=3feb4c73-6e63-47f9-927f-446525b49f72","ios":"levelo://app?vid=3feb4c73-6e63-47f9-927f-446525b49f72"},"vehicle_type_id":"4","last_reported":1773859485,"current_range_meters":5600,"station_id":"","pricing_plan_id":"cebpf4jnsgd1na2vs0mg"},{"bike_id":"f7315d1e-73c8-4876-9e17-aedad5ed61d7","system_id":"levelo_inurba_marseille","lat":43.31119,"lon":5.38633,"is_reserved":false,"is_disabled":false,"rental_uris":{"android":"levelo://app?vid=f7315d1e-73c8-4876-9e17-aedad5ed61d7","ios":"levelo://app?vid=f7315d1e-73c8-4876-9e17-aedad5ed61d7"},"vehicle_type_id":"4","last_reported":1773859485,"current_range_meters":5600,"station_id":"","pricing_plan_id":"cebpf4jnsgd1na2vs0mg"},{"bike_id":"f8a00c49-c93d-41ce-9f11-d81257ca6394","system_id":"levelo_inurba_marseille","lat":43.22887,"lon":5.35371,"is_reserved":false,"is_disabled":false,"rental_uris":{"android":"levelo://app?vid=f8a00c49-c93d-41ce-9f11-d81257ca6394","ios":"levelo://app?vid=f8a00c49-c93d-41ce-9f11-d81257ca6394"},"vehicle_type_id":"4","last_reported":1773859485,"current_range_meters":5600,"station_id":"cpo3532slgdg3j2ikp40","pricing_plan_id":"cebpf4jnsgd1na2vs0mg"},{"bike_id":"ccdd7c37-271f-49d9-9112-2e30c9e49f66","system_id":"levelo_inurba_marseille","lat":43.28474,"lon":5.38427,"is_reserved":false,"is_disabled":false,"rental_uris":{"android":"levelo://app?vid=ccdd7c37-271f-49d9-9112-2e30c9e49f66","ios":"levelo://app?vid=ccdd7c37-271f-49d9-9112-2e30c9e49f66"},"vehicle_type_id":"4","last_reported":1773859485,"current_range_meters":5600,"station_id":"ce4bh512rcd13ifvqe3g","pricing_plan_id":"cebpf4jnsgd1na2vs0mg"},{"bike_id":"5f4b4e32-f039-4926-9c6d-9276224d3789","system_id":"levelo_inurba_marseille","lat":43.28436,"lon":5.38564,"is_reserved":false,"is_disabled":false,"rental_uris":{"android":"levelo://app?vid=5f4b4e32-f039-4926-9c6d-9276224d3789","ios":"levelo://app?vid=5f4b4e32-f039-4926-9c6d-9276224d3789"},"vehicle_type_id":"4","last_reported":1773859485,"current_range_meters":5600,"station_id":"ce4bh8p2rcd13ifvqeb0","pricing_plan_id":"cebpf4jnsgd1na2vs0mg"},{"bike_id":"1454fca5-5912-4e1c-a679-4e7abaa6cbbd","system_id":"levelo_inurba_marseille","lat":43.29705,"lon":5.36614,"is_reserved":false,"is_disabled":false,"rental_uris":{"android":"levelo://app?vid=1454fca5-5912-4e1c-a679-4e7abaa6cbbd","ios":"levelo://app?vid=1454fca5-5912-4e1c-a679-4e7abaa6cbbd"},"vehicle_type_id":"4","last_reported":1773859485,"current_range_meters":6000,"station_id":"ce4bgn12rcd13ifvqbt0","pricing_plan_id":"cebpf4jnsgd1na2vs0mg"},{"bike_id":"88697e8b-01fd-4696-bab5-73747ef3d57e","system_id":"levelo_inurba_marseille","lat":43.21753,"lon":5.34616,"is_reserved":false,"is_disabled":false,"rental_uris":{"android":"levelo://app?vid=88697e8b-01fd-4696-bab5-73747ef3d57e","ios":"levelo://app?vid=88697e8b-01fd-4696-bab5-73747ef3d57e"},"vehicle_type_id":"4","last_reported":1773859485,"current_range_meters":6000,"station_id":"st_cvj6r9ubvosntc0bgbag","pricing_plan_id":"cebpf4jnsgd1na2vs0mg"},{"bike_id":"f66bebea-9750-4571-abf1-5f40303ee21e","system_id":"levelo_inurba_marseille","lat":43.28944,"lon":5.36628,"is_reserved":false,"is_disabled":false,"rental_uris":{"android":"levelo://app?vid=f66bebea-9750-4571-abf1-5f40303ee21e","ios":"levelo://app?vid=f66bebea-9750-4571-abf1-5f40303ee21e"},"vehicle_type_id":"4","last_reported":1773859485,"current_range_meters":6000,"station_id":"ce4bhap2rcd13ifvqek0","pricing_plan_id":"cebpf4jnsgd1na2vs0mg"},{"bike_id":"e1e1b344-1c66-430b-a8af-7ed27d04a759","system_id":"levelo_inurba_marseille","lat":43.28722,"lon":5.36103,"is_reserved":false,"is_disabled":false,"rental_uris":{"android":"levelo://app?vid=e1e1b344-1c66-430b-a8af-7ed27d04a759","ios":"levelo://app?vid=e1e1b344-1c66-430b-a8af-7ed27d04a759"},"vehicle_type_id":"4","last_reported":1773859485,"current_range_meters":6000,"station_id":"cki0cbj6b192h4jlfktg","pricing_plan_id":"cebpf4jnsgd1na2vs0mg"},{"bike_id":"aadbc56f-b27d-4ef4-8d09-4da64cb0a500","system_id":"levelo_inurba_marseille","lat":43.29605,"lon":5.4056,"is_reserved":false,"is_disabled":false,"rental_uris":{"android":"levelo://app?vid=aadbc56f-b27d-4ef4-8d09-4da64cb0a500","ios":"levelo://app?vid=aadbc56f-b27d-4ef4-8d09-4da64cb0a500"},"vehicle_type_id":"4","last_reported":1773859485,"current_range_meters":6000,"station_id":"ce4bh0h2rcd13ifvqd60","pricing_plan_id":"cebpf4jnsgd1na2vs0mg"},{"bike_id":"4adea8ba-36ba-4440-8df3-9e087b2c31c9","system_id":"levelo_inurba_marseille","lat":43.28456,"lon":5.3589,"is_reserved":false,"is_disabled":false,"rental_uris":{"android":"levelo://app?vid=4adea8ba-36ba-4440-8df3-9e087b2c31c9","ios":"levelo://app?vid=4adea8ba-36ba-4440-8df3-9e087b2c31c9"},"vehicle_type_id":"4","last_reported":1773859485,"current_range_meters":6000,"station_id":"ce4bhah2rcd13ifvqei0","pricing_plan_id":"cebpf4jnsgd1na2vs0mg"},{"bike_id":"ba0cfbde-4cb0-4b1a-8367-ede7e63710b9","system_id":"levelo_inurba_marseille","lat":43.27584,"lon":5.38429,"is_reserved":false,"is_disabled":false,"rental_uris":{"android":"levelo://app?vid=ba0cfbde-4cb0-4b1a-8367-ede7e63710b9","ios":"levelo://app?vid=ba0cfbde-4cb0-4b1a-8367-ede7e63710b9"},"vehicle_type_id":"4","last_reported":1773859485,"current_range_meters":6000,"station_id":"ce4bhh92rcd13ifvqfi0","pricing_plan_id":"cebpf4jnsgd1na2vs0mg"},{"bike_id":"7c245f6b-63fb-4c36-8493-afb8fd5288f8","system_id":"levelo_inurba_marseille","lat":43.31183,"lon":5.39085,"is_reserved":false,"is_disabled":false,"rental_uris":{"android":"levelo://app?vid=7c245f6b-63fb-4c36-8493-afb8fd5288f8","ios":"levelo://app?vid=7c245f6b-63fb-4c36-8493-afb8fd5288f8"},"vehicle_type_id":"4","last_reported":1773859485,"current_range_meters":6000,"station_id":"","pricing_plan_id":"cebpf4jnsgd1na2vs0mg"},{"bike_id":"383333ab-900a-4d8e-9e5f-5f8443133843","system_id":"levelo_inurba_marseille","lat":43.23967,"lon":5.36637,"is_reserved":false,"is_disabled":true,"rental_uris":{"android":"levelo://app?vid=383333ab-900a-4d8e-9e5f-5f8443133843","ios":"levelo://app?vid=383333ab-900a-4d8e-9e5f-5f8443133843"},"vehicle_type_id":"4","last_reported":1773859485,"current_range_meters":6000,"station_id":"ce4bhi12rcd13ifvqfp0","pricing_plan_id":"cebpf4jnsgd1na2vs0mg"},{"bike_id":"e4b9a7c1-31ee-4349-b31a-df6143fb1a7d","system_id":"levelo_inurba_marseille","lat":43.27809,"lon":5.40716,"is_reserved":false,"is_disabled":false,"rental_uris":{"android":"levelo://app?vid=e4b9a7c1-31ee-4349-b31a-df6143fb1a7d","ios":"levelo://app?vid=e4b9a7c1-31ee-4349-b31a-df6143fb1a7d"},"vehicle_type_id":"4","last_reported":1773859485,"current_range_meters":6000,"station_id":"ce4bhnh2rcd13ifvqgtg","pricing_plan_id":"cebpf4jnsgd1na2vs0mg"},{"bike_id":"50e0584e-4dc0-49b6-950a-79953725031f","system_id":"levelo_inurba_marseille","lat":43.23056,"lon":5.35509,"is_reserved":false,"is_disabled":false,"rental_uris":{"android":"levelo://app?vid=50e0584e-4dc0-49b6-950a-79953725031f","ios":"levelo://app?vid=50e0584e-4dc0-49b6-950a-79953725031f"},"vehicle_type_id":"4","last_reported":1773859485,"current_range_meters":6000,"station_id":"cpo3342slgdg3j2ifvpg","pricing_plan_id":"cebpf4jnsgd1na2vs0mg"},{"bike_id":"5eb6d3ed-ce96-48bf-9389-a1be3fb9a064","system_id":"levelo_inurba_marseille","lat":43.290532,"lon":5.355892,"is_reserved":false,"is_disabled":false,"rental_uris":{"android":"levelo://app?vid=5eb6d3ed-ce96-48bf-9389-a1be3fb9a064","ios":"levelo://app?vid=5eb6d3ed-ce96-48bf-9389-a1be3fb9a064"},"vehicle_type_id":"4","last_reported":1773859485,"current_range_meters":6000,"station_id":"ce4bhb92rcd13ifvqen0","pricing_plan_id":"cebpf4jnsgd1na2vs0mg"},{"bike_id":"2706db3b-3f01-4b6b-a1e9-42e6bda22571","system_id":"levelo_inurba_marseille","lat":43.26206,"lon":5.37295,"is_reserved":false,"is_disabled":false,"rental_uris":{"android":"levelo://app?vid=2706db3b-3f01-4b6b-a1e9-42e6bda22571","ios":"levelo://app?vid=2706db3b-3f01-4b6b-a1e9-42e6bda22571"},"vehicle_type_id":"4","last_reported":1773859485,"current_range_meters":6000,"station_id":"","pricing_plan_id":"cebpf4jnsgd1na2vs0mg"},{"bike_id":"5032ee4c-643b-4fa7-8a5c-8d5e764831f6","system_id":"levelo_inurba_marseille","lat":43.2174,"lon":5.34606,"is_reserved":false,"is_disabled":false,"rental_uris":{"android":"levelo://app?vid=5032ee4c-643b-4fa7-8a5c-8d5e764831f6","ios":"levelo://app?vid=5032ee4c-643b-4fa7-8a5c-8d5e764831f6"},"vehicle_type_id":"4","last_reported":1773859485,"current_range_meters":6400,"station_id":"st_cvj6r9ubvosntc0bgbag","pricing_plan_id":"cebpf4jnsgd1na2vs0mg"},{"bike_id":"b4e54967-4eb4-45f5-a80e-01baddc6b232","system_id":"levelo_inurba_marseille","lat":43.29278,"lon":5.40186,"is_reserved":false,"is_disabled":true,"rental_uris":{"android":"levelo://app?vid=b4e54967-4eb4-45f5-a80e-01baddc6b232","ios":"levelo://app?vid=b4e54967-4eb4-45f5-a80e-01baddc6b232"},"vehicle_type_id":"4","last_reported":1773859485,"current_range_meters":6400,"station_id":"","pricing_plan_id":"cebpf4jnsgd1na2vs0mg"},{"bike_id":"13103aaf-f72a-4012-9b23-a2777585cefc","system_id":"levelo_inurba_marseille","lat":43.32032,"lon":5.41549,"is_reserved":false,"is_disabled":false,"rental_uris":{"android":"levelo://app?vid=13103aaf-f72a-4012-9b23-a2777585cefc","ios":"levelo://app?vid=13103aaf-f72a-4012-9b23-a2777585cefc"},"vehicle_type_id":"4","last_reported":1773859485,"current_range_meters":6400,"station_id":"ce4bhq92rcd13ifvqhkg","pricing_plan_id":"cebpf4jnsgd1na2vs0mg"},{"bike_id":"55fd417e-cda8-4f64-a552-03c63b749da1","system_id":"levelo_inurba_marseille","lat":43.29536,"lon":5.39054,"is_reserved":false,"is_disabled":false,"rental_uris":{"android":"levelo://app?vid=55fd417e-cda8-4f64-a552-03c63b749da1","ios":"levelo://app?vid=55fd417e-cda8-4f64-a552-03c63b749da1"},"vehicle_type_id":"4","last_reported":1773859485,"current_range_meters":6400,"station_id":"ce4bh3p2rcd13ifvqdp0","pricing_plan_id":"cebpf4jnsgd1na2vs0mg"},{"bike_id":"046aa573-0c0f-44d0-bef8-5725248250bd","system_id":"levelo_inurba_marseille","lat":43.28464,"lon":5.3589,"is_reserved":false,"is_disabled":false,"rental_uris":{"android":"levelo://app?vid=046aa573-0c0f-44d0-bef8-5725248250bd","ios":"levelo://app?vid=046aa573-0c0f-44d0-bef8-5725248250bd"},"vehicle_type_id":"4","last_reported":1773859485,"current_range_meters":6400,"station_id":"ce4bhah2rcd13ifvqei0","pricing_plan_id":"cebpf4jnsgd1na2vs0mg"},{"bike_id":"985ebcbf-4902-47af-a2e6-786de6cc12b3","system_id":"levelo_inurba_marseille","lat":43.27578,"lon":5.38436,"is_reserved":false,"is_disabled":false,"rental_uris":{"android":"levelo://app?vid=985ebcbf-4902-47af-a2e6-786de6cc12b3","ios":"levelo://app?vid=985ebcbf-4902-47af-a2e6-786de6cc12b3"},"vehicle_type_id":"4","last_reported":1773859485,"current_range_meters":6400,"station_id":"ce4bhh92rcd13ifvqfi0","pricing_plan_id":"cebpf4jnsgd1na2vs0mg"},{"bike_id":"7b3ebdcb-0b54-4b8b-842c-9dec380da7b8","system_id":"levelo_inurba_marseille","lat":43.29662,"lon":5.38751,"is_reserved":false,"is_disabled":false,"rental_uris":{"android":"levelo://app?vid=7b3ebdcb-0b54-4b8b-842c-9dec380da7b8","ios":"levelo://app?vid=7b3ebdcb-0b54-4b8b-842c-9dec380da7b8"},"vehicle_type_id":"4","last_reported":1773859485,"current_range_meters":6400,"station_id":"","pricing_plan_id":"cebpf4jnsgd1na2vs0mg"},{"bike_id":"66d486a5-6375-4dfe-91e5-8be8f7e4d32f","system_id":"levelo_inurba_marseille","lat":43.29549,"lon":5.38558,"is_reserved":false,"is_disabled":false,"rental_uris":{"android":"levelo://app?vid=66d486a5-6375-4dfe-91e5-8be8f7e4d32f","ios":"levelo://app?vid=66d486a5-6375-4dfe-91e5-8be8f7e4d32f"},"vehicle_type_id":"4","last_reported":1773859485,"current_range_meters":6400,"station_id":"ce4bgih2rcd13ifvqba0","pricing_plan_id":"cebpf4jnsgd1na2vs0mg"},{"bike_id":"4b961809-2257-4408-bc0c-953b358add4d","system_id":"levelo_inurba_marseille","lat":43.24679,"lon":5.38163,"is_reserved":false,"is_disabled":false,"rental_uris":{"android":"levelo://app?vid=4b961809-2257-4408-bc0c-953b358add4d","ios":"levelo://app?vid=4b961809-2257-4408-bc0c-953b358add4d"},"vehicle_type_id":"4","last_reported":1773859485,"current_range_meters":6800,"station_id":"ce4bhih2rcd13ifvqfr0","pricing_plan_id":"cebpf4jnsgd1na2vs0mg"},{"bike_id":"82304c29-4882-4609-8ac8-14cd6fc2d3aa","system_id":"levelo_inurba_marseille","lat":43.30289,"lon":5.37719,"is_reserved":false,"is_disabled":false,"rental_uris":{"android":"levelo://app?vid=82304c29-4882-4609-8ac8-14cd6fc2d3aa","ios":"levelo://app?vid=82304c29-4882-4609-8ac8-14cd6fc2d3aa"},"vehicle_type_id":"4","last_reported":1773859485,"current_range_meters":6800,"station_id":"ce4bguh2rcd13ifvqcj0","pricing_plan_id":"cebpf4jnsgd1na2vs0mg"},{"bike_id":"add1c837-623d-4250-8e03-f6727cc239fe","system_id":"levelo_inurba_marseille","lat":43.27844,"lon":5.3921,"is_reserved":false,"is_disabled":false,"rental_uris":{"android":"levelo://app?vid=add1c837-623d-4250-8e03-f6727cc239fe","ios":"levelo://app?vid=add1c837-623d-4250-8e03-f6727cc239fe"},"vehicle_type_id":"4","last_reported":1773859485,"current_range_meters":6800,"station_id":"ce4bhjp2rcd13ifvqga0","pricing_plan_id":"cebpf4jnsgd1na2vs0mg"},{"bike_id":"db183afa-dbad-4f3e-8e2e-94a1638f8baa","system_id":"levelo_inurba_marseille","lat":43.26507,"lon":5.39542,"is_reserved":false,"is_disabled":false,"rental_uris":{"android":"levelo://app?vid=db183afa-dbad-4f3e-8e2e-94a1638f8baa","ios":"levelo://app?vid=db183afa-dbad-4f3e-8e2e-94a1638f8baa"},"vehicle_type_id":"4","last_reported":1773859485,"current_range_meters":6800,"station_id":"ce4bhi12rcd13ifvqfq0","pricing_plan_id":"cebpf4jnsgd1na2vs0mg"},{"bike_id":"1eeb8fd8-3c0c-40ec-bab7-6b173acf9405","system_id":"levelo_inurba_marseille","lat":43.2293,"lon":5.35376,"is_reserved":false,"is_disabled":false,"rental_uris":{"android":"levelo://app?vid=1eeb8fd8-3c0c-40ec-bab7-6b173acf9405","ios":"levelo://app?vid=1eeb8fd8-3c0c-40ec-bab7-6b173acf9405"},"vehicle_type_id":"4","last_reported":1773859485,"current_range_meters":6800,"station_id":"cpo3532slgdg3j2ikp40","pricing_plan_id":"cebpf4jnsgd1na2vs0mg"},{"bike_id":"b1678298-3f5b-4e9b-bb34-63fa7c9d9c9c","system_id":"levelo_inurba_marseille","lat":43.28483,"lon":5.48394,"is_reserved":false,"is_disabled":false,"rental_uris":{"android":"levelo://app?vid=b1678298-3f5b-4e9b-bb34-63fa7c9d9c9c","ios":"levelo://app?vid=b1678298-3f5b-4e9b-bb34-63fa7c9d9c9c"},"vehicle_type_id":"4","last_reported":1773859485,"current_range_meters":6800,"station_id":"","pricing_plan_id":"cebpf4jnsgd1na2vs0mg"},{"bike_id":"d86f7f17-c40c-40d2-9445-70d30fa0ef64","system_id":"levelo_inurba_marseille","lat":43.21744,"lon":5.34626,"is_reserved":false,"is_disabled":true,"rental_uris":{"android":"levelo://app?vid=d86f7f17-c40c-40d2-9445-70d30fa0ef64","ios":"levelo://app?vid=d86f7f17-c40c-40d2-9445-70d30fa0ef64"},"vehicle_type_id":"4","last_reported":1773859485,"current_range_meters":6800,"station_id":"st_cvj6r9ubvosntc0bgbag","pricing_plan_id":"cebpf4jnsgd1na2vs0mg"},{"bike_id":"cd42c33f-a3e8-40d6-8fae-7dc4cb2cc97f","system_id":"levelo_inurba_marseille","lat":43.2867,"lon":5.38657,"is_reserved":false,"is_disabled":false,"rental_uris":{"android":"levelo://app?vid=cd42c33f-a3e8-40d6-8fae-7dc4cb2cc97f","ios":"levelo://app?vid=cd42c33f-a3e8-40d6-8fae-7dc4cb2cc97f"},"vehicle_type_id":"4","last_reported":1773859485,"current_range_meters":6800,"station_id":"ce4bh492rcd13ifvqdug","pricing_plan_id":"cebpf4jnsgd1na2vs0mg"},{"bike_id":"a9d31829-7e0d-482f-af05-97ddd320ae16","system_id":"levelo_inurba_marseille","lat":43.29805,"lon":5.42812,"is_reserved":false,"is_disabled":true,"rental_uris":{"android":"levelo://app?vid=a9d31829-7e0d-482f-af05-97ddd320ae16","ios":"levelo://app?vid=a9d31829-7e0d-482f-af05-97ddd320ae16"},"vehicle_type_id":"4","last_reported":1773859485,"current_range_meters":6800,"station_id":"","pricing_plan_id":"cebpf4jnsgd1na2vs0mg"},{"bike_id":"04a672df-c3bb-4c7f-bb76-8e3d4b80c3af","system_id":"levelo_inurba_marseille","lat":43.284064,"lon":5.37511,"is_reserved":false,"is_disabled":false,"rental_uris":{"android":"levelo://app?vid=04a672df-c3bb-4c7f-bb76-8e3d4b80c3af","ios":"levelo://app?vid=04a672df-c3bb-4c7f-bb76-8e3d4b80c3af"},"vehicle_type_id":"4","last_reported":1773859485,"current_range_meters":6800,"station_id":"ce4bh412rcd13ifvqds0","pricing_plan_id":"cebpf4jnsgd1na2vs0mg"},{"bike_id":"cafac4ee-eb60-4e1b-87db-d0adfc00b40d","system_id":"levelo_inurba_marseille","lat":43.33615,"lon":5.37479,"is_reserved":false,"is_disabled":false,"rental_uris":{"android":"levelo://app?vid=cafac4ee-eb60-4e1b-87db-d0adfc00b40d","ios":"levelo://app?vid=cafac4ee-eb60-4e1b-87db-d0adfc00b40d"},"vehicle_type_id":"4","last_reported":1773859485,"current_range_meters":6800,"station_id":"st_d46tts09ee8s73dlu43g","pricing_plan_id":"cebpf4jnsgd1na2vs0mg"},{"bike_id":"ee206628-58d2-4e13-b61f-f55e529e633b","system_id":"levelo_inurba_marseille","lat":43.29563,"lon":5.3855,"is_reserved":false,"is_disabled":false,"rental_uris":{"android":"levelo://app?vid=ee206628-58d2-4e13-b61f-f55e529e633b","ios":"levelo://app?vid=ee206628-58d2-4e13-b61f-f55e529e633b"},"vehicle_type_id":"4","last_reported":1773859485,"current_range_meters":6800,"station_id":"ce4bgih2rcd13ifvqba0","pricing_plan_id":"cebpf4jnsgd1na2vs0mg"},{"bike_id":"9683fc51-66f0-4025-b334-025cd4f149d1","system_id":"levelo_inurba_marseille","lat":43.28743,"lon":5.37944,"is_reserved":false,"is_disabled":false,"rental_uris":{"android":"levelo://app?vid=9683fc51-66f0-4025-b334-025cd4f149d1","ios":"levelo://app?vid=9683fc51-66f0-4025-b334-025cd4f149d1"},"vehicle_type_id":"4","last_reported":1773859485,"current_range_meters":6800,"station_id":"ce4bh9p2rcd13ifvqec0","pricing_plan_id":"cebpf4jnsgd1na2vs0mg"},{"bike_id":"562a2c3b-7d23-4094-9327-e0b69c2dad26","system_id":"levelo_inurba_marseille","lat":43.28931,"lon":5.36627,"is_reserved":false,"is_disabled":false,"rental_uris":{"android":"levelo://app?vid=562a2c3b-7d23-4094-9327-e0b69c2dad26","ios":"levelo://app?vid=562a2c3b-7d23-4094-9327-e0b69c2dad26"},"vehicle_type_id":"4","last_reported":1773859485,"current_range_meters":6800,"station_id":"ce4bhap2rcd13ifvqek0","pricing_plan_id":"cebpf4jnsgd1na2vs0mg"},{"bike_id":"01a27cf2-7647-4af4-96aa-1159bb5d2cce","system_id":"levelo_inurba_marseille","lat":43.28485,"lon":5.38416,"is_reserved":false,"is_disabled":false,"rental_uris":{"android":"levelo://app?vid=01a27cf2-7647-4af4-96aa-1159bb5d2cce","ios":"levelo://app?vid=01a27cf2-7647-4af4-96aa-1159bb5d2cce"},"vehicle_type_id":"4","last_reported":1773859485,"current_range_meters":6800,"station_id":"ce4bh512rcd13ifvqe3g","pricing_plan_id":"cebpf4jnsgd1na2vs0mg"},{"bike_id":"3f31253f-3a84-417d-8538-68e891ecd4d1","system_id":"levelo_inurba_marseille","lat":43.29253,"lon":5.40915,"is_reserved":false,"is_disabled":false,"rental_uris":{"android":"levelo://app?vid=3f31253f-3a84-417d-8538-68e891ecd4d1","ios":"levelo://app?vid=3f31253f-3a84-417d-8538-68e891ecd4d1"},"vehicle_type_id":"4","last_reported":1773859485,"current_range_meters":6800,"station_id":"ce4bh192rcd13ifvqdc0","pricing_plan_id":"cebpf4jnsgd1na2vs0mg"},{"bike_id":"e2a98eaa-25b8-4479-b80e-51461339885e","system_id":"levelo_inurba_marseille","lat":43.23811,"lon":5.36676,"is_reserved":false,"is_disabled":false,"rental_uris":{"android":"levelo://app?vid=e2a98eaa-25b8-4479-b80e-51461339885e","ios":"levelo://app?vid=e2a98eaa-25b8-4479-b80e-51461339885e"},"vehicle_type_id":"4","last_reported":1773859485,"current_range_meters":6800,"station_id":"st_d3nk18o9ro0c73en2l3g","pricing_plan_id":"cebpf4jnsgd1na2vs0mg"},{"bike_id":"779b8a3c-1846-46b5-9cab-bf0ec2b1118f","system_id":"levelo_inurba_marseille","lat":43.28471,"lon":5.48391,"is_reserved":false,"is_disabled":false,"rental_uris":{"android":"levelo://app?vid=779b8a3c-1846-46b5-9cab-bf0ec2b1118f","ios":"levelo://app?vid=779b8a3c-1846-46b5-9cab-bf0ec2b1118f"},"vehicle_type_id":"4","last_reported":1773859485,"current_range_meters":6800,"station_id":"st_d3svhcjqgbts73a3dn0g","pricing_plan_id":"cebpf4jnsgd1na2vs0mg"},{"bike_id":"91472141-3427-4a3c-8d44-aa322d033af6","system_id":"levelo_inurba_marseille","lat":43.28938,"lon":5.38382,"is_reserved":false,"is_disabled":false,"rental_uris":{"android":"levelo://app?vid=91472141-3427-4a3c-8d44-aa322d033af6","ios":"levelo://app?vid=91472141-3427-4a3c-8d44-aa322d033af6"},"vehicle_type_id":"4","last_reported":1773859485,"current_range_meters":6800,"station_id":"ce4bh612rcd13ifvqe6g","pricing_plan_id":"cebpf4jnsgd1na2vs0mg"},{"bike_id":"31e5fe70-8cb7-4014-8225-8ae6146674ce","system_id":"levelo_inurba_marseille","lat":43.27553,"lon":5.38405,"is_reserved":false,"is_disabled":false,"rental_uris":{"android":"levelo://app?vid=31e5fe70-8cb7-4014-8225-8ae6146674ce","ios":"levelo://app?vid=31e5fe70-8cb7-4014-8225-8ae6146674ce"},"vehicle_type_id":"4","last_reported":1773859485,"current_range_meters":7200,"station_id":"ce4bhh92rcd13ifvqfi0","pricing_plan_id":"cebpf4jnsgd1na2vs0mg"},{"bike_id":"d407ead4-c287-4913-a1bb-42a50308cebe","system_id":"levelo_inurba_marseille","lat":43.29551,"lon":5.42293,"is_reserved":false,"is_disabled":false,"rental_uris":{"android":"levelo://app?vid=d407ead4-c287-4913-a1bb-42a50308cebe","ios":"levelo://app?vid=d407ead4-c287-4913-a1bb-42a50308cebe"},"vehicle_type_id":"4","last_reported":1773859485,"current_range_meters":7200,"station_id":"ce4bhph2rcd13ifvqhdg","pricing_plan_id":"cebpf4jnsgd1na2vs0mg"},{"bike_id":"78811ac8-d0b5-417a-afd7-1b7b81fef5f5","system_id":"levelo_inurba_marseille","lat":43.23154,"lon":5.43708,"is_reserved":false,"is_disabled":false,"rental_uris":{"android":"levelo://app?vid=78811ac8-d0b5-417a-afd7-1b7b81fef5f5","ios":"levelo://app?vid=78811ac8-d0b5-417a-afd7-1b7b81fef5f5"},"vehicle_type_id":"4","last_reported":1773859485,"current_range_meters":7200,"station_id":"ce4bhmp2rcd13ifvqgog","pricing_plan_id":"cebpf4jnsgd1na2vs0mg"},{"bike_id":"ddd699fd-bc61-436c-af3c-691ad0f5c900","system_id":"levelo_inurba_marseille","lat":43.26925,"lon":5.40246,"is_reserved":false,"is_disabled":false,"rental_uris":{"android":"levelo://app?vid=ddd699fd-bc61-436c-af3c-691ad0f5c900","ios":"levelo://app?vid=ddd699fd-bc61-436c-af3c-691ad0f5c900"},"vehicle_type_id":"4","last_reported":1773859485,"current_range_meters":7200,"station_id":"cjm6bp8fraef2m0cb0m0","pricing_plan_id":"cebpf4jnsgd1na2vs0mg"},{"bike_id":"8c525a13-897b-43b0-b2f0-0d3d09c5b89d","system_id":"levelo_inurba_marseille","lat":43.29436,"lon":5.3975,"is_reserved":false,"is_disabled":false,"rental_uris":{"android":"levelo://app?vid=8c525a13-897b-43b0-b2f0-0d3d09c5b89d","ios":"levelo://app?vid=8c525a13-897b-43b0-b2f0-0d3d09c5b89d"},"vehicle_type_id":"4","last_reported":1773859485,"current_range_meters":7200,"station_id":"ce4bh3h2rcd13ifvqdo0","pricing_plan_id":"cebpf4jnsgd1na2vs0mg"},{"bike_id":"24e29965-67ea-4f80-a577-8ddd4b8e09b6","system_id":"levelo_inurba_marseille","lat":43.27033,"lon":5.40255,"is_reserved":false,"is_disabled":false,"rental_uris":{"android":"levelo://app?vid=24e29965-67ea-4f80-a577-8ddd4b8e09b6","ios":"levelo://app?vid=24e29965-67ea-4f80-a577-8ddd4b8e09b6"},"vehicle_type_id":"4","last_reported":1773859485,"current_range_meters":7200,"station_id":"ce4bhk92rcd13ifvqgc0","pricing_plan_id":"cebpf4jnsgd1na2vs0mg"},{"bike_id":"314a79eb-3b85-4ad3-93cb-d44c45467ba8","system_id":"levelo_inurba_marseille","lat":43.24816,"lon":5.37468,"is_reserved":false,"is_disabled":false,"rental_uris":{"android":"levelo://app?vid=314a79eb-3b85-4ad3-93cb-d44c45467ba8","ios":"levelo://app?vid=314a79eb-3b85-4ad3-93cb-d44c45467ba8"},"vehicle_type_id":"4","last_reported":1773859485,"current_range_meters":7200,"station_id":"ce4bhgh2rcd13ifvqfb0","pricing_plan_id":"cebpf4jnsgd1na2vs0mg"},{"bike_id":"9d99e656-43f9-4521-b575-035a903587ec","system_id":"levelo_inurba_marseille","lat":43.28545,"lon":5.39461,"is_reserved":false,"is_disabled":true,"rental_uris":{"android":"levelo://app?vid=9d99e656-43f9-4521-b575-035a903587ec","ios":"levelo://app?vid=9d99e656-43f9-4521-b575-035a903587ec"},"vehicle_type_id":"4","last_reported":1773859485,"current_range_meters":7200,"station_id":"ce4bh292rcd13ifvqdg0","pricing_plan_id":"cebpf4jnsgd1na2vs0mg"},{"bike_id":"d0b1f448-6af4-4ef1-a755-e03baf4488aa","system_id":"levelo_inurba_marseille","lat":43.29247,"lon":5.35745,"is_reserved":false,"is_disabled":false,"rental_uris":{"android":"levelo://app?vid=d0b1f448-6af4-4ef1-a755-e03baf4488aa","ios":"levelo://app?vid=d0b1f448-6af4-4ef1-a755-e03baf4488aa"},"vehicle_type_id":"4","last_reported":1773859485,"current_range_meters":7200,"station_id":"","pricing_plan_id":"cebpf4jnsgd1na2vs0mg"},{"bike_id":"e2ff3bec-cb66-4b1d-83b2-08f15779edd4","system_id":"levelo_inurba_marseille","lat":43.3029,"lon":5.39202,"is_reserved":false,"is_disabled":false,"rental_uris":{"android":"levelo://app?vid=e2ff3bec-cb66-4b1d-83b2-08f15779edd4","ios":"levelo://app?vid=e2ff3bec-cb66-4b1d-83b2-08f15779edd4"},"vehicle_type_id":"4","last_reported":1773859485,"current_range_meters":7200,"station_id":"ce4bgkh2rcd13ifvqbk0","pricing_plan_id":"cebpf4jnsgd1na2vs0mg"},{"bike_id":"12b7f23b-c325-4e7c-b1b9-7ff9f6604ee2","system_id":"levelo_inurba_marseille","lat":43.29251,"lon":5.38454,"is_reserved":false,"is_disabled":false,"rental_uris":{"android":"levelo://app?vid=12b7f23b-c325-4e7c-b1b9-7ff9f6604ee2","ios":"levelo://app?vid=12b7f23b-c325-4e7c-b1b9-7ff9f6604ee2"},"vehicle_type_id":"4","last_reported":1773859485,"current_range_meters":7200,"station_id":"ce4bh692rcd13ifvqea0","pricing_plan_id":"cebpf4jnsgd1na2vs0mg"},{"bike_id":"e107cb22-a13d-4c03-93ce-8114e06b9a0f","system_id":"levelo_inurba_marseille","lat":43.28486,"lon":5.48396,"is_reserved":false,"is_disabled":false,"rental_uris":{"android":"levelo://app?vid=e107cb22-a13d-4c03-93ce-8114e06b9a0f","ios":"levelo://app?vid=e107cb22-a13d-4c03-93ce-8114e06b9a0f"},"vehicle_type_id":"4","last_reported":1773859485,"current_range_meters":7200,"station_id":"","pricing_plan_id":"cebpf4jnsgd1na2vs0mg"},{"bike_id":"447b11a1-21b5-4523-80dc-ebe593853403","system_id":"levelo_inurba_marseille","lat":43.29206,"lon":5.4267,"is_reserved":false,"is_disabled":false,"rental_uris":{"android":"levelo://app?vid=447b11a1-21b5-4523-80dc-ebe593853403","ios":"levelo://app?vid=447b11a1-21b5-4523-80dc-ebe593853403"},"vehicle_type_id":"4","last_reported":1773859485,"current_range_meters":7200,"station_id":"","pricing_plan_id":"cebpf4jnsgd1na2vs0mg"},{"bike_id":"d4531119-47d1-4e6e-8eab-6fb1adfb9a69","system_id":"levelo_inurba_marseille","lat":43.29489,"lon":5.4332,"is_reserved":false,"is_disabled":false,"rental_uris":{"android":"levelo://app?vid=d4531119-47d1-4e6e-8eab-6fb1adfb9a69","ios":"levelo://app?vid=d4531119-47d1-4e6e-8eab-6fb1adfb9a69"},"vehicle_type_id":"4","last_reported":1773859485,"current_range_meters":7200,"station_id":"st_d3j5ugp08ojc73fj9d10","pricing_plan_id":"cebpf4jnsgd1na2vs0mg"},{"bike_id":"b7f6001f-fb88-43c0-a92e-1618c471ceff","system_id":"levelo_inurba_marseille","lat":43.297846,"lon":5.371009,"is_reserved":false,"is_disabled":false,"rental_uris":{"android":"levelo://app?vid=b7f6001f-fb88-43c0-a92e-1618c471ceff","ios":"levelo://app?vid=b7f6001f-fb88-43c0-a92e-1618c471ceff"},"vehicle_type_id":"4","last_reported":1773859485,"current_range_meters":7200,"station_id":"ce4bgop2rcd13ifvqc1g","pricing_plan_id":"cebpf4jnsgd1na2vs0mg"},{"bike_id":"b9236ee7-cd1b-4e39-b04e-4a8e959fc4d2","system_id":"levelo_inurba_marseille","lat":43.29763,"lon":5.42786,"is_reserved":false,"is_disabled":false,"rental_uris":{"android":"levelo://app?vid=b9236ee7-cd1b-4e39-b04e-4a8e959fc4d2","ios":"levelo://app?vid=b9236ee7-cd1b-4e39-b04e-4a8e959fc4d2"},"vehicle_type_id":"4","last_reported":1773859485,"current_range_meters":7200,"station_id":"st_d3md5207bmas73dh9klg","pricing_plan_id":"cebpf4jnsgd1na2vs0mg"},{"bike_id":"381295e3-70dd-492c-a659-5bc4eb9747e5","system_id":"levelo_inurba_marseille","lat":43.28937,"lon":5.36632,"is_reserved":false,"is_disabled":false,"rental_uris":{"android":"levelo://app?vid=381295e3-70dd-492c-a659-5bc4eb9747e5","ios":"levelo://app?vid=381295e3-70dd-492c-a659-5bc4eb9747e5"},"vehicle_type_id":"4","last_reported":1773859485,"current_range_meters":7200,"station_id":"ce4bhap2rcd13ifvqek0","pricing_plan_id":"cebpf4jnsgd1na2vs0mg"},{"bike_id":"e638f6b2-0350-4043-91c2-c9dedb73cb2c","system_id":"levelo_inurba_marseille","lat":43.2751,"lon":5.41603,"is_reserved":false,"is_disabled":false,"rental_uris":{"android":"levelo://app?vid=e638f6b2-0350-4043-91c2-c9dedb73cb2c","ios":"levelo://app?vid=e638f6b2-0350-4043-91c2-c9dedb73cb2c"},"vehicle_type_id":"4","last_reported":1773859485,"current_range_meters":7200,"station_id":"st_d6im8g6chgec73a5pndg","pricing_plan_id":"cebpf4jnsgd1na2vs0mg"},{"bike_id":"1c51670a-46e5-4a0c-9d9c-3c2806d077a8","system_id":"levelo_inurba_marseille","lat":43.29033,"lon":5.38139,"is_reserved":false,"is_disabled":true,"rental_uris":{"android":"levelo://app?vid=1c51670a-46e5-4a0c-9d9c-3c2806d077a8","ios":"levelo://app?vid=1c51670a-46e5-4a0c-9d9c-3c2806d077a8"},"vehicle_type_id":"4","last_reported":1773859485,"current_range_meters":8000,"station_id":"ce4bh4p2rcd13ifvqe1g","pricing_plan_id":"cebpf4jnsgd1na2vs0mg"},{"bike_id":"0c568fbf-621d-4cc8-ade7-4b24ab6705de","system_id":"levelo_inurba_marseille","lat":43.21779,"lon":5.34621,"is_reserved":false,"is_disabled":false,"rental_uris":{"android":"levelo://app?vid=0c568fbf-621d-4cc8-ade7-4b24ab6705de","ios":"levelo://app?vid=0c568fbf-621d-4cc8-ade7-4b24ab6705de"},"vehicle_type_id":"4","last_reported":1773859485,"current_range_meters":8000,"station_id":"st_cvj6r9ubvosntc0bgbag","pricing_plan_id":"cebpf4jnsgd1na2vs0mg"},{"bike_id":"bd60a6ec-18d4-4476-ab1b-f354043c4b72","system_id":"levelo_inurba_marseille","lat":43.298,"lon":5.42656,"is_reserved":false,"is_disabled":false,"rental_uris":{"android":"levelo://app?vid=bd60a6ec-18d4-4476-ab1b-f354043c4b72","ios":"levelo://app?vid=bd60a6ec-18d4-4476-ab1b-f354043c4b72"},"vehicle_type_id":"4","last_reported":1773859485,"current_range_meters":8000,"station_id":"","pricing_plan_id":"cebpf4jnsgd1na2vs0mg"},{"bike_id":"2cd6d2c4-9839-4b08-8d75-805c4c2214dc","system_id":"levelo_inurba_marseille","lat":43.23047,"lon":5.35497,"is_reserved":false,"is_disabled":false,"rental_uris":{"android":"levelo://app?vid=2cd6d2c4-9839-4b08-8d75-805c4c2214dc","ios":"levelo://app?vid=2cd6d2c4-9839-4b08-8d75-805c4c2214dc"},"vehicle_type_id":"4","last_reported":1773859485,"current_range_meters":8000,"station_id":"cpo3342slgdg3j2ifvpg","pricing_plan_id":"cebpf4jnsgd1na2vs0mg"},{"bike_id":"9b021af0-1641-4a17-a996-eafcf78ab5bb","system_id":"levelo_inurba_marseille","lat":43.27917,"lon":5.39581,"is_reserved":false,"is_disabled":false,"rental_uris":{"android":"levelo://app?vid=9b021af0-1641-4a17-a996-eafcf78ab5bb","ios":"levelo://app?vid=9b021af0-1641-4a17-a996-eafcf78ab5bb"},"vehicle_type_id":"4","last_reported":1773859485,"current_range_meters":8000,"station_id":"ce4bhf92rcd13ifvqf40","pricing_plan_id":"cebpf4jnsgd1na2vs0mg"},{"bike_id":"53445d26-d549-403c-abd2-5c87a8b907ea","system_id":"levelo_inurba_marseille","lat":43.31171,"lon":5.38748,"is_reserved":false,"is_disabled":false,"rental_uris":{"android":"levelo://app?vid=53445d26-d549-403c-abd2-5c87a8b907ea","ios":"levelo://app?vid=53445d26-d549-403c-abd2-5c87a8b907ea"},"vehicle_type_id":"4","last_reported":1773859485,"current_range_meters":8000,"station_id":"ce4bgv12rcd13ifvqcp0","pricing_plan_id":"cebpf4jnsgd1na2vs0mg"},{"bike_id":"90e06dc1-4034-4aa0-b2a4-e14e93cda8f6","system_id":"levelo_inurba_marseille","lat":43.2846,"lon":5.35885,"is_reserved":false,"is_disabled":false,"rental_uris":{"android":"levelo://app?vid=90e06dc1-4034-4aa0-b2a4-e14e93cda8f6","ios":"levelo://app?vid=90e06dc1-4034-4aa0-b2a4-e14e93cda8f6"},"vehicle_type_id":"4","last_reported":1773859485,"current_range_meters":8000,"station_id":"ce4bhah2rcd13ifvqei0","pricing_plan_id":"cebpf4jnsgd1na2vs0mg"},{"bike_id":"41ee6b84-658a-43ed-8c70-27692db59488","system_id":"levelo_inurba_marseille","lat":43.28001,"lon":5.400081,"is_reserved":false,"is_disabled":false,"rental_uris":{"android":"levelo://app?vid=41ee6b84-658a-43ed-8c70-27692db59488","ios":"levelo://app?vid=41ee6b84-658a-43ed-8c70-27692db59488"},"vehicle_type_id":"4","last_reported":1773859485,"current_range_meters":8000,"station_id":"ce4bho92rcd13ifvqh4g","pricing_plan_id":"cebpf4jnsgd1na2vs0mg"},{"bike_id":"ed16ab64-9c0f-4050-80fd-94e1f15913c3","system_id":"levelo_inurba_marseille","lat":43.25062,"lon":5.40438,"is_reserved":false,"is_disabled":false,"rental_uris":{"android":"levelo://app?vid=ed16ab64-9c0f-4050-80fd-94e1f15913c3","ios":"levelo://app?vid=ed16ab64-9c0f-4050-80fd-94e1f15913c3"},"vehicle_type_id":"4","last_reported":1773859485,"current_range_meters":8000,"station_id":"","pricing_plan_id":"cebpf4jnsgd1na2vs0mg"},{"bike_id":"5173eb01-1501-409d-8735-5cd4a7564229","system_id":"levelo_inurba_marseille","lat":43.31791,"lon":5.44635,"is_reserved":false,"is_disabled":false,"rental_uris":{"android":"levelo://app?vid=5173eb01-1501-409d-8735-5cd4a7564229","ios":"levelo://app?vid=5173eb01-1501-409d-8735-5cd4a7564229"},"vehicle_type_id":"4","last_reported":1773859485,"current_range_meters":8000,"station_id":"","pricing_plan_id":"cebpf4jnsgd1na2vs0mg"},{"bike_id":"8acf0e33-f173-4c92-8e4d-e21e70f8b0bb","system_id":"levelo_inurba_marseille","lat":43.29182,"lon":5.35883,"is_reserved":false,"is_disabled":false,"rental_uris":{"android":"levelo://app?vid=8acf0e33-f173-4c92-8e4d-e21e70f8b0bb","ios":"levelo://app?vid=8acf0e33-f173-4c92-8e4d-e21e70f8b0bb"},"vehicle_type_id":"4","last_reported":1773859485,"current_range_meters":8000,"station_id":"","pricing_plan_id":"cebpf4jnsgd1na2vs0mg"},{"bike_id":"c5b4f8a5-5a6c-40ba-9197-52b134bfa2c4","system_id":"levelo_inurba_marseille","lat":43.30439,"lon":5.38971,"is_reserved":false,"is_disabled":false,"rental_uris":{"android":"levelo://app?vid=c5b4f8a5-5a6c-40ba-9197-52b134bfa2c4","ios":"levelo://app?vid=c5b4f8a5-5a6c-40ba-9197-52b134bfa2c4"},"vehicle_type_id":"4","last_reported":1773859485,"current_range_meters":8000,"station_id":"","pricing_plan_id":"cebpf4jnsgd1na2vs0mg"},{"bike_id":"dc4b4bfa-bb92-4389-9db7-7fc0f392d0ba","system_id":"levelo_inurba_marseille","lat":43.28991,"lon":5.35616,"is_reserved":false,"is_disabled":false,"rental_uris":{"android":"levelo://app?vid=dc4b4bfa-bb92-4389-9db7-7fc0f392d0ba","ios":"levelo://app?vid=dc4b4bfa-bb92-4389-9db7-7fc0f392d0ba"},"vehicle_type_id":"4","last_reported":1773859485,"current_range_meters":8000,"station_id":"ce4bhb92rcd13ifvqen0","pricing_plan_id":"cebpf4jnsgd1na2vs0mg"},{"bike_id":"fad8e96d-acb2-4874-9608-7180f6b034b8","system_id":"levelo_inurba_marseille","lat":43.29164,"lon":5.40827,"is_reserved":false,"is_disabled":false,"rental_uris":{"android":"levelo://app?vid=fad8e96d-acb2-4874-9608-7180f6b034b8","ios":"levelo://app?vid=fad8e96d-acb2-4874-9608-7180f6b034b8"},"vehicle_type_id":"4","last_reported":1773859485,"current_range_meters":8000,"station_id":"","pricing_plan_id":"cebpf4jnsgd1na2vs0mg"},{"bike_id":"df328e25-1611-43bf-a2a1-3abfc13c8928","system_id":"levelo_inurba_marseille","lat":43.24815,"lon":5.37442,"is_reserved":false,"is_disabled":false,"rental_uris":{"android":"levelo://app?vid=df328e25-1611-43bf-a2a1-3abfc13c8928","ios":"levelo://app?vid=df328e25-1611-43bf-a2a1-3abfc13c8928"},"vehicle_type_id":"4","last_reported":1773859485,"current_range_meters":8000,"station_id":"ce4bhgh2rcd13ifvqfb0","pricing_plan_id":"cebpf4jnsgd1na2vs0mg"},{"bike_id":"b51425a2-b294-4b12-a06b-78afda0873c2","system_id":"levelo_inurba_marseille","lat":43.29811,"lon":5.40221,"is_reserved":false,"is_disabled":false,"rental_uris":{"android":"levelo://app?vid=b51425a2-b294-4b12-a06b-78afda0873c2","ios":"levelo://app?vid=b51425a2-b294-4b12-a06b-78afda0873c2"},"vehicle_type_id":"4","last_reported":1773859485,"current_range_meters":8000,"station_id":"","pricing_plan_id":"cebpf4jnsgd1na2vs0mg"},{"bike_id":"d532de73-31b0-408e-96ce-6676e6435a22","system_id":"levelo_inurba_marseille","lat":43.21195,"lon":5.35089,"is_reserved":false,"is_disabled":false,"rental_uris":{"android":"levelo://app?vid=d532de73-31b0-408e-96ce-6676e6435a22","ios":"levelo://app?vid=d532de73-31b0-408e-96ce-6676e6435a22"},"vehicle_type_id":"4","last_reported":1773859485,"current_range_meters":8400,"station_id":"st_cvj6sg6p6f1abm77japg","pricing_plan_id":"cebpf4jnsgd1na2vs0mg"},{"bike_id":"14088a16-fdc3-4ddc-a629-193ccf4601c3","system_id":"levelo_inurba_marseille","lat":43.24473,"lon":5.42531,"is_reserved":false,"is_disabled":false,"rental_uris":{"android":"levelo://app?vid=14088a16-fdc3-4ddc-a629-193ccf4601c3","ios":"levelo://app?vid=14088a16-fdc3-4ddc-a629-193ccf4601c3"},"vehicle_type_id":"4","last_reported":1773859485,"current_range_meters":8400,"station_id":"st_d4a3vfp97mjs738cd8kg","pricing_plan_id":"cebpf4jnsgd1na2vs0mg"},{"bike_id":"c37d7dba-1b35-4836-9628-3a7bf03ac96f","system_id":"levelo_inurba_marseille","lat":43.23369,"lon":5.41245,"is_reserved":false,"is_disabled":false,"rental_uris":{"android":"levelo://app?vid=c37d7dba-1b35-4836-9628-3a7bf03ac96f","ios":"levelo://app?vid=c37d7dba-1b35-4836-9628-3a7bf03ac96f"},"vehicle_type_id":"4","last_reported":1773859485,"current_range_meters":8400,"station_id":"","pricing_plan_id":"cebpf4jnsgd1na2vs0mg"},{"bike_id":"13ad50bf-7f2f-4ad1-a82f-209db682ff58","system_id":"levelo_inurba_marseille","lat":43.2656,"lon":5.39002,"is_reserved":false,"is_disabled":true,"rental_uris":{"android":"levelo://app?vid=13ad50bf-7f2f-4ad1-a82f-209db682ff58","ios":"levelo://app?vid=13ad50bf-7f2f-4ad1-a82f-209db682ff58"},"vehicle_type_id":"4","last_reported":1773859485,"current_range_meters":8400,"station_id":"ce4bhe12rcd13ifvqf30","pricing_plan_id":"cebpf4jnsgd1na2vs0mg"},{"bike_id":"6d78410b-e535-49b2-baac-710971bb53c0","system_id":"levelo_inurba_marseille","lat":43.29256,"lon":5.38458,"is_reserved":false,"is_disabled":false,"rental_uris":{"android":"levelo://app?vid=6d78410b-e535-49b2-baac-710971bb53c0","ios":"levelo://app?vid=6d78410b-e535-49b2-baac-710971bb53c0"},"vehicle_type_id":"4","last_reported":1773859485,"current_range_meters":8400,"station_id":"ce4bh692rcd13ifvqea0","pricing_plan_id":"cebpf4jnsgd1na2vs0mg"},{"bike_id":"8bde75d5-745e-4000-985a-a1822a77261c","system_id":"levelo_inurba_marseille","lat":43.28263,"lon":5.35084,"is_reserved":false,"is_disabled":false,"rental_uris":{"android":"levelo://app?vid=8bde75d5-745e-4000-985a-a1822a77261c","ios":"levelo://app?vid=8bde75d5-745e-4000-985a-a1822a77261c"},"vehicle_type_id":"4","last_reported":1773859485,"current_range_meters":8400,"station_id":"ce4bhbp2rcd13ifvqerg","pricing_plan_id":"cebpf4jnsgd1na2vs0mg"},{"bike_id":"6224e062-e0eb-4aac-8d16-e5e432594362","system_id":"levelo_inurba_marseille","lat":43.24544,"lon":5.39522,"is_reserved":false,"is_disabled":false,"rental_uris":{"android":"levelo://app?vid=6224e062-e0eb-4aac-8d16-e5e432594362","ios":"levelo://app?vid=6224e062-e0eb-4aac-8d16-e5e432594362"},"vehicle_type_id":"4","last_reported":1773859485,"current_range_meters":8400,"station_id":"ce4bhlp2rcd13ifvqgjg","pricing_plan_id":"cebpf4jnsgd1na2vs0mg"},{"bike_id":"caf5e45c-f3f2-43eb-99a6-b11ec33451e8","system_id":"levelo_inurba_marseille","lat":43.23957,"lon":5.36628,"is_reserved":false,"is_disabled":false,"rental_uris":{"android":"levelo://app?vid=caf5e45c-f3f2-43eb-99a6-b11ec33451e8","ios":"levelo://app?vid=caf5e45c-f3f2-43eb-99a6-b11ec33451e8"},"vehicle_type_id":"4","last_reported":1773859485,"current_range_meters":8400,"station_id":"ce4bhi12rcd13ifvqfp0","pricing_plan_id":"cebpf4jnsgd1na2vs0mg"},{"bike_id":"03ece831-3888-4c64-824c-51b17af29dd1","system_id":"levelo_inurba_marseille","lat":43.27053,"lon":5.3831,"is_reserved":false,"is_disabled":false,"rental_uris":{"android":"levelo://app?vid=03ece831-3888-4c64-824c-51b17af29dd1","ios":"levelo://app?vid=03ece831-3888-4c64-824c-51b17af29dd1"},"vehicle_type_id":"4","last_reported":1773859485,"current_range_meters":8400,"station_id":"st_d3n2fo6cfp8s73cte1j0","pricing_plan_id":"cebpf4jnsgd1na2vs0mg"},{"bike_id":"3b8482ae-3121-4f0d-be87-fbe3057d4d80","system_id":"levelo_inurba_marseille","lat":43.24668,"lon":5.38158,"is_reserved":false,"is_disabled":false,"rental_uris":{"android":"levelo://app?vid=3b8482ae-3121-4f0d-be87-fbe3057d4d80","ios":"levelo://app?vid=3b8482ae-3121-4f0d-be87-fbe3057d4d80"},"vehicle_type_id":"4","last_reported":1773859485,"current_range_meters":8400,"station_id":"ce4bhih2rcd13ifvqfr0","pricing_plan_id":"cebpf4jnsgd1na2vs0mg"},{"bike_id":"88db41f5-96f3-4155-a4d0-ecc56f594edb","system_id":"levelo_inurba_marseille","lat":43.22931,"lon":5.35372,"is_reserved":false,"is_disabled":false,"rental_uris":{"android":"levelo://app?vid=88db41f5-96f3-4155-a4d0-ecc56f594edb","ios":"levelo://app?vid=88db41f5-96f3-4155-a4d0-ecc56f594edb"},"vehicle_type_id":"4","last_reported":1773859485,"current_range_meters":8400,"station_id":"cpo3532slgdg3j2ikp40","pricing_plan_id":"cebpf4jnsgd1na2vs0mg"},{"bike_id":"5bf2b231-0009-4f44-8cad-4e7edf033d51","system_id":"levelo_inurba_marseille","lat":43.29565,"lon":5.42302,"is_reserved":false,"is_disabled":false,"rental_uris":{"android":"levelo://app?vid=5bf2b231-0009-4f44-8cad-4e7edf033d51","ios":"levelo://app?vid=5bf2b231-0009-4f44-8cad-4e7edf033d51"},"vehicle_type_id":"4","last_reported":1773859485,"current_range_meters":8400,"station_id":"ce4bhph2rcd13ifvqhdg","pricing_plan_id":"cebpf4jnsgd1na2vs0mg"},{"bike_id":"73e44213-1cd8-4593-a09e-a9c4a914a5d2","system_id":"levelo_inurba_marseille","lat":43.28473,"lon":5.48389,"is_reserved":false,"is_disabled":false,"rental_uris":{"android":"levelo://app?vid=73e44213-1cd8-4593-a09e-a9c4a914a5d2","ios":"levelo://app?vid=73e44213-1cd8-4593-a09e-a9c4a914a5d2"},"vehicle_type_id":"4","last_reported":1773859485,"current_range_meters":8400,"station_id":"","pricing_plan_id":"cebpf4jnsgd1na2vs0mg"},{"bike_id":"78c86868-a79f-4f2a-bb9a-961b0f22d36b","system_id":"levelo_inurba_marseille","lat":43.29978,"lon":5.38632,"is_reserved":false,"is_disabled":false,"rental_uris":{"android":"levelo://app?vid=78c86868-a79f-4f2a-bb9a-961b0f22d36b","ios":"levelo://app?vid=78c86868-a79f-4f2a-bb9a-961b0f22d36b"},"vehicle_type_id":"4","last_reported":1773859485,"current_range_meters":8400,"station_id":"","pricing_plan_id":"cebpf4jnsgd1na2vs0mg"},{"bike_id":"4399b5c4-ec23-4c97-9ca4-d50add2fc82a","system_id":"levelo_inurba_marseille","lat":43.31101,"lon":5.37752,"is_reserved":false,"is_disabled":false,"rental_uris":{"android":"levelo://app?vid=4399b5c4-ec23-4c97-9ca4-d50add2fc82a","ios":"levelo://app?vid=4399b5c4-ec23-4c97-9ca4-d50add2fc82a"},"vehicle_type_id":"4","last_reported":1773859485,"current_range_meters":8400,"station_id":"ce4bgt92rcd13ifvqcg0","pricing_plan_id":"cebpf4jnsgd1na2vs0mg"},{"bike_id":"17c144df-2776-46ac-9501-b68745b9ac23","system_id":"levelo_inurba_marseille","lat":43.25114,"lon":5.40321,"is_reserved":false,"is_disabled":false,"rental_uris":{"android":"levelo://app?vid=17c144df-2776-46ac-9501-b68745b9ac23","ios":"levelo://app?vid=17c144df-2776-46ac-9501-b68745b9ac23"},"vehicle_type_id":"4","last_reported":1773859485,"current_range_meters":8400,"station_id":"ce4bhlh2rcd13ifvqgig","pricing_plan_id":"cebpf4jnsgd1na2vs0mg"},{"bike_id":"55614024-db25-486b-99e8-ed28b6d6957b","system_id":"levelo_inurba_marseille","lat":43.2913,"lon":5.39973,"is_reserved":false,"is_disabled":false,"rental_uris":{"android":"levelo://app?vid=55614024-db25-486b-99e8-ed28b6d6957b","ios":"levelo://app?vid=55614024-db25-486b-99e8-ed28b6d6957b"},"vehicle_type_id":"4","last_reported":1773859485,"current_range_meters":8400,"station_id":"","pricing_plan_id":"cebpf4jnsgd1na2vs0mg"},{"bike_id":"4b8acc46-f892-45ae-9cf2-e1494cb35d37","system_id":"levelo_inurba_marseille","lat":43.24801,"lon":5.37455,"is_reserved":false,"is_disabled":false,"rental_uris":{"android":"levelo://app?vid=4b8acc46-f892-45ae-9cf2-e1494cb35d37","ios":"levelo://app?vid=4b8acc46-f892-45ae-9cf2-e1494cb35d37"},"vehicle_type_id":"4","last_reported":1773859485,"current_range_meters":8400,"station_id":"ce4bhgh2rcd13ifvqfb0","pricing_plan_id":"cebpf4jnsgd1na2vs0mg"},{"bike_id":"0c506fac-9822-4d55-93b9-ec283cf22639","system_id":"levelo_inurba_marseille","lat":43.26868,"lon":5.4049,"is_reserved":false,"is_disabled":false,"rental_uris":{"android":"levelo://app?vid=0c506fac-9822-4d55-93b9-ec283cf22639","ios":"levelo://app?vid=0c506fac-9822-4d55-93b9-ec283cf22639"},"vehicle_type_id":"4","last_reported":1773859485,"current_range_meters":8400,"station_id":"","pricing_plan_id":"cebpf4jnsgd1na2vs0mg"},{"bike_id":"4603d8e6-1bdb-4e77-a999-dd174df795dd","system_id":"levelo_inurba_marseille","lat":43.21727,"lon":5.34603,"is_reserved":false,"is_disabled":false,"rental_uris":{"android":"levelo://app?vid=4603d8e6-1bdb-4e77-a999-dd174df795dd","ios":"levelo://app?vid=4603d8e6-1bdb-4e77-a999-dd174df795dd"},"vehicle_type_id":"4","last_reported":1773859485,"current_range_meters":8800,"station_id":"st_cvj6r9ubvosntc0bgbag","pricing_plan_id":"cebpf4jnsgd1na2vs0mg"},{"bike_id":"c85310dc-21ff-4f06-a762-4cf8a519114b","system_id":"levelo_inurba_marseille","lat":43.30314,"lon":5.40443,"is_reserved":false,"is_disabled":false,"rental_uris":{"android":"levelo://app?vid=c85310dc-21ff-4f06-a762-4cf8a519114b","ios":"levelo://app?vid=c85310dc-21ff-4f06-a762-4cf8a519114b"},"vehicle_type_id":"4","last_reported":1773859485,"current_range_meters":8800,"station_id":"ce4bh012rcd13ifvqd10","pricing_plan_id":"cebpf4jnsgd1na2vs0mg"},{"bike_id":"f988513f-66d9-48b8-8052-ea23679cb366","system_id":"levelo_inurba_marseille","lat":43.31263,"lon":5.36905,"is_reserved":false,"is_disabled":false,"rental_uris":{"android":"levelo://app?vid=f988513f-66d9-48b8-8052-ea23679cb366","ios":"levelo://app?vid=f988513f-66d9-48b8-8052-ea23679cb366"},"vehicle_type_id":"4","last_reported":1773859485,"current_range_meters":8800,"station_id":"ce4bgl92rcd13ifvqbq0","pricing_plan_id":"cebpf4jnsgd1na2vs0mg"},{"bike_id":"3903529a-97cf-43f8-9c3a-f35f9c9bbdf2","system_id":"levelo_inurba_marseille","lat":43.313552,"lon":5.367146,"is_reserved":false,"is_disabled":true,"rental_uris":{"android":"levelo://app?vid=3903529a-97cf-43f8-9c3a-f35f9c9bbdf2","ios":"levelo://app?vid=3903529a-97cf-43f8-9c3a-f35f9c9bbdf2"},"vehicle_type_id":"4","last_reported":1773859485,"current_range_meters":8800,"station_id":"ce4bgr92rcd13ifvqc6g","pricing_plan_id":"cebpf4jnsgd1na2vs0mg"},{"bike_id":"94f8f466-8e71-4f87-978f-df55f1bc6e54","system_id":"levelo_inurba_marseille","lat":43.21218,"lon":5.35074,"is_reserved":false,"is_disabled":false,"rental_uris":{"android":"levelo://app?vid=94f8f466-8e71-4f87-978f-df55f1bc6e54","ios":"levelo://app?vid=94f8f466-8e71-4f87-978f-df55f1bc6e54"},"vehicle_type_id":"4","last_reported":1773859485,"current_range_meters":8800,"station_id":"st_cvj6sg6p6f1abm77japg","pricing_plan_id":"cebpf4jnsgd1na2vs0mg"},{"bike_id":"f7e79517-161a-451a-8a95-bb710b1b4d21","system_id":"levelo_inurba_marseille","lat":43.29839,"lon":5.37879,"is_reserved":false,"is_disabled":true,"rental_uris":{"android":"levelo://app?vid=f7e79517-161a-451a-8a95-bb710b1b4d21","ios":"levelo://app?vid=f7e79517-161a-451a-8a95-bb710b1b4d21"},"vehicle_type_id":"4","last_reported":1773859485,"current_range_meters":8800,"station_id":"","pricing_plan_id":"cebpf4jnsgd1na2vs0mg"},{"bike_id":"96591046-ee45-4d30-a3d2-a892bdadb425","system_id":"levelo_inurba_marseille","lat":43.2495,"lon":5.40489,"is_reserved":false,"is_disabled":false,"rental_uris":{"android":"levelo://app?vid=96591046-ee45-4d30-a3d2-a892bdadb425","ios":"levelo://app?vid=96591046-ee45-4d30-a3d2-a892bdadb425"},"vehicle_type_id":"4","last_reported":1773859485,"current_range_meters":8800,"station_id":"st_d2ngiaodas8pm72gd1h0","pricing_plan_id":"cebpf4jnsgd1na2vs0mg"},{"bike_id":"8c29270d-5d11-446e-a3f0-f5c56ae9c816","system_id":"levelo_inurba_marseille","lat":43.27553,"lon":5.43324,"is_reserved":false,"is_disabled":false,"rental_uris":{"android":"levelo://app?vid=8c29270d-5d11-446e-a3f0-f5c56ae9c816","ios":"levelo://app?vid=8c29270d-5d11-446e-a3f0-f5c56ae9c816"},"vehicle_type_id":"4","last_reported":1773859485,"current_range_meters":8800,"station_id":"","pricing_plan_id":"cebpf4jnsgd1na2vs0mg"},{"bike_id":"82a088c5-78ab-4aa2-979b-482fe1691333","system_id":"levelo_inurba_marseille","lat":43.31108,"lon":5.3775,"is_reserved":false,"is_disabled":false,"rental_uris":{"android":"levelo://app?vid=82a088c5-78ab-4aa2-979b-482fe1691333","ios":"levelo://app?vid=82a088c5-78ab-4aa2-979b-482fe1691333"},"vehicle_type_id":"4","last_reported":1773859485,"current_range_meters":8800,"station_id":"ce4bgt92rcd13ifvqcg0","pricing_plan_id":"cebpf4jnsgd1na2vs0mg"},{"bike_id":"506661fa-d7d4-473c-8038-c16d45410fe8","system_id":"levelo_inurba_marseille","lat":43.28887,"lon":5.42523,"is_reserved":false,"is_disabled":false,"rental_uris":{"android":"levelo://app?vid=506661fa-d7d4-473c-8038-c16d45410fe8","ios":"levelo://app?vid=506661fa-d7d4-473c-8038-c16d45410fe8"},"vehicle_type_id":"4","last_reported":1773859485,"current_range_meters":8800,"station_id":"","pricing_plan_id":"cebpf4jnsgd1na2vs0mg"},{"bike_id":"4f8dee63-7b2d-44e0-a764-df06cbd61bef","system_id":"levelo_inurba_marseille","lat":43.31168,"lon":5.38708,"is_reserved":false,"is_disabled":false,"rental_uris":{"android":"levelo://app?vid=4f8dee63-7b2d-44e0-a764-df06cbd61bef","ios":"levelo://app?vid=4f8dee63-7b2d-44e0-a764-df06cbd61bef"},"vehicle_type_id":"4","last_reported":1773859485,"current_range_meters":8800,"station_id":"ce4bgv12rcd13ifvqcp0","pricing_plan_id":"cebpf4jnsgd1na2vs0mg"},{"bike_id":"f284e755-9d35-4c46-b99c-3423faf951cd","system_id":"levelo_inurba_marseille","lat":43.29257,"lon":5.3844,"is_reserved":false,"is_disabled":false,"rental_uris":{"android":"levelo://app?vid=f284e755-9d35-4c46-b99c-3423faf951cd","ios":"levelo://app?vid=f284e755-9d35-4c46-b99c-3423faf951cd"},"vehicle_type_id":"4","last_reported":1773859485,"current_range_meters":8800,"station_id":"ce4bh692rcd13ifvqea0","pricing_plan_id":"cebpf4jnsgd1na2vs0mg"},{"bike_id":"f9cbb5c0-15f3-4ddf-b4f4-fe1b0d0a2d4c","system_id":"levelo_inurba_marseille","lat":43.31217,"lon":5.38795,"is_reserved":false,"is_disabled":true,"rental_uris":{"android":"levelo://app?vid=f9cbb5c0-15f3-4ddf-b4f4-fe1b0d0a2d4c","ios":"levelo://app?vid=f9cbb5c0-15f3-4ddf-b4f4-fe1b0d0a2d4c"},"vehicle_type_id":"4","last_reported":1773859485,"current_range_meters":8800,"station_id":"ce4bgv12rcd13ifvqcp0","pricing_plan_id":"cebpf4jnsgd1na2vs0mg"},{"bike_id":"01212da8-25aa-4618-a0d5-9aae07a76667","system_id":"levelo_inurba_marseille","lat":43.29069,"lon":5.37172,"is_reserved":false,"is_disabled":false,"rental_uris":{"android":"levelo://app?vid=01212da8-25aa-4618-a0d5-9aae07a76667","ios":"levelo://app?vid=01212da8-25aa-4618-a0d5-9aae07a76667"},"vehicle_type_id":"4","last_reported":1773859485,"current_range_meters":8800,"station_id":"ce4bh5p2rcd13ifvqe4g","pricing_plan_id":"cebpf4jnsgd1na2vs0mg"},{"bike_id":"0ee4ce16-829f-49ee-9a2a-4b4670dfbc6f","system_id":"levelo_inurba_marseille","lat":43.28467,"lon":5.48398,"is_reserved":false,"is_disabled":false,"rental_uris":{"android":"levelo://app?vid=0ee4ce16-829f-49ee-9a2a-4b4670dfbc6f","ios":"levelo://app?vid=0ee4ce16-829f-49ee-9a2a-4b4670dfbc6f"},"vehicle_type_id":"4","last_reported":1773859485,"current_range_meters":8800,"station_id":"st_d3svhcjqgbts73a3dn0g","pricing_plan_id":"cebpf4jnsgd1na2vs0mg"},{"bike_id":"09c6bd8c-631e-428d-95ab-99a2c53a3ed5","system_id":"levelo_inurba_marseille","lat":43.27513,"lon":5.41592,"is_reserved":false,"is_disabled":false,"rental_uris":{"android":"levelo://app?vid=09c6bd8c-631e-428d-95ab-99a2c53a3ed5","ios":"levelo://app?vid=09c6bd8c-631e-428d-95ab-99a2c53a3ed5"},"vehicle_type_id":"4","last_reported":1773859485,"current_range_meters":8800,"station_id":"st_d6im8g6chgec73a5pndg","pricing_plan_id":"cebpf4jnsgd1na2vs0mg"},{"bike_id":"271a8c71-7b5c-4b15-a918-da023589aae9","system_id":"levelo_inurba_marseille","lat":43.29561,"lon":5.38564,"is_reserved":false,"is_disabled":false,"rental_uris":{"android":"levelo://app?vid=271a8c71-7b5c-4b15-a918-da023589aae9","ios":"levelo://app?vid=271a8c71-7b5c-4b15-a918-da023589aae9"},"vehicle_type_id":"4","last_reported":1773859485,"current_range_meters":8800,"station_id":"ce4bgih2rcd13ifvqba0","pricing_plan_id":"cebpf4jnsgd1na2vs0mg"},{"bike_id":"5b57646a-3f83-47d7-be3e-e9ce420bce24","system_id":"levelo_inurba_marseille","lat":43.29026,"lon":5.38628,"is_reserved":false,"is_disabled":false,"rental_uris":{"android":"levelo://app?vid=5b57646a-3f83-47d7-be3e-e9ce420bce24","ios":"levelo://app?vid=5b57646a-3f83-47d7-be3e-e9ce420bce24"},"vehicle_type_id":"4","last_reported":1773859485,"current_range_meters":8800,"station_id":"ce4bh4p2rcd13ifvqe0g","pricing_plan_id":"cebpf4jnsgd1na2vs0mg"},{"bike_id":"19df06a5-29c5-4eda-a70c-1bfaf697fdc3","system_id":"levelo_inurba_marseille","lat":43.21735,"lon":5.34578,"is_reserved":false,"is_disabled":false,"rental_uris":{"android":"levelo://app?vid=19df06a5-29c5-4eda-a70c-1bfaf697fdc3","ios":"levelo://app?vid=19df06a5-29c5-4eda-a70c-1bfaf697fdc3"},"vehicle_type_id":"4","last_reported":1773859485,"current_range_meters":8800,"station_id":"st_cvj6r9ubvosntc0bgbag","pricing_plan_id":"cebpf4jnsgd1na2vs0mg"},{"bike_id":"0f0f3f3e-0b16-46b6-a723-9cf6c82a3bfc","system_id":"levelo_inurba_marseille","lat":43.27495,"lon":5.41597,"is_reserved":false,"is_disabled":false,"rental_uris":{"android":"levelo://app?vid=0f0f3f3e-0b16-46b6-a723-9cf6c82a3bfc","ios":"levelo://app?vid=0f0f3f3e-0b16-46b6-a723-9cf6c82a3bfc"},"vehicle_type_id":"4","last_reported":1773859485,"current_range_meters":8800,"station_id":"st_d6im8g6chgec73a5pndg","pricing_plan_id":"cebpf4jnsgd1na2vs0mg"},{"bike_id":"920f4ef6-677b-4350-a93f-2d160fe6cab1","system_id":"levelo_inurba_marseille","lat":43.30319,"lon":5.40426,"is_reserved":false,"is_disabled":false,"rental_uris":{"android":"levelo://app?vid=920f4ef6-677b-4350-a93f-2d160fe6cab1","ios":"levelo://app?vid=920f4ef6-677b-4350-a93f-2d160fe6cab1"},"vehicle_type_id":"4","last_reported":1773859485,"current_range_meters":8800,"station_id":"ce4bh012rcd13ifvqd10","pricing_plan_id":"cebpf4jnsgd1na2vs0mg"},{"bike_id":"00664a9d-c169-4238-afcd-48399efc766a","system_id":"levelo_inurba_marseille","lat":43.28471,"lon":5.38412,"is_reserved":false,"is_disabled":false,"rental_uris":{"android":"levelo://app?vid=00664a9d-c169-4238-afcd-48399efc766a","ios":"levelo://app?vid=00664a9d-c169-4238-afcd-48399efc766a"},"vehicle_type_id":"4","last_reported":1773859485,"current_range_meters":9200,"station_id":"ce4bh512rcd13ifvqe3g","pricing_plan_id":"cebpf4jnsgd1na2vs0mg"},