{"last_updated":1778574649,"ttl":60,"version":"2.2","data":{"bikes":[{"bike_id":"5e6e7849-a43f-4986-bb03-fe0d602dd3da","system_id":"levelo_inurba_marseille","lat":43.29279,"lon":5.38414,"is_reserved":false,"is_disabled":false,"rental_uris":{"android":"levelo://app?vid=5e6e7849-a43f-4986-bb03-fe0d602dd3da","ios":"levelo://app?vid=5e6e7849-a43f-4986-bb03-fe0d602dd3da"},"vehicle_type_id":"4","last_reported":1778574650,"current_range_meters":2800,"station_id":"ce4bh692rcd13ifvqea0","pricing_plan_id":"cebpf4jnsgd1na2vs0mg"},{"bike_id":"e2a5bc37-2627-4790-a846-8dc6a9dc7133","system_id":"levelo_inurba_marseille","lat":43.24102,"lon":5.37737,"is_reserved":false,"is_disabled":false,"rental_uris":{"android":"levelo://app?vid=e2a5bc37-2627-4790-a846-8dc6a9dc7133","ios":"levelo://app?vid=e2a5bc37-2627-4790-a846-8dc6a9dc7133"},"vehicle_type_id":"4","last_reported":1778574650,"current_range_meters":2800,"station_id":"ce4bhnp2rcd13ifvqgvg","pricing_plan_id":"cebpf4jnsgd1na2vs0mg"},{"bike_id":"7312dba1-81ce-4722-a67f-6e84c08d173a","system_id":"levelo_inurba_marseille","lat":43.23201,"lon":5.35553,"is_reserved":false,"is_disabled":false,"rental_uris":{"android":"levelo://app?vid=7312dba1-81ce-4722-a67f-6e84c08d173a","ios":"levelo://app?vid=7312dba1-81ce-4722-a67f-6e84c08d173a"},"vehicle_type_id":"4","last_reported":1778574650,"current_range_meters":2800,"station_id":"ce4bhu92rcd13ifvqi70","pricing_plan_id":"cebpf4jnsgd1na2vs0mg"},{"bike_id":"cc31a10a-cee4-4525-94fd-2ae48732b4b5","system_id":"levelo_inurba_marseille","lat":43.31408,"lon":5.39794,"is_reserved":false,"is_disabled":false,"rental_uris":{"android":"levelo://app?vid=cc31a10a-cee4-4525-94fd-2ae48732b4b5","ios":"levelo://app?vid=cc31a10a-cee4-4525-94fd-2ae48732b4b5"},"vehicle_type_id":"4","last_reported":1778574650,"current_range_meters":2800,"station_id":"","pricing_plan_id":"cebpf4jnsgd1na2vs0mg"},{"bike_id":"f30cfa8f-c3f9-48f9-95d2-34be9c6910c4","system_id":"levelo_inurba_marseille","lat":43.24075,"lon":5.37767,"is_reserved":false,"is_disabled":false,"rental_uris":{"android":"levelo://app?vid=f30cfa8f-c3f9-48f9-95d2-34be9c6910c4","ios":"levelo://app?vid=f30cfa8f-c3f9-48f9-95d2-34be9c6910c4"},"vehicle_type_id":"4","last_reported":1778574650,"current_range_meters":2800,"station_id":"ce4bhnp2rcd13ifvqgvg","pricing_plan_id":"cebpf4jnsgd1na2vs0mg"},{"bike_id":"045cea16-e5d8-4c1f-baa3-efcae79af3fd","system_id":"levelo_inurba_marseille","lat":43.25574,"lon":5.38256,"is_reserved":false,"is_disabled":false,"rental_uris":{"android":"levelo://app?vid=045cea16-e5d8-4c1f-baa3-efcae79af3fd","ios":"levelo://app?vid=045cea16-e5d8-4c1f-baa3-efcae79af3fd"},"vehicle_type_id":"4","last_reported":1778574650,"current_range_meters":2800,"station_id":"ce4bhih2rcd13ifvqfs0","pricing_plan_id":"cebpf4jnsgd1na2vs0mg"},{"bike_id":"e79e7475-6601-45bd-b55f-7e536edda3f3","system_id":"levelo_inurba_marseille","lat":43.24627,"lon":5.43148,"is_reserved":false,"is_disabled":false,"rental_uris":{"android":"levelo://app?vid=e79e7475-6601-45bd-b55f-7e536edda3f3","ios":"levelo://app?vid=e79e7475-6601-45bd-b55f-7e536edda3f3"},"vehicle_type_id":"4","last_reported":1778574650,"current_range_meters":2800,"station_id":"st_d2m6c4gdas8pm72e190g","pricing_plan_id":"cebpf4jnsgd1na2vs0mg"},{"bike_id":"ee920908-ca36-4b99-8b0c-a3575a4d1543","system_id":"levelo_inurba_marseille","lat":43.21194,"lon":5.35041,"is_reserved":false,"is_disabled":false,"rental_uris":{"android":"levelo://app?vid=ee920908-ca36-4b99-8b0c-a3575a4d1543","ios":"levelo://app?vid=ee920908-ca36-4b99-8b0c-a3575a4d1543"},"vehicle_type_id":"4","last_reported":1778574650,"current_range_meters":2800,"station_id":"st_cvj6sg6p6f1abm77japg","pricing_plan_id":"cebpf4jnsgd1na2vs0mg"},{"bike_id":"c2db077b-6988-4aa6-89d7-fd29e1ee1a5f","system_id":"levelo_inurba_marseille","lat":43.323557,"lon":5.367368,"is_reserved":false,"is_disabled":false,"rental_uris":{"android":"levelo://app?vid=c2db077b-6988-4aa6-89d7-fd29e1ee1a5f","ios":"levelo://app?vid=c2db077b-6988-4aa6-89d7-fd29e1ee1a5f"},"vehicle_type_id":"4","last_reported":1778574650,"current_range_meters":2800,"station_id":"ce4bhsh2rcd13ifvqi2g","pricing_plan_id":"cebpf4jnsgd1na2vs0mg"},{"bike_id":"795fdb31-be03-4de7-8483-5389ca154d32","system_id":"levelo_inurba_marseille","lat":43.30914,"lon":5.3698,"is_reserved":false,"is_disabled":false,"rental_uris":{"android":"levelo://app?vid=795fdb31-be03-4de7-8483-5389ca154d32","ios":"levelo://app?vid=795fdb31-be03-4de7-8483-5389ca154d32"},"vehicle_type_id":"4","last_reported":1778574650,"current_range_meters":3200,"station_id":"","pricing_plan_id":"cebpf4jnsgd1na2vs0mg"},{"bike_id":"0af1d21e-4846-49ea-b2e7-4b8ff311934b","system_id":"levelo_inurba_marseille","lat":43.25101,"lon":5.40338,"is_reserved":false,"is_disabled":false,"rental_uris":{"android":"levelo://app?vid=0af1d21e-4846-49ea-b2e7-4b8ff311934b","ios":"levelo://app?vid=0af1d21e-4846-49ea-b2e7-4b8ff311934b"},"vehicle_type_id":"4","last_reported":1778574650,"current_range_meters":3200,"station_id":"ce4bhlh2rcd13ifvqgig","pricing_plan_id":"cebpf4jnsgd1na2vs0mg"},{"bike_id":"4749a9f3-2cd7-440c-8398-42a6cbb49b30","system_id":"levelo_inurba_marseille","lat":43.31366,"lon":5.3676,"is_reserved":false,"is_disabled":false,"rental_uris":{"android":"levelo://app?vid=4749a9f3-2cd7-440c-8398-42a6cbb49b30","ios":"levelo://app?vid=4749a9f3-2cd7-440c-8398-42a6cbb49b30"},"vehicle_type_id":"4","last_reported":1778574650,"current_range_meters":3200,"station_id":"ce4bgr92rcd13ifvqc6g","pricing_plan_id":"cebpf4jnsgd1na2vs0mg"},{"bike_id":"50b4680a-ab10-402f-a93c-77bb0428cd91","system_id":"levelo_inurba_marseille","lat":43.24642,"lon":5.38891,"is_reserved":false,"is_disabled":false,"rental_uris":{"android":"levelo://app?vid=50b4680a-ab10-402f-a93c-77bb0428cd91","ios":"levelo://app?vid=50b4680a-ab10-402f-a93c-77bb0428cd91"},"vehicle_type_id":"4","last_reported":1778574650,"current_range_meters":3200,"station_id":"ce4bhg12rcd13ifvqf60","pricing_plan_id":"cebpf4jnsgd1na2vs0mg"},{"bike_id":"a8a8bbe7-7435-4c37-89b9-8112c1ac885c","system_id":"levelo_inurba_marseille","lat":43.25892,"lon":5.409,"is_reserved":false,"is_disabled":true,"rental_uris":{"android":"levelo://app?vid=a8a8bbe7-7435-4c37-89b9-8112c1ac885c","ios":"levelo://app?vid=a8a8bbe7-7435-4c37-89b9-8112c1ac885c"},"vehicle_type_id":"4","last_reported":1778574650,"current_range_meters":3200,"station_id":"ce4bhm92rcd13ifvqglg","pricing_plan_id":"cebpf4jnsgd1na2vs0mg"},{"bike_id":"14f7e401-859e-4f65-93e1-71b481ced7c1","system_id":"levelo_inurba_marseille","lat":43.28356,"lon":5.38646,"is_reserved":false,"is_disabled":false,"rental_uris":{"android":"levelo://app?vid=14f7e401-859e-4f65-93e1-71b481ced7c1","ios":"levelo://app?vid=14f7e401-859e-4f65-93e1-71b481ced7c1"},"vehicle_type_id":"4","last_reported":1778574650,"current_range_meters":3200,"station_id":"ce4bh492rcd13ifvqdvg","pricing_plan_id":"cebpf4jnsgd1na2vs0mg"},{"bike_id":"752e1c57-ad75-42d3-8d40-ca89ff2597f5","system_id":"levelo_inurba_marseille","lat":43.287124,"lon":5.379353,"is_reserved":false,"is_disabled":true,"rental_uris":{"android":"levelo://app?vid=752e1c57-ad75-42d3-8d40-ca89ff2597f5","ios":"levelo://app?vid=752e1c57-ad75-42d3-8d40-ca89ff2597f5"},"vehicle_type_id":"4","last_reported":1778574650,"current_range_meters":3200,"station_id":"ce4bh9p2rcd13ifvqec0","pricing_plan_id":"cebpf4jnsgd1na2vs0mg"},{"bike_id":"2e3f998d-5cf9-4b1a-a523-d8bba941aa4f","system_id":"levelo_inurba_marseille","lat":43.28696,"lon":5.46682,"is_reserved":false,"is_disabled":false,"rental_uris":{"android":"levelo://app?vid=2e3f998d-5cf9-4b1a-a523-d8bba941aa4f","ios":"levelo://app?vid=2e3f998d-5cf9-4b1a-a523-d8bba941aa4f"},"vehicle_type_id":"4","last_reported":1778574650,"current_range_meters":3200,"station_id":"st_d6tc3vkotcvc738tfjhg","pricing_plan_id":"cebpf4jnsgd1na2vs0mg"},{"bike_id":"ccb975d8-f30b-4299-a0d5-26792ce265b7","system_id":"levelo_inurba_marseille","lat":43.27695,"lon":5.38885,"is_reserved":false,"is_disabled":true,"rental_uris":{"android":"levelo://app?vid=ccb975d8-f30b-4299-a0d5-26792ce265b7","ios":"levelo://app?vid=ccb975d8-f30b-4299-a0d5-26792ce265b7"},"vehicle_type_id":"4","last_reported":1778574650,"current_range_meters":3200,"station_id":"ce4bhi12rcd13ifvqfo0","pricing_plan_id":"cebpf4jnsgd1na2vs0mg"},{"bike_id":"2afe9fef-d53a-48d2-81f4-ced24038c3e0","system_id":"levelo_inurba_marseille","lat":43.30801,"lon":5.38154,"is_reserved":false,"is_disabled":false,"rental_uris":{"android":"levelo://app?vid=2afe9fef-d53a-48d2-81f4-ced24038c3e0","ios":"levelo://app?vid=2afe9fef-d53a-48d2-81f4-ced24038c3e0"},"vehicle_type_id":"4","last_reported":1778574650,"current_range_meters":3200,"station_id":"ce4bgt12rcd13ifvqce0","pricing_plan_id":"cebpf4jnsgd1na2vs0mg"},{"bike_id":"8d67d2ac-1d9b-4929-bb3f-4b400cf1b50e","system_id":"levelo_inurba_marseille","lat":43.31294,"lon":5.40159,"is_reserved":false,"is_disabled":true,"rental_uris":{"android":"levelo://app?vid=8d67d2ac-1d9b-4929-bb3f-4b400cf1b50e","ios":"levelo://app?vid=8d67d2ac-1d9b-4929-bb3f-4b400cf1b50e"},"vehicle_type_id":"4","last_reported":1778574650,"current_range_meters":3200,"station_id":"ce4bh092rcd13ifvqd30","pricing_plan_id":"cebpf4jnsgd1na2vs0mg"},{"bike_id":"ef3ede60-2ac6-457c-ba08-84233d53988c","system_id":"levelo_inurba_marseille","lat":43.24048,"lon":5.37786,"is_reserved":false,"is_disabled":false,"rental_uris":{"android":"levelo://app?vid=ef3ede60-2ac6-457c-ba08-84233d53988c","ios":"levelo://app?vid=ef3ede60-2ac6-457c-ba08-84233d53988c"},"vehicle_type_id":"4","last_reported":1778574650,"current_range_meters":3200,"station_id":"ce4bhnp2rcd13ifvqgvg","pricing_plan_id":"cebpf4jnsgd1na2vs0mg"},{"bike_id":"4ae6440d-2725-4558-998f-ae8fd6842fcb","system_id":"levelo_inurba_marseille","lat":43.25922,"lon":5.4088,"is_reserved":false,"is_disabled":false,"rental_uris":{"android":"levelo://app?vid=4ae6440d-2725-4558-998f-ae8fd6842fcb","ios":"levelo://app?vid=4ae6440d-2725-4558-998f-ae8fd6842fcb"},"vehicle_type_id":"4","last_reported":1778574650,"current_range_meters":3200,"station_id":"ce4bhm92rcd13ifvqglg","pricing_plan_id":"cebpf4jnsgd1na2vs0mg"},{"bike_id":"e4cc4bac-5201-4d40-b79a-79bb220b3259","system_id":"levelo_inurba_marseille","lat":43.26375,"lon":5.41086,"is_reserved":false,"is_disabled":false,"rental_uris":{"android":"levelo://app?vid=e4cc4bac-5201-4d40-b79a-79bb220b3259","ios":"levelo://app?vid=e4cc4bac-5201-4d40-b79a-79bb220b3259"},"vehicle_type_id":"4","last_reported":1778574650,"current_range_meters":3200,"station_id":"st_d4e5ca6na9uc73bfl5fg","pricing_plan_id":"cebpf4jnsgd1na2vs0mg"},{"bike_id":"3dd9144e-2149-498f-a246-1f2d24551db3","system_id":"levelo_inurba_marseille","lat":43.23961,"lon":5.36614,"is_reserved":false,"is_disabled":false,"rental_uris":{"android":"levelo://app?vid=3dd9144e-2149-498f-a246-1f2d24551db3","ios":"levelo://app?vid=3dd9144e-2149-498f-a246-1f2d24551db3"},"vehicle_type_id":"4","last_reported":1778574650,"current_range_meters":3200,"station_id":"ce4bhi12rcd13ifvqfp0","pricing_plan_id":"cebpf4jnsgd1na2vs0mg"},{"bike_id":"b2b13ed1-6a67-47c5-86a8-d091eec40931","system_id":"levelo_inurba_marseille","lat":43.28966,"lon":5.36376,"is_reserved":false,"is_disabled":false,"rental_uris":{"android":"levelo://app?vid=b2b13ed1-6a67-47c5-86a8-d091eec40931","ios":"levelo://app?vid=b2b13ed1-6a67-47c5-86a8-d091eec40931"},"vehicle_type_id":"4","last_reported":1778574650,"current_range_meters":3200,"station_id":"ce4bhc92rcd13ifvqetg","pricing_plan_id":"cebpf4jnsgd1na2vs0mg"},{"bike_id":"d98fb2f3-77d5-45bb-8ad5-31d465f519ba","system_id":"levelo_inurba_marseille","lat":43.28003,"lon":5.3999,"is_reserved":false,"is_disabled":false,"rental_uris":{"android":"levelo://app?vid=d98fb2f3-77d5-45bb-8ad5-31d465f519ba","ios":"levelo://app?vid=d98fb2f3-77d5-45bb-8ad5-31d465f519ba"},"vehicle_type_id":"4","last_reported":1778574650,"current_range_meters":3200,"station_id":"ce4bho92rcd13ifvqh4g","pricing_plan_id":"cebpf4jnsgd1na2vs0mg"},{"bike_id":"c9496fdf-efd1-433c-9f91-6ac4b2235342","system_id":"levelo_inurba_marseille","lat":43.25897,"lon":5.39906,"is_reserved":false,"is_disabled":true,"rental_uris":{"android":"levelo://app?vid=c9496fdf-efd1-433c-9f91-6ac4b2235342","ios":"levelo://app?vid=c9496fdf-efd1-433c-9f91-6ac4b2235342"},"vehicle_type_id":"4","last_reported":1778574650,"current_range_meters":3200,"station_id":"ce4bhl92rcd13ifvqghg","pricing_plan_id":"cebpf4jnsgd1na2vs0mg"},{"bike_id":"112913a4-4b6b-41da-b901-71e78014a147","system_id":"levelo_inurba_marseille","lat":43.30965,"lon":5.39044,"is_reserved":false,"is_disabled":false,"rental_uris":{"android":"levelo://app?vid=112913a4-4b6b-41da-b901-71e78014a147","ios":"levelo://app?vid=112913a4-4b6b-41da-b901-71e78014a147"},"vehicle_type_id":"4","last_reported":1778574650,"current_range_meters":3200,"station_id":"ce4bgup2rcd13ifvqco0","pricing_plan_id":"cebpf4jnsgd1na2vs0mg"},{"bike_id":"9dd4be34-0419-483c-b968-43e37cb3a2f0","system_id":"levelo_inurba_marseille","lat":43.31148,"lon":5.36889,"is_reserved":false,"is_disabled":false,"rental_uris":{"android":"levelo://app?vid=9dd4be34-0419-483c-b968-43e37cb3a2f0","ios":"levelo://app?vid=9dd4be34-0419-483c-b968-43e37cb3a2f0"},"vehicle_type_id":"4","last_reported":1778574650,"current_range_meters":3200,"station_id":"ce4bgl92rcd13ifvqbq0","pricing_plan_id":"cebpf4jnsgd1na2vs0mg"},{"bike_id":"f308cfe5-87e6-468a-bc29-78343b922486","system_id":"levelo_inurba_marseille","lat":43.24635,"lon":5.43142,"is_reserved":false,"is_disabled":false,"rental_uris":{"android":"levelo://app?vid=f308cfe5-87e6-468a-bc29-78343b922486","ios":"levelo://app?vid=f308cfe5-87e6-468a-bc29-78343b922486"},"vehicle_type_id":"4","last_reported":1778574650,"current_range_meters":3600,"station_id":"st_d2m6c4gdas8pm72e190g","pricing_plan_id":"cebpf4jnsgd1na2vs0mg"},{"bike_id":"973c6431-c44c-46d3-bc17-4150b34fa7e8","system_id":"levelo_inurba_marseille","lat":43.29539,"lon":5.38529,"is_reserved":false,"is_disabled":false,"rental_uris":{"android":"levelo://app?vid=973c6431-c44c-46d3-bc17-4150b34fa7e8","ios":"levelo://app?vid=973c6431-c44c-46d3-bc17-4150b34fa7e8"},"vehicle_type_id":"4","last_reported":1778574650,"current_range_meters":3600,"station_id":"ce4bgih2rcd13ifvqba0","pricing_plan_id":"cebpf4jnsgd1na2vs0mg"},{"bike_id":"caade880-e6d4-43c5-a7bf-ad0670546e65","system_id":"levelo_inurba_marseille","lat":43.29557,"lon":5.38254,"is_reserved":false,"is_disabled":false,"rental_uris":{"android":"levelo://app?vid=caade880-e6d4-43c5-a7bf-ad0670546e65","ios":"levelo://app?vid=caade880-e6d4-43c5-a7bf-ad0670546e65"},"vehicle_type_id":"4","last_reported":1778574650,"current_range_meters":3600,"station_id":"","pricing_plan_id":"cebpf4jnsgd1na2vs0mg"},{"bike_id":"a725ca55-08b2-43c0-93d0-d09bd2c522cd","system_id":"levelo_inurba_marseille","lat":43.292694,"lon":5.368422,"is_reserved":false,"is_disabled":false,"rental_uris":{"android":"levelo://app?vid=a725ca55-08b2-43c0-93d0-d09bd2c522cd","ios":"levelo://app?vid=a725ca55-08b2-43c0-93d0-d09bd2c522cd"},"vehicle_type_id":"4","last_reported":1778574650,"current_range_meters":3600,"station_id":"ce4bhbp2rcd13ifvqesg","pricing_plan_id":"cebpf4jnsgd1na2vs0mg"},{"bike_id":"b16c0ca8-8d76-402b-ab65-8050f0a74972","system_id":"levelo_inurba_marseille","lat":43.33739,"lon":5.37465,"is_reserved":false,"is_disabled":false,"rental_uris":{"android":"levelo://app?vid=b16c0ca8-8d76-402b-ab65-8050f0a74972","ios":"levelo://app?vid=b16c0ca8-8d76-402b-ab65-8050f0a74972"},"vehicle_type_id":"4","last_reported":1778574650,"current_range_meters":3600,"station_id":"","pricing_plan_id":"cebpf4jnsgd1na2vs0mg"},{"bike_id":"b3aecf34-01b8-4811-a8bb-29b3f7ac03bf","system_id":"levelo_inurba_marseille","lat":43.24803,"lon":5.37448,"is_reserved":false,"is_disabled":false,"rental_uris":{"android":"levelo://app?vid=b3aecf34-01b8-4811-a8bb-29b3f7ac03bf","ios":"levelo://app?vid=b3aecf34-01b8-4811-a8bb-29b3f7ac03bf"},"vehicle_type_id":"4","last_reported":1778574650,"current_range_meters":3600,"station_id":"ce4bhgh2rcd13ifvqfb0","pricing_plan_id":"cebpf4jnsgd1na2vs0mg"},{"bike_id":"644482ed-40da-42b7-b18b-cd3fc49a1d6d","system_id":"levelo_inurba_marseille","lat":43.292761,"lon":5.368491,"is_reserved":false,"is_disabled":false,"rental_uris":{"android":"levelo://app?vid=644482ed-40da-42b7-b18b-cd3fc49a1d6d","ios":"levelo://app?vid=644482ed-40da-42b7-b18b-cd3fc49a1d6d"},"vehicle_type_id":"4","last_reported":1778574650,"current_range_meters":3600,"station_id":"ce4bhbp2rcd13ifvqesg","pricing_plan_id":"cebpf4jnsgd1na2vs0mg"},{"bike_id":"1ecbe185-16db-4af8-9ce1-f35c710ffa73","system_id":"levelo_inurba_marseille","lat":43.25913,"lon":5.40891,"is_reserved":false,"is_disabled":false,"rental_uris":{"android":"levelo://app?vid=1ecbe185-16db-4af8-9ce1-f35c710ffa73","ios":"levelo://app?vid=1ecbe185-16db-4af8-9ce1-f35c710ffa73"},"vehicle_type_id":"4","last_reported":1778574650,"current_range_meters":3600,"station_id":"ce4bhm92rcd13ifvqglg","pricing_plan_id":"cebpf4jnsgd1na2vs0mg"},{"bike_id":"99e1db61-7277-47f8-ad94-68117b07283b","system_id":"levelo_inurba_marseille","lat":43.2948,"lon":5.38643,"is_reserved":false,"is_disabled":false,"rental_uris":{"android":"levelo://app?vid=99e1db61-7277-47f8-ad94-68117b07283b","ios":"levelo://app?vid=99e1db61-7277-47f8-ad94-68117b07283b"},"vehicle_type_id":"4","last_reported":1778574650,"current_range_meters":3600,"station_id":"","pricing_plan_id":"cebpf4jnsgd1na2vs0mg"},{"bike_id":"bec89d50-c96c-4317-beee-1ccbdbd294eb","system_id":"levelo_inurba_marseille","lat":43.28699,"lon":5.4668,"is_reserved":false,"is_disabled":false,"rental_uris":{"android":"levelo://app?vid=bec89d50-c96c-4317-beee-1ccbdbd294eb","ios":"levelo://app?vid=bec89d50-c96c-4317-beee-1ccbdbd294eb"},"vehicle_type_id":"4","last_reported":1778574650,"current_range_meters":3600,"station_id":"st_d6tc3vkotcvc738tfjhg","pricing_plan_id":"cebpf4jnsgd1na2vs0mg"},{"bike_id":"ca7323c3-7e16-4e26-abe6-185d7910a180","system_id":"levelo_inurba_marseille","lat":43.28954,"lon":5.36634,"is_reserved":false,"is_disabled":false,"rental_uris":{"android":"levelo://app?vid=ca7323c3-7e16-4e26-abe6-185d7910a180","ios":"levelo://app?vid=ca7323c3-7e16-4e26-abe6-185d7910a180"},"vehicle_type_id":"4","last_reported":1778574650,"current_range_meters":3600,"station_id":"ce4bhap2rcd13ifvqek0","pricing_plan_id":"cebpf4jnsgd1na2vs0mg"},{"bike_id":"444b6d57-4a4c-40d5-91e4-bda1155e37f5","system_id":"levelo_inurba_marseille","lat":43.28716,"lon":5.37947,"is_reserved":false,"is_disabled":false,"rental_uris":{"android":"levelo://app?vid=444b6d57-4a4c-40d5-91e4-bda1155e37f5","ios":"levelo://app?vid=444b6d57-4a4c-40d5-91e4-bda1155e37f5"},"vehicle_type_id":"4","last_reported":1778574650,"current_range_meters":3600,"station_id":"ce4bh9p2rcd13ifvqec0","pricing_plan_id":"cebpf4jnsgd1na2vs0mg"},{"bike_id":"1c763946-d4f7-4138-9245-6b2432cd030c","system_id":"levelo_inurba_marseille","lat":43.28962,"lon":5.37847,"is_reserved":false,"is_disabled":false,"rental_uris":{"android":"levelo://app?vid=1c763946-d4f7-4138-9245-6b2432cd030c","ios":"levelo://app?vid=1c763946-d4f7-4138-9245-6b2432cd030c"},"vehicle_type_id":"4","last_reported":1778574650,"current_range_meters":3600,"station_id":"ce4bh9p2rcd13ifvqed0","pricing_plan_id":"cebpf4jnsgd1na2vs0mg"},{"bike_id":"eff05c00-3b46-4b85-8a74-94bf936b18a5","system_id":"levelo_inurba_marseille","lat":43.30944,"lon":5.39048,"is_reserved":false,"is_disabled":false,"rental_uris":{"android":"levelo://app?vid=eff05c00-3b46-4b85-8a74-94bf936b18a5","ios":"levelo://app?vid=eff05c00-3b46-4b85-8a74-94bf936b18a5"},"vehicle_type_id":"4","last_reported":1778574650,"current_range_meters":3600,"station_id":"ce4bgup2rcd13ifvqco0","pricing_plan_id":"cebpf4jnsgd1na2vs0mg"},{"bike_id":"1a9284b8-e26d-4596-9102-3af379d582dd","system_id":"levelo_inurba_marseille","lat":43.25016,"lon":5.38914,"is_reserved":false,"is_disabled":false,"rental_uris":{"android":"levelo://app?vid=1a9284b8-e26d-4596-9102-3af379d582dd","ios":"levelo://app?vid=1a9284b8-e26d-4596-9102-3af379d582dd"},"vehicle_type_id":"4","last_reported":1778574650,"current_range_meters":3600,"station_id":"ce4bhgp2rcd13ifvqfd0","pricing_plan_id":"cebpf4jnsgd1na2vs0mg"},{"bike_id":"e4f0328e-957b-4d3c-89a2-d53024f8a76f","system_id":"levelo_inurba_marseille","lat":43.33549,"lon":5.37458,"is_reserved":false,"is_disabled":false,"rental_uris":{"android":"levelo://app?vid=e4f0328e-957b-4d3c-89a2-d53024f8a76f","ios":"levelo://app?vid=e4f0328e-957b-4d3c-89a2-d53024f8a76f"},"vehicle_type_id":"4","last_reported":1778574650,"current_range_meters":4000,"station_id":"st_d46tts09ee8s73dlu43g","pricing_plan_id":"cebpf4jnsgd1na2vs0mg"},{"bike_id":"f327c7c8-116b-4f09-8f90-cd9141acb7a3","system_id":"levelo_inurba_marseille","lat":43.2815,"lon":5.4264,"is_reserved":false,"is_disabled":true,"rental_uris":{"android":"levelo://app?vid=f327c7c8-116b-4f09-8f90-cd9141acb7a3","ios":"levelo://app?vid=f327c7c8-116b-4f09-8f90-cd9141acb7a3"},"vehicle_type_id":"4","last_reported":1778574650,"current_range_meters":4000,"station_id":"ce4bhnh2rcd13ifvqgug","pricing_plan_id":"cebpf4jnsgd1na2vs0mg"},{"bike_id":"ad9166af-e82f-4567-939a-858290d88557","system_id":"levelo_inurba_marseille","lat":43.26953,"lon":5.38633,"is_reserved":false,"is_disabled":true,"rental_uris":{"android":"levelo://app?vid=ad9166af-e82f-4567-939a-858290d88557","ios":"levelo://app?vid=ad9166af-e82f-4567-939a-858290d88557"},"vehicle_type_id":"4","last_reported":1778574650,"current_range_meters":4000,"station_id":"ce4bhh92rcd13ifvqfh0","pricing_plan_id":"cebpf4jnsgd1na2vs0mg"},{"bike_id":"29560c2f-4dc9-48e5-aeee-a01d2b95bb17","system_id":"levelo_inurba_marseille","lat":43.296199,"lon":5.377049,"is_reserved":false,"is_disabled":true,"rental_uris":{"android":"levelo://app?vid=29560c2f-4dc9-48e5-aeee-a01d2b95bb17","ios":"levelo://app?vid=29560c2f-4dc9-48e5-aeee-a01d2b95bb17"},"vehicle_type_id":"4","last_reported":1778574650,"current_range_meters":4000,"station_id":"ce4bgi92rcd13ifvqb90","pricing_plan_id":"cebpf4jnsgd1na2vs0mg"},{"bike_id":"926fb4ce-26ad-48a2-bbac-950401e98e0a","system_id":"levelo_inurba_marseille","lat":43.27503,"lon":5.42473,"is_reserved":false,"is_disabled":false,"rental_uris":{"android":"levelo://app?vid=926fb4ce-26ad-48a2-bbac-950401e98e0a","ios":"levelo://app?vid=926fb4ce-26ad-48a2-bbac-950401e98e0a"},"vehicle_type_id":"4","last_reported":1778574650,"current_range_meters":4000,"station_id":"ce4bhn92rcd13ifvqgrg","pricing_plan_id":"cebpf4jnsgd1na2vs0mg"},{"bike_id":"99edba21-bf46-423c-b03f-f691ed02fe63","system_id":"levelo_inurba_marseille","lat":43.265502,"lon":5.372881,"is_reserved":false,"is_disabled":true,"rental_uris":{"android":"levelo://app?vid=99edba21-bf46-423c-b03f-f691ed02fe63","ios":"levelo://app?vid=99edba21-bf46-423c-b03f-f691ed02fe63"},"vehicle_type_id":"4","last_reported":1778574650,"current_range_meters":4000,"station_id":"","pricing_plan_id":"cebpf4jnsgd1na2vs0mg"},{"bike_id":"2ae181f1-c004-475b-b168-899216de1c14","system_id":"levelo_inurba_marseille","lat":43.28275,"lon":5.35052,"is_reserved":false,"is_disabled":false,"rental_uris":{"android":"levelo://app?vid=2ae181f1-c004-475b-b168-899216de1c14","ios":"levelo://app?vid=2ae181f1-c004-475b-b168-899216de1c14"},"vehicle_type_id":"4","last_reported":1778574650,"current_range_meters":4000,"station_id":"ce4bhbp2rcd13ifvqerg","pricing_plan_id":"cebpf4jnsgd1na2vs0mg"},{"bike_id":"89db67ac-4eb0-4fd7-b7d7-763951a78909","system_id":"levelo_inurba_marseille","lat":43.30148,"lon":5.38092,"is_reserved":false,"is_disabled":false,"rental_uris":{"android":"levelo://app?vid=89db67ac-4eb0-4fd7-b7d7-763951a78909","ios":"levelo://app?vid=89db67ac-4eb0-4fd7-b7d7-763951a78909"},"vehicle_type_id":"4","last_reported":1778574650,"current_range_meters":4000,"station_id":"ce4bgjp2rcd13ifvqbh0","pricing_plan_id":"cebpf4jnsgd1na2vs0mg"},{"bike_id":"283fbecc-c602-48b9-81d7-83b2c9e5953a","system_id":"levelo_inurba_marseille","lat":43.2119,"lon":5.3507,"is_reserved":false,"is_disabled":false,"rental_uris":{"android":"levelo://app?vid=283fbecc-c602-48b9-81d7-83b2c9e5953a","ios":"levelo://app?vid=283fbecc-c602-48b9-81d7-83b2c9e5953a"},"vehicle_type_id":"4","last_reported":1778574650,"current_range_meters":4000,"station_id":"st_cvj6sg6p6f1abm77japg","pricing_plan_id":"cebpf4jnsgd1na2vs0mg"},{"bike_id":"f16ba1d8-178c-4036-b43d-0b07c39bfa57","system_id":"levelo_inurba_marseille","lat":43.24031,"lon":5.37748,"is_reserved":false,"is_disabled":false,"rental_uris":{"android":"levelo://app?vid=f16ba1d8-178c-4036-b43d-0b07c39bfa57","ios":"levelo://app?vid=f16ba1d8-178c-4036-b43d-0b07c39bfa57"},"vehicle_type_id":"4","last_reported":1778574650,"current_range_meters":4000,"station_id":"ce4bhnp2rcd13ifvqgvg","pricing_plan_id":"cebpf4jnsgd1na2vs0mg"},{"bike_id":"69f5786b-5f1d-436a-9d97-91568846f5ab","system_id":"levelo_inurba_marseille","lat":43.33166,"lon":5.37686,"is_reserved":false,"is_disabled":false,"rental_uris":{"android":"levelo://app?vid=69f5786b-5f1d-436a-9d97-91568846f5ab","ios":"levelo://app?vid=69f5786b-5f1d-436a-9d97-91568846f5ab"},"vehicle_type_id":"4","last_reported":1778574650,"current_range_meters":4000,"station_id":"st_d46cu089ee8s73dldbu0","pricing_plan_id":"cebpf4jnsgd1na2vs0mg"},{"bike_id":"733eba2b-8829-4388-9aab-673db5fc2e2b","system_id":"levelo_inurba_marseille","lat":43.24637,"lon":5.43156,"is_reserved":false,"is_disabled":true,"rental_uris":{"android":"levelo://app?vid=733eba2b-8829-4388-9aab-673db5fc2e2b","ios":"levelo://app?vid=733eba2b-8829-4388-9aab-673db5fc2e2b"},"vehicle_type_id":"4","last_reported":1778574650,"current_range_meters":4000,"station_id":"st_d2m6c4gdas8pm72e190g","pricing_plan_id":"cebpf4jnsgd1na2vs0mg"},{"bike_id":"67b4f852-f0f0-46f1-93d6-3cf622387f59","system_id":"levelo_inurba_marseille","lat":43.24648,"lon":5.38857,"is_reserved":false,"is_disabled":false,"rental_uris":{"android":"levelo://app?vid=67b4f852-f0f0-46f1-93d6-3cf622387f59","ios":"levelo://app?vid=67b4f852-f0f0-46f1-93d6-3cf622387f59"},"vehicle_type_id":"4","last_reported":1778574650,"current_range_meters":4000,"station_id":"ce4bhg12rcd13ifvqf60","pricing_plan_id":"cebpf4jnsgd1na2vs0mg"},{"bike_id":"84974699-66af-4b2b-8b23-4a4b17f4747b","system_id":"levelo_inurba_marseille","lat":43.33771,"lon":5.37477,"is_reserved":false,"is_disabled":false,"rental_uris":{"android":"levelo://app?vid=84974699-66af-4b2b-8b23-4a4b17f4747b","ios":"levelo://app?vid=84974699-66af-4b2b-8b23-4a4b17f4747b"},"vehicle_type_id":"4","last_reported":1778574650,"current_range_meters":4400,"station_id":"st_d46tts09ee8s73dlu43g","pricing_plan_id":"cebpf4jnsgd1na2vs0mg"},{"bike_id":"a16ba1ca-1a5e-4086-8b44-b2700bec399d","system_id":"levelo_inurba_marseille","lat":43.337444,"lon":5.374475,"is_reserved":false,"is_disabled":false,"rental_uris":{"android":"levelo://app?vid=a16ba1ca-1a5e-4086-8b44-b2700bec399d","ios":"levelo://app?vid=a16ba1ca-1a5e-4086-8b44-b2700bec399d"},"vehicle_type_id":"4","last_reported":1778574650,"current_range_meters":4400,"station_id":"ce4bgjh2rcd13ifvqbf0","pricing_plan_id":"cebpf4jnsgd1na2vs0mg"},{"bike_id":"4bf79adf-669b-4b80-88e9-fc6abe143ccc","system_id":"levelo_inurba_marseille","lat":43.28617,"lon":5.35091,"is_reserved":false,"is_disabled":false,"rental_uris":{"android":"levelo://app?vid=4bf79adf-669b-4b80-88e9-fc6abe143ccc","ios":"levelo://app?vid=4bf79adf-669b-4b80-88e9-fc6abe143ccc"},"vehicle_type_id":"4","last_reported":1778574650,"current_range_meters":4400,"station_id":"ce4bhch2rcd13ifvqeug","pricing_plan_id":"cebpf4jnsgd1na2vs0mg"},{"bike_id":"2706f3f5-ee4f-448a-88e9-835f562708d5","system_id":"levelo_inurba_marseille","lat":43.217439,"lon":5.346014,"is_reserved":false,"is_disabled":false,"rental_uris":{"android":"levelo://app?vid=2706f3f5-ee4f-448a-88e9-835f562708d5","ios":"levelo://app?vid=2706f3f5-ee4f-448a-88e9-835f562708d5"},"vehicle_type_id":"4","last_reported":1778574650,"current_range_meters":4400,"station_id":"st_cvj6r9ubvosntc0bgbag","pricing_plan_id":"cebpf4jnsgd1na2vs0mg"},{"bike_id":"4bd82e55-1b41-41d3-a9fc-3c328e3efac9","system_id":"levelo_inurba_marseille","lat":43.33172,"lon":5.37692,"is_reserved":false,"is_disabled":false,"rental_uris":{"android":"levelo://app?vid=4bd82e55-1b41-41d3-a9fc-3c328e3efac9","ios":"levelo://app?vid=4bd82e55-1b41-41d3-a9fc-3c328e3efac9"},"vehicle_type_id":"4","last_reported":1778574650,"current_range_meters":4400,"station_id":"st_d46cu089ee8s73dldbu0","pricing_plan_id":"cebpf4jnsgd1na2vs0mg"},{"bike_id":"20cce1db-212d-4d36-b446-eb18fdcecc4a","system_id":"levelo_inurba_marseille","lat":43.30877,"lon":5.36828,"is_reserved":false,"is_disabled":false,"rental_uris":{"android":"levelo://app?vid=20cce1db-212d-4d36-b446-eb18fdcecc4a","ios":"levelo://app?vid=20cce1db-212d-4d36-b446-eb18fdcecc4a"},"vehicle_type_id":"4","last_reported":1778574650,"current_range_meters":4400,"station_id":"ce4bgn92rcd13ifvqbvg","pricing_plan_id":"cebpf4jnsgd1na2vs0mg"},{"bike_id":"544ab8a1-4ef8-4781-81db-82471f97e296","system_id":"levelo_inurba_marseille","lat":43.2749,"lon":5.42455,"is_reserved":false,"is_disabled":false,"rental_uris":{"android":"levelo://app?vid=544ab8a1-4ef8-4781-81db-82471f97e296","ios":"levelo://app?vid=544ab8a1-4ef8-4781-81db-82471f97e296"},"vehicle_type_id":"4","last_reported":1778574650,"current_range_meters":4400,"station_id":"ce4bhn92rcd13ifvqgrg","pricing_plan_id":"cebpf4jnsgd1na2vs0mg"},{"bike_id":"70c32609-f59c-4608-837f-24f1ca3629ee","system_id":"levelo_inurba_marseille","lat":43.29205,"lon":5.42691,"is_reserved":false,"is_disabled":false,"rental_uris":{"android":"levelo://app?vid=70c32609-f59c-4608-837f-24f1ca3629ee","ios":"levelo://app?vid=70c32609-f59c-4608-837f-24f1ca3629ee"},"vehicle_type_id":"4","last_reported":1778574650,"current_range_meters":4400,"station_id":"","pricing_plan_id":"cebpf4jnsgd1na2vs0mg"},{"bike_id":"8e0cfe5b-64e0-4829-80c8-d847580d0b17","system_id":"levelo_inurba_marseille","lat":43.29695,"lon":5.36597,"is_reserved":false,"is_disabled":true,"rental_uris":{"android":"levelo://app?vid=8e0cfe5b-64e0-4829-80c8-d847580d0b17","ios":"levelo://app?vid=8e0cfe5b-64e0-4829-80c8-d847580d0b17"},"vehicle_type_id":"4","last_reported":1778574650,"current_range_meters":4800,"station_id":"ce4bgn12rcd13ifvqbt0","pricing_plan_id":"cebpf4jnsgd1na2vs0mg"},{"bike_id":"470b0b43-29af-434b-b662-65506859352f","system_id":"levelo_inurba_marseille","lat":43.24056,"lon":5.37749,"is_reserved":false,"is_disabled":false,"rental_uris":{"android":"levelo://app?vid=470b0b43-29af-434b-b662-65506859352f","ios":"levelo://app?vid=470b0b43-29af-434b-b662-65506859352f"},"vehicle_type_id":"4","last_reported":1778574650,"current_range_meters":4800,"station_id":"ce4bhnp2rcd13ifvqgvg","pricing_plan_id":"cebpf4jnsgd1na2vs0mg"},{"bike_id":"bebe7c5e-4f59-44a7-b1cd-791c575c307c","system_id":"levelo_inurba_marseille","lat":43.29566,"lon":5.39961,"is_reserved":false,"is_disabled":false,"rental_uris":{"android":"levelo://app?vid=bebe7c5e-4f59-44a7-b1cd-791c575c307c","ios":"levelo://app?vid=bebe7c5e-4f59-44a7-b1cd-791c575c307c"},"vehicle_type_id":"4","last_reported":1778574650,"current_range_meters":4800,"station_id":"ce4bh312rcd13ifvqdj0","pricing_plan_id":"cebpf4jnsgd1na2vs0mg"},{"bike_id":"5d85cf38-0373-4c57-973d-f0705f2061ef","system_id":"levelo_inurba_marseille","lat":43.29165,"lon":5.37171,"is_reserved":false,"is_disabled":false,"rental_uris":{"android":"levelo://app?vid=5d85cf38-0373-4c57-973d-f0705f2061ef","ios":"levelo://app?vid=5d85cf38-0373-4c57-973d-f0705f2061ef"},"vehicle_type_id":"4","last_reported":1778574650,"current_range_meters":4800,"station_id":"ce4bha92rcd13ifvqeh0","pricing_plan_id":"cebpf4jnsgd1na2vs0mg"},{"bike_id":"b380826e-7b8f-4d67-ab13-8c285e713372","system_id":"levelo_inurba_marseille","lat":43.250953,"lon":5.395248,"is_reserved":false,"is_disabled":false,"rental_uris":{"android":"levelo://app?vid=b380826e-7b8f-4d67-ab13-8c285e713372","ios":"levelo://app?vid=b380826e-7b8f-4d67-ab13-8c285e713372"},"vehicle_type_id":"4","last_reported":1778574650,"current_range_meters":4800,"station_id":"ce4bhm12rcd13ifvqgkg","pricing_plan_id":"cebpf4jnsgd1na2vs0mg"},{"bike_id":"58668a7e-b83b-43de-939d-83bd63d83b58","system_id":"levelo_inurba_marseille","lat":43.27489,"lon":5.42457,"is_reserved":false,"is_disabled":false,"rental_uris":{"android":"levelo://app?vid=58668a7e-b83b-43de-939d-83bd63d83b58","ios":"levelo://app?vid=58668a7e-b83b-43de-939d-83bd63d83b58"},"vehicle_type_id":"4","last_reported":1778574650,"current_range_meters":4800,"station_id":"ce4bhn92rcd13ifvqgrg","pricing_plan_id":"cebpf4jnsgd1na2vs0mg"},{"bike_id":"73cfc4ab-45a1-4990-96e9-68f71ab96565","system_id":"levelo_inurba_marseille","lat":43.27429,"lon":5.39428,"is_reserved":false,"is_disabled":false,"rental_uris":{"android":"levelo://app?vid=73cfc4ab-45a1-4990-96e9-68f71ab96565","ios":"levelo://app?vid=73cfc4ab-45a1-4990-96e9-68f71ab96565"},"vehicle_type_id":"4","last_reported":1778574650,"current_range_meters":4800,"station_id":"ce4bhdp2rcd13ifvqf20","pricing_plan_id":"cebpf4jnsgd1na2vs0mg"},{"bike_id":"358eaf33-4eb0-49e1-990d-90f8bb84a823","system_id":"levelo_inurba_marseille","lat":43.217468,"lon":5.346016,"is_reserved":false,"is_disabled":false,"rental_uris":{"android":"levelo://app?vid=358eaf33-4eb0-49e1-990d-90f8bb84a823","ios":"levelo://app?vid=358eaf33-4eb0-49e1-990d-90f8bb84a823"},"vehicle_type_id":"4","last_reported":1778574650,"current_range_meters":4800,"station_id":"st_cvj6r9ubvosntc0bgbag","pricing_plan_id":"cebpf4jnsgd1na2vs0mg"},{"bike_id":"7073d563-3b70-4eaf-9c5e-3fe6c955c376","system_id":"levelo_inurba_marseille","lat":43.2409,"lon":5.37745,"is_reserved":false,"is_disabled":false,"rental_uris":{"android":"levelo://app?vid=7073d563-3b70-4eaf-9c5e-3fe6c955c376","ios":"levelo://app?vid=7073d563-3b70-4eaf-9c5e-3fe6c955c376"},"vehicle_type_id":"4","last_reported":1778574650,"current_range_meters":4800,"station_id":"ce4bhnp2rcd13ifvqgvg","pricing_plan_id":"cebpf4jnsgd1na2vs0mg"},{"bike_id":"f3632ab7-3b9b-46de-90be-92905498dcae","system_id":"levelo_inurba_marseille","lat":43.25068,"lon":5.39722,"is_reserved":false,"is_disabled":false,"rental_uris":{"android":"levelo://app?vid=f3632ab7-3b9b-46de-90be-92905498dcae","ios":"levelo://app?vid=f3632ab7-3b9b-46de-90be-92905498dcae"},"vehicle_type_id":"4","last_reported":1778574650,"current_range_meters":4800,"station_id":"","pricing_plan_id":"cebpf4jnsgd1na2vs0mg"},{"bike_id":"2b6859e3-f1d4-4b2e-8ec3-944173d3cbf5","system_id":"levelo_inurba_marseille","lat":43.28485,"lon":5.48397,"is_reserved":false,"is_disabled":false,"rental_uris":{"android":"levelo://app?vid=2b6859e3-f1d4-4b2e-8ec3-944173d3cbf5","ios":"levelo://app?vid=2b6859e3-f1d4-4b2e-8ec3-944173d3cbf5"},"vehicle_type_id":"4","last_reported":1778574650,"current_range_meters":4800,"station_id":"","pricing_plan_id":"cebpf4jnsgd1na2vs0mg"},{"bike_id":"2725c493-562e-452f-98fd-c8ff859932c7","system_id":"levelo_inurba_marseille","lat":43.313675,"lon":5.3849,"is_reserved":false,"is_disabled":false,"rental_uris":{"android":"levelo://app?vid=2725c493-562e-452f-98fd-c8ff859932c7","ios":"levelo://app?vid=2725c493-562e-452f-98fd-c8ff859932c7"},"vehicle_type_id":"4","last_reported":1778574650,"current_range_meters":5600,"station_id":"ce4bgt92rcd13ifvqcf0","pricing_plan_id":"cebpf4jnsgd1na2vs0mg"},{"bike_id":"7df403d7-70f9-42d7-b63d-875b1fdbb8af","system_id":"levelo_inurba_marseille","lat":43.33604,"lon":5.41035,"is_reserved":false,"is_disabled":false,"rental_uris":{"android":"levelo://app?vid=7df403d7-70f9-42d7-b63d-875b1fdbb8af","ios":"levelo://app?vid=7df403d7-70f9-42d7-b63d-875b1fdbb8af"},"vehicle_type_id":"4","last_reported":1778574650,"current_range_meters":5600,"station_id":"ce4bhqh2rcd13ifvqhmg","pricing_plan_id":"cebpf4jnsgd1na2vs0mg"},{"bike_id":"ce830c04-38ba-456b-89df-a8c658ada13b","system_id":"levelo_inurba_marseille","lat":43.2417,"lon":5.36403,"is_reserved":false,"is_disabled":false,"rental_uris":{"android":"levelo://app?vid=ce830c04-38ba-456b-89df-a8c658ada13b","ios":"levelo://app?vid=ce830c04-38ba-456b-89df-a8c658ada13b"},"vehicle_type_id":"4","last_reported":1778574650,"current_range_meters":5600,"station_id":"cpo36qri1sfpv3e86is0","pricing_plan_id":"cebpf4jnsgd1na2vs0mg"},{"bike_id":"fe48a501-4a27-47f7-9666-23f09f33f5c9","system_id":"levelo_inurba_marseille","lat":43.28846,"lon":5.35842,"is_reserved":false,"is_disabled":true,"rental_uris":{"android":"levelo://app?vid=fe48a501-4a27-47f7-9666-23f09f33f5c9","ios":"levelo://app?vid=fe48a501-4a27-47f7-9666-23f09f33f5c9"},"vehicle_type_id":"4","last_reported":1778574650,"current_range_meters":5600,"station_id":"ce4bhb12rcd13ifvqem0","pricing_plan_id":"cebpf4jnsgd1na2vs0mg"},{"bike_id":"7e1b38ff-e6a1-4783-b781-70f4de02e020","system_id":"levelo_inurba_marseille","lat":43.2467,"lon":5.3818,"is_reserved":false,"is_disabled":false,"rental_uris":{"android":"levelo://app?vid=7e1b38ff-e6a1-4783-b781-70f4de02e020","ios":"levelo://app?vid=7e1b38ff-e6a1-4783-b781-70f4de02e020"},"vehicle_type_id":"4","last_reported":1778574650,"current_range_meters":5600,"station_id":"ce4bhih2rcd13ifvqfr0","pricing_plan_id":"cebpf4jnsgd1na2vs0mg"},{"bike_id":"416b016c-9983-48f3-8783-4009e4df657b","system_id":"levelo_inurba_marseille","lat":43.298406,"lon":5.362662,"is_reserved":false,"is_disabled":false,"rental_uris":{"android":"levelo://app?vid=416b016c-9983-48f3-8783-4009e4df657b","ios":"levelo://app?vid=416b016c-9983-48f3-8783-4009e4df657b"},"vehicle_type_id":"4","last_reported":1778574650,"current_range_meters":5600,"station_id":"ce4bgpp2rcd13ifvqc3g","pricing_plan_id":"cebpf4jnsgd1na2vs0mg"},{"bike_id":"cea99b30-96d3-46dd-86cc-1a2b1c29d4ac","system_id":"levelo_inurba_marseille","lat":43.24085,"lon":5.37757,"is_reserved":false,"is_disabled":false,"rental_uris":{"android":"levelo://app?vid=cea99b30-96d3-46dd-86cc-1a2b1c29d4ac","ios":"levelo://app?vid=cea99b30-96d3-46dd-86cc-1a2b1c29d4ac"},"vehicle_type_id":"4","last_reported":1778574650,"current_range_meters":5600,"station_id":"ce4bhnp2rcd13ifvqgvg","pricing_plan_id":"cebpf4jnsgd1na2vs0mg"},{"bike_id":"a78837ea-3b96-4c0a-a155-d1ee5b8d1399","system_id":"levelo_inurba_marseille","lat":43.29049,"lon":5.42431,"is_reserved":false,"is_disabled":false,"rental_uris":{"android":"levelo://app?vid=a78837ea-3b96-4c0a-a155-d1ee5b8d1399","ios":"levelo://app?vid=a78837ea-3b96-4c0a-a155-d1ee5b8d1399"},"vehicle_type_id":"4","last_reported":1778574650,"current_range_meters":5600,"station_id":"","pricing_plan_id":"cebpf4jnsgd1na2vs0mg"},{"bike_id":"5a009147-eadb-4a84-af27-f4b3cebe13da","system_id":"levelo_inurba_marseille","lat":43.28789,"lon":5.42422,"is_reserved":false,"is_disabled":false,"rental_uris":{"android":"levelo://app?vid=5a009147-eadb-4a84-af27-f4b3cebe13da","ios":"levelo://app?vid=5a009147-eadb-4a84-af27-f4b3cebe13da"},"vehicle_type_id":"4","last_reported":1778574650,"current_range_meters":5600,"station_id":"","pricing_plan_id":"cebpf4jnsgd1na2vs0mg"},{"bike_id":"d34d9b3c-b11b-482a-8b12-8b20a9c34a97","system_id":"levelo_inurba_marseille","lat":43.2623,"lon":5.40445,"is_reserved":false,"is_disabled":false,"rental_uris":{"android":"levelo://app?vid=d34d9b3c-b11b-482a-8b12-8b20a9c34a97","ios":"levelo://app?vid=d34d9b3c-b11b-482a-8b12-8b20a9c34a97"},"vehicle_type_id":"4","last_reported":1778574650,"current_range_meters":5600,"station_id":"ce4bhmh2rcd13ifvqgmg","pricing_plan_id":"cebpf4jnsgd1na2vs0mg"},{"bike_id":"572434e9-c3de-4e9c-8941-b77c601c4077","system_id":"levelo_inurba_marseille","lat":43.31492,"lon":5.3729,"is_reserved":false,"is_disabled":false,"rental_uris":{"android":"levelo://app?vid=572434e9-c3de-4e9c-8941-b77c601c4077","ios":"levelo://app?vid=572434e9-c3de-4e9c-8941-b77c601c4077"},"vehicle_type_id":"4","last_reported":1778574650,"current_range_meters":6000,"station_id":"ce4bgt12rcd13ifvqcd0","pricing_plan_id":"cebpf4jnsgd1na2vs0mg"},{"bike_id":"50fe92ba-b16e-469b-b37f-5d52c3389552","system_id":"levelo_inurba_marseille","lat":43.26204,"lon":5.38767,"is_reserved":false,"is_disabled":false,"rental_uris":{"android":"levelo://app?vid=50fe92ba-b16e-469b-b37f-5d52c3389552","ios":"levelo://app?vid=50fe92ba-b16e-469b-b37f-5d52c3389552"},"vehicle_type_id":"4","last_reported":1778574650,"current_range_meters":6000,"station_id":"","pricing_plan_id":"cebpf4jnsgd1na2vs0mg"},{"bike_id":"f20fe0fd-4f43-48bd-b9bf-73003a7f1c75","system_id":"levelo_inurba_marseille","lat":43.2815,"lon":5.42637,"is_reserved":false,"is_disabled":false,"rental_uris":{"android":"levelo://app?vid=f20fe0fd-4f43-48bd-b9bf-73003a7f1c75","ios":"levelo://app?vid=f20fe0fd-4f43-48bd-b9bf-73003a7f1c75"},"vehicle_type_id":"4","last_reported":1778574650,"current_range_meters":6000,"station_id":"ce4bhnh2rcd13ifvqgug","pricing_plan_id":"cebpf4jnsgd1na2vs0mg"},{"bike_id":"3586752d-6136-4beb-8f7b-d8d621fbcc67","system_id":"levelo_inurba_marseille","lat":43.27549,"lon":5.35891,"is_reserved":false,"is_disabled":false,"rental_uris":{"android":"levelo://app?vid=3586752d-6136-4beb-8f7b-d8d621fbcc67","ios":"levelo://app?vid=3586752d-6136-4beb-8f7b-d8d621fbcc67"},"vehicle_type_id":"4","last_reported":1778574650,"current_range_meters":6000,"station_id":"","pricing_plan_id":"cebpf4jnsgd1na2vs0mg"},{"bike_id":"8e99190d-8f04-45bb-9819-f2161a0a8e93","system_id":"levelo_inurba_marseille","lat":43.28714,"lon":5.39985,"is_reserved":false,"is_disabled":false,"rental_uris":{"android":"levelo://app?vid=8e99190d-8f04-45bb-9819-f2161a0a8e93","ios":"levelo://app?vid=8e99190d-8f04-45bb-9819-f2161a0a8e93"},"vehicle_type_id":"4","last_reported":1778574650,"current_range_meters":6000,"station_id":"ce4bho92rcd13ifvqh3g","pricing_plan_id":"cebpf4jnsgd1na2vs0mg"},{"bike_id":"6dfe858e-7378-4c9b-9be4-032949d8707e","system_id":"levelo_inurba_marseille","lat":43.30501,"lon":5.45982,"is_reserved":false,"is_disabled":false,"rental_uris":{"android":"levelo://app?vid=6dfe858e-7378-4c9b-9be4-032949d8707e","ios":"levelo://app?vid=6dfe858e-7378-4c9b-9be4-032949d8707e"},"vehicle_type_id":"4","last_reported":1778574650,"current_range_meters":6000,"station_id":"","pricing_plan_id":"cebpf4jnsgd1na2vs0mg"},{"bike_id":"3041b904-5076-4e36-bb46-c6adf7e57c1d","system_id":"levelo_inurba_marseille","lat":43.31194,"lon":5.36885,"is_reserved":false,"is_disabled":true,"rental_uris":{"android":"levelo://app?vid=3041b904-5076-4e36-bb46-c6adf7e57c1d","ios":"levelo://app?vid=3041b904-5076-4e36-bb46-c6adf7e57c1d"},"vehicle_type_id":"4","last_reported":1778574650,"current_range_meters":6000,"station_id":"ce4bgl92rcd13ifvqbq0","pricing_plan_id":"cebpf4jnsgd1na2vs0mg"},{"bike_id":"b09ede44-2e78-440e-9a90-41105f252202","system_id":"levelo_inurba_marseille","lat":43.24666,"lon":5.38882,"is_reserved":false,"is_disabled":false,"rental_uris":{"android":"levelo://app?vid=b09ede44-2e78-440e-9a90-41105f252202","ios":"levelo://app?vid=b09ede44-2e78-440e-9a90-41105f252202"},"vehicle_type_id":"4","last_reported":1778574650,"current_range_meters":6000,"station_id":"ce4bhg12rcd13ifvqf60","pricing_plan_id":"cebpf4jnsgd1na2vs0mg"},{"bike_id":"2617e63d-7e4e-46cc-a598-51454abbbf5f","system_id":"levelo_inurba_marseille","lat":43.24385,"lon":5.37053,"is_reserved":false,"is_disabled":false,"rental_uris":{"android":"levelo://app?vid=2617e63d-7e4e-46cc-a598-51454abbbf5f","ios":"levelo://app?vid=2617e63d-7e4e-46cc-a598-51454abbbf5f"},"vehicle_type_id":"4","last_reported":1778574650,"current_range_meters":6000,"station_id":"ce4bhhh2rcd13ifvqfk0","pricing_plan_id":"cebpf4jnsgd1na2vs0mg"},{"bike_id":"32e2b136-cab2-4e4d-bdde-4ac72bd1e2ba","system_id":"levelo_inurba_marseille","lat":43.26551,"lon":5.37293,"is_reserved":false,"is_disabled":false,"rental_uris":{"android":"levelo://app?vid=32e2b136-cab2-4e4d-bdde-4ac72bd1e2ba","ios":"levelo://app?vid=32e2b136-cab2-4e4d-bdde-4ac72bd1e2ba"},"vehicle_type_id":"4","last_reported":1778574650,"current_range_meters":6000,"station_id":"ce4bhg12rcd13ifvqf70","pricing_plan_id":"cebpf4jnsgd1na2vs0mg"},{"bike_id":"294a9c8a-f152-4566-ab97-a4ff805eb0a0","system_id":"levelo_inurba_marseille","lat":43.32488,"lon":5.38263,"is_reserved":false,"is_disabled":false,"rental_uris":{"android":"levelo://app?vid=294a9c8a-f152-4566-ab97-a4ff805eb0a0","ios":"levelo://app?vid=294a9c8a-f152-4566-ab97-a4ff805eb0a0"},"vehicle_type_id":"4","last_reported":1778574650,"current_range_meters":6000,"station_id":"st_d4asgbiv49dc73anf9m0","pricing_plan_id":"cebpf4jnsgd1na2vs0mg"},{"bike_id":"b1d9dc98-d4d4-4c82-9064-9f1fedff65b6","system_id":"levelo_inurba_marseille","lat":43.27218,"lon":5.39214,"is_reserved":false,"is_disabled":false,"rental_uris":{"android":"levelo://app?vid=b1d9dc98-d4d4-4c82-9064-9f1fedff65b6","ios":"levelo://app?vid=b1d9dc98-d4d4-4c82-9064-9f1fedff65b6"},"vehicle_type_id":"4","last_reported":1778574650,"current_range_meters":6000,"station_id":"ce4bhhp2rcd13ifvqfm0","pricing_plan_id":"cebpf4jnsgd1na2vs0mg"},{"bike_id":"67fa8470-d422-4ffc-879f-c68e3a6705e1","system_id":"levelo_inurba_marseille","lat":43.26597,"lon":5.3897,"is_reserved":false,"is_disabled":true,"rental_uris":{"android":"levelo://app?vid=67fa8470-d422-4ffc-879f-c68e3a6705e1","ios":"levelo://app?vid=67fa8470-d422-4ffc-879f-c68e3a6705e1"},"vehicle_type_id":"4","last_reported":1778574650,"current_range_meters":6400,"station_id":"ce4bhe12rcd13ifvqf30","pricing_plan_id":"cebpf4jnsgd1na2vs0mg"},{"bike_id":"bf2280cc-a6fc-4cd0-974b-b874d0b0011b","system_id":"levelo_inurba_marseille","lat":43.247,"lon":5.3811,"is_reserved":false,"is_disabled":false,"rental_uris":{"android":"levelo://app?vid=bf2280cc-a6fc-4cd0-974b-b874d0b0011b","ios":"levelo://app?vid=bf2280cc-a6fc-4cd0-974b-b874d0b0011b"},"vehicle_type_id":"4","last_reported":1778574650,"current_range_meters":6400,"station_id":"","pricing_plan_id":"cebpf4jnsgd1na2vs0mg"},{"bike_id":"f42ce0d3-44ae-4ecb-9460-5eb1cecb11bb","system_id":"levelo_inurba_marseille","lat":43.32107,"lon":5.36784,"is_reserved":false,"is_disabled":false,"rental_uris":{"android":"levelo://app?vid=f42ce0d3-44ae-4ecb-9460-5eb1cecb11bb","ios":"levelo://app?vid=f42ce0d3-44ae-4ecb-9460-5eb1cecb11bb"},"vehicle_type_id":"4","last_reported":1778574650,"current_range_meters":6400,"station_id":"ce4bhrh2rcd13ifvqhug","pricing_plan_id":"cebpf4jnsgd1na2vs0mg"},{"bike_id":"c9388b3b-2cb7-4b7d-838b-879cc6602b2c","system_id":"levelo_inurba_marseille","lat":43.28703,"lon":5.46689,"is_reserved":false,"is_disabled":false,"rental_uris":{"android":"levelo://app?vid=c9388b3b-2cb7-4b7d-838b-879cc6602b2c","ios":"levelo://app?vid=c9388b3b-2cb7-4b7d-838b-879cc6602b2c"},"vehicle_type_id":"4","last_reported":1778574650,"current_range_meters":6400,"station_id":"st_d6tc3vkotcvc738tfjhg","pricing_plan_id":"cebpf4jnsgd1na2vs0mg"},{"bike_id":"a71d29bc-6936-4ea8-9878-3138f5e979b0","system_id":"levelo_inurba_marseille","lat":43.250932,"lon":5.395235,"is_reserved":false,"is_disabled":true,"rental_uris":{"android":"levelo://app?vid=a71d29bc-6936-4ea8-9878-3138f5e979b0","ios":"levelo://app?vid=a71d29bc-6936-4ea8-9878-3138f5e979b0"},"vehicle_type_id":"4","last_reported":1778574650,"current_range_meters":6400,"station_id":"ce4bhm12rcd13ifvqgkg","pricing_plan_id":"cebpf4jnsgd1na2vs0mg"},{"bike_id":"972e5ba3-06b7-4c08-91f1-aee3ce3d46bf","system_id":"levelo_inurba_marseille","lat":43.26684,"lon":5.38254,"is_reserved":false,"is_disabled":false,"rental_uris":{"android":"levelo://app?vid=972e5ba3-06b7-4c08-91f1-aee3ce3d46bf","ios":"levelo://app?vid=972e5ba3-06b7-4c08-91f1-aee3ce3d46bf"},"vehicle_type_id":"4","last_reported":1778574650,"current_range_meters":6400,"station_id":"ce4bhg92rcd13ifvqf90","pricing_plan_id":"cebpf4jnsgd1na2vs0mg"},{"bike_id":"3f035d77-efd1-4d41-a986-ad7f6c1a12f6","system_id":"levelo_inurba_marseille","lat":43.2119,"lon":5.35076,"is_reserved":false,"is_disabled":false,"rental_uris":{"android":"levelo://app?vid=3f035d77-efd1-4d41-a986-ad7f6c1a12f6","ios":"levelo://app?vid=3f035d77-efd1-4d41-a986-ad7f6c1a12f6"},"vehicle_type_id":"4","last_reported":1778574650,"current_range_meters":6400,"station_id":"st_cvj6sg6p6f1abm77japg","pricing_plan_id":"cebpf4jnsgd1na2vs0mg"},{"bike_id":"443af3c3-6aec-4380-9f25-3b35c86b90d5","system_id":"levelo_inurba_marseille","lat":43.28867,"lon":5.42517,"is_reserved":false,"is_disabled":false,"rental_uris":{"android":"levelo://app?vid=443af3c3-6aec-4380-9f25-3b35c86b90d5","ios":"levelo://app?vid=443af3c3-6aec-4380-9f25-3b35c86b90d5"},"vehicle_type_id":"4","last_reported":1778574650,"current_range_meters":6400,"station_id":"st_d3b462108ojc7389ooeg","pricing_plan_id":"cebpf4jnsgd1na2vs0mg"},{"bike_id":"b5380900-8f6e-4398-bc5c-d177a515d282","system_id":"levelo_inurba_marseille","lat":43.30144,"lon":5.38087,"is_reserved":false,"is_disabled":false,"rental_uris":{"android":"levelo://app?vid=b5380900-8f6e-4398-bc5c-d177a515d282","ios":"levelo://app?vid=b5380900-8f6e-4398-bc5c-d177a515d282"},"vehicle_type_id":"4","last_reported":1778574650,"current_range_meters":6400,"station_id":"ce4bgjp2rcd13ifvqbh0","pricing_plan_id":"cebpf4jnsgd1na2vs0mg"},{"bike_id":"1fd1b3e1-d932-469b-8a89-8dcb6f84a891","system_id":"levelo_inurba_marseille","lat":43.31883,"lon":5.40998,"is_reserved":false,"is_disabled":false,"rental_uris":{"android":"levelo://app?vid=1fd1b3e1-d932-469b-8a89-8dcb6f84a891","ios":"levelo://app?vid=1fd1b3e1-d932-469b-8a89-8dcb6f84a891"},"vehicle_type_id":"4","last_reported":1778574650,"current_range_meters":6400,"station_id":"","pricing_plan_id":"cebpf4jnsgd1na2vs0mg"},{"bike_id":"bc61384c-c124-42ba-8955-3ccc4888dd24","system_id":"levelo_inurba_marseille","lat":43.30192,"lon":5.36585,"is_reserved":false,"is_disabled":false,"rental_uris":{"android":"levelo://app?vid=bc61384c-c124-42ba-8955-3ccc4888dd24","ios":"levelo://app?vid=bc61384c-c124-42ba-8955-3ccc4888dd24"},"vehicle_type_id":"4","last_reported":1778574650,"current_range_meters":6400,"station_id":"ce4bgrh2rcd13ifvqc8g","pricing_plan_id":"cebpf4jnsgd1na2vs0mg"},{"bike_id":"11831cfa-39cb-4161-af7d-5dac5853ab75","system_id":"levelo_inurba_marseille","lat":43.31687,"lon":5.40478,"is_reserved":false,"is_disabled":false,"rental_uris":{"android":"levelo://app?vid=11831cfa-39cb-4161-af7d-5dac5853ab75","ios":"levelo://app?vid=11831cfa-39cb-4161-af7d-5dac5853ab75"},"vehicle_type_id":"4","last_reported":1778574650,"current_range_meters":6400,"station_id":"ce4bh012rcd13ifvqd00","pricing_plan_id":"cebpf4jnsgd1na2vs0mg"},{"bike_id":"29dacb7c-40b0-4af0-b0c6-3fb31d21f46d","system_id":"levelo_inurba_marseille","lat":43.23132,"lon":5.44465,"is_reserved":false,"is_disabled":false,"rental_uris":{"android":"levelo://app?vid=29dacb7c-40b0-4af0-b0c6-3fb31d21f46d","ios":"levelo://app?vid=29dacb7c-40b0-4af0-b0c6-3fb31d21f46d"},"vehicle_type_id":"4","last_reported":1778574650,"current_range_meters":6400,"station_id":"","pricing_plan_id":"cebpf4jnsgd1na2vs0mg"},{"bike_id":"cfd93ce3-d592-4a1f-9df8-a7d9b8d5334b","system_id":"levelo_inurba_marseille","lat":43.30326,"lon":5.36896,"is_reserved":false,"is_disabled":false,"rental_uris":{"android":"levelo://app?vid=cfd93ce3-d592-4a1f-9df8-a7d9b8d5334b","ios":"levelo://app?vid=cfd93ce3-d592-4a1f-9df8-a7d9b8d5334b"},"vehicle_type_id":"4","last_reported":1778574650,"current_range_meters":6400,"station_id":"ce4bgqh2rcd13ifvqc5g","pricing_plan_id":"cebpf4jnsgd1na2vs0mg"},{"bike_id":"976f48cb-1de9-4085-b903-cd4db3d220d6","system_id":"levelo_inurba_marseille","lat":43.29777,"lon":5.37104,"is_reserved":false,"is_disabled":false,"rental_uris":{"android":"levelo://app?vid=976f48cb-1de9-4085-b903-cd4db3d220d6","ios":"levelo://app?vid=976f48cb-1de9-4085-b903-cd4db3d220d6"},"vehicle_type_id":"4","last_reported":1778574650,"current_range_meters":6800,"station_id":"ce4bgop2rcd13ifvqc1g","pricing_plan_id":"cebpf4jnsgd1na2vs0mg"},{"bike_id":"dac2c52f-b8d2-4b90-b5ac-af3cfed6fe41","system_id":"levelo_inurba_marseille","lat":43.30959,"lon":5.39035,"is_reserved":false,"is_disabled":false,"rental_uris":{"android":"levelo://app?vid=dac2c52f-b8d2-4b90-b5ac-af3cfed6fe41","ios":"levelo://app?vid=dac2c52f-b8d2-4b90-b5ac-af3cfed6fe41"},"vehicle_type_id":"4","last_reported":1778574650,"current_range_meters":6800,"station_id":"ce4bgup2rcd13ifvqco0","pricing_plan_id":"cebpf4jnsgd1na2vs0mg"},{"bike_id":"46cae310-52a7-4dd5-9c53-00cfdde13efb","system_id":"levelo_inurba_marseille","lat":43.29544,"lon":5.37477,"is_reserved":false,"is_disabled":false,"rental_uris":{"android":"levelo://app?vid=46cae310-52a7-4dd5-9c53-00cfdde13efb","ios":"levelo://app?vid=46cae310-52a7-4dd5-9c53-00cfdde13efb"},"vehicle_type_id":"4","last_reported":1778574650,"current_range_meters":6800,"station_id":"ce4bgkp2rcd13ifvqbmg","pricing_plan_id":"cebpf4jnsgd1na2vs0mg"},{"bike_id":"2b583402-c4a4-4868-af7f-addf59f32fb2","system_id":"levelo_inurba_marseille","lat":43.31168,"lon":5.36901,"is_reserved":false,"is_disabled":false,"rental_uris":{"android":"levelo://app?vid=2b583402-c4a4-4868-af7f-addf59f32fb2","ios":"levelo://app?vid=2b583402-c4a4-4868-af7f-addf59f32fb2"},"vehicle_type_id":"4","last_reported":1778574650,"current_range_meters":6800,"station_id":"ce4bgl92rcd13ifvqbq0","pricing_plan_id":"cebpf4jnsgd1na2vs0mg"},{"bike_id":"1dcbcf6f-af5e-43f3-8c8e-30b1e95308b1","system_id":"levelo_inurba_marseille","lat":43.23795,"lon":5.36627,"is_reserved":false,"is_disabled":true,"rental_uris":{"android":"levelo://app?vid=1dcbcf6f-af5e-43f3-8c8e-30b1e95308b1","ios":"levelo://app?vid=1dcbcf6f-af5e-43f3-8c8e-30b1e95308b1"},"vehicle_type_id":"4","last_reported":1778574650,"current_range_meters":6800,"station_id":"st_d3nk18o9ro0c73en2l3g","pricing_plan_id":"cebpf4jnsgd1na2vs0mg"},{"bike_id":"d6ad8435-c3ba-4314-9313-033bbc0a333a","system_id":"levelo_inurba_marseille","lat":43.3134,"lon":5.36718,"is_reserved":false,"is_disabled":false,"rental_uris":{"android":"levelo://app?vid=d6ad8435-c3ba-4314-9313-033bbc0a333a","ios":"levelo://app?vid=d6ad8435-c3ba-4314-9313-033bbc0a333a"},"vehicle_type_id":"4","last_reported":1778574650,"current_range_meters":6800,"station_id":"ce4bgr92rcd13ifvqc6g","pricing_plan_id":"cebpf4jnsgd1na2vs0mg"},{"bike_id":"8d409136-b90a-45a1-a6a2-a8e68967b921","system_id":"levelo_inurba_marseille","lat":43.28425,"lon":5.39209,"is_reserved":false,"is_disabled":false,"rental_uris":{"android":"levelo://app?vid=8d409136-b90a-45a1-a6a2-a8e68967b921","ios":"levelo://app?vid=8d409136-b90a-45a1-a6a2-a8e68967b921"},"vehicle_type_id":"4","last_reported":1778574650,"current_range_meters":6800,"station_id":"ce4bhoh2rcd13ifvqh5g","pricing_plan_id":"cebpf4jnsgd1na2vs0mg"},{"bike_id":"a1362659-9897-4f9e-8d51-a51bc13c5fce","system_id":"levelo_inurba_marseille","lat":43.296329,"lon":5.3771,"is_reserved":false,"is_disabled":false,"rental_uris":{"android":"levelo://app?vid=a1362659-9897-4f9e-8d51-a51bc13c5fce","ios":"levelo://app?vid=a1362659-9897-4f9e-8d51-a51bc13c5fce"},"vehicle_type_id":"4","last_reported":1778574650,"current_range_meters":6800,"station_id":"","pricing_plan_id":"cebpf4jnsgd1na2vs0mg"},{"bike_id":"cd5ec446-192a-4cd3-ac22-afe58fe8c599","system_id":"levelo_inurba_marseille","lat":43.30097,"lon":5.39079,"is_reserved":false,"is_disabled":false,"rental_uris":{"android":"levelo://app?vid=cd5ec446-192a-4cd3-ac22-afe58fe8c599","ios":"levelo://app?vid=cd5ec446-192a-4cd3-ac22-afe58fe8c599"},"vehicle_type_id":"4","last_reported":1778574650,"current_range_meters":6800,"station_id":"ce4bh192rcd13ifvqdb0","pricing_plan_id":"cebpf4jnsgd1na2vs0mg"},{"bike_id":"73dbddcc-88da-4ffc-b375-75d2c0f75ed8","system_id":"levelo_inurba_marseille","lat":43.276154,"lon":5.36102,"is_reserved":false,"is_disabled":false,"rental_uris":{"android":"levelo://app?vid=73dbddcc-88da-4ffc-b375-75d2c0f75ed8","ios":"levelo://app?vid=73dbddcc-88da-4ffc-b375-75d2c0f75ed8"},"vehicle_type_id":"4","last_reported":1778574650,"current_range_meters":6800,"station_id":"ce4bgj92rcd13ifvqbe0","pricing_plan_id":"cebpf4jnsgd1na2vs0mg"},{"bike_id":"475b379f-701f-4736-aebe-f0de1a286a15","system_id":"levelo_inurba_marseille","lat":43.27949,"lon":5.4103,"is_reserved":false,"is_disabled":true,"rental_uris":{"android":"levelo://app?vid=475b379f-701f-4736-aebe-f0de1a286a15","ios":"levelo://app?vid=475b379f-701f-4736-aebe-f0de1a286a15"},"vehicle_type_id":"4","last_reported":1778574650,"current_range_meters":6800,"station_id":"ce4bhnp2rcd13ifvqh0g","pricing_plan_id":"cebpf4jnsgd1na2vs0mg"},{"bike_id":"df2208b9-4d67-40d8-9783-0bc1dc3fbb89","system_id":"levelo_inurba_marseille","lat":43.30237,"lon":5.38143,"is_reserved":false,"is_disabled":false,"rental_uris":{"android":"levelo://app?vid=df2208b9-4d67-40d8-9783-0bc1dc3fbb89","ios":"levelo://app?vid=df2208b9-4d67-40d8-9783-0bc1dc3fbb89"},"vehicle_type_id":"4","last_reported":1778574650,"current_range_meters":6800,"station_id":"","pricing_plan_id":"cebpf4jnsgd1na2vs0mg"},{"bike_id":"7fc9fa14-3368-4b85-86da-1ee8e6e07177","system_id":"levelo_inurba_marseille","lat":43.29627,"lon":5.37154,"is_reserved":false,"is_disabled":false,"rental_uris":{"android":"levelo://app?vid=7fc9fa14-3368-4b85-86da-1ee8e6e07177","ios":"levelo://app?vid=7fc9fa14-3368-4b85-86da-1ee8e6e07177"},"vehicle_type_id":"4","last_reported":1778574650,"current_range_meters":6800,"station_id":"ce4bgnh2rcd13ifvqc0g","pricing_plan_id":"cebpf4jnsgd1na2vs0mg"},{"bike_id":"a606aa12-75dc-4b76-9866-3d915af8d5a6","system_id":"levelo_inurba_marseille","lat":43.28152,"lon":5.42639,"is_reserved":false,"is_disabled":false,"rental_uris":{"android":"levelo://app?vid=a606aa12-75dc-4b76-9866-3d915af8d5a6","ios":"levelo://app?vid=a606aa12-75dc-4b76-9866-3d915af8d5a6"},"vehicle_type_id":"4","last_reported":1778574650,"current_range_meters":6800,"station_id":"ce4bhnh2rcd13ifvqgug","pricing_plan_id":"cebpf4jnsgd1na2vs0mg"},{"bike_id":"e73743a2-5ec0-408e-8140-53c8847ff93c","system_id":"levelo_inurba_marseille","lat":43.28551,"lon":5.38318,"is_reserved":false,"is_disabled":false,"rental_uris":{"android":"levelo://app?vid=e73743a2-5ec0-408e-8140-53c8847ff93c","ios":"levelo://app?vid=e73743a2-5ec0-408e-8140-53c8847ff93c"},"vehicle_type_id":"4","last_reported":1778574650,"current_range_meters":7200,"station_id":"","pricing_plan_id":"cebpf4jnsgd1na2vs0mg"},{"bike_id":"949a9a80-18bf-4dc2-ab41-6f58fd5b097b","system_id":"levelo_inurba_marseille","lat":43.28256,"lon":5.39052,"is_reserved":false,"is_disabled":false,"rental_uris":{"android":"levelo://app?vid=949a9a80-18bf-4dc2-ab41-6f58fd5b097b","ios":"levelo://app?vid=949a9a80-18bf-4dc2-ab41-6f58fd5b097b"},"vehicle_type_id":"4","last_reported":1778574650,"current_range_meters":7200,"station_id":"ce4bhn92rcd13ifvqgsg","pricing_plan_id":"cebpf4jnsgd1na2vs0mg"},{"bike_id":"f62cf51d-4460-4c5f-9c9c-22d593c3cf14","system_id":"levelo_inurba_marseille","lat":43.27986,"lon":5.41656,"is_reserved":false,"is_disabled":false,"rental_uris":{"android":"levelo://app?vid=f62cf51d-4460-4c5f-9c9c-22d593c3cf14","ios":"levelo://app?vid=f62cf51d-4460-4c5f-9c9c-22d593c3cf14"},"vehicle_type_id":"4","last_reported":1778574650,"current_range_meters":7200,"station_id":"ce4bho12rcd13ifvqh1g","pricing_plan_id":"cebpf4jnsgd1na2vs0mg"},{"bike_id":"15354813-f6a2-4ffa-b238-0bebee99b1bd","system_id":"levelo_inurba_marseille","lat":43.24816,"lon":5.37466,"is_reserved":false,"is_disabled":false,"rental_uris":{"android":"levelo://app?vid=15354813-f6a2-4ffa-b238-0bebee99b1bd","ios":"levelo://app?vid=15354813-f6a2-4ffa-b238-0bebee99b1bd"},"vehicle_type_id":"4","last_reported":1778574650,"current_range_meters":7200,"station_id":"ce4bhgh2rcd13ifvqfb0","pricing_plan_id":"cebpf4jnsgd1na2vs0mg"},{"bike_id":"534c59ae-5774-45a8-a7ae-d31d66b4ed73","system_id":"levelo_inurba_marseille","lat":43.29204,"lon":5.39969,"is_reserved":false,"is_disabled":false,"rental_uris":{"android":"levelo://app?vid=534c59ae-5774-45a8-a7ae-d31d66b4ed73","ios":"levelo://app?vid=534c59ae-5774-45a8-a7ae-d31d66b4ed73"},"vehicle_type_id":"4","last_reported":1778574650,"current_range_meters":7200,"station_id":"ce4bh312rcd13ifvqdk0","pricing_plan_id":"cebpf4jnsgd1na2vs0mg"},{"bike_id":"29a0fb7f-6e1f-46aa-8225-fab21dcb0f3e","system_id":"levelo_inurba_marseille","lat":43.25011,"lon":5.38931,"is_reserved":false,"is_disabled":true,"rental_uris":{"android":"levelo://app?vid=29a0fb7f-6e1f-46aa-8225-fab21dcb0f3e","ios":"levelo://app?vid=29a0fb7f-6e1f-46aa-8225-fab21dcb0f3e"},"vehicle_type_id":"4","last_reported":1778574650,"current_range_meters":7200,"station_id":"ce4bhgp2rcd13ifvqfd0","pricing_plan_id":"cebpf4jnsgd1na2vs0mg"},{"bike_id":"84abe30d-18ed-4ebb-a6d1-5f44a21a3a6c","system_id":"levelo_inurba_marseille","lat":43.24812,"lon":5.37453,"is_reserved":false,"is_disabled":false,"rental_uris":{"android":"levelo://app?vid=84abe30d-18ed-4ebb-a6d1-5f44a21a3a6c","ios":"levelo://app?vid=84abe30d-18ed-4ebb-a6d1-5f44a21a3a6c"},"vehicle_type_id":"4","last_reported":1778574650,"current_range_meters":7200,"station_id":"ce4bhgh2rcd13ifvqfb0","pricing_plan_id":"cebpf4jnsgd1na2vs0mg"},{"bike_id":"c76b5134-d211-460a-bdfa-40f9b00363f7","system_id":"levelo_inurba_marseille","lat":43.26392,"lon":5.41065,"is_reserved":false,"is_disabled":false,"rental_uris":{"android":"levelo://app?vid=c76b5134-d211-460a-bdfa-40f9b00363f7","ios":"levelo://app?vid=c76b5134-d211-460a-bdfa-40f9b00363f7"},"vehicle_type_id":"4","last_reported":1778574650,"current_range_meters":7200,"station_id":"st_d4e5ca6na9uc73bfl5fg","pricing_plan_id":"cebpf4jnsgd1na2vs0mg"},{"bike_id":"36592853-fa29-4b45-99bc-dd41446d0bde","system_id":"levelo_inurba_marseille","lat":43.337518,"lon":5.374433,"is_reserved":false,"is_disabled":false,"rental_uris":{"android":"levelo://app?vid=36592853-fa29-4b45-99bc-dd41446d0bde","ios":"levelo://app?vid=36592853-fa29-4b45-99bc-dd41446d0bde"},"vehicle_type_id":"4","last_reported":1778574650,"current_range_meters":7200,"station_id":"","pricing_plan_id":"cebpf4jnsgd1na2vs0mg"},{"bike_id":"5d294ffb-4a38-4b2b-9b1c-1f9a4552f417","system_id":"levelo_inurba_marseille","lat":43.30462,"lon":5.37908,"is_reserved":false,"is_disabled":false,"rental_uris":{"android":"levelo://app?vid=5d294ffb-4a38-4b2b-9b1c-1f9a4552f417","ios":"levelo://app?vid=5d294ffb-4a38-4b2b-9b1c-1f9a4552f417"},"vehicle_type_id":"4","last_reported":1778574650,"current_range_meters":7200,"station_id":"ce4bgup2rcd13ifvqcn0","pricing_plan_id":"cebpf4jnsgd1na2vs0mg"},{"bike_id":"8ac90312-2c01-46ae-81ea-3fc64f4c6704","system_id":"levelo_inurba_marseille","lat":43.29134,"lon":5.43262,"is_reserved":false,"is_disabled":false,"rental_uris":{"android":"levelo://app?vid=8ac90312-2c01-46ae-81ea-3fc64f4c6704","ios":"levelo://app?vid=8ac90312-2c01-46ae-81ea-3fc64f4c6704"},"vehicle_type_id":"4","last_reported":1778574650,"current_range_meters":7200,"station_id":"","pricing_plan_id":"cebpf4jnsgd1na2vs0mg"},{"bike_id":"b0899403-12f3-4cd6-8806-763e9d7b91d9","system_id":"levelo_inurba_marseille","lat":43.28975,"lon":5.37842,"is_reserved":false,"is_disabled":false,"rental_uris":{"android":"levelo://app?vid=b0899403-12f3-4cd6-8806-763e9d7b91d9","ios":"levelo://app?vid=b0899403-12f3-4cd6-8806-763e9d7b91d9"},"vehicle_type_id":"4","last_reported":1778574650,"current_range_meters":7200,"station_id":"ce4bh9p2rcd13ifvqed0","pricing_plan_id":"cebpf4jnsgd1na2vs0mg"},{"bike_id":"e0533caf-5167-4cc4-a900-fa21b7266447","system_id":"levelo_inurba_marseille","lat":43.25023,"lon":5.40366,"is_reserved":false,"is_disabled":false,"rental_uris":{"android":"levelo://app?vid=e0533caf-5167-4cc4-a900-fa21b7266447","ios":"levelo://app?vid=e0533caf-5167-4cc4-a900-fa21b7266447"},"vehicle_type_id":"4","last_reported":1778574650,"current_range_meters":7200,"station_id":"","pricing_plan_id":"cebpf4jnsgd1na2vs0mg"},{"bike_id":"7bee9ecd-0f3f-4d9c-8518-bd4a87e3d659","system_id":"levelo_inurba_marseille","lat":43.29033,"lon":5.42869,"is_reserved":false,"is_disabled":false,"rental_uris":{"android":"levelo://app?vid=7bee9ecd-0f3f-4d9c-8518-bd4a87e3d659","ios":"levelo://app?vid=7bee9ecd-0f3f-4d9c-8518-bd4a87e3d659"},"vehicle_type_id":"4","last_reported":1778574650,"current_range_meters":7200,"station_id":"","pricing_plan_id":"cebpf4jnsgd1na2vs0mg"},{"bike_id":"583c4ac3-3afb-4767-a094-b922f2a8b48f","system_id":"levelo_inurba_marseille","lat":43.25568,"lon":5.38248,"is_reserved":false,"is_disabled":false,"rental_uris":{"android":"levelo://app?vid=583c4ac3-3afb-4767-a094-b922f2a8b48f","ios":"levelo://app?vid=583c4ac3-3afb-4767-a094-b922f2a8b48f"},"vehicle_type_id":"4","last_reported":1778574650,"current_range_meters":8000,"station_id":"ce4bhih2rcd13ifvqfs0","pricing_plan_id":"cebpf4jnsgd1na2vs0mg"},{"bike_id":"f42967d2-489a-48e1-a27f-d69e989e14a1","system_id":"levelo_inurba_marseille","lat":43.31229,"lon":5.38076,"is_reserved":false,"is_disabled":true,"rental_uris":{"android":"levelo://app?vid=f42967d2-489a-48e1-a27f-d69e989e14a1","ios":"levelo://app?vid=f42967d2-489a-48e1-a27f-d69e989e14a1"},"vehicle_type_id":"4","last_reported":1778574650,"current_range_meters":8000,"station_id":"","pricing_plan_id":"cebpf4jnsgd1na2vs0mg"},{"bike_id":"987edb79-f48e-4888-a58b-a3ebcf579f3b","system_id":"levelo_inurba_marseille","lat":43.2997,"lon":5.37168,"is_reserved":false,"is_disabled":false,"rental_uris":{"android":"levelo://app?vid=987edb79-f48e-4888-a58b-a3ebcf579f3b","ios":"levelo://app?vid=987edb79-f48e-4888-a58b-a3ebcf579f3b"},"vehicle_type_id":"4","last_reported":1778574650,"current_range_meters":8000,"station_id":"ce4bgr92rcd13ifvqc7g","pricing_plan_id":"cebpf4jnsgd1na2vs0mg"},{"bike_id":"1e94d5e9-9326-446d-9872-25a43321da56","system_id":"levelo_inurba_marseille","lat":43.24202,"lon":5.39734,"is_reserved":false,"is_disabled":false,"rental_uris":{"android":"levelo://app?vid=1e94d5e9-9326-446d-9872-25a43321da56","ios":"levelo://app?vid=1e94d5e9-9326-446d-9872-25a43321da56"},"vehicle_type_id":"4","last_reported":1778574650,"current_range_meters":8000,"station_id":"ce4bhn12rcd13ifvqgpg","pricing_plan_id":"cebpf4jnsgd1na2vs0mg"},{"bike_id":"3c76494c-1a5c-469e-99c3-4d49cfb64688","system_id":"levelo_inurba_marseille","lat":43.23197,"lon":5.35551,"is_reserved":false,"is_disabled":false,"rental_uris":{"android":"levelo://app?vid=3c76494c-1a5c-469e-99c3-4d49cfb64688","ios":"levelo://app?vid=3c76494c-1a5c-469e-99c3-4d49cfb64688"},"vehicle_type_id":"4","last_reported":1778574650,"current_range_meters":8000,"station_id":"ce4bhu92rcd13ifvqi70","pricing_plan_id":"cebpf4jnsgd1na2vs0mg"},{"bike_id":"52a558e8-1ba1-4d3e-8069-da0c0776c4d2","system_id":"levelo_inurba_marseille","lat":43.28393,"lon":5.37507,"is_reserved":false,"is_disabled":false,"rental_uris":{"android":"levelo://app?vid=52a558e8-1ba1-4d3e-8069-da0c0776c4d2","ios":"levelo://app?vid=52a558e8-1ba1-4d3e-8069-da0c0776c4d2"},"vehicle_type_id":"4","last_reported":1778574650,"current_range_meters":8000,"station_id":"ce4bh412rcd13ifvqds0","pricing_plan_id":"cebpf4jnsgd1na2vs0mg"},{"bike_id":"ceeafaf3-2ad7-4859-8fdf-55f9b3c40610","system_id":"levelo_inurba_marseille","lat":43.29527,"lon":5.4178,"is_reserved":false,"is_disabled":false,"rental_uris":{"android":"levelo://app?vid=ceeafaf3-2ad7-4859-8fdf-55f9b3c40610","ios":"levelo://app?vid=ceeafaf3-2ad7-4859-8fdf-55f9b3c40610"},"vehicle_type_id":"4","last_reported":1778574650,"current_range_meters":8000,"station_id":"","pricing_plan_id":"cebpf4jnsgd1na2vs0mg"},{"bike_id":"619d97cf-55ae-484e-b35e-f5bbca0ed7c1","system_id":"levelo_inurba_marseille","lat":43.29979,"lon":5.37162,"is_reserved":false,"is_disabled":false,"rental_uris":{"android":"levelo://app?vid=619d97cf-55ae-484e-b35e-f5bbca0ed7c1","ios":"levelo://app?vid=619d97cf-55ae-484e-b35e-f5bbca0ed7c1"},"vehicle_type_id":"4","last_reported":1778574650,"current_range_meters":8000,"station_id":"ce4bgr92rcd13ifvqc7g","pricing_plan_id":"cebpf4jnsgd1na2vs0mg"},{"bike_id":"66bb778f-8cf8-4298-89d3-e698d2c68cf6","system_id":"levelo_inurba_marseille","lat":43.24556,"lon":5.39512,"is_reserved":false,"is_disabled":false,"rental_uris":{"android":"levelo://app?vid=66bb778f-8cf8-4298-89d3-e698d2c68cf6","ios":"levelo://app?vid=66bb778f-8cf8-4298-89d3-e698d2c68cf6"},"vehicle_type_id":"4","last_reported":1778574650,"current_range_meters":8000,"station_id":"ce4bhlp2rcd13ifvqgjg","pricing_plan_id":"cebpf4jnsgd1na2vs0mg"},{"bike_id":"ec2f4e67-3303-44df-81a8-5f2110905bb1","system_id":"levelo_inurba_marseille","lat":43.30893,"lon":5.37185,"is_reserved":false,"is_disabled":false,"rental_uris":{"android":"levelo://app?vid=ec2f4e67-3303-44df-81a8-5f2110905bb1","ios":"levelo://app?vid=ec2f4e67-3303-44df-81a8-5f2110905bb1"},"vehicle_type_id":"4","last_reported":1778574650,"current_range_meters":8000,"station_id":"ce4bguh2rcd13ifvqckg","pricing_plan_id":"cebpf4jnsgd1na2vs0mg"},{"bike_id":"7b3989c9-30d3-478a-9d85-24b30f0f59af","system_id":"levelo_inurba_marseille","lat":43.29602,"lon":5.37667,"is_reserved":false,"is_disabled":false,"rental_uris":{"android":"levelo://app?vid=7b3989c9-30d3-478a-9d85-24b30f0f59af","ios":"levelo://app?vid=7b3989c9-30d3-478a-9d85-24b30f0f59af"},"vehicle_type_id":"4","last_reported":1778574650,"current_range_meters":8000,"station_id":"ce4bgi92rcd13ifvqb90","pricing_plan_id":"cebpf4jnsgd1na2vs0mg"},{"bike_id":"4ac52704-5787-4b5a-a863-aece150acd5c","system_id":"levelo_inurba_marseille","lat":43.28149,"lon":5.42642,"is_reserved":false,"is_disabled":false,"rental_uris":{"android":"levelo://app?vid=4ac52704-5787-4b5a-a863-aece150acd5c","ios":"levelo://app?vid=4ac52704-5787-4b5a-a863-aece150acd5c"},"vehicle_type_id":"4","last_reported":1778574650,"current_range_meters":8000,"station_id":"ce4bhnh2rcd13ifvqgug","pricing_plan_id":"cebpf4jnsgd1na2vs0mg"},{"bike_id":"e2bd0b8a-f90b-4073-9c2d-96a86422e527","system_id":"levelo_inurba_marseille","lat":43.3019,"lon":5.38093,"is_reserved":false,"is_disabled":false,"rental_uris":{"android":"levelo://app?vid=e2bd0b8a-f90b-4073-9c2d-96a86422e527","ios":"levelo://app?vid=e2bd0b8a-f90b-4073-9c2d-96a86422e527"},"vehicle_type_id":"4","last_reported":1778574650,"current_range_meters":8000,"station_id":"ce4bgjp2rcd13ifvqbh0","pricing_plan_id":"cebpf4jnsgd1na2vs0mg"},{"bike_id":"a980af66-26ec-46d6-9015-d28b64804fc3","system_id":"levelo_inurba_marseille","lat":43.25084,"lon":5.39523,"is_reserved":false,"is_disabled":true,"rental_uris":{"android":"levelo://app?vid=a980af66-26ec-46d6-9015-d28b64804fc3","ios":"levelo://app?vid=a980af66-26ec-46d6-9015-d28b64804fc3"},"vehicle_type_id":"4","last_reported":1778574650,"current_range_meters":8000,"station_id":"ce4bhm12rcd13ifvqgkg","pricing_plan_id":"cebpf4jnsgd1na2vs0mg"},{"bike_id":"5cc94577-0649-44a9-8cbd-f0006009e125","system_id":"levelo_inurba_marseille","lat":43.24647,"lon":5.3818,"is_reserved":false,"is_disabled":false,"rental_uris":{"android":"levelo://app?vid=5cc94577-0649-44a9-8cbd-f0006009e125","ios":"levelo://app?vid=5cc94577-0649-44a9-8cbd-f0006009e125"},"vehicle_type_id":"4","last_reported":1778574650,"current_range_meters":8000,"station_id":"ce4bhih2rcd13ifvqfr0","pricing_plan_id":"cebpf4jnsgd1na2vs0mg"},{"bike_id":"01259aad-3345-491f-a9ee-3d154e26f91b","system_id":"levelo_inurba_marseille","lat":43.30139,"lon":5.37443,"is_reserved":false,"is_disabled":false,"rental_uris":{"android":"levelo://app?vid=01259aad-3345-491f-a9ee-3d154e26f91b","ios":"levelo://app?vid=01259aad-3345-491f-a9ee-3d154e26f91b"},"vehicle_type_id":"4","last_reported":1778574650,"current_range_meters":8000,"station_id":"ce4bgs92rcd13ifvqcc0","pricing_plan_id":"cebpf4jnsgd1na2vs0mg"},{"bike_id":"e297f7f9-65e1-464b-8b9e-ff07e4e99150","system_id":"levelo_inurba_marseille","lat":43.28941,"lon":5.36388,"is_reserved":false,"is_disabled":false,"rental_uris":{"android":"levelo://app?vid=e297f7f9-65e1-464b-8b9e-ff07e4e99150","ios":"levelo://app?vid=e297f7f9-65e1-464b-8b9e-ff07e4e99150"},"vehicle_type_id":"4","last_reported":1778574650,"current_range_meters":8000,"station_id":"ce4bhc92rcd13ifvqetg","pricing_plan_id":"cebpf4jnsgd1na2vs0mg"},{"bike_id":"a838fbdc-42d4-4bf7-817d-82098143b473","system_id":"levelo_inurba_marseille","lat":43.29023,"lon":5.38648,"is_reserved":false,"is_disabled":false,"rental_uris":{"android":"levelo://app?vid=a838fbdc-42d4-4bf7-817d-82098143b473","ios":"levelo://app?vid=a838fbdc-42d4-4bf7-817d-82098143b473"},"vehicle_type_id":"4","last_reported":1778574650,"current_range_meters":8000,"station_id":"ce4bh4p2rcd13ifvqe0g","pricing_plan_id":"cebpf4jnsgd1na2vs0mg"},{"bike_id":"f75d28c1-7e0c-4a8e-87af-765be15410e4","system_id":"levelo_inurba_marseille","lat":43.31931,"lon":5.36814,"is_reserved":false,"is_disabled":false,"rental_uris":{"android":"levelo://app?vid=f75d28c1-7e0c-4a8e-87af-765be15410e4","ios":"levelo://app?vid=f75d28c1-7e0c-4a8e-87af-765be15410e4"},"vehicle_type_id":"4","last_reported":1778574650,"current_range_meters":8000,"station_id":"st_d6o2h0d0559c73evc1b0","pricing_plan_id":"cebpf4jnsgd1na2vs0mg"},{"bike_id":"b7f9525e-0c31-4283-82b1-db68c59804fa","system_id":"levelo_inurba_marseille","lat":43.29253,"lon":5.37638,"is_reserved":false,"is_disabled":false,"rental_uris":{"android":"levelo://app?vid=b7f9525e-0c31-4283-82b1-db68c59804fa","ios":"levelo://app?vid=b7f9525e-0c31-4283-82b1-db68c59804fa"},"vehicle_type_id":"4","last_reported":1778574650,"current_range_meters":8000,"station_id":"ce4bgi12rcd13ifvqb80","pricing_plan_id":"cebpf4jnsgd1na2vs0mg"},{"bike_id":"17e9e249-9188-48ea-abc5-3986d5c6bf0f","system_id":"levelo_inurba_marseille","lat":43.2677,"lon":5.39488,"is_reserved":false,"is_disabled":true,"rental_uris":{"android":"levelo://app?vid=17e9e249-9188-48ea-abc5-3986d5c6bf0f","ios":"levelo://app?vid=17e9e249-9188-48ea-abc5-3986d5c6bf0f"},"vehicle_type_id":"4","last_reported":1778574650,"current_range_meters":8400,"station_id":"ce4bhh12rcd13ifvqfg0","pricing_plan_id":"cebpf4jnsgd1na2vs0mg"},{"bike_id":"fed689bc-68c9-494e-accf-e98591bbff15","system_id":"levelo_inurba_marseille","lat":43.29309,"lon":5.37454,"is_reserved":false,"is_disabled":false,"rental_uris":{"android":"levelo://app?vid=fed689bc-68c9-494e-accf-e98591bbff15","ios":"levelo://app?vid=fed689bc-68c9-494e-accf-e98591bbff15"},"vehicle_type_id":"4","last_reported":1778574650,"current_range_meters":8400,"station_id":"ce4bgi12rcd13ifvqb70","pricing_plan_id":"cebpf4jnsgd1na2vs0mg"},{"bike_id":"766a1ab2-c7de-4292-a25e-5bf5bdfd5bcd","system_id":"levelo_inurba_marseille","lat":43.26952,"lon":5.38631,"is_reserved":false,"is_disabled":false,"rental_uris":{"android":"levelo://app?vid=766a1ab2-c7de-4292-a25e-5bf5bdfd5bcd","ios":"levelo://app?vid=766a1ab2-c7de-4292-a25e-5bf5bdfd5bcd"},"vehicle_type_id":"4","last_reported":1778574650,"current_range_meters":8400,"station_id":"ce4bhh92rcd13ifvqfh0","pricing_plan_id":"cebpf4jnsgd1na2vs0mg"},{"bike_id":"9fa89428-5f35-4918-8886-c28995319b63","system_id":"levelo_inurba_marseille","lat":43.30157,"lon":5.37412,"is_reserved":false,"is_disabled":false,"rental_uris":{"android":"levelo://app?vid=9fa89428-5f35-4918-8886-c28995319b63","ios":"levelo://app?vid=9fa89428-5f35-4918-8886-c28995319b63"},"vehicle_type_id":"4","last_reported":1778574650,"current_range_meters":8400,"station_id":"ce4bgs92rcd13ifvqcc0","pricing_plan_id":"cebpf4jnsgd1na2vs0mg"},{"bike_id":"572a5a70-904f-4afa-ab5e-386f5eb22639","system_id":"levelo_inurba_marseille","lat":43.276038,"lon":5.361035,"is_reserved":false,"is_disabled":false,"rental_uris":{"android":"levelo://app?vid=572a5a70-904f-4afa-ab5e-386f5eb22639","ios":"levelo://app?vid=572a5a70-904f-4afa-ab5e-386f5eb22639"},"vehicle_type_id":"4","last_reported":1778574650,"current_range_meters":8400,"station_id":"ce4bgj92rcd13ifvqbe0","pricing_plan_id":"cebpf4jnsgd1na2vs0mg"},{"bike_id":"2dd86418-da26-4841-98f0-8416efd2cd87","system_id":"levelo_inurba_marseille","lat":43.30314,"lon":5.36894,"is_reserved":false,"is_disabled":false,"rental_uris":{"android":"levelo://app?vid=2dd86418-da26-4841-98f0-8416efd2cd87","ios":"levelo://app?vid=2dd86418-da26-4841-98f0-8416efd2cd87"},"vehicle_type_id":"4","last_reported":1778574650,"current_range_meters":8400,"station_id":"ce4bgqh2rcd13ifvqc5g","pricing_plan_id":"cebpf4jnsgd1na2vs0mg"},{"bike_id":"b25c5178-1fc7-49e2-a1ac-746a3aee6c36","system_id":"levelo_inurba_marseille","lat":43.30553,"lon":5.36514,"is_reserved":false,"is_disabled":false,"rental_uris":{"android":"levelo://app?vid=b25c5178-1fc7-49e2-a1ac-746a3aee6c36","ios":"levelo://app?vid=b25c5178-1fc7-49e2-a1ac-746a3aee6c36"},"vehicle_type_id":"4","last_reported":1778574650,"current_range_meters":8400,"station_id":"ce4bgs12rcd13ifvqcag","pricing_plan_id":"cebpf4jnsgd1na2vs0mg"},{"bike_id":"af333729-bb00-46c1-8563-477891dcd1e4","system_id":"levelo_inurba_marseille","lat":43.27986,"lon":5.41659,"is_reserved":false,"is_disabled":false,"rental_uris":{"android":"levelo://app?vid=af333729-bb00-46c1-8563-477891dcd1e4","ios":"levelo://app?vid=af333729-bb00-46c1-8563-477891dcd1e4"},"vehicle_type_id":"4","last_reported":1778574650,"current_range_meters":8400,"station_id":"ce4bho12rcd13ifvqh1g","pricing_plan_id":"cebpf4jnsgd1na2vs0mg"},{"bike_id":"c76061b1-7b1f-41cf-86ee-0965daee53ec","system_id":"levelo_inurba_marseille","lat":43.295743,"lon":5.397636,"is_reserved":false,"is_disabled":true,"rental_uris":{"android":"levelo://app?vid=c76061b1-7b1f-41cf-86ee-0965daee53ec","ios":"levelo://app?vid=c76061b1-7b1f-41cf-86ee-0965daee53ec"},"vehicle_type_id":"4","last_reported":1778574650,"current_range_meters":8400,"station_id":"","pricing_plan_id":"cebpf4jnsgd1na2vs0mg"},{"bike_id":"d2a203f0-02e6-4499-9b24-150d7665b516","system_id":"levelo_inurba_marseille","lat":43.3075,"lon":5.42441,"is_reserved":false,"is_disabled":false,"rental_uris":{"android":"levelo://app?vid=d2a203f0-02e6-4499-9b24-150d7665b516","ios":"levelo://app?vid=d2a203f0-02e6-4499-9b24-150d7665b516"},"vehicle_type_id":"4","last_reported":1778574650,"current_range_meters":8400,"station_id":"st_cvj6ca6bvosntc0bfgr0","pricing_plan_id":"cebpf4jnsgd1na2vs0mg"},{"bike_id":"e774eeeb-cf86-44e2-8f96-d4bd89592223","system_id":"levelo_inurba_marseille","lat":43.32808,"lon":5.42645,"is_reserved":false,"is_disabled":false,"rental_uris":{"android":"levelo://app?vid=e774eeeb-cf86-44e2-8f96-d4bd89592223","ios":"levelo://app?vid=e774eeeb-cf86-44e2-8f96-d4bd89592223"},"vehicle_type_id":"4","last_reported":1778574650,"current_range_meters":8400,"station_id":"","pricing_plan_id":"cebpf4jnsgd1na2vs0mg"},{"bike_id":"57edd341-d888-41ec-b097-38befa53a77c","system_id":"levelo_inurba_marseille","lat":43.31219,"lon":5.36865,"is_reserved":false,"is_disabled":false,"rental_uris":{"android":"levelo://app?vid=57edd341-d888-41ec-b097-38befa53a77c","ios":"levelo://app?vid=57edd341-d888-41ec-b097-38befa53a77c"},"vehicle_type_id":"4","last_reported":1778574650,"current_range_meters":8400,"station_id":"ce4bgl92rcd13ifvqbq0","pricing_plan_id":"cebpf4jnsgd1na2vs0mg"},{"bike_id":"8ad3eb67-25ae-42ac-aeaa-7537ff8174ee","system_id":"levelo_inurba_marseille","lat":43.27537,"lon":5.41569,"is_reserved":false,"is_disabled":true,"rental_uris":{"android":"levelo://app?vid=8ad3eb67-25ae-42ac-aeaa-7537ff8174ee","ios":"levelo://app?vid=8ad3eb67-25ae-42ac-aeaa-7537ff8174ee"},"vehicle_type_id":"4","last_reported":1778574650,"current_range_meters":8400,"station_id":"st_d6im8g6chgec73a5pndg","pricing_plan_id":"cebpf4jnsgd1na2vs0mg"},{"bike_id":"0612db24-bd8f-45be-839f-d024e697b0db","system_id":"levelo_inurba_marseille","lat":43.27197,"lon":5.39189,"is_reserved":false,"is_disabled":false,"rental_uris":{"android":"levelo://app?vid=0612db24-bd8f-45be-839f-d024e697b0db","ios":"levelo://app?vid=0612db24-bd8f-45be-839f-d024e697b0db"},"vehicle_type_id":"4","last_reported":1778574650,"current_range_meters":8400,"station_id":"ce4bhhp2rcd13ifvqfm0","pricing_plan_id":"cebpf4jnsgd1na2vs0mg"},{"bike_id":"853b2d67-7876-41c6-9b08-674a7c8a07be","system_id":"levelo_inurba_marseille","lat":43.29621,"lon":5.37165,"is_reserved":false,"is_disabled":false,"rental_uris":{"android":"levelo://app?vid=853b2d67-7876-41c6-9b08-674a7c8a07be","ios":"levelo://app?vid=853b2d67-7876-41c6-9b08-674a7c8a07be"},"vehicle_type_id":"4","last_reported":1778574650,"current_range_meters":8400,"station_id":"ce4bgnh2rcd13ifvqc0g","pricing_plan_id":"cebpf4jnsgd1na2vs0mg"},{"bike_id":"8243da91-bdef-49cf-aed5-d43ef7eebc6b","system_id":"levelo_inurba_marseille","lat":43.30527,"lon":5.36535,"is_reserved":false,"is_disabled":false,"rental_uris":{"android":"levelo://app?vid=8243da91-bdef-49cf-aed5-d43ef7eebc6b","ios":"levelo://app?vid=8243da91-bdef-49cf-aed5-d43ef7eebc6b"},"vehicle_type_id":"4","last_reported":1778574650,"current_range_meters":8400,"station_id":"ce4bgs12rcd13ifvqcag","pricing_plan_id":"cebpf4jnsgd1na2vs0mg"},{"bike_id":"2a5c198c-c87f-4a70-8ef8-fea39b6da84b","system_id":"levelo_inurba_marseille","lat":43.2621,"lon":5.40356,"is_reserved":false,"is_disabled":false,"rental_uris":{"android":"levelo://app?vid=2a5c198c-c87f-4a70-8ef8-fea39b6da84b","ios":"levelo://app?vid=2a5c198c-c87f-4a70-8ef8-fea39b6da84b"},"vehicle_type_id":"4","last_reported":1778574650,"current_range_meters":8800,"station_id":"","pricing_plan_id":"cebpf4jnsgd1na2vs0mg"},{"bike_id":"f209b9a5-3c03-46d3-b4cb-50d8bea9bc90","system_id":"levelo_inurba_marseille","lat":43.28869,"lon":5.42512,"is_reserved":false,"is_disabled":false,"rental_uris":{"android":"levelo://app?vid=f209b9a5-3c03-46d3-b4cb-50d8bea9bc90","ios":"levelo://app?vid=f209b9a5-3c03-46d3-b4cb-50d8bea9bc90"},"vehicle_type_id":"4","last_reported":1778574650,"current_range_meters":8800,"station_id":"st_d3b462108ojc7389ooeg","pricing_plan_id":"cebpf4jnsgd1na2vs0mg"},{"bike_id":"83b4e956-a226-4b04-ad72-ece3a722f6d5","system_id":"levelo_inurba_marseille","lat":43.30552,"lon":5.36512,"is_reserved":false,"is_disabled":false,"rental_uris":{"android":"levelo://app?vid=83b4e956-a226-4b04-ad72-ece3a722f6d5","ios":"levelo://app?vid=83b4e956-a226-4b04-ad72-ece3a722f6d5"},"vehicle_type_id":"4","last_reported":1778574650,"current_range_meters":8800,"station_id":"ce4bgs12rcd13ifvqcag","pricing_plan_id":"cebpf4jnsgd1na2vs0mg"},{"bike_id":"a614b5e3-1c0c-42d4-8996-d30e96b6f1df","system_id":"levelo_inurba_marseille","lat":43.32345,"lon":5.36544,"is_reserved":false,"is_disabled":false,"rental_uris":{"android":"levelo://app?vid=a614b5e3-1c0c-42d4-8996-d30e96b6f1df","ios":"levelo://app?vid=a614b5e3-1c0c-42d4-8996-d30e96b6f1df"},"vehicle_type_id":"4","last_reported":1778574650,"current_range_meters":8800,"station_id":"","pricing_plan_id":"cebpf4jnsgd1na2vs0mg"},{"bike_id":"f7e4b7f6-96a2-4328-9205-90a5366b3ade","system_id":"levelo_inurba_marseille","lat":43.28175,"lon":5.42624,"is_reserved":false,"is_disabled":false,"rental_uris":{"android":"levelo://app?vid=f7e4b7f6-96a2-4328-9205-90a5366b3ade","ios":"levelo://app?vid=f7e4b7f6-96a2-4328-9205-90a5366b3ade"},"vehicle_type_id":"4","last_reported":1778574650,"current_range_meters":8800,"station_id":"ce4bhnh2rcd13ifvqgug","pricing_plan_id":"cebpf4jnsgd1na2vs0mg"},{"bike_id":"e85fd643-a216-4146-ac89-85427551101a","system_id":"levelo_inurba_marseille","lat":43.27591,"lon":5.39657,"is_reserved":false,"is_disabled":false,"rental_uris":{"android":"levelo://app?vid=e85fd643-a216-4146-ac89-85427551101a","ios":"levelo://app?vid=e85fd643-a216-4146-ac89-85427551101a"},"vehicle_type_id":"4","last_reported":1778574650,"current_range_meters":8800,"station_id":"","pricing_plan_id":"cebpf4jnsgd1na2vs0mg"},{"bike_id":"61a4cded-8747-492c-b087-c1d39a0de75b","system_id":"levelo_inurba_marseille","lat":43.29297,"lon":5.36847,"is_reserved":false,"is_disabled":false,"rental_uris":{"android":"levelo://app?vid=61a4cded-8747-492c-b087-c1d39a0de75b","ios":"levelo://app?vid=61a4cded-8747-492c-b087-c1d39a0de75b"},"vehicle_type_id":"4","last_reported":1778574650,"current_range_meters":8800,"station_id":"ce4bhbp2rcd13ifvqesg","pricing_plan_id":"cebpf4jnsgd1na2vs0mg"},{"bike_id":"9a3fc238-bafd-4770-873e-737bfc6610a8","system_id":"levelo_inurba_marseille","lat":43.30465,"lon":5.37901,"is_reserved":false,"is_disabled":false,"rental_uris":{"android":"levelo://app?vid=9a3fc238-bafd-4770-873e-737bfc6610a8","ios":"levelo://app?vid=9a3fc238-bafd-4770-873e-737bfc6610a8"},"vehicle_type_id":"4","last_reported":1778574650,"current_range_meters":8800,"station_id":"ce4bgup2rcd13ifvqcn0","pricing_plan_id":"cebpf4jnsgd1na2vs0mg"},{"bike_id":"655bd989-1244-44b8-b25e-c938beb071a3","system_id":"levelo_inurba_marseille","lat":43.29932,"lon":5.37887,"is_reserved":false,"is_disabled":false,"rental_uris":{"android":"levelo://app?vid=655bd989-1244-44b8-b25e-c938beb071a3","ios":"levelo://app?vid=655bd989-1244-44b8-b25e-c938beb071a3"},"vehicle_type_id":"4","last_reported":1778574650,"current_range_meters":8800,"station_id":"","pricing_plan_id":"cebpf4jnsgd1na2vs0mg"},{"bike_id":"7ccc4bc4-f807-4740-995d-5cc6b7b50bc2","system_id":"levelo_inurba_marseille","lat":43.26553,"lon":5.37304,"is_reserved":false,"is_disabled":false,"rental_uris":{"android":"levelo://app?vid=7ccc4bc4-f807-4740-995d-5cc6b7b50bc2","ios":"levelo://app?vid=7ccc4bc4-f807-4740-995d-5cc6b7b50bc2"},"vehicle_type_id":"4","last_reported":1778574650,"current_range_meters":8800,"station_id":"ce4bhg12rcd13ifvqf70","pricing_plan_id":"cebpf4jnsgd1na2vs0mg"},{"bike_id":"115b6a2a-9ef2-47ce-a0c9-1da549c50257","system_id":"levelo_inurba_marseille","lat":43.2867,"lon":5.36336,"is_reserved":false,"is_disabled":false,"rental_uris":{"android":"levelo://app?vid=115b6a2a-9ef2-47ce-a0c9-1da549c50257","ios":"levelo://app?vid=115b6a2a-9ef2-47ce-a0c9-1da549c50257"},"vehicle_type_id":"4","last_reported":1778574650,"current_range_meters":8800,"station_id":"ce4bhah2rcd13ifvqej0","pricing_plan_id":"cebpf4jnsgd1na2vs0mg"},{"bike_id":"dd3c58b4-525a-4a6d-a04b-9b1a0e8962a1","system_id":"levelo_inurba_marseille","lat":43.30565,"lon":5.36508,"is_reserved":false,"is_disabled":false,"rental_uris":{"android":"levelo://app?vid=dd3c58b4-525a-4a6d-a04b-9b1a0e8962a1","ios":"levelo://app?vid=dd3c58b4-525a-4a6d-a04b-9b1a0e8962a1"},"vehicle_type_id":"4","last_reported":1778574650,"current_range_meters":8800,"station_id":"ce4bgs12rcd13ifvqcag","pricing_plan_id":"cebpf4jnsgd1na2vs0mg"},{"bike_id":"d64c8834-979e-41ca-80b0-1ed7ab29ed89","system_id":"levelo_inurba_marseille","lat":43.29002,"lon":5.35619,"is_reserved":false,"is_disabled":false,"rental_uris":{"android":"levelo://app?vid=d64c8834-979e-41ca-80b0-1ed7ab29ed89","ios":"levelo://app?vid=d64c8834-979e-41ca-80b0-1ed7ab29ed89"},"vehicle_type_id":"4","last_reported":1778574650,"current_range_meters":8800,"station_id":"ce4bhb92rcd13ifvqen0","pricing_plan_id":"cebpf4jnsgd1na2vs0mg"},{"bike_id":"7d7cf70b-bb53-42d8-8600-2b2259e13653","system_id":"levelo_inurba_marseille","lat":43.26193,"lon":5.3747,"is_reserved":false,"is_disabled":true,"rental_uris":{"android":"levelo://app?vid=7d7cf70b-bb53-42d8-8600-2b2259e13653","ios":"levelo://app?vid=7d7cf70b-bb53-42d8-8600-2b2259e13653"},"vehicle_type_id":"4","last_reported":1778574650,"current_range_meters":8800,"station_id":"ce4bhgp2rcd13ifvqfc0","pricing_plan_id":"cebpf4jnsgd1na2vs0mg"},{"bike_id":"2a4f1912-4773-4ce4-a303-9026cf9b67ff","system_id":"levelo_inurba_marseille","lat":43.24811,"lon":5.37457,"is_reserved":false,"is_disabled":false,"rental_uris":{"android":"levelo://app?vid=2a4f1912-4773-4ce4-a303-9026cf9b67ff","ios":"levelo://app?vid=2a4f1912-4773-4ce4-a303-9026cf9b67ff"},"vehicle_type_id":"4","last_reported":1778574650,"current_range_meters":8800,"station_id":"ce4bhgh2rcd13ifvqfb0","pricing_plan_id":"cebpf4jnsgd1na2vs0mg"},{"bike_id":"140865bf-2681-4f73-9f7d-3ac57bac849b","system_id":"levelo_inurba_marseille","lat":43.32351,"lon":5.36722,"is_reserved":false,"is_disabled":false,"rental_uris":{"android":"levelo://app?vid=140865bf-2681-4f73-9f7d-3ac57bac849b","ios":"levelo://app?vid=140865bf-2681-4f73-9f7d-3ac57bac849b"},"vehicle_type_id":"4","last_reported":1778574650,"current_range_meters":8800,"station_id":"ce4bhsh2rcd13ifvqi2g","pricing_plan_id":"cebpf4jnsgd1na2vs0mg"},{"bike_id":"b633e05e-7769-4c66-b250-db451a62ab5d","system_id":"levelo_inurba_marseille","lat":43.29027,"lon":5.37566,"is_reserved":false,"is_disabled":false,"rental_uris":{"android":"levelo://app?vid=b633e05e-7769-4c66-b250-db451a62ab5d","ios":"levelo://app?vid=b633e05e-7769-4c66-b250-db451a62ab5d"},"vehicle_type_id":"4","last_reported":1778574650,"current_range_meters":8800,"station_id":"ce4bh692rcd13ifvqe90","pricing_plan_id":"cebpf4jnsgd1na2vs0mg"},{"bike_id":"1861abd2-41ef-4621-96d8-6c0698ce45f8","system_id":"levelo_inurba_marseille","lat":43.29034,"lon":5.39957,"is_reserved":false,"is_disabled":false,"rental_uris":{"android":"levelo://app?vid=1861abd2-41ef-4621-96d8-6c0698ce45f8","ios":"levelo://app?vid=1861abd2-41ef-4621-96d8-6c0698ce45f8"},"vehicle_type_id":"4","last_reported":1778574650,"current_range_meters":8800,"station_id":"ce4bh392rcd13ifvqdm0","pricing_plan_id":"cebpf4jnsgd1na2vs0mg"},{"bike_id":"fe2bd798-e131-4253-9a91-12b276fdabb3","system_id":"levelo_inurba_marseille","lat":43.2621,"lon":5.40448,"is_reserved":false,"is_disabled":false,"rental_uris":{"android":"levelo://app?vid=fe2bd798-e131-4253-9a91-12b276fdabb3","ios":"levelo://app?vid=fe2bd798-e131-4253-9a91-12b276fdabb3"},"vehicle_type_id":"4","last_reported":1778574650,"current_range_meters":8800,"station_id":"ce4bhmh2rcd13ifvqgmg","pricing_plan_id":"cebpf4jnsgd1na2vs0mg"},{"bike_id":"448ef748-7f50-4d21-b1a2-2d8508f0dcfd","system_id":"levelo_inurba_marseille","lat":43.30314,"lon":5.36896,"is_reserved":false,"is_disabled":false,"rental_uris":{"android":"levelo://app?vid=448ef748-7f50-4d21-b1a2-2d8508f0dcfd","ios":"levelo://app?vid=448ef748-7f50-4d21-b1a2-2d8508f0dcfd"},"vehicle_type_id":"4","last_reported":1778574650,"current_range_meters":8800,"station_id":"ce4bgqh2rcd13ifvqc5g","pricing_plan_id":"cebpf4jnsgd1na2vs0mg"},{"bike_id":"bd07958f-9339-43ca-ad09-bba8c0f66555","system_id":"levelo_inurba_marseille","lat":43.29273,"lon":5.4014,"is_reserved":false,"is_disabled":false,"rental_uris":{"android":"levelo://app?vid=bd07958f-9339-43ca-ad09-bba8c0f66555","ios":"levelo://app?vid=bd07958f-9339-43ca-ad09-bba8c0f66555"},"vehicle_type_id":"4","last_reported":1778574650,"current_range_meters":8800,"station_id":"ce4bh312rcd13ifvqdk0","pricing_plan_id":"cebpf4jnsgd1na2vs0mg"},{"bike_id":"ce06755b-a2df-4f8c-a7e8-4119a62ba8c8","system_id":"levelo_inurba_marseille","lat":43.29514,"lon":5.39413,"is_reserved":false,"is_disabled":false,"rental_uris":{"android":"levelo://app?vid=ce06755b-a2df-4f8c-a7e8-4119a62ba8c8","ios":"levelo://app?vid=ce06755b-a2df-4f8c-a7e8-4119a62ba8c8"},"vehicle_type_id":"4","last_reported":1778574650,"current_range_meters":8800,"station_id":"ce4bh292rcd13ifvqdf0","pricing_plan_id":"cebpf4jnsgd1na2vs0mg"},{"bike_id":"74e0a44c-d0f2-4834-a2d1-c876a9884eca","system_id":"levelo_inurba_marseille","lat":43.299713,"lon":5.37188,"is_reserved":false,"is_disabled":false,"rental_uris":{"android":"levelo://app?vid=74e0a44c-d0f2-4834-a2d1-c876a9884eca","ios":"levelo://app?vid=74e0a44c-d0f2-4834-a2d1-c876a9884eca"},"vehicle_type_id":"4","last_reported":1778574650,"current_range_meters":9200,"station_id":"ce4bgr92rcd13ifvqc7g","pricing_plan_id":"cebpf4jnsgd1na2vs0mg"},{"bike_id":"00c79308-e85e-424a-9d2f-1d11cdf27f89","system_id":"levelo_inurba_marseille","lat":43.25828,"lon":5.39427,"is_reserved":false,"is_disabled":false,"rental_uris":{"android":"levelo://app?vid=00c79308-e85e-424a-9d2f-1d11cdf27f89","ios":"levelo://app?vid=00c79308-e85e-424a-9d2f-1d11cdf27f89"},"vehicle_type_id":"4","last_reported":1778574650,"current_range_meters":9200,"station_id":"ce4bhip2rcd13ifvqft0","pricing_plan_id":"cebpf4jnsgd1na2vs0mg"},{"bike_id":"84a66c0f-ff83-494e-8916-baeeb17d80cc","system_id":"levelo_inurba_marseille","lat":43.22562,"lon":5.41622,"is_reserved":false,"is_disabled":false,"rental_uris":{"android":"levelo://app?vid=84a66c0f-ff83-494e-8916-baeeb17d80cc","ios":"levelo://app?vid=84a66c0f-ff83-494e-8916-baeeb17d80cc"},"vehicle_type_id":"4","last_reported":1778574650,"current_range_meters":9200,"station_id":"st_d2o4gvlbi1j2169b742g","pricing_plan_id":"cebpf4jnsgd1na2vs0mg"},{"bike_id":"64ee45dd-613c-4cbd-9cb3-69f3bf82e757","system_id":"levelo_inurba_marseille","lat":43.31145,"lon":5.36917,"is_reserved":false,"is_disabled":false,"rental_uris":{"android":"levelo://app?vid=64ee45dd-613c-4cbd-9cb3-69f3bf82e757","ios":"levelo://app?vid=64ee45dd-613c-4cbd-9cb3-69f3bf82e757"},"vehicle_type_id":"4","last_reported":1778574650,"current_range_meters":9200,"station_id":"ce4bgl92rcd13ifvqbq0","pricing_plan_id":"cebpf4jnsgd1na2vs0mg"},{"bike_id":"351fdcba-a5da-427b-b8e8-b7a9be4aef7a","system_id":"levelo_inurba_marseille","lat":43.289491,"lon":5.364015,"is_reserved":false,"is_disabled":false,"rental_uris":{"android":"levelo://app?vid=351fdcba-a5da-427b-b8e8-b7a9be4aef7a","ios":"levelo://app?vid=351fdcba-a5da-427b-b8e8-b7a9be4aef7a"},"vehicle_type_id":"4","last_reported":1778574650,"current_range_meters":9200,"station_id":"ce4bhc92rcd13ifvqetg","pricing_plan_id":"cebpf4jnsgd1na2vs0mg"},{"bike_id":"6515adce-c1de-4083-bac8-1d05e04ed7a3","system_id":"levelo_inurba_marseille","lat":43.225297,"lon":5.34839,"is_reserved":false,"is_disabled":true,"rental_uris":{"android":"levelo://app?vid=6515adce-c1de-4083-bac8-1d05e04ed7a3","ios":"levelo://app?vid=6515adce-c1de-4083-bac8-1d05e04ed7a3"},"vehicle_type_id":"4","last_reported":1778574650,"current_range_meters":9200,"station_id":"st_cvj5dfep6f1abm77gieg","pricing_plan_id":"cebpf4jnsgd1na2vs0mg"},{"bike_id":"624a7515-296d-483b-b0e7-0939d1d080a5","system_id":"levelo_inurba_marseille","lat":43.2963,"lon":5.37723,"is_reserved":false,"is_disabled":false,"rental_uris":{"android":"levelo://app?vid=624a7515-296d-483b-b0e7-0939d1d080a5","ios":"levelo://app?vid=624a7515-296d-483b-b0e7-0939d1d080a5"},"vehicle_type_id":"4","last_reported":1778574650,"current_range_meters":9200,"station_id":"ce4bgi92rcd13ifvqb90","pricing_plan_id":"cebpf4jnsgd1na2vs0mg"},{"bike_id":"936901ad-6e68-4305-b3c7-b36f19fa6578","system_id":"levelo_inurba_marseille","lat":43.28205,"lon":5.39037,"is_reserved":false,"is_disabled":false,"rental_uris":{"android":"levelo://app?vid=936901ad-6e68-4305-b3c7-b36f19fa6578","ios":"levelo://app?vid=936901ad-6e68-4305-b3c7-b36f19fa6578"},"vehicle_type_id":"4","last_reported":1778574650,"current_range_meters":9200,"station_id":"ce4bhn92rcd13ifvqgsg","pricing_plan_id":"cebpf4jnsgd1na2vs0mg"},{"bike_id":"53672521-2ed1-48ef-bb6b-93f7b90eca33","system_id":"levelo_inurba_marseille","lat":43.31743,"lon":5.37546,"is_reserved":false,"is_disabled":true,"rental_uris":{"android":"levelo://app?vid=53672521-2ed1-48ef-bb6b-93f7b90eca33","ios":"levelo://app?vid=53672521-2ed1-48ef-bb6b-93f7b90eca33"},"vehicle_type_id":"4","last_reported":1778574650,"current_range_meters":9200,"station_id":"","pricing_plan_id":"cebpf4jnsgd1na2vs0mg"},{"bike_id":"c63c0e0f-fb42-4777-bb3c-17cc5926ddbf","system_id":"levelo_inurba_marseille","lat":43.28704,"lon":5.46688,"is_reserved":false,"is_disabled":false,"rental_uris":{"android":"levelo://app?vid=c63c0e0f-fb42-4777-bb3c-17cc5926ddbf","ios":"levelo://app?vid=c63c0e0f-fb42-4777-bb3c-17cc5926ddbf"},"vehicle_type_id":"4","last_reported":1778574650,"current_range_meters":9200,"station_id":"st_d6tc3vkotcvc738tfjhg","pricing_plan_id":"cebpf4jnsgd1na2vs0mg"},{"bike_id":"de5496f5-01c8-49a7-82e4-ae55863a6030","system_id":"levelo_inurba_marseille","lat":43.24064,"lon":5.37736,"is_reserved":false,"is_disabled":false,"rental_uris":{"android":"levelo://app?vid=de5496f5-01c8-49a7-82e4-ae55863a6030","ios":"levelo://app?vid=de5496f5-01c8-49a7-82e4-ae55863a6030"},"vehicle_type_id":"4","last_reported":1778574650,"current_range_meters":9200,"station_id":"ce4bhnp2rcd13ifvqgvg","pricing_plan_id":"cebpf4jnsgd1na2vs0mg"},{"bike_id":"c82e9511-dc71-48bc-961b-1059ed3e4834","system_id":"levelo_inurba_marseille","lat":43.26558,"lon":5.40323,"is_reserved":false,"is_disabled":false,"rental_uris":{"android":"levelo://app?vid=c82e9511-dc71-48bc-961b-1059ed3e4834","ios":"levelo://app?vid=c82e9511-dc71-48bc-961b-1059ed3e4834"},"vehicle_type_id":"4","last_reported":1778574650,"current_range_meters":9200,"station_id":"ce4bhmp2rcd13ifvqgng","pricing_plan_id":"cebpf4jnsgd1na2vs0mg"},{"bike_id":"a3d6308b-3dff-445c-a2bf-5f79ba74137f","system_id":"levelo_inurba_marseille","lat":43.30888,"lon":5.37202,"is_reserved":false,"is_disabled":false,"rental_uris":{"android":"levelo://app?vid=a3d6308b-3dff-445c-a2bf-5f79ba74137f","ios":"levelo://app?vid=a3d6308b-3dff-445c-a2bf-5f79ba74137f"},"vehicle_type_id":"4","last_reported":1778574650,"current_range_meters":9200,"station_id":"ce4bguh2rcd13ifvqckg","pricing_plan_id":"cebpf4jnsgd1na2vs0mg"},{"bike_id":"21dddfb9-a2ac-40f3-92f4-b84c5ccd2416","system_id":"levelo_inurba_marseille","lat":43.29585,"lon":5.36741,"is_reserved":false,"is_disabled":false,"rental_uris":{"android":"levelo://app?vid=21dddfb9-a2ac-40f3-92f4-b84c5ccd2416","ios":"levelo://app?vid=21dddfb9-a2ac-40f3-92f4-b84c5ccd2416"},"vehicle_type_id":"4","last_reported":1778574650,"current_range_meters":9200,"station_id":"ce4bgph2rcd13ifvqc2g","pricing_plan_id":"cebpf4jnsgd1na2vs0mg"},{"bike_id":"8d7a38b1-7ecf-4a34-af47-c2250a24af1b","system_id":"levelo_inurba_marseille","lat":43.28395,"lon":5.37661,"is_reserved":false,"is_disabled":true,"rental_uris":{"android":"levelo://app?vid=8d7a38b1-7ecf-4a34-af47-c2250a24af1b","ios":"levelo://app?vid=8d7a38b1-7ecf-4a34-af47-c2250a24af1b"},"vehicle_type_id":"4","last_reported":1778574650,"current_range_meters":9200,"station_id":"","pricing_plan_id":"cebpf4jnsgd1na2vs0mg"},{"bike_id":"28047365-8506-45a1-ac55-f253f0e8c75a","system_id":"levelo_inurba_marseille","lat":43.290292,"lon":5.386497,"is_reserved":false,"is_disabled":false,"rental_uris":{"android":"levelo://app?vid=28047365-8506-45a1-ac55-f253f0e8c75a","ios":"levelo://app?vid=28047365-8506-45a1-ac55-f253f0e8c75a"},"vehicle_type_id":"4","last_reported":1778574650,"current_range_meters":9200,"station_id":"ce4bh4p2rcd13ifvqe0g","pricing_plan_id":"cebpf4jnsgd1na2vs0mg"},{"bike_id":"999659c4-c5dd-45ea-baa9-4521d206d96b","system_id":"levelo_inurba_marseille","lat":43.24651,"lon":5.38904,"is_reserved":false,"is_disabled":false,"rental_uris":{"android":"levelo://app?vid=999659c4-c5dd-45ea-baa9-4521d206d96b","ios":"levelo://app?vid=999659c4-c5dd-45ea-baa9-4521d206d96b"},"vehicle_type_id":"4","last_reported":1778574650,"current_range_meters":9200,"station_id":"ce4bhg12rcd13ifvqf60","pricing_plan_id":"cebpf4jnsgd1na2vs0mg"},{"bike_id":"d54df913-97e5-4390-ab4c-28d557b457d1","system_id":"levelo_inurba_marseille","lat":43.21203,"lon":5.35054,"is_reserved":false,"is_disabled":false,"rental_uris":{"android":"levelo://app?vid=d54df913-97e5-4390-ab4c-28d557b457d1","ios":"levelo://app?vid=d54df913-97e5-4390-ab4c-28d557b457d1"},"vehicle_type_id":"4","last_reported":1778574650,"current_range_meters":9200,"station_id":"st_cvj6sg6p6f1abm77japg","pricing_plan_id":"cebpf4jnsgd1na2vs0mg"},{"bike_id":"0ab0818e-9b6c-417d-9c8e-bfae8381fc47","system_id":"levelo_inurba_marseille","lat":43.250866,"lon":5.395266,"is_reserved":false,"is_disabled":false,"rental_uris":{"android":"levelo://app?vid=0ab0818e-9b6c-417d-9c8e-bfae8381fc47","ios":"levelo://app?vid=0ab0818e-9b6c-417d-9c8e-bfae8381fc47"},"vehicle_type_id":"4","last_reported":1778574650,"current_range_meters":9200,"station_id":"ce4bhm12rcd13ifvqgkg","pricing_plan_id":"cebpf4jnsgd1na2vs0mg"},{"bike_id":"929dda46-73ff-41d9-9407-9c24ee00aaa4","system_id":"levelo_inurba_marseille","lat":43.27682,"lon":5.38873,"is_reserved":false,"is_disabled":false,"rental_uris":{"android":"levelo://app?vid=929dda46-73ff-41d9-9407-9c24ee00aaa4","ios":"levelo://app?vid=929dda46-73ff-41d9-9407-9c24ee00aaa4"},"vehicle_type_id":"4","last_reported":1778574650,"current_range_meters":9200,"station_id":"ce4bhi12rcd13ifvqfo0","pricing_plan_id":"cebpf4jnsgd1na2vs0mg"},{"bike_id":"5723c051-ae28-4f5e-a96c-0d0a43dc7587","system_id":"levelo_inurba_marseille","lat":43.25913,"lon":5.40874,"is_reserved":false,"is_disabled":false,"rental_uris":{"android":"levelo://app?vid=5723c051-ae28-4f5e-a96c-0d0a43dc7587","ios":"levelo://app?vid=5723c051-ae28-4f5e-a96c-0d0a43dc7587"},"vehicle_type_id":"4","last_reported":1778574650,"current_range_meters":9200,"station_id":"ce4bhm92rcd13ifvqglg","pricing_plan_id":"cebpf4jnsgd1na2vs0mg"},{"bike_id":"1c8dc7ad-ca87-4b77-a663-4229896c2cff","system_id":"levelo_inurba_marseille","lat":43.26207,"lon":5.37435,"is_reserved":false,"is_disabled":false,"rental_uris":{"android":"levelo://app?vid=1c8dc7ad-ca87-4b77-a663-4229896c2cff","ios":"levelo://app?vid=1c8dc7ad-ca87-4b77-a663-4229896c2cff"},"vehicle_type_id":"4","last_reported":1778574650,"current_range_meters":9200,"station_id":"ce4bhgp2rcd13ifvqfc0","pricing_plan_id":"cebpf4jnsgd1na2vs0mg"},