{"last_updated":1687554407,"ttl":30,"version":"2.2","data":{"bikes":[{"bike_id":"295cfa0d-4f69-4b89-9c92-b3ea9c9cdb69","system_id":"levelo_inurba_marseille","lat":43.313391,"lon":5.36706,"is_reserved":false,"is_disabled":false,"rental_uris":{"android":"levelo://app?vid=295cfa0d-4f69-4b89-9c92-b3ea9c9cdb69","ios":"levelo://app?vid=295cfa0d-4f69-4b89-9c92-b3ea9c9cdb69"},"vehicle_type_id":"4","last_reported":1687554407,"current_range_meters":24000,"station_id":"ce4bgr92rcd13ifvqc6g","pricing_plan_id":"free"},{"bike_id":"07e449cd-2a3a-443b-91c0-d6dac76832b1","system_id":"levelo_inurba_marseille","lat":43.313391,"lon":5.36706,"is_reserved":false,"is_disabled":false,"rental_uris":{"android":"levelo://app?vid=07e449cd-2a3a-443b-91c0-d6dac76832b1","ios":"levelo://app?vid=07e449cd-2a3a-443b-91c0-d6dac76832b1"},"vehicle_type_id":"4","last_reported":1687554407,"current_range_meters":9200,"station_id":"ce4bgr92rcd13ifvqc6g","pricing_plan_id":"free"},{"bike_id":"b95cca4f-7391-4844-84eb-1d48ddb19ea6","system_id":"levelo_inurba_marseille","lat":43.308606,"lon":5.372099,"is_reserved":false,"is_disabled":false,"rental_uris":{"android":"levelo://app?vid=b95cca4f-7391-4844-84eb-1d48ddb19ea6","ios":"levelo://app?vid=b95cca4f-7391-4844-84eb-1d48ddb19ea6"},"vehicle_type_id":"4","last_reported":1687554407,"current_range_meters":26000,"station_id":"ce4bguh2rcd13ifvqckg","pricing_plan_id":"free"},{"bike_id":"37c432a5-d97d-4508-b050-c621e46bcc6e","system_id":"levelo_inurba_marseille","lat":43.30979,"lon":5.37339,"is_reserved":false,"is_disabled":false,"rental_uris":{"android":"levelo://app?vid=37c432a5-d97d-4508-b050-c621e46bcc6e","ios":"levelo://app?vid=37c432a5-d97d-4508-b050-c621e46bcc6e"},"vehicle_type_id":"4","last_reported":1687554407,"current_range_meters":29200,"station_id":"","pricing_plan_id":"free"},{"bike_id":"78bd3c80-8cdf-4218-af93-6781b315133d","system_id":"levelo_inurba_marseille","lat":43.30547,"lon":5.36542,"is_reserved":false,"is_disabled":false,"rental_uris":{"android":"levelo://app?vid=78bd3c80-8cdf-4218-af93-6781b315133d","ios":"levelo://app?vid=78bd3c80-8cdf-4218-af93-6781b315133d"},"vehicle_type_id":"4","last_reported":1687554407,"current_range_meters":17600,"station_id":"ce4bgs12rcd13ifvqcag","pricing_plan_id":"free"},{"bike_id":"2a2e5ffa-7620-4d22-b358-2c10d8c50a43","system_id":"levelo_inurba_marseille","lat":43.305368,"lon":5.367343,"is_reserved":false,"is_disabled":false,"rental_uris":{"android":"levelo://app?vid=2a2e5ffa-7620-4d22-b358-2c10d8c50a43","ios":"levelo://app?vid=2a2e5ffa-7620-4d22-b358-2c10d8c50a43"},"vehicle_type_id":"4","last_reported":1687554407,"current_range_meters":15600,"station_id":"ce4bgrp2rcd13ifvqc9g","pricing_plan_id":"free"},{"bike_id":"d45384e2-86fa-463e-b2af-c16713c7764e","system_id":"levelo_inurba_marseille","lat":43.305706,"lon":5.365654,"is_reserved":false,"is_disabled":false,"rental_uris":{"android":"levelo://app?vid=d45384e2-86fa-463e-b2af-c16713c7764e","ios":"levelo://app?vid=d45384e2-86fa-463e-b2af-c16713c7764e"},"vehicle_type_id":"4","last_reported":1687554407,"current_range_meters":23600,"station_id":"ce4bgs12rcd13ifvqcag","pricing_plan_id":"free"},{"bike_id":"b317e37e-74be-4d98-8940-17dad8e0e452","system_id":"levelo_inurba_marseille","lat":43.305989,"lon":5.37225,"is_reserved":false,"is_disabled":false,"rental_uris":{"android":"levelo://app?vid=b317e37e-74be-4d98-8940-17dad8e0e452","ios":"levelo://app?vid=b317e37e-74be-4d98-8940-17dad8e0e452"},"vehicle_type_id":"4","last_reported":1687554407,"current_range_meters":5200,"station_id":"ce4bgqh2rcd13ifvqc4g","pricing_plan_id":"free"},{"bike_id":"a02f37e0-d65d-4812-8ed8-bfda6390cd06","system_id":"levelo_inurba_marseille","lat":43.305989,"lon":5.37225,"is_reserved":false,"is_disabled":false,"rental_uris":{"android":"levelo://app?vid=a02f37e0-d65d-4812-8ed8-bfda6390cd06","ios":"levelo://app?vid=a02f37e0-d65d-4812-8ed8-bfda6390cd06"},"vehicle_type_id":"4","last_reported":1687554407,"current_range_meters":4000,"station_id":"ce4bgqh2rcd13ifvqc4g","pricing_plan_id":"free"},{"bike_id":"9f0c82ca-30b8-4b17-a3e7-a3106ee78c77","system_id":"levelo_inurba_marseille","lat":43.305989,"lon":5.37225,"is_reserved":false,"is_disabled":false,"rental_uris":{"android":"levelo://app?vid=9f0c82ca-30b8-4b17-a3e7-a3106ee78c77","ios":"levelo://app?vid=9f0c82ca-30b8-4b17-a3e7-a3106ee78c77"},"vehicle_type_id":"4","last_reported":1687554407,"current_range_meters":15600,"station_id":"ce4bgqh2rcd13ifvqc4g","pricing_plan_id":"free"},{"bike_id":"c4263b3a-741f-4cbc-ae72-a56f77fff4c9","system_id":"levelo_inurba_marseille","lat":43.305989,"lon":5.37225,"is_reserved":false,"is_disabled":false,"rental_uris":{"android":"levelo://app?vid=c4263b3a-741f-4cbc-ae72-a56f77fff4c9","ios":"levelo://app?vid=c4263b3a-741f-4cbc-ae72-a56f77fff4c9"},"vehicle_type_id":"4","last_reported":1687554407,"current_range_meters":0,"station_id":"ce4bgqh2rcd13ifvqc4g","pricing_plan_id":"free"},{"bike_id":"efb0156a-b0e6-45dd-ab67-1bfae14432fa","system_id":"levelo_inurba_marseille","lat":43.308012,"lon":5.381511,"is_reserved":false,"is_disabled":false,"rental_uris":{"android":"levelo://app?vid=efb0156a-b0e6-45dd-ab67-1bfae14432fa","ios":"levelo://app?vid=efb0156a-b0e6-45dd-ab67-1bfae14432fa"},"vehicle_type_id":"4","last_reported":1687554407,"current_range_meters":0,"station_id":"ce4bgt12rcd13ifvqce0","pricing_plan_id":"free"},{"bike_id":"85f90155-4401-49d7-bbf4-ed87d85ee1ae","system_id":"levelo_inurba_marseille","lat":43.304606,"lon":5.379026,"is_reserved":false,"is_disabled":false,"rental_uris":{"android":"levelo://app?vid=85f90155-4401-49d7-bbf4-ed87d85ee1ae","ios":"levelo://app?vid=85f90155-4401-49d7-bbf4-ed87d85ee1ae"},"vehicle_type_id":"4","last_reported":1687554407,"current_range_meters":21200,"station_id":"ce4bgup2rcd13ifvqcn0","pricing_plan_id":"free"},{"bike_id":"b3963e52-17da-4c9a-80fd-bf09ac69861c","system_id":"levelo_inurba_marseille","lat":43.302784,"lon":5.377158,"is_reserved":false,"is_disabled":false,"rental_uris":{"android":"levelo://app?vid=b3963e52-17da-4c9a-80fd-bf09ac69861c","ios":"levelo://app?vid=b3963e52-17da-4c9a-80fd-bf09ac69861c"},"vehicle_type_id":"4","last_reported":1687554407,"current_range_meters":7200,"station_id":"ce4bguh2rcd13ifvqcj0","pricing_plan_id":"free"},{"bike_id":"82975f0f-ec59-4a6d-97c9-9339744ce109","system_id":"levelo_inurba_marseille","lat":43.30148,"lon":5.37414,"is_reserved":false,"is_disabled":false,"rental_uris":{"android":"levelo://app?vid=82975f0f-ec59-4a6d-97c9-9339744ce109","ios":"levelo://app?vid=82975f0f-ec59-4a6d-97c9-9339744ce109"},"vehicle_type_id":"4","last_reported":1687554407,"current_range_meters":16800,"station_id":"ce4bgs92rcd13ifvqcc0","pricing_plan_id":"free"},{"bike_id":"03cd4863-f0a1-4f4c-b770-62ff3b7fa0f6","system_id":"levelo_inurba_marseille","lat":43.302784,"lon":5.377158,"is_reserved":false,"is_disabled":false,"rental_uris":{"android":"levelo://app?vid=03cd4863-f0a1-4f4c-b770-62ff3b7fa0f6","ios":"levelo://app?vid=03cd4863-f0a1-4f4c-b770-62ff3b7fa0f6"},"vehicle_type_id":"4","last_reported":1687554407,"current_range_meters":3200,"station_id":"ce4bguh2rcd13ifvqcj0","pricing_plan_id":"free"},{"bike_id":"ec8d5dcb-53ac-4dba-bba6-d2ad83f42fb0","system_id":"levelo_inurba_marseille","lat":43.30142,"lon":5.37416,"is_reserved":false,"is_disabled":false,"rental_uris":{"android":"levelo://app?vid=ec8d5dcb-53ac-4dba-bba6-d2ad83f42fb0","ios":"levelo://app?vid=ec8d5dcb-53ac-4dba-bba6-d2ad83f42fb0"},"vehicle_type_id":"4","last_reported":1687554407,"current_range_meters":23600,"station_id":"ce4bgs92rcd13ifvqcc0","pricing_plan_id":"free"},{"bike_id":"d47be9cf-94bf-48d8-8867-0f68c8c62bf0","system_id":"levelo_inurba_marseille","lat":43.31999,"lon":5.38141,"is_reserved":false,"is_disabled":false,"rental_uris":{"android":"levelo://app?vid=d47be9cf-94bf-48d8-8867-0f68c8c62bf0","ios":"levelo://app?vid=d47be9cf-94bf-48d8-8867-0f68c8c62bf0"},"vehicle_type_id":"4","last_reported":1687554407,"current_range_meters":0,"station_id":"ce4bhr12rcd13ifvqhpg","pricing_plan_id":"free"},{"bike_id":"9a84abcc-57ec-4e7a-aad7-107e1e12b7c2","system_id":"levelo_inurba_marseille","lat":43.319935,"lon":5.381699,"is_reserved":false,"is_disabled":false,"rental_uris":{"android":"levelo://app?vid=9a84abcc-57ec-4e7a-aad7-107e1e12b7c2","ios":"levelo://app?vid=9a84abcc-57ec-4e7a-aad7-107e1e12b7c2"},"vehicle_type_id":"4","last_reported":1687554407,"current_range_meters":28000,"station_id":"ce4bhr12rcd13ifvqhpg","pricing_plan_id":"free"},{"bike_id":"d0061ac5-9742-4a0c-aaf3-7f03ef588c42","system_id":"levelo_inurba_marseille","lat":43.29979,"lon":5.36762,"is_reserved":false,"is_disabled":false,"rental_uris":{"android":"levelo://app?vid=d0061ac5-9742-4a0c-aaf3-7f03ef588c42","ios":"levelo://app?vid=d0061ac5-9742-4a0c-aaf3-7f03ef588c42"},"vehicle_type_id":"4","last_reported":1687554407,"current_range_meters":21600,"station_id":"","pricing_plan_id":"free"},{"bike_id":"8514c5ac-d685-404b-a6d3-03c9c5c9899b","system_id":"levelo_inurba_marseille","lat":43.313571,"lon":5.384829,"is_reserved":false,"is_disabled":false,"rental_uris":{"android":"levelo://app?vid=8514c5ac-d685-404b-a6d3-03c9c5c9899b","ios":"levelo://app?vid=8514c5ac-d685-404b-a6d3-03c9c5c9899b"},"vehicle_type_id":"4","last_reported":1687554407,"current_range_meters":5600,"station_id":"ce4bgt92rcd13ifvqcf0","pricing_plan_id":"free"},{"bike_id":"5d375f96-6c3e-4d0f-bdfc-d6f65072203f","system_id":"levelo_inurba_marseille","lat":43.313571,"lon":5.384829,"is_reserved":false,"is_disabled":false,"rental_uris":{"android":"levelo://app?vid=5d375f96-6c3e-4d0f-bdfc-d6f65072203f","ios":"levelo://app?vid=5d375f96-6c3e-4d0f-bdfc-d6f65072203f"},"vehicle_type_id":"4","last_reported":1687554407,"current_range_meters":17200,"station_id":"ce4bgt92rcd13ifvqcf0","pricing_plan_id":"free"},{"bike_id":"27c2a0b0-ecf7-4e1c-8426-362d7ca558ff","system_id":"levelo_inurba_marseille","lat":43.313571,"lon":5.384829,"is_reserved":false,"is_disabled":false,"rental_uris":{"android":"levelo://app?vid=27c2a0b0-ecf7-4e1c-8426-362d7ca558ff","ios":"levelo://app?vid=27c2a0b0-ecf7-4e1c-8426-362d7ca558ff"},"vehicle_type_id":"4","last_reported":1687554407,"current_range_meters":4400,"station_id":"ce4bgt92rcd13ifvqcf0","pricing_plan_id":"free"},{"bike_id":"3a5a19c4-47c4-4dbf-907a-f37fe449b305","system_id":"levelo_inurba_marseille","lat":43.313571,"lon":5.384829,"is_reserved":false,"is_disabled":false,"rental_uris":{"android":"levelo://app?vid=3a5a19c4-47c4-4dbf-907a-f37fe449b305","ios":"levelo://app?vid=3a5a19c4-47c4-4dbf-907a-f37fe449b305"},"vehicle_type_id":"4","last_reported":1687554407,"current_range_meters":22800,"station_id":"ce4bgt92rcd13ifvqcf0","pricing_plan_id":"free"},{"bike_id":"d22663bc-dabe-4d0f-8e95-40eb3135a5ea","system_id":"levelo_inurba_marseille","lat":43.313571,"lon":5.384829,"is_reserved":false,"is_disabled":false,"rental_uris":{"android":"levelo://app?vid=d22663bc-dabe-4d0f-8e95-40eb3135a5ea","ios":"levelo://app?vid=d22663bc-dabe-4d0f-8e95-40eb3135a5ea"},"vehicle_type_id":"4","last_reported":1687554407,"current_range_meters":21600,"station_id":"ce4bgt92rcd13ifvqcf0","pricing_plan_id":"free"},{"bike_id":"707e2e66-570f-4cdd-a894-777cd515018d","system_id":"levelo_inurba_marseille","lat":43.298433,"lon":5.362774,"is_reserved":false,"is_disabled":false,"rental_uris":{"android":"levelo://app?vid=707e2e66-570f-4cdd-a894-777cd515018d","ios":"levelo://app?vid=707e2e66-570f-4cdd-a894-777cd515018d"},"vehicle_type_id":"4","last_reported":1687554407,"current_range_meters":31200,"station_id":"ce4bgpp2rcd13ifvqc3g","pricing_plan_id":"free"},{"bike_id":"7780ff79-3a50-4d77-8920-72adc05fd4c2","system_id":"levelo_inurba_marseille","lat":43.298433,"lon":5.362774,"is_reserved":false,"is_disabled":false,"rental_uris":{"android":"levelo://app?vid=7780ff79-3a50-4d77-8920-72adc05fd4c2","ios":"levelo://app?vid=7780ff79-3a50-4d77-8920-72adc05fd4c2"},"vehicle_type_id":"4","last_reported":1687554407,"current_range_meters":31200,"station_id":"ce4bgpp2rcd13ifvqc3g","pricing_plan_id":"free"},{"bike_id":"bd609eb4-ca65-49da-8b16-a096d9526256","system_id":"levelo_inurba_marseille","lat":43.298433,"lon":5.362774,"is_reserved":false,"is_disabled":false,"rental_uris":{"android":"levelo://app?vid=bd609eb4-ca65-49da-8b16-a096d9526256","ios":"levelo://app?vid=bd609eb4-ca65-49da-8b16-a096d9526256"},"vehicle_type_id":"4","last_reported":1687554407,"current_range_meters":9200,"station_id":"ce4bgpp2rcd13ifvqc3g","pricing_plan_id":"free"},{"bike_id":"9150e08f-bc10-463d-93a1-8df10a9bfb74","system_id":"levelo_inurba_marseille","lat":43.298433,"lon":5.362774,"is_reserved":false,"is_disabled":false,"rental_uris":{"android":"levelo://app?vid=9150e08f-bc10-463d-93a1-8df10a9bfb74","ios":"levelo://app?vid=9150e08f-bc10-463d-93a1-8df10a9bfb74"},"vehicle_type_id":"4","last_reported":1687554407,"current_range_meters":19600,"station_id":"ce4bgpp2rcd13ifvqc3g","pricing_plan_id":"free"},{"bike_id":"f6090520-c223-4974-8fe5-3c0e7a35acd0","system_id":"levelo_inurba_marseille","lat":43.298433,"lon":5.362774,"is_reserved":false,"is_disabled":false,"rental_uris":{"android":"levelo://app?vid=f6090520-c223-4974-8fe5-3c0e7a35acd0","ios":"levelo://app?vid=f6090520-c223-4974-8fe5-3c0e7a35acd0"},"vehicle_type_id":"4","last_reported":1687554407,"current_range_meters":31200,"station_id":"ce4bgpp2rcd13ifvqc3g","pricing_plan_id":"free"},{"bike_id":"93d2e436-ee53-441b-8ddd-8c1c17ba647a","system_id":"levelo_inurba_marseille","lat":43.298433,"lon":5.362774,"is_reserved":false,"is_disabled":false,"rental_uris":{"android":"levelo://app?vid=93d2e436-ee53-441b-8ddd-8c1c17ba647a","ios":"levelo://app?vid=93d2e436-ee53-441b-8ddd-8c1c17ba647a"},"vehicle_type_id":"4","last_reported":1687554407,"current_range_meters":23600,"station_id":"ce4bgpp2rcd13ifvqc3g","pricing_plan_id":"free"},{"bike_id":"7a77d4b1-d23e-417c-96bf-0c2c5acabe03","system_id":"levelo_inurba_marseille","lat":43.311722,"lon":5.387247,"is_reserved":false,"is_disabled":false,"rental_uris":{"android":"levelo://app?vid=7a77d4b1-d23e-417c-96bf-0c2c5acabe03","ios":"levelo://app?vid=7a77d4b1-d23e-417c-96bf-0c2c5acabe03"},"vehicle_type_id":"4","last_reported":1687554407,"current_range_meters":14000,"station_id":"ce4bgv12rcd13ifvqcp0","pricing_plan_id":"free"},{"bike_id":"975b6ecf-aa92-496a-b59c-a3f236c711a9","system_id":"levelo_inurba_marseille","lat":43.311722,"lon":5.387247,"is_reserved":false,"is_disabled":false,"rental_uris":{"android":"levelo://app?vid=975b6ecf-aa92-496a-b59c-a3f236c711a9","ios":"levelo://app?vid=975b6ecf-aa92-496a-b59c-a3f236c711a9"},"vehicle_type_id":"4","last_reported":1687554407,"current_range_meters":18400,"station_id":"ce4bgv12rcd13ifvqcp0","pricing_plan_id":"free"},{"bike_id":"40736e77-dc09-4bc0-8098-4f59c22f3029","system_id":"levelo_inurba_marseille","lat":43.31167,"lon":5.38709,"is_reserved":false,"is_disabled":false,"rental_uris":{"android":"levelo://app?vid=40736e77-dc09-4bc0-8098-4f59c22f3029","ios":"levelo://app?vid=40736e77-dc09-4bc0-8098-4f59c22f3029"},"vehicle_type_id":"4","last_reported":1687554407,"current_range_meters":7200,"station_id":"ce4bgv12rcd13ifvqcp0","pricing_plan_id":"free"},{"bike_id":"39231ea1-9c37-4cac-b374-b51813980572","system_id":"levelo_inurba_marseille","lat":43.29919,"lon":5.37481,"is_reserved":false,"is_disabled":false,"rental_uris":{"android":"levelo://app?vid=39231ea1-9c37-4cac-b374-b51813980572","ios":"levelo://app?vid=39231ea1-9c37-4cac-b374-b51813980572"},"vehicle_type_id":"4","last_reported":1687554407,"current_range_meters":6800,"station_id":"ce4bgjh2rcd13ifvqbg0","pricing_plan_id":"free"},{"bike_id":"4fec0bb0-e70f-4f70-b1c6-9cc7f2889857","system_id":"levelo_inurba_marseille","lat":43.311722,"lon":5.387247,"is_reserved":false,"is_disabled":false,"rental_uris":{"android":"levelo://app?vid=4fec0bb0-e70f-4f70-b1c6-9cc7f2889857","ios":"levelo://app?vid=4fec0bb0-e70f-4f70-b1c6-9cc7f2889857"},"vehicle_type_id":"4","last_reported":1687554407,"current_range_meters":31600,"station_id":"ce4bgv12rcd13ifvqcp0","pricing_plan_id":"free"},{"bike_id":"317bc866-0b48-4757-ae9c-b4e627373afa","system_id":"levelo_inurba_marseille","lat":43.31179,"lon":5.38711,"is_reserved":false,"is_disabled":false,"rental_uris":{"android":"levelo://app?vid=317bc866-0b48-4757-ae9c-b4e627373afa","ios":"levelo://app?vid=317bc866-0b48-4757-ae9c-b4e627373afa"},"vehicle_type_id":"4","last_reported":1687554407,"current_range_meters":5200,"station_id":"ce4bgv12rcd13ifvqcp0","pricing_plan_id":"free"},{"bike_id":"28318da3-f8f9-4068-a3d7-231dc72145e2","system_id":"levelo_inurba_marseille","lat":43.31167,"lon":5.3871,"is_reserved":false,"is_disabled":false,"rental_uris":{"android":"levelo://app?vid=28318da3-f8f9-4068-a3d7-231dc72145e2","ios":"levelo://app?vid=28318da3-f8f9-4068-a3d7-231dc72145e2"},"vehicle_type_id":"4","last_reported":1687554407,"current_range_meters":20800,"station_id":"ce4bgv12rcd13ifvqcp0","pricing_plan_id":"free"},{"bike_id":"e4d23c9d-b389-499c-b06d-b8d6eb0a5371","system_id":"levelo_inurba_marseille","lat":43.311722,"lon":5.387247,"is_reserved":false,"is_disabled":false,"rental_uris":{"android":"levelo://app?vid=e4d23c9d-b389-499c-b06d-b8d6eb0a5371","ios":"levelo://app?vid=e4d23c9d-b389-499c-b06d-b8d6eb0a5371"},"vehicle_type_id":"4","last_reported":1687554407,"current_range_meters":12000,"station_id":"ce4bgv12rcd13ifvqcp0","pricing_plan_id":"free"},{"bike_id":"64e7da40-2d59-4168-944e-486c2ee1f489","system_id":"levelo_inurba_marseille","lat":43.31174,"lon":5.38713,"is_reserved":false,"is_disabled":false,"rental_uris":{"android":"levelo://app?vid=64e7da40-2d59-4168-944e-486c2ee1f489","ios":"levelo://app?vid=64e7da40-2d59-4168-944e-486c2ee1f489"},"vehicle_type_id":"4","last_reported":1687554407,"current_range_meters":0,"station_id":"ce4bgv12rcd13ifvqcp0","pricing_plan_id":"free"},{"bike_id":"df37ec00-6fb1-4724-ad30-aa87edf72bb2","system_id":"levelo_inurba_marseille","lat":43.31171,"lon":5.38717,"is_reserved":false,"is_disabled":false,"rental_uris":{"android":"levelo://app?vid=df37ec00-6fb1-4724-ad30-aa87edf72bb2","ios":"levelo://app?vid=df37ec00-6fb1-4724-ad30-aa87edf72bb2"},"vehicle_type_id":"4","last_reported":1687554407,"current_range_meters":800,"station_id":"ce4bgv12rcd13ifvqcp0","pricing_plan_id":"free"},{"bike_id":"3f217513-7e69-416a-976d-aa0fec9315da","system_id":"levelo_inurba_marseille","lat":43.31167,"lon":5.3872,"is_reserved":false,"is_disabled":false,"rental_uris":{"android":"levelo://app?vid=3f217513-7e69-416a-976d-aa0fec9315da","ios":"levelo://app?vid=3f217513-7e69-416a-976d-aa0fec9315da"},"vehicle_type_id":"4","last_reported":1687554407,"current_range_meters":2800,"station_id":"ce4bgv12rcd13ifvqcp0","pricing_plan_id":"free"},{"bike_id":"0b61beb3-8035-4b7d-af88-8d0a65c5660a","system_id":"levelo_inurba_marseille","lat":43.31177,"lon":5.38722,"is_reserved":false,"is_disabled":false,"rental_uris":{"android":"levelo://app?vid=0b61beb3-8035-4b7d-af88-8d0a65c5660a","ios":"levelo://app?vid=0b61beb3-8035-4b7d-af88-8d0a65c5660a"},"vehicle_type_id":"4","last_reported":1687554407,"current_range_meters":0,"station_id":"ce4bgv12rcd13ifvqcp0","pricing_plan_id":"free"},{"bike_id":"ae56b6fe-6320-4bde-898e-126634cfae4f","system_id":"levelo_inurba_marseille","lat":43.31175,"lon":5.38723,"is_reserved":false,"is_disabled":false,"rental_uris":{"android":"levelo://app?vid=ae56b6fe-6320-4bde-898e-126634cfae4f","ios":"levelo://app?vid=ae56b6fe-6320-4bde-898e-126634cfae4f"},"vehicle_type_id":"4","last_reported":1687554407,"current_range_meters":27600,"station_id":"ce4bgv12rcd13ifvqcp0","pricing_plan_id":"free"},{"bike_id":"ec9f1dae-6f42-4551-a72f-1ec8d8a00aa8","system_id":"levelo_inurba_marseille","lat":43.31172,"lon":5.38723,"is_reserved":false,"is_disabled":false,"rental_uris":{"android":"levelo://app?vid=ec9f1dae-6f42-4551-a72f-1ec8d8a00aa8","ios":"levelo://app?vid=ec9f1dae-6f42-4551-a72f-1ec8d8a00aa8"},"vehicle_type_id":"4","last_reported":1687554407,"current_range_meters":16000,"station_id":"ce4bgv12rcd13ifvqcp0","pricing_plan_id":"free"},{"bike_id":"d6aa4b8f-0fbd-492f-a726-f1b64033634e","system_id":"levelo_inurba_marseille","lat":43.29713,"lon":5.36411,"is_reserved":false,"is_disabled":false,"rental_uris":{"android":"levelo://app?vid=d6aa4b8f-0fbd-492f-a726-f1b64033634e","ios":"levelo://app?vid=d6aa4b8f-0fbd-492f-a726-f1b64033634e"},"vehicle_type_id":"4","last_reported":1687554407,"current_range_meters":9200,"station_id":"","pricing_plan_id":"free"},{"bike_id":"bb3e846c-6576-47a8-a9ff-2a4105e53984","system_id":"levelo_inurba_marseille","lat":43.29698,"lon":5.36584,"is_reserved":false,"is_disabled":false,"rental_uris":{"android":"levelo://app?vid=bb3e846c-6576-47a8-a9ff-2a4105e53984","ios":"levelo://app?vid=bb3e846c-6576-47a8-a9ff-2a4105e53984"},"vehicle_type_id":"4","last_reported":1687554407,"current_range_meters":16400,"station_id":"ce4bgn12rcd13ifvqbt0","pricing_plan_id":"free"},{"bike_id":"c9d0b52e-f8c0-45ec-b19b-2251264bb144","system_id":"levelo_inurba_marseille","lat":43.29951,"lon":5.38075,"is_reserved":false,"is_disabled":false,"rental_uris":{"android":"levelo://app?vid=c9d0b52e-f8c0-45ec-b19b-2251264bb144","ios":"levelo://app?vid=c9d0b52e-f8c0-45ec-b19b-2251264bb144"},"vehicle_type_id":"4","last_reported":1687554407,"current_range_meters":10800,"station_id":"","pricing_plan_id":"free"},{"bike_id":"fe54dbc8-50fe-42e1-a9d6-8751323fb334","system_id":"levelo_inurba_marseille","lat":43.29626,"lon":5.37161,"is_reserved":false,"is_disabled":false,"rental_uris":{"android":"levelo://app?vid=fe54dbc8-50fe-42e1-a9d6-8751323fb334","ios":"levelo://app?vid=fe54dbc8-50fe-42e1-a9d6-8751323fb334"},"vehicle_type_id":"4","last_reported":1687554407,"current_range_meters":31200,"station_id":"","pricing_plan_id":"free"},{"bike_id":"8bfe91a8-2fbd-4db3-b661-b288fdcaa9bb","system_id":"levelo_inurba_marseille","lat":43.29573,"lon":5.367355,"is_reserved":false,"is_disabled":false,"rental_uris":{"android":"levelo://app?vid=8bfe91a8-2fbd-4db3-b661-b288fdcaa9bb","ios":"levelo://app?vid=8bfe91a8-2fbd-4db3-b661-b288fdcaa9bb"},"vehicle_type_id":"4","last_reported":1687554407,"current_range_meters":31600,"station_id":"ce4bgph2rcd13ifvqc2g","pricing_plan_id":"free"},{"bike_id":"041bc147-ef2f-419b-bb81-deca3bdf89e2","system_id":"levelo_inurba_marseille","lat":43.29611,"lon":5.36046,"is_reserved":false,"is_disabled":false,"rental_uris":{"android":"levelo://app?vid=041bc147-ef2f-419b-bb81-deca3bdf89e2","ios":"levelo://app?vid=041bc147-ef2f-419b-bb81-deca3bdf89e2"},"vehicle_type_id":"4","last_reported":1687554407,"current_range_meters":9200,"station_id":"","pricing_plan_id":"free"},{"bike_id":"f8d21ad8-f1fb-46d5-ad96-b649a2547ead","system_id":"levelo_inurba_marseille","lat":43.30953,"lon":5.39027,"is_reserved":false,"is_disabled":false,"rental_uris":{"android":"levelo://app?vid=f8d21ad8-f1fb-46d5-ad96-b649a2547ead","ios":"levelo://app?vid=f8d21ad8-f1fb-46d5-ad96-b649a2547ead"},"vehicle_type_id":"4","last_reported":1687554407,"current_range_meters":3600,"station_id":"ce4bgup2rcd13ifvqco0","pricing_plan_id":"free"},{"bike_id":"61935beb-d241-42ba-96c2-da5093423a65","system_id":"levelo_inurba_marseille","lat":43.30954,"lon":5.39043,"is_reserved":false,"is_disabled":false,"rental_uris":{"android":"levelo://app?vid=61935beb-d241-42ba-96c2-da5093423a65","ios":"levelo://app?vid=61935beb-d241-42ba-96c2-da5093423a65"},"vehicle_type_id":"4","last_reported":1687554407,"current_range_meters":4400,"station_id":"ce4bgup2rcd13ifvqco0","pricing_plan_id":"free"},{"bike_id":"ff3e99ce-3968-46a1-87a3-99b4f5415c60","system_id":"levelo_inurba_marseille","lat":43.30953,"lon":5.39047,"is_reserved":false,"is_disabled":false,"rental_uris":{"android":"levelo://app?vid=ff3e99ce-3968-46a1-87a3-99b4f5415c60","ios":"levelo://app?vid=ff3e99ce-3968-46a1-87a3-99b4f5415c60"},"vehicle_type_id":"4","last_reported":1687554407,"current_range_meters":22000,"station_id":"ce4bgup2rcd13ifvqco0","pricing_plan_id":"free"},{"bike_id":"a26b3693-5eee-4958-8ca8-8a69361289e6","system_id":"levelo_inurba_marseille","lat":43.317557,"lon":5.390173,"is_reserved":false,"is_disabled":false,"rental_uris":{"android":"levelo://app?vid=a26b3693-5eee-4958-8ca8-8a69361289e6","ios":"levelo://app?vid=a26b3693-5eee-4958-8ca8-8a69361289e6"},"vehicle_type_id":"4","last_reported":1687554407,"current_range_meters":30800,"station_id":"ce4bhqp2rcd13ifvqhng","pricing_plan_id":"free"},{"bike_id":"c6302fff-6a1d-4a7e-a94a-fded06b72bcf","system_id":"levelo_inurba_marseille","lat":43.31758,"lon":5.39023,"is_reserved":false,"is_disabled":false,"rental_uris":{"android":"levelo://app?vid=c6302fff-6a1d-4a7e-a94a-fded06b72bcf","ios":"levelo://app?vid=c6302fff-6a1d-4a7e-a94a-fded06b72bcf"},"vehicle_type_id":"4","last_reported":1687554407,"current_range_meters":22000,"station_id":"ce4bhqp2rcd13ifvqhng","pricing_plan_id":"free"},{"bike_id":"08dbf925-9f61-44e3-97ed-f63e42f28f4a","system_id":"levelo_inurba_marseille","lat":43.298037,"lon":5.381066,"is_reserved":false,"is_disabled":false,"rental_uris":{"android":"levelo://app?vid=08dbf925-9f61-44e3-97ed-f63e42f28f4a","ios":"levelo://app?vid=08dbf925-9f61-44e3-97ed-f63e42f28f4a"},"vehicle_type_id":"4","last_reported":1687554407,"current_range_meters":400,"station_id":"ce4bgip2rcd13ifvqbb0","pricing_plan_id":"free"},{"bike_id":"2f583d5e-f5a9-4f0a-8f1d-7bcf849e849f","system_id":"levelo_inurba_marseille","lat":43.298037,"lon":5.381066,"is_reserved":false,"is_disabled":false,"rental_uris":{"android":"levelo://app?vid=2f583d5e-f5a9-4f0a-8f1d-7bcf849e849f","ios":"levelo://app?vid=2f583d5e-f5a9-4f0a-8f1d-7bcf849e849f"},"vehicle_type_id":"4","last_reported":1687554407,"current_range_meters":3200,"station_id":"ce4bgip2rcd13ifvqbb0","pricing_plan_id":"free"},{"bike_id":"5f2d3385-7e8f-4450-a47c-50b2d273424d","system_id":"levelo_inurba_marseille","lat":43.29576,"lon":5.37491,"is_reserved":false,"is_disabled":false,"rental_uris":{"android":"levelo://app?vid=5f2d3385-7e8f-4450-a47c-50b2d273424d","ios":"levelo://app?vid=5f2d3385-7e8f-4450-a47c-50b2d273424d"},"vehicle_type_id":"4","last_reported":1687554407,"current_range_meters":31200,"station_id":"ce4bgh92rcd13ifvqb50","pricing_plan_id":"free"},{"bike_id":"596fd7e6-9144-4be8-80b2-fd8d7057ce07","system_id":"levelo_inurba_marseille","lat":43.29577,"lon":5.37506,"is_reserved":false,"is_disabled":false,"rental_uris":{"android":"levelo://app?vid=596fd7e6-9144-4be8-80b2-fd8d7057ce07","ios":"levelo://app?vid=596fd7e6-9144-4be8-80b2-fd8d7057ce07"},"vehicle_type_id":"4","last_reported":1687554407,"current_range_meters":13200,"station_id":"ce4bgh92rcd13ifvqb50","pricing_plan_id":"free"},{"bike_id":"cd7bd645-73a5-49ce-b95a-71d58f591c25","system_id":"levelo_inurba_marseille","lat":43.295741,"lon":5.375114,"is_reserved":false,"is_disabled":false,"rental_uris":{"android":"levelo://app?vid=cd7bd645-73a5-49ce-b95a-71d58f591c25","ios":"levelo://app?vid=cd7bd645-73a5-49ce-b95a-71d58f591c25"},"vehicle_type_id":"4","last_reported":1687554407,"current_range_meters":32000,"station_id":"ce4bgkp2rcd13ifvqbmg","pricing_plan_id":"free"},{"bike_id":"872dbcd4-5faa-4198-99ae-4c5aefd6204d","system_id":"levelo_inurba_marseille","lat":43.295745,"lon":5.375223,"is_reserved":false,"is_disabled":false,"rental_uris":{"android":"levelo://app?vid=872dbcd4-5faa-4198-99ae-4c5aefd6204d","ios":"levelo://app?vid=872dbcd4-5faa-4198-99ae-4c5aefd6204d"},"vehicle_type_id":"4","last_reported":1687554407,"current_range_meters":26400,"station_id":"ce4bgh92rcd13ifvqb50","pricing_plan_id":"free"},{"bike_id":"6e86ae06-812a-4c63-8332-e8003ba30a37","system_id":"levelo_inurba_marseille","lat":43.295748,"lon":5.37522,"is_reserved":false,"is_disabled":false,"rental_uris":{"android":"levelo://app?vid=6e86ae06-812a-4c63-8332-e8003ba30a37","ios":"levelo://app?vid=6e86ae06-812a-4c63-8332-e8003ba30a37"},"vehicle_type_id":"4","last_reported":1687554407,"current_range_meters":13200,"station_id":"ce4bgh92rcd13ifvqb50","pricing_plan_id":"free"},{"bike_id":"adb98f35-0aa9-4647-a9bc-55adcfa18f7b","system_id":"levelo_inurba_marseille","lat":43.304278,"lon":5.388868,"is_reserved":false,"is_disabled":false,"rental_uris":{"android":"levelo://app?vid=adb98f35-0aa9-4647-a9bc-55adcfa18f7b","ios":"levelo://app?vid=adb98f35-0aa9-4647-a9bc-55adcfa18f7b"},"vehicle_type_id":"4","last_reported":1687554407,"current_range_meters":0,"station_id":"ce4bgk12rcd13ifvqbi0","pricing_plan_id":"free"},{"bike_id":"d8998065-6ac5-4e59-973f-d459c8d61e9d","system_id":"levelo_inurba_marseille","lat":43.296263,"lon":5.377094,"is_reserved":false,"is_disabled":false,"rental_uris":{"android":"levelo://app?vid=d8998065-6ac5-4e59-973f-d459c8d61e9d","ios":"levelo://app?vid=d8998065-6ac5-4e59-973f-d459c8d61e9d"},"vehicle_type_id":"4","last_reported":1687554407,"current_range_meters":24000,"station_id":"ce4bgi92rcd13ifvqb90","pricing_plan_id":"free"},{"bike_id":"889e3552-cb9e-4b26-90e8-bba7409784c9","system_id":"levelo_inurba_marseille","lat":43.299707,"lon":5.384859,"is_reserved":false,"is_disabled":false,"rental_uris":{"android":"levelo://app?vid=889e3552-cb9e-4b26-90e8-bba7409784c9","ios":"levelo://app?vid=889e3552-cb9e-4b26-90e8-bba7409784c9"},"vehicle_type_id":"4","last_reported":1687554407,"current_range_meters":0,"station_id":"ce4bgj92rcd13ifvqbd0","pricing_plan_id":"free"},{"bike_id":"461e1a20-c062-446f-b7fa-df3f7e6b07ae","system_id":"levelo_inurba_marseille","lat":43.29525,"lon":5.37494,"is_reserved":false,"is_disabled":false,"rental_uris":{"android":"levelo://app?vid=461e1a20-c062-446f-b7fa-df3f7e6b07ae","ios":"levelo://app?vid=461e1a20-c062-446f-b7fa-df3f7e6b07ae"},"vehicle_type_id":"4","last_reported":1687554407,"current_range_meters":31200,"station_id":"ce4bgkp2rcd13ifvqbmg","pricing_plan_id":"free"},{"bike_id":"51ed23a6-df02-47c8-9e1b-989426c29b96","system_id":"levelo_inurba_marseille","lat":43.32367,"lon":5.388836,"is_reserved":false,"is_disabled":false,"rental_uris":{"android":"levelo://app?vid=51ed23a6-df02-47c8-9e1b-989426c29b96","ios":"levelo://app?vid=51ed23a6-df02-47c8-9e1b-989426c29b96"},"vehicle_type_id":"4","last_reported":1687554407,"current_range_meters":6400,"station_id":"ce4bhqp2rcd13ifvqhog","pricing_plan_id":"free"},{"bike_id":"d03181c3-9091-4063-b5ab-d66c863c51ac","system_id":"levelo_inurba_marseille","lat":43.32367,"lon":5.388836,"is_reserved":false,"is_disabled":false,"rental_uris":{"android":"levelo://app?vid=d03181c3-9091-4063-b5ab-d66c863c51ac","ios":"levelo://app?vid=d03181c3-9091-4063-b5ab-d66c863c51ac"},"vehicle_type_id":"4","last_reported":1687554407,"current_range_meters":5200,"station_id":"ce4bhqp2rcd13ifvqhog","pricing_plan_id":"free"},{"bike_id":"fbfd5ef4-9b3d-49ee-8650-e30489ea5401","system_id":"levelo_inurba_marseille","lat":43.293009,"lon":5.374584,"is_reserved":false,"is_disabled":false,"rental_uris":{"android":"levelo://app?vid=fbfd5ef4-9b3d-49ee-8650-e30489ea5401","ios":"levelo://app?vid=fbfd5ef4-9b3d-49ee-8650-e30489ea5401"},"vehicle_type_id":"4","last_reported":1687554407,"current_range_meters":11600,"station_id":"ce4bgi12rcd13ifvqb70","pricing_plan_id":"free"},{"bike_id":"1b0e7d55-1750-49d5-ba16-d74d133460e8","system_id":"levelo_inurba_marseille","lat":43.293009,"lon":5.374584,"is_reserved":false,"is_disabled":false,"rental_uris":{"android":"levelo://app?vid=1b0e7d55-1750-49d5-ba16-d74d133460e8","ios":"levelo://app?vid=1b0e7d55-1750-49d5-ba16-d74d133460e8"},"vehicle_type_id":"4","last_reported":1687554407,"current_range_meters":22400,"station_id":"ce4bgi12rcd13ifvqb70","pricing_plan_id":"free"},{"bike_id":"53e58073-519b-4f8d-96ad-f7b95459428f","system_id":"levelo_inurba_marseille","lat":43.29268,"lon":5.35988,"is_reserved":false,"is_disabled":false,"rental_uris":{"android":"levelo://app?vid=53e58073-519b-4f8d-96ad-f7b95459428f","ios":"levelo://app?vid=53e58073-519b-4f8d-96ad-f7b95459428f"},"vehicle_type_id":"4","last_reported":1687554407,"current_range_meters":8400,"station_id":"","pricing_plan_id":"free"},{"bike_id":"a0b70e32-8ee9-4844-ac80-aa983c466747","system_id":"levelo_inurba_marseille","lat":43.2936,"lon":5.37835,"is_reserved":false,"is_disabled":false,"rental_uris":{"android":"levelo://app?vid=a0b70e32-8ee9-4844-ac80-aa983c466747","ios":"levelo://app?vid=a0b70e32-8ee9-4844-ac80-aa983c466747"},"vehicle_type_id":"4","last_reported":1687554407,"current_range_meters":30000,"station_id":"ce4bgjh2rcd13ifvqbf0","pricing_plan_id":"free"},{"bike_id":"97c2dcd5-bbc2-4996-8ee1-2f3ec7278714","system_id":"levelo_inurba_marseille","lat":43.29223,"lon":5.36029,"is_reserved":false,"is_disabled":false,"rental_uris":{"android":"levelo://app?vid=97c2dcd5-bbc2-4996-8ee1-2f3ec7278714","ios":"levelo://app?vid=97c2dcd5-bbc2-4996-8ee1-2f3ec7278714"},"vehicle_type_id":"4","last_reported":1687554407,"current_range_meters":24400,"station_id":"","pricing_plan_id":"free"},{"bike_id":"944c9505-16b2-4b9d-8554-9cbc35f11f9a","system_id":"levelo_inurba_marseille","lat":43.292663,"lon":5.376394,"is_reserved":false,"is_disabled":false,"rental_uris":{"android":"levelo://app?vid=944c9505-16b2-4b9d-8554-9cbc35f11f9a","ios":"levelo://app?vid=944c9505-16b2-4b9d-8554-9cbc35f11f9a"},"vehicle_type_id":"4","last_reported":1687554407,"current_range_meters":19600,"station_id":"ce4bgi12rcd13ifvqb80","pricing_plan_id":"free"},{"bike_id":"67f131c6-c656-49fc-9988-8294067dd2b6","system_id":"levelo_inurba_marseille","lat":43.298764,"lon":5.388973,"is_reserved":false,"is_disabled":false,"rental_uris":{"android":"levelo://app?vid=67f131c6-c656-49fc-9988-8294067dd2b6","ios":"levelo://app?vid=67f131c6-c656-49fc-9988-8294067dd2b6"},"vehicle_type_id":"4","last_reported":1687554407,"current_range_meters":1200,"station_id":"ce4bh392rcd13ifvqdl0","pricing_plan_id":"free"},{"bike_id":"aa9cf531-1493-4a21-b842-d481edfe4ac6","system_id":"levelo_inurba_marseille","lat":43.309038,"lon":5.396546,"is_reserved":false,"is_disabled":false,"rental_uris":{"android":"levelo://app?vid=aa9cf531-1493-4a21-b842-d481edfe4ac6","ios":"levelo://app?vid=aa9cf531-1493-4a21-b842-d481edfe4ac6"},"vehicle_type_id":"4","last_reported":1687554407,"current_range_meters":1200,"station_id":"ce4bh012rcd13ifvqcv0","pricing_plan_id":"free"},{"bike_id":"54fda2f9-7b1a-4838-9b70-087d4101d0ae","system_id":"levelo_inurba_marseille","lat":43.33256,"lon":5.37937,"is_reserved":false,"is_disabled":false,"rental_uris":{"android":"levelo://app?vid=54fda2f9-7b1a-4838-9b70-087d4101d0ae","ios":"levelo://app?vid=54fda2f9-7b1a-4838-9b70-087d4101d0ae"},"vehicle_type_id":"4","last_reported":1687554407,"current_range_meters":1200,"station_id":"","pricing_plan_id":"free"},{"bike_id":"24805901-617e-45aa-960b-6932b17b3884","system_id":"levelo_inurba_marseille","lat":43.301117,"lon":5.398795,"is_reserved":false,"is_disabled":false,"rental_uris":{"android":"levelo://app?vid=24805901-617e-45aa-960b-6932b17b3884","ios":"levelo://app?vid=24805901-617e-45aa-960b-6932b17b3884"},"vehicle_type_id":"4","last_reported":1687554407,"current_range_meters":8800,"station_id":"ce4bh0h2rcd13ifvqd40","pricing_plan_id":"free"},{"bike_id":"a8392e5f-f50a-461b-9779-10293581e019","system_id":"levelo_inurba_marseille","lat":43.313291,"lon":5.396838,"is_reserved":false,"is_disabled":false,"rental_uris":{"android":"levelo://app?vid=a8392e5f-f50a-461b-9779-10293581e019","ios":"levelo://app?vid=a8392e5f-f50a-461b-9779-10293581e019"},"vehicle_type_id":"4","last_reported":1687554407,"current_range_meters":27200,"station_id":"ce4bgvp2rcd13ifvqcu0","pricing_plan_id":"free"},{"bike_id":"ed4724e2-defe-42f2-99a8-651e653a5813","system_id":"levelo_inurba_marseille","lat":43.309038,"lon":5.396546,"is_reserved":false,"is_disabled":false,"rental_uris":{"android":"levelo://app?vid=ed4724e2-defe-42f2-99a8-651e653a5813","ios":"levelo://app?vid=ed4724e2-defe-42f2-99a8-651e653a5813"},"vehicle_type_id":"4","last_reported":1687554407,"current_range_meters":400,"station_id":"ce4bh012rcd13ifvqcv0","pricing_plan_id":"free"},{"bike_id":"52e75e14-7f9a-46d6-90da-c542303c8bd9","system_id":"levelo_inurba_marseille","lat":43.309038,"lon":5.396546,"is_reserved":false,"is_disabled":false,"rental_uris":{"android":"levelo://app?vid=52e75e14-7f9a-46d6-90da-c542303c8bd9","ios":"levelo://app?vid=52e75e14-7f9a-46d6-90da-c542303c8bd9"},"vehicle_type_id":"4","last_reported":1687554407,"current_range_meters":7600,"station_id":"ce4bh012rcd13ifvqcv0","pricing_plan_id":"free"},{"bike_id":"dd3210db-7e5c-422a-8a57-ac5eaba270fb","system_id":"levelo_inurba_marseille","lat":43.309038,"lon":5.396546,"is_reserved":false,"is_disabled":false,"rental_uris":{"android":"levelo://app?vid=dd3210db-7e5c-422a-8a57-ac5eaba270fb","ios":"levelo://app?vid=dd3210db-7e5c-422a-8a57-ac5eaba270fb"},"vehicle_type_id":"4","last_reported":1687554407,"current_range_meters":0,"station_id":"ce4bh012rcd13ifvqcv0","pricing_plan_id":"free"},{"bike_id":"2a3b386b-df7a-4ff2-bc79-aac0581bdd93","system_id":"levelo_inurba_marseille","lat":43.309038,"lon":5.396546,"is_reserved":false,"is_disabled":false,"rental_uris":{"android":"levelo://app?vid=2a3b386b-df7a-4ff2-bc79-aac0581bdd93","ios":"levelo://app?vid=2a3b386b-df7a-4ff2-bc79-aac0581bdd93"},"vehicle_type_id":"4","last_reported":1687554407,"current_range_meters":14800,"station_id":"ce4bh012rcd13ifvqcv0","pricing_plan_id":"free"},{"bike_id":"614466a0-8030-4c8c-a895-8b72a4f38dc5","system_id":"levelo_inurba_marseille","lat":43.29534,"lon":5.38549,"is_reserved":false,"is_disabled":false,"rental_uris":{"android":"levelo://app?vid=614466a0-8030-4c8c-a895-8b72a4f38dc5","ios":"levelo://app?vid=614466a0-8030-4c8c-a895-8b72a4f38dc5"},"vehicle_type_id":"4","last_reported":1687554407,"current_range_meters":400,"station_id":"ce4bgih2rcd13ifvqba0","pricing_plan_id":"free"},{"bike_id":"52ac7251-3468-4a16-8539-76857631020d","system_id":"levelo_inurba_marseille","lat":43.29529,"lon":5.385581,"is_reserved":false,"is_disabled":false,"rental_uris":{"android":"levelo://app?vid=52ac7251-3468-4a16-8539-76857631020d","ios":"levelo://app?vid=52ac7251-3468-4a16-8539-76857631020d"},"vehicle_type_id":"4","last_reported":1687554407,"current_range_meters":27200,"station_id":"ce4bgih2rcd13ifvqba0","pricing_plan_id":"free"},{"bike_id":"2916a4cc-bc46-4fed-b9a6-98fc17647982","system_id":"levelo_inurba_marseille","lat":43.29575,"lon":5.38729,"is_reserved":false,"is_disabled":false,"rental_uris":{"android":"levelo://app?vid=2916a4cc-bc46-4fed-b9a6-98fc17647982","ios":"levelo://app?vid=2916a4cc-bc46-4fed-b9a6-98fc17647982"},"vehicle_type_id":"4","last_reported":1687554407,"current_range_meters":400,"station_id":"","pricing_plan_id":"free"},{"bike_id":"e87b5286-5605-42a7-b3e8-75b4fd912fdd","system_id":"levelo_inurba_marseille","lat":43.302008,"lon":5.394694,"is_reserved":false,"is_disabled":false,"rental_uris":{"android":"levelo://app?vid=e87b5286-5605-42a7-b3e8-75b4fd912fdd","ios":"levelo://app?vid=e87b5286-5605-42a7-b3e8-75b4fd912fdd"},"vehicle_type_id":"4","last_reported":1687554407,"current_range_meters":4800,"station_id":"ce4bh0p2rcd13ifvqd70","pricing_plan_id":"free"},{"bike_id":"86f7b8e2-f39b-4c9e-ad49-708610826a5f","system_id":"levelo_inurba_marseille","lat":43.302008,"lon":5.394694,"is_reserved":false,"is_disabled":false,"rental_uris":{"android":"levelo://app?vid=86f7b8e2-f39b-4c9e-ad49-708610826a5f","ios":"levelo://app?vid=86f7b8e2-f39b-4c9e-ad49-708610826a5f"},"vehicle_type_id":"4","last_reported":1687554407,"current_range_meters":2400,"station_id":"ce4bh0p2rcd13ifvqd70","pricing_plan_id":"free"},{"bike_id":"301518d0-6ba5-4b85-a8fc-9c514b523c1c","system_id":"levelo_inurba_marseille","lat":43.302008,"lon":5.394694,"is_reserved":false,"is_disabled":false,"rental_uris":{"android":"levelo://app?vid=301518d0-6ba5-4b85-a8fc-9c514b523c1c","ios":"levelo://app?vid=301518d0-6ba5-4b85-a8fc-9c514b523c1c"},"vehicle_type_id":"4","last_reported":1687554407,"current_range_meters":26000,"station_id":"ce4bh0p2rcd13ifvqd70","pricing_plan_id":"free"},{"bike_id":"f357148a-4d86-4330-93ef-5a463ca58d4e","system_id":"levelo_inurba_marseille","lat":43.294153,"lon":5.386305,"is_reserved":false,"is_disabled":false,"rental_uris":{"android":"levelo://app?vid=f357148a-4d86-4330-93ef-5a463ca58d4e","ios":"levelo://app?vid=f357148a-4d86-4330-93ef-5a463ca58d4e"},"vehicle_type_id":"4","last_reported":1687554407,"current_range_meters":1600,"station_id":"ce4bh2h2rcd13ifvqdh0","pricing_plan_id":"free"},{"bike_id":"eac3540f-8f72-4f54-b5eb-d8f33b9a732e","system_id":"levelo_inurba_marseille","lat":43.29035,"lon":5.37564,"is_reserved":false,"is_disabled":false,"rental_uris":{"android":"levelo://app?vid=eac3540f-8f72-4f54-b5eb-d8f33b9a732e","ios":"levelo://app?vid=eac3540f-8f72-4f54-b5eb-d8f33b9a732e"},"vehicle_type_id":"4","last_reported":1687554407,"current_range_meters":10000,"station_id":"ce4bh692rcd13ifvqe90","pricing_plan_id":"free"},{"bike_id":"dad24609-531c-4a7a-8599-d2ec2e05d1b0","system_id":"levelo_inurba_marseille","lat":43.294162,"lon":5.386292,"is_reserved":false,"is_disabled":false,"rental_uris":{"android":"levelo://app?vid=dad24609-531c-4a7a-8599-d2ec2e05d1b0","ios":"levelo://app?vid=dad24609-531c-4a7a-8599-d2ec2e05d1b0"},"vehicle_type_id":"4","last_reported":1687554407,"current_range_meters":5200,"station_id":"ce4bh2h2rcd13ifvqdh0","pricing_plan_id":"free"},{"bike_id":"20b2702a-2cf1-439f-b7da-41f192fa1a0a","system_id":"levelo_inurba_marseille","lat":43.29411,"lon":5.38614,"is_reserved":false,"is_disabled":false,"rental_uris":{"android":"levelo://app?vid=20b2702a-2cf1-439f-b7da-41f192fa1a0a","ios":"levelo://app?vid=20b2702a-2cf1-439f-b7da-41f192fa1a0a"},"vehicle_type_id":"4","last_reported":1687554407,"current_range_meters":21600,"station_id":"","pricing_plan_id":"free"},{"bike_id":"e36874dc-7135-4ebc-b4cd-8f7cd3793fb7","system_id":"levelo_inurba_marseille","lat":43.30338,"lon":5.3969,"is_reserved":false,"is_disabled":false,"rental_uris":{"android":"levelo://app?vid=e36874dc-7135-4ebc-b4cd-8f7cd3793fb7","ios":"levelo://app?vid=e36874dc-7135-4ebc-b4cd-8f7cd3793fb7"},"vehicle_type_id":"4","last_reported":1687554407,"current_range_meters":24800,"station_id":"","pricing_plan_id":"free"},{"bike_id":"a61e8278-57ac-4e10-b0b3-0fbee5c4a3fb","system_id":"levelo_inurba_marseille","lat":43.292644,"lon":5.384257,"is_reserved":false,"is_disabled":false,"rental_uris":{"android":"levelo://app?vid=a61e8278-57ac-4e10-b0b3-0fbee5c4a3fb","ios":"levelo://app?vid=a61e8278-57ac-4e10-b0b3-0fbee5c4a3fb"},"vehicle_type_id":"4","last_reported":1687554407,"current_range_meters":18000,"station_id":"ce4bh692rcd13ifvqea0","pricing_plan_id":"free"},{"bike_id":"206b8a93-a942-4086-b8ec-311106c318d8","system_id":"levelo_inurba_marseille","lat":43.304274,"lon":5.397513,"is_reserved":false,"is_disabled":false,"rental_uris":{"android":"levelo://app?vid=206b8a93-a942-4086-b8ec-311106c318d8","ios":"levelo://app?vid=206b8a93-a942-4086-b8ec-311106c318d8"},"vehicle_type_id":"4","last_reported":1687554407,"current_range_meters":28400,"station_id":"ce4bh092rcd13ifvqd20","pricing_plan_id":"free"},{"bike_id":"0906ffcc-e2c6-45e8-b5ee-9794dcf6bc13","system_id":"levelo_inurba_marseille","lat":43.292644,"lon":5.384257,"is_reserved":false,"is_disabled":false,"rental_uris":{"android":"levelo://app?vid=0906ffcc-e2c6-45e8-b5ee-9794dcf6bc13","ios":"levelo://app?vid=0906ffcc-e2c6-45e8-b5ee-9794dcf6bc13"},"vehicle_type_id":"4","last_reported":1687554407,"current_range_meters":11600,"station_id":"ce4bh692rcd13ifvqea0","pricing_plan_id":"free"},{"bike_id":"561e1fb3-bfe2-4250-8870-99d823899170","system_id":"levelo_inurba_marseille","lat":43.2936,"lon":5.37835,"is_reserved":false,"is_disabled":false,"rental_uris":{"android":"levelo://app?vid=561e1fb3-bfe2-4250-8870-99d823899170","ios":"levelo://app?vid=561e1fb3-bfe2-4250-8870-99d823899170"},"vehicle_type_id":"4","last_reported":1687554407,"current_range_meters":17600,"station_id":"ce4bgjh2rcd13ifvqbf0","pricing_plan_id":"free"},{"bike_id":"e4e06b95-1721-4584-9864-ef74cf24cd0f","system_id":"levelo_inurba_marseille","lat":43.33041,"lon":5.38918,"is_reserved":false,"is_disabled":false,"rental_uris":{"android":"levelo://app?vid=e4e06b95-1721-4584-9864-ef74cf24cd0f","ios":"levelo://app?vid=e4e06b95-1721-4584-9864-ef74cf24cd0f"},"vehicle_type_id":"4","last_reported":1687554407,"current_range_meters":18000,"station_id":"ce4bhr92rcd13ifvqhrg","pricing_plan_id":"free"},{"bike_id":"7c811762-c0ee-4656-87ba-109acbb8edd1","system_id":"levelo_inurba_marseille","lat":43.33042,"lon":5.38917,"is_reserved":false,"is_disabled":false,"rental_uris":{"android":"levelo://app?vid=7c811762-c0ee-4656-87ba-109acbb8edd1","ios":"levelo://app?vid=7c811762-c0ee-4656-87ba-109acbb8edd1"},"vehicle_type_id":"4","last_reported":1687554407,"current_range_meters":11600,"station_id":"ce4bhr92rcd13ifvqhrg","pricing_plan_id":"free"},{"bike_id":"7c4864e9-a0e6-4a7c-ae0f-00be6827168a","system_id":"levelo_inurba_marseille","lat":43.33041,"lon":5.38919,"is_reserved":false,"is_disabled":false,"rental_uris":{"android":"levelo://app?vid=7c4864e9-a0e6-4a7c-ae0f-00be6827168a","ios":"levelo://app?vid=7c4864e9-a0e6-4a7c-ae0f-00be6827168a"},"vehicle_type_id":"4","last_reported":1687554407,"current_range_meters":0,"station_id":"ce4bhr92rcd13ifvqhrg","pricing_plan_id":"free"},{"bike_id":"383564b9-2cae-4808-aee8-d3aefd710421","system_id":"levelo_inurba_marseille","lat":43.33043,"lon":5.38917,"is_reserved":false,"is_disabled":false,"rental_uris":{"android":"levelo://app?vid=383564b9-2cae-4808-aee8-d3aefd710421","ios":"levelo://app?vid=383564b9-2cae-4808-aee8-d3aefd710421"},"vehicle_type_id":"4","last_reported":1687554407,"current_range_meters":0,"station_id":"ce4bhr92rcd13ifvqhrg","pricing_plan_id":"free"},{"bike_id":"23417d1c-4028-4ee4-a9cc-dba39ef81cc6","system_id":"levelo_inurba_marseille","lat":43.33042,"lon":5.38919,"is_reserved":false,"is_disabled":false,"rental_uris":{"android":"levelo://app?vid=23417d1c-4028-4ee4-a9cc-dba39ef81cc6","ios":"levelo://app?vid=23417d1c-4028-4ee4-a9cc-dba39ef81cc6"},"vehicle_type_id":"4","last_reported":1687554407,"current_range_meters":0,"station_id":"ce4bhr92rcd13ifvqhrg","pricing_plan_id":"free"},{"bike_id":"68e9620c-5a70-4613-b099-d344716de6f1","system_id":"levelo_inurba_marseille","lat":43.290995,"lon":5.381361,"is_reserved":false,"is_disabled":false,"rental_uris":{"android":"levelo://app?vid=68e9620c-5a70-4613-b099-d344716de6f1","ios":"levelo://app?vid=68e9620c-5a70-4613-b099-d344716de6f1"},"vehicle_type_id":"4","last_reported":1687554407,"current_range_meters":1200,"station_id":"ce4bh512rcd13ifvqe2g","pricing_plan_id":"free"},{"bike_id":"12fa58be-e246-4486-a31c-71d02029161a","system_id":"levelo_inurba_marseille","lat":43.285742,"lon":5.395004,"is_reserved":false,"is_disabled":false,"rental_uris":{"android":"levelo://app?vid=12fa58be-e246-4486-a31c-71d02029161a","ios":"levelo://app?vid=12fa58be-e246-4486-a31c-71d02029161a"},"vehicle_type_id":"4","last_reported":1687554407,"current_range_meters":1600,"station_id":"ce4bh292rcd13ifvqdg0","pricing_plan_id":"free"},{"bike_id":"a3f37a45-290e-4622-8831-fad1f39142f0","system_id":"levelo_inurba_marseille","lat":43.28856,"lon":5.358371,"is_reserved":false,"is_disabled":false,"rental_uris":{"android":"levelo://app?vid=a3f37a45-290e-4622-8831-fad1f39142f0","ios":"levelo://app?vid=a3f37a45-290e-4622-8831-fad1f39142f0"},"vehicle_type_id":"4","last_reported":1687554407,"current_range_meters":2800,"station_id":"ce4bhb12rcd13ifvqem0","pricing_plan_id":"free"},{"bike_id":"0d2b194d-53c7-4336-97ff-c24052e19435","system_id":"levelo_inurba_marseille","lat":43.28856,"lon":5.358371,"is_reserved":false,"is_disabled":false,"rental_uris":{"android":"levelo://app?vid=0d2b194d-53c7-4336-97ff-c24052e19435","ios":"levelo://app?vid=0d2b194d-53c7-4336-97ff-c24052e19435"},"vehicle_type_id":"4","last_reported":1687554407,"current_range_meters":0,"station_id":"ce4bhb12rcd13ifvqem0","pricing_plan_id":"free"},{"bike_id":"68b6011d-6cbb-4bfe-b25e-53ea75c985fc","system_id":"levelo_inurba_marseille","lat":43.28856,"lon":5.358371,"is_reserved":false,"is_disabled":false,"rental_uris":{"android":"levelo://app?vid=68b6011d-6cbb-4bfe-b25e-53ea75c985fc","ios":"levelo://app?vid=68b6011d-6cbb-4bfe-b25e-53ea75c985fc"},"vehicle_type_id":"4","last_reported":1687554407,"current_range_meters":3200,"station_id":"ce4bhb12rcd13ifvqem0","pricing_plan_id":"free"},{"bike_id":"3f8a925a-6a54-4259-a38f-9cf091aab246","system_id":"levelo_inurba_marseille","lat":43.29262,"lon":5.38752,"is_reserved":false,"is_disabled":false,"rental_uris":{"android":"levelo://app?vid=3f8a925a-6a54-4259-a38f-9cf091aab246","ios":"levelo://app?vid=3f8a925a-6a54-4259-a38f-9cf091aab246"},"vehicle_type_id":"4","last_reported":1687554407,"current_range_meters":24000,"station_id":"","pricing_plan_id":"free"},{"bike_id":"f217ecaa-0a78-47a2-87ec-d37431a1054a","system_id":"levelo_inurba_marseille","lat":43.309371,"lon":5.401449,"is_reserved":false,"is_disabled":false,"rental_uris":{"android":"levelo://app?vid=f217ecaa-0a78-47a2-87ec-d37431a1054a","ios":"levelo://app?vid=f217ecaa-0a78-47a2-87ec-d37431a1054a"},"vehicle_type_id":"4","last_reported":1687554407,"current_range_meters":1600,"station_id":"ce4bgvp2rcd13ifvqct0","pricing_plan_id":"free"},{"bike_id":"207dc710-6422-497a-ad57-f1b005e17446","system_id":"levelo_inurba_marseille","lat":43.309371,"lon":5.401449,"is_reserved":false,"is_disabled":false,"rental_uris":{"android":"levelo://app?vid=207dc710-6422-497a-ad57-f1b005e17446","ios":"levelo://app?vid=207dc710-6422-497a-ad57-f1b005e17446"},"vehicle_type_id":"4","last_reported":1687554407,"current_range_meters":31200,"station_id":"ce4bgvp2rcd13ifvqct0","pricing_plan_id":"free"},{"bike_id":"7136e1f6-ea14-44cf-a144-3cf61fe5b09f","system_id":"levelo_inurba_marseille","lat":43.306412,"lon":5.401035,"is_reserved":false,"is_disabled":false,"rental_uris":{"android":"levelo://app?vid=7136e1f6-ea14-44cf-a144-3cf61fe5b09f","ios":"levelo://app?vid=7136e1f6-ea14-44cf-a144-3cf61fe5b09f"},"vehicle_type_id":"4","last_reported":1687554407,"current_range_meters":20000,"station_id":"ce4bh112rcd13ifvqda0","pricing_plan_id":"free"},{"bike_id":"c180ae38-f769-441f-8a55-5a6e4930e6ad","system_id":"levelo_inurba_marseille","lat":43.3375,"lon":5.37439,"is_reserved":false,"is_disabled":false,"rental_uris":{"android":"levelo://app?vid=c180ae38-f769-441f-8a55-5a6e4930e6ad","ios":"levelo://app?vid=c180ae38-f769-441f-8a55-5a6e4930e6ad"},"vehicle_type_id":"4","last_reported":1687554407,"current_range_meters":27200,"station_id":"","pricing_plan_id":"free"},{"bike_id":"dcf38555-22f7-4034-b160-6afa14cc0c4d","system_id":"levelo_inurba_marseille","lat":43.306412,"lon":5.401035,"is_reserved":false,"is_disabled":false,"rental_uris":{"android":"levelo://app?vid=dcf38555-22f7-4034-b160-6afa14cc0c4d","ios":"levelo://app?vid=dcf38555-22f7-4034-b160-6afa14cc0c4d"},"vehicle_type_id":"4","last_reported":1687554407,"current_range_meters":11600,"station_id":"ce4bh112rcd13ifvqda0","pricing_plan_id":"free"},{"bike_id":"698a0c42-1f58-43ce-9158-85de813c112c","system_id":"levelo_inurba_marseille","lat":43.306412,"lon":5.401035,"is_reserved":false,"is_disabled":false,"rental_uris":{"android":"levelo://app?vid=698a0c42-1f58-43ce-9158-85de813c112c","ios":"levelo://app?vid=698a0c42-1f58-43ce-9158-85de813c112c"},"vehicle_type_id":"4","last_reported":1687554407,"current_range_meters":20000,"station_id":"ce4bh112rcd13ifvqda0","pricing_plan_id":"free"},{"bike_id":"66d5dbc0-0c90-4db5-abb9-833923d5797d","system_id":"levelo_inurba_marseille","lat":43.30642,"lon":5.401031,"is_reserved":false,"is_disabled":false,"rental_uris":{"android":"levelo://app?vid=66d5dbc0-0c90-4db5-abb9-833923d5797d","ios":"levelo://app?vid=66d5dbc0-0c90-4db5-abb9-833923d5797d"},"vehicle_type_id":"4","last_reported":1687554407,"current_range_meters":15600,"station_id":"ce4bh112rcd13ifvqda0","pricing_plan_id":"free"},{"bike_id":"949e1a94-7467-4419-977f-47b0246d2942","system_id":"levelo_inurba_marseille","lat":43.306412,"lon":5.401035,"is_reserved":false,"is_disabled":false,"rental_uris":{"android":"levelo://app?vid=949e1a94-7467-4419-977f-47b0246d2942","ios":"levelo://app?vid=949e1a94-7467-4419-977f-47b0246d2942"},"vehicle_type_id":"4","last_reported":1687554407,"current_range_meters":18000,"station_id":"ce4bh112rcd13ifvqda0","pricing_plan_id":"free"},{"bike_id":"d5327c19-3a5c-4753-a1a6-51633342de4d","system_id":"levelo_inurba_marseille","lat":43.301117,"lon":5.398795,"is_reserved":false,"is_disabled":false,"rental_uris":{"android":"levelo://app?vid=d5327c19-3a5c-4753-a1a6-51633342de4d","ios":"levelo://app?vid=d5327c19-3a5c-4753-a1a6-51633342de4d"},"vehicle_type_id":"4","last_reported":1687554407,"current_range_meters":19200,"station_id":"ce4bh0h2rcd13ifvqd40","pricing_plan_id":"free"},{"bike_id":"d31d192e-da56-4517-a27c-9c1099ca0581","system_id":"levelo_inurba_marseille","lat":43.298681,"lon":5.397225,"is_reserved":false,"is_disabled":false,"rental_uris":{"android":"levelo://app?vid=d31d192e-da56-4517-a27c-9c1099ca0581","ios":"levelo://app?vid=d31d192e-da56-4517-a27c-9c1099ca0581"},"vehicle_type_id":"4","last_reported":1687554407,"current_range_meters":12400,"station_id":"ce4bh0h2rcd13ifvqd50","pricing_plan_id":"free"},{"bike_id":"fe603e49-6043-4933-938b-8f044f555b1b","system_id":"levelo_inurba_marseille","lat":43.298681,"lon":5.397225,"is_reserved":false,"is_disabled":false,"rental_uris":{"android":"levelo://app?vid=fe603e49-6043-4933-938b-8f044f555b1b","ios":"levelo://app?vid=fe603e49-6043-4933-938b-8f044f555b1b"},"vehicle_type_id":"4","last_reported":1687554407,"current_range_meters":5200,"station_id":"ce4bh0h2rcd13ifvqd50","pricing_plan_id":"free"},{"bike_id":"d1ac9d32-7272-4e18-8aec-7147a9a458c1","system_id":"levelo_inurba_marseille","lat":43.28666,"lon":5.36347,"is_reserved":false,"is_disabled":false,"rental_uris":{"android":"levelo://app?vid=d1ac9d32-7272-4e18-8aec-7147a9a458c1","ios":"levelo://app?vid=d1ac9d32-7272-4e18-8aec-7147a9a458c1"},"vehicle_type_id":"4","last_reported":1687554407,"current_range_meters":18400,"station_id":"ce4bhah2rcd13ifvqej0","pricing_plan_id":"free"},{"bike_id":"46f3c5af-fd68-4474-9fee-573a32652a00","system_id":"levelo_inurba_marseille","lat":43.286591,"lon":5.363346,"is_reserved":false,"is_disabled":false,"rental_uris":{"android":"levelo://app?vid=46f3c5af-fd68-4474-9fee-573a32652a00","ios":"levelo://app?vid=46f3c5af-fd68-4474-9fee-573a32652a00"},"vehicle_type_id":"4","last_reported":1687554407,"current_range_meters":18800,"station_id":"ce4bhah2rcd13ifvqej0","pricing_plan_id":"free"},{"bike_id":"19a7677b-270e-4d81-8509-cb2aaa67c9e6","system_id":"levelo_inurba_marseille","lat":43.286961,"lon":5.373785,"is_reserved":false,"is_disabled":false,"rental_uris":{"android":"levelo://app?vid=19a7677b-270e-4d81-8509-cb2aaa67c9e6","ios":"levelo://app?vid=19a7677b-270e-4d81-8509-cb2aaa67c9e6"},"vehicle_type_id":"4","last_reported":1687554407,"current_range_meters":29600,"station_id":"ce4bh3p2rcd13ifvqdq0","pricing_plan_id":"free"},{"bike_id":"bd8ac58b-4650-4f4b-bd15-1cca846146f7","system_id":"levelo_inurba_marseille","lat":43.295196,"lon":5.39397,"is_reserved":false,"is_disabled":false,"rental_uris":{"android":"levelo://app?vid=bd8ac58b-4650-4f4b-bd15-1cca846146f7","ios":"levelo://app?vid=bd8ac58b-4650-4f4b-bd15-1cca846146f7"},"vehicle_type_id":"4","last_reported":1687554407,"current_range_meters":14800,"station_id":"ce4bh292rcd13ifvqdf0","pricing_plan_id":"free"},{"bike_id":"f9eeaed1-b664-4978-b5f7-764c3b8d5308","system_id":"levelo_inurba_marseille","lat":43.286961,"lon":5.373785,"is_reserved":false,"is_disabled":false,"rental_uris":{"android":"levelo://app?vid=f9eeaed1-b664-4978-b5f7-764c3b8d5308","ios":"levelo://app?vid=f9eeaed1-b664-4978-b5f7-764c3b8d5308"},"vehicle_type_id":"4","last_reported":1687554407,"current_range_meters":6000,"station_id":"ce4bh3p2rcd13ifvqdq0","pricing_plan_id":"free"},{"bike_id":"576d867f-cbbf-4b1d-88cf-f185e4180574","system_id":"levelo_inurba_marseille","lat":43.295196,"lon":5.39397,"is_reserved":false,"is_disabled":false,"rental_uris":{"android":"levelo://app?vid=576d867f-cbbf-4b1d-88cf-f185e4180574","ios":"levelo://app?vid=576d867f-cbbf-4b1d-88cf-f185e4180574"},"vehicle_type_id":"4","last_reported":1687554407,"current_range_meters":12400,"station_id":"ce4bh292rcd13ifvqdf0","pricing_plan_id":"free"},{"bike_id":"00a5ffc3-493d-45be-a0db-5d4ebfa2ee4c","system_id":"levelo_inurba_marseille","lat":43.295196,"lon":5.39397,"is_reserved":false,"is_disabled":false,"rental_uris":{"android":"levelo://app?vid=00a5ffc3-493d-45be-a0db-5d4ebfa2ee4c","ios":"levelo://app?vid=00a5ffc3-493d-45be-a0db-5d4ebfa2ee4c"},"vehicle_type_id":"4","last_reported":1687554407,"current_range_meters":12400,"station_id":"ce4bh292rcd13ifvqdf0","pricing_plan_id":"free"},{"bike_id":"7d2c08f7-e0b5-439a-a50c-958e80aafd59","system_id":"levelo_inurba_marseille","lat":43.295196,"lon":5.39397,"is_reserved":false,"is_disabled":false,"rental_uris":{"android":"levelo://app?vid=7d2c08f7-e0b5-439a-a50c-958e80aafd59","ios":"levelo://app?vid=7d2c08f7-e0b5-439a-a50c-958e80aafd59"},"vehicle_type_id":"4","last_reported":1687554407,"current_range_meters":17600,"station_id":"ce4bh292rcd13ifvqdf0","pricing_plan_id":"free"},{"bike_id":"9270cec9-5b0f-432c-bbd8-16170a7e2cf8","system_id":"levelo_inurba_marseille","lat":43.30236,"lon":5.4005,"is_reserved":false,"is_disabled":false,"rental_uris":{"android":"levelo://app?vid=9270cec9-5b0f-432c-bbd8-16170a7e2cf8","ios":"levelo://app?vid=9270cec9-5b0f-432c-bbd8-16170a7e2cf8"},"vehicle_type_id":"4","last_reported":1687554407,"current_range_meters":800,"station_id":"","pricing_plan_id":"free"},{"bike_id":"8f8a9ba5-bb84-4ef1-afb4-58a139b53d9d","system_id":"levelo_inurba_marseille","lat":43.302759,"lon":5.400793,"is_reserved":false,"is_disabled":false,"rental_uris":{"android":"levelo://app?vid=8f8a9ba5-bb84-4ef1-afb4-58a139b53d9d","ios":"levelo://app?vid=8f8a9ba5-bb84-4ef1-afb4-58a139b53d9d"},"vehicle_type_id":"4","last_reported":1687554407,"current_range_meters":6400,"station_id":"ce4bgvh2rcd13ifvqcs0","pricing_plan_id":"free"},{"bike_id":"49f9a2b7-e4a1-43ac-b4bd-751e5f25969e","system_id":"levelo_inurba_marseille","lat":43.302759,"lon":5.400793,"is_reserved":false,"is_disabled":false,"rental_uris":{"android":"levelo://app?vid=49f9a2b7-e4a1-43ac-b4bd-751e5f25969e","ios":"levelo://app?vid=49f9a2b7-e4a1-43ac-b4bd-751e5f25969e"},"vehicle_type_id":"4","last_reported":1687554407,"current_range_meters":25200,"station_id":"ce4bgvh2rcd13ifvqcs0","pricing_plan_id":"free"},{"bike_id":"2b5519cd-9991-4821-ba5e-421ff5e8bb06","system_id":"levelo_inurba_marseille","lat":43.28719,"lon":5.37934,"is_reserved":false,"is_disabled":false,"rental_uris":{"android":"levelo://app?vid=2b5519cd-9991-4821-ba5e-421ff5e8bb06","ios":"levelo://app?vid=2b5519cd-9991-4821-ba5e-421ff5e8bb06"},"vehicle_type_id":"4","last_reported":1687554407,"current_range_meters":21600,"station_id":"ce4bh9p2rcd13ifvqec0","pricing_plan_id":"free"},{"bike_id":"abd4caf1-857e-4f0e-9bd3-f0843d216525","system_id":"levelo_inurba_marseille","lat":43.291994,"lon":5.392907,"is_reserved":false,"is_disabled":false,"rental_uris":{"android":"levelo://app?vid=abd4caf1-857e-4f0e-9bd3-f0843d216525","ios":"levelo://app?vid=abd4caf1-857e-4f0e-9bd3-f0843d216525"},"vehicle_type_id":"4","last_reported":1687554407,"current_range_meters":14400,"station_id":"ce4bh192rcd13ifvqdd0","pricing_plan_id":"free"},{"bike_id":"28fbafb9-ecfd-4b1e-972c-2924ae277716","system_id":"levelo_inurba_marseille","lat":43.28459,"lon":5.35885,"is_reserved":false,"is_disabled":false,"rental_uris":{"android":"levelo://app?vid=28fbafb9-ecfd-4b1e-972c-2924ae277716","ios":"levelo://app?vid=28fbafb9-ecfd-4b1e-972c-2924ae277716"},"vehicle_type_id":"4","last_reported":1687554407,"current_range_meters":0,"station_id":"ce4bhah2rcd13ifvqei0","pricing_plan_id":"free"},{"bike_id":"51159607-4c0c-4830-8d67-ad78595ef434","system_id":"levelo_inurba_marseille","lat":43.294314,"lon":5.397498,"is_reserved":false,"is_disabled":false,"rental_uris":{"android":"levelo://app?vid=51159607-4c0c-4830-8d67-ad78595ef434","ios":"levelo://app?vid=51159607-4c0c-4830-8d67-ad78595ef434"},"vehicle_type_id":"4","last_reported":1687554407,"current_range_meters":7200,"station_id":"ce4bh3h2rcd13ifvqdo0","pricing_plan_id":"free"},{"bike_id":"55c6bb61-fd96-4c5e-962e-307d1b077768","system_id":"levelo_inurba_marseille","lat":43.294314,"lon":5.397498,"is_reserved":false,"is_disabled":false,"rental_uris":{"android":"levelo://app?vid=55c6bb61-fd96-4c5e-962e-307d1b077768","ios":"levelo://app?vid=55c6bb61-fd96-4c5e-962e-307d1b077768"},"vehicle_type_id":"4","last_reported":1687554407,"current_range_meters":31200,"station_id":"ce4bh3h2rcd13ifvqdo0","pricing_plan_id":"free"},{"bike_id":"44533995-ccba-409c-be42-817065c89cc5","system_id":"levelo_inurba_marseille","lat":43.283998,"lon":5.375062,"is_reserved":false,"is_disabled":false,"rental_uris":{"android":"levelo://app?vid=44533995-ccba-409c-be42-817065c89cc5","ios":"levelo://app?vid=44533995-ccba-409c-be42-817065c89cc5"},"vehicle_type_id":"4","last_reported":1687554407,"current_range_meters":3200,"station_id":"ce4bh412rcd13ifvqds0","pricing_plan_id":"free"},{"bike_id":"99359303-263f-4858-9567-dda5525f3cfc","system_id":"levelo_inurba_marseille","lat":43.283998,"lon":5.375062,"is_reserved":false,"is_disabled":false,"rental_uris":{"android":"levelo://app?vid=99359303-263f-4858-9567-dda5525f3cfc","ios":"levelo://app?vid=99359303-263f-4858-9567-dda5525f3cfc"},"vehicle_type_id":"4","last_reported":1687554407,"current_range_meters":5200,"station_id":"ce4bh412rcd13ifvqds0","pricing_plan_id":"free"},{"bike_id":"3da566a0-6484-4adc-ac4b-a689201482c8","system_id":"levelo_inurba_marseille","lat":43.295713,"lon":5.399639,"is_reserved":false,"is_disabled":false,"rental_uris":{"android":"levelo://app?vid=3da566a0-6484-4adc-ac4b-a689201482c8","ios":"levelo://app?vid=3da566a0-6484-4adc-ac4b-a689201482c8"},"vehicle_type_id":"4","last_reported":1687554407,"current_range_meters":25600,"station_id":"ce4bh312rcd13ifvqdj0","pricing_plan_id":"free"},{"bike_id":"c41269c8-e43a-44da-9a75-dcd0cf9598dc","system_id":"levelo_inurba_marseille","lat":43.28681,"lon":5.38657,"is_reserved":false,"is_disabled":false,"rental_uris":{"android":"levelo://app?vid=c41269c8-e43a-44da-9a75-dcd0cf9598dc","ios":"levelo://app?vid=c41269c8-e43a-44da-9a75-dcd0cf9598dc"},"vehicle_type_id":"4","last_reported":1687554407,"current_range_meters":23600,"station_id":"","pricing_plan_id":"free"},{"bike_id":"e1520d42-97d7-4014-982c-654c7e8f5dff","system_id":"levelo_inurba_marseille","lat":43.28671,"lon":5.38668,"is_reserved":false,"is_disabled":false,"rental_uris":{"android":"levelo://app?vid=e1520d42-97d7-4014-982c-654c7e8f5dff","ios":"levelo://app?vid=e1520d42-97d7-4014-982c-654c7e8f5dff"},"vehicle_type_id":"4","last_reported":1687554407,"current_range_meters":22000,"station_id":"ce4bh492rcd13ifvqdug","pricing_plan_id":"free"},{"bike_id":"1ec4830f-fce5-4169-8f44-16bdcd98cdc0","system_id":"levelo_inurba_marseille","lat":43.286595,"lon":5.386795,"is_reserved":false,"is_disabled":false,"rental_uris":{"android":"levelo://app?vid=1ec4830f-fce5-4169-8f44-16bdcd98cdc0","ios":"levelo://app?vid=1ec4830f-fce5-4169-8f44-16bdcd98cdc0"},"vehicle_type_id":"4","last_reported":1687554407,"current_range_meters":0,"station_id":"ce4bh492rcd13ifvqdug","pricing_plan_id":"free"},{"bike_id":"16ce087b-a296-482e-8ff4-72669a8d958b","system_id":"levelo_inurba_marseille","lat":43.28658,"lon":5.38657,"is_reserved":false,"is_disabled":false,"rental_uris":{"android":"levelo://app?vid=16ce087b-a296-482e-8ff4-72669a8d958b","ios":"levelo://app?vid=16ce087b-a296-482e-8ff4-72669a8d958b"},"vehicle_type_id":"4","last_reported":1687554407,"current_range_meters":0,"station_id":"ce4bh492rcd13ifvqdug","pricing_plan_id":"free"},{"bike_id":"628aaf33-374c-46b8-a637-b7fb423ec463","system_id":"levelo_inurba_marseille","lat":43.286595,"lon":5.386795,"is_reserved":false,"is_disabled":false,"rental_uris":{"android":"levelo://app?vid=628aaf33-374c-46b8-a637-b7fb423ec463","ios":"levelo://app?vid=628aaf33-374c-46b8-a637-b7fb423ec463"},"vehicle_type_id":"4","last_reported":1687554407,"current_range_meters":3200,"station_id":"ce4bh492rcd13ifvqdug","pricing_plan_id":"free"},{"bike_id":"9cae825f-ce49-4976-9212-5608954cbbcd","system_id":"levelo_inurba_marseille","lat":43.323464,"lon":5.406297,"is_reserved":false,"is_disabled":false,"rental_uris":{"android":"levelo://app?vid=9cae825f-ce49-4976-9212-5608954cbbcd","ios":"levelo://app?vid=9cae825f-ce49-4976-9212-5608954cbbcd"},"vehicle_type_id":"4","last_reported":1687554407,"current_range_meters":23200,"station_id":"ce4bhq92rcd13ifvqhjg","pricing_plan_id":"free"},{"bike_id":"75b81fdb-a7b4-4460-a538-12c0506d599b","system_id":"levelo_inurba_marseille","lat":43.323464,"lon":5.406297,"is_reserved":false,"is_disabled":false,"rental_uris":{"android":"levelo://app?vid=75b81fdb-a7b4-4460-a538-12c0506d599b","ios":"levelo://app?vid=75b81fdb-a7b4-4460-a538-12c0506d599b"},"vehicle_type_id":"4","last_reported":1687554407,"current_range_meters":15600,"station_id":"ce4bhq92rcd13ifvqhjg","pricing_plan_id":"free"},{"bike_id":"e5991cd3-2cf9-4db6-99a8-0214cfe2d20c","system_id":"levelo_inurba_marseille","lat":43.32338,"lon":5.40616,"is_reserved":false,"is_disabled":false,"rental_uris":{"android":"levelo://app?vid=e5991cd3-2cf9-4db6-99a8-0214cfe2d20c","ios":"levelo://app?vid=e5991cd3-2cf9-4db6-99a8-0214cfe2d20c"},"vehicle_type_id":"4","last_reported":1687554407,"current_range_meters":2400,"station_id":"ce4bhq92rcd13ifvqhjg","pricing_plan_id":"free"},{"bike_id":"fe1f39ee-1f5f-4fee-bf72-ec5ff6851e86","system_id":"levelo_inurba_marseille","lat":43.32331,"lon":5.40621,"is_reserved":false,"is_disabled":false,"rental_uris":{"android":"levelo://app?vid=fe1f39ee-1f5f-4fee-bf72-ec5ff6851e86","ios":"levelo://app?vid=fe1f39ee-1f5f-4fee-bf72-ec5ff6851e86"},"vehicle_type_id":"4","last_reported":1687554407,"current_range_meters":5200,"station_id":"ce4bhq92rcd13ifvqhjg","pricing_plan_id":"free"},{"bike_id":"2a2f252d-d96d-4440-a4a3-43fbbf49969d","system_id":"levelo_inurba_marseille","lat":43.32342,"lon":5.40617,"is_reserved":false,"is_disabled":false,"rental_uris":{"android":"levelo://app?vid=2a2f252d-d96d-4440-a4a3-43fbbf49969d","ios":"levelo://app?vid=2a2f252d-d96d-4440-a4a3-43fbbf49969d"},"vehicle_type_id":"4","last_reported":1687554407,"current_range_meters":9200,"station_id":"ce4bhq92rcd13ifvqhjg","pricing_plan_id":"free"},{"bike_id":"c2e0f10b-6e4e-4cf9-b8dd-4d890db279aa","system_id":"levelo_inurba_marseille","lat":43.32335,"lon":5.40621,"is_reserved":false,"is_disabled":false,"rental_uris":{"android":"levelo://app?vid=c2e0f10b-6e4e-4cf9-b8dd-4d890db279aa","ios":"levelo://app?vid=c2e0f10b-6e4e-4cf9-b8dd-4d890db279aa"},"vehicle_type_id":"4","last_reported":1687554407,"current_range_meters":7200,"station_id":"ce4bhq92rcd13ifvqhjg","pricing_plan_id":"free"},{"bike_id":"11342d7d-dfe8-4da4-8ba1-fa20c4460f51","system_id":"levelo_inurba_marseille","lat":43.32335,"lon":5.40621,"is_reserved":false,"is_disabled":false,"rental_uris":{"android":"levelo://app?vid=11342d7d-dfe8-4da4-8ba1-fa20c4460f51","ios":"levelo://app?vid=11342d7d-dfe8-4da4-8ba1-fa20c4460f51"},"vehicle_type_id":"4","last_reported":1687554407,"current_range_meters":400,"station_id":"ce4bhq92rcd13ifvqhjg","pricing_plan_id":"free"},{"bike_id":"5b1b2353-ebee-488e-af3d-ca7b91003a97","system_id":"levelo_inurba_marseille","lat":43.32336,"lon":5.40621,"is_reserved":false,"is_disabled":false,"rental_uris":{"android":"levelo://app?vid=5b1b2353-ebee-488e-af3d-ca7b91003a97","ios":"levelo://app?vid=5b1b2353-ebee-488e-af3d-ca7b91003a97"},"vehicle_type_id":"4","last_reported":1687554407,"current_range_meters":15200,"station_id":"ce4bhq92rcd13ifvqhjg","pricing_plan_id":"free"},{"bike_id":"c8a88ad3-79ac-43b0-8ce6-1524daccaf93","system_id":"levelo_inurba_marseille","lat":43.32336,"lon":5.40622,"is_reserved":false,"is_disabled":false,"rental_uris":{"android":"levelo://app?vid=c8a88ad3-79ac-43b0-8ce6-1524daccaf93","ios":"levelo://app?vid=c8a88ad3-79ac-43b0-8ce6-1524daccaf93"},"vehicle_type_id":"4","last_reported":1687554407,"current_range_meters":19200,"station_id":"ce4bhq92rcd13ifvqhjg","pricing_plan_id":"free"},{"bike_id":"fb119190-ee73-4bb2-a46f-657f150a2028","system_id":"levelo_inurba_marseille","lat":43.32336,"lon":5.40624,"is_reserved":false,"is_disabled":false,"rental_uris":{"android":"levelo://app?vid=fb119190-ee73-4bb2-a46f-657f150a2028","ios":"levelo://app?vid=fb119190-ee73-4bb2-a46f-657f150a2028"},"vehicle_type_id":"4","last_reported":1687554407,"current_range_meters":4000,"station_id":"ce4bhq92rcd13ifvqhjg","pricing_plan_id":"free"},{"bike_id":"8d1b5aae-fd4d-4853-83ef-709beadefdc6","system_id":"levelo_inurba_marseille","lat":43.3234,"lon":5.40623,"is_reserved":false,"is_disabled":false,"rental_uris":{"android":"levelo://app?vid=8d1b5aae-fd4d-4853-83ef-709beadefdc6","ios":"levelo://app?vid=8d1b5aae-fd4d-4853-83ef-709beadefdc6"},"vehicle_type_id":"4","last_reported":1687554407,"current_range_meters":21600,"station_id":"ce4bhq92rcd13ifvqhjg","pricing_plan_id":"free"},{"bike_id":"a54c5183-d12c-4b5d-b1a7-e6c2a62eb9b5","system_id":"levelo_inurba_marseille","lat":43.32341,"lon":5.40623,"is_reserved":false,"is_disabled":false,"rental_uris":{"android":"levelo://app?vid=a54c5183-d12c-4b5d-b1a7-e6c2a62eb9b5","ios":"levelo://app?vid=a54c5183-d12c-4b5d-b1a7-e6c2a62eb9b5"},"vehicle_type_id":"4","last_reported":1687554407,"current_range_meters":21600,"station_id":"ce4bhq92rcd13ifvqhjg","pricing_plan_id":"free"},{"bike_id":"8d1f88b2-a260-40c1-9cbd-c5c8b2bfd015","system_id":"levelo_inurba_marseille","lat":43.32341,"lon":5.40624,"is_reserved":false,"is_disabled":false,"rental_uris":{"android":"levelo://app?vid=8d1f88b2-a260-40c1-9cbd-c5c8b2bfd015","ios":"levelo://app?vid=8d1f88b2-a260-40c1-9cbd-c5c8b2bfd015"},"vehicle_type_id":"4","last_reported":1687554407,"current_range_meters":14000,"station_id":"ce4bhq92rcd13ifvqhjg","pricing_plan_id":"free"},{"bike_id":"00803c85-75e3-424e-a0cb-c6ed39a02c23","system_id":"levelo_inurba_marseille","lat":43.323464,"lon":5.406297,"is_reserved":false,"is_disabled":false,"rental_uris":{"android":"levelo://app?vid=00803c85-75e3-424e-a0cb-c6ed39a02c23","ios":"levelo://app?vid=00803c85-75e3-424e-a0cb-c6ed39a02c23"},"vehicle_type_id":"4","last_reported":1687554407,"current_range_meters":12000,"station_id":"ce4bhq92rcd13ifvqhjg","pricing_plan_id":"free"},{"bike_id":"b4c950db-352f-4a1a-8e3c-c05101a6dad0","system_id":"levelo_inurba_marseille","lat":43.288497,"lon":5.393089,"is_reserved":false,"is_disabled":false,"rental_uris":{"android":"levelo://app?vid=b4c950db-352f-4a1a-8e3c-c05101a6dad0","ios":"levelo://app?vid=b4c950db-352f-4a1a-8e3c-c05101a6dad0"},"vehicle_type_id":"4","last_reported":1687554407,"current_range_meters":31200,"station_id":"ce4bh2p2rcd13ifvqdi0","pricing_plan_id":"free"},{"bike_id":"30009901-e23e-4253-81ee-65d56ea46cca","system_id":"levelo_inurba_marseille","lat":43.28851,"lon":5.39303,"is_reserved":false,"is_disabled":false,"rental_uris":{"android":"levelo://app?vid=30009901-e23e-4253-81ee-65d56ea46cca","ios":"levelo://app?vid=30009901-e23e-4253-81ee-65d56ea46cca"},"vehicle_type_id":"4","last_reported":1687554407,"current_range_meters":19600,"station_id":"ce4bh2p2rcd13ifvqdi0","pricing_plan_id":"free"},{"bike_id":"e9bb34fa-f29b-4419-a7d6-dd07a0c9a7bf","system_id":"levelo_inurba_marseille","lat":43.3068,"lon":5.40846,"is_reserved":false,"is_disabled":false,"rental_uris":{"android":"levelo://app?vid=e9bb34fa-f29b-4419-a7d6-dd07a0c9a7bf","ios":"levelo://app?vid=e9bb34fa-f29b-4419-a7d6-dd07a0c9a7bf"},"vehicle_type_id":"4","last_reported":1687554407,"current_range_meters":800,"station_id":"","pricing_plan_id":"free"},{"bike_id":"ca9eb8bd-0f14-4583-985e-45d319444a32","system_id":"levelo_inurba_marseille","lat":43.288501,"lon":5.393087,"is_reserved":false,"is_disabled":false,"rental_uris":{"android":"levelo://app?vid=ca9eb8bd-0f14-4583-985e-45d319444a32","ios":"levelo://app?vid=ca9eb8bd-0f14-4583-985e-45d319444a32"},"vehicle_type_id":"4","last_reported":1687554407,"current_range_meters":15200,"station_id":"ce4bh2p2rcd13ifvqdi0","pricing_plan_id":"free"},{"bike_id":"d88a7029-9965-4d3b-ba0a-51717df9672f","system_id":"levelo_inurba_marseille","lat":43.283494,"lon":5.380945,"is_reserved":false,"is_disabled":false,"rental_uris":{"android":"levelo://app?vid=d88a7029-9965-4d3b-ba0a-51717df9672f","ios":"levelo://app?vid=d88a7029-9965-4d3b-ba0a-51717df9672f"},"vehicle_type_id":"4","last_reported":1687554407,"current_range_meters":16800,"station_id":"ce4bh412rcd13ifvqdr0","pricing_plan_id":"free"},{"bike_id":"e4ea1502-b6b9-4a7e-8196-01540b05cf42","system_id":"levelo_inurba_marseille","lat":43.292724,"lon":5.401131,"is_reserved":false,"is_disabled":false,"rental_uris":{"android":"levelo://app?vid=e4ea1502-b6b9-4a7e-8196-01540b05cf42","ios":"levelo://app?vid=e4ea1502-b6b9-4a7e-8196-01540b05cf42"},"vehicle_type_id":"4","last_reported":1687554407,"current_range_meters":21600,"station_id":"ce4bh312rcd13ifvqdk0","pricing_plan_id":"free"},{"bike_id":"8bb845ff-126e-4b29-aa4e-0fc6889437ff","system_id":"levelo_inurba_marseille","lat":43.292724,"lon":5.401131,"is_reserved":false,"is_disabled":false,"rental_uris":{"android":"levelo://app?vid=8bb845ff-126e-4b29-aa4e-0fc6889437ff","ios":"levelo://app?vid=8bb845ff-126e-4b29-aa4e-0fc6889437ff"},"vehicle_type_id":"4","last_reported":1687554407,"current_range_meters":9600,"station_id":"ce4bh312rcd13ifvqdk0","pricing_plan_id":"free"},{"bike_id":"e1712d4e-375b-464d-a8ce-7032d67c4758","system_id":"levelo_inurba_marseille","lat":43.283502,"lon":5.386471,"is_reserved":false,"is_disabled":false,"rental_uris":{"android":"levelo://app?vid=e1712d4e-375b-464d-a8ce-7032d67c4758","ios":"levelo://app?vid=e1712d4e-375b-464d-a8ce-7032d67c4758"},"vehicle_type_id":"4","last_reported":1687554407,"current_range_meters":400,"station_id":"ce4bh492rcd13ifvqdvg","pricing_plan_id":"free"},{"bike_id":"d770fe19-9818-4b61-9d91-0c6424d320f6","system_id":"levelo_inurba_marseille","lat":43.296263,"lon":5.40601,"is_reserved":false,"is_disabled":false,"rental_uris":{"android":"levelo://app?vid=d770fe19-9818-4b61-9d91-0c6424d320f6","ios":"levelo://app?vid=d770fe19-9818-4b61-9d91-0c6424d320f6"},"vehicle_type_id":"4","last_reported":1687554407,"current_range_meters":5200,"station_id":"ce4bh0h2rcd13ifvqd60","pricing_plan_id":"free"},{"bike_id":"ff60adae-f71a-4e2f-9c03-c28e9ecc3c45","system_id":"levelo_inurba_marseille","lat":43.32765,"lon":5.40739,"is_reserved":false,"is_disabled":false,"rental_uris":{"android":"levelo://app?vid=ff60adae-f71a-4e2f-9c03-c28e9ecc3c45","ios":"levelo://app?vid=ff60adae-f71a-4e2f-9c03-c28e9ecc3c45"},"vehicle_type_id":"4","last_reported":1687554407,"current_range_meters":8400,"station_id":"","pricing_plan_id":"free"},{"bike_id":"d4ead90d-26ac-4a55-8afb-df883e0e82c8","system_id":"levelo_inurba_marseille","lat":43.284462,"lon":5.392121,"is_reserved":false,"is_disabled":false,"rental_uris":{"android":"levelo://app?vid=d4ead90d-26ac-4a55-8afb-df883e0e82c8","ios":"levelo://app?vid=d4ead90d-26ac-4a55-8afb-df883e0e82c8"},"vehicle_type_id":"4","last_reported":1687554407,"current_range_meters":14800,"station_id":"ce4bhoh2rcd13ifvqh5g","pricing_plan_id":"free"},{"bike_id":"87a15827-a5b3-4ea1-b416-50bed77d3d85","system_id":"levelo_inurba_marseille","lat":43.284462,"lon":5.392121,"is_reserved":false,"is_disabled":false,"rental_uris":{"android":"levelo://app?vid=87a15827-a5b3-4ea1-b416-50bed77d3d85","ios":"levelo://app?vid=87a15827-a5b3-4ea1-b416-50bed77d3d85"},"vehicle_type_id":"4","last_reported":1687554407,"current_range_meters":28000,"station_id":"ce4bhoh2rcd13ifvqh5g","pricing_plan_id":"free"},{"bike_id":"772cccb9-6790-48de-adb7-9327bc56f0f1","system_id":"levelo_inurba_marseille","lat":43.285742,"lon":5.395004,"is_reserved":false,"is_disabled":false,"rental_uris":{"android":"levelo://app?vid=772cccb9-6790-48de-adb7-9327bc56f0f1","ios":"levelo://app?vid=772cccb9-6790-48de-adb7-9327bc56f0f1"},"vehicle_type_id":"4","last_reported":1687554407,"current_range_meters":18800,"station_id":"ce4bh292rcd13ifvqdg0","pricing_plan_id":"free"},{"bike_id":"514e4d9d-f74c-4bd1-8d07-610055ad8743","system_id":"levelo_inurba_marseille","lat":43.32662,"lon":5.40982,"is_reserved":false,"is_disabled":false,"rental_uris":{"android":"levelo://app?vid=514e4d9d-f74c-4bd1-8d07-610055ad8743","ios":"levelo://app?vid=514e4d9d-f74c-4bd1-8d07-610055ad8743"},"vehicle_type_id":"4","last_reported":1687554407,"current_range_meters":13600,"station_id":"ce4bhpp2rcd13ifvqhgg","pricing_plan_id":"free"},{"bike_id":"9b7e311b-427f-4c6b-9bfe-6d233d8bb257","system_id":"levelo_inurba_marseille","lat":43.32657,"lon":5.40991,"is_reserved":false,"is_disabled":false,"rental_uris":{"android":"levelo://app?vid=9b7e311b-427f-4c6b-9bfe-6d233d8bb257","ios":"levelo://app?vid=9b7e311b-427f-4c6b-9bfe-6d233d8bb257"},"vehicle_type_id":"4","last_reported":1687554407,"current_range_meters":7200,"station_id":"ce4bhpp2rcd13ifvqhgg","pricing_plan_id":"free"},{"bike_id":"944cc645-9c61-42d4-8b7e-807c114cae2f","system_id":"levelo_inurba_marseille","lat":43.32657,"lon":5.40996,"is_reserved":false,"is_disabled":false,"rental_uris":{"android":"levelo://app?vid=944cc645-9c61-42d4-8b7e-807c114cae2f","ios":"levelo://app?vid=944cc645-9c61-42d4-8b7e-807c114cae2f"},"vehicle_type_id":"4","last_reported":1687554407,"current_range_meters":8400,"station_id":"ce4bhpp2rcd13ifvqhgg","pricing_plan_id":"free"},{"bike_id":"fc2a51fe-3bf8-46f3-9fe8-f24612d4a02a","system_id":"levelo_inurba_marseille","lat":43.326565,"lon":5.409975,"is_reserved":false,"is_disabled":false,"rental_uris":{"android":"levelo://app?vid=fc2a51fe-3bf8-46f3-9fe8-f24612d4a02a","ios":"levelo://app?vid=fc2a51fe-3bf8-46f3-9fe8-f24612d4a02a"},"vehicle_type_id":"4","last_reported":1687554407,"current_range_meters":6000,"station_id":"ce4bhpp2rcd13ifvqhgg","pricing_plan_id":"free"},{"bike_id":"f47d889e-f3a7-4cf7-b89b-498d12032e77","system_id":"levelo_inurba_marseille","lat":43.29293,"lon":5.40648,"is_reserved":false,"is_disabled":false,"rental_uris":{"android":"levelo://app?vid=f47d889e-f3a7-4cf7-b89b-498d12032e77","ios":"levelo://app?vid=f47d889e-f3a7-4cf7-b89b-498d12032e77"},"vehicle_type_id":"4","last_reported":1687554407,"current_range_meters":6800,"station_id":"","pricing_plan_id":"free"},{"bike_id":"5af7e056-c5cc-4fe0-b4df-5b8749aef315","system_id":"levelo_inurba_marseille","lat":43.279087,"lon":5.380114,"is_reserved":false,"is_disabled":false,"rental_uris":{"android":"levelo://app?vid=5af7e056-c5cc-4fe0-b4df-5b8749aef315","ios":"levelo://app?vid=5af7e056-c5cc-4fe0-b4df-5b8749aef315"},"vehicle_type_id":"4","last_reported":1687554407,"current_range_meters":28800,"station_id":"ce4bhf92rcd13ifvqf50","pricing_plan_id":"free"},{"bike_id":"50fd953c-9754-45f4-aec7-ae52bb9eb6fe","system_id":"levelo_inurba_marseille","lat":43.287154,"lon":5.399979,"is_reserved":false,"is_disabled":false,"rental_uris":{"android":"levelo://app?vid=50fd953c-9754-45f4-aec7-ae52bb9eb6fe","ios":"levelo://app?vid=50fd953c-9754-45f4-aec7-ae52bb9eb6fe"},"vehicle_type_id":"4","last_reported":1687554407,"current_range_meters":31200,"station_id":"ce4bho92rcd13ifvqh3g","pricing_plan_id":"free"},{"bike_id":"f38578d2-5f20-4e84-98b5-15ba92d96b2b","system_id":"levelo_inurba_marseille","lat":43.279087,"lon":5.380114,"is_reserved":false,"is_disabled":false,"rental_uris":{"android":"levelo://app?vid=f38578d2-5f20-4e84-98b5-15ba92d96b2b","ios":"levelo://app?vid=f38578d2-5f20-4e84-98b5-15ba92d96b2b"},"vehicle_type_id":"4","last_reported":1687554407,"current_range_meters":21600,"station_id":"ce4bhf92rcd13ifvqf50","pricing_plan_id":"free"},{"bike_id":"14c9cff9-ef50-4c6d-8fa4-9a1095daa1fd","system_id":"levelo_inurba_marseille","lat":43.299579,"lon":5.413255,"is_reserved":false,"is_disabled":false,"rental_uris":{"android":"levelo://app?vid=14c9cff9-ef50-4c6d-8fa4-9a1095daa1fd","ios":"levelo://app?vid=14c9cff9-ef50-4c6d-8fa4-9a1095daa1fd"},"vehicle_type_id":"4","last_reported":1687554407,"current_range_meters":4400,"station_id":"ce4bhp12rcd13ifvqh9g","pricing_plan_id":"free"},{"bike_id":"c81eda79-0ae5-4d3b-af26-cf9ba29972b7","system_id":"levelo_inurba_marseille","lat":43.279742,"lon":5.38744,"is_reserved":false,"is_disabled":false,"rental_uris":{"android":"levelo://app?vid=c81eda79-0ae5-4d3b-af26-cf9ba29972b7","ios":"levelo://app?vid=c81eda79-0ae5-4d3b-af26-cf9ba29972b7"},"vehicle_type_id":"4","last_reported":1687554407,"current_range_meters":6400,"station_id":"ce4bhg12rcd13ifvqf80","pricing_plan_id":"free"},{"bike_id":"da63807e-240d-4d82-972e-ccda4f1b77e6","system_id":"levelo_inurba_marseille","lat":43.32531,"lon":5.41418,"is_reserved":false,"is_disabled":false,"rental_uris":{"android":"levelo://app?vid=da63807e-240d-4d82-972e-ccda4f1b77e6","ios":"levelo://app?vid=da63807e-240d-4d82-972e-ccda4f1b77e6"},"vehicle_type_id":"4","last_reported":1687554407,"current_range_meters":30000,"station_id":"ce4bhq12rcd13ifvqhhg","pricing_plan_id":"free"},{"bike_id":"d5f409aa-d0c6-4771-b5ce-04aef28f7ce2","system_id":"levelo_inurba_marseille","lat":43.32547,"lon":5.41431,"is_reserved":false,"is_disabled":false,"rental_uris":{"android":"levelo://app?vid=d5f409aa-d0c6-4771-b5ce-04aef28f7ce2","ios":"levelo://app?vid=d5f409aa-d0c6-4771-b5ce-04aef28f7ce2"},"vehicle_type_id":"4","last_reported":1687554407,"current_range_meters":26000,"station_id":"ce4bhq12rcd13ifvqhhg","pricing_plan_id":"free"},{"bike_id":"a24a3761-9f8a-4989-9991-33559ff06fda","system_id":"levelo_inurba_marseille","lat":43.32537,"lon":5.41437,"is_reserved":false,"is_disabled":false,"rental_uris":{"android":"levelo://app?vid=a24a3761-9f8a-4989-9991-33559ff06fda","ios":"levelo://app?vid=a24a3761-9f8a-4989-9991-33559ff06fda"},"vehicle_type_id":"4","last_reported":1687554407,"current_range_meters":1200,"station_id":"ce4bhq12rcd13ifvqhhg","pricing_plan_id":"free"},{"bike_id":"8427f03f-442f-4597-8355-8d5461ccf3f6","system_id":"levelo_inurba_marseille","lat":43.27618,"lon":5.361009,"is_reserved":false,"is_disabled":false,"rental_uris":{"android":"levelo://app?vid=8427f03f-442f-4597-8355-8d5461ccf3f6","ios":"levelo://app?vid=8427f03f-442f-4597-8355-8d5461ccf3f6"},"vehicle_type_id":"4","last_reported":1687554407,"current_range_meters":0,"station_id":"ce4bgj92rcd13ifvqbe0","pricing_plan_id":"free"},{"bike_id":"4951f5d7-8a3e-4c6c-bada-63f16f52da6d","system_id":"levelo_inurba_marseille","lat":43.27618,"lon":5.361009,"is_reserved":false,"is_disabled":false,"rental_uris":{"android":"levelo://app?vid=4951f5d7-8a3e-4c6c-bada-63f16f52da6d","ios":"levelo://app?vid=4951f5d7-8a3e-4c6c-bada-63f16f52da6d"},"vehicle_type_id":"4","last_reported":1687554407,"current_range_meters":13200,"station_id":"ce4bgj92rcd13ifvqbe0","pricing_plan_id":"free"},{"bike_id":"f1bbe972-b854-49c5-a316-539df54f654c","system_id":"levelo_inurba_marseille","lat":43.27618,"lon":5.361009,"is_reserved":false,"is_disabled":false,"rental_uris":{"android":"levelo://app?vid=f1bbe972-b854-49c5-a316-539df54f654c","ios":"levelo://app?vid=f1bbe972-b854-49c5-a316-539df54f654c"},"vehicle_type_id":"4","last_reported":1687554407,"current_range_meters":9600,"station_id":"ce4bgj92rcd13ifvqbe0","pricing_plan_id":"free"},{"bike_id":"db9306c1-8421-4cc5-bcc5-bc532d34ca2e","system_id":"levelo_inurba_marseille","lat":43.32541,"lon":5.41447,"is_reserved":false,"is_disabled":false,"rental_uris":{"android":"levelo://app?vid=db9306c1-8421-4cc5-bcc5-bc532d34ca2e","ios":"levelo://app?vid=db9306c1-8421-4cc5-bcc5-bc532d34ca2e"},"vehicle_type_id":"4","last_reported":1687554407,"current_range_meters":30400,"station_id":"ce4bhq12rcd13ifvqhhg","pricing_plan_id":"free"},{"bike_id":"d558d9eb-e667-4665-a5a2-8857cff3077d","system_id":"levelo_inurba_marseille","lat":43.32547,"lon":5.41449,"is_reserved":false,"is_disabled":false,"rental_uris":{"android":"levelo://app?vid=d558d9eb-e667-4665-a5a2-8857cff3077d","ios":"levelo://app?vid=d558d9eb-e667-4665-a5a2-8857cff3077d"},"vehicle_type_id":"4","last_reported":1687554407,"current_range_meters":31200,"station_id":"ce4bhq12rcd13ifvqhhg","pricing_plan_id":"free"},{"bike_id":"fe50d898-ffb8-48a5-b02f-3986e16855a0","system_id":"levelo_inurba_marseille","lat":43.27611,"lon":5.361,"is_reserved":false,"is_disabled":false,"rental_uris":{"android":"levelo://app?vid=fe50d898-ffb8-48a5-b02f-3986e16855a0","ios":"levelo://app?vid=fe50d898-ffb8-48a5-b02f-3986e16855a0"},"vehicle_type_id":"4","last_reported":1687554407,"current_range_meters":18400,"station_id":"ce4bgj92rcd13ifvqbe0","pricing_plan_id":"free"},{"bike_id":"8bae673e-d3db-4ce5-b5f9-ca0f56c4e5c1","system_id":"levelo_inurba_marseille","lat":43.280784,"lon":5.396622,"is_reserved":false,"is_disabled":false,"rental_uris":{"android":"levelo://app?vid=8bae673e-d3db-4ce5-b5f9-ca0f56c4e5c1","ios":"levelo://app?vid=8bae673e-d3db-4ce5-b5f9-ca0f56c4e5c1"},"vehicle_type_id":"4","last_reported":1687554407,"current_range_meters":16800,"station_id":"ce4bho12rcd13ifvqh2g","pricing_plan_id":"free"},{"bike_id":"9fa78da8-6320-45ff-aaa4-aaeff050f271","system_id":"levelo_inurba_marseille","lat":43.280784,"lon":5.396622,"is_reserved":false,"is_disabled":false,"rental_uris":{"android":"levelo://app?vid=9fa78da8-6320-45ff-aaa4-aaeff050f271","ios":"levelo://app?vid=9fa78da8-6320-45ff-aaa4-aaeff050f271"},"vehicle_type_id":"4","last_reported":1687554407,"current_range_meters":17200,"station_id":"ce4bho12rcd13ifvqh2g","pricing_plan_id":"free"},{"bike_id":"5fdf4ab1-672d-4f44-a049-7ebd73a9403a","system_id":"levelo_inurba_marseille","lat":43.278399,"lon":5.392139,"is_reserved":false,"is_disabled":false,"rental_uris":{"android":"levelo://app?vid=5fdf4ab1-672d-4f44-a049-7ebd73a9403a","ios":"levelo://app?vid=5fdf4ab1-672d-4f44-a049-7ebd73a9403a"},"vehicle_type_id":"4","last_reported":1687554407,"current_range_meters":16400,"station_id":"ce4bhjp2rcd13ifvqga0","pricing_plan_id":"free"},{"bike_id":"02d847e7-17d2-4298-8bf2-5cf86b75b4ec","system_id":"levelo_inurba_marseille","lat":43.273613,"lon":5.362705,"is_reserved":false,"is_disabled":false,"rental_uris":{"android":"levelo://app?vid=02d847e7-17d2-4298-8bf2-5cf86b75b4ec","ios":"levelo://app?vid=02d847e7-17d2-4298-8bf2-5cf86b75b4ec"},"vehicle_type_id":"4","last_reported":1687554407,"current_range_meters":0,"station_id":"ce4bhbh2rcd13ifvqeo0","pricing_plan_id":"free"},{"bike_id":"fc4bf762-01cd-40dc-80bb-1e07ad3155bc","system_id":"levelo_inurba_marseille","lat":43.27567,"lon":5.38417,"is_reserved":false,"is_disabled":false,"rental_uris":{"android":"levelo://app?vid=fc4bf762-01cd-40dc-80bb-1e07ad3155bc","ios":"levelo://app?vid=fc4bf762-01cd-40dc-80bb-1e07ad3155bc"},"vehicle_type_id":"4","last_reported":1687554407,"current_range_meters":27600,"station_id":"ce4bhh92rcd13ifvqfi0","pricing_plan_id":"free"},{"bike_id":"9eb7fd8d-a30c-426b-86ad-8cb56966d9f8","system_id":"levelo_inurba_marseille","lat":43.275625,"lon":5.384392,"is_reserved":false,"is_disabled":false,"rental_uris":{"android":"levelo://app?vid=9eb7fd8d-a30c-426b-86ad-8cb56966d9f8","ios":"levelo://app?vid=9eb7fd8d-a30c-426b-86ad-8cb56966d9f8"},"vehicle_type_id":"4","last_reported":1687554407,"current_range_meters":14800,"station_id":"ce4bhh92rcd13ifvqfi0","pricing_plan_id":"free"},{"bike_id":"c5c978ef-f389-467a-869e-0f08b29c3be3","system_id":"levelo_inurba_marseille","lat":43.273609,"lon":5.362708,"is_reserved":false,"is_disabled":false,"rental_uris":{"android":"levelo://app?vid=c5c978ef-f389-467a-869e-0f08b29c3be3","ios":"levelo://app?vid=c5c978ef-f389-467a-869e-0f08b29c3be3"},"vehicle_type_id":"4","last_reported":1687554407,"current_range_meters":31200,"station_id":"ce4bhbh2rcd13ifvqeo0","pricing_plan_id":"free"},{"bike_id":"545602db-8c2b-40d3-bf7a-712805f4a262","system_id":"levelo_inurba_marseille","lat":43.273609,"lon":5.362708,"is_reserved":false,"is_disabled":false,"rental_uris":{"android":"levelo://app?vid=545602db-8c2b-40d3-bf7a-712805f4a262","ios":"levelo://app?vid=545602db-8c2b-40d3-bf7a-712805f4a262"},"vehicle_type_id":"4","last_reported":1687554407,"current_range_meters":2800,"station_id":"ce4bhbh2rcd13ifvqeo0","pricing_plan_id":"free"},{"bike_id":"10753f7b-252a-45ba-a0a7-1eebfde03897","system_id":"levelo_inurba_marseille","lat":43.336134,"lon":5.410341,"is_reserved":false,"is_disabled":false,"rental_uris":{"android":"levelo://app?vid=10753f7b-252a-45ba-a0a7-1eebfde03897","ios":"levelo://app?vid=10753f7b-252a-45ba-a0a7-1eebfde03897"},"vehicle_type_id":"4","last_reported":1687554407,"current_range_meters":28000,"station_id":"ce4bhqh2rcd13ifvqhmg","pricing_plan_id":"free"},{"bike_id":"5f2aa0f9-6686-4805-b7cb-f9d090eb9d8f","system_id":"levelo_inurba_marseille","lat":43.33612,"lon":5.410321,"is_reserved":false,"is_disabled":false,"rental_uris":{"android":"levelo://app?vid=5f2aa0f9-6686-4805-b7cb-f9d090eb9d8f","ios":"levelo://app?vid=5f2aa0f9-6686-4805-b7cb-f9d090eb9d8f"},"vehicle_type_id":"4","last_reported":1687554407,"current_range_meters":24000,"station_id":"ce4bhqh2rcd13ifvqhmg","pricing_plan_id":"free"},{"bike_id":"caad2176-2282-4855-8c38-34443d645d84","system_id":"levelo_inurba_marseille","lat":43.33612,"lon":5.410321,"is_reserved":false,"is_disabled":false,"rental_uris":{"android":"levelo://app?vid=caad2176-2282-4855-8c38-34443d645d84","ios":"levelo://app?vid=caad2176-2282-4855-8c38-34443d645d84"},"vehicle_type_id":"4","last_reported":1687554407,"current_range_meters":19600,"station_id":"ce4bhqh2rcd13ifvqhmg","pricing_plan_id":"free"},{"bike_id":"d60832f5-4d74-4884-a682-017c832e1676","system_id":"levelo_inurba_marseille","lat":43.33612,"lon":5.410321,"is_reserved":false,"is_disabled":false,"rental_uris":{"android":"levelo://app?vid=d60832f5-4d74-4884-a682-017c832e1676","ios":"levelo://app?vid=d60832f5-4d74-4884-a682-017c832e1676"},"vehicle_type_id":"4","last_reported":1687554407,"current_range_meters":29200,"station_id":"ce4bhqh2rcd13ifvqhmg","pricing_plan_id":"free"},{"bike_id":"3ba219a1-bfce-4511-aabc-9eec4d3607c8","system_id":"levelo_inurba_marseille","lat":43.336134,"lon":5.410341,"is_reserved":false,"is_disabled":false,"rental_uris":{"android":"levelo://app?vid=3ba219a1-bfce-4511-aabc-9eec4d3607c8","ios":"levelo://app?vid=3ba219a1-bfce-4511-aabc-9eec4d3607c8"},"vehicle_type_id":"4","last_reported":1687554407,"current_range_meters":29600,"station_id":"ce4bhqh2rcd13ifvqhmg","pricing_plan_id":"free"},{"bike_id":"6f06935c-0a64-4d31-8962-575f5d91c2f7","system_id":"levelo_inurba_marseille","lat":43.336134,"lon":5.410341,"is_reserved":false,"is_disabled":false,"rental_uris":{"android":"levelo://app?vid=6f06935c-0a64-4d31-8962-575f5d91c2f7","ios":"levelo://app?vid=6f06935c-0a64-4d31-8962-575f5d91c2f7"},"vehicle_type_id":"4","last_reported":1687554407,"current_range_meters":30400,"station_id":"ce4bhqh2rcd13ifvqhmg","pricing_plan_id":"free"},{"bike_id":"a7437d13-a7ba-4fbe-901d-33a1488f3425","system_id":"levelo_inurba_marseille","lat":43.276771,"lon":5.388799,"is_reserved":false,"is_disabled":false,"rental_uris":{"android":"levelo://app?vid=a7437d13-a7ba-4fbe-901d-33a1488f3425","ios":"levelo://app?vid=a7437d13-a7ba-4fbe-901d-33a1488f3425"},"vehicle_type_id":"4","last_reported":1687554407,"current_range_meters":800,"station_id":"ce4bhi12rcd13ifvqfo0","pricing_plan_id":"free"},{"bike_id":"dcadf857-4956-4b38-b109-909c79cc7ceb","system_id":"levelo_inurba_marseille","lat":43.31079,"lon":5.4243,"is_reserved":false,"is_disabled":false,"rental_uris":{"android":"levelo://app?vid=dcadf857-4956-4b38-b109-909c79cc7ceb","ios":"levelo://app?vid=dcadf857-4956-4b38-b109-909c79cc7ceb"},"vehicle_type_id":"4","last_reported":1687554407,"current_range_meters":6400,"station_id":"ce4bhp92rcd13ifvqhag","pricing_plan_id":"free"},{"bike_id":"22954ed7-4281-4fba-87fc-cbefaec02ffe","system_id":"levelo_inurba_marseille","lat":43.310785,"lon":5.424305,"is_reserved":false,"is_disabled":false,"rental_uris":{"android":"levelo://app?vid=22954ed7-4281-4fba-87fc-cbefaec02ffe","ios":"levelo://app?vid=22954ed7-4281-4fba-87fc-cbefaec02ffe"},"vehicle_type_id":"4","last_reported":1687554407,"current_range_meters":4800,"station_id":"ce4bhp92rcd13ifvqhag","pricing_plan_id":"free"},{"bike_id":"01208fbe-9431-4ed6-ac1f-e90329c35bdb","system_id":"levelo_inurba_marseille","lat":43.26955,"lon":5.36633,"is_reserved":false,"is_disabled":false,"rental_uris":{"android":"levelo://app?vid=01208fbe-9431-4ed6-ac1f-e90329c35bdb","ios":"levelo://app?vid=01208fbe-9431-4ed6-ac1f-e90329c35bdb"},"vehicle_type_id":"4","last_reported":1687554407,"current_range_meters":6400,"station_id":"","pricing_plan_id":"free"},{"bike_id":"12259fda-9195-4c2f-8044-cafbbe3fdd29","system_id":"levelo_inurba_marseille","lat":43.273129,"lon":5.390725,"is_reserved":false,"is_disabled":false,"rental_uris":{"android":"levelo://app?vid=12259fda-9195-4c2f-8044-cafbbe3fdd29","ios":"levelo://app?vid=12259fda-9195-4c2f-8044-cafbbe3fdd29"},"vehicle_type_id":"4","last_reported":1687554407,"current_range_meters":20400,"station_id":"ce4bhgp2rcd13ifvqfe0","pricing_plan_id":"free"},{"bike_id":"286451ef-e2f6-4e1b-915c-c61ad9a9d00b","system_id":"levelo_inurba_marseille","lat":43.273613,"lon":5.362705,"is_reserved":false,"is_disabled":false,"rental_uris":{"android":"levelo://app?vid=286451ef-e2f6-4e1b-915c-c61ad9a9d00b","ios":"levelo://app?vid=286451ef-e2f6-4e1b-915c-c61ad9a9d00b"},"vehicle_type_id":"4","last_reported":1687554407,"current_range_meters":2000,"station_id":"ce4bhbh2rcd13ifvqeo0","pricing_plan_id":"free"},{"bike_id":"6ba32108-4f80-4e38-bb06-43c0ebb41505","system_id":"levelo_inurba_marseille","lat":43.295511,"lon":5.422926,"is_reserved":false,"is_disabled":false,"rental_uris":{"android":"levelo://app?vid=6ba32108-4f80-4e38-bb06-43c0ebb41505","ios":"levelo://app?vid=6ba32108-4f80-4e38-bb06-43c0ebb41505"},"vehicle_type_id":"4","last_reported":1687554407,"current_range_meters":31200,"station_id":"ce4bhph2rcd13ifvqhdg","pricing_plan_id":"free"},{"bike_id":"67e6acf1-44d5-4cc6-9f61-8a9e302842a4","system_id":"levelo_inurba_marseille","lat":43.295511,"lon":5.422926,"is_reserved":false,"is_disabled":false,"rental_uris":{"android":"levelo://app?vid=67e6acf1-44d5-4cc6-9f61-8a9e302842a4","ios":"levelo://app?vid=67e6acf1-44d5-4cc6-9f61-8a9e302842a4"},"vehicle_type_id":"4","last_reported":1687554407,"current_range_meters":11200,"station_id":"ce4bhph2rcd13ifvqhdg","pricing_plan_id":"free"},{"bike_id":"f2172cdf-46b2-407f-b934-da33580c2309","system_id":"levelo_inurba_marseille","lat":43.295511,"lon":5.422926,"is_reserved":false,"is_disabled":false,"rental_uris":{"android":"levelo://app?vid=f2172cdf-46b2-407f-b934-da33580c2309","ios":"levelo://app?vid=f2172cdf-46b2-407f-b934-da33580c2309"},"vehicle_type_id":"4","last_reported":1687554407,"current_range_meters":6400,"station_id":"ce4bhph2rcd13ifvqhdg","pricing_plan_id":"free"},{"bike_id":"d69fed3a-efe9-46fb-b1dc-1240b8978d3e","system_id":"levelo_inurba_marseille","lat":43.272124,"lon":5.391768,"is_reserved":false,"is_disabled":false,"rental_uris":{"android":"levelo://app?vid=d69fed3a-efe9-46fb-b1dc-1240b8978d3e","ios":"levelo://app?vid=d69fed3a-efe9-46fb-b1dc-1240b8978d3e"},"vehicle_type_id":"4","last_reported":1687554407,"current_range_meters":29600,"station_id":"ce4bhhp2rcd13ifvqfm0","pricing_plan_id":"free"},{"bike_id":"4fa21102-9c5c-4785-8da0-3d7f957b0c31","system_id":"levelo_inurba_marseille","lat":43.272118,"lon":5.391758,"is_reserved":false,"is_disabled":false,"rental_uris":{"android":"levelo://app?vid=4fa21102-9c5c-4785-8da0-3d7f957b0c31","ios":"levelo://app?vid=4fa21102-9c5c-4785-8da0-3d7f957b0c31"},"vehicle_type_id":"4","last_reported":1687554407,"current_range_meters":29600,"station_id":"ce4bhhp2rcd13ifvqfm0","pricing_plan_id":"free"},{"bike_id":"c7cf98b9-1b11-45df-8efb-6216cd1e6101","system_id":"levelo_inurba_marseille","lat":43.27203,"lon":5.39191,"is_reserved":false,"is_disabled":false,"rental_uris":{"android":"levelo://app?vid=c7cf98b9-1b11-45df-8efb-6216cd1e6101","ios":"levelo://app?vid=c7cf98b9-1b11-45df-8efb-6216cd1e6101"},"vehicle_type_id":"4","last_reported":1687554407,"current_range_meters":22400,"station_id":"ce4bhhp2rcd13ifvqfm0","pricing_plan_id":"free"},{"bike_id":"985bf9ea-1705-44b6-8038-2e0fd8839f65","system_id":"levelo_inurba_marseille","lat":43.317104,"lon":5.436818,"is_reserved":false,"is_disabled":false,"rental_uris":{"android":"levelo://app?vid=985bf9ea-1705-44b6-8038-2e0fd8839f65","ios":"levelo://app?vid=985bf9ea-1705-44b6-8038-2e0fd8839f65"},"vehicle_type_id":"4","last_reported":1687554407,"current_range_meters":0,"station_id":"ce4bhp92rcd13ifvqhcg","pricing_plan_id":"free"},{"bike_id":"cdc9cf70-ff15-4f03-9238-fe7e10a251cd","system_id":"levelo_inurba_marseille","lat":43.26956,"lon":5.38638,"is_reserved":false,"is_disabled":false,"rental_uris":{"android":"levelo://app?vid=cdc9cf70-ff15-4f03-9238-fe7e10a251cd","ios":"levelo://app?vid=cdc9cf70-ff15-4f03-9238-fe7e10a251cd"},"vehicle_type_id":"4","last_reported":1687554407,"current_range_meters":27200,"station_id":"ce4bhh92rcd13ifvqfh0","pricing_plan_id":"free"},{"bike_id":"1ec0d070-5d14-4e51-8678-5619e90f3f19","system_id":"levelo_inurba_marseille","lat":43.27977,"lon":5.41618,"is_reserved":false,"is_disabled":false,"rental_uris":{"android":"levelo://app?vid=1ec0d070-5d14-4e51-8678-5619e90f3f19","ios":"levelo://app?vid=1ec0d070-5d14-4e51-8678-5619e90f3f19"},"vehicle_type_id":"4","last_reported":1687554407,"current_range_meters":17200,"station_id":"","pricing_plan_id":"free"},{"bike_id":"8772c769-48b6-4f0e-a0b9-3067c3d525b6","system_id":"levelo_inurba_marseille","lat":43.27996,"lon":5.416624,"is_reserved":false,"is_disabled":false,"rental_uris":{"android":"levelo://app?vid=8772c769-48b6-4f0e-a0b9-3067c3d525b6","ios":"levelo://app?vid=8772c769-48b6-4f0e-a0b9-3067c3d525b6"},"vehicle_type_id":"4","last_reported":1687554407,"current_range_meters":30400,"station_id":"ce4bho12rcd13ifvqh1g","pricing_plan_id":"free"},{"bike_id":"99d6ad3d-0977-4c99-af23-8d702cd9544a","system_id":"levelo_inurba_marseille","lat":43.308051,"lon":5.43527,"is_reserved":false,"is_disabled":false,"rental_uris":{"android":"levelo://app?vid=99d6ad3d-0977-4c99-af23-8d702cd9544a","ios":"levelo://app?vid=99d6ad3d-0977-4c99-af23-8d702cd9544a"},"vehicle_type_id":"4","last_reported":1687554407,"current_range_meters":400,"station_id":"ce4bhph2rcd13ifvqheg","pricing_plan_id":"free"},{"bike_id":"be7d3949-32e8-437b-b0ec-bcc969eaa91f","system_id":"levelo_inurba_marseille","lat":43.317104,"lon":5.436818,"is_reserved":false,"is_disabled":false,"rental_uris":{"android":"levelo://app?vid=be7d3949-32e8-437b-b0ec-bcc969eaa91f","ios":"levelo://app?vid=be7d3949-32e8-437b-b0ec-bcc969eaa91f"},"vehicle_type_id":"4","last_reported":1687554407,"current_range_meters":11600,"station_id":"ce4bhp92rcd13ifvqhcg","pricing_plan_id":"free"},{"bike_id":"0642b559-fdad-4f30-a2f5-63a7e6df377d","system_id":"levelo_inurba_marseille","lat":43.261876,"lon":5.374417,"is_reserved":false,"is_disabled":false,"rental_uris":{"android":"levelo://app?vid=0642b559-fdad-4f30-a2f5-63a7e6df377d","ios":"levelo://app?vid=0642b559-fdad-4f30-a2f5-63a7e6df377d"},"vehicle_type_id":"4","last_reported":1687554407,"current_range_meters":0,"station_id":"","pricing_plan_id":"free"},{"bike_id":"3eae532c-f268-4783-ac45-a9304c252f87","system_id":"levelo_inurba_marseille","lat":43.317104,"lon":5.436818,"is_reserved":false,"is_disabled":false,"rental_uris":{"android":"levelo://app?vid=3eae532c-f268-4783-ac45-a9304c252f87","ios":"levelo://app?vid=3eae532c-f268-4783-ac45-a9304c252f87"},"vehicle_type_id":"4","last_reported":1687554407,"current_range_meters":15200,"station_id":"ce4bhp92rcd13ifvqhcg","pricing_plan_id":"free"},{"bike_id":"16ab8cb2-e21e-44e0-82a0-79dc53cb6736","system_id":"levelo_inurba_marseille","lat":43.317104,"lon":5.436818,"is_reserved":false,"is_disabled":false,"rental_uris":{"android":"levelo://app?vid=16ab8cb2-e21e-44e0-82a0-79dc53cb6736","ios":"levelo://app?vid=16ab8cb2-e21e-44e0-82a0-79dc53cb6736"},"vehicle_type_id":"4","last_reported":1687554407,"current_range_meters":20800,"station_id":"ce4bhp92rcd13ifvqhcg","pricing_plan_id":"free"},{"bike_id":"c4d84dc7-d12e-4144-bf4d-57b3c768470e","system_id":"levelo_inurba_marseille","lat":43.26202,"lon":5.379299,"is_reserved":false,"is_disabled":false,"rental_uris":{"android":"levelo://app?vid=c4d84dc7-d12e-4144-bf4d-57b3c768470e","ios":"levelo://app?vid=c4d84dc7-d12e-4144-bf4d-57b3c768470e"},"vehicle_type_id":"4","last_reported":1687554407,"current_range_meters":8400,"station_id":"ce4bhjp2rcd13ifvqg90","pricing_plan_id":"free"},