{"last_updated":1746212895,"ttl":60,"version":"2.2","data":{"bikes":[{"bike_id":"41649255-c38b-42cb-ae7f-67f2787c354c","system_id":"levelo_inurba_marseille","lat":43.23756,"lon":5.43589,"is_reserved":false,"is_disabled":false,"rental_uris":{"android":"levelo://app?vid=41649255-c38b-42cb-ae7f-67f2787c354c","ios":"levelo://app?vid=41649255-c38b-42cb-ae7f-67f2787c354c"},"vehicle_type_id":"4","last_reported":1746212895,"current_range_meters":2800,"station_id":"","pricing_plan_id":"cebpf4jnsgd1na2vs0mg"},{"bike_id":"2d87f24b-bb92-4f5a-9c64-611905425c8d","system_id":"levelo_inurba_marseille","lat":43.23667,"lon":5.39143,"is_reserved":false,"is_disabled":false,"rental_uris":{"android":"levelo://app?vid=2d87f24b-bb92-4f5a-9c64-611905425c8d","ios":"levelo://app?vid=2d87f24b-bb92-4f5a-9c64-611905425c8d"},"vehicle_type_id":"4","last_reported":1746212895,"current_range_meters":2800,"station_id":"","pricing_plan_id":"cebpf4jnsgd1na2vs0mg"},{"bike_id":"441a6121-3953-47f7-b53e-8c3c1a1c32de","system_id":"levelo_inurba_marseille","lat":43.30351,"lon":5.41876,"is_reserved":false,"is_disabled":false,"rental_uris":{"android":"levelo://app?vid=441a6121-3953-47f7-b53e-8c3c1a1c32de","ios":"levelo://app?vid=441a6121-3953-47f7-b53e-8c3c1a1c32de"},"vehicle_type_id":"4","last_reported":1746212895,"current_range_meters":2800,"station_id":"ce4bhop2rcd13ifvqh7g","pricing_plan_id":"cebpf4jnsgd1na2vs0mg"},{"bike_id":"6979fd52-3241-45a3-939f-9b6bd68d7507","system_id":"levelo_inurba_marseille","lat":43.28167,"lon":5.42631,"is_reserved":false,"is_disabled":false,"rental_uris":{"android":"levelo://app?vid=6979fd52-3241-45a3-939f-9b6bd68d7507","ios":"levelo://app?vid=6979fd52-3241-45a3-939f-9b6bd68d7507"},"vehicle_type_id":"4","last_reported":1746212895,"current_range_meters":2800,"station_id":"ce4bhnh2rcd13ifvqgug","pricing_plan_id":"cebpf4jnsgd1na2vs0mg"},{"bike_id":"8729c668-c419-4d6e-b88f-2811d2d18bfc","system_id":"levelo_inurba_marseille","lat":43.3122,"lon":5.36846,"is_reserved":false,"is_disabled":false,"rental_uris":{"android":"levelo://app?vid=8729c668-c419-4d6e-b88f-2811d2d18bfc","ios":"levelo://app?vid=8729c668-c419-4d6e-b88f-2811d2d18bfc"},"vehicle_type_id":"4","last_reported":1746212895,"current_range_meters":2800,"station_id":"ce4bgl92rcd13ifvqbq0","pricing_plan_id":"cebpf4jnsgd1na2vs0mg"},{"bike_id":"f8c04b1d-a4b9-439f-b478-547a0f11f18d","system_id":"levelo_inurba_marseille","lat":43.27941,"lon":5.4105,"is_reserved":false,"is_disabled":false,"rental_uris":{"android":"levelo://app?vid=f8c04b1d-a4b9-439f-b478-547a0f11f18d","ios":"levelo://app?vid=f8c04b1d-a4b9-439f-b478-547a0f11f18d"},"vehicle_type_id":"4","last_reported":1746212895,"current_range_meters":2800,"station_id":"ce4bhnp2rcd13ifvqh0g","pricing_plan_id":"cebpf4jnsgd1na2vs0mg"},{"bike_id":"6d739957-9c7e-482c-9e83-b18cffea4a7b","system_id":"levelo_inurba_marseille","lat":43.30411,"lon":5.41281,"is_reserved":false,"is_disabled":true,"rental_uris":{"android":"levelo://app?vid=6d739957-9c7e-482c-9e83-b18cffea4a7b","ios":"levelo://app?vid=6d739957-9c7e-482c-9e83-b18cffea4a7b"},"vehicle_type_id":"4","last_reported":1746212895,"current_range_meters":3200,"station_id":"ce4bhop2rcd13ifvqh8g","pricing_plan_id":"cebpf4jnsgd1na2vs0mg"},{"bike_id":"13ca10c7-63af-4f1d-8abc-38e7a4d75760","system_id":"levelo_inurba_marseille","lat":43.26933,"lon":5.38912,"is_reserved":false,"is_disabled":false,"rental_uris":{"android":"levelo://app?vid=13ca10c7-63af-4f1d-8abc-38e7a4d75760","ios":"levelo://app?vid=13ca10c7-63af-4f1d-8abc-38e7a4d75760"},"vehicle_type_id":"4","last_reported":1746212895,"current_range_meters":3200,"station_id":"ce4bhhh2rcd13ifvqfl0","pricing_plan_id":"cebpf4jnsgd1na2vs0mg"},{"bike_id":"87c52ac1-4398-4e79-b1ac-dde9cb3e5cee","system_id":"levelo_inurba_marseille","lat":43.32339,"lon":5.4062,"is_reserved":false,"is_disabled":false,"rental_uris":{"android":"levelo://app?vid=87c52ac1-4398-4e79-b1ac-dde9cb3e5cee","ios":"levelo://app?vid=87c52ac1-4398-4e79-b1ac-dde9cb3e5cee"},"vehicle_type_id":"4","last_reported":1746212895,"current_range_meters":3200,"station_id":"ce4bhq92rcd13ifvqhjg","pricing_plan_id":"cebpf4jnsgd1na2vs0mg"},{"bike_id":"a9d10d1d-e998-47c4-b0d0-3cda05c38493","system_id":"levelo_inurba_marseille","lat":43.24807,"lon":5.37461,"is_reserved":false,"is_disabled":false,"rental_uris":{"android":"levelo://app?vid=a9d10d1d-e998-47c4-b0d0-3cda05c38493","ios":"levelo://app?vid=a9d10d1d-e998-47c4-b0d0-3cda05c38493"},"vehicle_type_id":"4","last_reported":1746212895,"current_range_meters":3600,"station_id":"ce4bhgh2rcd13ifvqfb0","pricing_plan_id":"cebpf4jnsgd1na2vs0mg"},{"bike_id":"6acf47d4-0a86-4b53-97b4-1bb8347f7f2b","system_id":"levelo_inurba_marseille","lat":43.26505,"lon":5.39525,"is_reserved":false,"is_disabled":true,"rental_uris":{"android":"levelo://app?vid=6acf47d4-0a86-4b53-97b4-1bb8347f7f2b","ios":"levelo://app?vid=6acf47d4-0a86-4b53-97b4-1bb8347f7f2b"},"vehicle_type_id":"4","last_reported":1746212895,"current_range_meters":3600,"station_id":"ce4bhi12rcd13ifvqfq0","pricing_plan_id":"cebpf4jnsgd1na2vs0mg"},{"bike_id":"3e00e8b2-ce59-49f3-9f59-f23eaa05ee1b","system_id":"levelo_inurba_marseille","lat":43.23963,"lon":5.36625,"is_reserved":false,"is_disabled":true,"rental_uris":{"android":"levelo://app?vid=3e00e8b2-ce59-49f3-9f59-f23eaa05ee1b","ios":"levelo://app?vid=3e00e8b2-ce59-49f3-9f59-f23eaa05ee1b"},"vehicle_type_id":"4","last_reported":1746212895,"current_range_meters":3600,"station_id":"ce4bhi12rcd13ifvqfp0","pricing_plan_id":"cebpf4jnsgd1na2vs0mg"},{"bike_id":"12c11826-e1f9-4d06-ae43-d5ade8000ea2","system_id":"levelo_inurba_marseille","lat":43.298205,"lon":5.363044,"is_reserved":false,"is_disabled":false,"rental_uris":{"android":"levelo://app?vid=12c11826-e1f9-4d06-ae43-d5ade8000ea2","ios":"levelo://app?vid=12c11826-e1f9-4d06-ae43-d5ade8000ea2"},"vehicle_type_id":"4","last_reported":1746212895,"current_range_meters":4000,"station_id":"ce4bgpp2rcd13ifvqc3g","pricing_plan_id":"cebpf4jnsgd1na2vs0mg"},{"bike_id":"8a5a2ada-f383-4ce8-bbbf-315ac2dfbb80","system_id":"levelo_inurba_marseille","lat":43.29223,"lon":5.38443,"is_reserved":false,"is_disabled":false,"rental_uris":{"android":"levelo://app?vid=8a5a2ada-f383-4ce8-bbbf-315ac2dfbb80","ios":"levelo://app?vid=8a5a2ada-f383-4ce8-bbbf-315ac2dfbb80"},"vehicle_type_id":"4","last_reported":1746212895,"current_range_meters":4400,"station_id":"ce4bh692rcd13ifvqea0","pricing_plan_id":"cebpf4jnsgd1na2vs0mg"},{"bike_id":"38058a79-3786-43ab-b43a-9966965d0e33","system_id":"levelo_inurba_marseille","lat":43.32106,"lon":5.36769,"is_reserved":false,"is_disabled":false,"rental_uris":{"android":"levelo://app?vid=38058a79-3786-43ab-b43a-9966965d0e33","ios":"levelo://app?vid=38058a79-3786-43ab-b43a-9966965d0e33"},"vehicle_type_id":"4","last_reported":1746212895,"current_range_meters":4400,"station_id":"ce4bhrh2rcd13ifvqhug","pricing_plan_id":"cebpf4jnsgd1na2vs0mg"},{"bike_id":"e0c4142d-ff6f-42f2-9bd6-5cd5278aa3a6","system_id":"levelo_inurba_marseille","lat":43.25927,"lon":5.40902,"is_reserved":false,"is_disabled":false,"rental_uris":{"android":"levelo://app?vid=e0c4142d-ff6f-42f2-9bd6-5cd5278aa3a6","ios":"levelo://app?vid=e0c4142d-ff6f-42f2-9bd6-5cd5278aa3a6"},"vehicle_type_id":"4","last_reported":1746212895,"current_range_meters":4400,"station_id":"ce4bhm92rcd13ifvqglg","pricing_plan_id":"cebpf4jnsgd1na2vs0mg"},{"bike_id":"73b5fbeb-fbdc-4f9c-9e34-4080a42791c3","system_id":"levelo_inurba_marseille","lat":43.29277,"lon":5.40119,"is_reserved":false,"is_disabled":false,"rental_uris":{"android":"levelo://app?vid=73b5fbeb-fbdc-4f9c-9e34-4080a42791c3","ios":"levelo://app?vid=73b5fbeb-fbdc-4f9c-9e34-4080a42791c3"},"vehicle_type_id":"4","last_reported":1746212895,"current_range_meters":4800,"station_id":"ce4bh312rcd13ifvqdk0","pricing_plan_id":"cebpf4jnsgd1na2vs0mg"},{"bike_id":"51ef9827-05d4-4f72-abc3-c6fec8c5a095","system_id":"levelo_inurba_marseille","lat":43.231516,"lon":5.437174,"is_reserved":false,"is_disabled":false,"rental_uris":{"android":"levelo://app?vid=51ef9827-05d4-4f72-abc3-c6fec8c5a095","ios":"levelo://app?vid=51ef9827-05d4-4f72-abc3-c6fec8c5a095"},"vehicle_type_id":"4","last_reported":1746212895,"current_range_meters":4800,"station_id":"ce4bhmp2rcd13ifvqgog","pricing_plan_id":"cebpf4jnsgd1na2vs0mg"},{"bike_id":"39fb05fe-e3be-4147-a9f3-c02a474160a2","system_id":"levelo_inurba_marseille","lat":43.241675,"lon":5.36394,"is_reserved":false,"is_disabled":true,"rental_uris":{"android":"levelo://app?vid=39fb05fe-e3be-4147-a9f3-c02a474160a2","ios":"levelo://app?vid=39fb05fe-e3be-4147-a9f3-c02a474160a2"},"vehicle_type_id":"4","last_reported":1746212895,"current_range_meters":4800,"station_id":"cpo36qri1sfpv3e86is0","pricing_plan_id":"cebpf4jnsgd1na2vs0mg"},{"bike_id":"70e6f3a4-7d37-437c-8c68-e7e17a940af8","system_id":"levelo_inurba_marseille","lat":43.311005,"lon":5.377293,"is_reserved":false,"is_disabled":false,"rental_uris":{"android":"levelo://app?vid=70e6f3a4-7d37-437c-8c68-e7e17a940af8","ios":"levelo://app?vid=70e6f3a4-7d37-437c-8c68-e7e17a940af8"},"vehicle_type_id":"4","last_reported":1746212895,"current_range_meters":5600,"station_id":"ce4bgt92rcd13ifvqcg0","pricing_plan_id":"cebpf4jnsgd1na2vs0mg"},{"bike_id":"19f46f60-d581-481f-82a9-3af180fdf593","system_id":"levelo_inurba_marseille","lat":43.30931,"lon":5.4015,"is_reserved":false,"is_disabled":false,"rental_uris":{"android":"levelo://app?vid=19f46f60-d581-481f-82a9-3af180fdf593","ios":"levelo://app?vid=19f46f60-d581-481f-82a9-3af180fdf593"},"vehicle_type_id":"4","last_reported":1746212895,"current_range_meters":5600,"station_id":"ce4bgvp2rcd13ifvqct0","pricing_plan_id":"cebpf4jnsgd1na2vs0mg"},{"bike_id":"f29e3a1b-c8f0-4747-b524-d076c111b9ed","system_id":"levelo_inurba_marseille","lat":43.29367,"lon":5.37833,"is_reserved":false,"is_disabled":false,"rental_uris":{"android":"levelo://app?vid=f29e3a1b-c8f0-4747-b524-d076c111b9ed","ios":"levelo://app?vid=f29e3a1b-c8f0-4747-b524-d076c111b9ed"},"vehicle_type_id":"4","last_reported":1746212895,"current_range_meters":5600,"station_id":"ce4bgjh2rcd13ifvqbf0","pricing_plan_id":"cebpf4jnsgd1na2vs0mg"},{"bike_id":"546b47a9-36fb-4d2b-990c-950f98d916c5","system_id":"levelo_inurba_marseille","lat":43.26574,"lon":5.39045,"is_reserved":false,"is_disabled":false,"rental_uris":{"android":"levelo://app?vid=546b47a9-36fb-4d2b-990c-950f98d916c5","ios":"levelo://app?vid=546b47a9-36fb-4d2b-990c-950f98d916c5"},"vehicle_type_id":"4","last_reported":1746212895,"current_range_meters":5600,"station_id":"ce4bhe12rcd13ifvqf30","pricing_plan_id":"cebpf4jnsgd1na2vs0mg"},{"bike_id":"04b9db21-58b9-4279-b2a8-9517feea6159","system_id":"levelo_inurba_marseille","lat":43.27455,"lon":5.4246,"is_reserved":false,"is_disabled":false,"rental_uris":{"android":"levelo://app?vid=04b9db21-58b9-4279-b2a8-9517feea6159","ios":"levelo://app?vid=04b9db21-58b9-4279-b2a8-9517feea6159"},"vehicle_type_id":"4","last_reported":1746212895,"current_range_meters":6000,"station_id":"ce4bhn92rcd13ifvqgrg","pricing_plan_id":"cebpf4jnsgd1na2vs0mg"},{"bike_id":"0b2c1e5f-1f88-4b72-a3af-0d9060fd9133","system_id":"levelo_inurba_marseille","lat":43.24185,"lon":5.39718,"is_reserved":false,"is_disabled":false,"rental_uris":{"android":"levelo://app?vid=0b2c1e5f-1f88-4b72-a3af-0d9060fd9133","ios":"levelo://app?vid=0b2c1e5f-1f88-4b72-a3af-0d9060fd9133"},"vehicle_type_id":"4","last_reported":1746212895,"current_range_meters":6400,"station_id":"ce4bhn12rcd13ifvqgpg","pricing_plan_id":"cebpf4jnsgd1na2vs0mg"},{"bike_id":"b2e7d686-337f-4111-b1e3-e6546f772b22","system_id":"levelo_inurba_marseille","lat":43.30889,"lon":5.39632,"is_reserved":false,"is_disabled":false,"rental_uris":{"android":"levelo://app?vid=b2e7d686-337f-4111-b1e3-e6546f772b22","ios":"levelo://app?vid=b2e7d686-337f-4111-b1e3-e6546f772b22"},"vehicle_type_id":"4","last_reported":1746212895,"current_range_meters":6400,"station_id":"ce4bh012rcd13ifvqcv0","pricing_plan_id":"cebpf4jnsgd1na2vs0mg"},{"bike_id":"659e91aa-d89b-4bd6-bdf9-dc9a770ef2a8","system_id":"levelo_inurba_marseille","lat":43.296,"lon":5.37716,"is_reserved":false,"is_disabled":true,"rental_uris":{"android":"levelo://app?vid=659e91aa-d89b-4bd6-bdf9-dc9a770ef2a8","ios":"levelo://app?vid=659e91aa-d89b-4bd6-bdf9-dc9a770ef2a8"},"vehicle_type_id":"4","last_reported":1746212895,"current_range_meters":6800,"station_id":"ce4bgi92rcd13ifvqb90","pricing_plan_id":"cebpf4jnsgd1na2vs0mg"},{"bike_id":"67ba2343-0071-470b-9a61-2454e0c758bd","system_id":"levelo_inurba_marseille","lat":43.25824,"lon":5.39439,"is_reserved":false,"is_disabled":false,"rental_uris":{"android":"levelo://app?vid=67ba2343-0071-470b-9a61-2454e0c758bd","ios":"levelo://app?vid=67ba2343-0071-470b-9a61-2454e0c758bd"},"vehicle_type_id":"4","last_reported":1746212895,"current_range_meters":6800,"station_id":"ce4bhip2rcd13ifvqft0","pricing_plan_id":"cebpf4jnsgd1na2vs0mg"},{"bike_id":"815b9583-4be5-4922-95c9-247b90fd675c","system_id":"levelo_inurba_marseille","lat":43.294207,"lon":5.386143,"is_reserved":false,"is_disabled":false,"rental_uris":{"android":"levelo://app?vid=815b9583-4be5-4922-95c9-247b90fd675c","ios":"levelo://app?vid=815b9583-4be5-4922-95c9-247b90fd675c"},"vehicle_type_id":"4","last_reported":1746212895,"current_range_meters":6800,"station_id":"ce4bh2h2rcd13ifvqdh0","pricing_plan_id":"cebpf4jnsgd1na2vs0mg"},{"bike_id":"ae1348b0-19ff-421d-9f1c-272109e6e7e6","system_id":"levelo_inurba_marseille","lat":43.26938,"lon":5.38905,"is_reserved":false,"is_disabled":false,"rental_uris":{"android":"levelo://app?vid=ae1348b0-19ff-421d-9f1c-272109e6e7e6","ios":"levelo://app?vid=ae1348b0-19ff-421d-9f1c-272109e6e7e6"},"vehicle_type_id":"4","last_reported":1746212895,"current_range_meters":6800,"station_id":"ce4bhhh2rcd13ifvqfl0","pricing_plan_id":"cebpf4jnsgd1na2vs0mg"},{"bike_id":"1b389ae2-63f4-4539-96be-d31146e352bc","system_id":"levelo_inurba_marseille","lat":43.27211,"lon":5.39185,"is_reserved":false,"is_disabled":false,"rental_uris":{"android":"levelo://app?vid=1b389ae2-63f4-4539-96be-d31146e352bc","ios":"levelo://app?vid=1b389ae2-63f4-4539-96be-d31146e352bc"},"vehicle_type_id":"4","last_reported":1746212895,"current_range_meters":8400,"station_id":"ce4bhhp2rcd13ifvqfm0","pricing_plan_id":"cebpf4jnsgd1na2vs0mg"},{"bike_id":"c0ffcb14-a852-4d94-9c71-749df554d2c9","system_id":"levelo_inurba_marseille","lat":43.30743,"lon":5.42435,"is_reserved":false,"is_disabled":false,"rental_uris":{"android":"levelo://app?vid=c0ffcb14-a852-4d94-9c71-749df554d2c9","ios":"levelo://app?vid=c0ffcb14-a852-4d94-9c71-749df554d2c9"},"vehicle_type_id":"4","last_reported":1746212895,"current_range_meters":6800,"station_id":"st_cvj6ca6bvosntc0bfgr0","pricing_plan_id":"cebpf4jnsgd1na2vs0mg"},{"bike_id":"c47682b6-4522-450e-b4ee-a0d25257262a","system_id":"levelo_inurba_marseille","lat":43.32106,"lon":5.36772,"is_reserved":false,"is_disabled":false,"rental_uris":{"android":"levelo://app?vid=c47682b6-4522-450e-b4ee-a0d25257262a","ios":"levelo://app?vid=c47682b6-4522-450e-b4ee-a0d25257262a"},"vehicle_type_id":"4","last_reported":1746212895,"current_range_meters":6800,"station_id":"ce4bhrh2rcd13ifvqhug","pricing_plan_id":"cebpf4jnsgd1na2vs0mg"},{"bike_id":"6892dacf-7fbf-4f02-8e7d-a7e9c376bae0","system_id":"levelo_inurba_marseille","lat":43.29557,"lon":5.42292,"is_reserved":false,"is_disabled":false,"rental_uris":{"android":"levelo://app?vid=6892dacf-7fbf-4f02-8e7d-a7e9c376bae0","ios":"levelo://app?vid=6892dacf-7fbf-4f02-8e7d-a7e9c376bae0"},"vehicle_type_id":"4","last_reported":1746212895,"current_range_meters":7200,"station_id":"ce4bhph2rcd13ifvqhdg","pricing_plan_id":"cebpf4jnsgd1na2vs0mg"},{"bike_id":"16cdc9f3-4055-4851-a9b0-88d45139b1bb","system_id":"levelo_inurba_marseille","lat":43.27211,"lon":5.39181,"is_reserved":false,"is_disabled":false,"rental_uris":{"android":"levelo://app?vid=16cdc9f3-4055-4851-a9b0-88d45139b1bb","ios":"levelo://app?vid=16cdc9f3-4055-4851-a9b0-88d45139b1bb"},"vehicle_type_id":"4","last_reported":1746212895,"current_range_meters":7200,"station_id":"ce4bhhp2rcd13ifvqfm0","pricing_plan_id":"cebpf4jnsgd1na2vs0mg"},{"bike_id":"616a57e9-30c7-4306-a3f9-577eecb4c12e","system_id":"levelo_inurba_marseille","lat":43.29418,"lon":5.3862,"is_reserved":false,"is_disabled":false,"rental_uris":{"android":"levelo://app?vid=616a57e9-30c7-4306-a3f9-577eecb4c12e","ios":"levelo://app?vid=616a57e9-30c7-4306-a3f9-577eecb4c12e"},"vehicle_type_id":"4","last_reported":1746212895,"current_range_meters":7200,"station_id":"ce4bh2h2rcd13ifvqdh0","pricing_plan_id":"cebpf4jnsgd1na2vs0mg"},{"bike_id":"9ef01fb4-5e71-42c0-97bd-40585dad0269","system_id":"levelo_inurba_marseille","lat":43.26779,"lon":5.39414,"is_reserved":false,"is_disabled":false,"rental_uris":{"android":"levelo://app?vid=9ef01fb4-5e71-42c0-97bd-40585dad0269","ios":"levelo://app?vid=9ef01fb4-5e71-42c0-97bd-40585dad0269"},"vehicle_type_id":"4","last_reported":1746212895,"current_range_meters":7200,"station_id":"ce4bhh12rcd13ifvqfg0","pricing_plan_id":"cebpf4jnsgd1na2vs0mg"},{"bike_id":"f73daf93-45c7-48c0-a61a-2d28ac89db8d","system_id":"levelo_inurba_marseille","lat":43.33969,"lon":5.42092,"is_reserved":false,"is_disabled":false,"rental_uris":{"android":"levelo://app?vid=f73daf93-45c7-48c0-a61a-2d28ac89db8d","ios":"levelo://app?vid=f73daf93-45c7-48c0-a61a-2d28ac89db8d"},"vehicle_type_id":"4","last_reported":1746212895,"current_range_meters":7200,"station_id":"","pricing_plan_id":"cebpf4jnsgd1na2vs0mg"},{"bike_id":"7971fe93-5f1d-4a59-8508-b415e64fcb18","system_id":"levelo_inurba_marseille","lat":43.309659,"lon":5.373601,"is_reserved":false,"is_disabled":false,"rental_uris":{"android":"levelo://app?vid=7971fe93-5f1d-4a59-8508-b415e64fcb18","ios":"levelo://app?vid=7971fe93-5f1d-4a59-8508-b415e64fcb18"},"vehicle_type_id":"4","last_reported":1746212895,"current_range_meters":7200,"station_id":"","pricing_plan_id":"cebpf4jnsgd1na2vs0mg"},{"bike_id":"02ef3369-c63d-4775-ba06-32382959bf59","system_id":"levelo_inurba_marseille","lat":43.26922,"lon":5.40255,"is_reserved":false,"is_disabled":false,"rental_uris":{"android":"levelo://app?vid=02ef3369-c63d-4775-ba06-32382959bf59","ios":"levelo://app?vid=02ef3369-c63d-4775-ba06-32382959bf59"},"vehicle_type_id":"4","last_reported":1746212895,"current_range_meters":8000,"station_id":"cjm6bp8fraef2m0cb0m0","pricing_plan_id":"cebpf4jnsgd1na2vs0mg"},{"bike_id":"0d6c5100-7db5-44d0-b9d6-cf2b96014798","system_id":"levelo_inurba_marseille","lat":43.310095,"lon":5.374897,"is_reserved":false,"is_disabled":false,"rental_uris":{"android":"levelo://app?vid=0d6c5100-7db5-44d0-b9d6-cf2b96014798","ios":"levelo://app?vid=0d6c5100-7db5-44d0-b9d6-cf2b96014798"},"vehicle_type_id":"4","last_reported":1746212895,"current_range_meters":8000,"station_id":"","pricing_plan_id":"cebpf4jnsgd1na2vs0mg"},{"bike_id":"4a6851f9-34fb-48f6-8387-4b9c13325bed","system_id":"levelo_inurba_marseille","lat":43.32115,"lon":5.36798,"is_reserved":false,"is_disabled":false,"rental_uris":{"android":"levelo://app?vid=4a6851f9-34fb-48f6-8387-4b9c13325bed","ios":"levelo://app?vid=4a6851f9-34fb-48f6-8387-4b9c13325bed"},"vehicle_type_id":"4","last_reported":1746212895,"current_range_meters":8000,"station_id":"ce4bhrh2rcd13ifvqhug","pricing_plan_id":"cebpf4jnsgd1na2vs0mg"},{"bike_id":"2be6c5ac-db75-4c9d-95c6-9c66882f14b8","system_id":"levelo_inurba_marseille","lat":43.279,"lon":5.36301,"is_reserved":false,"is_disabled":false,"rental_uris":{"android":"levelo://app?vid=2be6c5ac-db75-4c9d-95c6-9c66882f14b8","ios":"levelo://app?vid=2be6c5ac-db75-4c9d-95c6-9c66882f14b8"},"vehicle_type_id":"4","last_reported":1746212895,"current_range_meters":8000,"station_id":"","pricing_plan_id":"cebpf4jnsgd1na2vs0mg"},{"bike_id":"ba1291bf-568d-477b-8e17-c284858000b8","system_id":"levelo_inurba_marseille","lat":43.33791,"lon":5.37459,"is_reserved":false,"is_disabled":false,"rental_uris":{"android":"levelo://app?vid=ba1291bf-568d-477b-8e17-c284858000b8","ios":"levelo://app?vid=ba1291bf-568d-477b-8e17-c284858000b8"},"vehicle_type_id":"4","last_reported":1746212895,"current_range_meters":8000,"station_id":"","pricing_plan_id":"cebpf4jnsgd1na2vs0mg"},{"bike_id":"46f18255-864c-4f2e-9e89-4b4f38ceaafb","system_id":"levelo_inurba_marseille","lat":43.30953,"lon":5.3904,"is_reserved":false,"is_disabled":false,"rental_uris":{"android":"levelo://app?vid=46f18255-864c-4f2e-9e89-4b4f38ceaafb","ios":"levelo://app?vid=46f18255-864c-4f2e-9e89-4b4f38ceaafb"},"vehicle_type_id":"4","last_reported":1746212895,"current_range_meters":14800,"station_id":"ce4bgup2rcd13ifvqco0","pricing_plan_id":"cebpf4jnsgd1na2vs0mg"},{"bike_id":"e220032d-de03-4e0b-be02-26bf33a1f7e7","system_id":"levelo_inurba_marseille","lat":43.290649,"lon":5.386134,"is_reserved":false,"is_disabled":false,"rental_uris":{"android":"levelo://app?vid=e220032d-de03-4e0b-be02-26bf33a1f7e7","ios":"levelo://app?vid=e220032d-de03-4e0b-be02-26bf33a1f7e7"},"vehicle_type_id":"4","last_reported":1746212895,"current_range_meters":8000,"station_id":"ce4bgup2rcd13ifvqco0","pricing_plan_id":"cebpf4jnsgd1na2vs0mg"},{"bike_id":"335d1d17-d98c-4b07-8c88-d8c6243755ab","system_id":"levelo_inurba_marseille","lat":43.305908,"lon":5.372411,"is_reserved":false,"is_disabled":false,"rental_uris":{"android":"levelo://app?vid=335d1d17-d98c-4b07-8c88-d8c6243755ab","ios":"levelo://app?vid=335d1d17-d98c-4b07-8c88-d8c6243755ab"},"vehicle_type_id":"4","last_reported":1746212895,"current_range_meters":8000,"station_id":"ce4bgqh2rcd13ifvqc4g","pricing_plan_id":"cebpf4jnsgd1na2vs0mg"},{"bike_id":"51c2e69f-d863-4c32-a2ac-db58609f730f","system_id":"levelo_inurba_marseille","lat":43.28724,"lon":5.39996,"is_reserved":false,"is_disabled":false,"rental_uris":{"android":"levelo://app?vid=51c2e69f-d863-4c32-a2ac-db58609f730f","ios":"levelo://app?vid=51c2e69f-d863-4c32-a2ac-db58609f730f"},"vehicle_type_id":"4","last_reported":1746212895,"current_range_meters":8000,"station_id":"ce4bho92rcd13ifvqh3g","pricing_plan_id":"cebpf4jnsgd1na2vs0mg"},{"bike_id":"02d0bc8c-e756-4ce9-903c-d6c6e41b006c","system_id":"levelo_inurba_marseille","lat":43.30791,"lon":5.4352,"is_reserved":false,"is_disabled":false,"rental_uris":{"android":"levelo://app?vid=02d0bc8c-e756-4ce9-903c-d6c6e41b006c","ios":"levelo://app?vid=02d0bc8c-e756-4ce9-903c-d6c6e41b006c"},"vehicle_type_id":"4","last_reported":1746212895,"current_range_meters":8000,"station_id":"ce4bhph2rcd13ifvqheg","pricing_plan_id":"cebpf4jnsgd1na2vs0mg"},{"bike_id":"a9ea11fa-cb63-4daf-a224-a3d8eb66c115","system_id":"levelo_inurba_marseille","lat":43.29555,"lon":5.42286,"is_reserved":false,"is_disabled":false,"rental_uris":{"android":"levelo://app?vid=a9ea11fa-cb63-4daf-a224-a3d8eb66c115","ios":"levelo://app?vid=a9ea11fa-cb63-4daf-a224-a3d8eb66c115"},"vehicle_type_id":"4","last_reported":1746212895,"current_range_meters":8000,"station_id":"ce4bhph2rcd13ifvqhdg","pricing_plan_id":"cebpf4jnsgd1na2vs0mg"},{"bike_id":"57da1fe8-45e4-4bfa-b800-58e17d66feed","system_id":"levelo_inurba_marseille","lat":43.23976,"lon":5.36627,"is_reserved":false,"is_disabled":false,"rental_uris":{"android":"levelo://app?vid=57da1fe8-45e4-4bfa-b800-58e17d66feed","ios":"levelo://app?vid=57da1fe8-45e4-4bfa-b800-58e17d66feed"},"vehicle_type_id":"4","last_reported":1746212895,"current_range_meters":8000,"station_id":"ce4bhi12rcd13ifvqfp0","pricing_plan_id":"cebpf4jnsgd1na2vs0mg"},{"bike_id":"abeac4d1-3329-4bf5-b8bd-661c6bee4f73","system_id":"levelo_inurba_marseille","lat":43.28932,"lon":5.36636,"is_reserved":false,"is_disabled":false,"rental_uris":{"android":"levelo://app?vid=abeac4d1-3329-4bf5-b8bd-661c6bee4f73","ios":"levelo://app?vid=abeac4d1-3329-4bf5-b8bd-661c6bee4f73"},"vehicle_type_id":"4","last_reported":1746212895,"current_range_meters":8000,"station_id":"ce4bhap2rcd13ifvqek0","pricing_plan_id":"cebpf4jnsgd1na2vs0mg"},{"bike_id":"2fbdf386-cb3e-4e9a-bf58-a9ea93c1883d","system_id":"levelo_inurba_marseille","lat":43.27054,"lon":5.40259,"is_reserved":false,"is_disabled":false,"rental_uris":{"android":"levelo://app?vid=2fbdf386-cb3e-4e9a-bf58-a9ea93c1883d","ios":"levelo://app?vid=2fbdf386-cb3e-4e9a-bf58-a9ea93c1883d"},"vehicle_type_id":"4","last_reported":1746212895,"current_range_meters":8000,"station_id":"ce4bhk92rcd13ifvqgc0","pricing_plan_id":"cebpf4jnsgd1na2vs0mg"},{"bike_id":"ef8acd7a-134b-4289-8332-b373a419a45c","system_id":"levelo_inurba_marseille","lat":43.28467,"lon":5.35887,"is_reserved":false,"is_disabled":false,"rental_uris":{"android":"levelo://app?vid=ef8acd7a-134b-4289-8332-b373a419a45c","ios":"levelo://app?vid=ef8acd7a-134b-4289-8332-b373a419a45c"},"vehicle_type_id":"4","last_reported":1746212895,"current_range_meters":8000,"station_id":"ce4bhah2rcd13ifvqei0","pricing_plan_id":"cebpf4jnsgd1na2vs0mg"},{"bike_id":"f742e6ea-0b2d-4518-a093-0137b4027d1b","system_id":"levelo_inurba_marseille","lat":43.3118,"lon":5.38729,"is_reserved":false,"is_disabled":false,"rental_uris":{"android":"levelo://app?vid=f742e6ea-0b2d-4518-a093-0137b4027d1b","ios":"levelo://app?vid=f742e6ea-0b2d-4518-a093-0137b4027d1b"},"vehicle_type_id":"4","last_reported":1746212895,"current_range_meters":8400,"station_id":"ce4bgv12rcd13ifvqcp0","pricing_plan_id":"cebpf4jnsgd1na2vs0mg"},{"bike_id":"9a6e0384-4e87-40c9-88ea-ddade03372a5","system_id":"levelo_inurba_marseille","lat":43.31114,"lon":5.37759,"is_reserved":false,"is_disabled":false,"rental_uris":{"android":"levelo://app?vid=9a6e0384-4e87-40c9-88ea-ddade03372a5","ios":"levelo://app?vid=9a6e0384-4e87-40c9-88ea-ddade03372a5"},"vehicle_type_id":"4","last_reported":1746212895,"current_range_meters":8400,"station_id":"ce4bgt92rcd13ifvqcg0","pricing_plan_id":"cebpf4jnsgd1na2vs0mg"},{"bike_id":"316829c1-1a37-4441-ad17-0cad50de9028","system_id":"levelo_inurba_marseille","lat":43.29425,"lon":5.38622,"is_reserved":false,"is_disabled":false,"rental_uris":{"android":"levelo://app?vid=316829c1-1a37-4441-ad17-0cad50de9028","ios":"levelo://app?vid=316829c1-1a37-4441-ad17-0cad50de9028"},"vehicle_type_id":"4","last_reported":1746212895,"current_range_meters":8800,"station_id":"ce4bh2h2rcd13ifvqdh0","pricing_plan_id":"cebpf4jnsgd1na2vs0mg"},{"bike_id":"1f0b62ea-6866-43b0-a168-d991bb403f81","system_id":"levelo_inurba_marseille","lat":43.28428,"lon":5.37529,"is_reserved":false,"is_disabled":false,"rental_uris":{"android":"levelo://app?vid=1f0b62ea-6866-43b0-a168-d991bb403f81","ios":"levelo://app?vid=1f0b62ea-6866-43b0-a168-d991bb403f81"},"vehicle_type_id":"4","last_reported":1746212895,"current_range_meters":8800,"station_id":"ce4bh412rcd13ifvqds0","pricing_plan_id":"cebpf4jnsgd1na2vs0mg"},{"bike_id":"0447922d-a64b-46e5-a6e0-b9d0ffd7e3a5","system_id":"levelo_inurba_marseille","lat":43.305509,"lon":5.365643,"is_reserved":false,"is_disabled":false,"rental_uris":{"android":"levelo://app?vid=0447922d-a64b-46e5-a6e0-b9d0ffd7e3a5","ios":"levelo://app?vid=0447922d-a64b-46e5-a6e0-b9d0ffd7e3a5"},"vehicle_type_id":"4","last_reported":1746212895,"current_range_meters":8800,"station_id":"","pricing_plan_id":"cebpf4jnsgd1na2vs0mg"},{"bike_id":"345eff35-9353-49a0-8fab-f7b584bad7d0","system_id":"levelo_inurba_marseille","lat":43.26914,"lon":5.40255,"is_reserved":false,"is_disabled":false,"rental_uris":{"android":"levelo://app?vid=345eff35-9353-49a0-8fab-f7b584bad7d0","ios":"levelo://app?vid=345eff35-9353-49a0-8fab-f7b584bad7d0"},"vehicle_type_id":"4","last_reported":1746212895,"current_range_meters":8800,"station_id":"cjm6bp8fraef2m0cb0m0","pricing_plan_id":"cebpf4jnsgd1na2vs0mg"},{"bike_id":"dfe735b1-1c0a-47bb-bd25-6e393c7b6b78","system_id":"levelo_inurba_marseille","lat":43.29535,"lon":5.38537,"is_reserved":false,"is_disabled":false,"rental_uris":{"android":"levelo://app?vid=dfe735b1-1c0a-47bb-bd25-6e393c7b6b78","ios":"levelo://app?vid=dfe735b1-1c0a-47bb-bd25-6e393c7b6b78"},"vehicle_type_id":"4","last_reported":1746212895,"current_range_meters":8800,"station_id":"ce4bgih2rcd13ifvqba0","pricing_plan_id":"cebpf4jnsgd1na2vs0mg"},{"bike_id":"f695776b-d012-4936-b078-57ba5f766346","system_id":"levelo_inurba_marseille","lat":43.31122,"lon":5.37763,"is_reserved":false,"is_disabled":false,"rental_uris":{"android":"levelo://app?vid=f695776b-d012-4936-b078-57ba5f766346","ios":"levelo://app?vid=f695776b-d012-4936-b078-57ba5f766346"},"vehicle_type_id":"4","last_reported":1746212895,"current_range_meters":8800,"station_id":"ce4bgt92rcd13ifvqcg0","pricing_plan_id":"cebpf4jnsgd1na2vs0mg"},{"bike_id":"0ea16c2f-cf53-4f53-837a-5cb47131b7ab","system_id":"levelo_inurba_marseille","lat":43.27214,"lon":5.39153,"is_reserved":false,"is_disabled":false,"rental_uris":{"android":"levelo://app?vid=0ea16c2f-cf53-4f53-837a-5cb47131b7ab","ios":"levelo://app?vid=0ea16c2f-cf53-4f53-837a-5cb47131b7ab"},"vehicle_type_id":"4","last_reported":1746212895,"current_range_meters":8800,"station_id":"ce4bhhp2rcd13ifvqfm0","pricing_plan_id":"cebpf4jnsgd1na2vs0mg"},{"bike_id":"9d6d86fe-71cc-4da4-abc6-f668389cbf78","system_id":"levelo_inurba_marseille","lat":43.245454,"lon":5.395286,"is_reserved":false,"is_disabled":false,"rental_uris":{"android":"levelo://app?vid=9d6d86fe-71cc-4da4-abc6-f668389cbf78","ios":"levelo://app?vid=9d6d86fe-71cc-4da4-abc6-f668389cbf78"},"vehicle_type_id":"4","last_reported":1746212895,"current_range_meters":9200,"station_id":"ce4bhlp2rcd13ifvqgjg","pricing_plan_id":"cebpf4jnsgd1na2vs0mg"},{"bike_id":"ad7b9ae4-9983-42fc-8cdc-30d005232021","system_id":"levelo_inurba_marseille","lat":43.24681,"lon":5.38169,"is_reserved":false,"is_disabled":false,"rental_uris":{"android":"levelo://app?vid=ad7b9ae4-9983-42fc-8cdc-30d005232021","ios":"levelo://app?vid=ad7b9ae4-9983-42fc-8cdc-30d005232021"},"vehicle_type_id":"4","last_reported":1746212895,"current_range_meters":9200,"station_id":"ce4bhih2rcd13ifvqfr0","pricing_plan_id":"cebpf4jnsgd1na2vs0mg"},{"bike_id":"29a83445-0753-40f4-8ed7-c02207f310e3","system_id":"levelo_inurba_marseille","lat":43.28287,"lon":5.38575,"is_reserved":false,"is_disabled":false,"rental_uris":{"android":"levelo://app?vid=29a83445-0753-40f4-8ed7-c02207f310e3","ios":"levelo://app?vid=29a83445-0753-40f4-8ed7-c02207f310e3"},"vehicle_type_id":"4","last_reported":1746212895,"current_range_meters":9200,"station_id":"","pricing_plan_id":"cebpf4jnsgd1na2vs0mg"},{"bike_id":"1600c9da-b908-4757-bbb0-3f5bc73d8729","system_id":"levelo_inurba_marseille","lat":43.28609,"lon":5.37062,"is_reserved":false,"is_disabled":false,"rental_uris":{"android":"levelo://app?vid=1600c9da-b908-4757-bbb0-3f5bc73d8729","ios":"levelo://app?vid=1600c9da-b908-4757-bbb0-3f5bc73d8729"},"vehicle_type_id":"4","last_reported":1746212895,"current_range_meters":9200,"station_id":"ce4bht12rcd13ifvqi60","pricing_plan_id":"cebpf4jnsgd1na2vs0mg"},{"bike_id":"d60e6c02-ffba-4dbb-a8f1-b9cc149807d4","system_id":"levelo_inurba_marseille","lat":43.31755,"lon":5.39025,"is_reserved":false,"is_disabled":true,"rental_uris":{"android":"levelo://app?vid=d60e6c02-ffba-4dbb-a8f1-b9cc149807d4","ios":"levelo://app?vid=d60e6c02-ffba-4dbb-a8f1-b9cc149807d4"},"vehicle_type_id":"4","last_reported":1746212895,"current_range_meters":9200,"station_id":"ce4bhqp2rcd13ifvqhng","pricing_plan_id":"cebpf4jnsgd1na2vs0mg"},{"bike_id":"bbebdf63-66d4-4c01-abd2-e3b49b6b0b31","system_id":"levelo_inurba_marseille","lat":43.32366,"lon":5.38875,"is_reserved":false,"is_disabled":false,"rental_uris":{"android":"levelo://app?vid=bbebdf63-66d4-4c01-abd2-e3b49b6b0b31","ios":"levelo://app?vid=bbebdf63-66d4-4c01-abd2-e3b49b6b0b31"},"vehicle_type_id":"4","last_reported":1746212895,"current_range_meters":9200,"station_id":"ce4bhqp2rcd13ifvqhog","pricing_plan_id":"cebpf4jnsgd1na2vs0mg"},{"bike_id":"4f3f678e-7255-4728-886d-342b4fb83587","system_id":"levelo_inurba_marseille","lat":43.29409,"lon":5.38637,"is_reserved":false,"is_disabled":false,"rental_uris":{"android":"levelo://app?vid=4f3f678e-7255-4728-886d-342b4fb83587","ios":"levelo://app?vid=4f3f678e-7255-4728-886d-342b4fb83587"},"vehicle_type_id":"4","last_reported":1746212895,"current_range_meters":6800,"station_id":"ce4bh2h2rcd13ifvqdh0","pricing_plan_id":"cebpf4jnsgd1na2vs0mg"},{"bike_id":"a17bc77c-9891-4abb-b13f-68d37aebf103","system_id":"levelo_inurba_marseille","lat":43.29026,"lon":5.38137,"is_reserved":false,"is_disabled":true,"rental_uris":{"android":"levelo://app?vid=a17bc77c-9891-4abb-b13f-68d37aebf103","ios":"levelo://app?vid=a17bc77c-9891-4abb-b13f-68d37aebf103"},"vehicle_type_id":"4","last_reported":1746212895,"current_range_meters":9600,"station_id":"ce4bh4p2rcd13ifvqe1g","pricing_plan_id":"cebpf4jnsgd1na2vs0mg"},{"bike_id":"4362d908-b606-4a37-899d-65587e78da6b","system_id":"levelo_inurba_marseille","lat":43.26942,"lon":5.40244,"is_reserved":false,"is_disabled":false,"rental_uris":{"android":"levelo://app?vid=4362d908-b606-4a37-899d-65587e78da6b","ios":"levelo://app?vid=4362d908-b606-4a37-899d-65587e78da6b"},"vehicle_type_id":"4","last_reported":1746212895,"current_range_meters":9600,"station_id":"cjm6bp8fraef2m0cb0m0","pricing_plan_id":"cebpf4jnsgd1na2vs0mg"},{"bike_id":"51c3a836-0385-4270-bdde-8dce64e57347","system_id":"levelo_inurba_marseille","lat":43.30598,"lon":5.37233,"is_reserved":false,"is_disabled":false,"rental_uris":{"android":"levelo://app?vid=51c3a836-0385-4270-bdde-8dce64e57347","ios":"levelo://app?vid=51c3a836-0385-4270-bdde-8dce64e57347"},"vehicle_type_id":"4","last_reported":1746212895,"current_range_meters":9600,"station_id":"ce4bgqh2rcd13ifvqc4g","pricing_plan_id":"cebpf4jnsgd1na2vs0mg"},{"bike_id":"5146b224-e50a-4870-93ad-7467d96f76b1","system_id":"levelo_inurba_marseille","lat":43.29259,"lon":5.38428,"is_reserved":false,"is_disabled":false,"rental_uris":{"android":"levelo://app?vid=5146b224-e50a-4870-93ad-7467d96f76b1","ios":"levelo://app?vid=5146b224-e50a-4870-93ad-7467d96f76b1"},"vehicle_type_id":"4","last_reported":1746212895,"current_range_meters":9600,"station_id":"ce4bh692rcd13ifvqea0","pricing_plan_id":"cebpf4jnsgd1na2vs0mg"},{"bike_id":"a68f2dde-2184-4ea1-a4e3-d539bf941ca1","system_id":"levelo_inurba_marseille","lat":43.29985,"lon":5.38498,"is_reserved":false,"is_disabled":false,"rental_uris":{"android":"levelo://app?vid=a68f2dde-2184-4ea1-a4e3-d539bf941ca1","ios":"levelo://app?vid=a68f2dde-2184-4ea1-a4e3-d539bf941ca1"},"vehicle_type_id":"4","last_reported":1746212895,"current_range_meters":9600,"station_id":"ce4bgj92rcd13ifvqbd0","pricing_plan_id":"cebpf4jnsgd1na2vs0mg"},{"bike_id":"fca5acbf-9a58-4c19-907b-7bd8f60beb5f","system_id":"levelo_inurba_marseille","lat":43.32105,"lon":5.36771,"is_reserved":false,"is_disabled":false,"rental_uris":{"android":"levelo://app?vid=fca5acbf-9a58-4c19-907b-7bd8f60beb5f","ios":"levelo://app?vid=fca5acbf-9a58-4c19-907b-7bd8f60beb5f"},"vehicle_type_id":"4","last_reported":1746212895,"current_range_meters":9600,"station_id":"ce4bhrh2rcd13ifvqhug","pricing_plan_id":"cebpf4jnsgd1na2vs0mg"},{"bike_id":"42e2eaed-f16b-4ac4-9efe-ef318f00e509","system_id":"levelo_inurba_marseille","lat":43.23194,"lon":5.35554,"is_reserved":false,"is_disabled":false,"rental_uris":{"android":"levelo://app?vid=42e2eaed-f16b-4ac4-9efe-ef318f00e509","ios":"levelo://app?vid=42e2eaed-f16b-4ac4-9efe-ef318f00e509"},"vehicle_type_id":"4","last_reported":1746212895,"current_range_meters":9600,"station_id":"ce4bhu92rcd13ifvqi70","pricing_plan_id":"cebpf4jnsgd1na2vs0mg"},{"bike_id":"354f7438-aa30-4e53-8181-12e37a07905f","system_id":"levelo_inurba_marseille","lat":43.29682,"lon":5.37294,"is_reserved":false,"is_disabled":true,"rental_uris":{"android":"levelo://app?vid=354f7438-aa30-4e53-8181-12e37a07905f","ios":"levelo://app?vid=354f7438-aa30-4e53-8181-12e37a07905f"},"vehicle_type_id":"4","last_reported":1746212895,"current_range_meters":9600,"station_id":"ce4bgk12rcd13ifvqbj0","pricing_plan_id":"cebpf4jnsgd1na2vs0mg"},{"bike_id":"9f5d1477-1a0b-4ab7-bf49-958ce5caccd6","system_id":"levelo_inurba_marseille","lat":43.29551,"lon":5.42287,"is_reserved":false,"is_disabled":false,"rental_uris":{"android":"levelo://app?vid=9f5d1477-1a0b-4ab7-bf49-958ce5caccd6","ios":"levelo://app?vid=9f5d1477-1a0b-4ab7-bf49-958ce5caccd6"},"vehicle_type_id":"4","last_reported":1746212895,"current_range_meters":9600,"station_id":"ce4bhph2rcd13ifvqhdg","pricing_plan_id":"cebpf4jnsgd1na2vs0mg"},{"bike_id":"fc7b84dc-977d-4468-a9ce-7486780414b7","system_id":"levelo_inurba_marseille","lat":43.26948,"lon":5.40244,"is_reserved":false,"is_disabled":false,"rental_uris":{"android":"levelo://app?vid=fc7b84dc-977d-4468-a9ce-7486780414b7","ios":"levelo://app?vid=fc7b84dc-977d-4468-a9ce-7486780414b7"},"vehicle_type_id":"4","last_reported":1746212895,"current_range_meters":9600,"station_id":"cjm6bp8fraef2m0cb0m0","pricing_plan_id":"cebpf4jnsgd1na2vs0mg"},{"bike_id":"f3407ed4-b054-4502-a390-19de70df325f","system_id":"levelo_inurba_marseille","lat":43.27321,"lon":5.39065,"is_reserved":false,"is_disabled":false,"rental_uris":{"android":"levelo://app?vid=f3407ed4-b054-4502-a390-19de70df325f","ios":"levelo://app?vid=f3407ed4-b054-4502-a390-19de70df325f"},"vehicle_type_id":"4","last_reported":1746212895,"current_range_meters":9600,"station_id":"ce4bhgp2rcd13ifvqfe0","pricing_plan_id":"cebpf4jnsgd1na2vs0mg"},{"bike_id":"12e93d7e-b1f5-4fef-8ebc-bfe3c7d986e1","system_id":"levelo_inurba_marseille","lat":43.28365,"lon":5.3864,"is_reserved":false,"is_disabled":false,"rental_uris":{"android":"levelo://app?vid=12e93d7e-b1f5-4fef-8ebc-bfe3c7d986e1","ios":"levelo://app?vid=12e93d7e-b1f5-4fef-8ebc-bfe3c7d986e1"},"vehicle_type_id":"4","last_reported":1746212895,"current_range_meters":10000,"station_id":"ce4bh492rcd13ifvqdvg","pricing_plan_id":"cebpf4jnsgd1na2vs0mg"},{"bike_id":"0c9a8767-a71f-4ef0-b390-c3b7e9c632a8","system_id":"levelo_inurba_marseille","lat":43.21182,"lon":5.35076,"is_reserved":false,"is_disabled":true,"rental_uris":{"android":"levelo://app?vid=0c9a8767-a71f-4ef0-b390-c3b7e9c632a8","ios":"levelo://app?vid=0c9a8767-a71f-4ef0-b390-c3b7e9c632a8"},"vehicle_type_id":"4","last_reported":1746212895,"current_range_meters":10000,"station_id":"","pricing_plan_id":"cebpf4jnsgd1na2vs0mg"},{"bike_id":"3694d090-d909-4d38-9eb1-31338c8af39e","system_id":"levelo_inurba_marseille","lat":43.26703,"lon":5.38251,"is_reserved":false,"is_disabled":true,"rental_uris":{"android":"levelo://app?vid=3694d090-d909-4d38-9eb1-31338c8af39e","ios":"levelo://app?vid=3694d090-d909-4d38-9eb1-31338c8af39e"},"vehicle_type_id":"4","last_reported":1746212895,"current_range_meters":10000,"station_id":"ce4bhg92rcd13ifvqf90","pricing_plan_id":"cebpf4jnsgd1na2vs0mg"},{"bike_id":"ab0a9fa0-5660-4ccc-8f75-4dca426bf90f","system_id":"levelo_inurba_marseille","lat":43.29262,"lon":5.38441,"is_reserved":false,"is_disabled":false,"rental_uris":{"android":"levelo://app?vid=ab0a9fa0-5660-4ccc-8f75-4dca426bf90f","ios":"levelo://app?vid=ab0a9fa0-5660-4ccc-8f75-4dca426bf90f"},"vehicle_type_id":"4","last_reported":1746212895,"current_range_meters":10000,"station_id":"ce4bh692rcd13ifvqea0","pricing_plan_id":"cebpf4jnsgd1na2vs0mg"},{"bike_id":"d88b0713-3577-4837-bdfd-6c25cc4280bb","system_id":"levelo_inurba_marseille","lat":43.28375,"lon":5.38626,"is_reserved":false,"is_disabled":false,"rental_uris":{"android":"levelo://app?vid=d88b0713-3577-4837-bdfd-6c25cc4280bb","ios":"levelo://app?vid=d88b0713-3577-4837-bdfd-6c25cc4280bb"},"vehicle_type_id":"4","last_reported":1746212895,"current_range_meters":9200,"station_id":"ce4bh492rcd13ifvqdvg","pricing_plan_id":"cebpf4jnsgd1na2vs0mg"},{"bike_id":"56034b8f-e013-40be-831b-4bafa0dbe690","system_id":"levelo_inurba_marseille","lat":43.30137,"lon":5.37421,"is_reserved":false,"is_disabled":false,"rental_uris":{"android":"levelo://app?vid=56034b8f-e013-40be-831b-4bafa0dbe690","ios":"levelo://app?vid=56034b8f-e013-40be-831b-4bafa0dbe690"},"vehicle_type_id":"4","last_reported":1746212895,"current_range_meters":10000,"station_id":"ce4bgs92rcd13ifvqcc0","pricing_plan_id":"cebpf4jnsgd1na2vs0mg"},{"bike_id":"7a03f261-7c2c-4c35-87ac-274166616cfc","system_id":"levelo_inurba_marseille","lat":43.30888,"lon":5.39623,"is_reserved":false,"is_disabled":false,"rental_uris":{"android":"levelo://app?vid=7a03f261-7c2c-4c35-87ac-274166616cfc","ios":"levelo://app?vid=7a03f261-7c2c-4c35-87ac-274166616cfc"},"vehicle_type_id":"4","last_reported":1746212895,"current_range_meters":10000,"station_id":"ce4bh012rcd13ifvqcv0","pricing_plan_id":"cebpf4jnsgd1na2vs0mg"},{"bike_id":"e86f9085-943c-4b82-88fe-74ed116c8f38","system_id":"levelo_inurba_marseille","lat":43.29253,"lon":5.40907,"is_reserved":false,"is_disabled":false,"rental_uris":{"android":"levelo://app?vid=e86f9085-943c-4b82-88fe-74ed116c8f38","ios":"levelo://app?vid=e86f9085-943c-4b82-88fe-74ed116c8f38"},"vehicle_type_id":"4","last_reported":1746212895,"current_range_meters":10000,"station_id":"ce4bh192rcd13ifvqdc0","pricing_plan_id":"cebpf4jnsgd1na2vs0mg"},{"bike_id":"df761e8a-247f-4f2b-a2cc-15fa6d26b40e","system_id":"levelo_inurba_marseille","lat":43.293057,"lon":5.371577,"is_reserved":false,"is_disabled":false,"rental_uris":{"android":"levelo://app?vid=df761e8a-247f-4f2b-a2cc-15fa6d26b40e","ios":"levelo://app?vid=df761e8a-247f-4f2b-a2cc-15fa6d26b40e"},"vehicle_type_id":"4","last_reported":1746212895,"current_range_meters":10000,"station_id":"","pricing_plan_id":"cebpf4jnsgd1na2vs0mg"},{"bike_id":"2dcaf899-2ab4-4a29-a894-f8f3c80c88f3","system_id":"levelo_inurba_marseille","lat":43.301401,"lon":5.387776,"is_reserved":false,"is_disabled":false,"rental_uris":{"android":"levelo://app?vid=2dcaf899-2ab4-4a29-a894-f8f3c80c88f3","ios":"levelo://app?vid=2dcaf899-2ab4-4a29-a894-f8f3c80c88f3"},"vehicle_type_id":"4","last_reported":1746212895,"current_range_meters":10000,"station_id":"ce4bh392rcd13ifvqdl0","pricing_plan_id":"cebpf4jnsgd1na2vs0mg"},{"bike_id":"bcdb9d2e-41b6-4501-810c-6146d2dfe2c6","system_id":"levelo_inurba_marseille","lat":43.29299,"lon":5.37183,"is_reserved":false,"is_disabled":true,"rental_uris":{"android":"levelo://app?vid=bcdb9d2e-41b6-4501-810c-6146d2dfe2c6","ios":"levelo://app?vid=bcdb9d2e-41b6-4501-810c-6146d2dfe2c6"},"vehicle_type_id":"4","last_reported":1746212895,"current_range_meters":10000,"station_id":"ce4bgh92rcd13ifvqb40","pricing_plan_id":"cebpf4jnsgd1na2vs0mg"},{"bike_id":"52653438-d935-4f61-a0a5-dc59b768eafc","system_id":"levelo_inurba_marseille","lat":43.32347,"lon":5.36746,"is_reserved":false,"is_disabled":false,"rental_uris":{"android":"levelo://app?vid=52653438-d935-4f61-a0a5-dc59b768eafc","ios":"levelo://app?vid=52653438-d935-4f61-a0a5-dc59b768eafc"},"vehicle_type_id":"4","last_reported":1746212895,"current_range_meters":10000,"station_id":"ce4bhsh2rcd13ifvqi2g","pricing_plan_id":"cebpf4jnsgd1na2vs0mg"},{"bike_id":"8ac012f0-363c-4b72-b44a-1fd8039c0c2d","system_id":"levelo_inurba_marseille","lat":43.27171,"lon":5.40996,"is_reserved":false,"is_disabled":false,"rental_uris":{"android":"levelo://app?vid=8ac012f0-363c-4b72-b44a-1fd8039c0c2d","ios":"levelo://app?vid=8ac012f0-363c-4b72-b44a-1fd8039c0c2d"},"vehicle_type_id":"4","last_reported":1746212895,"current_range_meters":10000,"station_id":"ce4bhl12rcd13ifvqgf0","pricing_plan_id":"cebpf4jnsgd1na2vs0mg"},{"bike_id":"4361e22f-d218-4d30-b3b6-53e44735b0fe","system_id":"levelo_inurba_marseille","lat":43.29779,"lon":5.38126,"is_reserved":false,"is_disabled":true,"rental_uris":{"android":"levelo://app?vid=4361e22f-d218-4d30-b3b6-53e44735b0fe","ios":"levelo://app?vid=4361e22f-d218-4d30-b3b6-53e44735b0fe"},"vehicle_type_id":"4","last_reported":1746212895,"current_range_meters":10800,"station_id":"ce4bgip2rcd13ifvqbb0","pricing_plan_id":"cebpf4jnsgd1na2vs0mg"},{"bike_id":"8a0058ae-d47a-4696-afcc-53a66a14ba3f","system_id":"levelo_inurba_marseille","lat":43.299004,"lon":5.436626,"is_reserved":false,"is_disabled":false,"rental_uris":{"android":"levelo://app?vid=8a0058ae-d47a-4696-afcc-53a66a14ba3f","ios":"levelo://app?vid=8a0058ae-d47a-4696-afcc-53a66a14ba3f"},"vehicle_type_id":"4","last_reported":1746212895,"current_range_meters":10800,"station_id":"ce4bhpp2rcd13ifvqhfg","pricing_plan_id":"cebpf4jnsgd1na2vs0mg"},{"bike_id":"dfb3396e-96f5-457c-af11-f6f27dad33e9","system_id":"levelo_inurba_marseille","lat":43.272027,"lon":5.364787,"is_reserved":false,"is_disabled":false,"rental_uris":{"android":"levelo://app?vid=dfb3396e-96f5-457c-af11-f6f27dad33e9","ios":"levelo://app?vid=dfb3396e-96f5-457c-af11-f6f27dad33e9"},"vehicle_type_id":"4","last_reported":1746212895,"current_range_meters":10800,"station_id":"","pricing_plan_id":"cebpf4jnsgd1na2vs0mg"},{"bike_id":"88e536c6-e321-4e72-bd88-e04a1c645931","system_id":"levelo_inurba_marseille","lat":43.28261,"lon":5.35084,"is_reserved":false,"is_disabled":false,"rental_uris":{"android":"levelo://app?vid=88e536c6-e321-4e72-bd88-e04a1c645931","ios":"levelo://app?vid=88e536c6-e321-4e72-bd88-e04a1c645931"},"vehicle_type_id":"4","last_reported":1746212895,"current_range_meters":10800,"station_id":"ce4bhbp2rcd13ifvqerg","pricing_plan_id":"cebpf4jnsgd1na2vs0mg"},{"bike_id":"6d74a9f5-3f03-4e8e-aa3b-29a84082925f","system_id":"levelo_inurba_marseille","lat":43.22934,"lon":5.35377,"is_reserved":false,"is_disabled":false,"rental_uris":{"android":"levelo://app?vid=6d74a9f5-3f03-4e8e-aa3b-29a84082925f","ios":"levelo://app?vid=6d74a9f5-3f03-4e8e-aa3b-29a84082925f"},"vehicle_type_id":"4","last_reported":1746212895,"current_range_meters":10800,"station_id":"cpo3532slgdg3j2ikp40","pricing_plan_id":"cebpf4jnsgd1na2vs0mg"},{"bike_id":"5dd76afa-ec1d-40f3-8436-60a3f1f53905","system_id":"levelo_inurba_marseille","lat":43.27232,"lon":5.39254,"is_reserved":false,"is_disabled":false,"rental_uris":{"android":"levelo://app?vid=5dd76afa-ec1d-40f3-8436-60a3f1f53905","ios":"levelo://app?vid=5dd76afa-ec1d-40f3-8436-60a3f1f53905"},"vehicle_type_id":"4","last_reported":1746212895,"current_range_meters":10800,"station_id":"","pricing_plan_id":"cebpf4jnsgd1na2vs0mg"},{"bike_id":"8a98d962-578d-444b-a5bb-91a62b69d98d","system_id":"levelo_inurba_marseille","lat":43.21197,"lon":5.350782,"is_reserved":false,"is_disabled":true,"rental_uris":{"android":"levelo://app?vid=8a98d962-578d-444b-a5bb-91a62b69d98d","ios":"levelo://app?vid=8a98d962-578d-444b-a5bb-91a62b69d98d"},"vehicle_type_id":"4","last_reported":1746212895,"current_range_meters":11200,"station_id":"st_cvj6sg6p6f1abm77japg","pricing_plan_id":"cebpf4jnsgd1na2vs0mg"},{"bike_id":"8dba6fcf-6c43-47eb-9b86-9d8e01dcfdf2","system_id":"levelo_inurba_marseille","lat":43.28917,"lon":5.38387,"is_reserved":false,"is_disabled":false,"rental_uris":{"android":"levelo://app?vid=8dba6fcf-6c43-47eb-9b86-9d8e01dcfdf2","ios":"levelo://app?vid=8dba6fcf-6c43-47eb-9b86-9d8e01dcfdf2"},"vehicle_type_id":"4","last_reported":1746212895,"current_range_meters":11200,"station_id":"ce4bh612rcd13ifvqe6g","pricing_plan_id":"cebpf4jnsgd1na2vs0mg"},{"bike_id":"bd7597b7-eb6e-4f57-a7df-e0aef453e385","system_id":"levelo_inurba_marseille","lat":43.29565,"lon":5.42273,"is_reserved":false,"is_disabled":false,"rental_uris":{"android":"levelo://app?vid=bd7597b7-eb6e-4f57-a7df-e0aef453e385","ios":"levelo://app?vid=bd7597b7-eb6e-4f57-a7df-e0aef453e385"},"vehicle_type_id":"4","last_reported":1746212895,"current_range_meters":11200,"station_id":"ce4bhph2rcd13ifvqhdg","pricing_plan_id":"cebpf4jnsgd1na2vs0mg"},{"bike_id":"0b2ef19c-899d-45d1-9dba-8c9a1e171105","system_id":"levelo_inurba_marseille","lat":43.26938,"lon":5.4025,"is_reserved":false,"is_disabled":false,"rental_uris":{"android":"levelo://app?vid=0b2ef19c-899d-45d1-9dba-8c9a1e171105","ios":"levelo://app?vid=0b2ef19c-899d-45d1-9dba-8c9a1e171105"},"vehicle_type_id":"4","last_reported":1746212895,"current_range_meters":11200,"station_id":"cjm6bp8fraef2m0cb0m0","pricing_plan_id":"cebpf4jnsgd1na2vs0mg"},{"bike_id":"d3ec4384-526b-4c45-bc2a-33b7e55c628e","system_id":"levelo_inurba_marseille","lat":43.26943,"lon":5.40244,"is_reserved":false,"is_disabled":false,"rental_uris":{"android":"levelo://app?vid=d3ec4384-526b-4c45-bc2a-33b7e55c628e","ios":"levelo://app?vid=d3ec4384-526b-4c45-bc2a-33b7e55c628e"},"vehicle_type_id":"4","last_reported":1746212895,"current_range_meters":11200,"station_id":"cjm6bp8fraef2m0cb0m0","pricing_plan_id":"cebpf4jnsgd1na2vs0mg"},{"bike_id":"7873f238-a163-475d-8fd1-5615f666e24b","system_id":"levelo_inurba_marseille","lat":43.30832,"lon":5.39638,"is_reserved":false,"is_disabled":false,"rental_uris":{"android":"levelo://app?vid=7873f238-a163-475d-8fd1-5615f666e24b","ios":"levelo://app?vid=7873f238-a163-475d-8fd1-5615f666e24b"},"vehicle_type_id":"4","last_reported":1746212895,"current_range_meters":11200,"station_id":"ce4bh012rcd13ifvqcv0","pricing_plan_id":"cebpf4jnsgd1na2vs0mg"},{"bike_id":"47c0cce4-dba6-4ebf-8afa-c71382bcb358","system_id":"levelo_inurba_marseille","lat":43.30801,"lon":5.43525,"is_reserved":false,"is_disabled":false,"rental_uris":{"android":"levelo://app?vid=47c0cce4-dba6-4ebf-8afa-c71382bcb358","ios":"levelo://app?vid=47c0cce4-dba6-4ebf-8afa-c71382bcb358"},"vehicle_type_id":"4","last_reported":1746212895,"current_range_meters":11200,"station_id":"ce4bhph2rcd13ifvqheg","pricing_plan_id":"cebpf4jnsgd1na2vs0mg"},{"bike_id":"f48f6a8a-46ce-4c79-8fb0-19652a738d42","system_id":"levelo_inurba_marseille","lat":43.36166,"lon":5.44198,"is_reserved":false,"is_disabled":false,"rental_uris":{"android":"levelo://app?vid=f48f6a8a-46ce-4c79-8fb0-19652a738d42","ios":"levelo://app?vid=f48f6a8a-46ce-4c79-8fb0-19652a738d42"},"vehicle_type_id":"4","last_reported":1746212895,"current_range_meters":11600,"station_id":"","pricing_plan_id":"cebpf4jnsgd1na2vs0mg"},{"bike_id":"a1ca96bf-c618-4846-a5a4-db3c92745600","system_id":"levelo_inurba_marseille","lat":43.29418,"lon":5.38625,"is_reserved":false,"is_disabled":false,"rental_uris":{"android":"levelo://app?vid=a1ca96bf-c618-4846-a5a4-db3c92745600","ios":"levelo://app?vid=a1ca96bf-c618-4846-a5a4-db3c92745600"},"vehicle_type_id":"4","last_reported":1746212895,"current_range_meters":11600,"station_id":"ce4bh2h2rcd13ifvqdh0","pricing_plan_id":"cebpf4jnsgd1na2vs0mg"},{"bike_id":"8b96fbcf-f76d-4ad1-a506-5cb2795bd591","system_id":"levelo_inurba_marseille","lat":43.26216,"lon":5.37438,"is_reserved":false,"is_disabled":false,"rental_uris":{"android":"levelo://app?vid=8b96fbcf-f76d-4ad1-a506-5cb2795bd591","ios":"levelo://app?vid=8b96fbcf-f76d-4ad1-a506-5cb2795bd591"},"vehicle_type_id":"4","last_reported":1746212895,"current_range_meters":11600,"station_id":"ce4bhgp2rcd13ifvqfc0","pricing_plan_id":"cebpf4jnsgd1na2vs0mg"},{"bike_id":"2cb6a99f-71a0-4bfb-a258-fa9575685185","system_id":"levelo_inurba_marseille","lat":43.240814,"lon":5.377447,"is_reserved":false,"is_disabled":false,"rental_uris":{"android":"levelo://app?vid=2cb6a99f-71a0-4bfb-a258-fa9575685185","ios":"levelo://app?vid=2cb6a99f-71a0-4bfb-a258-fa9575685185"},"vehicle_type_id":"4","last_reported":1746212895,"current_range_meters":11600,"station_id":"ce4bhnp2rcd13ifvqgvg","pricing_plan_id":"cebpf4jnsgd1na2vs0mg"},{"bike_id":"c4e96c46-f91b-43da-b606-2d375da42ac7","system_id":"levelo_inurba_marseille","lat":43.27176,"lon":5.40998,"is_reserved":false,"is_disabled":false,"rental_uris":{"android":"levelo://app?vid=c4e96c46-f91b-43da-b606-2d375da42ac7","ios":"levelo://app?vid=c4e96c46-f91b-43da-b606-2d375da42ac7"},"vehicle_type_id":"4","last_reported":1746212895,"current_range_meters":11600,"station_id":"ce4bhl12rcd13ifvqgf0","pricing_plan_id":"cebpf4jnsgd1na2vs0mg"},{"bike_id":"5b094917-c175-4b9b-abeb-88fd43cf31ed","system_id":"levelo_inurba_marseille","lat":43.295592,"lon":5.42285,"is_reserved":false,"is_disabled":false,"rental_uris":{"android":"levelo://app?vid=5b094917-c175-4b9b-abeb-88fd43cf31ed","ios":"levelo://app?vid=5b094917-c175-4b9b-abeb-88fd43cf31ed"},"vehicle_type_id":"4","last_reported":1746212895,"current_range_meters":11600,"station_id":"ce4bhph2rcd13ifvqhdg","pricing_plan_id":"cebpf4jnsgd1na2vs0mg"},{"bike_id":"fb7187b6-5512-4051-ac8a-d675dc224434","system_id":"levelo_inurba_marseille","lat":43.29102,"lon":5.38147,"is_reserved":false,"is_disabled":false,"rental_uris":{"android":"levelo://app?vid=fb7187b6-5512-4051-ac8a-d675dc224434","ios":"levelo://app?vid=fb7187b6-5512-4051-ac8a-d675dc224434"},"vehicle_type_id":"4","last_reported":1746212895,"current_range_meters":11600,"station_id":"ce4bh512rcd13ifvqe2g","pricing_plan_id":"cebpf4jnsgd1na2vs0mg"},{"bike_id":"313f19ff-8c45-4a02-b367-c6a7c2d5e214","system_id":"levelo_inurba_marseille","lat":43.27494,"lon":5.42458,"is_reserved":false,"is_disabled":false,"rental_uris":{"android":"levelo://app?vid=313f19ff-8c45-4a02-b367-c6a7c2d5e214","ios":"levelo://app?vid=313f19ff-8c45-4a02-b367-c6a7c2d5e214"},"vehicle_type_id":"4","last_reported":1746212895,"current_range_meters":12000,"station_id":"ce4bhn92rcd13ifvqgrg","pricing_plan_id":"cebpf4jnsgd1na2vs0mg"},{"bike_id":"e27ce41e-d31e-4411-a762-387f29d91877","system_id":"levelo_inurba_marseille","lat":43.29547,"lon":5.42288,"is_reserved":false,"is_disabled":false,"rental_uris":{"android":"levelo://app?vid=e27ce41e-d31e-4411-a762-387f29d91877","ios":"levelo://app?vid=e27ce41e-d31e-4411-a762-387f29d91877"},"vehicle_type_id":"4","last_reported":1746212895,"current_range_meters":12000,"station_id":"ce4bhph2rcd13ifvqhdg","pricing_plan_id":"cebpf4jnsgd1na2vs0mg"},{"bike_id":"e0e163c0-b70c-478b-a240-966060226969","system_id":"levelo_inurba_marseille","lat":43.29241,"lon":5.36191,"is_reserved":false,"is_disabled":false,"rental_uris":{"android":"levelo://app?vid=e0e163c0-b70c-478b-a240-966060226969","ios":"levelo://app?vid=e0e163c0-b70c-478b-a240-966060226969"},"vehicle_type_id":"4","last_reported":1746212895,"current_range_meters":12000,"station_id":"","pricing_plan_id":"cebpf4jnsgd1na2vs0mg"},{"bike_id":"a10e1f8e-5b77-4788-ac8d-5d9903e03dc1","system_id":"levelo_inurba_marseille","lat":43.29511,"lon":5.3752,"is_reserved":false,"is_disabled":false,"rental_uris":{"android":"levelo://app?vid=a10e1f8e-5b77-4788-ac8d-5d9903e03dc1","ios":"levelo://app?vid=a10e1f8e-5b77-4788-ac8d-5d9903e03dc1"},"vehicle_type_id":"4","last_reported":1746212895,"current_range_meters":11600,"station_id":"ce4bgkp2rcd13ifvqbmg","pricing_plan_id":"cebpf4jnsgd1na2vs0mg"},{"bike_id":"2db3ce42-aded-4109-9b9c-fc85ab97d91b","system_id":"levelo_inurba_marseille","lat":43.30412,"lon":5.41291,"is_reserved":false,"is_disabled":false,"rental_uris":{"android":"levelo://app?vid=2db3ce42-aded-4109-9b9c-fc85ab97d91b","ios":"levelo://app?vid=2db3ce42-aded-4109-9b9c-fc85ab97d91b"},"vehicle_type_id":"4","last_reported":1746212895,"current_range_meters":12000,"station_id":"ce4bhop2rcd13ifvqh8g","pricing_plan_id":"cebpf4jnsgd1na2vs0mg"},{"bike_id":"2cce8745-f47d-491d-9776-93cf9f036027","system_id":"levelo_inurba_marseille","lat":43.30811,"lon":5.43536,"is_reserved":false,"is_disabled":false,"rental_uris":{"android":"levelo://app?vid=2cce8745-f47d-491d-9776-93cf9f036027","ios":"levelo://app?vid=2cce8745-f47d-491d-9776-93cf9f036027"},"vehicle_type_id":"4","last_reported":1746212895,"current_range_meters":12000,"station_id":"ce4bhph2rcd13ifvqheg","pricing_plan_id":"cebpf4jnsgd1na2vs0mg"},{"bike_id":"558c4902-7d55-4c42-a78e-040a0546458a","system_id":"levelo_inurba_marseille","lat":43.29546,"lon":5.4227,"is_reserved":false,"is_disabled":false,"rental_uris":{"android":"levelo://app?vid=558c4902-7d55-4c42-a78e-040a0546458a","ios":"levelo://app?vid=558c4902-7d55-4c42-a78e-040a0546458a"},"vehicle_type_id":"4","last_reported":1746212895,"current_range_meters":12400,"station_id":"ce4bhph2rcd13ifvqhdg","pricing_plan_id":"cebpf4jnsgd1na2vs0mg"},{"bike_id":"8234082d-4498-45da-9a5f-8e938f42803d","system_id":"levelo_inurba_marseille","lat":43.23201,"lon":5.35502,"is_reserved":false,"is_disabled":false,"rental_uris":{"android":"levelo://app?vid=8234082d-4498-45da-9a5f-8e938f42803d","ios":"levelo://app?vid=8234082d-4498-45da-9a5f-8e938f42803d"},"vehicle_type_id":"4","last_reported":1746212895,"current_range_meters":12400,"station_id":"ce4bhu92rcd13ifvqi70","pricing_plan_id":"cebpf4jnsgd1na2vs0mg"},{"bike_id":"3c9d1a9b-1d3c-4fcb-a55d-58bbb83b0505","system_id":"levelo_inurba_marseille","lat":43.29529,"lon":5.38537,"is_reserved":false,"is_disabled":false,"rental_uris":{"android":"levelo://app?vid=3c9d1a9b-1d3c-4fcb-a55d-58bbb83b0505","ios":"levelo://app?vid=3c9d1a9b-1d3c-4fcb-a55d-58bbb83b0505"},"vehicle_type_id":"4","last_reported":1746212895,"current_range_meters":12000,"station_id":"ce4bgih2rcd13ifvqba0","pricing_plan_id":"cebpf4jnsgd1na2vs0mg"},{"bike_id":"03b4c1dc-de10-43ca-86d4-756895e2cccf","system_id":"levelo_inurba_marseille","lat":43.26491,"lon":5.39556,"is_reserved":false,"is_disabled":false,"rental_uris":{"android":"levelo://app?vid=03b4c1dc-de10-43ca-86d4-756895e2cccf","ios":"levelo://app?vid=03b4c1dc-de10-43ca-86d4-756895e2cccf"},"vehicle_type_id":"4","last_reported":1746212895,"current_range_meters":12400,"station_id":"ce4bhi12rcd13ifvqfq0","pricing_plan_id":"cebpf4jnsgd1na2vs0mg"},{"bike_id":"b3bab6d3-f0d5-4ac2-a07a-00f4c9c991a7","system_id":"levelo_inurba_marseille","lat":43.25577,"lon":5.38238,"is_reserved":false,"is_disabled":false,"rental_uris":{"android":"levelo://app?vid=b3bab6d3-f0d5-4ac2-a07a-00f4c9c991a7","ios":"levelo://app?vid=b3bab6d3-f0d5-4ac2-a07a-00f4c9c991a7"},"vehicle_type_id":"4","last_reported":1746212895,"current_range_meters":12000,"station_id":"ce4bhih2rcd13ifvqfs0","pricing_plan_id":"cebpf4jnsgd1na2vs0mg"},{"bike_id":"9adfac2a-491e-4112-b03c-2c448baa3a91","system_id":"levelo_inurba_marseille","lat":43.26031,"lon":5.37556,"is_reserved":false,"is_disabled":true,"rental_uris":{"android":"levelo://app?vid=9adfac2a-491e-4112-b03c-2c448baa3a91","ios":"levelo://app?vid=9adfac2a-491e-4112-b03c-2c448baa3a91"},"vehicle_type_id":"4","last_reported":1746212895,"current_range_meters":12400,"station_id":"ce4bhgh2rcd13ifvqfa0","pricing_plan_id":"cebpf4jnsgd1na2vs0mg"},{"bike_id":"a543c561-d533-4888-8062-640697e16cf5","system_id":"levelo_inurba_marseille","lat":43.240693,"lon":5.377545,"is_reserved":false,"is_disabled":false,"rental_uris":{"android":"levelo://app?vid=a543c561-d533-4888-8062-640697e16cf5","ios":"levelo://app?vid=a543c561-d533-4888-8062-640697e16cf5"},"vehicle_type_id":"4","last_reported":1746212895,"current_range_meters":12400,"station_id":"ce4bhnp2rcd13ifvqgvg","pricing_plan_id":"cebpf4jnsgd1na2vs0mg"},{"bike_id":"fc644945-2179-4427-aac8-f9a7f73af2c0","system_id":"levelo_inurba_marseille","lat":43.29911,"lon":5.38144,"is_reserved":false,"is_disabled":false,"rental_uris":{"android":"levelo://app?vid=fc644945-2179-4427-aac8-f9a7f73af2c0","ios":"levelo://app?vid=fc644945-2179-4427-aac8-f9a7f73af2c0"},"vehicle_type_id":"4","last_reported":1746212895,"current_range_meters":12400,"station_id":"ce4bgj12rcd13ifvqbc0","pricing_plan_id":"cebpf4jnsgd1na2vs0mg"},{"bike_id":"4bb16b73-3cda-4f9a-89aa-5a75a7feef34","system_id":"levelo_inurba_marseille","lat":43.27922,"lon":5.39572,"is_reserved":false,"is_disabled":false,"rental_uris":{"android":"levelo://app?vid=4bb16b73-3cda-4f9a-89aa-5a75a7feef34","ios":"levelo://app?vid=4bb16b73-3cda-4f9a-89aa-5a75a7feef34"},"vehicle_type_id":"4","last_reported":1746212895,"current_range_meters":12800,"station_id":"ce4bhf92rcd13ifvqf40","pricing_plan_id":"cebpf4jnsgd1na2vs0mg"},{"bike_id":"72029b00-1767-427f-ae65-686cc405abf2","system_id":"levelo_inurba_marseille","lat":43.28409,"lon":5.37511,"is_reserved":false,"is_disabled":false,"rental_uris":{"android":"levelo://app?vid=72029b00-1767-427f-ae65-686cc405abf2","ios":"levelo://app?vid=72029b00-1767-427f-ae65-686cc405abf2"},"vehicle_type_id":"4","last_reported":1746212895,"current_range_meters":12800,"station_id":"ce4bh412rcd13ifvqds0","pricing_plan_id":"cebpf4jnsgd1na2vs0mg"},{"bike_id":"d24e36e0-e0aa-458e-9dc1-1d3e91441d9d","system_id":"levelo_inurba_marseille","lat":43.29013,"lon":5.38615,"is_reserved":false,"is_disabled":true,"rental_uris":{"android":"levelo://app?vid=d24e36e0-e0aa-458e-9dc1-1d3e91441d9d","ios":"levelo://app?vid=d24e36e0-e0aa-458e-9dc1-1d3e91441d9d"},"vehicle_type_id":"4","last_reported":1746212895,"current_range_meters":12800,"station_id":"ce4bh4p2rcd13ifvqe0g","pricing_plan_id":"cebpf4jnsgd1na2vs0mg"},{"bike_id":"6bcfafe9-e0dc-4830-a2ef-8fbcb15314a2","system_id":"levelo_inurba_marseille","lat":43.29558,"lon":5.42287,"is_reserved":false,"is_disabled":false,"rental_uris":{"android":"levelo://app?vid=6bcfafe9-e0dc-4830-a2ef-8fbcb15314a2","ios":"levelo://app?vid=6bcfafe9-e0dc-4830-a2ef-8fbcb15314a2"},"vehicle_type_id":"4","last_reported":1746212895,"current_range_meters":12800,"station_id":"ce4bhph2rcd13ifvqhdg","pricing_plan_id":"cebpf4jnsgd1na2vs0mg"},{"bike_id":"1d7b6ae0-2914-4718-9359-9dc1b5a0be52","system_id":"levelo_inurba_marseille","lat":43.295613,"lon":5.42278,"is_reserved":false,"is_disabled":false,"rental_uris":{"android":"levelo://app?vid=1d7b6ae0-2914-4718-9359-9dc1b5a0be52","ios":"levelo://app?vid=1d7b6ae0-2914-4718-9359-9dc1b5a0be52"},"vehicle_type_id":"4","last_reported":1746212895,"current_range_meters":12800,"station_id":"ce4bhph2rcd13ifvqhdg","pricing_plan_id":"cebpf4jnsgd1na2vs0mg"},{"bike_id":"25c62e8a-6f18-49ec-84e3-c2d88fba5ea7","system_id":"levelo_inurba_marseille","lat":43.29542,"lon":5.38544,"is_reserved":false,"is_disabled":false,"rental_uris":{"android":"levelo://app?vid=25c62e8a-6f18-49ec-84e3-c2d88fba5ea7","ios":"levelo://app?vid=25c62e8a-6f18-49ec-84e3-c2d88fba5ea7"},"vehicle_type_id":"4","last_reported":1746212895,"current_range_meters":12800,"station_id":"ce4bgih2rcd13ifvqba0","pricing_plan_id":"cebpf4jnsgd1na2vs0mg"},{"bike_id":"c8e16fcb-5510-4723-b6e7-2aa49c1b3b8d","system_id":"levelo_inurba_marseille","lat":43.30708,"lon":5.37368,"is_reserved":false,"is_disabled":false,"rental_uris":{"android":"levelo://app?vid=c8e16fcb-5510-4723-b6e7-2aa49c1b3b8d","ios":"levelo://app?vid=c8e16fcb-5510-4723-b6e7-2aa49c1b3b8d"},"vehicle_type_id":"4","last_reported":1746212895,"current_range_meters":12800,"station_id":"","pricing_plan_id":"cebpf4jnsgd1na2vs0mg"},{"bike_id":"684057bd-944d-43cc-b269-e74e002c84e4","system_id":"levelo_inurba_marseille","lat":43.27164,"lon":5.41006,"is_reserved":false,"is_disabled":false,"rental_uris":{"android":"levelo://app?vid=684057bd-944d-43cc-b269-e74e002c84e4","ios":"levelo://app?vid=684057bd-944d-43cc-b269-e74e002c84e4"},"vehicle_type_id":"4","last_reported":1746212895,"current_range_meters":12800,"station_id":"ce4bhl12rcd13ifvqgf0","pricing_plan_id":"cebpf4jnsgd1na2vs0mg"},{"bike_id":"ff878896-70b1-4fe5-8bfb-88e102a5e4f0","system_id":"levelo_inurba_marseille","lat":43.32103,"lon":5.36767,"is_reserved":false,"is_disabled":false,"rental_uris":{"android":"levelo://app?vid=ff878896-70b1-4fe5-8bfb-88e102a5e4f0","ios":"levelo://app?vid=ff878896-70b1-4fe5-8bfb-88e102a5e4f0"},"vehicle_type_id":"4","last_reported":1746212895,"current_range_meters":12800,"station_id":"ce4bhrh2rcd13ifvqhug","pricing_plan_id":"cebpf4jnsgd1na2vs0mg"},{"bike_id":"b3d12826-1f11-4492-8ea0-3cfc6417ebf6","system_id":"levelo_inurba_marseille","lat":43.29553,"lon":5.42284,"is_reserved":false,"is_disabled":false,"rental_uris":{"android":"levelo://app?vid=b3d12826-1f11-4492-8ea0-3cfc6417ebf6","ios":"levelo://app?vid=b3d12826-1f11-4492-8ea0-3cfc6417ebf6"},"vehicle_type_id":"4","last_reported":1746212895,"current_range_meters":12800,"station_id":"ce4bhph2rcd13ifvqhdg","pricing_plan_id":"cebpf4jnsgd1na2vs0mg"},{"bike_id":"3e1ca345-a2b5-485b-97e7-f5683ba07c8e","system_id":"levelo_inurba_marseille","lat":43.2466,"lon":5.38164,"is_reserved":false,"is_disabled":false,"rental_uris":{"android":"levelo://app?vid=3e1ca345-a2b5-485b-97e7-f5683ba07c8e","ios":"levelo://app?vid=3e1ca345-a2b5-485b-97e7-f5683ba07c8e"},"vehicle_type_id":"4","last_reported":1746212895,"current_range_meters":13600,"station_id":"ce4bhih2rcd13ifvqfr0","pricing_plan_id":"cebpf4jnsgd1na2vs0mg"},{"bike_id":"77177877-1031-4271-b022-ea57500ff126","system_id":"levelo_inurba_marseille","lat":43.29269,"lon":5.40891,"is_reserved":false,"is_disabled":false,"rental_uris":{"android":"levelo://app?vid=77177877-1031-4271-b022-ea57500ff126","ios":"levelo://app?vid=77177877-1031-4271-b022-ea57500ff126"},"vehicle_type_id":"4","last_reported":1746212895,"current_range_meters":13600,"station_id":"ce4bh192rcd13ifvqdc0","pricing_plan_id":"cebpf4jnsgd1na2vs0mg"},{"bike_id":"276d6c41-4257-4312-a406-c2a2e6a3da89","system_id":"levelo_inurba_marseille","lat":43.32364,"lon":5.36755,"is_reserved":false,"is_disabled":false,"rental_uris":{"android":"levelo://app?vid=276d6c41-4257-4312-a406-c2a2e6a3da89","ios":"levelo://app?vid=276d6c41-4257-4312-a406-c2a2e6a3da89"},"vehicle_type_id":"4","last_reported":1746212895,"current_range_meters":13600,"station_id":"ce4bhsh2rcd13ifvqi2g","pricing_plan_id":"cebpf4jnsgd1na2vs0mg"},{"bike_id":"f268439c-0884-4d17-ae2b-d83d2ccb1cc5","system_id":"levelo_inurba_marseille","lat":43.30916,"lon":5.36842,"is_reserved":false,"is_disabled":false,"rental_uris":{"android":"levelo://app?vid=f268439c-0884-4d17-ae2b-d83d2ccb1cc5","ios":"levelo://app?vid=f268439c-0884-4d17-ae2b-d83d2ccb1cc5"},"vehicle_type_id":"4","last_reported":1746212895,"current_range_meters":13600,"station_id":"ce4bgn92rcd13ifvqbvg","pricing_plan_id":"cebpf4jnsgd1na2vs0mg"},{"bike_id":"294d3ef3-4301-4b71-b09e-43b798b4b7cb","system_id":"levelo_inurba_marseille","lat":43.23191,"lon":5.39972,"is_reserved":false,"is_disabled":false,"rental_uris":{"android":"levelo://app?vid=294d3ef3-4301-4b71-b09e-43b798b4b7cb","ios":"levelo://app?vid=294d3ef3-4301-4b71-b09e-43b798b4b7cb"},"vehicle_type_id":"4","last_reported":1746212895,"current_range_meters":14000,"station_id":"ce4bhn12rcd13ifvqgqg","pricing_plan_id":"cebpf4jnsgd1na2vs0mg"},{"bike_id":"c9aae385-fbc3-4ba2-983e-be8e6c3a34e9","system_id":"levelo_inurba_marseille","lat":43.28264,"lon":5.35066,"is_reserved":false,"is_disabled":false,"rental_uris":{"android":"levelo://app?vid=c9aae385-fbc3-4ba2-983e-be8e6c3a34e9","ios":"levelo://app?vid=c9aae385-fbc3-4ba2-983e-be8e6c3a34e9"},"vehicle_type_id":"4","last_reported":1746212895,"current_range_meters":14000,"station_id":"ce4bhbp2rcd13ifvqerg","pricing_plan_id":"cebpf4jnsgd1na2vs0mg"},{"bike_id":"39459394-0c94-4c07-822c-f42215c369bf","system_id":"levelo_inurba_marseille","lat":43.273205,"lon":5.39078,"is_reserved":false,"is_disabled":false,"rental_uris":{"android":"levelo://app?vid=39459394-0c94-4c07-822c-f42215c369bf","ios":"levelo://app?vid=39459394-0c94-4c07-822c-f42215c369bf"},"vehicle_type_id":"4","last_reported":1746212895,"current_range_meters":14000,"station_id":"ce4bhgp2rcd13ifvqfe0","pricing_plan_id":"cebpf4jnsgd1na2vs0mg"},{"bike_id":"a60521af-5771-436a-8715-f9b173d73baf","system_id":"levelo_inurba_marseille","lat":43.26497,"lon":5.3954,"is_reserved":false,"is_disabled":false,"rental_uris":{"android":"levelo://app?vid=a60521af-5771-436a-8715-f9b173d73baf","ios":"levelo://app?vid=a60521af-5771-436a-8715-f9b173d73baf"},"vehicle_type_id":"4","last_reported":1746212895,"current_range_meters":14000,"station_id":"ce4bhi12rcd13ifvqfq0","pricing_plan_id":"cebpf4jnsgd1na2vs0mg"},{"bike_id":"ccb194bf-f46e-41a8-990f-70a6131271cf","system_id":"levelo_inurba_marseille","lat":43.31226,"lon":5.36861,"is_reserved":false,"is_disabled":false,"rental_uris":{"android":"levelo://app?vid=ccb194bf-f46e-41a8-990f-70a6131271cf","ios":"levelo://app?vid=ccb194bf-f46e-41a8-990f-70a6131271cf"},"vehicle_type_id":"4","last_reported":1746212895,"current_range_meters":14000,"station_id":"ce4bgl92rcd13ifvqbq0","pricing_plan_id":"cebpf4jnsgd1na2vs0mg"},{"bike_id":"8edb8158-43a1-43fc-8687-1eeeb756ccad","system_id":"levelo_inurba_marseille","lat":43.29305,"lon":5.37462,"is_reserved":false,"is_disabled":false,"rental_uris":{"android":"levelo://app?vid=8edb8158-43a1-43fc-8687-1eeeb756ccad","ios":"levelo://app?vid=8edb8158-43a1-43fc-8687-1eeeb756ccad"},"vehicle_type_id":"4","last_reported":1746212895,"current_range_meters":14000,"station_id":"ce4bgi12rcd13ifvqb70","pricing_plan_id":"cebpf4jnsgd1na2vs0mg"},{"bike_id":"fd2c3c67-23a6-4380-b7ca-8f23c8f78921","system_id":"levelo_inurba_marseille","lat":43.32364,"lon":5.36762,"is_reserved":false,"is_disabled":false,"rental_uris":{"android":"levelo://app?vid=fd2c3c67-23a6-4380-b7ca-8f23c8f78921","ios":"levelo://app?vid=fd2c3c67-23a6-4380-b7ca-8f23c8f78921"},"vehicle_type_id":"4","last_reported":1746212895,"current_range_meters":14000,"station_id":"ce4bhsh2rcd13ifvqi2g","pricing_plan_id":"cebpf4jnsgd1na2vs0mg"},{"bike_id":"2a3198fd-b266-48ed-b7a0-d523a36e103e","system_id":"levelo_inurba_marseille","lat":43.28477,"lon":5.38418,"is_reserved":false,"is_disabled":false,"rental_uris":{"android":"levelo://app?vid=2a3198fd-b266-48ed-b7a0-d523a36e103e","ios":"levelo://app?vid=2a3198fd-b266-48ed-b7a0-d523a36e103e"},"vehicle_type_id":"4","last_reported":1746212895,"current_range_meters":14000,"station_id":"ce4bh512rcd13ifvqe3g","pricing_plan_id":"cebpf4jnsgd1na2vs0mg"},{"bike_id":"473647dc-7a0f-436e-aac5-1ff69a5eb362","system_id":"levelo_inurba_marseille","lat":43.30901,"lon":5.37199,"is_reserved":false,"is_disabled":false,"rental_uris":{"android":"levelo://app?vid=473647dc-7a0f-436e-aac5-1ff69a5eb362","ios":"levelo://app?vid=473647dc-7a0f-436e-aac5-1ff69a5eb362"},"vehicle_type_id":"4","last_reported":1746212895,"current_range_meters":14400,"station_id":"ce4bguh2rcd13ifvqckg","pricing_plan_id":"cebpf4jnsgd1na2vs0mg"},{"bike_id":"f1ffd2b9-91e9-4bf5-a319-6e95940b0de6","system_id":"levelo_inurba_marseille","lat":43.295546,"lon":5.422885,"is_reserved":false,"is_disabled":false,"rental_uris":{"android":"levelo://app?vid=f1ffd2b9-91e9-4bf5-a319-6e95940b0de6","ios":"levelo://app?vid=f1ffd2b9-91e9-4bf5-a319-6e95940b0de6"},"vehicle_type_id":"4","last_reported":1746212895,"current_range_meters":14400,"station_id":"ce4bhph2rcd13ifvqhdg","pricing_plan_id":"cebpf4jnsgd1na2vs0mg"},{"bike_id":"dd643f38-b311-422f-98eb-37fb114a9d01","system_id":"levelo_inurba_marseille","lat":43.29592,"lon":5.37735,"is_reserved":false,"is_disabled":true,"rental_uris":{"android":"levelo://app?vid=dd643f38-b311-422f-98eb-37fb114a9d01","ios":"levelo://app?vid=dd643f38-b311-422f-98eb-37fb114a9d01"},"vehicle_type_id":"4","last_reported":1746212895,"current_range_meters":14400,"station_id":"ce4bgi92rcd13ifvqb90","pricing_plan_id":"cebpf4jnsgd1na2vs0mg"},{"bike_id":"a0c54ee3-dc82-4a36-bc92-c015954e8186","system_id":"levelo_inurba_marseille","lat":43.28464,"lon":5.35886,"is_reserved":false,"is_disabled":false,"rental_uris":{"android":"levelo://app?vid=a0c54ee3-dc82-4a36-bc92-c015954e8186","ios":"levelo://app?vid=a0c54ee3-dc82-4a36-bc92-c015954e8186"},"vehicle_type_id":"4","last_reported":1746212895,"current_range_meters":14400,"station_id":"ce4bhah2rcd13ifvqei0","pricing_plan_id":"cebpf4jnsgd1na2vs0mg"},{"bike_id":"2fc7066a-3168-4b00-a4fc-ece640118f70","system_id":"levelo_inurba_marseille","lat":43.28418,"lon":5.37516,"is_reserved":false,"is_disabled":false,"rental_uris":{"android":"levelo://app?vid=2fc7066a-3168-4b00-a4fc-ece640118f70","ios":"levelo://app?vid=2fc7066a-3168-4b00-a4fc-ece640118f70"},"vehicle_type_id":"4","last_reported":1746212895,"current_range_meters":14400,"station_id":"ce4bh412rcd13ifvqds0","pricing_plan_id":"cebpf4jnsgd1na2vs0mg"},{"bike_id":"3b2cb365-1d91-41fe-b642-da0daecd71e9","system_id":"levelo_inurba_marseille","lat":43.28349,"lon":5.38105,"is_reserved":false,"is_disabled":false,"rental_uris":{"android":"levelo://app?vid=3b2cb365-1d91-41fe-b642-da0daecd71e9","ios":"levelo://app?vid=3b2cb365-1d91-41fe-b642-da0daecd71e9"},"vehicle_type_id":"4","last_reported":1746212895,"current_range_meters":14400,"station_id":"ce4bh412rcd13ifvqdr0","pricing_plan_id":"cebpf4jnsgd1na2vs0mg"},{"bike_id":"42188a1d-325c-4197-89ba-3f685a22db39","system_id":"levelo_inurba_marseille","lat":43.29934,"lon":5.36551,"is_reserved":false,"is_disabled":false,"rental_uris":{"android":"levelo://app?vid=42188a1d-325c-4197-89ba-3f685a22db39","ios":"levelo://app?vid=42188a1d-325c-4197-89ba-3f685a22db39"},"vehicle_type_id":"4","last_reported":1746212895,"current_range_meters":14800,"station_id":"ce4bgm92rcd13ifvqbr0","pricing_plan_id":"cebpf4jnsgd1na2vs0mg"},{"bike_id":"3ffaf9c0-b581-4c36-9de6-06b0bb96a4c7","system_id":"levelo_inurba_marseille","lat":43.27939,"lon":5.4105,"is_reserved":false,"is_disabled":false,"rental_uris":{"android":"levelo://app?vid=3ffaf9c0-b581-4c36-9de6-06b0bb96a4c7","ios":"levelo://app?vid=3ffaf9c0-b581-4c36-9de6-06b0bb96a4c7"},"vehicle_type_id":"4","last_reported":1746212895,"current_range_meters":14800,"station_id":"ce4bhnp2rcd13ifvqh0g","pricing_plan_id":"cebpf4jnsgd1na2vs0mg"},{"bike_id":"7a6c5a74-25cf-4eb1-97f6-ee6aa1e608c0","system_id":"levelo_inurba_marseille","lat":43.29909,"lon":5.38145,"is_reserved":false,"is_disabled":false,"rental_uris":{"android":"levelo://app?vid=7a6c5a74-25cf-4eb1-97f6-ee6aa1e608c0","ios":"levelo://app?vid=7a6c5a74-25cf-4eb1-97f6-ee6aa1e608c0"},"vehicle_type_id":"4","last_reported":1746212895,"current_range_meters":16800,"station_id":"ce4bgj12rcd13ifvqbc0","pricing_plan_id":"cebpf4jnsgd1na2vs0mg"},{"bike_id":"2fa6d941-7f1a-4e85-9b97-98141b282f87","system_id":"levelo_inurba_marseille","lat":43.26943,"lon":5.40253,"is_reserved":false,"is_disabled":false,"rental_uris":{"android":"levelo://app?vid=2fa6d941-7f1a-4e85-9b97-98141b282f87","ios":"levelo://app?vid=2fa6d941-7f1a-4e85-9b97-98141b282f87"},"vehicle_type_id":"4","last_reported":1746212895,"current_range_meters":15200,"station_id":"cjm6bp8fraef2m0cb0m0","pricing_plan_id":"cebpf4jnsgd1na2vs0mg"},{"bike_id":"570b486c-50df-4f1f-97df-caa86c0d419e","system_id":"levelo_inurba_marseille","lat":43.32905,"lon":5.3551,"is_reserved":false,"is_disabled":false,"rental_uris":{"android":"levelo://app?vid=570b486c-50df-4f1f-97df-caa86c0d419e","ios":"levelo://app?vid=570b486c-50df-4f1f-97df-caa86c0d419e"},"vehicle_type_id":"4","last_reported":1746212895,"current_range_meters":15200,"station_id":"","pricing_plan_id":"cebpf4jnsgd1na2vs0mg"},{"bike_id":"acd0b158-479c-4bcf-b303-a52a62ee0a5b","system_id":"levelo_inurba_marseille","lat":43.32101,"lon":5.3677,"is_reserved":false,"is_disabled":false,"rental_uris":{"android":"levelo://app?vid=acd0b158-479c-4bcf-b303-a52a62ee0a5b","ios":"levelo://app?vid=acd0b158-479c-4bcf-b303-a52a62ee0a5b"},"vehicle_type_id":"4","last_reported":1746212895,"current_range_meters":15200,"station_id":"ce4bhrh2rcd13ifvqhug","pricing_plan_id":"cebpf4jnsgd1na2vs0mg"},{"bike_id":"2575a826-3e21-4da6-9273-d9a4fb1afd62","system_id":"levelo_inurba_marseille","lat":43.27567,"lon":5.38424,"is_reserved":false,"is_disabled":false,"rental_uris":{"android":"levelo://app?vid=2575a826-3e21-4da6-9273-d9a4fb1afd62","ios":"levelo://app?vid=2575a826-3e21-4da6-9273-d9a4fb1afd62"},"vehicle_type_id":"4","last_reported":1746212895,"current_range_meters":15200,"station_id":"ce4bhh92rcd13ifvqfi0","pricing_plan_id":"cebpf4jnsgd1na2vs0mg"},{"bike_id":"9aa94508-59a3-4cd0-af34-190edab2e1d8","system_id":"levelo_inurba_marseille","lat":43.26947,"lon":5.4025,"is_reserved":false,"is_disabled":false,"rental_uris":{"android":"levelo://app?vid=9aa94508-59a3-4cd0-af34-190edab2e1d8","ios":"levelo://app?vid=9aa94508-59a3-4cd0-af34-190edab2e1d8"},"vehicle_type_id":"4","last_reported":1746212895,"current_range_meters":16400,"station_id":"cjm6bp8fraef2m0cb0m0","pricing_plan_id":"cebpf4jnsgd1na2vs0mg"},{"bike_id":"ca5fabd5-2041-49f7-8efa-5b1e1a132dfc","system_id":"levelo_inurba_marseille","lat":43.329703,"lon":5.359042,"is_reserved":false,"is_disabled":false,"rental_uris":{"android":"levelo://app?vid=ca5fabd5-2041-49f7-8efa-5b1e1a132dfc","ios":"levelo://app?vid=ca5fabd5-2041-49f7-8efa-5b1e1a132dfc"},"vehicle_type_id":"4","last_reported":1746212895,"current_range_meters":15200,"station_id":"","pricing_plan_id":"cebpf4jnsgd1na2vs0mg"},{"bike_id":"0c3fbeaa-55ff-4c7c-a66c-46f4ecc86aeb","system_id":"levelo_inurba_marseille","lat":43.21198,"lon":5.35067,"is_reserved":false,"is_disabled":true,"rental_uris":{"android":"levelo://app?vid=0c3fbeaa-55ff-4c7c-a66c-46f4ecc86aeb","ios":"levelo://app?vid=0c3fbeaa-55ff-4c7c-a66c-46f4ecc86aeb"},"vehicle_type_id":"4","last_reported":1746212895,"current_range_meters":15200,"station_id":"st_cvj6sg6p6f1abm77japg","pricing_plan_id":"cebpf4jnsgd1na2vs0mg"},{"bike_id":"606118d3-fbc3-46d2-9186-85db9f0d665b","system_id":"levelo_inurba_marseille","lat":43.230608,"lon":5.355057,"is_reserved":false,"is_disabled":false,"rental_uris":{"android":"levelo://app?vid=606118d3-fbc3-46d2-9186-85db9f0d665b","ios":"levelo://app?vid=606118d3-fbc3-46d2-9186-85db9f0d665b"},"vehicle_type_id":"4","last_reported":1746212895,"current_range_meters":16000,"station_id":"cpo3342slgdg3j2ifvpg","pricing_plan_id":"cebpf4jnsgd1na2vs0mg"},{"bike_id":"4a54ad5b-f587-4e8b-ab54-8ec108d9f61e","system_id":"levelo_inurba_marseille","lat":43.26938,"lon":5.40255,"is_reserved":false,"is_disabled":false,"rental_uris":{"android":"levelo://app?vid=4a54ad5b-f587-4e8b-ab54-8ec108d9f61e","ios":"levelo://app?vid=4a54ad5b-f587-4e8b-ab54-8ec108d9f61e"},"vehicle_type_id":"4","last_reported":1746212895,"current_range_meters":16000,"station_id":"cjm6bp8fraef2m0cb0m0","pricing_plan_id":"cebpf4jnsgd1na2vs0mg"},{"bike_id":"f0e2e827-a664-48f8-9044-df1d8e9b4d08","system_id":"levelo_inurba_marseille","lat":43.2988,"lon":5.38905,"is_reserved":false,"is_disabled":false,"rental_uris":{"android":"levelo://app?vid=f0e2e827-a664-48f8-9044-df1d8e9b4d08","ios":"levelo://app?vid=f0e2e827-a664-48f8-9044-df1d8e9b4d08"},"vehicle_type_id":"4","last_reported":1746212895,"current_range_meters":16000,"station_id":"ce4bh392rcd13ifvqdl0","pricing_plan_id":"cebpf4jnsgd1na2vs0mg"},{"bike_id":"0ee580bf-8ffb-46da-b9f7-27871ac695f5","system_id":"levelo_inurba_marseille","lat":43.29525,"lon":5.39065,"is_reserved":false,"is_disabled":false,"rental_uris":{"android":"levelo://app?vid=0ee580bf-8ffb-46da-b9f7-27871ac695f5","ios":"levelo://app?vid=0ee580bf-8ffb-46da-b9f7-27871ac695f5"},"vehicle_type_id":"4","last_reported":1746212895,"current_range_meters":16000,"station_id":"ce4bh3p2rcd13ifvqdp0","pricing_plan_id":"cebpf4jnsgd1na2vs0mg"},{"bike_id":"0eba58f0-2d16-4fe3-82e7-53ab7b61bda3","system_id":"levelo_inurba_marseille","lat":43.29883,"lon":5.38915,"is_reserved":false,"is_disabled":false,"rental_uris":{"android":"levelo://app?vid=0eba58f0-2d16-4fe3-82e7-53ab7b61bda3","ios":"levelo://app?vid=0eba58f0-2d16-4fe3-82e7-53ab7b61bda3"},"vehicle_type_id":"4","last_reported":1746212895,"current_range_meters":16000,"station_id":"ce4bh392rcd13ifvqdl0","pricing_plan_id":"cebpf4jnsgd1na2vs0mg"},{"bike_id":"041b1d6c-fe3b-4154-b9a5-28a56db63e6b","system_id":"levelo_inurba_marseille","lat":43.29816,"lon":5.40403,"is_reserved":false,"is_disabled":false,"rental_uris":{"android":"levelo://app?vid=041b1d6c-fe3b-4154-b9a5-28a56db63e6b","ios":"levelo://app?vid=041b1d6c-fe3b-4154-b9a5-28a56db63e6b"},"vehicle_type_id":"4","last_reported":1746212895,"current_range_meters":16000,"station_id":"ce4bh112rcd13ifvqd90","pricing_plan_id":"cebpf4jnsgd1na2vs0mg"},{"bike_id":"1cad573d-de25-481f-802a-ae45167e4b49","system_id":"levelo_inurba_marseille","lat":43.31711,"lon":5.43707,"is_reserved":false,"is_disabled":false,"rental_uris":{"android":"levelo://app?vid=1cad573d-de25-481f-802a-ae45167e4b49","ios":"levelo://app?vid=1cad573d-de25-481f-802a-ae45167e4b49"},"vehicle_type_id":"4","last_reported":1746212895,"current_range_meters":16000,"station_id":"ce4bhp92rcd13ifvqhcg","pricing_plan_id":"cebpf4jnsgd1na2vs0mg"},{"bike_id":"bd04a6e8-9e6f-44bb-b829-04e25c7be811","system_id":"levelo_inurba_marseille","lat":43.26938,"lon":5.40241,"is_reserved":false,"is_disabled":false,"rental_uris":{"android":"levelo://app?vid=bd04a6e8-9e6f-44bb-b829-04e25c7be811","ios":"levelo://app?vid=bd04a6e8-9e6f-44bb-b829-04e25c7be811"},"vehicle_type_id":"4","last_reported":1746212895,"current_range_meters":16000,"station_id":"cjm6bp8fraef2m0cb0m0","pricing_plan_id":"cebpf4jnsgd1na2vs0mg"},{"bike_id":"a9970ff7-db3f-474e-8538-3cbee491999a","system_id":"levelo_inurba_marseille","lat":43.29421,"lon":5.3862,"is_reserved":false,"is_disabled":false,"rental_uris":{"android":"levelo://app?vid=a9970ff7-db3f-474e-8538-3cbee491999a","ios":"levelo://app?vid=a9970ff7-db3f-474e-8538-3cbee491999a"},"vehicle_type_id":"4","last_reported":1746212895,"current_range_meters":16000,"station_id":"ce4bh2h2rcd13ifvqdh0","pricing_plan_id":"cebpf4jnsgd1na2vs0mg"},{"bike_id":"e01fd626-5a42-425b-b4b2-c4deada8f1e2","system_id":"levelo_inurba_marseille","lat":43.30884,"lon":5.37201,"is_reserved":false,"is_disabled":false,"rental_uris":{"android":"levelo://app?vid=e01fd626-5a42-425b-b4b2-c4deada8f1e2","ios":"levelo://app?vid=e01fd626-5a42-425b-b4b2-c4deada8f1e2"},"vehicle_type_id":"4","last_reported":1746212895,"current_range_meters":16000,"station_id":"ce4bguh2rcd13ifvqckg","pricing_plan_id":"cebpf4jnsgd1na2vs0mg"},{"bike_id":"acbb6641-2026-488f-9159-977ad264cf28","system_id":"levelo_inurba_marseille","lat":43.29428,"lon":5.38637,"is_reserved":false,"is_disabled":false,"rental_uris":{"android":"levelo://app?vid=acbb6641-2026-488f-9159-977ad264cf28","ios":"levelo://app?vid=acbb6641-2026-488f-9159-977ad264cf28"},"vehicle_type_id":"4","last_reported":1746212895,"current_range_meters":16400,"station_id":"ce4bh2h2rcd13ifvqdh0","pricing_plan_id":"cebpf4jnsgd1na2vs0mg"},{"bike_id":"fb80c1da-d845-467b-9c3b-2f591f4d56ae","system_id":"levelo_inurba_marseille","lat":43.31666,"lon":5.372412,"is_reserved":false,"is_disabled":false,"rental_uris":{"android":"levelo://app?vid=fb80c1da-d845-467b-9c3b-2f591f4d56ae","ios":"levelo://app?vid=fb80c1da-d845-467b-9c3b-2f591f4d56ae"},"vehicle_type_id":"4","last_reported":1746212895,"current_range_meters":16400,"station_id":"","pricing_plan_id":"cebpf4jnsgd1na2vs0mg"},{"bike_id":"b460f147-0f1d-4e55-9519-16392487807b","system_id":"levelo_inurba_marseille","lat":43.267985,"lon":5.402645,"is_reserved":false,"is_disabled":false,"rental_uris":{"android":"levelo://app?vid=b460f147-0f1d-4e55-9519-16392487807b","ios":"levelo://app?vid=b460f147-0f1d-4e55-9519-16392487807b"},"vehicle_type_id":"4","last_reported":1746212895,"current_range_meters":16400,"station_id":"ce501612rcd8frsf0b60","pricing_plan_id":"cebpf4jnsgd1na2vs0mg"},{"bike_id":"50e5c26a-5146-470c-9de9-86238c4e014f","system_id":"levelo_inurba_marseille","lat":43.31165,"lon":5.38705,"is_reserved":false,"is_disabled":false,"rental_uris":{"android":"levelo://app?vid=50e5c26a-5146-470c-9de9-86238c4e014f","ios":"levelo://app?vid=50e5c26a-5146-470c-9de9-86238c4e014f"},"vehicle_type_id":"4","last_reported":1746212895,"current_range_meters":16400,"station_id":"ce4bgv12rcd13ifvqcp0","pricing_plan_id":"cebpf4jnsgd1na2vs0mg"},{"bike_id":"41f54ffb-3fc0-40e4-8fdc-88ac054776cc","system_id":"levelo_inurba_marseille","lat":43.27208,"lon":5.39194,"is_reserved":false,"is_disabled":false,"rental_uris":{"android":"levelo://app?vid=41f54ffb-3fc0-40e4-8fdc-88ac054776cc","ios":"levelo://app?vid=41f54ffb-3fc0-40e4-8fdc-88ac054776cc"},"vehicle_type_id":"4","last_reported":1746212895,"current_range_meters":16400,"station_id":"ce4bhhp2rcd13ifvqfm0","pricing_plan_id":"cebpf4jnsgd1na2vs0mg"},{"bike_id":"489d307a-25f7-4546-97a2-4da9e6b90cdd","system_id":"levelo_inurba_marseille","lat":43.24811,"lon":5.37458,"is_reserved":false,"is_disabled":false,"rental_uris":{"android":"levelo://app?vid=489d307a-25f7-4546-97a2-4da9e6b90cdd","ios":"levelo://app?vid=489d307a-25f7-4546-97a2-4da9e6b90cdd"},"vehicle_type_id":"4","last_reported":1746212895,"current_range_meters":14800,"station_id":"ce4bhgh2rcd13ifvqfb0","pricing_plan_id":"cebpf4jnsgd1na2vs0mg"},{"bike_id":"c22c3dfd-2f07-45f9-8c76-4720b971b22c","system_id":"levelo_inurba_marseille","lat":43.23209,"lon":5.35558,"is_reserved":false,"is_disabled":false,"rental_uris":{"android":"levelo://app?vid=c22c3dfd-2f07-45f9-8c76-4720b971b22c","ios":"levelo://app?vid=c22c3dfd-2f07-45f9-8c76-4720b971b22c"},"vehicle_type_id":"4","last_reported":1746212895,"current_range_meters":16400,"station_id":"ce4bhu92rcd13ifvqi70","pricing_plan_id":"cebpf4jnsgd1na2vs0mg"},{"bike_id":"d716b8ea-6965-408f-bf4e-ea0c7f1adb7e","system_id":"levelo_inurba_marseille","lat":43.30798,"lon":5.38157,"is_reserved":false,"is_disabled":false,"rental_uris":{"android":"levelo://app?vid=d716b8ea-6965-408f-bf4e-ea0c7f1adb7e","ios":"levelo://app?vid=d716b8ea-6965-408f-bf4e-ea0c7f1adb7e"},"vehicle_type_id":"4","last_reported":1746212895,"current_range_meters":18800,"station_id":"ce4bgt12rcd13ifvqce0","pricing_plan_id":"cebpf4jnsgd1na2vs0mg"},{"bike_id":"f5e508c6-12d8-4c0f-83e4-9cf84b113019","system_id":"levelo_inurba_marseille","lat":43.24388,"lon":5.37077,"is_reserved":false,"is_disabled":false,"rental_uris":{"android":"levelo://app?vid=f5e508c6-12d8-4c0f-83e4-9cf84b113019","ios":"levelo://app?vid=f5e508c6-12d8-4c0f-83e4-9cf84b113019"},"vehicle_type_id":"4","last_reported":1746212895,"current_range_meters":16800,"station_id":"ce4bhhh2rcd13ifvqfk0","pricing_plan_id":"cebpf4jnsgd1na2vs0mg"},{"bike_id":"ff79280e-1855-4d0a-9416-0d33a2ce1c48","system_id":"levelo_inurba_marseille","lat":43.21211,"lon":5.35086,"is_reserved":false,"is_disabled":true,"rental_uris":{"android":"levelo://app?vid=ff79280e-1855-4d0a-9416-0d33a2ce1c48","ios":"levelo://app?vid=ff79280e-1855-4d0a-9416-0d33a2ce1c48"},"vehicle_type_id":"4","last_reported":1746212895,"current_range_meters":16800,"station_id":"","pricing_plan_id":"cebpf4jnsgd1na2vs0mg"},{"bike_id":"79d9768a-39f3-4d9f-ad0d-bc8c44dbbdad","system_id":"levelo_inurba_marseille","lat":43.283325,"lon":5.381305,"is_reserved":false,"is_disabled":false,"rental_uris":{"android":"levelo://app?vid=79d9768a-39f3-4d9f-ad0d-bc8c44dbbdad","ios":"levelo://app?vid=79d9768a-39f3-4d9f-ad0d-bc8c44dbbdad"},"vehicle_type_id":"4","last_reported":1746212895,"current_range_meters":16800,"station_id":"ce4bh412rcd13ifvqdr0","pricing_plan_id":"cebpf4jnsgd1na2vs0mg"},{"bike_id":"4ae02176-31a4-48f7-825f-a587fefa23c2","system_id":"levelo_inurba_marseille","lat":43.30187,"lon":5.36634,"is_reserved":false,"is_disabled":true,"rental_uris":{"android":"levelo://app?vid=4ae02176-31a4-48f7-825f-a587fefa23c2","ios":"levelo://app?vid=4ae02176-31a4-48f7-825f-a587fefa23c2"},"vehicle_type_id":"4","last_reported":1746212895,"current_range_meters":16800,"station_id":"ce4bgrh2rcd13ifvqc8g","pricing_plan_id":"cebpf4jnsgd1na2vs0mg"},{"bike_id":"d651ace8-99b4-4298-950a-fa8b7e20495c","system_id":"levelo_inurba_marseille","lat":43.29258,"lon":5.38431,"is_reserved":false,"is_disabled":false,"rental_uris":{"android":"levelo://app?vid=d651ace8-99b4-4298-950a-fa8b7e20495c","ios":"levelo://app?vid=d651ace8-99b4-4298-950a-fa8b7e20495c"},"vehicle_type_id":"4","last_reported":1746212895,"current_range_meters":16800,"station_id":"ce4bh692rcd13ifvqea0","pricing_plan_id":"cebpf4jnsgd1na2vs0mg"},{"bike_id":"241130d2-368d-430b-8ec4-5c57b8afeeee","system_id":"levelo_inurba_marseille","lat":43.289481,"lon":5.366465,"is_reserved":false,"is_disabled":false,"rental_uris":{"android":"levelo://app?vid=241130d2-368d-430b-8ec4-5c57b8afeeee","ios":"levelo://app?vid=241130d2-368d-430b-8ec4-5c57b8afeeee"},"vehicle_type_id":"4","last_reported":1746212895,"current_range_meters":16400,"station_id":"ce4bhap2rcd13ifvqek0","pricing_plan_id":"cebpf4jnsgd1na2vs0mg"},{"bike_id":"715d4ccd-4d07-4967-8be3-b199930f65b6","system_id":"levelo_inurba_marseille","lat":43.31071,"lon":5.40099,"is_reserved":false,"is_disabled":false,"rental_uris":{"android":"levelo://app?vid=715d4ccd-4d07-4967-8be3-b199930f65b6","ios":"levelo://app?vid=715d4ccd-4d07-4967-8be3-b199930f65b6"},"vehicle_type_id":"4","last_reported":1746212895,"current_range_meters":16800,"station_id":"","pricing_plan_id":"cebpf4jnsgd1na2vs0mg"},{"bike_id":"259675d8-cd98-4cc1-9aea-4ba10884c46f","system_id":"levelo_inurba_marseille","lat":43.26743,"lon":5.39444,"is_reserved":false,"is_disabled":false,"rental_uris":{"android":"levelo://app?vid=259675d8-cd98-4cc1-9aea-4ba10884c46f","ios":"levelo://app?vid=259675d8-cd98-4cc1-9aea-4ba10884c46f"},"vehicle_type_id":"4","last_reported":1746212895,"current_range_meters":16800,"station_id":"","pricing_plan_id":"cebpf4jnsgd1na2vs0mg"},{"bike_id":"3afe145f-9f96-4ed2-a93e-404c135cf55a","system_id":"levelo_inurba_marseille","lat":43.31688,"lon":5.40469,"is_reserved":false,"is_disabled":false,"rental_uris":{"android":"levelo://app?vid=3afe145f-9f96-4ed2-a93e-404c135cf55a","ios":"levelo://app?vid=3afe145f-9f96-4ed2-a93e-404c135cf55a"},"vehicle_type_id":"4","last_reported":1746212895,"current_range_meters":16800,"station_id":"ce4bh012rcd13ifvqd00","pricing_plan_id":"cebpf4jnsgd1na2vs0mg"},{"bike_id":"7a7743c8-8056-4ea3-bba4-7871921853c4","system_id":"levelo_inurba_marseille","lat":43.29527,"lon":5.37505,"is_reserved":false,"is_disabled":false,"rental_uris":{"android":"levelo://app?vid=7a7743c8-8056-4ea3-bba4-7871921853c4","ios":"levelo://app?vid=7a7743c8-8056-4ea3-bba4-7871921853c4"},"vehicle_type_id":"4","last_reported":1746212895,"current_range_meters":17200,"station_id":"ce4bgkp2rcd13ifvqbmg","pricing_plan_id":"cebpf4jnsgd1na2vs0mg"},{"bike_id":"aa2f6eb3-0cf0-41e6-a21f-aa51c5adc3a6","system_id":"levelo_inurba_marseille","lat":43.23198,"lon":5.35574,"is_reserved":false,"is_disabled":false,"rental_uris":{"android":"levelo://app?vid=aa2f6eb3-0cf0-41e6-a21f-aa51c5adc3a6","ios":"levelo://app?vid=aa2f6eb3-0cf0-41e6-a21f-aa51c5adc3a6"},"vehicle_type_id":"4","last_reported":1746212895,"current_range_meters":17200,"station_id":"ce4bhu92rcd13ifvqi70","pricing_plan_id":"cebpf4jnsgd1na2vs0mg"},{"bike_id":"3fa05eab-bd38-4e51-9d14-fab3387355a7","system_id":"levelo_inurba_marseille","lat":43.32297,"lon":5.38292,"is_reserved":false,"is_disabled":false,"rental_uris":{"android":"levelo://app?vid=3fa05eab-bd38-4e51-9d14-fab3387355a7","ios":"levelo://app?vid=3fa05eab-bd38-4e51-9d14-fab3387355a7"},"vehicle_type_id":"4","last_reported":1746212895,"current_range_meters":17200,"station_id":"ce4bhr12rcd13ifvqhqg","pricing_plan_id":"cebpf4jnsgd1na2vs0mg"},{"bike_id":"20a59c80-0b0e-4fa6-9e4d-413c6a8b01c4","system_id":"levelo_inurba_marseille","lat":43.272082,"lon":5.391927,"is_reserved":false,"is_disabled":false,"rental_uris":{"android":"levelo://app?vid=20a59c80-0b0e-4fa6-9e4d-413c6a8b01c4","ios":"levelo://app?vid=20a59c80-0b0e-4fa6-9e4d-413c6a8b01c4"},"vehicle_type_id":"4","last_reported":1746212895,"current_range_meters":17600,"station_id":"ce4bhhp2rcd13ifvqfm0","pricing_plan_id":"cebpf4jnsgd1na2vs0mg"},{"bike_id":"2872d3c1-4ba6-4718-a22b-82465f514cdd","system_id":"levelo_inurba_marseille","lat":43.29981,"lon":5.38507,"is_reserved":false,"is_disabled":true,"rental_uris":{"android":"levelo://app?vid=2872d3c1-4ba6-4718-a22b-82465f514cdd","ios":"levelo://app?vid=2872d3c1-4ba6-4718-a22b-82465f514cdd"},"vehicle_type_id":"4","last_reported":1746212895,"current_range_meters":17600,"station_id":"ce4bgj92rcd13ifvqbd0","pricing_plan_id":"cebpf4jnsgd1na2vs0mg"},{"bike_id":"0f03de28-1368-4470-914b-030cea31282c","system_id":"levelo_inurba_marseille","lat":43.24172,"lon":5.39728,"is_reserved":false,"is_disabled":false,"rental_uris":{"android":"levelo://app?vid=0f03de28-1368-4470-914b-030cea31282c","ios":"levelo://app?vid=0f03de28-1368-4470-914b-030cea31282c"},"vehicle_type_id":"4","last_reported":1746212895,"current_range_meters":17600,"station_id":"ce4bhn12rcd13ifvqgpg","pricing_plan_id":"cebpf4jnsgd1na2vs0mg"},{"bike_id":"344793df-432b-470f-b57e-d384d7c821dc","system_id":"levelo_inurba_marseille","lat":43.28463,"lon":5.35882,"is_reserved":false,"is_disabled":false,"rental_uris":{"android":"levelo://app?vid=344793df-432b-470f-b57e-d384d7c821dc","ios":"levelo://app?vid=344793df-432b-470f-b57e-d384d7c821dc"},"vehicle_type_id":"4","last_reported":1746212895,"current_range_meters":17600,"station_id":"ce4bhah2rcd13ifvqei0","pricing_plan_id":"cebpf4jnsgd1na2vs0mg"},{"bike_id":"b8d6bd6b-e69d-4869-8d67-2bbec570ca30","system_id":"levelo_inurba_marseille","lat":43.28413,"lon":5.37504,"is_reserved":false,"is_disabled":false,"rental_uris":{"android":"levelo://app?vid=b8d6bd6b-e69d-4869-8d67-2bbec570ca30","ios":"levelo://app?vid=b8d6bd6b-e69d-4869-8d67-2bbec570ca30"},"vehicle_type_id":"4","last_reported":1746212895,"current_range_meters":17600,"station_id":"ce4bh412rcd13ifvqds0","pricing_plan_id":"cebpf4jnsgd1na2vs0mg"},{"bike_id":"ac8fd75e-d018-42b5-a136-f0243783e7cf","system_id":"levelo_inurba_marseille","lat":43.28421,"lon":5.349764,"is_reserved":false,"is_disabled":false,"rental_uris":{"android":"levelo://app?vid=ac8fd75e-d018-42b5-a136-f0243783e7cf","ios":"levelo://app?vid=ac8fd75e-d018-42b5-a136-f0243783e7cf"},"vehicle_type_id":"4","last_reported":1746212895,"current_range_meters":18000,"station_id":"ce4bhbh2rcd13ifvqepg","pricing_plan_id":"cebpf4jnsgd1na2vs0mg"},{"bike_id":"8c21d765-cf6d-4eed-8291-931d0d5f5cee","system_id":"levelo_inurba_marseille","lat":43.29261,"lon":5.37631,"is_reserved":false,"is_disabled":false,"rental_uris":{"android":"levelo://app?vid=8c21d765-cf6d-4eed-8291-931d0d5f5cee","ios":"levelo://app?vid=8c21d765-cf6d-4eed-8291-931d0d5f5cee"},"vehicle_type_id":"4","last_reported":1746212895,"current_range_meters":18000,"station_id":"ce4bgi12rcd13ifvqb80","pricing_plan_id":"cebpf4jnsgd1na2vs0mg"},{"bike_id":"dd3783d4-76d1-4635-a0a4-54c6e0f8bf76","system_id":"levelo_inurba_marseille","lat":43.29284,"lon":5.38441,"is_reserved":false,"is_disabled":false,"rental_uris":{"android":"levelo://app?vid=dd3783d4-76d1-4635-a0a4-54c6e0f8bf76","ios":"levelo://app?vid=dd3783d4-76d1-4635-a0a4-54c6e0f8bf76"},"vehicle_type_id":"4","last_reported":1746212895,"current_range_meters":14000,"station_id":"ce4bh692rcd13ifvqea0","pricing_plan_id":"cebpf4jnsgd1na2vs0mg"},{"bike_id":"cfb30852-762a-4604-9510-b2069239820a","system_id":"levelo_inurba_marseille","lat":43.29419,"lon":5.38615,"is_reserved":false,"is_disabled":false,"rental_uris":{"android":"levelo://app?vid=cfb30852-762a-4604-9510-b2069239820a","ios":"levelo://app?vid=cfb30852-762a-4604-9510-b2069239820a"},"vehicle_type_id":"4","last_reported":1746212895,"current_range_meters":18000,"station_id":"ce4bh2h2rcd13ifvqdh0","pricing_plan_id":"cebpf4jnsgd1na2vs0mg"},{"bike_id":"f54ee16e-df94-47e2-9e1e-aa5422e57cdb","system_id":"levelo_inurba_marseille","lat":43.2928,"lon":5.40115,"is_reserved":false,"is_disabled":false,"rental_uris":{"android":"levelo://app?vid=f54ee16e-df94-47e2-9e1e-aa5422e57cdb","ios":"levelo://app?vid=f54ee16e-df94-47e2-9e1e-aa5422e57cdb"},"vehicle_type_id":"4","last_reported":1746212895,"current_range_meters":18000,"station_id":"ce4bh312rcd13ifvqdk0","pricing_plan_id":"cebpf4jnsgd1na2vs0mg"},{"bike_id":"b12a1372-b25e-47b9-aa17-7ab3a3584db7","system_id":"levelo_inurba_marseille","lat":43.28098,"lon":5.37837,"is_reserved":false,"is_disabled":false,"rental_uris":{"android":"levelo://app?vid=b12a1372-b25e-47b9-aa17-7ab3a3584db7","ios":"levelo://app?vid=b12a1372-b25e-47b9-aa17-7ab3a3584db7"},"vehicle_type_id":"4","last_reported":1746212895,"current_range_meters":18800,"station_id":"ce4bha12rcd13ifvqee0","pricing_plan_id":"cebpf4jnsgd1na2vs0mg"},{"bike_id":"b7b00b92-5234-4efc-88f3-797ad1b28022","system_id":"levelo_inurba_marseille","lat":43.304518,"lon":5.37889,"is_reserved":false,"is_disabled":false,"rental_uris":{"android":"levelo://app?vid=b7b00b92-5234-4efc-88f3-797ad1b28022","ios":"levelo://app?vid=b7b00b92-5234-4efc-88f3-797ad1b28022"},"vehicle_type_id":"4","last_reported":1746212895,"current_range_meters":18800,"station_id":"ce4bgup2rcd13ifvqcn0","pricing_plan_id":"cebpf4jnsgd1na2vs0mg"},{"bike_id":"33d6f625-7dc0-4d35-87a2-c07e8d023d19","system_id":"levelo_inurba_marseille","lat":43.31118,"lon":5.37772,"is_reserved":false,"is_disabled":false,"rental_uris":{"android":"levelo://app?vid=33d6f625-7dc0-4d35-87a2-c07e8d023d19","ios":"levelo://app?vid=33d6f625-7dc0-4d35-87a2-c07e8d023d19"},"vehicle_type_id":"4","last_reported":1746212895,"current_range_meters":18800,"station_id":"ce4bgt92rcd13ifvqcg0","pricing_plan_id":"cebpf4jnsgd1na2vs0mg"},{"bike_id":"636328a3-0a8f-4e41-99e4-91b78673f821","system_id":"levelo_inurba_marseille","lat":43.28848,"lon":5.39313,"is_reserved":false,"is_disabled":false,"rental_uris":{"android":"levelo://app?vid=636328a3-0a8f-4e41-99e4-91b78673f821","ios":"levelo://app?vid=636328a3-0a8f-4e41-99e4-91b78673f821"},"vehicle_type_id":"4","last_reported":1746212895,"current_range_meters":18800,"station_id":"ce4bh2p2rcd13ifvqdi0","pricing_plan_id":"cebpf4jnsgd1na2vs0mg"},{"bike_id":"2bb6a742-8392-44ba-a660-cb62073d888e","system_id":"levelo_inurba_marseille","lat":43.32118,"lon":5.36763,"is_reserved":false,"is_disabled":false,"rental_uris":{"android":"levelo://app?vid=2bb6a742-8392-44ba-a660-cb62073d888e","ios":"levelo://app?vid=2bb6a742-8392-44ba-a660-cb62073d888e"},"vehicle_type_id":"4","last_reported":1746212895,"current_range_meters":18800,"station_id":"ce4bhrh2rcd13ifvqhug","pricing_plan_id":"cebpf4jnsgd1na2vs0mg"},{"bike_id":"1165953d-2560-4c2e-b9d0-7a6b0c524681","system_id":"levelo_inurba_marseille","lat":43.27077,"lon":5.42264,"is_reserved":false,"is_disabled":false,"rental_uris":{"android":"levelo://app?vid=1165953d-2560-4c2e-b9d0-7a6b0c524681","ios":"levelo://app?vid=1165953d-2560-4c2e-b9d0-7a6b0c524681"},"vehicle_type_id":"4","last_reported":1746212895,"current_range_meters":18800,"station_id":"ce4bhk92rcd13ifvqgb0","pricing_plan_id":"cebpf4jnsgd1na2vs0mg"},{"bike_id":"133835ca-5016-45b8-b651-31e2cfe662f1","system_id":"levelo_inurba_marseille","lat":43.32112,"lon":5.36767,"is_reserved":false,"is_disabled":false,"rental_uris":{"android":"levelo://app?vid=133835ca-5016-45b8-b651-31e2cfe662f1","ios":"levelo://app?vid=133835ca-5016-45b8-b651-31e2cfe662f1"},"vehicle_type_id":"4","last_reported":1746212895,"current_range_meters":18800,"station_id":"ce4bhrh2rcd13ifvqhug","pricing_plan_id":"cebpf4jnsgd1na2vs0mg"},{"bike_id":"59ef2929-c7da-4bb6-8db8-5672a140e6bf","system_id":"levelo_inurba_marseille","lat":43.2925,"lon":5.40907,"is_reserved":false,"is_disabled":false,"rental_uris":{"android":"levelo://app?vid=59ef2929-c7da-4bb6-8db8-5672a140e6bf","ios":"levelo://app?vid=59ef2929-c7da-4bb6-8db8-5672a140e6bf"},"vehicle_type_id":"4","last_reported":1746212895,"current_range_meters":18800,"station_id":"ce4bh192rcd13ifvqdc0","pricing_plan_id":"cebpf4jnsgd1na2vs0mg"},{"bike_id":"f9e6ac8a-d3aa-4f57-bdb5-3ce66ce2a3d9","system_id":"levelo_inurba_marseille","lat":43.294301,"lon":5.386214,"is_reserved":false,"is_disabled":false,"rental_uris":{"android":"levelo://app?vid=f9e6ac8a-d3aa-4f57-bdb5-3ce66ce2a3d9","ios":"levelo://app?vid=f9e6ac8a-d3aa-4f57-bdb5-3ce66ce2a3d9"},"vehicle_type_id":"4","last_reported":1746212895,"current_range_meters":19200,"station_id":"ce4bh2h2rcd13ifvqdh0","pricing_plan_id":"cebpf4jnsgd1na2vs0mg"},{"bike_id":"c3716dd1-5098-4f8f-bd02-6e3c25f2392d","system_id":"levelo_inurba_marseille","lat":43.29029,"lon":5.38653,"is_reserved":false,"is_disabled":false,"rental_uris":{"android":"levelo://app?vid=c3716dd1-5098-4f8f-bd02-6e3c25f2392d","ios":"levelo://app?vid=c3716dd1-5098-4f8f-bd02-6e3c25f2392d"},"vehicle_type_id":"4","last_reported":1746212895,"current_range_meters":19200,"station_id":"ce4bh4p2rcd13ifvqe0g","pricing_plan_id":"cebpf4jnsgd1na2vs0mg"},{"bike_id":"48fece27-19b4-40c0-a5a5-128630e207da","system_id":"levelo_inurba_marseille","lat":43.3213,"lon":5.36782,"is_reserved":false,"is_disabled":false,"rental_uris":{"android":"levelo://app?vid=48fece27-19b4-40c0-a5a5-128630e207da","ios":"levelo://app?vid=48fece27-19b4-40c0-a5a5-128630e207da"},"vehicle_type_id":"4","last_reported":1746212895,"current_range_meters":19200,"station_id":"ce4bhrh2rcd13ifvqhug","pricing_plan_id":"cebpf4jnsgd1na2vs0mg"},{"bike_id":"e0ceefc0-61c9-406f-91eb-ef69db9dbe42","system_id":"levelo_inurba_marseille","lat":43.26121,"lon":5.41465,"is_reserved":false,"is_disabled":false,"rental_uris":{"android":"levelo://app?vid=e0ceefc0-61c9-406f-91eb-ef69db9dbe42","ios":"levelo://app?vid=e0ceefc0-61c9-406f-91eb-ef69db9dbe42"},"vehicle_type_id":"4","last_reported":1746212895,"current_range_meters":19200,"station_id":"","pricing_plan_id":"cebpf4jnsgd1na2vs0mg"},{"bike_id":"59b25313-45ab-4ac9-952f-d81b9a2111a5","system_id":"levelo_inurba_marseille","lat":43.29236,"lon":5.38448,"is_reserved":false,"is_disabled":false,"rental_uris":{"android":"levelo://app?vid=59b25313-45ab-4ac9-952f-d81b9a2111a5","ios":"levelo://app?vid=59b25313-45ab-4ac9-952f-d81b9a2111a5"},"vehicle_type_id":"4","last_reported":1746212895,"current_range_meters":19200,"station_id":"ce4bh692rcd13ifvqea0","pricing_plan_id":"cebpf4jnsgd1na2vs0mg"},{"bike_id":"9b13b951-0a54-45a0-849b-fc334f5358ad","system_id":"levelo_inurba_marseille","lat":43.27172,"lon":5.41003,"is_reserved":false,"is_disabled":false,"rental_uris":{"android":"levelo://app?vid=9b13b951-0a54-45a0-849b-fc334f5358ad","ios":"levelo://app?vid=9b13b951-0a54-45a0-849b-fc334f5358ad"},