{"last_updated":1706472389,"ttl":30,"version":"2.2","data":{"bikes":[{"bike_id":"26eb7c4c-d820-4609-a57f-4739d1caec33","system_id":"levelo_inurba_marseille","lat":43.31341,"lon":5.367098,"is_reserved":false,"is_disabled":false,"rental_uris":{"android":"levelo://app?vid=26eb7c4c-d820-4609-a57f-4739d1caec33","ios":"levelo://app?vid=26eb7c4c-d820-4609-a57f-4739d1caec33"},"vehicle_type_id":"4","last_reported":1706472389,"current_range_meters":29200,"station_id":"ce4bgr92rcd13ifvqc6g","pricing_plan_id":"free"},{"bike_id":"daa01044-f165-43b4-8906-2b74c00bbad2","system_id":"levelo_inurba_marseille","lat":43.312239,"lon":5.368562,"is_reserved":false,"is_disabled":false,"rental_uris":{"android":"levelo://app?vid=daa01044-f165-43b4-8906-2b74c00bbad2","ios":"levelo://app?vid=daa01044-f165-43b4-8906-2b74c00bbad2"},"vehicle_type_id":"4","last_reported":1706472389,"current_range_meters":10000,"station_id":"ce4bgl92rcd13ifvqbq0","pricing_plan_id":"free"},{"bike_id":"7dd3ff27-4e87-4cff-859a-d94a428d0541","system_id":"levelo_inurba_marseille","lat":43.312232,"lon":5.368566,"is_reserved":false,"is_disabled":false,"rental_uris":{"android":"levelo://app?vid=7dd3ff27-4e87-4cff-859a-d94a428d0541","ios":"levelo://app?vid=7dd3ff27-4e87-4cff-859a-d94a428d0541"},"vehicle_type_id":"4","last_reported":1706472389,"current_range_meters":18800,"station_id":"ce4bgl92rcd13ifvqbq0","pricing_plan_id":"free"},{"bike_id":"b5c87cb0-8b67-483c-b86a-6297eb440102","system_id":"levelo_inurba_marseille","lat":43.312239,"lon":5.368562,"is_reserved":false,"is_disabled":false,"rental_uris":{"android":"levelo://app?vid=b5c87cb0-8b67-483c-b86a-6297eb440102","ios":"levelo://app?vid=b5c87cb0-8b67-483c-b86a-6297eb440102"},"vehicle_type_id":"4","last_reported":1706472389,"current_range_meters":14000,"station_id":"ce4bgl92rcd13ifvqbq0","pricing_plan_id":"free"},{"bike_id":"081c2fb5-5e92-46c4-87a6-7cc61c39d9df","system_id":"levelo_inurba_marseille","lat":43.314811,"lon":5.373103,"is_reserved":false,"is_disabled":false,"rental_uris":{"android":"levelo://app?vid=081c2fb5-5e92-46c4-87a6-7cc61c39d9df","ios":"levelo://app?vid=081c2fb5-5e92-46c4-87a6-7cc61c39d9df"},"vehicle_type_id":"4","last_reported":1706472389,"current_range_meters":400,"station_id":"ce4bgt12rcd13ifvqcd0","pricing_plan_id":"free"},{"bike_id":"d93feb92-e748-4165-8367-8fac737cb1a5","system_id":"levelo_inurba_marseille","lat":43.314811,"lon":5.373103,"is_reserved":false,"is_disabled":false,"rental_uris":{"android":"levelo://app?vid=d93feb92-e748-4165-8367-8fac737cb1a5","ios":"levelo://app?vid=d93feb92-e748-4165-8367-8fac737cb1a5"},"vehicle_type_id":"4","last_reported":1706472389,"current_range_meters":5200,"station_id":"ce4bgt12rcd13ifvqcd0","pricing_plan_id":"free"},{"bike_id":"5b20eaef-9fcf-4fbe-a728-5aa0b1295400","system_id":"levelo_inurba_marseille","lat":43.314811,"lon":5.373103,"is_reserved":false,"is_disabled":false,"rental_uris":{"android":"levelo://app?vid=5b20eaef-9fcf-4fbe-a728-5aa0b1295400","ios":"levelo://app?vid=5b20eaef-9fcf-4fbe-a728-5aa0b1295400"},"vehicle_type_id":"4","last_reported":1706472389,"current_range_meters":24000,"station_id":"ce4bgt12rcd13ifvqcd0","pricing_plan_id":"free"},{"bike_id":"5dc3fa9f-0685-4b48-95b9-9310fdd04f86","system_id":"levelo_inurba_marseille","lat":43.305989,"lon":5.37225,"is_reserved":false,"is_disabled":false,"rental_uris":{"android":"levelo://app?vid=5dc3fa9f-0685-4b48-95b9-9310fdd04f86","ios":"levelo://app?vid=5dc3fa9f-0685-4b48-95b9-9310fdd04f86"},"vehicle_type_id":"4","last_reported":1706472389,"current_range_meters":8000,"station_id":"ce4bgqh2rcd13ifvqc4g","pricing_plan_id":"free"},{"bike_id":"d987a502-ae91-4687-a21a-aa1dc2e933f0","system_id":"levelo_inurba_marseille","lat":43.311125,"lon":5.377624,"is_reserved":false,"is_disabled":false,"rental_uris":{"android":"levelo://app?vid=d987a502-ae91-4687-a21a-aa1dc2e933f0","ios":"levelo://app?vid=d987a502-ae91-4687-a21a-aa1dc2e933f0"},"vehicle_type_id":"4","last_reported":1706472389,"current_range_meters":19600,"station_id":"ce4bgt92rcd13ifvqcg0","pricing_plan_id":"free"},{"bike_id":"c72d1b97-dab3-4f77-9085-cd40b5a5f185","system_id":"levelo_inurba_marseille","lat":43.311125,"lon":5.377624,"is_reserved":false,"is_disabled":false,"rental_uris":{"android":"levelo://app?vid=c72d1b97-dab3-4f77-9085-cd40b5a5f185","ios":"levelo://app?vid=c72d1b97-dab3-4f77-9085-cd40b5a5f185"},"vehicle_type_id":"4","last_reported":1706472389,"current_range_meters":26000,"station_id":"ce4bgt92rcd13ifvqcg0","pricing_plan_id":"free"},{"bike_id":"f564ab77-1697-419e-92d3-bbfcafb3d7be","system_id":"levelo_inurba_marseille","lat":43.311125,"lon":5.377624,"is_reserved":false,"is_disabled":false,"rental_uris":{"android":"levelo://app?vid=f564ab77-1697-419e-92d3-bbfcafb3d7be","ios":"levelo://app?vid=f564ab77-1697-419e-92d3-bbfcafb3d7be"},"vehicle_type_id":"4","last_reported":1706472389,"current_range_meters":25600,"station_id":"ce4bgt92rcd13ifvqcg0","pricing_plan_id":"free"},{"bike_id":"a0d6639c-85cf-460a-b137-67548300336e","system_id":"levelo_inurba_marseille","lat":43.307945,"lon":5.376487,"is_reserved":false,"is_disabled":false,"rental_uris":{"android":"levelo://app?vid=a0d6639c-85cf-460a-b137-67548300336e","ios":"levelo://app?vid=a0d6639c-85cf-460a-b137-67548300336e"},"vehicle_type_id":"4","last_reported":1706472389,"current_range_meters":6800,"station_id":"ce4bgv92rcd13ifvqcq0","pricing_plan_id":"free"},{"bike_id":"6a10b697-e100-4a64-b37c-397b802ef46b","system_id":"levelo_inurba_marseille","lat":43.307945,"lon":5.376487,"is_reserved":false,"is_disabled":false,"rental_uris":{"android":"levelo://app?vid=6a10b697-e100-4a64-b37c-397b802ef46b","ios":"levelo://app?vid=6a10b697-e100-4a64-b37c-397b802ef46b"},"vehicle_type_id":"4","last_reported":1706472389,"current_range_meters":10400,"station_id":"ce4bgv92rcd13ifvqcq0","pricing_plan_id":"free"},{"bike_id":"efe6323a-a422-45a9-a0d3-237bd7ae51ef","system_id":"levelo_inurba_marseille","lat":43.307858,"lon":5.376415,"is_reserved":false,"is_disabled":false,"rental_uris":{"android":"levelo://app?vid=efe6323a-a422-45a9-a0d3-237bd7ae51ef","ios":"levelo://app?vid=efe6323a-a422-45a9-a0d3-237bd7ae51ef"},"vehicle_type_id":"4","last_reported":1706472389,"current_range_meters":4800,"station_id":"ce4bgv92rcd13ifvqcq0","pricing_plan_id":"free"},{"bike_id":"514f43e9-beeb-40c1-aa8a-900ff049a1c6","system_id":"levelo_inurba_marseille","lat":43.317075,"lon":5.377367,"is_reserved":false,"is_disabled":false,"rental_uris":{"android":"levelo://app?vid=514f43e9-beeb-40c1-aa8a-900ff049a1c6","ios":"levelo://app?vid=514f43e9-beeb-40c1-aa8a-900ff049a1c6"},"vehicle_type_id":"4","last_reported":1706472389,"current_range_meters":11200,"station_id":"ce4bgth2rcd13ifvqch0","pricing_plan_id":"free"},{"bike_id":"dd76c2e5-a3fa-4485-925d-b52a2f624e9a","system_id":"levelo_inurba_marseille","lat":43.316996,"lon":5.377499,"is_reserved":false,"is_disabled":false,"rental_uris":{"android":"levelo://app?vid=dd76c2e5-a3fa-4485-925d-b52a2f624e9a","ios":"levelo://app?vid=dd76c2e5-a3fa-4485-925d-b52a2f624e9a"},"vehicle_type_id":"4","last_reported":1706472389,"current_range_meters":0,"station_id":"ce4bgth2rcd13ifvqch0","pricing_plan_id":"free"},{"bike_id":"53446171-7c79-4f65-ab08-0f845729e84a","system_id":"levelo_inurba_marseille","lat":43.303046,"lon":5.368981,"is_reserved":false,"is_disabled":false,"rental_uris":{"android":"levelo://app?vid=53446171-7c79-4f65-ab08-0f845729e84a","ios":"levelo://app?vid=53446171-7c79-4f65-ab08-0f845729e84a"},"vehicle_type_id":"4","last_reported":1706472389,"current_range_meters":31200,"station_id":"ce4bgqh2rcd13ifvqc5g","pricing_plan_id":"free"},{"bike_id":"b83daeb9-a39c-4884-86e2-16a37c651f7f","system_id":"levelo_inurba_marseille","lat":43.31999,"lon":5.37626,"is_reserved":false,"is_disabled":false,"rental_uris":{"android":"levelo://app?vid=b83daeb9-a39c-4884-86e2-16a37c651f7f","ios":"levelo://app?vid=b83daeb9-a39c-4884-86e2-16a37c651f7f"},"vehicle_type_id":"4","last_reported":1706472389,"current_range_meters":4800,"station_id":"","pricing_plan_id":"free"},{"bike_id":"8d33dfa5-b21c-4793-abd9-67d093c9b10e","system_id":"levelo_inurba_marseille","lat":43.31535,"lon":5.38027,"is_reserved":false,"is_disabled":false,"rental_uris":{"android":"levelo://app?vid=8d33dfa5-b21c-4793-abd9-67d093c9b10e","ios":"levelo://app?vid=8d33dfa5-b21c-4793-abd9-67d093c9b10e"},"vehicle_type_id":"4","last_reported":1706472389,"current_range_meters":12400,"station_id":"ce4bhsp2rcd13ifvqi50","pricing_plan_id":"free"},{"bike_id":"dbbe92d2-890e-477b-b56f-772147ba4556","system_id":"levelo_inurba_marseille","lat":43.315363,"lon":5.380293,"is_reserved":false,"is_disabled":false,"rental_uris":{"android":"levelo://app?vid=dbbe92d2-890e-477b-b56f-772147ba4556","ios":"levelo://app?vid=dbbe92d2-890e-477b-b56f-772147ba4556"},"vehicle_type_id":"4","last_reported":1706472389,"current_range_meters":12000,"station_id":"ce4bhsp2rcd13ifvqi50","pricing_plan_id":"free"},{"bike_id":"10ce2313-fc00-413c-952f-6ccb2bb90295","system_id":"levelo_inurba_marseille","lat":43.301939,"lon":5.366286,"is_reserved":false,"is_disabled":false,"rental_uris":{"android":"levelo://app?vid=10ce2313-fc00-413c-952f-6ccb2bb90295","ios":"levelo://app?vid=10ce2313-fc00-413c-952f-6ccb2bb90295"},"vehicle_type_id":"4","last_reported":1706472389,"current_range_meters":11200,"station_id":"ce4bgrh2rcd13ifvqc8g","pricing_plan_id":"free"},{"bike_id":"ea0ff9cf-4056-4ce0-b0d4-d9192d117b45","system_id":"levelo_inurba_marseille","lat":43.301939,"lon":5.366286,"is_reserved":false,"is_disabled":false,"rental_uris":{"android":"levelo://app?vid=ea0ff9cf-4056-4ce0-b0d4-d9192d117b45","ios":"levelo://app?vid=ea0ff9cf-4056-4ce0-b0d4-d9192d117b45"},"vehicle_type_id":"4","last_reported":1706472389,"current_range_meters":27200,"station_id":"ce4bgrh2rcd13ifvqc8g","pricing_plan_id":"free"},{"bike_id":"40e0a20c-dc4a-45ac-bbbe-718e0a83c0e5","system_id":"levelo_inurba_marseille","lat":43.308012,"lon":5.381511,"is_reserved":false,"is_disabled":false,"rental_uris":{"android":"levelo://app?vid=40e0a20c-dc4a-45ac-bbbe-718e0a83c0e5","ios":"levelo://app?vid=40e0a20c-dc4a-45ac-bbbe-718e0a83c0e5"},"vehicle_type_id":"4","last_reported":1706472389,"current_range_meters":28800,"station_id":"ce4bgt12rcd13ifvqce0","pricing_plan_id":"free"},{"bike_id":"86ecd19a-d2fe-4c9f-8918-32b062eb150e","system_id":"levelo_inurba_marseille","lat":43.32479,"lon":5.36566,"is_reserved":false,"is_disabled":false,"rental_uris":{"android":"levelo://app?vid=86ecd19a-d2fe-4c9f-8918-32b062eb150e","ios":"levelo://app?vid=86ecd19a-d2fe-4c9f-8918-32b062eb150e"},"vehicle_type_id":"4","last_reported":1706472389,"current_range_meters":0,"station_id":"ce4bhs12rcd13ifvqhvg","pricing_plan_id":"free"},{"bike_id":"1dd95eb2-cc52-4a61-bd2b-a11ff28fec96","system_id":"levelo_inurba_marseille","lat":43.324771,"lon":5.36557,"is_reserved":false,"is_disabled":false,"rental_uris":{"android":"levelo://app?vid=1dd95eb2-cc52-4a61-bd2b-a11ff28fec96","ios":"levelo://app?vid=1dd95eb2-cc52-4a61-bd2b-a11ff28fec96"},"vehicle_type_id":"4","last_reported":1706472389,"current_range_meters":0,"station_id":"ce4bhs12rcd13ifvqhvg","pricing_plan_id":"free"},{"bike_id":"4c4b8ab9-5ef1-420c-9390-c3e236e87d90","system_id":"levelo_inurba_marseille","lat":43.324771,"lon":5.36557,"is_reserved":false,"is_disabled":false,"rental_uris":{"android":"levelo://app?vid=4c4b8ab9-5ef1-420c-9390-c3e236e87d90","ios":"levelo://app?vid=4c4b8ab9-5ef1-420c-9390-c3e236e87d90"},"vehicle_type_id":"4","last_reported":1706472389,"current_range_meters":4400,"station_id":"ce4bhs12rcd13ifvqhvg","pricing_plan_id":"free"},{"bike_id":"dc00bdf8-dc57-4b02-8d44-8ea4906debe3","system_id":"levelo_inurba_marseille","lat":43.324771,"lon":5.36557,"is_reserved":false,"is_disabled":false,"rental_uris":{"android":"levelo://app?vid=dc00bdf8-dc57-4b02-8d44-8ea4906debe3","ios":"levelo://app?vid=dc00bdf8-dc57-4b02-8d44-8ea4906debe3"},"vehicle_type_id":"4","last_reported":1706472389,"current_range_meters":16400,"station_id":"ce4bhs12rcd13ifvqhvg","pricing_plan_id":"free"},{"bike_id":"433f348d-f149-4720-b9f7-2cfa5d749b8c","system_id":"levelo_inurba_marseille","lat":43.301429,"lon":5.37413,"is_reserved":false,"is_disabled":false,"rental_uris":{"android":"levelo://app?vid=433f348d-f149-4720-b9f7-2cfa5d749b8c","ios":"levelo://app?vid=433f348d-f149-4720-b9f7-2cfa5d749b8c"},"vehicle_type_id":"4","last_reported":1706472389,"current_range_meters":17600,"station_id":"ce4bgs92rcd13ifvqcc0","pricing_plan_id":"free"},{"bike_id":"6ccbcef7-69c4-4135-8b79-cce2270526f7","system_id":"levelo_inurba_marseille","lat":43.301429,"lon":5.37413,"is_reserved":false,"is_disabled":false,"rental_uris":{"android":"levelo://app?vid=6ccbcef7-69c4-4135-8b79-cce2270526f7","ios":"levelo://app?vid=6ccbcef7-69c4-4135-8b79-cce2270526f7"},"vehicle_type_id":"4","last_reported":1706472389,"current_range_meters":3600,"station_id":"ce4bgs92rcd13ifvqcc0","pricing_plan_id":"free"},{"bike_id":"0f537124-4361-46b3-bee0-2deb0f6f7571","system_id":"levelo_inurba_marseille","lat":43.30143,"lon":5.37412,"is_reserved":false,"is_disabled":false,"rental_uris":{"android":"levelo://app?vid=0f537124-4361-46b3-bee0-2deb0f6f7571","ios":"levelo://app?vid=0f537124-4361-46b3-bee0-2deb0f6f7571"},"vehicle_type_id":"4","last_reported":1706472389,"current_range_meters":12400,"station_id":"ce4bgs92rcd13ifvqcc0","pricing_plan_id":"free"},{"bike_id":"4e8e7e9f-0e12-415e-9f8a-232c8717aa9d","system_id":"levelo_inurba_marseille","lat":43.319935,"lon":5.381699,"is_reserved":false,"is_disabled":false,"rental_uris":{"android":"levelo://app?vid=4e8e7e9f-0e12-415e-9f8a-232c8717aa9d","ios":"levelo://app?vid=4e8e7e9f-0e12-415e-9f8a-232c8717aa9d"},"vehicle_type_id":"4","last_reported":1706472389,"current_range_meters":21200,"station_id":"ce4bhr12rcd13ifvqhpg","pricing_plan_id":"free"},{"bike_id":"a281e1a5-5d82-4073-b40a-c01a79b602d0","system_id":"levelo_inurba_marseille","lat":43.313571,"lon":5.384829,"is_reserved":false,"is_disabled":false,"rental_uris":{"android":"levelo://app?vid=a281e1a5-5d82-4073-b40a-c01a79b602d0","ios":"levelo://app?vid=a281e1a5-5d82-4073-b40a-c01a79b602d0"},"vehicle_type_id":"4","last_reported":1706472389,"current_range_meters":21200,"station_id":"ce4bgt92rcd13ifvqcf0","pricing_plan_id":"free"},{"bike_id":"5fbcfd35-47c8-4b8a-8a5a-fcb38d1e3a21","system_id":"levelo_inurba_marseille","lat":43.313571,"lon":5.384829,"is_reserved":false,"is_disabled":false,"rental_uris":{"android":"levelo://app?vid=5fbcfd35-47c8-4b8a-8a5a-fcb38d1e3a21","ios":"levelo://app?vid=5fbcfd35-47c8-4b8a-8a5a-fcb38d1e3a21"},"vehicle_type_id":"4","last_reported":1706472389,"current_range_meters":19600,"station_id":"ce4bgt92rcd13ifvqcf0","pricing_plan_id":"free"},{"bike_id":"579639e1-85bb-470a-9d5f-c64a2ef896af","system_id":"levelo_inurba_marseille","lat":43.299085,"lon":5.374733,"is_reserved":false,"is_disabled":false,"rental_uris":{"android":"levelo://app?vid=579639e1-85bb-470a-9d5f-c64a2ef896af","ios":"levelo://app?vid=579639e1-85bb-470a-9d5f-c64a2ef896af"},"vehicle_type_id":"4","last_reported":1706472389,"current_range_meters":0,"station_id":"ce4bgjh2rcd13ifvqbg0","pricing_plan_id":"free"},{"bike_id":"fceedd04-a2ff-4e9a-b555-5c0e2ce22a83","system_id":"levelo_inurba_marseille","lat":43.322872,"lon":5.382756,"is_reserved":false,"is_disabled":false,"rental_uris":{"android":"levelo://app?vid=fceedd04-a2ff-4e9a-b555-5c0e2ce22a83","ios":"levelo://app?vid=fceedd04-a2ff-4e9a-b555-5c0e2ce22a83"},"vehicle_type_id":"4","last_reported":1706472389,"current_range_meters":26000,"station_id":"ce4bhr12rcd13ifvqhqg","pricing_plan_id":"free"},{"bike_id":"ef052ffe-e968-4eb8-b923-680910b4c6c0","system_id":"levelo_inurba_marseille","lat":43.322872,"lon":5.382756,"is_reserved":false,"is_disabled":false,"rental_uris":{"android":"levelo://app?vid=ef052ffe-e968-4eb8-b923-680910b4c6c0","ios":"levelo://app?vid=ef052ffe-e968-4eb8-b923-680910b4c6c0"},"vehicle_type_id":"4","last_reported":1706472389,"current_range_meters":23200,"station_id":"ce4bhr12rcd13ifvqhqg","pricing_plan_id":"free"},{"bike_id":"e1539f0d-02e3-46ca-8fd2-b115fd55a782","system_id":"levelo_inurba_marseille","lat":43.322872,"lon":5.382756,"is_reserved":false,"is_disabled":false,"rental_uris":{"android":"levelo://app?vid=e1539f0d-02e3-46ca-8fd2-b115fd55a782","ios":"levelo://app?vid=e1539f0d-02e3-46ca-8fd2-b115fd55a782"},"vehicle_type_id":"4","last_reported":1706472389,"current_range_meters":23600,"station_id":"ce4bhr12rcd13ifvqhqg","pricing_plan_id":"free"},{"bike_id":"9f9b4b90-bdbb-4ce1-adb6-03f6c8f005be","system_id":"levelo_inurba_marseille","lat":43.32819,"lon":5.36685,"is_reserved":false,"is_disabled":false,"rental_uris":{"android":"levelo://app?vid=9f9b4b90-bdbb-4ce1-adb6-03f6c8f005be","ios":"levelo://app?vid=9f9b4b90-bdbb-4ce1-adb6-03f6c8f005be"},"vehicle_type_id":"4","last_reported":1706472389,"current_range_meters":14000,"station_id":"ce4bhs92rcd13ifvqi0g","pricing_plan_id":"free"},{"bike_id":"bc53ba99-b807-415f-909d-56f38a2b6d95","system_id":"levelo_inurba_marseille","lat":43.328238,"lon":5.366811,"is_reserved":false,"is_disabled":false,"rental_uris":{"android":"levelo://app?vid=bc53ba99-b807-415f-909d-56f38a2b6d95","ios":"levelo://app?vid=bc53ba99-b807-415f-909d-56f38a2b6d95"},"vehicle_type_id":"4","last_reported":1706472389,"current_range_meters":800,"station_id":"ce4bhs92rcd13ifvqi0g","pricing_plan_id":"free"},{"bike_id":"12edd8fe-ac42-424b-86a0-ddbc64b4f114","system_id":"levelo_inurba_marseille","lat":43.328371,"lon":5.366909,"is_reserved":false,"is_disabled":false,"rental_uris":{"android":"levelo://app?vid=12edd8fe-ac42-424b-86a0-ddbc64b4f114","ios":"levelo://app?vid=12edd8fe-ac42-424b-86a0-ddbc64b4f114"},"vehicle_type_id":"4","last_reported":1706472389,"current_range_meters":12400,"station_id":"ce4bhs92rcd13ifvqi0g","pricing_plan_id":"free"},{"bike_id":"0f7b98a3-6434-4866-adac-ccd99f91e009","system_id":"levelo_inurba_marseille","lat":43.32827,"lon":5.36678,"is_reserved":false,"is_disabled":false,"rental_uris":{"android":"levelo://app?vid=0f7b98a3-6434-4866-adac-ccd99f91e009","ios":"levelo://app?vid=0f7b98a3-6434-4866-adac-ccd99f91e009"},"vehicle_type_id":"4","last_reported":1706472389,"current_range_meters":0,"station_id":"ce4bhs92rcd13ifvqi0g","pricing_plan_id":"free"},{"bike_id":"af1c8fc0-8183-4d68-848c-9159b1d2bf45","system_id":"levelo_inurba_marseille","lat":43.328371,"lon":5.366909,"is_reserved":false,"is_disabled":false,"rental_uris":{"android":"levelo://app?vid=af1c8fc0-8183-4d68-848c-9159b1d2bf45","ios":"levelo://app?vid=af1c8fc0-8183-4d68-848c-9159b1d2bf45"},"vehicle_type_id":"4","last_reported":1706472389,"current_range_meters":8400,"station_id":"ce4bhs92rcd13ifvqi0g","pricing_plan_id":"free"},{"bike_id":"b69c4d12-32c8-45ed-b500-e372d3292f2c","system_id":"levelo_inurba_marseille","lat":43.297163,"lon":5.365866,"is_reserved":false,"is_disabled":false,"rental_uris":{"android":"levelo://app?vid=b69c4d12-32c8-45ed-b500-e372d3292f2c","ios":"levelo://app?vid=b69c4d12-32c8-45ed-b500-e372d3292f2c"},"vehicle_type_id":"4","last_reported":1706472389,"current_range_meters":26400,"station_id":"ce4bgn12rcd13ifvqbt0","pricing_plan_id":"free"},{"bike_id":"93802bc5-a269-4e6c-8823-78ee9debf8fd","system_id":"levelo_inurba_marseille","lat":43.328371,"lon":5.366909,"is_reserved":false,"is_disabled":false,"rental_uris":{"android":"levelo://app?vid=93802bc5-a269-4e6c-8823-78ee9debf8fd","ios":"levelo://app?vid=93802bc5-a269-4e6c-8823-78ee9debf8fd"},"vehicle_type_id":"4","last_reported":1706472389,"current_range_meters":16800,"station_id":"ce4bhs92rcd13ifvqi0g","pricing_plan_id":"free"},{"bike_id":"57eae886-be60-42dc-9011-3777cff3fb39","system_id":"levelo_inurba_marseille","lat":43.297163,"lon":5.365866,"is_reserved":false,"is_disabled":false,"rental_uris":{"android":"levelo://app?vid=57eae886-be60-42dc-9011-3777cff3fb39","ios":"levelo://app?vid=57eae886-be60-42dc-9011-3777cff3fb39"},"vehicle_type_id":"4","last_reported":1706472389,"current_range_meters":11600,"station_id":"ce4bgn12rcd13ifvqbt0","pricing_plan_id":"free"},{"bike_id":"288dd211-d406-4d38-9c9c-dc59bc104a47","system_id":"levelo_inurba_marseille","lat":43.29573,"lon":5.367355,"is_reserved":false,"is_disabled":false,"rental_uris":{"android":"levelo://app?vid=288dd211-d406-4d38-9c9c-dc59bc104a47","ios":"levelo://app?vid=288dd211-d406-4d38-9c9c-dc59bc104a47"},"vehicle_type_id":"4","last_reported":1706472389,"current_range_meters":27600,"station_id":"ce4bgph2rcd13ifvqc2g","pricing_plan_id":"free"},{"bike_id":"6efd0bbd-903a-4569-a01d-e31bc61cce36","system_id":"levelo_inurba_marseille","lat":43.299028,"lon":5.381509,"is_reserved":false,"is_disabled":false,"rental_uris":{"android":"levelo://app?vid=6efd0bbd-903a-4569-a01d-e31bc61cce36","ios":"levelo://app?vid=6efd0bbd-903a-4569-a01d-e31bc61cce36"},"vehicle_type_id":"4","last_reported":1706472389,"current_range_meters":20800,"station_id":"ce4bgj12rcd13ifvqbc0","pricing_plan_id":"free"},{"bike_id":"8dfa1e91-6be8-45ce-adda-cde2e30db97d","system_id":"levelo_inurba_marseille","lat":43.297992,"lon":5.380908,"is_reserved":false,"is_disabled":false,"rental_uris":{"android":"levelo://app?vid=8dfa1e91-6be8-45ce-adda-cde2e30db97d","ios":"levelo://app?vid=8dfa1e91-6be8-45ce-adda-cde2e30db97d"},"vehicle_type_id":"4","last_reported":1706472389,"current_range_meters":0,"station_id":"ce4bgip2rcd13ifvqbb0","pricing_plan_id":"free"},{"bike_id":"a25762f3-4645-4aa5-af4c-b7b9bef2ac25","system_id":"levelo_inurba_marseille","lat":43.298037,"lon":5.381066,"is_reserved":false,"is_disabled":false,"rental_uris":{"android":"levelo://app?vid=a25762f3-4645-4aa5-af4c-b7b9bef2ac25","ios":"levelo://app?vid=a25762f3-4645-4aa5-af4c-b7b9bef2ac25"},"vehicle_type_id":"4","last_reported":1706472389,"current_range_meters":4000,"station_id":"ce4bgip2rcd13ifvqbb0","pricing_plan_id":"free"},{"bike_id":"4e53fe6c-a549-40c5-8e51-6c42533442f9","system_id":"levelo_inurba_marseille","lat":43.304274,"lon":5.388873,"is_reserved":false,"is_disabled":false,"rental_uris":{"android":"levelo://app?vid=4e53fe6c-a549-40c5-8e51-6c42533442f9","ios":"levelo://app?vid=4e53fe6c-a549-40c5-8e51-6c42533442f9"},"vehicle_type_id":"4","last_reported":1706472389,"current_range_meters":14400,"station_id":"ce4bgk12rcd13ifvqbi0","pricing_plan_id":"free"},{"bike_id":"e76fb37d-0edb-4391-9bc7-f6013b5b4122","system_id":"levelo_inurba_marseille","lat":43.2957,"lon":5.37502,"is_reserved":false,"is_disabled":false,"rental_uris":{"android":"levelo://app?vid=e76fb37d-0edb-4391-9bc7-f6013b5b4122","ios":"levelo://app?vid=e76fb37d-0edb-4391-9bc7-f6013b5b4122"},"vehicle_type_id":"4","last_reported":1706472389,"current_range_meters":0,"station_id":"ce4bgh92rcd13ifvqb50","pricing_plan_id":"free"},{"bike_id":"b217b1f4-8742-4098-aa11-4f3ddfa57840","system_id":"levelo_inurba_marseille","lat":43.304274,"lon":5.388873,"is_reserved":false,"is_disabled":false,"rental_uris":{"android":"levelo://app?vid=b217b1f4-8742-4098-aa11-4f3ddfa57840","ios":"levelo://app?vid=b217b1f4-8742-4098-aa11-4f3ddfa57840"},"vehicle_type_id":"4","last_reported":1706472389,"current_range_meters":17200,"station_id":"ce4bgk12rcd13ifvqbi0","pricing_plan_id":"free"},{"bike_id":"b34b7087-dfa4-4b8f-a532-1b6298c656e3","system_id":"levelo_inurba_marseille","lat":43.295748,"lon":5.37522,"is_reserved":false,"is_disabled":false,"rental_uris":{"android":"levelo://app?vid=b34b7087-dfa4-4b8f-a532-1b6298c656e3","ios":"levelo://app?vid=b34b7087-dfa4-4b8f-a532-1b6298c656e3"},"vehicle_type_id":"4","last_reported":1706472389,"current_range_meters":0,"station_id":"ce4bgh92rcd13ifvqb50","pricing_plan_id":"free"},{"bike_id":"b5458836-d65b-4874-a1d2-0f2c33464268","system_id":"levelo_inurba_marseille","lat":43.295748,"lon":5.37522,"is_reserved":false,"is_disabled":false,"rental_uris":{"android":"levelo://app?vid=b5458836-d65b-4874-a1d2-0f2c33464268","ios":"levelo://app?vid=b5458836-d65b-4874-a1d2-0f2c33464268"},"vehicle_type_id":"4","last_reported":1706472389,"current_range_meters":27200,"station_id":"ce4bgh92rcd13ifvqb50","pricing_plan_id":"free"},{"bike_id":"677b8e2e-fd8b-4b7c-9ad6-19a2acf05d63","system_id":"levelo_inurba_marseille","lat":43.299724,"lon":5.384848,"is_reserved":false,"is_disabled":false,"rental_uris":{"android":"levelo://app?vid=677b8e2e-fd8b-4b7c-9ad6-19a2acf05d63","ios":"levelo://app?vid=677b8e2e-fd8b-4b7c-9ad6-19a2acf05d63"},"vehicle_type_id":"4","last_reported":1706472389,"current_range_meters":0,"station_id":"ce4bgj92rcd13ifvqbd0","pricing_plan_id":"free"},{"bike_id":"f0aabfdd-4335-48b7-b668-d760246738f3","system_id":"levelo_inurba_marseille","lat":43.299707,"lon":5.384859,"is_reserved":false,"is_disabled":false,"rental_uris":{"android":"levelo://app?vid=f0aabfdd-4335-48b7-b668-d760246738f3","ios":"levelo://app?vid=f0aabfdd-4335-48b7-b668-d760246738f3"},"vehicle_type_id":"4","last_reported":1706472389,"current_range_meters":400,"station_id":"ce4bgj92rcd13ifvqbd0","pricing_plan_id":"free"},{"bike_id":"18afcea0-3e1d-413a-a3b4-d1357bdb1ff9","system_id":"levelo_inurba_marseille","lat":43.299707,"lon":5.384859,"is_reserved":false,"is_disabled":false,"rental_uris":{"android":"levelo://app?vid=18afcea0-3e1d-413a-a3b4-d1357bdb1ff9","ios":"levelo://app?vid=18afcea0-3e1d-413a-a3b4-d1357bdb1ff9"},"vehicle_type_id":"4","last_reported":1706472389,"current_range_meters":10000,"station_id":"ce4bgj92rcd13ifvqbd0","pricing_plan_id":"free"},{"bike_id":"67e46e15-867f-4eda-96f4-c83037f6976d","system_id":"levelo_inurba_marseille","lat":43.299724,"lon":5.384848,"is_reserved":false,"is_disabled":false,"rental_uris":{"android":"levelo://app?vid=67e46e15-867f-4eda-96f4-c83037f6976d","ios":"levelo://app?vid=67e46e15-867f-4eda-96f4-c83037f6976d"},"vehicle_type_id":"4","last_reported":1706472389,"current_range_meters":28000,"station_id":"ce4bgj92rcd13ifvqbd0","pricing_plan_id":"free"},{"bike_id":"d68e21e0-f101-4fe4-adad-3edc99116a12","system_id":"levelo_inurba_marseille","lat":43.32367,"lon":5.388836,"is_reserved":false,"is_disabled":false,"rental_uris":{"android":"levelo://app?vid=d68e21e0-f101-4fe4-adad-3edc99116a12","ios":"levelo://app?vid=d68e21e0-f101-4fe4-adad-3edc99116a12"},"vehicle_type_id":"4","last_reported":1706472389,"current_range_meters":18000,"station_id":"ce4bhqp2rcd13ifvqhog","pricing_plan_id":"free"},{"bike_id":"d8569112-b66b-4694-a593-794f9928a0f1","system_id":"levelo_inurba_marseille","lat":43.29602,"lon":5.381084,"is_reserved":false,"is_disabled":false,"rental_uris":{"android":"levelo://app?vid=d8569112-b66b-4694-a593-794f9928a0f1","ios":"levelo://app?vid=d8569112-b66b-4694-a593-794f9928a0f1"},"vehicle_type_id":"4","last_reported":1706472389,"current_range_meters":20000,"station_id":"ce4bgl12rcd13ifvqbo0","pricing_plan_id":"free"},{"bike_id":"96c97a9f-74fa-495f-87d2-a34b29706f6b","system_id":"levelo_inurba_marseille","lat":43.29302,"lon":5.371754,"is_reserved":false,"is_disabled":false,"rental_uris":{"android":"levelo://app?vid=96c97a9f-74fa-495f-87d2-a34b29706f6b","ios":"levelo://app?vid=96c97a9f-74fa-495f-87d2-a34b29706f6b"},"vehicle_type_id":"4","last_reported":1706472389,"current_range_meters":0,"station_id":"ce4bgh92rcd13ifvqb40","pricing_plan_id":"free"},{"bike_id":"4dd4ed7d-4af8-4021-b3dc-099b5a4d6f49","system_id":"levelo_inurba_marseille","lat":43.292749,"lon":5.368402,"is_reserved":false,"is_disabled":false,"rental_uris":{"android":"levelo://app?vid=4dd4ed7d-4af8-4021-b3dc-099b5a4d6f49","ios":"levelo://app?vid=4dd4ed7d-4af8-4021-b3dc-099b5a4d6f49"},"vehicle_type_id":"4","last_reported":1706472389,"current_range_meters":15600,"station_id":"ce4bhbp2rcd13ifvqesg","pricing_plan_id":"free"},{"bike_id":"64310429-5ccb-4003-b3e4-08adbdbb29de","system_id":"levelo_inurba_marseille","lat":43.305994,"lon":5.393687,"is_reserved":false,"is_disabled":false,"rental_uris":{"android":"levelo://app?vid=64310429-5ccb-4003-b3e4-08adbdbb29de","ios":"levelo://app?vid=64310429-5ccb-4003-b3e4-08adbdbb29de"},"vehicle_type_id":"4","last_reported":1706472389,"current_range_meters":7600,"station_id":"ce4bh0p2rcd13ifvqd80","pricing_plan_id":"free"},{"bike_id":"e3a8596b-c61a-4525-8458-598ca90c20af","system_id":"levelo_inurba_marseille","lat":43.293009,"lon":5.374584,"is_reserved":false,"is_disabled":false,"rental_uris":{"android":"levelo://app?vid=e3a8596b-c61a-4525-8458-598ca90c20af","ios":"levelo://app?vid=e3a8596b-c61a-4525-8458-598ca90c20af"},"vehicle_type_id":"4","last_reported":1706472389,"current_range_meters":4400,"station_id":"ce4bgi12rcd13ifvqb70","pricing_plan_id":"free"},{"bike_id":"25ba45b1-f3d1-4901-bdc6-b4c7c3ad3c1f","system_id":"levelo_inurba_marseille","lat":43.292958,"lon":5.374522,"is_reserved":false,"is_disabled":false,"rental_uris":{"android":"levelo://app?vid=25ba45b1-f3d1-4901-bdc6-b4c7c3ad3c1f","ios":"levelo://app?vid=25ba45b1-f3d1-4901-bdc6-b4c7c3ad3c1f"},"vehicle_type_id":"4","last_reported":1706472389,"current_range_meters":0,"station_id":"ce4bgi12rcd13ifvqb70","pricing_plan_id":"free"},{"bike_id":"d5721dd4-b01b-410f-a8f6-a89f31e1bbed","system_id":"levelo_inurba_marseille","lat":43.3059,"lon":5.39357,"is_reserved":false,"is_disabled":false,"rental_uris":{"android":"levelo://app?vid=d5721dd4-b01b-410f-a8f6-a89f31e1bbed","ios":"levelo://app?vid=d5721dd4-b01b-410f-a8f6-a89f31e1bbed"},"vehicle_type_id":"4","last_reported":1706472389,"current_range_meters":14800,"station_id":"ce4bh0p2rcd13ifvqd80","pricing_plan_id":"free"},{"bike_id":"bf4fac92-fd73-4902-98b9-8039201ac607","system_id":"levelo_inurba_marseille","lat":43.29295,"lon":5.37459,"is_reserved":false,"is_disabled":false,"rental_uris":{"android":"levelo://app?vid=bf4fac92-fd73-4902-98b9-8039201ac607","ios":"levelo://app?vid=bf4fac92-fd73-4902-98b9-8039201ac607"},"vehicle_type_id":"4","last_reported":1706472389,"current_range_meters":0,"station_id":"ce4bgi12rcd13ifvqb70","pricing_plan_id":"free"},{"bike_id":"a8a23b16-6123-48f0-b642-94a5b13ff8f2","system_id":"levelo_inurba_marseille","lat":43.302992,"lon":5.392136,"is_reserved":false,"is_disabled":false,"rental_uris":{"android":"levelo://app?vid=a8a23b16-6123-48f0-b642-94a5b13ff8f2","ios":"levelo://app?vid=a8a23b16-6123-48f0-b642-94a5b13ff8f2"},"vehicle_type_id":"4","last_reported":1706472389,"current_range_meters":6000,"station_id":"ce4bgkh2rcd13ifvqbk0","pricing_plan_id":"free"},{"bike_id":"04a3e600-f7ca-407d-8d63-eb1dc516d070","system_id":"levelo_inurba_marseille","lat":43.302992,"lon":5.392136,"is_reserved":false,"is_disabled":false,"rental_uris":{"android":"levelo://app?vid=04a3e600-f7ca-407d-8d63-eb1dc516d070","ios":"levelo://app?vid=04a3e600-f7ca-407d-8d63-eb1dc516d070"},"vehicle_type_id":"4","last_reported":1706472389,"current_range_meters":8400,"station_id":"ce4bgkh2rcd13ifvqbk0","pricing_plan_id":"free"},{"bike_id":"5c04cdd2-a73e-4e36-81a7-49b9ffd48e8c","system_id":"levelo_inurba_marseille","lat":43.2936,"lon":5.37835,"is_reserved":false,"is_disabled":false,"rental_uris":{"android":"levelo://app?vid=5c04cdd2-a73e-4e36-81a7-49b9ffd48e8c","ios":"levelo://app?vid=5c04cdd2-a73e-4e36-81a7-49b9ffd48e8c"},"vehicle_type_id":"4","last_reported":1706472389,"current_range_meters":14400,"station_id":"ce4bgjh2rcd13ifvqbf0","pricing_plan_id":"free"},{"bike_id":"a6f4f2f7-027d-4f8f-a117-705c1f3a55a1","system_id":"levelo_inurba_marseille","lat":43.303002,"lon":5.392142,"is_reserved":false,"is_disabled":false,"rental_uris":{"android":"levelo://app?vid=a6f4f2f7-027d-4f8f-a117-705c1f3a55a1","ios":"levelo://app?vid=a6f4f2f7-027d-4f8f-a117-705c1f3a55a1"},"vehicle_type_id":"4","last_reported":1706472389,"current_range_meters":6400,"station_id":"ce4bgkh2rcd13ifvqbk0","pricing_plan_id":"free"},{"bike_id":"b42c37f3-1faa-4e66-a798-9953853eeb1d","system_id":"levelo_inurba_marseille","lat":43.303002,"lon":5.392142,"is_reserved":false,"is_disabled":false,"rental_uris":{"android":"levelo://app?vid=b42c37f3-1faa-4e66-a798-9953853eeb1d","ios":"levelo://app?vid=b42c37f3-1faa-4e66-a798-9953853eeb1d"},"vehicle_type_id":"4","last_reported":1706472389,"current_range_meters":0,"station_id":"ce4bgkh2rcd13ifvqbk0","pricing_plan_id":"free"},{"bike_id":"5e889d2f-e1d3-4118-96f2-ccf0e39137a2","system_id":"levelo_inurba_marseille","lat":43.302992,"lon":5.392136,"is_reserved":false,"is_disabled":false,"rental_uris":{"android":"levelo://app?vid=5e889d2f-e1d3-4118-96f2-ccf0e39137a2","ios":"levelo://app?vid=5e889d2f-e1d3-4118-96f2-ccf0e39137a2"},"vehicle_type_id":"4","last_reported":1706472389,"current_range_meters":18000,"station_id":"ce4bgkh2rcd13ifvqbk0","pricing_plan_id":"free"},{"bike_id":"d936d227-75db-4bf4-ac8a-bbf7a74d9755","system_id":"levelo_inurba_marseille","lat":43.2936,"lon":5.37835,"is_reserved":false,"is_disabled":false,"rental_uris":{"android":"levelo://app?vid=d936d227-75db-4bf4-ac8a-bbf7a74d9755","ios":"levelo://app?vid=d936d227-75db-4bf4-ac8a-bbf7a74d9755"},"vehicle_type_id":"4","last_reported":1706472389,"current_range_meters":10800,"station_id":"ce4bgjh2rcd13ifvqbf0","pricing_plan_id":"free"},{"bike_id":"a764beb5-7f1e-498b-985f-83c49cce25d7","system_id":"levelo_inurba_marseille","lat":43.300852,"lon":5.390859,"is_reserved":false,"is_disabled":false,"rental_uris":{"android":"levelo://app?vid=a764beb5-7f1e-498b-985f-83c49cce25d7","ios":"levelo://app?vid=a764beb5-7f1e-498b-985f-83c49cce25d7"},"vehicle_type_id":"4","last_reported":1706472389,"current_range_meters":5600,"station_id":"ce4bh192rcd13ifvqdb0","pricing_plan_id":"free"},{"bike_id":"132b0cb1-c2fa-4b68-afa2-941219582eda","system_id":"levelo_inurba_marseille","lat":43.30085,"lon":5.390856,"is_reserved":false,"is_disabled":false,"rental_uris":{"android":"levelo://app?vid=132b0cb1-c2fa-4b68-afa2-941219582eda","ios":"levelo://app?vid=132b0cb1-c2fa-4b68-afa2-941219582eda"},"vehicle_type_id":"4","last_reported":1706472389,"current_range_meters":24000,"station_id":"ce4bh192rcd13ifvqdb0","pricing_plan_id":"free"},{"bike_id":"b8195236-8a5a-4681-812c-91fce8c41fc1","system_id":"levelo_inurba_marseille","lat":43.30085,"lon":5.390856,"is_reserved":false,"is_disabled":false,"rental_uris":{"android":"levelo://app?vid=b8195236-8a5a-4681-812c-91fce8c41fc1","ios":"levelo://app?vid=b8195236-8a5a-4681-812c-91fce8c41fc1"},"vehicle_type_id":"4","last_reported":1706472389,"current_range_meters":13600,"station_id":"ce4bh192rcd13ifvqdb0","pricing_plan_id":"free"},{"bike_id":"e0e086dc-6a1a-4908-8175-199ec081b2d8","system_id":"levelo_inurba_marseille","lat":43.313291,"lon":5.396838,"is_reserved":false,"is_disabled":false,"rental_uris":{"android":"levelo://app?vid=e0e086dc-6a1a-4908-8175-199ec081b2d8","ios":"levelo://app?vid=e0e086dc-6a1a-4908-8175-199ec081b2d8"},"vehicle_type_id":"4","last_reported":1706472389,"current_range_meters":27600,"station_id":"ce4bgvp2rcd13ifvqcu0","pricing_plan_id":"free"},{"bike_id":"c92e175a-b675-4fb0-b759-9a902a34b15d","system_id":"levelo_inurba_marseille","lat":43.298764,"lon":5.388973,"is_reserved":false,"is_disabled":false,"rental_uris":{"android":"levelo://app?vid=c92e175a-b675-4fb0-b759-9a902a34b15d","ios":"levelo://app?vid=c92e175a-b675-4fb0-b759-9a902a34b15d"},"vehicle_type_id":"4","last_reported":1706472389,"current_range_meters":9200,"station_id":"ce4bh392rcd13ifvqdl0","pricing_plan_id":"free"},{"bike_id":"aca4a85f-d6b0-4362-8dd0-e3cbc96097ae","system_id":"levelo_inurba_marseille","lat":43.298764,"lon":5.388973,"is_reserved":false,"is_disabled":false,"rental_uris":{"android":"levelo://app?vid=aca4a85f-d6b0-4362-8dd0-e3cbc96097ae","ios":"levelo://app?vid=aca4a85f-d6b0-4362-8dd0-e3cbc96097ae"},"vehicle_type_id":"4","last_reported":1706472389,"current_range_meters":3600,"station_id":"ce4bh392rcd13ifvqdl0","pricing_plan_id":"free"},{"bike_id":"525ed666-d955-4063-a4bc-07c0ef53adaa","system_id":"levelo_inurba_marseille","lat":43.298764,"lon":5.388973,"is_reserved":false,"is_disabled":false,"rental_uris":{"android":"levelo://app?vid=525ed666-d955-4063-a4bc-07c0ef53adaa","ios":"levelo://app?vid=525ed666-d955-4063-a4bc-07c0ef53adaa"},"vehicle_type_id":"4","last_reported":1706472389,"current_range_meters":0,"station_id":"ce4bh392rcd13ifvqdl0","pricing_plan_id":"free"},{"bike_id":"19a98a3e-6f28-4940-921f-3bd049ca887f","system_id":"levelo_inurba_marseille","lat":43.298764,"lon":5.388973,"is_reserved":false,"is_disabled":false,"rental_uris":{"android":"levelo://app?vid=19a98a3e-6f28-4940-921f-3bd049ca887f","ios":"levelo://app?vid=19a98a3e-6f28-4940-921f-3bd049ca887f"},"vehicle_type_id":"4","last_reported":1706472389,"current_range_meters":0,"station_id":"ce4bh392rcd13ifvqdl0","pricing_plan_id":"free"},{"bike_id":"36e1c0e7-15e3-4342-907e-b1949ec8c798","system_id":"levelo_inurba_marseille","lat":43.291994,"lon":5.357886,"is_reserved":false,"is_disabled":false,"rental_uris":{"android":"levelo://app?vid=36e1c0e7-15e3-4342-907e-b1949ec8c798","ios":"levelo://app?vid=36e1c0e7-15e3-4342-907e-b1949ec8c798"},"vehicle_type_id":"4","last_reported":1706472389,"current_range_meters":11600,"station_id":"ce4bhb12rcd13ifvqel0","pricing_plan_id":"free"},{"bike_id":"944afecd-adef-48c9-a1f2-7458f2aff94d","system_id":"levelo_inurba_marseille","lat":43.309047,"lon":5.396551,"is_reserved":false,"is_disabled":false,"rental_uris":{"android":"levelo://app?vid=944afecd-adef-48c9-a1f2-7458f2aff94d","ios":"levelo://app?vid=944afecd-adef-48c9-a1f2-7458f2aff94d"},"vehicle_type_id":"4","last_reported":1706472389,"current_range_meters":21600,"station_id":"ce4bh012rcd13ifvqcv0","pricing_plan_id":"free"},{"bike_id":"ab244fc4-2d07-48ab-aa4e-d71c6b5ed2d8","system_id":"levelo_inurba_marseille","lat":43.291994,"lon":5.357886,"is_reserved":false,"is_disabled":false,"rental_uris":{"android":"levelo://app?vid=ab244fc4-2d07-48ab-aa4e-d71c6b5ed2d8","ios":"levelo://app?vid=ab244fc4-2d07-48ab-aa4e-d71c6b5ed2d8"},"vehicle_type_id":"4","last_reported":1706472389,"current_range_meters":6000,"station_id":"ce4bhb12rcd13ifvqel0","pricing_plan_id":"free"},{"bike_id":"7f3ecc81-79cb-4d9e-908c-7ece63af5067","system_id":"levelo_inurba_marseille","lat":43.313291,"lon":5.396838,"is_reserved":false,"is_disabled":false,"rental_uris":{"android":"levelo://app?vid=7f3ecc81-79cb-4d9e-908c-7ece63af5067","ios":"levelo://app?vid=7f3ecc81-79cb-4d9e-908c-7ece63af5067"},"vehicle_type_id":"4","last_reported":1706472389,"current_range_meters":26000,"station_id":"ce4bgvp2rcd13ifvqcu0","pricing_plan_id":"free"},{"bike_id":"a7cbbdfe-9e93-4dc3-9267-0aff76a4a8c6","system_id":"levelo_inurba_marseille","lat":43.309038,"lon":5.396546,"is_reserved":false,"is_disabled":false,"rental_uris":{"android":"levelo://app?vid=a7cbbdfe-9e93-4dc3-9267-0aff76a4a8c6","ios":"levelo://app?vid=a7cbbdfe-9e93-4dc3-9267-0aff76a4a8c6"},"vehicle_type_id":"4","last_reported":1706472389,"current_range_meters":11600,"station_id":"ce4bh012rcd13ifvqcv0","pricing_plan_id":"free"},{"bike_id":"360ae2f7-8bcb-471b-929d-3d8eedbf87b7","system_id":"levelo_inurba_marseille","lat":43.313291,"lon":5.396838,"is_reserved":false,"is_disabled":false,"rental_uris":{"android":"levelo://app?vid=360ae2f7-8bcb-471b-929d-3d8eedbf87b7","ios":"levelo://app?vid=360ae2f7-8bcb-471b-929d-3d8eedbf87b7"},"vehicle_type_id":"4","last_reported":1706472389,"current_range_meters":11200,"station_id":"ce4bgvp2rcd13ifvqcu0","pricing_plan_id":"free"},{"bike_id":"6fca597b-c569-463c-ae61-81d01995d09f","system_id":"levelo_inurba_marseille","lat":43.29188,"lon":5.35785,"is_reserved":false,"is_disabled":false,"rental_uris":{"android":"levelo://app?vid=6fca597b-c569-463c-ae61-81d01995d09f","ios":"levelo://app?vid=6fca597b-c569-463c-ae61-81d01995d09f"},"vehicle_type_id":"4","last_reported":1706472389,"current_range_meters":0,"station_id":"ce4bhb12rcd13ifvqel0","pricing_plan_id":"free"},{"bike_id":"1c8b3817-9692-4787-8ad1-7b06e474824b","system_id":"levelo_inurba_marseille","lat":43.29529,"lon":5.385581,"is_reserved":false,"is_disabled":false,"rental_uris":{"android":"levelo://app?vid=1c8b3817-9692-4787-8ad1-7b06e474824b","ios":"levelo://app?vid=1c8b3817-9692-4787-8ad1-7b06e474824b"},"vehicle_type_id":"4","last_reported":1706472389,"current_range_meters":12400,"station_id":"ce4bgih2rcd13ifvqba0","pricing_plan_id":"free"},{"bike_id":"b0eb63ea-230a-4e68-b9d4-0e64e4c23107","system_id":"levelo_inurba_marseille","lat":43.2908,"lon":5.37163,"is_reserved":false,"is_disabled":false,"rental_uris":{"android":"levelo://app?vid=b0eb63ea-230a-4e68-b9d4-0e64e4c23107","ios":"levelo://app?vid=b0eb63ea-230a-4e68-b9d4-0e64e4c23107"},"vehicle_type_id":"4","last_reported":1706472389,"current_range_meters":400,"station_id":"ce4bh5p2rcd13ifvqe4g","pricing_plan_id":"free"},{"bike_id":"923496d8-a092-43e6-9fca-d2003681fcb1","system_id":"levelo_inurba_marseille","lat":43.290779,"lon":5.371482,"is_reserved":false,"is_disabled":false,"rental_uris":{"android":"levelo://app?vid=923496d8-a092-43e6-9fca-d2003681fcb1","ios":"levelo://app?vid=923496d8-a092-43e6-9fca-d2003681fcb1"},"vehicle_type_id":"4","last_reported":1706472389,"current_range_meters":13600,"station_id":"ce4bh5p2rcd13ifvqe4g","pricing_plan_id":"free"},{"bike_id":"b9d6ee85-2e6b-4e06-90dd-616edebd68b6","system_id":"levelo_inurba_marseille","lat":43.2906,"lon":5.371484,"is_reserved":false,"is_disabled":false,"rental_uris":{"android":"levelo://app?vid=b9d6ee85-2e6b-4e06-90dd-616edebd68b6","ios":"levelo://app?vid=b9d6ee85-2e6b-4e06-90dd-616edebd68b6"},"vehicle_type_id":"4","last_reported":1706472389,"current_range_meters":0,"station_id":"ce4bh5p2rcd13ifvqe4g","pricing_plan_id":"free"},{"bike_id":"f11fb805-017d-4a11-a051-6eaf4f93cf52","system_id":"levelo_inurba_marseille","lat":43.290624,"lon":5.359245,"is_reserved":false,"is_disabled":false,"rental_uris":{"android":"levelo://app?vid=f11fb805-017d-4a11-a051-6eaf4f93cf52","ios":"levelo://app?vid=f11fb805-017d-4a11-a051-6eaf4f93cf52"},"vehicle_type_id":"4","last_reported":1706472389,"current_range_meters":4000,"station_id":"ce4bha92rcd13ifvqeg0","pricing_plan_id":"free"},{"bike_id":"35d92463-4f10-4d44-8c23-0ad7833a2aa0","system_id":"levelo_inurba_marseille","lat":43.290327,"lon":5.375711,"is_reserved":false,"is_disabled":false,"rental_uris":{"android":"levelo://app?vid=35d92463-4f10-4d44-8c23-0ad7833a2aa0","ios":"levelo://app?vid=35d92463-4f10-4d44-8c23-0ad7833a2aa0"},"vehicle_type_id":"4","last_reported":1706472389,"current_range_meters":22000,"station_id":"ce4bh692rcd13ifvqe90","pricing_plan_id":"free"},{"bike_id":"d4615b65-a6ac-4078-868a-0fdd4465f3fc","system_id":"levelo_inurba_marseille","lat":43.294162,"lon":5.386292,"is_reserved":false,"is_disabled":false,"rental_uris":{"android":"levelo://app?vid=d4615b65-a6ac-4078-868a-0fdd4465f3fc","ios":"levelo://app?vid=d4615b65-a6ac-4078-868a-0fdd4465f3fc"},"vehicle_type_id":"4","last_reported":1706472389,"current_range_meters":9200,"station_id":"ce4bh2h2rcd13ifvqdh0","pricing_plan_id":"free"},{"bike_id":"ec66efd6-d632-45fa-9344-bd23239e1195","system_id":"levelo_inurba_marseille","lat":43.294153,"lon":5.386305,"is_reserved":false,"is_disabled":false,"rental_uris":{"android":"levelo://app?vid=ec66efd6-d632-45fa-9344-bd23239e1195","ios":"levelo://app?vid=ec66efd6-d632-45fa-9344-bd23239e1195"},"vehicle_type_id":"4","last_reported":1706472389,"current_range_meters":0,"station_id":"ce4bh2h2rcd13ifvqdh0","pricing_plan_id":"free"},{"bike_id":"5d4ff776-356c-45bd-b11f-f98ab5a0b580","system_id":"levelo_inurba_marseille","lat":43.294153,"lon":5.386305,"is_reserved":false,"is_disabled":false,"rental_uris":{"android":"levelo://app?vid=5d4ff776-356c-45bd-b11f-f98ab5a0b580","ios":"levelo://app?vid=5d4ff776-356c-45bd-b11f-f98ab5a0b580"},"vehicle_type_id":"4","last_reported":1706472389,"current_range_meters":0,"station_id":"ce4bh2h2rcd13ifvqdh0","pricing_plan_id":"free"},{"bike_id":"fc3a4231-d7cd-4041-8e3f-0f5bae82777e","system_id":"levelo_inurba_marseille","lat":43.292644,"lon":5.384257,"is_reserved":false,"is_disabled":false,"rental_uris":{"android":"levelo://app?vid=fc3a4231-d7cd-4041-8e3f-0f5bae82777e","ios":"levelo://app?vid=fc3a4231-d7cd-4041-8e3f-0f5bae82777e"},"vehicle_type_id":"4","last_reported":1706472389,"current_range_meters":20000,"station_id":"ce4bh692rcd13ifvqea0","pricing_plan_id":"free"},{"bike_id":"37fcc040-74f4-49cf-969c-6685264791df","system_id":"levelo_inurba_marseille","lat":43.292644,"lon":5.384257,"is_reserved":false,"is_disabled":false,"rental_uris":{"android":"levelo://app?vid=37fcc040-74f4-49cf-969c-6685264791df","ios":"levelo://app?vid=37fcc040-74f4-49cf-969c-6685264791df"},"vehicle_type_id":"4","last_reported":1706472389,"current_range_meters":17200,"station_id":"ce4bh692rcd13ifvqea0","pricing_plan_id":"free"},{"bike_id":"40c3f18c-163f-4114-b77f-81254c4af8c7","system_id":"levelo_inurba_marseille","lat":43.292642,"lon":5.384254,"is_reserved":false,"is_disabled":false,"rental_uris":{"android":"levelo://app?vid=40c3f18c-163f-4114-b77f-81254c4af8c7","ios":"levelo://app?vid=40c3f18c-163f-4114-b77f-81254c4af8c7"},"vehicle_type_id":"4","last_reported":1706472389,"current_range_meters":14400,"station_id":"ce4bh692rcd13ifvqea0","pricing_plan_id":"free"},{"bike_id":"01888fa1-706a-4c29-9ebc-4a1e89c4681a","system_id":"levelo_inurba_marseille","lat":43.292644,"lon":5.384257,"is_reserved":false,"is_disabled":false,"rental_uris":{"android":"levelo://app?vid=01888fa1-706a-4c29-9ebc-4a1e89c4681a","ios":"levelo://app?vid=01888fa1-706a-4c29-9ebc-4a1e89c4681a"},"vehicle_type_id":"4","last_reported":1706472389,"current_range_meters":28800,"station_id":"ce4bh692rcd13ifvqea0","pricing_plan_id":"free"},{"bike_id":"07e418cd-1e6d-47eb-b45a-d0ae4f294673","system_id":"levelo_inurba_marseille","lat":43.2926,"lon":5.38447,"is_reserved":false,"is_disabled":false,"rental_uris":{"android":"levelo://app?vid=07e418cd-1e6d-47eb-b45a-d0ae4f294673","ios":"levelo://app?vid=07e418cd-1e6d-47eb-b45a-d0ae4f294673"},"vehicle_type_id":"4","last_reported":1706472389,"current_range_meters":800,"station_id":"ce4bh692rcd13ifvqea0","pricing_plan_id":"free"},{"bike_id":"7dc37c5e-34f8-46e5-a68c-5ffc3c78ee7b","system_id":"levelo_inurba_marseille","lat":43.29094,"lon":5.38133,"is_reserved":false,"is_disabled":false,"rental_uris":{"android":"levelo://app?vid=7dc37c5e-34f8-46e5-a68c-5ffc3c78ee7b","ios":"levelo://app?vid=7dc37c5e-34f8-46e5-a68c-5ffc3c78ee7b"},"vehicle_type_id":"4","last_reported":1706472389,"current_range_meters":12000,"station_id":"ce4bh512rcd13ifvqe2g","pricing_plan_id":"free"},{"bike_id":"b2f24c9d-f231-4ef9-9c5d-801fafd9b655","system_id":"levelo_inurba_marseille","lat":43.29096,"lon":5.38139,"is_reserved":false,"is_disabled":false,"rental_uris":{"android":"levelo://app?vid=b2f24c9d-f231-4ef9-9c5d-801fafd9b655","ios":"levelo://app?vid=b2f24c9d-f231-4ef9-9c5d-801fafd9b655"},"vehicle_type_id":"4","last_reported":1706472389,"current_range_meters":24800,"station_id":"ce4bh512rcd13ifvqe2g","pricing_plan_id":"free"},{"bike_id":"4d64b4b1-158d-4a82-9fff-bad52e8040f8","system_id":"levelo_inurba_marseille","lat":43.297926,"lon":5.393454,"is_reserved":false,"is_disabled":false,"rental_uris":{"android":"levelo://app?vid=4d64b4b1-158d-4a82-9fff-bad52e8040f8","ios":"levelo://app?vid=4d64b4b1-158d-4a82-9fff-bad52e8040f8"},"vehicle_type_id":"4","last_reported":1706472389,"current_range_meters":6000,"station_id":"chh1huq6cuj3fo74tm60","pricing_plan_id":"free"},{"bike_id":"b7706dd7-3786-4087-8965-0886b169ac4e","system_id":"levelo_inurba_marseille","lat":43.297815,"lon":5.393548,"is_reserved":false,"is_disabled":false,"rental_uris":{"android":"levelo://app?vid=b7706dd7-3786-4087-8965-0886b169ac4e","ios":"levelo://app?vid=b7706dd7-3786-4087-8965-0886b169ac4e"},"vehicle_type_id":"4","last_reported":1706472389,"current_range_meters":18000,"station_id":"chh1huq6cuj3fo74tm60","pricing_plan_id":"free"},{"bike_id":"2ebaf0d1-5423-46cc-9e9c-aedd6fe97d14","system_id":"levelo_inurba_marseille","lat":43.29787,"lon":5.39343,"is_reserved":false,"is_disabled":false,"rental_uris":{"android":"levelo://app?vid=2ebaf0d1-5423-46cc-9e9c-aedd6fe97d14","ios":"levelo://app?vid=2ebaf0d1-5423-46cc-9e9c-aedd6fe97d14"},"vehicle_type_id":"4","last_reported":1706472389,"current_range_meters":4400,"station_id":"chh1huq6cuj3fo74tm60","pricing_plan_id":"free"},{"bike_id":"a362c309-f4b5-4809-99e2-cef35d770cac","system_id":"levelo_inurba_marseille","lat":43.289743,"lon":5.378304,"is_reserved":false,"is_disabled":false,"rental_uris":{"android":"levelo://app?vid=a362c309-f4b5-4809-99e2-cef35d770cac","ios":"levelo://app?vid=a362c309-f4b5-4809-99e2-cef35d770cac"},"vehicle_type_id":"4","last_reported":1706472389,"current_range_meters":15200,"station_id":"ce4bh9p2rcd13ifvqed0","pricing_plan_id":"free"},{"bike_id":"c2837a28-f9ff-4f57-848a-d9292b73d93d","system_id":"levelo_inurba_marseille","lat":43.28856,"lon":5.358371,"is_reserved":false,"is_disabled":false,"rental_uris":{"android":"levelo://app?vid=c2837a28-f9ff-4f57-848a-d9292b73d93d","ios":"levelo://app?vid=c2837a28-f9ff-4f57-848a-d9292b73d93d"},"vehicle_type_id":"4","last_reported":1706472389,"current_range_meters":0,"station_id":"ce4bhb12rcd13ifvqem0","pricing_plan_id":"free"},{"bike_id":"01d0f14a-f067-4f27-97b5-c906871d77c2","system_id":"levelo_inurba_marseille","lat":43.2901,"lon":5.381269,"is_reserved":false,"is_disabled":false,"rental_uris":{"android":"levelo://app?vid=01d0f14a-f067-4f27-97b5-c906871d77c2","ios":"levelo://app?vid=01d0f14a-f067-4f27-97b5-c906871d77c2"},"vehicle_type_id":"4","last_reported":1706472389,"current_range_meters":25600,"station_id":"ce4bh4p2rcd13ifvqe1g","pricing_plan_id":"free"},{"bike_id":"3af37c3a-18ee-4e8f-8d9f-825a184ff745","system_id":"levelo_inurba_marseille","lat":43.309371,"lon":5.401449,"is_reserved":false,"is_disabled":false,"rental_uris":{"android":"levelo://app?vid=3af37c3a-18ee-4e8f-8d9f-825a184ff745","ios":"levelo://app?vid=3af37c3a-18ee-4e8f-8d9f-825a184ff745"},"vehicle_type_id":"4","last_reported":1706472389,"current_range_meters":0,"station_id":"ce4bgvp2rcd13ifvqct0","pricing_plan_id":"free"},{"bike_id":"0f2c1b5b-2255-427d-8e1c-a2e4920df7dd","system_id":"levelo_inurba_marseille","lat":43.33743,"lon":5.374465,"is_reserved":false,"is_disabled":false,"rental_uris":{"android":"levelo://app?vid=0f2c1b5b-2255-427d-8e1c-a2e4920df7dd","ios":"levelo://app?vid=0f2c1b5b-2255-427d-8e1c-a2e4920df7dd"},"vehicle_type_id":"4","last_reported":1706472389,"current_range_meters":25600,"station_id":"","pricing_plan_id":"free"},{"bike_id":"b44add22-381f-4738-b3df-83b5d32e6cca","system_id":"levelo_inurba_marseille","lat":43.309371,"lon":5.401449,"is_reserved":false,"is_disabled":false,"rental_uris":{"android":"levelo://app?vid=b44add22-381f-4738-b3df-83b5d32e6cca","ios":"levelo://app?vid=b44add22-381f-4738-b3df-83b5d32e6cca"},"vehicle_type_id":"4","last_reported":1706472389,"current_range_meters":0,"station_id":"ce4bgvp2rcd13ifvqct0","pricing_plan_id":"free"},{"bike_id":"0e8e889a-2147-4fbc-bb92-f96bc7dfb1e3","system_id":"levelo_inurba_marseille","lat":43.31267,"lon":5.40172,"is_reserved":false,"is_disabled":false,"rental_uris":{"android":"levelo://app?vid=0e8e889a-2147-4fbc-bb92-f96bc7dfb1e3","ios":"levelo://app?vid=0e8e889a-2147-4fbc-bb92-f96bc7dfb1e3"},"vehicle_type_id":"4","last_reported":1706472389,"current_range_meters":16800,"station_id":"ce4bh092rcd13ifvqd30","pricing_plan_id":"free"},{"bike_id":"c72da4ac-a6a5-410b-8bf4-e55c7fa6f0f1","system_id":"levelo_inurba_marseille","lat":43.31286,"lon":5.40176,"is_reserved":false,"is_disabled":false,"rental_uris":{"android":"levelo://app?vid=c72da4ac-a6a5-410b-8bf4-e55c7fa6f0f1","ios":"levelo://app?vid=c72da4ac-a6a5-410b-8bf4-e55c7fa6f0f1"},"vehicle_type_id":"4","last_reported":1706472389,"current_range_meters":2800,"station_id":"ce4bh092rcd13ifvqd30","pricing_plan_id":"free"},{"bike_id":"fcfa15fe-6695-474b-8f30-dc941c73b131","system_id":"levelo_inurba_marseille","lat":43.30936,"lon":5.40145,"is_reserved":false,"is_disabled":false,"rental_uris":{"android":"levelo://app?vid=fcfa15fe-6695-474b-8f30-dc941c73b131","ios":"levelo://app?vid=fcfa15fe-6695-474b-8f30-dc941c73b131"},"vehicle_type_id":"4","last_reported":1706472389,"current_range_meters":4400,"station_id":"ce4bgvp2rcd13ifvqct0","pricing_plan_id":"free"},{"bike_id":"a563cdbf-78b8-441c-8dce-8da1c3325b92","system_id":"levelo_inurba_marseille","lat":43.337509,"lon":5.374543,"is_reserved":false,"is_disabled":false,"rental_uris":{"android":"levelo://app?vid=a563cdbf-78b8-441c-8dce-8da1c3325b92","ios":"levelo://app?vid=a563cdbf-78b8-441c-8dce-8da1c3325b92"},"vehicle_type_id":"4","last_reported":1706472389,"current_range_meters":18800,"station_id":"","pricing_plan_id":"free"},{"bike_id":"b7f12eab-e0a6-499e-87ec-2b4381c4602a","system_id":"levelo_inurba_marseille","lat":43.337541,"lon":5.374553,"is_reserved":false,"is_disabled":false,"rental_uris":{"android":"levelo://app?vid=b7f12eab-e0a6-499e-87ec-2b4381c4602a","ios":"levelo://app?vid=b7f12eab-e0a6-499e-87ec-2b4381c4602a"},"vehicle_type_id":"4","last_reported":1706472389,"current_range_meters":23600,"station_id":"","pricing_plan_id":"free"},{"bike_id":"1facbbf3-baac-42f8-85eb-cb1e36f3e4b9","system_id":"levelo_inurba_marseille","lat":43.337546,"lon":5.374948,"is_reserved":false,"is_disabled":false,"rental_uris":{"android":"levelo://app?vid=1facbbf3-baac-42f8-85eb-cb1e36f3e4b9","ios":"levelo://app?vid=1facbbf3-baac-42f8-85eb-cb1e36f3e4b9"},"vehicle_type_id":"4","last_reported":1706472389,"current_range_meters":12800,"station_id":"","pricing_plan_id":"free"},{"bike_id":"713283fe-e82c-441a-8a6e-1c67b3985fbf","system_id":"levelo_inurba_marseille","lat":43.326605,"lon":5.409903,"is_reserved":false,"is_disabled":false,"rental_uris":{"android":"levelo://app?vid=713283fe-e82c-441a-8a6e-1c67b3985fbf","ios":"levelo://app?vid=713283fe-e82c-441a-8a6e-1c67b3985fbf"},"vehicle_type_id":"4","last_reported":1706472389,"current_range_meters":19200,"station_id":"ce4bhpp2rcd13ifvqhgg","pricing_plan_id":"free"},{"bike_id":"2fe24097-b1c2-4583-ba1f-cf8501171a4c","system_id":"levelo_inurba_marseille","lat":43.33758,"lon":5.37489,"is_reserved":false,"is_disabled":false,"rental_uris":{"android":"levelo://app?vid=2fe24097-b1c2-4583-ba1f-cf8501171a4c","ios":"levelo://app?vid=2fe24097-b1c2-4583-ba1f-cf8501171a4c"},"vehicle_type_id":"4","last_reported":1706472389,"current_range_meters":10400,"station_id":"","pricing_plan_id":"free"},{"bike_id":"b7d3b81d-d85a-44b5-a0c7-8f9c9f74639e","system_id":"levelo_inurba_marseille","lat":43.33765,"lon":5.374672,"is_reserved":false,"is_disabled":false,"rental_uris":{"android":"levelo://app?vid=b7d3b81d-d85a-44b5-a0c7-8f9c9f74639e","ios":"levelo://app?vid=b7d3b81d-d85a-44b5-a0c7-8f9c9f74639e"},"vehicle_type_id":"4","last_reported":1706472389,"current_range_meters":26000,"station_id":"","pricing_plan_id":"free"},{"bike_id":"32062be5-6165-48f6-b957-8db3e8212ae8","system_id":"levelo_inurba_marseille","lat":43.306412,"lon":5.401035,"is_reserved":false,"is_disabled":false,"rental_uris":{"android":"levelo://app?vid=32062be5-6165-48f6-b957-8db3e8212ae8","ios":"levelo://app?vid=32062be5-6165-48f6-b957-8db3e8212ae8"},"vehicle_type_id":"4","last_reported":1706472389,"current_range_meters":21600,"station_id":"ce4bh112rcd13ifvqda0","pricing_plan_id":"free"},{"bike_id":"eba6ef58-29d1-4196-9a1a-4f81035ff91b","system_id":"levelo_inurba_marseille","lat":43.30602,"lon":5.40099,"is_reserved":false,"is_disabled":false,"rental_uris":{"android":"levelo://app?vid=eba6ef58-29d1-4196-9a1a-4f81035ff91b","ios":"levelo://app?vid=eba6ef58-29d1-4196-9a1a-4f81035ff91b"},"vehicle_type_id":"4","last_reported":1706472389,"current_range_meters":24000,"station_id":"ce4bh112rcd13ifvqda0","pricing_plan_id":"free"},{"bike_id":"ff03be0d-7dc2-4158-9285-424296d3bad9","system_id":"levelo_inurba_marseille","lat":43.301117,"lon":5.398795,"is_reserved":false,"is_disabled":false,"rental_uris":{"android":"levelo://app?vid=ff03be0d-7dc2-4158-9285-424296d3bad9","ios":"levelo://app?vid=ff03be0d-7dc2-4158-9285-424296d3bad9"},"vehicle_type_id":"4","last_reported":1706472389,"current_range_meters":11200,"station_id":"ce4bh0h2rcd13ifvqd40","pricing_plan_id":"free"},{"bike_id":"522d42eb-9b29-48d8-bd56-5615cefbb5c8","system_id":"levelo_inurba_marseille","lat":43.304643,"lon":5.40063,"is_reserved":false,"is_disabled":false,"rental_uris":{"android":"levelo://app?vid=522d42eb-9b29-48d8-bd56-5615cefbb5c8","ios":"levelo://app?vid=522d42eb-9b29-48d8-bd56-5615cefbb5c8"},"vehicle_type_id":"4","last_reported":1706472389,"current_range_meters":17200,"station_id":"","pricing_plan_id":"free"},{"bike_id":"7a5e519d-41a6-414b-b6ed-0a86694e3771","system_id":"levelo_inurba_marseille","lat":43.28727,"lon":5.36078,"is_reserved":false,"is_disabled":false,"rental_uris":{"android":"levelo://app?vid=7a5e519d-41a6-414b-b6ed-0a86694e3771","ios":"levelo://app?vid=7a5e519d-41a6-414b-b6ed-0a86694e3771"},"vehicle_type_id":"4","last_reported":1706472389,"current_range_meters":23200,"station_id":"cki0cbj6b192h4jlfktg","pricing_plan_id":"free"},{"bike_id":"4526c5a3-58e3-4b33-bef7-119d0c9b1850","system_id":"levelo_inurba_marseille","lat":43.28727,"lon":5.36078,"is_reserved":false,"is_disabled":false,"rental_uris":{"android":"levelo://app?vid=4526c5a3-58e3-4b33-bef7-119d0c9b1850","ios":"levelo://app?vid=4526c5a3-58e3-4b33-bef7-119d0c9b1850"},"vehicle_type_id":"4","last_reported":1706472389,"current_range_meters":24000,"station_id":"cki0cbj6b192h4jlfktg","pricing_plan_id":"free"},{"bike_id":"f7d0a52c-5f99-4a0a-966d-b6ecb2f9473f","system_id":"levelo_inurba_marseille","lat":43.286591,"lon":5.363346,"is_reserved":false,"is_disabled":false,"rental_uris":{"android":"levelo://app?vid=f7d0a52c-5f99-4a0a-966d-b6ecb2f9473f","ios":"levelo://app?vid=f7d0a52c-5f99-4a0a-966d-b6ecb2f9473f"},"vehicle_type_id":"4","last_reported":1706472389,"current_range_meters":14400,"station_id":"ce4bhah2rcd13ifvqej0","pricing_plan_id":"free"},{"bike_id":"40fa4522-1e63-4109-b1ab-9778342875a3","system_id":"levelo_inurba_marseille","lat":43.298681,"lon":5.397225,"is_reserved":false,"is_disabled":false,"rental_uris":{"android":"levelo://app?vid=40fa4522-1e63-4109-b1ab-9778342875a3","ios":"levelo://app?vid=40fa4522-1e63-4109-b1ab-9778342875a3"},"vehicle_type_id":"4","last_reported":1706472389,"current_range_meters":30800,"station_id":"ce4bh0h2rcd13ifvqd50","pricing_plan_id":"free"},{"bike_id":"037051ab-425e-412f-b404-f5773260f298","system_id":"levelo_inurba_marseille","lat":43.286591,"lon":5.363346,"is_reserved":false,"is_disabled":false,"rental_uris":{"android":"levelo://app?vid=037051ab-425e-412f-b404-f5773260f298","ios":"levelo://app?vid=037051ab-425e-412f-b404-f5773260f298"},"vehicle_type_id":"4","last_reported":1706472389,"current_range_meters":25600,"station_id":"ce4bhah2rcd13ifvqej0","pricing_plan_id":"free"},{"bike_id":"7aa9401c-6e36-496d-8225-08fb8d49610b","system_id":"levelo_inurba_marseille","lat":43.298681,"lon":5.397225,"is_reserved":false,"is_disabled":false,"rental_uris":{"android":"levelo://app?vid=7aa9401c-6e36-496d-8225-08fb8d49610b","ios":"levelo://app?vid=7aa9401c-6e36-496d-8225-08fb8d49610b"},"vehicle_type_id":"4","last_reported":1706472389,"current_range_meters":28000,"station_id":"ce4bh0h2rcd13ifvqd50","pricing_plan_id":"free"},{"bike_id":"44383bee-c4d1-4698-b237-49da6c63e49e","system_id":"levelo_inurba_marseille","lat":43.286593,"lon":5.363346,"is_reserved":false,"is_disabled":false,"rental_uris":{"android":"levelo://app?vid=44383bee-c4d1-4698-b237-49da6c63e49e","ios":"levelo://app?vid=44383bee-c4d1-4698-b237-49da6c63e49e"},"vehicle_type_id":"4","last_reported":1706472389,"current_range_meters":20800,"station_id":"ce4bhah2rcd13ifvqej0","pricing_plan_id":"free"},{"bike_id":"190915c6-f3b8-479a-95a8-10d2dab0268f","system_id":"levelo_inurba_marseille","lat":43.298681,"lon":5.397225,"is_reserved":false,"is_disabled":false,"rental_uris":{"android":"levelo://app?vid=190915c6-f3b8-479a-95a8-10d2dab0268f","ios":"levelo://app?vid=190915c6-f3b8-479a-95a8-10d2dab0268f"},"vehicle_type_id":"4","last_reported":1706472389,"current_range_meters":11600,"station_id":"ce4bh0h2rcd13ifvqd50","pricing_plan_id":"free"},{"bike_id":"b16167e3-1052-43da-9c08-d441a37aa492","system_id":"levelo_inurba_marseille","lat":43.298681,"lon":5.397225,"is_reserved":false,"is_disabled":false,"rental_uris":{"android":"levelo://app?vid=b16167e3-1052-43da-9c08-d441a37aa492","ios":"levelo://app?vid=b16167e3-1052-43da-9c08-d441a37aa492"},"vehicle_type_id":"4","last_reported":1706472389,"current_range_meters":15600,"station_id":"ce4bh0h2rcd13ifvqd50","pricing_plan_id":"free"},{"bike_id":"2fd6249d-582f-4c1a-80e9-eed91193e373","system_id":"levelo_inurba_marseille","lat":43.298681,"lon":5.397225,"is_reserved":false,"is_disabled":false,"rental_uris":{"android":"levelo://app?vid=2fd6249d-582f-4c1a-80e9-eed91193e373","ios":"levelo://app?vid=2fd6249d-582f-4c1a-80e9-eed91193e373"},"vehicle_type_id":"4","last_reported":1706472389,"current_range_meters":29200,"station_id":"ce4bh0h2rcd13ifvqd50","pricing_plan_id":"free"},{"bike_id":"94e643cb-8463-4417-a2ec-d66404e804cc","system_id":"levelo_inurba_marseille","lat":43.286593,"lon":5.363346,"is_reserved":false,"is_disabled":false,"rental_uris":{"android":"levelo://app?vid=94e643cb-8463-4417-a2ec-d66404e804cc","ios":"levelo://app?vid=94e643cb-8463-4417-a2ec-d66404e804cc"},"vehicle_type_id":"4","last_reported":1706472389,"current_range_meters":10400,"station_id":"ce4bhah2rcd13ifvqej0","pricing_plan_id":"free"},{"bike_id":"94c712f0-2471-4cbf-b779-4b1642f80194","system_id":"levelo_inurba_marseille","lat":43.286961,"lon":5.373785,"is_reserved":false,"is_disabled":false,"rental_uris":{"android":"levelo://app?vid=94c712f0-2471-4cbf-b779-4b1642f80194","ios":"levelo://app?vid=94c712f0-2471-4cbf-b779-4b1642f80194"},"vehicle_type_id":"4","last_reported":1706472389,"current_range_meters":15200,"station_id":"ce4bh3p2rcd13ifvqdq0","pricing_plan_id":"free"},{"bike_id":"3fe958a6-13f7-465d-85df-dc052362d28f","system_id":"levelo_inurba_marseille","lat":43.295196,"lon":5.39397,"is_reserved":false,"is_disabled":false,"rental_uris":{"android":"levelo://app?vid=3fe958a6-13f7-465d-85df-dc052362d28f","ios":"levelo://app?vid=3fe958a6-13f7-465d-85df-dc052362d28f"},"vehicle_type_id":"4","last_reported":1706472389,"current_range_meters":15200,"station_id":"ce4bh292rcd13ifvqdf0","pricing_plan_id":"free"},{"bike_id":"2824708c-e193-4f9f-86bc-80ef0a43d9ec","system_id":"levelo_inurba_marseille","lat":43.295196,"lon":5.39397,"is_reserved":false,"is_disabled":false,"rental_uris":{"android":"levelo://app?vid=2824708c-e193-4f9f-86bc-80ef0a43d9ec","ios":"levelo://app?vid=2824708c-e193-4f9f-86bc-80ef0a43d9ec"},"vehicle_type_id":"4","last_reported":1706472389,"current_range_meters":2800,"station_id":"ce4bh292rcd13ifvqdf0","pricing_plan_id":"free"},{"bike_id":"796a4f5d-2aee-4179-bb3a-2c2dc5cdaa63","system_id":"levelo_inurba_marseille","lat":43.295196,"lon":5.39397,"is_reserved":false,"is_disabled":false,"rental_uris":{"android":"levelo://app?vid=796a4f5d-2aee-4179-bb3a-2c2dc5cdaa63","ios":"levelo://app?vid=796a4f5d-2aee-4179-bb3a-2c2dc5cdaa63"},"vehicle_type_id":"4","last_reported":1706472389,"current_range_meters":3200,"station_id":"ce4bh292rcd13ifvqdf0","pricing_plan_id":"free"},{"bike_id":"cc644acb-1160-442c-b5b0-55a4344a662a","system_id":"levelo_inurba_marseille","lat":43.295196,"lon":5.39397,"is_reserved":false,"is_disabled":false,"rental_uris":{"android":"levelo://app?vid=cc644acb-1160-442c-b5b0-55a4344a662a","ios":"levelo://app?vid=cc644acb-1160-442c-b5b0-55a4344a662a"},"vehicle_type_id":"4","last_reported":1706472389,"current_range_meters":7600,"station_id":"ce4bh292rcd13ifvqdf0","pricing_plan_id":"free"},{"bike_id":"72eb59db-e754-498a-b351-8699447ab814","system_id":"levelo_inurba_marseille","lat":43.289307,"lon":5.38406,"is_reserved":false,"is_disabled":false,"rental_uris":{"android":"levelo://app?vid=72eb59db-e754-498a-b351-8699447ab814","ios":"levelo://app?vid=72eb59db-e754-498a-b351-8699447ab814"},"vehicle_type_id":"4","last_reported":1706472389,"current_range_meters":0,"station_id":"ce4bh612rcd13ifvqe6g","pricing_plan_id":"free"},{"bike_id":"ce168945-edaa-4e78-9084-bfcb24fe8d86","system_id":"levelo_inurba_marseille","lat":43.289307,"lon":5.38406,"is_reserved":false,"is_disabled":false,"rental_uris":{"android":"levelo://app?vid=ce168945-edaa-4e78-9084-bfcb24fe8d86","ios":"levelo://app?vid=ce168945-edaa-4e78-9084-bfcb24fe8d86"},"vehicle_type_id":"4","last_reported":1706472389,"current_range_meters":16800,"station_id":"ce4bh612rcd13ifvqe6g","pricing_plan_id":"free"},{"bike_id":"9a78d1ea-59fc-477e-a3bf-0a3340d9601b","system_id":"levelo_inurba_marseille","lat":43.302759,"lon":5.400793,"is_reserved":false,"is_disabled":false,"rental_uris":{"android":"levelo://app?vid=9a78d1ea-59fc-477e-a3bf-0a3340d9601b","ios":"levelo://app?vid=9a78d1ea-59fc-477e-a3bf-0a3340d9601b"},"vehicle_type_id":"4","last_reported":1706472389,"current_range_meters":9600,"station_id":"ce4bgvh2rcd13ifvqcs0","pricing_plan_id":"free"},{"bike_id":"f510bbb4-2301-43c9-8766-d8ab76d46580","system_id":"levelo_inurba_marseille","lat":43.302759,"lon":5.400793,"is_reserved":false,"is_disabled":false,"rental_uris":{"android":"levelo://app?vid=f510bbb4-2301-43c9-8766-d8ab76d46580","ios":"levelo://app?vid=f510bbb4-2301-43c9-8766-d8ab76d46580"},"vehicle_type_id":"4","last_reported":1706472389,"current_range_meters":10000,"station_id":"ce4bgvh2rcd13ifvqcs0","pricing_plan_id":"free"},{"bike_id":"16c44f57-a586-411e-b85b-4c7755c62483","system_id":"levelo_inurba_marseille","lat":43.302759,"lon":5.400793,"is_reserved":false,"is_disabled":false,"rental_uris":{"android":"levelo://app?vid=16c44f57-a586-411e-b85b-4c7755c62483","ios":"levelo://app?vid=16c44f57-a586-411e-b85b-4c7755c62483"},"vehicle_type_id":"4","last_reported":1706472389,"current_range_meters":22800,"station_id":"ce4bgvh2rcd13ifvqcs0","pricing_plan_id":"free"},{"bike_id":"183bb1c1-398f-466c-b05d-327ac4efc436","system_id":"levelo_inurba_marseille","lat":43.302511,"lon":5.400653,"is_reserved":false,"is_disabled":false,"rental_uris":{"android":"levelo://app?vid=183bb1c1-398f-466c-b05d-327ac4efc436","ios":"levelo://app?vid=183bb1c1-398f-466c-b05d-327ac4efc436"},"vehicle_type_id":"4","last_reported":1706472389,"current_range_meters":10000,"station_id":"ce4bgth2rcd13ifvqch0","pricing_plan_id":"free"},{"bike_id":"796e3645-072b-4128-a2e8-c0bc9f787332","system_id":"levelo_inurba_marseille","lat":43.289307,"lon":5.38406,"is_reserved":false,"is_disabled":false,"rental_uris":{"android":"levelo://app?vid=796e3645-072b-4128-a2e8-c0bc9f787332","ios":"levelo://app?vid=796e3645-072b-4128-a2e8-c0bc9f787332"},"vehicle_type_id":"4","last_reported":1706472389,"current_range_meters":4800,"station_id":"ce4bh612rcd13ifvqe6g","pricing_plan_id":"free"},{"bike_id":"8ce4cd94-d241-416b-98b5-1fad40afc22f","system_id":"levelo_inurba_marseille","lat":43.302759,"lon":5.400793,"is_reserved":false,"is_disabled":false,"rental_uris":{"android":"levelo://app?vid=8ce4cd94-d241-416b-98b5-1fad40afc22f","ios":"levelo://app?vid=8ce4cd94-d241-416b-98b5-1fad40afc22f"},"vehicle_type_id":"4","last_reported":1706472389,"current_range_meters":24000,"station_id":"ce4bgvh2rcd13ifvqcs0","pricing_plan_id":"free"},{"bike_id":"ab8c78d8-9395-4afe-b308-2e591173c381","system_id":"levelo_inurba_marseille","lat":43.286039,"lon":5.370679,"is_reserved":false,"is_disabled":false,"rental_uris":{"android":"levelo://app?vid=ab8c78d8-9395-4afe-b308-2e591173c381","ios":"levelo://app?vid=ab8c78d8-9395-4afe-b308-2e591173c381"},"vehicle_type_id":"4","last_reported":1706472389,"current_range_meters":22400,"station_id":"ce4bht12rcd13ifvqi60","pricing_plan_id":"free"},{"bike_id":"33226beb-0913-4a8d-92d7-dbf952bd2dac","system_id":"levelo_inurba_marseille","lat":43.284538,"lon":5.358657,"is_reserved":false,"is_disabled":false,"rental_uris":{"android":"levelo://app?vid=33226beb-0913-4a8d-92d7-dbf952bd2dac","ios":"levelo://app?vid=33226beb-0913-4a8d-92d7-dbf952bd2dac"},"vehicle_type_id":"4","last_reported":1706472389,"current_range_meters":7600,"station_id":"ce4bhah2rcd13ifvqei0","pricing_plan_id":"free"},{"bike_id":"e0a8cb52-b5b4-4625-aa04-220b91e8d8d3","system_id":"levelo_inurba_marseille","lat":43.284534,"lon":5.358662,"is_reserved":false,"is_disabled":false,"rental_uris":{"android":"levelo://app?vid=e0a8cb52-b5b4-4625-aa04-220b91e8d8d3","ios":"levelo://app?vid=e0a8cb52-b5b4-4625-aa04-220b91e8d8d3"},"vehicle_type_id":"4","last_reported":1706472389,"current_range_meters":14000,"station_id":"ce4bhah2rcd13ifvqei0","pricing_plan_id":"free"},{"bike_id":"d4f5b869-08af-45f4-9ad6-25daf312d4eb","system_id":"levelo_inurba_marseille","lat":43.288497,"lon":5.393089,"is_reserved":false,"is_disabled":false,"rental_uris":{"android":"levelo://app?vid=d4f5b869-08af-45f4-9ad6-25daf312d4eb","ios":"levelo://app?vid=d4f5b869-08af-45f4-9ad6-25daf312d4eb"},"vehicle_type_id":"4","last_reported":1706472389,"current_range_meters":15600,"station_id":"ce4bh2p2rcd13ifvqdi0","pricing_plan_id":"free"},{"bike_id":"f29266fc-0acf-4248-a99e-69e2ac19b4ca","system_id":"levelo_inurba_marseille","lat":43.284534,"lon":5.358662,"is_reserved":false,"is_disabled":false,"rental_uris":{"android":"levelo://app?vid=f29266fc-0acf-4248-a99e-69e2ac19b4ca","ios":"levelo://app?vid=f29266fc-0acf-4248-a99e-69e2ac19b4ca"},"vehicle_type_id":"4","last_reported":1706472389,"current_range_meters":14000,"station_id":"ce4bhah2rcd13ifvqei0","pricing_plan_id":"free"},{"bike_id":"c4f853f8-612e-4d8c-a862-ee54ae74bfd2","system_id":"levelo_inurba_marseille","lat":43.284538,"lon":5.358657,"is_reserved":false,"is_disabled":false,"rental_uris":{"android":"levelo://app?vid=c4f853f8-612e-4d8c-a862-ee54ae74bfd2","ios":"levelo://app?vid=c4f853f8-612e-4d8c-a862-ee54ae74bfd2"},"vehicle_type_id":"4","last_reported":1706472389,"current_range_meters":11600,"station_id":"ce4bhah2rcd13ifvqei0","pricing_plan_id":"free"},{"bike_id":"78495cb0-0f15-49dc-9fd3-d8685a3a16e3","system_id":"levelo_inurba_marseille","lat":43.285935,"lon":5.352545,"is_reserved":false,"is_disabled":false,"rental_uris":{"android":"levelo://app?vid=78495cb0-0f15-49dc-9fd3-d8685a3a16e3","ios":"levelo://app?vid=78495cb0-0f15-49dc-9fd3-d8685a3a16e3"},"vehicle_type_id":"4","last_reported":1706472389,"current_range_meters":0,"station_id":"ce4bhbp2rcd13ifvqerg","pricing_plan_id":"free"},{"bike_id":"d5ba9328-c18c-47e8-9a53-cb0f7466c168","system_id":"levelo_inurba_marseille","lat":43.294314,"lon":5.397498,"is_reserved":false,"is_disabled":false,"rental_uris":{"android":"levelo://app?vid=d5ba9328-c18c-47e8-9a53-cb0f7466c168","ios":"levelo://app?vid=d5ba9328-c18c-47e8-9a53-cb0f7466c168"},"vehicle_type_id":"4","last_reported":1706472389,"current_range_meters":21200,"station_id":"ce4bh3h2rcd13ifvqdo0","pricing_plan_id":"free"},{"bike_id":"0869d7d2-b86d-4a1b-a38a-570cbad63b3f","system_id":"levelo_inurba_marseille","lat":43.294314,"lon":5.397498,"is_reserved":false,"is_disabled":false,"rental_uris":{"android":"levelo://app?vid=0869d7d2-b86d-4a1b-a38a-570cbad63b3f","ios":"levelo://app?vid=0869d7d2-b86d-4a1b-a38a-570cbad63b3f"},"vehicle_type_id":"4","last_reported":1706472389,"current_range_meters":4800,"station_id":"ce4bh3h2rcd13ifvqdo0","pricing_plan_id":"free"},{"bike_id":"f17024b9-d4d3-4663-9f7c-d87f35531402","system_id":"levelo_inurba_marseille","lat":43.295713,"lon":5.399639,"is_reserved":false,"is_disabled":false,"rental_uris":{"android":"levelo://app?vid=f17024b9-d4d3-4663-9f7c-d87f35531402","ios":"levelo://app?vid=f17024b9-d4d3-4663-9f7c-d87f35531402"},"vehicle_type_id":"4","last_reported":1706472389,"current_range_meters":30400,"station_id":"ce4bh312rcd13ifvqdj0","pricing_plan_id":"free"},{"bike_id":"4485876e-fc6d-480c-9259-b3472e5dd766","system_id":"levelo_inurba_marseille","lat":43.295713,"lon":5.399639,"is_reserved":false,"is_disabled":false,"rental_uris":{"android":"levelo://app?vid=4485876e-fc6d-480c-9259-b3472e5dd766","ios":"levelo://app?vid=4485876e-fc6d-480c-9259-b3472e5dd766"},"vehicle_type_id":"4","last_reported":1706472389,"current_range_meters":25600,"station_id":"ce4bh312rcd13ifvqdj0","pricing_plan_id":"free"},{"bike_id":"b8443c1f-def6-4a63-8779-32f403003481","system_id":"levelo_inurba_marseille","lat":43.295713,"lon":5.399639,"is_reserved":false,"is_disabled":false,"rental_uris":{"android":"levelo://app?vid=b8443c1f-def6-4a63-8779-32f403003481","ios":"levelo://app?vid=b8443c1f-def6-4a63-8779-32f403003481"},"vehicle_type_id":"4","last_reported":1706472389,"current_range_meters":16800,"station_id":"ce4bh312rcd13ifvqdj0","pricing_plan_id":"free"},{"bike_id":"5dfd4493-cfb8-4129-8628-9955aa7c8e72","system_id":"levelo_inurba_marseille","lat":43.283998,"lon":5.375062,"is_reserved":false,"is_disabled":false,"rental_uris":{"android":"levelo://app?vid=5dfd4493-cfb8-4129-8628-9955aa7c8e72","ios":"levelo://app?vid=5dfd4493-cfb8-4129-8628-9955aa7c8e72"},"vehicle_type_id":"4","last_reported":1706472389,"current_range_meters":24400,"station_id":"ce4bh412rcd13ifvqds0","pricing_plan_id":"free"},{"bike_id":"e175d93a-d1a8-43be-8ad7-0c9de711e552","system_id":"levelo_inurba_marseille","lat":43.295713,"lon":5.399639,"is_reserved":false,"is_disabled":false,"rental_uris":{"android":"levelo://app?vid=e175d93a-d1a8-43be-8ad7-0c9de711e552","ios":"levelo://app?vid=e175d93a-d1a8-43be-8ad7-0c9de711e552"},"vehicle_type_id":"4","last_reported":1706472389,"current_range_meters":7200,"station_id":"ce4bh312rcd13ifvqdj0","pricing_plan_id":"free"},{"bike_id":"6493c0c8-a154-4aa1-b5e5-3e78be95af6f","system_id":"levelo_inurba_marseille","lat":43.28404,"lon":5.37526,"is_reserved":false,"is_disabled":false,"rental_uris":{"android":"levelo://app?vid=6493c0c8-a154-4aa1-b5e5-3e78be95af6f","ios":"levelo://app?vid=6493c0c8-a154-4aa1-b5e5-3e78be95af6f"},"vehicle_type_id":"4","last_reported":1706472389,"current_range_meters":0,"station_id":"ce4bh412rcd13ifvqds0","pricing_plan_id":"free"},{"bike_id":"aa685f7d-224a-426e-9d15-27133e02e39e","system_id":"levelo_inurba_marseille","lat":43.295713,"lon":5.399639,"is_reserved":false,"is_disabled":false,"rental_uris":{"android":"levelo://app?vid=aa685f7d-224a-426e-9d15-27133e02e39e","ios":"levelo://app?vid=aa685f7d-224a-426e-9d15-27133e02e39e"},"vehicle_type_id":"4","last_reported":1706472389,"current_range_meters":24800,"station_id":"ce4bh312rcd13ifvqdj0","pricing_plan_id":"free"},{"bike_id":"add788c3-7705-4383-a15b-58a05905e1e5","system_id":"levelo_inurba_marseille","lat":43.28682,"lon":5.38667,"is_reserved":false,"is_disabled":false,"rental_uris":{"android":"levelo://app?vid=add788c3-7705-4383-a15b-58a05905e1e5","ios":"levelo://app?vid=add788c3-7705-4383-a15b-58a05905e1e5"},"vehicle_type_id":"4","last_reported":1706472389,"current_range_meters":24000,"station_id":"ce4bh492rcd13ifvqdug","pricing_plan_id":"free"},{"bike_id":"50b1af7f-697c-456a-b2c0-aaf507c51a13","system_id":"levelo_inurba_marseille","lat":43.33717,"lon":5.391857,"is_reserved":false,"is_disabled":false,"rental_uris":{"android":"levelo://app?vid=50b1af7f-697c-456a-b2c0-aaf507c51a13","ios":"levelo://app?vid=50b1af7f-697c-456a-b2c0-aaf507c51a13"},"vehicle_type_id":"4","last_reported":1706472389,"current_range_meters":27600,"station_id":"ce4bhr92rcd13ifvqhsg","pricing_plan_id":"free"},{"bike_id":"966dc777-e017-4bae-b924-de46490d2c46","system_id":"levelo_inurba_marseille","lat":43.337168,"lon":5.391825,"is_reserved":false,"is_disabled":false,"rental_uris":{"android":"levelo://app?vid=966dc777-e017-4bae-b924-de46490d2c46","ios":"levelo://app?vid=966dc777-e017-4bae-b924-de46490d2c46"},"vehicle_type_id":"4","last_reported":1706472389,"current_range_meters":26000,"station_id":"ce4bhr92rcd13ifvqhsg","pricing_plan_id":"free"},{"bike_id":"95ca0eff-695f-404d-aedb-846c91f4f884","system_id":"levelo_inurba_marseille","lat":43.323464,"lon":5.406297,"is_reserved":false,"is_disabled":false,"rental_uris":{"android":"levelo://app?vid=95ca0eff-695f-404d-aedb-846c91f4f884","ios":"levelo://app?vid=95ca0eff-695f-404d-aedb-846c91f4f884"},"vehicle_type_id":"4","last_reported":1706472389,"current_range_meters":15200,"station_id":"ce4bhq92rcd13ifvqhjg","pricing_plan_id":"free"},{"bike_id":"84a7c586-531c-4501-aa08-fa5e17f3ad8e","system_id":"levelo_inurba_marseille","lat":43.284803,"lon":5.384333,"is_reserved":false,"is_disabled":false,"rental_uris":{"android":"levelo://app?vid=84a7c586-531c-4501-aa08-fa5e17f3ad8e","ios":"levelo://app?vid=84a7c586-531c-4501-aa08-fa5e17f3ad8e"},"vehicle_type_id":"4","last_reported":1706472389,"current_range_meters":0,"station_id":"ce4bh512rcd13ifvqe3g","pricing_plan_id":"free"},{"bike_id":"7524291a-e968-4206-a6dd-bce9b000716a","system_id":"levelo_inurba_marseille","lat":43.288497,"lon":5.393089,"is_reserved":false,"is_disabled":false,"rental_uris":{"android":"levelo://app?vid=7524291a-e968-4206-a6dd-bce9b000716a","ios":"levelo://app?vid=7524291a-e968-4206-a6dd-bce9b000716a"},"vehicle_type_id":"4","last_reported":1706472389,"current_range_meters":9600,"station_id":"ce4bh2p2rcd13ifvqdi0","pricing_plan_id":"free"},{"bike_id":"105c5cb9-9b27-498c-b745-9d0bea142788","system_id":"levelo_inurba_marseille","lat":43.297946,"lon":5.404063,"is_reserved":false,"is_disabled":false,"rental_uris":{"android":"levelo://app?vid=105c5cb9-9b27-498c-b745-9d0bea142788","ios":"levelo://app?vid=105c5cb9-9b27-498c-b745-9d0bea142788"},"vehicle_type_id":"4","last_reported":1706472389,"current_range_meters":19600,"station_id":"ce4bh112rcd13ifvqd90","pricing_plan_id":"free"},{"bike_id":"bfb48fa8-e6f6-4cfd-b26c-85ffc56c4c7b","system_id":"levelo_inurba_marseille","lat":43.288497,"lon":5.393089,"is_reserved":false,"is_disabled":false,"rental_uris":{"android":"levelo://app?vid=bfb48fa8-e6f6-4cfd-b26c-85ffc56c4c7b","ios":"levelo://app?vid=bfb48fa8-e6f6-4cfd-b26c-85ffc56c4c7b"},"vehicle_type_id":"4","last_reported":1706472389,"current_range_meters":8400,"station_id":"ce4bh2p2rcd13ifvqdi0","pricing_plan_id":"free"},{"bike_id":"8fddf237-c5e7-4137-85fa-8f8f67d53fc9","system_id":"levelo_inurba_marseille","lat":43.288497,"lon":5.393089,"is_reserved":false,"is_disabled":false,"rental_uris":{"android":"levelo://app?vid=8fddf237-c5e7-4137-85fa-8f8f67d53fc9","ios":"levelo://app?vid=8fddf237-c5e7-4137-85fa-8f8f67d53fc9"},"vehicle_type_id":"4","last_reported":1706472389,"current_range_meters":15600,"station_id":"ce4bh2p2rcd13ifvqdi0","pricing_plan_id":"free"},{"bike_id":"80298316-9ccd-4755-b431-b696a6cd1a37","system_id":"levelo_inurba_marseille","lat":43.288497,"lon":5.393089,"is_reserved":false,"is_disabled":false,"rental_uris":{"android":"levelo://app?vid=80298316-9ccd-4755-b431-b696a6cd1a37","ios":"levelo://app?vid=80298316-9ccd-4755-b431-b696a6cd1a37"},"vehicle_type_id":"4","last_reported":1706472389,"current_range_meters":0,"station_id":"ce4bh2p2rcd13ifvqdi0","pricing_plan_id":"free"},{"bike_id":"72889213-a0e0-4bc9-8a61-2691714c5223","system_id":"levelo_inurba_marseille","lat":43.288497,"lon":5.393089,"is_reserved":false,"is_disabled":false,"rental_uris":{"android":"levelo://app?vid=72889213-a0e0-4bc9-8a61-2691714c5223","ios":"levelo://app?vid=72889213-a0e0-4bc9-8a61-2691714c5223"},"vehicle_type_id":"4","last_reported":1706472389,"current_range_meters":4400,"station_id":"ce4bh2p2rcd13ifvqdi0","pricing_plan_id":"free"},{"bike_id":"f5df7583-b008-46b2-ae63-ac87ab481177","system_id":"levelo_inurba_marseille","lat":43.283494,"lon":5.380945,"is_reserved":false,"is_disabled":false,"rental_uris":{"android":"levelo://app?vid=f5df7583-b008-46b2-ae63-ac87ab481177","ios":"levelo://app?vid=f5df7583-b008-46b2-ae63-ac87ab481177"},"vehicle_type_id":"4","last_reported":1706472389,"current_range_meters":20400,"station_id":"ce4bh412rcd13ifvqdr0","pricing_plan_id":"free"},{"bike_id":"1efb8039-392f-4e9b-9e0f-b015a39743a8","system_id":"levelo_inurba_marseille","lat":43.288497,"lon":5.393089,"is_reserved":false,"is_disabled":false,"rental_uris":{"android":"levelo://app?vid=1efb8039-392f-4e9b-9e0f-b015a39743a8","ios":"levelo://app?vid=1efb8039-392f-4e9b-9e0f-b015a39743a8"},"vehicle_type_id":"4","last_reported":1706472389,"current_range_meters":4000,"station_id":"ce4bh2p2rcd13ifvqdi0","pricing_plan_id":"free"},{"bike_id":"f4883c75-dc92-4a15-98c8-e749e43c9c02","system_id":"levelo_inurba_marseille","lat":43.288497,"lon":5.393089,"is_reserved":false,"is_disabled":false,"rental_uris":{"android":"levelo://app?vid=f4883c75-dc92-4a15-98c8-e749e43c9c02","ios":"levelo://app?vid=f4883c75-dc92-4a15-98c8-e749e43c9c02"},"vehicle_type_id":"4","last_reported":1706472389,"current_range_meters":6800,"station_id":"ce4bh2p2rcd13ifvqdi0","pricing_plan_id":"free"},{"bike_id":"025768fc-953e-4e1f-bc47-2e76895221ff","system_id":"levelo_inurba_marseille","lat":43.283494,"lon":5.380945,"is_reserved":false,"is_disabled":false,"rental_uris":{"android":"levelo://app?vid=025768fc-953e-4e1f-bc47-2e76895221ff","ios":"levelo://app?vid=025768fc-953e-4e1f-bc47-2e76895221ff"},"vehicle_type_id":"4","last_reported":1706472389,"current_range_meters":19200,"station_id":"ce4bh412rcd13ifvqdr0","pricing_plan_id":"free"},{"bike_id":"58648a84-6c6e-4122-b458-cdb8d6519ea0","system_id":"levelo_inurba_marseille","lat":43.283498,"lon":5.380948,"is_reserved":false,"is_disabled":false,"rental_uris":{"android":"levelo://app?vid=58648a84-6c6e-4122-b458-cdb8d6519ea0","ios":"levelo://app?vid=58648a84-6c6e-4122-b458-cdb8d6519ea0"},"vehicle_type_id":"4","last_reported":1706472389,"current_range_meters":19200,"station_id":"ce4bh412rcd13ifvqdr0","pricing_plan_id":"free"},{"bike_id":"d020c4c0-5a74-48cf-8002-4648c21e4b40","system_id":"levelo_inurba_marseille","lat":43.283498,"lon":5.380948,"is_reserved":false,"is_disabled":false,"rental_uris":{"android":"levelo://app?vid=d020c4c0-5a74-48cf-8002-4648c21e4b40","ios":"levelo://app?vid=d020c4c0-5a74-48cf-8002-4648c21e4b40"},"vehicle_type_id":"4","last_reported":1706472389,"current_range_meters":0,"station_id":"ce4bh412rcd13ifvqdr0","pricing_plan_id":"free"},{"bike_id":"24d96dcf-d1eb-4995-8bfa-13d71ac46fe7","system_id":"levelo_inurba_marseille","lat":43.283494,"lon":5.380945,"is_reserved":false,"is_disabled":false,"rental_uris":{"android":"levelo://app?vid=24d96dcf-d1eb-4995-8bfa-13d71ac46fe7","ios":"levelo://app?vid=24d96dcf-d1eb-4995-8bfa-13d71ac46fe7"},"vehicle_type_id":"4","last_reported":1706472389,"current_range_meters":24000,"station_id":"ce4bh412rcd13ifvqdr0","pricing_plan_id":"free"},{"bike_id":"13ac092f-259a-42a0-807f-f18d10392774","system_id":"levelo_inurba_marseille","lat":43.283494,"lon":5.380945,"is_reserved":false,"is_disabled":false,"rental_uris":{"android":"levelo://app?vid=13ac092f-259a-42a0-807f-f18d10392774","ios":"levelo://app?vid=13ac092f-259a-42a0-807f-f18d10392774"},"vehicle_type_id":"4","last_reported":1706472389,"current_range_meters":9200,"station_id":"ce4bh412rcd13ifvqdr0","pricing_plan_id":"free"},{"bike_id":"dd540470-f10e-4e9c-a894-79867499339f","system_id":"levelo_inurba_marseille","lat":43.283498,"lon":5.380948,"is_reserved":false,"is_disabled":false,"rental_uris":{"android":"levelo://app?vid=dd540470-f10e-4e9c-a894-79867499339f","ios":"levelo://app?vid=dd540470-f10e-4e9c-a894-79867499339f"},"vehicle_type_id":"4","last_reported":1706472389,"current_range_meters":14000,"station_id":"ce4bh412rcd13ifvqdr0","pricing_plan_id":"free"},{"bike_id":"b41bcd76-cb12-4b33-95cd-9444d1e23578","system_id":"levelo_inurba_marseille","lat":43.293556,"lon":5.401561,"is_reserved":false,"is_disabled":false,"rental_uris":{"android":"levelo://app?vid=b41bcd76-cb12-4b33-95cd-9444d1e23578","ios":"levelo://app?vid=b41bcd76-cb12-4b33-95cd-9444d1e23578"},"vehicle_type_id":"4","last_reported":1706472389,"current_range_meters":5200,"station_id":"","pricing_plan_id":"free"},{"bike_id":"73cd8cf0-bed9-43b6-a70f-c3f2d03c695c","system_id":"levelo_inurba_marseille","lat":43.289363,"lon":5.396322,"is_reserved":false,"is_disabled":false,"rental_uris":{"android":"levelo://app?vid=73cd8cf0-bed9-43b6-a70f-c3f2d03c695c","ios":"levelo://app?vid=73cd8cf0-bed9-43b6-a70f-c3f2d03c695c"},"vehicle_type_id":"4","last_reported":1706472389,"current_range_meters":23600,"station_id":"ce4bh3h2rcd13ifvqdn0","pricing_plan_id":"free"},{"bike_id":"6328d1cd-055f-4372-939a-d0684703c4a3","system_id":"levelo_inurba_marseille","lat":43.282203,"lon":5.378932,"is_reserved":false,"is_disabled":false,"rental_uris":{"android":"levelo://app?vid=6328d1cd-055f-4372-939a-d0684703c4a3","ios":"levelo://app?vid=6328d1cd-055f-4372-939a-d0684703c4a3"},"vehicle_type_id":"4","last_reported":1706472389,"current_range_meters":5200,"station_id":"","pricing_plan_id":"free"},{"bike_id":"6d191f29-0d73-4ff1-8c43-c6f61b09ce5e","system_id":"levelo_inurba_marseille","lat":43.33717,"lon":5.391857,"is_reserved":false,"is_disabled":false,"rental_uris":{"android":"levelo://app?vid=6d191f29-0d73-4ff1-8c43-c6f61b09ce5e","ios":"levelo://app?vid=6d191f29-0d73-4ff1-8c43-c6f61b09ce5e"},"vehicle_type_id":"4","last_reported":1706472389,"current_range_meters":24800,"station_id":"ce4bhr92rcd13ifvqhsg","pricing_plan_id":"free"},{"bike_id":"b74cec2a-8f9f-4efc-9e02-ccd3acbfe41e","system_id":"levelo_inurba_marseille","lat":43.292724,"lon":5.401131,"is_reserved":false,"is_disabled":false,"rental_uris":{"android":"levelo://app?vid=b74cec2a-8f9f-4efc-9e02-ccd3acbfe41e","ios":"levelo://app?vid=b74cec2a-8f9f-4efc-9e02-ccd3acbfe41e"},"vehicle_type_id":"4","last_reported":1706472389,"current_range_meters":18800,"station_id":"ce4bh312rcd13ifvqdk0","pricing_plan_id":"free"},{"bike_id":"ebc081b3-d9eb-43e8-9994-accb1a1dd961","system_id":"levelo_inurba_marseille","lat":43.282823,"lon":5.350463,"is_reserved":false,"is_disabled":false,"rental_uris":{"android":"levelo://app?vid=ebc081b3-d9eb-43e8-9994-accb1a1dd961","ios":"levelo://app?vid=ebc081b3-d9eb-43e8-9994-accb1a1dd961"},"vehicle_type_id":"4","last_reported":1706472389,"current_range_meters":16800,"station_id":"ce4bhbp2rcd13ifvqerg","pricing_plan_id":"free"},{"bike_id":"b5bdcd72-8c64-44a5-8ba1-70825ff681a4","system_id":"levelo_inurba_marseille","lat":43.283502,"lon":5.386471,"is_reserved":false,"is_disabled":false,"rental_uris":{"android":"levelo://app?vid=b5bdcd72-8c64-44a5-8ba1-70825ff681a4","ios":"levelo://app?vid=b5bdcd72-8c64-44a5-8ba1-70825ff681a4"},"vehicle_type_id":"4","last_reported":1706472389,"current_range_meters":5600,"station_id":"ce4bh492rcd13ifvqdvg","pricing_plan_id":"free"},{"bike_id":"51437d1e-1e18-4e02-9a92-d16b4071f0f2","system_id":"levelo_inurba_marseille","lat":43.282754,"lon":5.350519,"is_reserved":false,"is_disabled":false,"rental_uris":{"android":"levelo://app?vid=51437d1e-1e18-4e02-9a92-d16b4071f0f2","ios":"levelo://app?vid=51437d1e-1e18-4e02-9a92-d16b4071f0f2"},"vehicle_type_id":"4","last_reported":1706472389,"current_range_meters":0,"station_id":"ce4bhbp2rcd13ifvqerg","pricing_plan_id":"free"},{"bike_id":"4daef16f-a81e-4042-ac05-8ea3d1dc7d72","system_id":"levelo_inurba_marseille","lat":43.28039,"lon":5.369297,"is_reserved":false,"is_disabled":false,"rental_uris":{"android":"levelo://app?vid=4daef16f-a81e-4042-ac05-8ea3d1dc7d72","ios":"levelo://app?vid=4daef16f-a81e-4042-ac05-8ea3d1dc7d72"},"vehicle_type_id":"4","last_reported":1706472389,"current_range_meters":20000,"station_id":"ce4bha12rcd13ifvqef0","pricing_plan_id":"free"},{"bike_id":"80538278-5912-4b63-96f4-8985f839e7c0","system_id":"levelo_inurba_marseille","lat":43.283502,"lon":5.386471,"is_reserved":false,"is_disabled":false,"rental_uris":{"android":"levelo://app?vid=80538278-5912-4b63-96f4-8985f839e7c0","ios":"levelo://app?vid=80538278-5912-4b63-96f4-8985f839e7c0"},"vehicle_type_id":"4","last_reported":1706472389,"current_range_meters":26000,"station_id":"ce4bh492rcd13ifvqdvg","pricing_plan_id":"free"},{"bike_id":"691c7b8a-189c-4630-9d44-c5bbbb1e84e9","system_id":"levelo_inurba_marseille","lat":43.28039,"lon":5.369297,"is_reserved":false,"is_disabled":false,"rental_uris":{"android":"levelo://app?vid=691c7b8a-189c-4630-9d44-c5bbbb1e84e9","ios":"levelo://app?vid=691c7b8a-189c-4630-9d44-c5bbbb1e84e9"},"vehicle_type_id":"4","last_reported":1706472389,"current_range_meters":4800,"station_id":"ce4bha12rcd13ifvqef0","pricing_plan_id":"free"},{"bike_id":"a7963451-5119-43fa-bc11-3be522aa835c","system_id":"levelo_inurba_marseille","lat":43.28039,"lon":5.36942,"is_reserved":false,"is_disabled":false,"rental_uris":{"android":"levelo://app?vid=a7963451-5119-43fa-bc11-3be522aa835c","ios":"levelo://app?vid=a7963451-5119-43fa-bc11-3be522aa835c"},"vehicle_type_id":"4","last_reported":1706472389,"current_range_meters":0,"station_id":"ce4bha12rcd13ifvqef0","pricing_plan_id":"free"},{"bike_id":"bf9ed574-e30d-4a10-8da6-63d6e69cd454","system_id":"levelo_inurba_marseille","lat":43.28039,"lon":5.369297,"is_reserved":false,"is_disabled":false,"rental_uris":{"android":"levelo://app?vid=bf9ed574-e30d-4a10-8da6-63d6e69cd454","ios":"levelo://app?vid=bf9ed574-e30d-4a10-8da6-63d6e69cd454"},"vehicle_type_id":"4","last_reported":1706472389,"current_range_meters":23600,"station_id":"ce4bha12rcd13ifvqef0","pricing_plan_id":"free"},{"bike_id":"2d863ebb-b666-44e7-9155-d60af5b5d4c7","system_id":"levelo_inurba_marseille","lat":43.280382,"lon":5.369291,"is_reserved":false,"is_disabled":false,"rental_uris":{"android":"levelo://app?vid=2d863ebb-b666-44e7-9155-d60af5b5d4c7","ios":"levelo://app?vid=2d863ebb-b666-44e7-9155-d60af5b5d4c7"},"vehicle_type_id":"4","last_reported":1706472389,"current_range_meters":8400,"station_id":"ce4bha12rcd13ifvqef0","pricing_plan_id":"free"},{"bike_id":"98604585-bbfd-41ba-b0ae-a40e8deb6c00","system_id":"levelo_inurba_marseille","lat":43.290412,"lon":5.399633,"is_reserved":false,"is_disabled":false,"rental_uris":{"android":"levelo://app?vid=98604585-bbfd-41ba-b0ae-a40e8deb6c00","ios":"levelo://app?vid=98604585-bbfd-41ba-b0ae-a40e8deb6c00"},"vehicle_type_id":"4","last_reported":1706472389,"current_range_meters":6000,"station_id":"ce4bh392rcd13ifvqdm0","pricing_plan_id":"free"},{"bike_id":"3b89860e-cf5c-4873-9117-bc1aba8268e7","system_id":"levelo_inurba_marseille","lat":43.290412,"lon":5.399633,"is_reserved":false,"is_disabled":false,"rental_uris":{"android":"levelo://app?vid=3b89860e-cf5c-4873-9117-bc1aba8268e7","ios":"levelo://app?vid=3b89860e-cf5c-4873-9117-bc1aba8268e7"},"vehicle_type_id":"4","last_reported":1706472389,"current_range_meters":5200,"station_id":"ce4bh392rcd13ifvqdm0","pricing_plan_id":"free"},{"bike_id":"3deb0238-d67a-4e2a-9fc0-e02c13638bb3","system_id":"levelo_inurba_marseille","lat":43.281044,"lon":5.378308,"is_reserved":false,"is_disabled":false,"rental_uris":{"android":"levelo://app?vid=3deb0238-d67a-4e2a-9fc0-e02c13638bb3","ios":"levelo://app?vid=3deb0238-d67a-4e2a-9fc0-e02c13638bb3"},"vehicle_type_id":"4","last_reported":1706472389,"current_range_meters":17200,"station_id":"ce4bha12rcd13ifvqee0","pricing_plan_id":"free"},{"bike_id":"15e1bd66-ab98-423e-9c25-75b4378a8677","system_id":"levelo_inurba_marseille","lat":43.281044,"lon":5.378308,"is_reserved":false,"is_disabled":false,"rental_uris":{"android":"levelo://app?vid=15e1bd66-ab98-423e-9c25-75b4378a8677","ios":"levelo://app?vid=15e1bd66-ab98-423e-9c25-75b4378a8677"},"vehicle_type_id":"4","last_reported":1706472389,"current_range_meters":21200,"station_id":"ce4bha12rcd13ifvqee0","pricing_plan_id":"free"},{"bike_id":"ab3db00c-e8f9-47b9-a334-9ae608f7ecb5","system_id":"levelo_inurba_marseille","lat":43.284462,"lon":5.392121,"is_reserved":false,"is_disabled":false,"rental_uris":{"android":"levelo://app?vid=ab3db00c-e8f9-47b9-a334-9ae608f7ecb5","ios":"levelo://app?vid=ab3db00c-e8f9-47b9-a334-9ae608f7ecb5"},"vehicle_type_id":"4","last_reported":1706472389,"current_range_meters":27600,"station_id":"ce4bhoh2rcd13ifvqh5g","pricing_plan_id":"free"},{"bike_id":"13e8d3dc-27c8-4c6a-b6e9-ce88c6250eac","system_id":"levelo_inurba_marseille","lat":43.284462,"lon":5.392121,"is_reserved":false,"is_disabled":false,"rental_uris":{"android":"levelo://app?vid=13e8d3dc-27c8-4c6a-b6e9-ce88c6250eac","ios":"levelo://app?vid=13e8d3dc-27c8-4c6a-b6e9-ce88c6250eac"},"vehicle_type_id":"4","last_reported":1706472389,"current_range_meters":12400,"station_id":"ce4bhoh2rcd13ifvqh5g","pricing_plan_id":"free"},{"bike_id":"e7746dc2-aa23-4e9f-a773-c6b300fb73a4","system_id":"levelo_inurba_marseille","lat":43.284462,"lon":5.392121,"is_reserved":false,"is_disabled":false,"rental_uris":{"android":"levelo://app?vid=e7746dc2-aa23-4e9f-a773-c6b300fb73a4","ios":"levelo://app?vid=e7746dc2-aa23-4e9f-a773-c6b300fb73a4"},"vehicle_type_id":"4","last_reported":1706472389,"current_range_meters":0,"station_id":"ce4bhoh2rcd13ifvqh5g","pricing_plan_id":"free"},{"bike_id":"58795cb8-9f55-4c41-8cbf-c945205fb07f","system_id":"levelo_inurba_marseille","lat":43.285742,"lon":5.395004,"is_reserved":false,"is_disabled":false,"rental_uris":{"android":"levelo://app?vid=58795cb8-9f55-4c41-8cbf-c945205fb07f","ios":"levelo://app?vid=58795cb8-9f55-4c41-8cbf-c945205fb07f"},"vehicle_type_id":"4","last_reported":1706472389,"current_range_meters":16000,"station_id":"ce4bh292rcd13ifvqdg0","pricing_plan_id":"free"},{"bike_id":"86840ee3-57bd-4a50-a219-2eb64479c971","system_id":"levelo_inurba_marseille","lat":43.28573,"lon":5.394992,"is_reserved":false,"is_disabled":false,"rental_uris":{"android":"levelo://app?vid=86840ee3-57bd-4a50-a219-2eb64479c971","ios":"levelo://app?vid=86840ee3-57bd-4a50-a219-2eb64479c971"},"vehicle_type_id":"4","last_reported":1706472389,"current_range_meters":6400,"station_id":"ce4bh292rcd13ifvqdg0","pricing_plan_id":"free"},{"bike_id":"80966bfb-0318-4e4b-899c-2c9acb98d16b","system_id":"levelo_inurba_marseille","lat":43.28573,"lon":5.394992,"is_reserved":false,"is_disabled":false,"rental_uris":{"android":"levelo://app?vid=80966bfb-0318-4e4b-899c-2c9acb98d16b","ios":"levelo://app?vid=80966bfb-0318-4e4b-899c-2c9acb98d16b"},"vehicle_type_id":"4","last_reported":1706472389,"current_range_meters":26000,"station_id":"ce4bh292rcd13ifvqdg0","pricing_plan_id":"free"},{"bike_id":"ce359fb6-e3d5-45fc-9e26-757bf9375f27","system_id":"levelo_inurba_marseille","lat":43.326605,"lon":5.409903,"is_reserved":false,"is_disabled":false,"rental_uris":{"android":"levelo://app?vid=ce359fb6-e3d5-45fc-9e26-757bf9375f27","ios":"levelo://app?vid=ce359fb6-e3d5-45fc-9e26-757bf9375f27"},"vehicle_type_id":"4","last_reported":1706472389,"current_range_meters":19200,"station_id":"ce4bhpp2rcd13ifvqhgg","pricing_plan_id":"free"},{"bike_id":"490774a6-4917-468e-ac2f-aabcb381f604","system_id":"levelo_inurba_marseille","lat":43.326605,"lon":5.409903,"is_reserved":false,"is_disabled":false,"rental_uris":{"android":"levelo://app?vid=490774a6-4917-468e-ac2f-aabcb381f604","ios":"levelo://app?vid=490774a6-4917-468e-ac2f-aabcb381f604"},"vehicle_type_id":"4","last_reported":1706472389,"current_range_meters":27200,"station_id":"ce4bhpp2rcd13ifvqhgg","pricing_plan_id":"free"},{"bike_id":"1ef7e5cd-4a9d-40ba-94a2-53d89c749181","system_id":"levelo_inurba_marseille","lat":43.326605,"lon":5.409903,"is_reserved":false,"is_disabled":false,"rental_uris":{"android":"levelo://app?vid=1ef7e5cd-4a9d-40ba-94a2-53d89c749181","ios":"levelo://app?vid=1ef7e5cd-4a9d-40ba-94a2-53d89c749181"},"vehicle_type_id":"4","last_reported":1706472389,"current_range_meters":16800,"station_id":"ce4bhpp2rcd13ifvqhgg","pricing_plan_id":"free"},{"bike_id":"0f971977-9655-49b4-8fff-90052b735471","system_id":"levelo_inurba_marseille","lat":43.279087,"lon":5.380114,"is_reserved":false,"is_disabled":false,"rental_uris":{"android":"levelo://app?vid=0f971977-9655-49b4-8fff-90052b735471","ios":"levelo://app?vid=0f971977-9655-49b4-8fff-90052b735471"},"vehicle_type_id":"4","last_reported":1706472389,"current_range_meters":12000,"station_id":"ce4bhf92rcd13ifvqf50","pricing_plan_id":"free"},{"bike_id":"7604bed5-4bb4-430a-8585-8a987d14ddaa","system_id":"levelo_inurba_marseille","lat":43.287154,"lon":5.399979,"is_reserved":false,"is_disabled":false,"rental_uris":{"android":"levelo://app?vid=7604bed5-4bb4-430a-8585-8a987d14ddaa","ios":"levelo://app?vid=7604bed5-4bb4-430a-8585-8a987d14ddaa"},"vehicle_type_id":"4","last_reported":1706472389,"current_range_meters":0,"station_id":"ce4bho92rcd13ifvqh3g","pricing_plan_id":"free"},{"bike_id":"95bc093d-037b-418c-8ca9-49bf21875fc5","system_id":"levelo_inurba_marseille","lat":43.287154,"lon":5.399979,"is_reserved":false,"is_disabled":false,"rental_uris":{"android":"levelo://app?vid=95bc093d-037b-418c-8ca9-49bf21875fc5","ios":"levelo://app?vid=95bc093d-037b-418c-8ca9-49bf21875fc5"},"vehicle_type_id":"4","last_reported":1706472389,"current_range_meters":0,"station_id":"ce4bho92rcd13ifvqh3g","pricing_plan_id":"free"},{"bike_id":"a539d426-9e55-4e9c-b7bf-13cd28eecf36","system_id":"levelo_inurba_marseille","lat":43.27819,"lon":5.35483,"is_reserved":false,"is_disabled":false,"rental_uris":{"android":"levelo://app?vid=a539d426-9e55-4e9c-b7bf-13cd28eecf36","ios":"levelo://app?vid=a539d426-9e55-4e9c-b7bf-13cd28eecf36"},"vehicle_type_id":"4","last_reported":1706472389,"current_range_meters":7200,"station_id":"","pricing_plan_id":"free"},{"bike_id":"80590a34-e033-401c-8923-6331a24456bc","system_id":"levelo_inurba_marseille","lat":43.320045,"lon":5.415046,"is_reserved":false,"is_disabled":false,"rental_uris":{"android":"levelo://app?vid=80590a34-e033-401c-8923-6331a24456bc","ios":"levelo://app?vid=80590a34-e033-401c-8923-6331a24456bc"},"vehicle_type_id":"4","last_reported":1706472389,"current_range_meters":800,"station_id":"ce4bhq92rcd13ifvqhkg","pricing_plan_id":"free"},{"bike_id":"c5fca43b-ee00-4f15-aa66-c65cd5012a0e","system_id":"levelo_inurba_marseille","lat":43.320045,"lon":5.415046,"is_reserved":false,"is_disabled":false,"rental_uris":{"android":"levelo://app?vid=c5fca43b-ee00-4f15-aa66-c65cd5012a0e","ios":"levelo://app?vid=c5fca43b-ee00-4f15-aa66-c65cd5012a0e"},"vehicle_type_id":"4","last_reported":1706472389,"current_range_meters":25600,"station_id":"ce4bhq92rcd13ifvqhkg","pricing_plan_id":"free"},{"bike_id":"b5a96402-6639-4b94-b58e-3616ab7710c3","system_id":"levelo_inurba_marseille","lat":43.279742,"lon":5.38744,"is_reserved":false,"is_disabled":false,"rental_uris":{"android":"levelo://app?vid=b5a96402-6639-4b94-b58e-3616ab7710c3","ios":"levelo://app?vid=b5a96402-6639-4b94-b58e-3616ab7710c3"},"vehicle_type_id":"4","last_reported":1706472389,"current_range_meters":24000,"station_id":"ce4bhg12rcd13ifvqf80","pricing_plan_id":"free"},{"bike_id":"2d65d888-1718-45bd-acd9-e594471f8e29","system_id":"levelo_inurba_marseille","lat":43.279742,"lon":5.38744,"is_reserved":false,"is_disabled":false,"rental_uris":{"android":"levelo://app?vid=2d65d888-1718-45bd-acd9-e594471f8e29","ios":"levelo://app?vid=2d65d888-1718-45bd-acd9-e594471f8e29"},"vehicle_type_id":"4","last_reported":1706472389,"current_range_meters":10000,"station_id":"ce4bhg12rcd13ifvqf80","pricing_plan_id":"free"},{"bike_id":"0abc37af-af73-40f3-b304-9fc02323df0a","system_id":"levelo_inurba_marseille","lat":43.27959,"lon":5.3872,"is_reserved":false,"is_disabled":false,"rental_uris":{"android":"levelo://app?vid=0abc37af-af73-40f3-b304-9fc02323df0a","ios":"levelo://app?vid=0abc37af-af73-40f3-b304-9fc02323df0a"},"vehicle_type_id":"4","last_reported":1706472389,"current_range_meters":2800,"station_id":"ce4bhg12rcd13ifvqf80","pricing_plan_id":"free"},{"bike_id":"ceeeca69-91c9-4a0b-a5e2-b2ad06427d0c","system_id":"levelo_inurba_marseille","lat":43.279742,"lon":5.38744,"is_reserved":false,"is_disabled":false,"rental_uris":{"android":"levelo://app?vid=ceeeca69-91c9-4a0b-a5e2-b2ad06427d0c","ios":"levelo://app?vid=ceeeca69-91c9-4a0b-a5e2-b2ad06427d0c"},"vehicle_type_id":"4","last_reported":1706472389,"current_range_meters":8400,"station_id":"ce4bhg12rcd13ifvqf80","pricing_plan_id":"free"},{"bike_id":"80fcbb00-f8e9-4fbe-9014-8413c7de3626","system_id":"levelo_inurba_marseille","lat":43.27955,"lon":5.38718,"is_reserved":false,"is_disabled":false,"rental_uris":{"android":"levelo://app?vid=80fcbb00-f8e9-4fbe-9014-8413c7de3626","ios":"levelo://app?vid=80fcbb00-f8e9-4fbe-9014-8413c7de3626"},"vehicle_type_id":"4","last_reported":1706472389,"current_range_meters":2400,"station_id":"ce4bhg12rcd13ifvqf80","pricing_plan_id":"free"},{"bike_id":"a0bd25c2-322c-4a84-b75b-cd0de32a6a68","system_id":"levelo_inurba_marseille","lat":43.292569,"lon":5.409107,"is_reserved":false,"is_disabled":false,"rental_uris":{"android":"levelo://app?vid=a0bd25c2-322c-4a84-b75b-cd0de32a6a68","ios":"levelo://app?vid=a0bd25c2-322c-4a84-b75b-cd0de32a6a68"},"vehicle_type_id":"4","last_reported":1706472389,"current_range_meters":5600,"station_id":"ce4bh192rcd13ifvqdc0","pricing_plan_id":"free"},{"bike_id":"2dbeabfb-1a62-4ec5-9de2-64d668fb16ba","system_id":"levelo_inurba_marseille","lat":43.292569,"lon":5.409107,"is_reserved":false,"is_disabled":false,"rental_uris":{"android":"levelo://app?vid=2dbeabfb-1a62-4ec5-9de2-64d668fb16ba","ios":"levelo://app?vid=2dbeabfb-1a62-4ec5-9de2-64d668fb16ba"},