{"last_updated":1774245776,"ttl":60,"version":"2.2","data":{"bikes":[{"bike_id":"c8c321da-15c1-441b-b145-282a583704eb","system_id":"levelo_inurba_marseille","lat":43.21741,"lon":5.34624,"is_reserved":false,"is_disabled":true,"rental_uris":{"android":"levelo://app?vid=c8c321da-15c1-441b-b145-282a583704eb","ios":"levelo://app?vid=c8c321da-15c1-441b-b145-282a583704eb"},"vehicle_type_id":"4","last_reported":1774245776,"current_range_meters":2800,"station_id":"st_cvj6r9ubvosntc0bgbag","pricing_plan_id":"cebpf4jnsgd1na2vs0mg"},{"bike_id":"7f081f0b-1169-4c11-aaa1-1b3e61d674cb","system_id":"levelo_inurba_marseille","lat":43.25753,"lon":5.37647,"is_reserved":false,"is_disabled":false,"rental_uris":{"android":"levelo://app?vid=7f081f0b-1169-4c11-aaa1-1b3e61d674cb","ios":"levelo://app?vid=7f081f0b-1169-4c11-aaa1-1b3e61d674cb"},"vehicle_type_id":"4","last_reported":1774245776,"current_range_meters":2800,"station_id":"","pricing_plan_id":"cebpf4jnsgd1na2vs0mg"},{"bike_id":"cc309f1e-978a-4d34-98ee-72ad9c145942","system_id":"levelo_inurba_marseille","lat":43.28518,"lon":5.48322,"is_reserved":false,"is_disabled":false,"rental_uris":{"android":"levelo://app?vid=cc309f1e-978a-4d34-98ee-72ad9c145942","ios":"levelo://app?vid=cc309f1e-978a-4d34-98ee-72ad9c145942"},"vehicle_type_id":"4","last_reported":1774245776,"current_range_meters":2800,"station_id":"","pricing_plan_id":"cebpf4jnsgd1na2vs0mg"},{"bike_id":"6ac815da-7ae2-4976-a532-b3bd5778b1e6","system_id":"levelo_inurba_marseille","lat":43.28174,"lon":5.42808,"is_reserved":false,"is_disabled":false,"rental_uris":{"android":"levelo://app?vid=6ac815da-7ae2-4976-a532-b3bd5778b1e6","ios":"levelo://app?vid=6ac815da-7ae2-4976-a532-b3bd5778b1e6"},"vehicle_type_id":"4","last_reported":1774245776,"current_range_meters":2800,"station_id":"","pricing_plan_id":"cebpf4jnsgd1na2vs0mg"},{"bike_id":"3a25bacb-66e0-4c34-9df5-2922a72404f9","system_id":"levelo_inurba_marseille","lat":43.30126,"lon":5.43906,"is_reserved":false,"is_disabled":false,"rental_uris":{"android":"levelo://app?vid=3a25bacb-66e0-4c34-9df5-2922a72404f9","ios":"levelo://app?vid=3a25bacb-66e0-4c34-9df5-2922a72404f9"},"vehicle_type_id":"4","last_reported":1774245776,"current_range_meters":2800,"station_id":"","pricing_plan_id":"cebpf4jnsgd1na2vs0mg"},{"bike_id":"19f77db5-ab10-4714-9cd7-53f80a67133e","system_id":"levelo_inurba_marseille","lat":43.30952,"lon":5.43886,"is_reserved":false,"is_disabled":false,"rental_uris":{"android":"levelo://app?vid=19f77db5-ab10-4714-9cd7-53f80a67133e","ios":"levelo://app?vid=19f77db5-ab10-4714-9cd7-53f80a67133e"},"vehicle_type_id":"4","last_reported":1774245776,"current_range_meters":3200,"station_id":"","pricing_plan_id":"cebpf4jnsgd1na2vs0mg"},{"bike_id":"a68c2708-04ba-4f11-a672-c1b5022e3b7f","system_id":"levelo_inurba_marseille","lat":43.29215,"lon":5.38449,"is_reserved":false,"is_disabled":true,"rental_uris":{"android":"levelo://app?vid=a68c2708-04ba-4f11-a672-c1b5022e3b7f","ios":"levelo://app?vid=a68c2708-04ba-4f11-a672-c1b5022e3b7f"},"vehicle_type_id":"4","last_reported":1774245776,"current_range_meters":3200,"station_id":"ce4bh692rcd13ifvqea0","pricing_plan_id":"cebpf4jnsgd1na2vs0mg"},{"bike_id":"5487f2c1-c4a8-4daf-8490-88d7b84744cf","system_id":"levelo_inurba_marseille","lat":43.30302,"lon":5.36914,"is_reserved":false,"is_disabled":false,"rental_uris":{"android":"levelo://app?vid=5487f2c1-c4a8-4daf-8490-88d7b84744cf","ios":"levelo://app?vid=5487f2c1-c4a8-4daf-8490-88d7b84744cf"},"vehicle_type_id":"4","last_reported":1774245776,"current_range_meters":3200,"station_id":"ce4bgqh2rcd13ifvqc5g","pricing_plan_id":"cebpf4jnsgd1na2vs0mg"},{"bike_id":"975112fe-9a0d-481e-8e72-df91f1be0313","system_id":"levelo_inurba_marseille","lat":43.26371,"lon":5.41076,"is_reserved":false,"is_disabled":false,"rental_uris":{"android":"levelo://app?vid=975112fe-9a0d-481e-8e72-df91f1be0313","ios":"levelo://app?vid=975112fe-9a0d-481e-8e72-df91f1be0313"},"vehicle_type_id":"4","last_reported":1774245776,"current_range_meters":3200,"station_id":"st_d4e5ca6na9uc73bfl5fg","pricing_plan_id":"cebpf4jnsgd1na2vs0mg"},{"bike_id":"e2a87623-fb6b-42b8-a979-97aca61395c3","system_id":"levelo_inurba_marseille","lat":43.24172,"lon":5.3972,"is_reserved":false,"is_disabled":true,"rental_uris":{"android":"levelo://app?vid=e2a87623-fb6b-42b8-a979-97aca61395c3","ios":"levelo://app?vid=e2a87623-fb6b-42b8-a979-97aca61395c3"},"vehicle_type_id":"4","last_reported":1774245776,"current_range_meters":3600,"station_id":"ce4bhn12rcd13ifvqgpg","pricing_plan_id":"cebpf4jnsgd1na2vs0mg"},{"bike_id":"d18f3a0e-8f3c-43b0-884b-89e34c61aa43","system_id":"levelo_inurba_marseille","lat":43.29895,"lon":5.43687,"is_reserved":false,"is_disabled":false,"rental_uris":{"android":"levelo://app?vid=d18f3a0e-8f3c-43b0-884b-89e34c61aa43","ios":"levelo://app?vid=d18f3a0e-8f3c-43b0-884b-89e34c61aa43"},"vehicle_type_id":"4","last_reported":1774245776,"current_range_meters":3600,"station_id":"ce4bhpp2rcd13ifvqhfg","pricing_plan_id":"cebpf4jnsgd1na2vs0mg"},{"bike_id":"9ac19f5a-2d91-49e2-9865-15d7ab4a9b38","system_id":"levelo_inurba_marseille","lat":43.23132,"lon":5.4374,"is_reserved":false,"is_disabled":false,"rental_uris":{"android":"levelo://app?vid=9ac19f5a-2d91-49e2-9865-15d7ab4a9b38","ios":"levelo://app?vid=9ac19f5a-2d91-49e2-9865-15d7ab4a9b38"},"vehicle_type_id":"4","last_reported":1774245776,"current_range_meters":3600,"station_id":"ce4bhmp2rcd13ifvqgog","pricing_plan_id":"cebpf4jnsgd1na2vs0mg"},{"bike_id":"b84ed3d3-a1f2-4779-83a4-243d3e771c5d","system_id":"levelo_inurba_marseille","lat":43.28489,"lon":5.48391,"is_reserved":false,"is_disabled":false,"rental_uris":{"android":"levelo://app?vid=b84ed3d3-a1f2-4779-83a4-243d3e771c5d","ios":"levelo://app?vid=b84ed3d3-a1f2-4779-83a4-243d3e771c5d"},"vehicle_type_id":"4","last_reported":1774245776,"current_range_meters":3600,"station_id":"","pricing_plan_id":"cebpf4jnsgd1na2vs0mg"},{"bike_id":"2a95faca-d187-48cc-aa2a-ac67863a9ade","system_id":"levelo_inurba_marseille","lat":43.32078,"lon":5.36812,"is_reserved":false,"is_disabled":false,"rental_uris":{"android":"levelo://app?vid=2a95faca-d187-48cc-aa2a-ac67863a9ade","ios":"levelo://app?vid=2a95faca-d187-48cc-aa2a-ac67863a9ade"},"vehicle_type_id":"4","last_reported":1774245776,"current_range_meters":3600,"station_id":"ce4bhrh2rcd13ifvqhug","pricing_plan_id":"cebpf4jnsgd1na2vs0mg"},{"bike_id":"ffc5c7ba-ab5f-488e-bc40-7fd99b8834be","system_id":"levelo_inurba_marseille","lat":43.29974,"lon":5.43681,"is_reserved":false,"is_disabled":false,"rental_uris":{"android":"levelo://app?vid=ffc5c7ba-ab5f-488e-bc40-7fd99b8834be","ios":"levelo://app?vid=ffc5c7ba-ab5f-488e-bc40-7fd99b8834be"},"vehicle_type_id":"4","last_reported":1774245776,"current_range_meters":3600,"station_id":"ce4bhpp2rcd13ifvqhfg","pricing_plan_id":"cebpf4jnsgd1na2vs0mg"},{"bike_id":"de3dcc02-4d12-4fdd-948a-2e50c2dea7bc","system_id":"levelo_inurba_marseille","lat":43.2986,"lon":5.39737,"is_reserved":false,"is_disabled":false,"rental_uris":{"android":"levelo://app?vid=de3dcc02-4d12-4fdd-948a-2e50c2dea7bc","ios":"levelo://app?vid=de3dcc02-4d12-4fdd-948a-2e50c2dea7bc"},"vehicle_type_id":"4","last_reported":1774245776,"current_range_meters":4000,"station_id":"ce4bh0h2rcd13ifvqd50","pricing_plan_id":"cebpf4jnsgd1na2vs0mg"},{"bike_id":"0fbe98ad-bf1d-442d-a8dc-3c2d6a447e24","system_id":"levelo_inurba_marseille","lat":43.28407,"lon":5.37515,"is_reserved":false,"is_disabled":false,"rental_uris":{"android":"levelo://app?vid=0fbe98ad-bf1d-442d-a8dc-3c2d6a447e24","ios":"levelo://app?vid=0fbe98ad-bf1d-442d-a8dc-3c2d6a447e24"},"vehicle_type_id":"4","last_reported":1774245776,"current_range_meters":4000,"station_id":"ce4bh412rcd13ifvqds0","pricing_plan_id":"cebpf4jnsgd1na2vs0mg"},{"bike_id":"a2c716b5-5ea8-433a-a645-09c193dba0e7","system_id":"levelo_inurba_marseille","lat":43.27374,"lon":5.36246,"is_reserved":false,"is_disabled":true,"rental_uris":{"android":"levelo://app?vid=a2c716b5-5ea8-433a-a645-09c193dba0e7","ios":"levelo://app?vid=a2c716b5-5ea8-433a-a645-09c193dba0e7"},"vehicle_type_id":"4","last_reported":1774245776,"current_range_meters":4000,"station_id":"ce4bhbh2rcd13ifvqeo0","pricing_plan_id":"cebpf4jnsgd1na2vs0mg"},{"bike_id":"51f131c4-ef31-4b4b-8c65-e146531127bd","system_id":"levelo_inurba_marseille","lat":43.22923,"lon":5.35384,"is_reserved":false,"is_disabled":false,"rental_uris":{"android":"levelo://app?vid=51f131c4-ef31-4b4b-8c65-e146531127bd","ios":"levelo://app?vid=51f131c4-ef31-4b4b-8c65-e146531127bd"},"vehicle_type_id":"4","last_reported":1774245776,"current_range_meters":4000,"station_id":"cpo3532slgdg3j2ikp40","pricing_plan_id":"cebpf4jnsgd1na2vs0mg"},{"bike_id":"f4f2a339-91b9-499e-a31b-8b86eff7efc9","system_id":"levelo_inurba_marseille","lat":43.23896,"lon":5.37471,"is_reserved":false,"is_disabled":false,"rental_uris":{"android":"levelo://app?vid=f4f2a339-91b9-499e-a31b-8b86eff7efc9","ios":"levelo://app?vid=f4f2a339-91b9-499e-a31b-8b86eff7efc9"},"vehicle_type_id":"4","last_reported":1774245776,"current_range_meters":4000,"station_id":"st_d6sm7csbq4hs73f8fpjg","pricing_plan_id":"cebpf4jnsgd1na2vs0mg"},{"bike_id":"4a08ea02-f339-41b8-9d8b-5268c800245e","system_id":"levelo_inurba_marseille","lat":43.24139,"lon":5.36844,"is_reserved":false,"is_disabled":false,"rental_uris":{"android":"levelo://app?vid=4a08ea02-f339-41b8-9d8b-5268c800245e","ios":"levelo://app?vid=4a08ea02-f339-41b8-9d8b-5268c800245e"},"vehicle_type_id":"4","last_reported":1774245776,"current_range_meters":4000,"station_id":"","pricing_plan_id":"cebpf4jnsgd1na2vs0mg"},{"bike_id":"6c012d9f-7148-4e7c-9d03-ef4872115150","system_id":"levelo_inurba_marseille","lat":43.32587,"lon":5.37498,"is_reserved":false,"is_disabled":false,"rental_uris":{"android":"levelo://app?vid=6c012d9f-7148-4e7c-9d03-ef4872115150","ios":"levelo://app?vid=6c012d9f-7148-4e7c-9d03-ef4872115150"},"vehicle_type_id":"4","last_reported":1774245776,"current_range_meters":4000,"station_id":"","pricing_plan_id":"cebpf4jnsgd1na2vs0mg"},{"bike_id":"9fe250c2-5255-4b78-9351-e828815bc85d","system_id":"levelo_inurba_marseille","lat":43.21786,"lon":5.34623,"is_reserved":false,"is_disabled":true,"rental_uris":{"android":"levelo://app?vid=9fe250c2-5255-4b78-9351-e828815bc85d","ios":"levelo://app?vid=9fe250c2-5255-4b78-9351-e828815bc85d"},"vehicle_type_id":"4","last_reported":1774245776,"current_range_meters":4000,"station_id":"","pricing_plan_id":"cebpf4jnsgd1na2vs0mg"},{"bike_id":"b74ca8d1-73b5-4326-86f3-ca099f3d3c7c","system_id":"levelo_inurba_marseille","lat":43.25551,"lon":5.38228,"is_reserved":false,"is_disabled":false,"rental_uris":{"android":"levelo://app?vid=b74ca8d1-73b5-4326-86f3-ca099f3d3c7c","ios":"levelo://app?vid=b74ca8d1-73b5-4326-86f3-ca099f3d3c7c"},"vehicle_type_id":"4","last_reported":1774245776,"current_range_meters":4000,"station_id":"ce4bhih2rcd13ifvqfs0","pricing_plan_id":"cebpf4jnsgd1na2vs0mg"},{"bike_id":"cf01fbf8-0c00-4163-bbb7-b4223f151485","system_id":"levelo_inurba_marseille","lat":43.30732,"lon":5.42437,"is_reserved":false,"is_disabled":false,"rental_uris":{"android":"levelo://app?vid=cf01fbf8-0c00-4163-bbb7-b4223f151485","ios":"levelo://app?vid=cf01fbf8-0c00-4163-bbb7-b4223f151485"},"vehicle_type_id":"4","last_reported":1774245776,"current_range_meters":4400,"station_id":"st_cvj6ca6bvosntc0bfgr0","pricing_plan_id":"cebpf4jnsgd1na2vs0mg"},{"bike_id":"05cba970-79c4-41f6-b1cb-52e36f228958","system_id":"levelo_inurba_marseille","lat":43.24186,"lon":5.36378,"is_reserved":false,"is_disabled":false,"rental_uris":{"android":"levelo://app?vid=05cba970-79c4-41f6-b1cb-52e36f228958","ios":"levelo://app?vid=05cba970-79c4-41f6-b1cb-52e36f228958"},"vehicle_type_id":"4","last_reported":1774245776,"current_range_meters":4400,"station_id":"cpo36qri1sfpv3e86is0","pricing_plan_id":"cebpf4jnsgd1na2vs0mg"},{"bike_id":"b4391a28-ef69-456a-9daf-3a357aac299d","system_id":"levelo_inurba_marseille","lat":43.27967,"lon":5.41019,"is_reserved":false,"is_disabled":false,"rental_uris":{"android":"levelo://app?vid=b4391a28-ef69-456a-9daf-3a357aac299d","ios":"levelo://app?vid=b4391a28-ef69-456a-9daf-3a357aac299d"},"vehicle_type_id":"4","last_reported":1774245776,"current_range_meters":4400,"station_id":"ce4bhnp2rcd13ifvqh0g","pricing_plan_id":"cebpf4jnsgd1na2vs0mg"},{"bike_id":"a8ee38d5-eaab-44a4-bc38-5f4e3b44c9af","system_id":"levelo_inurba_marseille","lat":43.31528,"lon":5.38038,"is_reserved":false,"is_disabled":false,"rental_uris":{"android":"levelo://app?vid=a8ee38d5-eaab-44a4-bc38-5f4e3b44c9af","ios":"levelo://app?vid=a8ee38d5-eaab-44a4-bc38-5f4e3b44c9af"},"vehicle_type_id":"4","last_reported":1774245776,"current_range_meters":4400,"station_id":"ce4bhsp2rcd13ifvqi50","pricing_plan_id":"cebpf4jnsgd1na2vs0mg"},{"bike_id":"778b596d-e8db-47bc-a930-78084f735712","system_id":"levelo_inurba_marseille","lat":43.2501,"lon":5.38915,"is_reserved":false,"is_disabled":true,"rental_uris":{"android":"levelo://app?vid=778b596d-e8db-47bc-a930-78084f735712","ios":"levelo://app?vid=778b596d-e8db-47bc-a930-78084f735712"},"vehicle_type_id":"4","last_reported":1774245776,"current_range_meters":4400,"station_id":"ce4bhgp2rcd13ifvqfd0","pricing_plan_id":"cebpf4jnsgd1na2vs0mg"},{"bike_id":"be3c7827-08af-4504-95ed-25f44c48fdc4","system_id":"levelo_inurba_marseille","lat":43.25582,"lon":5.3822,"is_reserved":false,"is_disabled":false,"rental_uris":{"android":"levelo://app?vid=be3c7827-08af-4504-95ed-25f44c48fdc4","ios":"levelo://app?vid=be3c7827-08af-4504-95ed-25f44c48fdc4"},"vehicle_type_id":"4","last_reported":1774245776,"current_range_meters":4400,"station_id":"ce4bhih2rcd13ifvqfs0","pricing_plan_id":"cebpf4jnsgd1na2vs0mg"},{"bike_id":"deb4d43c-e639-4f91-a09a-8f7ec3cc3424","system_id":"levelo_inurba_marseille","lat":43.31977,"lon":5.36892,"is_reserved":false,"is_disabled":false,"rental_uris":{"android":"levelo://app?vid=deb4d43c-e639-4f91-a09a-8f7ec3cc3424","ios":"levelo://app?vid=deb4d43c-e639-4f91-a09a-8f7ec3cc3424"},"vehicle_type_id":"4","last_reported":1774245776,"current_range_meters":4400,"station_id":"ce4bhrh2rcd13ifvqhug","pricing_plan_id":"cebpf4jnsgd1na2vs0mg"},{"bike_id":"65aa3f3e-d675-412f-a59b-95f06f689a2a","system_id":"levelo_inurba_marseille","lat":43.29811,"lon":5.37004,"is_reserved":false,"is_disabled":false,"rental_uris":{"android":"levelo://app?vid=65aa3f3e-d675-412f-a59b-95f06f689a2a","ios":"levelo://app?vid=65aa3f3e-d675-412f-a59b-95f06f689a2a"},"vehicle_type_id":"4","last_reported":1774245776,"current_range_meters":4800,"station_id":"","pricing_plan_id":"cebpf4jnsgd1na2vs0mg"},{"bike_id":"895b6d9a-f6b2-4744-8c30-184547b1b37e","system_id":"levelo_inurba_marseille","lat":43.28147,"lon":5.4263,"is_reserved":false,"is_disabled":false,"rental_uris":{"android":"levelo://app?vid=895b6d9a-f6b2-4744-8c30-184547b1b37e","ios":"levelo://app?vid=895b6d9a-f6b2-4744-8c30-184547b1b37e"},"vehicle_type_id":"4","last_reported":1774245776,"current_range_meters":4800,"station_id":"ce4bhnh2rcd13ifvqgug","pricing_plan_id":"cebpf4jnsgd1na2vs0mg"},{"bike_id":"736dd96d-0851-4f76-a815-31b8dba43188","system_id":"levelo_inurba_marseille","lat":43.31499,"lon":5.37266,"is_reserved":false,"is_disabled":false,"rental_uris":{"android":"levelo://app?vid=736dd96d-0851-4f76-a815-31b8dba43188","ios":"levelo://app?vid=736dd96d-0851-4f76-a815-31b8dba43188"},"vehicle_type_id":"4","last_reported":1774245776,"current_range_meters":4800,"station_id":"ce4bgt12rcd13ifvqcd0","pricing_plan_id":"cebpf4jnsgd1na2vs0mg"},{"bike_id":"1bc9b99c-e328-46fe-8e83-31d5610c02f4","system_id":"levelo_inurba_marseille","lat":43.30907,"lon":5.36834,"is_reserved":false,"is_disabled":false,"rental_uris":{"android":"levelo://app?vid=1bc9b99c-e328-46fe-8e83-31d5610c02f4","ios":"levelo://app?vid=1bc9b99c-e328-46fe-8e83-31d5610c02f4"},"vehicle_type_id":"4","last_reported":1774245776,"current_range_meters":4800,"station_id":"ce4bgn92rcd13ifvqbvg","pricing_plan_id":"cebpf4jnsgd1na2vs0mg"},{"bike_id":"4a0137b8-c6dc-4a68-b801-80ba9c4ea94d","system_id":"levelo_inurba_marseille","lat":43.2848,"lon":5.38427,"is_reserved":false,"is_disabled":false,"rental_uris":{"android":"levelo://app?vid=4a0137b8-c6dc-4a68-b801-80ba9c4ea94d","ios":"levelo://app?vid=4a0137b8-c6dc-4a68-b801-80ba9c4ea94d"},"vehicle_type_id":"4","last_reported":1774245776,"current_range_meters":4800,"station_id":"ce4bh512rcd13ifvqe3g","pricing_plan_id":"cebpf4jnsgd1na2vs0mg"},{"bike_id":"89884c11-0089-40c9-b4c8-cc026115fb44","system_id":"levelo_inurba_marseille","lat":43.269,"lon":5.42048,"is_reserved":false,"is_disabled":false,"rental_uris":{"android":"levelo://app?vid=89884c11-0089-40c9-b4c8-cc026115fb44","ios":"levelo://app?vid=89884c11-0089-40c9-b4c8-cc026115fb44"},"vehicle_type_id":"4","last_reported":1774245776,"current_range_meters":4800,"station_id":"","pricing_plan_id":"cebpf4jnsgd1na2vs0mg"},{"bike_id":"a46c1a3e-d474-4222-bd24-8cb832e27d76","system_id":"levelo_inurba_marseille","lat":43.29726,"lon":5.36419,"is_reserved":false,"is_disabled":false,"rental_uris":{"android":"levelo://app?vid=a46c1a3e-d474-4222-bd24-8cb832e27d76","ios":"levelo://app?vid=a46c1a3e-d474-4222-bd24-8cb832e27d76"},"vehicle_type_id":"4","last_reported":1774245776,"current_range_meters":4800,"station_id":"","pricing_plan_id":"cebpf4jnsgd1na2vs0mg"},{"bike_id":"0f7c298a-a08e-4395-bfea-f985c0a19cba","system_id":"levelo_inurba_marseille","lat":43.23955,"lon":5.36634,"is_reserved":false,"is_disabled":true,"rental_uris":{"android":"levelo://app?vid=0f7c298a-a08e-4395-bfea-f985c0a19cba","ios":"levelo://app?vid=0f7c298a-a08e-4395-bfea-f985c0a19cba"},"vehicle_type_id":"4","last_reported":1774245776,"current_range_meters":5600,"station_id":"ce4bhi12rcd13ifvqfp0","pricing_plan_id":"cebpf4jnsgd1na2vs0mg"},{"bike_id":"ee3ff2c5-8eb9-460a-936f-029a2d3bd45f","system_id":"levelo_inurba_marseille","lat":43.28896,"lon":5.43344,"is_reserved":false,"is_disabled":false,"rental_uris":{"android":"levelo://app?vid=ee3ff2c5-8eb9-460a-936f-029a2d3bd45f","ios":"levelo://app?vid=ee3ff2c5-8eb9-460a-936f-029a2d3bd45f"},"vehicle_type_id":"4","last_reported":1774245776,"current_range_meters":5600,"station_id":"","pricing_plan_id":"cebpf4jnsgd1na2vs0mg"},{"bike_id":"01cfe32f-5b84-4dfe-b2cb-158eb4cdb5d6","system_id":"levelo_inurba_marseille","lat":43.24182,"lon":5.36356,"is_reserved":false,"is_disabled":false,"rental_uris":{"android":"levelo://app?vid=01cfe32f-5b84-4dfe-b2cb-158eb4cdb5d6","ios":"levelo://app?vid=01cfe32f-5b84-4dfe-b2cb-158eb4cdb5d6"},"vehicle_type_id":"4","last_reported":1774245776,"current_range_meters":5600,"station_id":"cpo36qri1sfpv3e86is0","pricing_plan_id":"cebpf4jnsgd1na2vs0mg"},{"bike_id":"00560f09-8ead-439c-a384-e1807bc0a84c","system_id":"levelo_inurba_marseille","lat":43.28481,"lon":5.48386,"is_reserved":false,"is_disabled":false,"rental_uris":{"android":"levelo://app?vid=00560f09-8ead-439c-a384-e1807bc0a84c","ios":"levelo://app?vid=00560f09-8ead-439c-a384-e1807bc0a84c"},"vehicle_type_id":"4","last_reported":1774245776,"current_range_meters":5600,"station_id":"","pricing_plan_id":"cebpf4jnsgd1na2vs0mg"},{"bike_id":"e84a625b-41e0-4533-82a4-cbfef9892d14","system_id":"levelo_inurba_marseille","lat":43.29217,"lon":5.36893,"is_reserved":false,"is_disabled":false,"rental_uris":{"android":"levelo://app?vid=e84a625b-41e0-4533-82a4-cbfef9892d14","ios":"levelo://app?vid=e84a625b-41e0-4533-82a4-cbfef9892d14"},"vehicle_type_id":"4","last_reported":1774245776,"current_range_meters":5600,"station_id":"ce4bhbp2rcd13ifvqesg","pricing_plan_id":"cebpf4jnsgd1na2vs0mg"},{"bike_id":"08e2668f-4662-4e23-b00f-e4b6907f2fbe","system_id":"levelo_inurba_marseille","lat":43.32082,"lon":5.3682,"is_reserved":false,"is_disabled":false,"rental_uris":{"android":"levelo://app?vid=08e2668f-4662-4e23-b00f-e4b6907f2fbe","ios":"levelo://app?vid=08e2668f-4662-4e23-b00f-e4b6907f2fbe"},"vehicle_type_id":"4","last_reported":1774245776,"current_range_meters":5600,"station_id":"ce4bhrh2rcd13ifvqhug","pricing_plan_id":"cebpf4jnsgd1na2vs0mg"},{"bike_id":"926980e7-6e9b-4c45-a007-9ac0bf89dc56","system_id":"levelo_inurba_marseille","lat":43.31566,"lon":5.44543,"is_reserved":false,"is_disabled":false,"rental_uris":{"android":"levelo://app?vid=926980e7-6e9b-4c45-a007-9ac0bf89dc56","ios":"levelo://app?vid=926980e7-6e9b-4c45-a007-9ac0bf89dc56"},"vehicle_type_id":"4","last_reported":1774245776,"current_range_meters":5600,"station_id":"","pricing_plan_id":"cebpf4jnsgd1na2vs0mg"},{"bike_id":"259cfa92-d03c-4233-b3f1-e9c84b224ffe","system_id":"levelo_inurba_marseille","lat":43.2549,"lon":5.37653,"is_reserved":false,"is_disabled":true,"rental_uris":{"android":"levelo://app?vid=259cfa92-d03c-4233-b3f1-e9c84b224ffe","ios":"levelo://app?vid=259cfa92-d03c-4233-b3f1-e9c84b224ffe"},"vehicle_type_id":"4","last_reported":1774245776,"current_range_meters":5600,"station_id":"ce4bhh12rcd13ifvqff0","pricing_plan_id":"cebpf4jnsgd1na2vs0mg"},{"bike_id":"e9a35916-642e-43a9-9603-ed50e72cb982","system_id":"levelo_inurba_marseille","lat":43.25095,"lon":5.41223,"is_reserved":false,"is_disabled":false,"rental_uris":{"android":"levelo://app?vid=e9a35916-642e-43a9-9603-ed50e72cb982","ios":"levelo://app?vid=e9a35916-642e-43a9-9603-ed50e72cb982"},"vehicle_type_id":"4","last_reported":1774245776,"current_range_meters":5600,"station_id":"","pricing_plan_id":"cebpf4jnsgd1na2vs0mg"},{"bike_id":"496fa66e-2794-46d3-a7e7-699b02719188","system_id":"levelo_inurba_marseille","lat":43.30098,"lon":5.43158,"is_reserved":false,"is_disabled":false,"rental_uris":{"android":"levelo://app?vid=496fa66e-2794-46d3-a7e7-699b02719188","ios":"levelo://app?vid=496fa66e-2794-46d3-a7e7-699b02719188"},"vehicle_type_id":"4","last_reported":1774245776,"current_range_meters":5600,"station_id":"st_d3js3co5814s73ftftug","pricing_plan_id":"cebpf4jnsgd1na2vs0mg"},{"bike_id":"ff1d71ed-b50f-4718-bdd4-9e839995a4ac","system_id":"levelo_inurba_marseille","lat":43.2957,"lon":5.37493,"is_reserved":false,"is_disabled":false,"rental_uris":{"android":"levelo://app?vid=ff1d71ed-b50f-4718-bdd4-9e839995a4ac","ios":"levelo://app?vid=ff1d71ed-b50f-4718-bdd4-9e839995a4ac"},"vehicle_type_id":"4","last_reported":1774245776,"current_range_meters":6000,"station_id":"ce4bgh92rcd13ifvqb50","pricing_plan_id":"cebpf4jnsgd1na2vs0mg"},{"bike_id":"8837a4fd-20a9-44bc-9c09-d4f8f7c5e480","system_id":"levelo_inurba_marseille","lat":43.317,"lon":5.40462,"is_reserved":false,"is_disabled":false,"rental_uris":{"android":"levelo://app?vid=8837a4fd-20a9-44bc-9c09-d4f8f7c5e480","ios":"levelo://app?vid=8837a4fd-20a9-44bc-9c09-d4f8f7c5e480"},"vehicle_type_id":"4","last_reported":1774245776,"current_range_meters":6000,"station_id":"ce4bh012rcd13ifvqd00","pricing_plan_id":"cebpf4jnsgd1na2vs0mg"},{"bike_id":"432a856f-1f72-4a3d-9b71-75facdeb9b47","system_id":"levelo_inurba_marseille","lat":43.29782,"lon":5.38531,"is_reserved":false,"is_disabled":false,"rental_uris":{"android":"levelo://app?vid=432a856f-1f72-4a3d-9b71-75facdeb9b47","ios":"levelo://app?vid=432a856f-1f72-4a3d-9b71-75facdeb9b47"},"vehicle_type_id":"4","last_reported":1774245776,"current_range_meters":6000,"station_id":"","pricing_plan_id":"cebpf4jnsgd1na2vs0mg"},{"bike_id":"a4ca3e65-7d76-420e-9f85-82f0ec939329","system_id":"levelo_inurba_marseille","lat":43.2925,"lon":5.40896,"is_reserved":false,"is_disabled":false,"rental_uris":{"android":"levelo://app?vid=a4ca3e65-7d76-420e-9f85-82f0ec939329","ios":"levelo://app?vid=a4ca3e65-7d76-420e-9f85-82f0ec939329"},"vehicle_type_id":"4","last_reported":1774245776,"current_range_meters":6000,"station_id":"ce4bh192rcd13ifvqdc0","pricing_plan_id":"cebpf4jnsgd1na2vs0mg"},{"bike_id":"1a1a7c55-ee9f-457e-9d2b-7662e3b1f44b","system_id":"levelo_inurba_marseille","lat":43.24647,"lon":5.43495,"is_reserved":false,"is_disabled":true,"rental_uris":{"android":"levelo://app?vid=1a1a7c55-ee9f-457e-9d2b-7662e3b1f44b","ios":"levelo://app?vid=1a1a7c55-ee9f-457e-9d2b-7662e3b1f44b"},"vehicle_type_id":"4","last_reported":1774245776,"current_range_meters":6400,"station_id":"","pricing_plan_id":"cebpf4jnsgd1na2vs0mg"},{"bike_id":"b23e52e9-a876-459e-8724-e0215296ea00","system_id":"levelo_inurba_marseille","lat":43.28482,"lon":5.48393,"is_reserved":false,"is_disabled":true,"rental_uris":{"android":"levelo://app?vid=b23e52e9-a876-459e-8724-e0215296ea00","ios":"levelo://app?vid=b23e52e9-a876-459e-8724-e0215296ea00"},"vehicle_type_id":"4","last_reported":1774245776,"current_range_meters":6400,"station_id":"","pricing_plan_id":"cebpf4jnsgd1na2vs0mg"},{"bike_id":"5deb8dc6-6919-4738-b0a7-dc6990800975","system_id":"levelo_inurba_marseille","lat":43.30298,"lon":5.36897,"is_reserved":false,"is_disabled":false,"rental_uris":{"android":"levelo://app?vid=5deb8dc6-6919-4738-b0a7-dc6990800975","ios":"levelo://app?vid=5deb8dc6-6919-4738-b0a7-dc6990800975"},"vehicle_type_id":"4","last_reported":1774245776,"current_range_meters":6400,"station_id":"ce4bgqh2rcd13ifvqc5g","pricing_plan_id":"cebpf4jnsgd1na2vs0mg"},{"bike_id":"fa87ce26-5306-414f-98c9-1e3509ad90c0","system_id":"levelo_inurba_marseille","lat":43.24645,"lon":5.39292,"is_reserved":false,"is_disabled":false,"rental_uris":{"android":"levelo://app?vid=fa87ce26-5306-414f-98c9-1e3509ad90c0","ios":"levelo://app?vid=fa87ce26-5306-414f-98c9-1e3509ad90c0"},"vehicle_type_id":"4","last_reported":1774245776,"current_range_meters":6400,"station_id":"","pricing_plan_id":"cebpf4jnsgd1na2vs0mg"},{"bike_id":"6433c5c2-7d40-4915-90ac-9f97f53f270b","system_id":"levelo_inurba_marseille","lat":43.24539,"lon":5.3953,"is_reserved":false,"is_disabled":false,"rental_uris":{"android":"levelo://app?vid=6433c5c2-7d40-4915-90ac-9f97f53f270b","ios":"levelo://app?vid=6433c5c2-7d40-4915-90ac-9f97f53f270b"},"vehicle_type_id":"4","last_reported":1774245776,"current_range_meters":6800,"station_id":"ce4bhlp2rcd13ifvqgjg","pricing_plan_id":"cebpf4jnsgd1na2vs0mg"},{"bike_id":"1931bbd8-df65-42a5-81fc-c18a39b4bf94","system_id":"levelo_inurba_marseille","lat":43.31322,"lon":5.39704,"is_reserved":false,"is_disabled":false,"rental_uris":{"android":"levelo://app?vid=1931bbd8-df65-42a5-81fc-c18a39b4bf94","ios":"levelo://app?vid=1931bbd8-df65-42a5-81fc-c18a39b4bf94"},"vehicle_type_id":"4","last_reported":1774245776,"current_range_meters":6800,"station_id":"ce4bgvp2rcd13ifvqcu0","pricing_plan_id":"cebpf4jnsgd1na2vs0mg"},{"bike_id":"af8d2a67-5765-4d25-9890-717868ce4def","system_id":"levelo_inurba_marseille","lat":43.26964,"lon":5.40296,"is_reserved":false,"is_disabled":false,"rental_uris":{"android":"levelo://app?vid=af8d2a67-5765-4d25-9890-717868ce4def","ios":"levelo://app?vid=af8d2a67-5765-4d25-9890-717868ce4def"},"vehicle_type_id":"4","last_reported":1774245776,"current_range_meters":6800,"station_id":"cjm6bp8fraef2m0cb0m0","pricing_plan_id":"cebpf4jnsgd1na2vs0mg"},{"bike_id":"5a3d3df4-d923-46fc-bdfe-9820e3b28092","system_id":"levelo_inurba_marseille","lat":43.27321,"lon":5.39081,"is_reserved":false,"is_disabled":true,"rental_uris":{"android":"levelo://app?vid=5a3d3df4-d923-46fc-bdfe-9820e3b28092","ios":"levelo://app?vid=5a3d3df4-d923-46fc-bdfe-9820e3b28092"},"vehicle_type_id":"4","last_reported":1774245776,"current_range_meters":6800,"station_id":"ce4bhgp2rcd13ifvqfe0","pricing_plan_id":"cebpf4jnsgd1na2vs0mg"},{"bike_id":"5028ba17-7b50-45f3-93b1-269967ba3efd","system_id":"levelo_inurba_marseille","lat":43.26386,"lon":5.41043,"is_reserved":false,"is_disabled":false,"rental_uris":{"android":"levelo://app?vid=5028ba17-7b50-45f3-93b1-269967ba3efd","ios":"levelo://app?vid=5028ba17-7b50-45f3-93b1-269967ba3efd"},"vehicle_type_id":"4","last_reported":1774245776,"current_range_meters":6800,"station_id":"st_d4e5ca6na9uc73bfl5fg","pricing_plan_id":"cebpf4jnsgd1na2vs0mg"},{"bike_id":"47e512d5-1878-4adf-80cb-1a328722cfab","system_id":"levelo_inurba_marseille","lat":43.313269,"lon":5.396816,"is_reserved":false,"is_disabled":false,"rental_uris":{"android":"levelo://app?vid=47e512d5-1878-4adf-80cb-1a328722cfab","ios":"levelo://app?vid=47e512d5-1878-4adf-80cb-1a328722cfab"},"vehicle_type_id":"4","last_reported":1774245776,"current_range_meters":6800,"station_id":"ce4bgvp2rcd13ifvqcu0","pricing_plan_id":"cebpf4jnsgd1na2vs0mg"},{"bike_id":"22f20b6c-eef1-400c-b967-7935958f4509","system_id":"levelo_inurba_marseille","lat":43.29258,"lon":5.40906,"is_reserved":false,"is_disabled":false,"rental_uris":{"android":"levelo://app?vid=22f20b6c-eef1-400c-b967-7935958f4509","ios":"levelo://app?vid=22f20b6c-eef1-400c-b967-7935958f4509"},"vehicle_type_id":"4","last_reported":1774245776,"current_range_meters":6800,"station_id":"ce4bh192rcd13ifvqdc0","pricing_plan_id":"cebpf4jnsgd1na2vs0mg"},{"bike_id":"9a268e40-9838-4761-96a1-bf406ac9a9bf","system_id":"levelo_inurba_marseille","lat":43.29165,"lon":5.37129,"is_reserved":false,"is_disabled":true,"rental_uris":{"android":"levelo://app?vid=9a268e40-9838-4761-96a1-bf406ac9a9bf","ios":"levelo://app?vid=9a268e40-9838-4761-96a1-bf406ac9a9bf"},"vehicle_type_id":"4","last_reported":1774245776,"current_range_meters":6800,"station_id":"ce4bha92rcd13ifvqeh0","pricing_plan_id":"cebpf4jnsgd1na2vs0mg"},{"bike_id":"617f3e0b-0796-44d9-a757-00a3bec45be0","system_id":"levelo_inurba_marseille","lat":43.30561,"lon":5.37179,"is_reserved":false,"is_disabled":false,"rental_uris":{"android":"levelo://app?vid=617f3e0b-0796-44d9-a757-00a3bec45be0","ios":"levelo://app?vid=617f3e0b-0796-44d9-a757-00a3bec45be0"},"vehicle_type_id":"4","last_reported":1774245776,"current_range_meters":6800,"station_id":"ce4bgqh2rcd13ifvqc4g","pricing_plan_id":"cebpf4jnsgd1na2vs0mg"},{"bike_id":"b7ba0e58-bef0-47a7-bd3b-64bf72ecf131","system_id":"levelo_inurba_marseille","lat":43.32899,"lon":5.36684,"is_reserved":false,"is_disabled":false,"rental_uris":{"android":"levelo://app?vid=b7ba0e58-bef0-47a7-bd3b-64bf72ecf131","ios":"levelo://app?vid=b7ba0e58-bef0-47a7-bd3b-64bf72ecf131"},"vehicle_type_id":"4","last_reported":1774245776,"current_range_meters":6800,"station_id":"","pricing_plan_id":"cebpf4jnsgd1na2vs0mg"},{"bike_id":"11bb5a53-0116-4f22-8c60-badba7ab667b","system_id":"levelo_inurba_marseille","lat":43.23896,"lon":5.37484,"is_reserved":false,"is_disabled":true,"rental_uris":{"android":"levelo://app?vid=11bb5a53-0116-4f22-8c60-badba7ab667b","ios":"levelo://app?vid=11bb5a53-0116-4f22-8c60-badba7ab667b"},"vehicle_type_id":"4","last_reported":1774245776,"current_range_meters":7200,"station_id":"st_d6sm7csbq4hs73f8fpjg","pricing_plan_id":"cebpf4jnsgd1na2vs0mg"},{"bike_id":"9453e579-87d8-475b-9a7d-0c3671abf86b","system_id":"levelo_inurba_marseille","lat":43.32113,"lon":5.36794,"is_reserved":false,"is_disabled":false,"rental_uris":{"android":"levelo://app?vid=9453e579-87d8-475b-9a7d-0c3671abf86b","ios":"levelo://app?vid=9453e579-87d8-475b-9a7d-0c3671abf86b"},"vehicle_type_id":"4","last_reported":1774245776,"current_range_meters":7200,"station_id":"ce4bhrh2rcd13ifvqhug","pricing_plan_id":"cebpf4jnsgd1na2vs0mg"},{"bike_id":"dd190f4f-ad31-4343-921d-3b3621ea2332","system_id":"levelo_inurba_marseille","lat":43.279704,"lon":5.38751,"is_reserved":false,"is_disabled":false,"rental_uris":{"android":"levelo://app?vid=dd190f4f-ad31-4343-921d-3b3621ea2332","ios":"levelo://app?vid=dd190f4f-ad31-4343-921d-3b3621ea2332"},"vehicle_type_id":"4","last_reported":1774245776,"current_range_meters":7200,"station_id":"","pricing_plan_id":"cebpf4jnsgd1na2vs0mg"},{"bike_id":"85e5356e-a5f4-49fc-9431-92e4acb17f4e","system_id":"levelo_inurba_marseille","lat":43.28441,"lon":5.35888,"is_reserved":false,"is_disabled":false,"rental_uris":{"android":"levelo://app?vid=85e5356e-a5f4-49fc-9431-92e4acb17f4e","ios":"levelo://app?vid=85e5356e-a5f4-49fc-9431-92e4acb17f4e"},"vehicle_type_id":"4","last_reported":1774245776,"current_range_meters":7200,"station_id":"ce4bhah2rcd13ifvqei0","pricing_plan_id":"cebpf4jnsgd1na2vs0mg"},{"bike_id":"3eb2f1eb-3afb-4c52-a889-fba9ff58baff","system_id":"levelo_inurba_marseille","lat":43.29577,"lon":5.37503,"is_reserved":false,"is_disabled":false,"rental_uris":{"android":"levelo://app?vid=3eb2f1eb-3afb-4c52-a889-fba9ff58baff","ios":"levelo://app?vid=3eb2f1eb-3afb-4c52-a889-fba9ff58baff"},"vehicle_type_id":"4","last_reported":1774245776,"current_range_meters":7200,"station_id":"ce4bgh92rcd13ifvqb50","pricing_plan_id":"cebpf4jnsgd1na2vs0mg"},{"bike_id":"6f3fdbf9-917f-421d-aa86-02187d7ba65c","system_id":"levelo_inurba_marseille","lat":43.28476,"lon":5.48399,"is_reserved":false,"is_disabled":false,"rental_uris":{"android":"levelo://app?vid=6f3fdbf9-917f-421d-aa86-02187d7ba65c","ios":"levelo://app?vid=6f3fdbf9-917f-421d-aa86-02187d7ba65c"},"vehicle_type_id":"4","last_reported":1774245776,"current_range_meters":7200,"station_id":"st_d3svhcjqgbts73a3dn0g","pricing_plan_id":"cebpf4jnsgd1na2vs0mg"},{"bike_id":"c014e25b-916c-4a5d-af7e-ac4159658caf","system_id":"levelo_inurba_marseille","lat":43.305483,"lon":5.367317,"is_reserved":false,"is_disabled":false,"rental_uris":{"android":"levelo://app?vid=c014e25b-916c-4a5d-af7e-ac4159658caf","ios":"levelo://app?vid=c014e25b-916c-4a5d-af7e-ac4159658caf"},"vehicle_type_id":"4","last_reported":1774245776,"current_range_meters":7200,"station_id":"st_d4a7ka997mjs738ck50g","pricing_plan_id":"cebpf4jnsgd1na2vs0mg"},{"bike_id":"37a7a2a1-21e3-4828-b9d9-d4078a100216","system_id":"levelo_inurba_marseille","lat":43.25337,"lon":5.42174,"is_reserved":false,"is_disabled":false,"rental_uris":{"android":"levelo://app?vid=37a7a2a1-21e3-4828-b9d9-d4078a100216","ios":"levelo://app?vid=37a7a2a1-21e3-4828-b9d9-d4078a100216"},"vehicle_type_id":"4","last_reported":1774245776,"current_range_meters":8000,"station_id":"st_d2m65c5bi1j21697t3ng","pricing_plan_id":"cebpf4jnsgd1na2vs0mg"},{"bike_id":"8310aa65-ac67-4592-b812-f63970cb0af3","system_id":"levelo_inurba_marseille","lat":43.32114,"lon":5.36772,"is_reserved":false,"is_disabled":false,"rental_uris":{"android":"levelo://app?vid=8310aa65-ac67-4592-b812-f63970cb0af3","ios":"levelo://app?vid=8310aa65-ac67-4592-b812-f63970cb0af3"},"vehicle_type_id":"4","last_reported":1774245776,"current_range_meters":8000,"station_id":"ce4bhrh2rcd13ifvqhug","pricing_plan_id":"cebpf4jnsgd1na2vs0mg"},{"bike_id":"1cb34757-0bff-4f1a-9192-1aa8e3e422a1","system_id":"levelo_inurba_marseille","lat":43.29591,"lon":5.36748,"is_reserved":false,"is_disabled":true,"rental_uris":{"android":"levelo://app?vid=1cb34757-0bff-4f1a-9192-1aa8e3e422a1","ios":"levelo://app?vid=1cb34757-0bff-4f1a-9192-1aa8e3e422a1"},"vehicle_type_id":"4","last_reported":1774245776,"current_range_meters":8000,"station_id":"ce4bgph2rcd13ifvqc2g","pricing_plan_id":"cebpf4jnsgd1na2vs0mg"},{"bike_id":"f9c57d50-832a-477c-9c7f-1e7c12d972b0","system_id":"levelo_inurba_marseille","lat":43.25095,"lon":5.39534,"is_reserved":false,"is_disabled":true,"rental_uris":{"android":"levelo://app?vid=f9c57d50-832a-477c-9c7f-1e7c12d972b0","ios":"levelo://app?vid=f9c57d50-832a-477c-9c7f-1e7c12d972b0"},"vehicle_type_id":"4","last_reported":1774245776,"current_range_meters":8000,"station_id":"ce4bhm12rcd13ifvqgkg","pricing_plan_id":"cebpf4jnsgd1na2vs0mg"},{"bike_id":"a21f6e02-206a-4797-b1ed-d85e22243149","system_id":"levelo_inurba_marseille","lat":43.2339,"lon":5.41218,"is_reserved":false,"is_disabled":false,"rental_uris":{"android":"levelo://app?vid=a21f6e02-206a-4797-b1ed-d85e22243149","ios":"levelo://app?vid=a21f6e02-206a-4797-b1ed-d85e22243149"},"vehicle_type_id":"4","last_reported":1774245776,"current_range_meters":8000,"station_id":"","pricing_plan_id":"cebpf4jnsgd1na2vs0mg"},{"bike_id":"0f88d6b7-883f-4b13-98ff-b1b3b7d422a5","system_id":"levelo_inurba_marseille","lat":43.25918,"lon":5.40895,"is_reserved":false,"is_disabled":true,"rental_uris":{"android":"levelo://app?vid=0f88d6b7-883f-4b13-98ff-b1b3b7d422a5","ios":"levelo://app?vid=0f88d6b7-883f-4b13-98ff-b1b3b7d422a5"},"vehicle_type_id":"4","last_reported":1774245776,"current_range_meters":8000,"station_id":"ce4bhm92rcd13ifvqglg","pricing_plan_id":"cebpf4jnsgd1na2vs0mg"},{"bike_id":"c02b37de-fbe5-405f-8d43-8dbb09d582de","system_id":"levelo_inurba_marseille","lat":43.29635,"lon":5.39851,"is_reserved":false,"is_disabled":false,"rental_uris":{"android":"levelo://app?vid=c02b37de-fbe5-405f-8d43-8dbb09d582de","ios":"levelo://app?vid=c02b37de-fbe5-405f-8d43-8dbb09d582de"},"vehicle_type_id":"4","last_reported":1774245776,"current_range_meters":8000,"station_id":"","pricing_plan_id":"cebpf4jnsgd1na2vs0mg"},{"bike_id":"cfd4e00f-983e-4dca-91e9-7ccea70e296f","system_id":"levelo_inurba_marseille","lat":43.24605,"lon":5.40018,"is_reserved":false,"is_disabled":false,"rental_uris":{"android":"levelo://app?vid=cfd4e00f-983e-4dca-91e9-7ccea70e296f","ios":"levelo://app?vid=cfd4e00f-983e-4dca-91e9-7ccea70e296f"},"vehicle_type_id":"4","last_reported":1774245776,"current_range_meters":8000,"station_id":"","pricing_plan_id":"cebpf4jnsgd1na2vs0mg"},{"bike_id":"462a1cdd-980f-4d75-accd-0f62886214c9","system_id":"levelo_inurba_marseille","lat":43.28231,"lon":5.40832,"is_reserved":false,"is_disabled":false,"rental_uris":{"android":"levelo://app?vid=462a1cdd-980f-4d75-accd-0f62886214c9","ios":"levelo://app?vid=462a1cdd-980f-4d75-accd-0f62886214c9"},"vehicle_type_id":"4","last_reported":1774245776,"current_range_meters":8000,"station_id":"","pricing_plan_id":"cebpf4jnsgd1na2vs0mg"},{"bike_id":"19816687-f443-4a5d-b7aa-e3cfd2cb0259","system_id":"levelo_inurba_marseille","lat":43.31444,"lon":5.44565,"is_reserved":false,"is_disabled":false,"rental_uris":{"android":"levelo://app?vid=19816687-f443-4a5d-b7aa-e3cfd2cb0259","ios":"levelo://app?vid=19816687-f443-4a5d-b7aa-e3cfd2cb0259"},"vehicle_type_id":"4","last_reported":1774245776,"current_range_meters":8400,"station_id":"","pricing_plan_id":"cebpf4jnsgd1na2vs0mg"},{"bike_id":"8c1c8195-ea4b-4bdc-adcb-ba3b3fad322f","system_id":"levelo_inurba_marseille","lat":43.28691,"lon":5.46677,"is_reserved":false,"is_disabled":false,"rental_uris":{"android":"levelo://app?vid=8c1c8195-ea4b-4bdc-adcb-ba3b3fad322f","ios":"levelo://app?vid=8c1c8195-ea4b-4bdc-adcb-ba3b3fad322f"},"vehicle_type_id":"4","last_reported":1774245776,"current_range_meters":8400,"station_id":"st_d6tc3vkotcvc738tfjhg","pricing_plan_id":"cebpf4jnsgd1na2vs0mg"},{"bike_id":"e31b12f6-30bf-4719-8825-bfcfff5cf524","system_id":"levelo_inurba_marseille","lat":43.3357,"lon":5.37415,"is_reserved":false,"is_disabled":false,"rental_uris":{"android":"levelo://app?vid=e31b12f6-30bf-4719-8825-bfcfff5cf524","ios":"levelo://app?vid=e31b12f6-30bf-4719-8825-bfcfff5cf524"},"vehicle_type_id":"4","last_reported":1774245776,"current_range_meters":8400,"station_id":"st_d46tts09ee8s73dlu43g","pricing_plan_id":"cebpf4jnsgd1na2vs0mg"},{"bike_id":"e27f416d-7a97-43e9-b5e8-3ea2a31eabdb","system_id":"levelo_inurba_marseille","lat":43.3054,"lon":5.38411,"is_reserved":false,"is_disabled":false,"rental_uris":{"android":"levelo://app?vid=e27f416d-7a97-43e9-b5e8-3ea2a31eabdb","ios":"levelo://app?vid=e27f416d-7a97-43e9-b5e8-3ea2a31eabdb"},"vehicle_type_id":"4","last_reported":1774245776,"current_range_meters":8400,"station_id":"ce4bgg92rcd13ifvqb30","pricing_plan_id":"cebpf4jnsgd1na2vs0mg"},{"bike_id":"5986e308-401d-4d25-8c0b-1810717c4afd","system_id":"levelo_inurba_marseille","lat":43.27066,"lon":5.40263,"is_reserved":false,"is_disabled":false,"rental_uris":{"android":"levelo://app?vid=5986e308-401d-4d25-8c0b-1810717c4afd","ios":"levelo://app?vid=5986e308-401d-4d25-8c0b-1810717c4afd"},"vehicle_type_id":"4","last_reported":1774245776,"current_range_meters":8400,"station_id":"ce4bhk92rcd13ifvqgc0","pricing_plan_id":"cebpf4jnsgd1na2vs0mg"},{"bike_id":"6d8d09fd-043e-40dd-92de-c6d036fa5ea9","system_id":"levelo_inurba_marseille","lat":43.28925,"lon":5.3839,"is_reserved":false,"is_disabled":true,"rental_uris":{"android":"levelo://app?vid=6d8d09fd-043e-40dd-92de-c6d036fa5ea9","ios":"levelo://app?vid=6d8d09fd-043e-40dd-92de-c6d036fa5ea9"},"vehicle_type_id":"4","last_reported":1774245776,"current_range_meters":8400,"station_id":"ce4bh612rcd13ifvqe6g","pricing_plan_id":"cebpf4jnsgd1na2vs0mg"},{"bike_id":"ffb98fb8-da98-43fb-9eac-ddb2ee1141c2","system_id":"levelo_inurba_marseille","lat":43.24628,"lon":5.41661,"is_reserved":false,"is_disabled":false,"rental_uris":{"android":"levelo://app?vid=ffb98fb8-da98-43fb-9eac-ddb2ee1141c2","ios":"levelo://app?vid=ffb98fb8-da98-43fb-9eac-ddb2ee1141c2"},"vehicle_type_id":"4","last_reported":1774245776,"current_range_meters":8400,"station_id":"","pricing_plan_id":"cebpf4jnsgd1na2vs0mg"},{"bike_id":"b044a4d1-3370-4e1e-b498-4fd04daa337d","system_id":"levelo_inurba_marseille","lat":43.25357,"lon":5.42192,"is_reserved":false,"is_disabled":true,"rental_uris":{"android":"levelo://app?vid=b044a4d1-3370-4e1e-b498-4fd04daa337d","ios":"levelo://app?vid=b044a4d1-3370-4e1e-b498-4fd04daa337d"},"vehicle_type_id":"4","last_reported":1774245776,"current_range_meters":8400,"station_id":"st_d2m65c5bi1j21697t3ng","pricing_plan_id":"cebpf4jnsgd1na2vs0mg"},{"bike_id":"feb16ff1-48a6-450b-a2f8-4cf8b2edb6f2","system_id":"levelo_inurba_marseille","lat":43.2378,"lon":5.36634,"is_reserved":false,"is_disabled":false,"rental_uris":{"android":"levelo://app?vid=feb16ff1-48a6-450b-a2f8-4cf8b2edb6f2","ios":"levelo://app?vid=feb16ff1-48a6-450b-a2f8-4cf8b2edb6f2"},"vehicle_type_id":"4","last_reported":1774245776,"current_range_meters":8400,"station_id":"st_d3nk18o9ro0c73en2l3g","pricing_plan_id":"cebpf4jnsgd1na2vs0mg"},{"bike_id":"ca3c043a-ce80-4ee2-9755-a315b0e62205","system_id":"levelo_inurba_marseille","lat":43.2532,"lon":5.42168,"is_reserved":false,"is_disabled":false,"rental_uris":{"android":"levelo://app?vid=ca3c043a-ce80-4ee2-9755-a315b0e62205","ios":"levelo://app?vid=ca3c043a-ce80-4ee2-9755-a315b0e62205"},"vehicle_type_id":"4","last_reported":1774245776,"current_range_meters":8400,"station_id":"st_d2m65c5bi1j21697t3ng","pricing_plan_id":"cebpf4jnsgd1na2vs0mg"},{"bike_id":"bafc255f-f570-4b03-a1ea-14f1ea1a31cf","system_id":"levelo_inurba_marseille","lat":43.31275,"lon":5.36811,"is_reserved":false,"is_disabled":false,"rental_uris":{"android":"levelo://app?vid=bafc255f-f570-4b03-a1ea-14f1ea1a31cf","ios":"levelo://app?vid=bafc255f-f570-4b03-a1ea-14f1ea1a31cf"},"vehicle_type_id":"4","last_reported":1774245776,"current_range_meters":8400,"station_id":"","pricing_plan_id":"cebpf4jnsgd1na2vs0mg"},{"bike_id":"285a0fac-0550-4154-ac9a-478e3111d497","system_id":"levelo_inurba_marseille","lat":43.31341,"lon":5.39702,"is_reserved":false,"is_disabled":false,"rental_uris":{"android":"levelo://app?vid=285a0fac-0550-4154-ac9a-478e3111d497","ios":"levelo://app?vid=285a0fac-0550-4154-ac9a-478e3111d497"},"vehicle_type_id":"4","last_reported":1774245776,"current_range_meters":8400,"station_id":"ce4bgvp2rcd13ifvqcu0","pricing_plan_id":"cebpf4jnsgd1na2vs0mg"},{"bike_id":"bfb0634b-6d12-40ea-bdce-9a82a42412aa","system_id":"levelo_inurba_marseille","lat":43.28741,"lon":5.46686,"is_reserved":false,"is_disabled":false,"rental_uris":{"android":"levelo://app?vid=bfb0634b-6d12-40ea-bdce-9a82a42412aa","ios":"levelo://app?vid=bfb0634b-6d12-40ea-bdce-9a82a42412aa"},"vehicle_type_id":"4","last_reported":1774245776,"current_range_meters":8400,"station_id":"st_d6tc3vkotcvc738tfjhg","pricing_plan_id":"cebpf4jnsgd1na2vs0mg"},{"bike_id":"6979a6fb-10a0-43cf-8c47-6569f8ddef35","system_id":"levelo_inurba_marseille","lat":43.32136,"lon":5.36781,"is_reserved":false,"is_disabled":false,"rental_uris":{"android":"levelo://app?vid=6979a6fb-10a0-43cf-8c47-6569f8ddef35","ios":"levelo://app?vid=6979a6fb-10a0-43cf-8c47-6569f8ddef35"},"vehicle_type_id":"4","last_reported":1774245776,"current_range_meters":8400,"station_id":"","pricing_plan_id":"cebpf4jnsgd1na2vs0mg"},{"bike_id":"67e67001-80d5-4cc7-aa6f-c499ffe5f745","system_id":"levelo_inurba_marseille","lat":43.27992,"lon":5.40006,"is_reserved":false,"is_disabled":true,"rental_uris":{"android":"levelo://app?vid=67e67001-80d5-4cc7-aa6f-c499ffe5f745","ios":"levelo://app?vid=67e67001-80d5-4cc7-aa6f-c499ffe5f745"},"vehicle_type_id":"4","last_reported":1774245776,"current_range_meters":8400,"station_id":"ce4bho92rcd13ifvqh4g","pricing_plan_id":"cebpf4jnsgd1na2vs0mg"},{"bike_id":"dc79cfd5-0be7-436e-a542-f6a2bdf8f65a","system_id":"levelo_inurba_marseille","lat":43.32103,"lon":5.36806,"is_reserved":false,"is_disabled":false,"rental_uris":{"android":"levelo://app?vid=dc79cfd5-0be7-436e-a542-f6a2bdf8f65a","ios":"levelo://app?vid=dc79cfd5-0be7-436e-a542-f6a2bdf8f65a"},"vehicle_type_id":"4","last_reported":1774245776,"current_range_meters":8400,"station_id":"ce4bhrh2rcd13ifvqhug","pricing_plan_id":"cebpf4jnsgd1na2vs0mg"},{"bike_id":"c01d59f6-c28c-4580-85cb-2166e83480a9","system_id":"levelo_inurba_marseille","lat":43.30126,"lon":5.38785,"is_reserved":false,"is_disabled":true,"rental_uris":{"android":"levelo://app?vid=c01d59f6-c28c-4580-85cb-2166e83480a9","ios":"levelo://app?vid=c01d59f6-c28c-4580-85cb-2166e83480a9"},"vehicle_type_id":"4","last_reported":1774245776,"current_range_meters":8800,"station_id":"ce4bghh2rcd13ifvqb60","pricing_plan_id":"cebpf4jnsgd1na2vs0mg"},{"bike_id":"2235a0fe-6c1f-46a7-8018-66dc10d08760","system_id":"levelo_inurba_marseille","lat":43.29643,"lon":5.3715,"is_reserved":false,"is_disabled":false,"rental_uris":{"android":"levelo://app?vid=2235a0fe-6c1f-46a7-8018-66dc10d08760","ios":"levelo://app?vid=2235a0fe-6c1f-46a7-8018-66dc10d08760"},"vehicle_type_id":"4","last_reported":1774245776,"current_range_meters":8800,"station_id":"ce4bgnh2rcd13ifvqc0g","pricing_plan_id":"cebpf4jnsgd1na2vs0mg"},{"bike_id":"7d0e7181-3a70-4370-9354-bef3948a92c8","system_id":"levelo_inurba_marseille","lat":43.29959,"lon":5.41327,"is_reserved":false,"is_disabled":false,"rental_uris":{"android":"levelo://app?vid=7d0e7181-3a70-4370-9354-bef3948a92c8","ios":"levelo://app?vid=7d0e7181-3a70-4370-9354-bef3948a92c8"},"vehicle_type_id":"4","last_reported":1774245776,"current_range_meters":8800,"station_id":"ce4bhp12rcd13ifvqh9g","pricing_plan_id":"cebpf4jnsgd1na2vs0mg"},{"bike_id":"da454263-2967-4a4d-b266-9c2165d924e8","system_id":"levelo_inurba_marseille","lat":43.29579,"lon":5.39963,"is_reserved":false,"is_disabled":true,"rental_uris":{"android":"levelo://app?vid=da454263-2967-4a4d-b266-9c2165d924e8","ios":"levelo://app?vid=da454263-2967-4a4d-b266-9c2165d924e8"},"vehicle_type_id":"4","last_reported":1774245776,"current_range_meters":8800,"station_id":"ce4bh312rcd13ifvqdj0","pricing_plan_id":"cebpf4jnsgd1na2vs0mg"},{"bike_id":"29f49a32-ba08-40ef-839e-89650b416d04","system_id":"levelo_inurba_marseille","lat":43.31019,"lon":5.37903,"is_reserved":false,"is_disabled":false,"rental_uris":{"android":"levelo://app?vid=29f49a32-ba08-40ef-839e-89650b416d04","ios":"levelo://app?vid=29f49a32-ba08-40ef-839e-89650b416d04"},"vehicle_type_id":"4","last_reported":1774245776,"current_range_meters":8800,"station_id":"","pricing_plan_id":"cebpf4jnsgd1na2vs0mg"},{"bike_id":"c0ede030-ab9a-4615-a9c7-01479ac5ac50","system_id":"levelo_inurba_marseille","lat":43.26681,"lon":5.38254,"is_reserved":false,"is_disabled":true,"rental_uris":{"android":"levelo://app?vid=c0ede030-ab9a-4615-a9c7-01479ac5ac50","ios":"levelo://app?vid=c0ede030-ab9a-4615-a9c7-01479ac5ac50"},"vehicle_type_id":"4","last_reported":1774245776,"current_range_meters":8800,"station_id":"ce4bhg92rcd13ifvqf90","pricing_plan_id":"cebpf4jnsgd1na2vs0mg"},{"bike_id":"edaa494a-4360-47b4-975b-ccf6d6b743ca","system_id":"levelo_inurba_marseille","lat":43.29558,"lon":5.36586,"is_reserved":false,"is_disabled":false,"rental_uris":{"android":"levelo://app?vid=edaa494a-4360-47b4-975b-ccf6d6b743ca","ios":"levelo://app?vid=edaa494a-4360-47b4-975b-ccf6d6b743ca"},"vehicle_type_id":"4","last_reported":1774245776,"current_range_meters":8800,"station_id":"","pricing_plan_id":"cebpf4jnsgd1na2vs0mg"},{"bike_id":"50945f8b-2b7d-456b-9148-82803c3fe27e","system_id":"levelo_inurba_marseille","lat":43.31311,"lon":5.3971,"is_reserved":false,"is_disabled":false,"rental_uris":{"android":"levelo://app?vid=50945f8b-2b7d-456b-9148-82803c3fe27e","ios":"levelo://app?vid=50945f8b-2b7d-456b-9148-82803c3fe27e"},"vehicle_type_id":"4","last_reported":1774245776,"current_range_meters":8800,"station_id":"ce4bgvp2rcd13ifvqcu0","pricing_plan_id":"cebpf4jnsgd1na2vs0mg"},{"bike_id":"6a361988-483c-4fea-b668-fae45fefb959","system_id":"levelo_inurba_marseille","lat":43.32105,"lon":5.36772,"is_reserved":false,"is_disabled":false,"rental_uris":{"android":"levelo://app?vid=6a361988-483c-4fea-b668-fae45fefb959","ios":"levelo://app?vid=6a361988-483c-4fea-b668-fae45fefb959"},"vehicle_type_id":"4","last_reported":1774245776,"current_range_meters":9200,"station_id":"ce4bhrh2rcd13ifvqhug","pricing_plan_id":"cebpf4jnsgd1na2vs0mg"},{"bike_id":"a9fcd02c-7b6b-4ad8-a39d-d88606ee3ac0","system_id":"levelo_inurba_marseille","lat":43.25,"lon":5.38917,"is_reserved":false,"is_disabled":true,"rental_uris":{"android":"levelo://app?vid=a9fcd02c-7b6b-4ad8-a39d-d88606ee3ac0","ios":"levelo://app?vid=a9fcd02c-7b6b-4ad8-a39d-d88606ee3ac0"},"vehicle_type_id":"4","last_reported":1774245776,"current_range_meters":9200,"station_id":"ce4bhgp2rcd13ifvqfd0","pricing_plan_id":"cebpf4jnsgd1na2vs0mg"},{"bike_id":"9ab74394-56f3-484b-8bb9-1bd5f661fe28","system_id":"levelo_inurba_marseille","lat":43.28966,"lon":5.3784,"is_reserved":false,"is_disabled":true,"rental_uris":{"android":"levelo://app?vid=9ab74394-56f3-484b-8bb9-1bd5f661fe28","ios":"levelo://app?vid=9ab74394-56f3-484b-8bb9-1bd5f661fe28"},"vehicle_type_id":"4","last_reported":1774245776,"current_range_meters":9200,"station_id":"ce4bh9p2rcd13ifvqed0","pricing_plan_id":"cebpf4jnsgd1na2vs0mg"},{"bike_id":"1d0f3067-7ca2-4fbd-8b40-b921c6748a4a","system_id":"levelo_inurba_marseille","lat":43.28453,"lon":5.48403,"is_reserved":false,"is_disabled":false,"rental_uris":{"android":"levelo://app?vid=1d0f3067-7ca2-4fbd-8b40-b921c6748a4a","ios":"levelo://app?vid=1d0f3067-7ca2-4fbd-8b40-b921c6748a4a"},"vehicle_type_id":"4","last_reported":1774245776,"current_range_meters":9200,"station_id":"","pricing_plan_id":"cebpf4jnsgd1na2vs0mg"},{"bike_id":"b9b8140a-3f40-4142-9fbe-f8ad688546b9","system_id":"levelo_inurba_marseille","lat":43.27065,"lon":5.38307,"is_reserved":false,"is_disabled":false,"rental_uris":{"android":"levelo://app?vid=b9b8140a-3f40-4142-9fbe-f8ad688546b9","ios":"levelo://app?vid=b9b8140a-3f40-4142-9fbe-f8ad688546b9"},"vehicle_type_id":"4","last_reported":1774245776,"current_range_meters":9200,"station_id":"st_d3n2fo6cfp8s73cte1j0","pricing_plan_id":"cebpf4jnsgd1na2vs0mg"},{"bike_id":"5cca4b32-612b-471f-a02d-66912cbe70ff","system_id":"levelo_inurba_marseille","lat":43.21182,"lon":5.35086,"is_reserved":false,"is_disabled":true,"rental_uris":{"android":"levelo://app?vid=5cca4b32-612b-471f-a02d-66912cbe70ff","ios":"levelo://app?vid=5cca4b32-612b-471f-a02d-66912cbe70ff"},"vehicle_type_id":"4","last_reported":1774245776,"current_range_meters":9200,"station_id":"st_cvj6sg6p6f1abm77japg","pricing_plan_id":"cebpf4jnsgd1na2vs0mg"},{"bike_id":"96201215-f19d-4cb6-b417-f98daeb8da6a","system_id":"levelo_inurba_marseille","lat":43.32034,"lon":5.41579,"is_reserved":false,"is_disabled":true,"rental_uris":{"android":"levelo://app?vid=96201215-f19d-4cb6-b417-f98daeb8da6a","ios":"levelo://app?vid=96201215-f19d-4cb6-b417-f98daeb8da6a"},"vehicle_type_id":"4","last_reported":1774245776,"current_range_meters":9200,"station_id":"ce4bhq92rcd13ifvqhkg","pricing_plan_id":"cebpf4jnsgd1na2vs0mg"},{"bike_id":"3447cb79-bcea-4e0e-a6e2-fb4871ba01b4","system_id":"levelo_inurba_marseille","lat":43.24727,"lon":5.39223,"is_reserved":false,"is_disabled":false,"rental_uris":{"android":"levelo://app?vid=3447cb79-bcea-4e0e-a6e2-fb4871ba01b4","ios":"levelo://app?vid=3447cb79-bcea-4e0e-a6e2-fb4871ba01b4"},"vehicle_type_id":"4","last_reported":1774245776,"current_range_meters":9200,"station_id":"","pricing_plan_id":"cebpf4jnsgd1na2vs0mg"},{"bike_id":"bbb20be4-a4e3-4756-bf9e-de6efa0abbb9","system_id":"levelo_inurba_marseille","lat":43.292,"lon":5.42598,"is_reserved":false,"is_disabled":false,"rental_uris":{"android":"levelo://app?vid=bbb20be4-a4e3-4756-bf9e-de6efa0abbb9","ios":"levelo://app?vid=bbb20be4-a4e3-4756-bf9e-de6efa0abbb9"},"vehicle_type_id":"4","last_reported":1774245776,"current_range_meters":9200,"station_id":"","pricing_plan_id":"cebpf4jnsgd1na2vs0mg"},{"bike_id":"f554888c-9515-430c-b3e9-327a4cc15db0","system_id":"levelo_inurba_marseille","lat":43.2964,"lon":5.42423,"is_reserved":false,"is_disabled":false,"rental_uris":{"android":"levelo://app?vid=f554888c-9515-430c-b3e9-327a4cc15db0","ios":"levelo://app?vid=f554888c-9515-430c-b3e9-327a4cc15db0"},"vehicle_type_id":"4","last_reported":1774245776,"current_range_meters":9200,"station_id":"","pricing_plan_id":"cebpf4jnsgd1na2vs0mg"},{"bike_id":"6b5b46ab-76b3-4d07-8049-eb4aca061332","system_id":"levelo_inurba_marseille","lat":43.28027,"lon":5.36937,"is_reserved":false,"is_disabled":false,"rental_uris":{"android":"levelo://app?vid=6b5b46ab-76b3-4d07-8049-eb4aca061332","ios":"levelo://app?vid=6b5b46ab-76b3-4d07-8049-eb4aca061332"},"vehicle_type_id":"4","last_reported":1774245776,"current_range_meters":9200,"station_id":"ce4bha12rcd13ifvqef0","pricing_plan_id":"cebpf4jnsgd1na2vs0mg"},{"bike_id":"06084c24-30f0-410c-870b-8f6cd8c06d40","system_id":"levelo_inurba_marseille","lat":43.29281,"lon":5.40116,"is_reserved":false,"is_disabled":false,"rental_uris":{"android":"levelo://app?vid=06084c24-30f0-410c-870b-8f6cd8c06d40","ios":"levelo://app?vid=06084c24-30f0-410c-870b-8f6cd8c06d40"},"vehicle_type_id":"4","last_reported":1774245776,"current_range_meters":9200,"station_id":"ce4bh312rcd13ifvqdk0","pricing_plan_id":"cebpf4jnsgd1na2vs0mg"},{"bike_id":"87cab354-e36c-4dc9-949d-1832434988fa","system_id":"levelo_inurba_marseille","lat":43.31301,"lon":5.38432,"is_reserved":false,"is_disabled":false,"rental_uris":{"android":"levelo://app?vid=87cab354-e36c-4dc9-949d-1832434988fa","ios":"levelo://app?vid=87cab354-e36c-4dc9-949d-1832434988fa"},"vehicle_type_id":"4","last_reported":1774245776,"current_range_meters":9200,"station_id":"","pricing_plan_id":"cebpf4jnsgd1na2vs0mg"},{"bike_id":"fcade1c8-56bf-46fe-a2c2-d4e3b3dbceae","system_id":"levelo_inurba_marseille","lat":43.31229,"lon":5.36853,"is_reserved":false,"is_disabled":false,"rental_uris":{"android":"levelo://app?vid=fcade1c8-56bf-46fe-a2c2-d4e3b3dbceae","ios":"levelo://app?vid=fcade1c8-56bf-46fe-a2c2-d4e3b3dbceae"},"vehicle_type_id":"4","last_reported":1774245776,"current_range_meters":9200,"station_id":"ce4bgl92rcd13ifvqbq0","pricing_plan_id":"cebpf4jnsgd1na2vs0mg"},{"bike_id":"62a1e4fd-e3ad-46fe-b402-8815b6d0f81c","system_id":"levelo_inurba_marseille","lat":43.27658,"lon":5.38903,"is_reserved":false,"is_disabled":false,"rental_uris":{"android":"levelo://app?vid=62a1e4fd-e3ad-46fe-b402-8815b6d0f81c","ios":"levelo://app?vid=62a1e4fd-e3ad-46fe-b402-8815b6d0f81c"},"vehicle_type_id":"4","last_reported":1774245776,"current_range_meters":9200,"station_id":"ce4bhi12rcd13ifvqfo0","pricing_plan_id":"cebpf4jnsgd1na2vs0mg"},{"bike_id":"d89b1915-483d-4d09-b44a-47b8df915eef","system_id":"levelo_inurba_marseille","lat":43.23086,"lon":5.35439,"is_reserved":false,"is_disabled":false,"rental_uris":{"android":"levelo://app?vid=d89b1915-483d-4d09-b44a-47b8df915eef","ios":"levelo://app?vid=d89b1915-483d-4d09-b44a-47b8df915eef"},"vehicle_type_id":"4","last_reported":1774245776,"current_range_meters":9200,"station_id":"","pricing_plan_id":"cebpf4jnsgd1na2vs0mg"},{"bike_id":"c1af2eca-cb1d-451f-a2e9-025bc5e4557d","system_id":"levelo_inurba_marseille","lat":43.302,"lon":5.366,"is_reserved":false,"is_disabled":false,"rental_uris":{"android":"levelo://app?vid=c1af2eca-cb1d-451f-a2e9-025bc5e4557d","ios":"levelo://app?vid=c1af2eca-cb1d-451f-a2e9-025bc5e4557d"},"vehicle_type_id":"4","last_reported":1774245776,"current_range_meters":9200,"station_id":"ce4bgrh2rcd13ifvqc8g","pricing_plan_id":"cebpf4jnsgd1na2vs0mg"},{"bike_id":"f033ea71-f55e-4168-9f53-5fea39cd7808","system_id":"levelo_inurba_marseille","lat":43.30046,"lon":5.40025,"is_reserved":false,"is_disabled":true,"rental_uris":{"android":"levelo://app?vid=f033ea71-f55e-4168-9f53-5fea39cd7808","ios":"levelo://app?vid=f033ea71-f55e-4168-9f53-5fea39cd7808"},"vehicle_type_id":"4","last_reported":1774245776,"current_range_meters":9600,"station_id":"","pricing_plan_id":"cebpf4jnsgd1na2vs0mg"},{"bike_id":"c22725b4-9ea3-4b53-a2e5-b6027b014749","system_id":"levelo_inurba_marseille","lat":43.2925,"lon":5.40901,"is_reserved":false,"is_disabled":false,"rental_uris":{"android":"levelo://app?vid=c22725b4-9ea3-4b53-a2e5-b6027b014749","ios":"levelo://app?vid=c22725b4-9ea3-4b53-a2e5-b6027b014749"},"vehicle_type_id":"4","last_reported":1774245776,"current_range_meters":9600,"station_id":"ce4bh192rcd13ifvqdc0","pricing_plan_id":"cebpf4jnsgd1na2vs0mg"},{"bike_id":"7d57cb77-2191-40c3-b57a-baa532486115","system_id":"levelo_inurba_marseille","lat":43.26569,"lon":5.38993,"is_reserved":false,"is_disabled":true,"rental_uris":{"android":"levelo://app?vid=7d57cb77-2191-40c3-b57a-baa532486115","ios":"levelo://app?vid=7d57cb77-2191-40c3-b57a-baa532486115"},"vehicle_type_id":"4","last_reported":1774245776,"current_range_meters":9600,"station_id":"ce4bhe12rcd13ifvqf30","pricing_plan_id":"cebpf4jnsgd1na2vs0mg"},{"bike_id":"e41c893a-4032-48f3-bf3a-8efcbfe1465c","system_id":"levelo_inurba_marseille","lat":43.25828,"lon":5.39441,"is_reserved":false,"is_disabled":true,"rental_uris":{"android":"levelo://app?vid=e41c893a-4032-48f3-bf3a-8efcbfe1465c","ios":"levelo://app?vid=e41c893a-4032-48f3-bf3a-8efcbfe1465c"},"vehicle_type_id":"4","last_reported":1774245776,"current_range_meters":9600,"station_id":"ce4bhip2rcd13ifvqft0","pricing_plan_id":"cebpf4jnsgd1na2vs0mg"},{"bike_id":"6269c051-a019-4bb9-955a-4fc0d953215f","system_id":"levelo_inurba_marseille","lat":43.25807,"lon":5.39427,"is_reserved":false,"is_disabled":false,"rental_uris":{"android":"levelo://app?vid=6269c051-a019-4bb9-955a-4fc0d953215f","ios":"levelo://app?vid=6269c051-a019-4bb9-955a-4fc0d953215f"},"vehicle_type_id":"4","last_reported":1774245776,"current_range_meters":9600,"station_id":"ce4bhip2rcd13ifvqft0","pricing_plan_id":"cebpf4jnsgd1na2vs0mg"},{"bike_id":"72999db3-62c4-4d6b-9c7f-3129997c7dc6","system_id":"levelo_inurba_marseille","lat":43.28154,"lon":5.40931,"is_reserved":false,"is_disabled":false,"rental_uris":{"android":"levelo://app?vid=72999db3-62c4-4d6b-9c7f-3129997c7dc6","ios":"levelo://app?vid=72999db3-62c4-4d6b-9c7f-3129997c7dc6"},"vehicle_type_id":"4","last_reported":1774245776,"current_range_meters":9600,"station_id":"","pricing_plan_id":"cebpf4jnsgd1na2vs0mg"},{"bike_id":"4d88734a-162e-4307-92a3-61e5ee7aa63f","system_id":"levelo_inurba_marseille","lat":43.29205,"lon":5.42586,"is_reserved":false,"is_disabled":false,"rental_uris":{"android":"levelo://app?vid=4d88734a-162e-4307-92a3-61e5ee7aa63f","ios":"levelo://app?vid=4d88734a-162e-4307-92a3-61e5ee7aa63f"},"vehicle_type_id":"4","last_reported":1774245776,"current_range_meters":9600,"station_id":"","pricing_plan_id":"cebpf4jnsgd1na2vs0mg"},{"bike_id":"a02254bd-c448-428c-84b3-b84d0f3bfc68","system_id":"levelo_inurba_marseille","lat":43.24173,"lon":5.36393,"is_reserved":false,"is_disabled":false,"rental_uris":{"android":"levelo://app?vid=a02254bd-c448-428c-84b3-b84d0f3bfc68","ios":"levelo://app?vid=a02254bd-c448-428c-84b3-b84d0f3bfc68"},"vehicle_type_id":"4","last_reported":1774245776,"current_range_meters":9600,"station_id":"cpo36qri1sfpv3e86is0","pricing_plan_id":"cebpf4jnsgd1na2vs0mg"},{"bike_id":"efa7e1ef-0ea1-460f-9c92-b399d72f26a0","system_id":"levelo_inurba_marseille","lat":43.3112,"lon":5.37785,"is_reserved":false,"is_disabled":true,"rental_uris":{"android":"levelo://app?vid=efa7e1ef-0ea1-460f-9c92-b399d72f26a0","ios":"levelo://app?vid=efa7e1ef-0ea1-460f-9c92-b399d72f26a0"},"vehicle_type_id":"4","last_reported":1774245776,"current_range_meters":10000,"station_id":"ce4bgt92rcd13ifvqcg0","pricing_plan_id":"cebpf4jnsgd1na2vs0mg"},{"bike_id":"f910acab-e234-4475-91c9-ec3fea6d1bf3","system_id":"levelo_inurba_marseille","lat":43.29906,"lon":5.4362,"is_reserved":false,"is_disabled":false,"rental_uris":{"android":"levelo://app?vid=f910acab-e234-4475-91c9-ec3fea6d1bf3","ios":"levelo://app?vid=f910acab-e234-4475-91c9-ec3fea6d1bf3"},"vehicle_type_id":"4","last_reported":1774245776,"current_range_meters":10000,"station_id":"ce4bhpp2rcd13ifvqhfg","pricing_plan_id":"cebpf4jnsgd1na2vs0mg"},{"bike_id":"53410926-52e7-418d-9bc3-bd6e5425754b","system_id":"levelo_inurba_marseille","lat":43.29242,"lon":5.40897,"is_reserved":false,"is_disabled":false,"rental_uris":{"android":"levelo://app?vid=53410926-52e7-418d-9bc3-bd6e5425754b","ios":"levelo://app?vid=53410926-52e7-418d-9bc3-bd6e5425754b"},"vehicle_type_id":"4","last_reported":1774245776,"current_range_meters":10000,"station_id":"ce4bh192rcd13ifvqdc0","pricing_plan_id":"cebpf4jnsgd1na2vs0mg"},{"bike_id":"13d81c3e-583d-4170-96b6-142a87e2f0b0","system_id":"levelo_inurba_marseille","lat":43.28471,"lon":5.48418,"is_reserved":false,"is_disabled":false,"rental_uris":{"android":"levelo://app?vid=13d81c3e-583d-4170-96b6-142a87e2f0b0","ios":"levelo://app?vid=13d81c3e-583d-4170-96b6-142a87e2f0b0"},"vehicle_type_id":"4","last_reported":1774245776,"current_range_meters":10000,"station_id":"st_d3svhcjqgbts73a3dn0g","pricing_plan_id":"cebpf4jnsgd1na2vs0mg"},{"bike_id":"113bdd0b-34d4-40b5-8f93-c39528d91365","system_id":"levelo_inurba_marseille","lat":43.29542,"lon":5.37493,"is_reserved":false,"is_disabled":false,"rental_uris":{"android":"levelo://app?vid=113bdd0b-34d4-40b5-8f93-c39528d91365","ios":"levelo://app?vid=113bdd0b-34d4-40b5-8f93-c39528d91365"},"vehicle_type_id":"4","last_reported":1774245776,"current_range_meters":10000,"station_id":"ce4bgkp2rcd13ifvqbmg","pricing_plan_id":"cebpf4jnsgd1na2vs0mg"},{"bike_id":"7e03e45c-d69c-4371-8267-aa26cde43729","system_id":"levelo_inurba_marseille","lat":43.25572,"lon":5.38242,"is_reserved":false,"is_disabled":true,"rental_uris":{"android":"levelo://app?vid=7e03e45c-d69c-4371-8267-aa26cde43729","ios":"levelo://app?vid=7e03e45c-d69c-4371-8267-aa26cde43729"},"vehicle_type_id":"4","last_reported":1774245776,"current_range_meters":10000,"station_id":"ce4bhih2rcd13ifvqfs0","pricing_plan_id":"cebpf4jnsgd1na2vs0mg"},{"bike_id":"295d2fa8-4106-478d-8168-0961e395cea1","system_id":"levelo_inurba_marseille","lat":43.26834,"lon":5.39431,"is_reserved":false,"is_disabled":true,"rental_uris":{"android":"levelo://app?vid=295d2fa8-4106-478d-8168-0961e395cea1","ios":"levelo://app?vid=295d2fa8-4106-478d-8168-0961e395cea1"},"vehicle_type_id":"4","last_reported":1774245776,"current_range_meters":10000,"station_id":"ce4bhh12rcd13ifvqfg0","pricing_plan_id":"cebpf4jnsgd1na2vs0mg"},{"bike_id":"6ac6bb2d-ca1a-4b5e-a4f8-257a2df2add4","system_id":"levelo_inurba_marseille","lat":43.29763,"lon":5.37078,"is_reserved":false,"is_disabled":false,"rental_uris":{"android":"levelo://app?vid=6ac6bb2d-ca1a-4b5e-a4f8-257a2df2add4","ios":"levelo://app?vid=6ac6bb2d-ca1a-4b5e-a4f8-257a2df2add4"},"vehicle_type_id":"4","last_reported":1774245776,"current_range_meters":10000,"station_id":"ce4bgop2rcd13ifvqc1g","pricing_plan_id":"cebpf4jnsgd1na2vs0mg"},{"bike_id":"75e59563-ffa7-4867-b4b9-7b4ffc2312c5","system_id":"levelo_inurba_marseille","lat":43.29973,"lon":5.38465,"is_reserved":false,"is_disabled":true,"rental_uris":{"android":"levelo://app?vid=75e59563-ffa7-4867-b4b9-7b4ffc2312c5","ios":"levelo://app?vid=75e59563-ffa7-4867-b4b9-7b4ffc2312c5"},"vehicle_type_id":"4","last_reported":1774245776,"current_range_meters":10800,"station_id":"ce4bgj92rcd13ifvqbd0","pricing_plan_id":"cebpf4jnsgd1na2vs0mg"},{"bike_id":"b4bd60d6-d657-4d29-a6ad-eb404614cc16","system_id":"levelo_inurba_marseille","lat":43.28715,"lon":5.35203,"is_reserved":false,"is_disabled":false,"rental_uris":{"android":"levelo://app?vid=b4bd60d6-d657-4d29-a6ad-eb404614cc16","ios":"levelo://app?vid=b4bd60d6-d657-4d29-a6ad-eb404614cc16"},"vehicle_type_id":"4","last_reported":1774245776,"current_range_meters":10800,"station_id":"","pricing_plan_id":"cebpf4jnsgd1na2vs0mg"},{"bike_id":"e5d31c67-3dd5-4644-a03d-0c5ef392d2d4","system_id":"levelo_inurba_marseille","lat":43.27999,"lon":5.41691,"is_reserved":false,"is_disabled":false,"rental_uris":{"android":"levelo://app?vid=e5d31c67-3dd5-4644-a03d-0c5ef392d2d4","ios":"levelo://app?vid=e5d31c67-3dd5-4644-a03d-0c5ef392d2d4"},"vehicle_type_id":"4","last_reported":1774245776,"current_range_meters":10800,"station_id":"ce4bho12rcd13ifvqh1g","pricing_plan_id":"cebpf4jnsgd1na2vs0mg"},{"bike_id":"58aab821-f7e0-42a9-9585-db0d7bd2e556","system_id":"levelo_inurba_marseille","lat":43.2925,"lon":5.40927,"is_reserved":false,"is_disabled":false,"rental_uris":{"android":"levelo://app?vid=58aab821-f7e0-42a9-9585-db0d7bd2e556","ios":"levelo://app?vid=58aab821-f7e0-42a9-9585-db0d7bd2e556"},"vehicle_type_id":"4","last_reported":1774245776,"current_range_meters":10800,"station_id":"ce4bh192rcd13ifvqdc0","pricing_plan_id":"cebpf4jnsgd1na2vs0mg"},{"bike_id":"28b5bda2-dead-404d-862b-94aa0e4db616","system_id":"levelo_inurba_marseille","lat":43.30969,"lon":5.39055,"is_reserved":false,"is_disabled":false,"rental_uris":{"android":"levelo://app?vid=28b5bda2-dead-404d-862b-94aa0e4db616","ios":"levelo://app?vid=28b5bda2-dead-404d-862b-94aa0e4db616"},"vehicle_type_id":"4","last_reported":1774245776,"current_range_meters":10800,"station_id":"ce4bgup2rcd13ifvqco0","pricing_plan_id":"cebpf4jnsgd1na2vs0mg"},{"bike_id":"b0bb96d4-b305-4e3e-9c20-c76e7282139c","system_id":"levelo_inurba_marseille","lat":43.26064,"lon":5.39398,"is_reserved":false,"is_disabled":false,"rental_uris":{"android":"levelo://app?vid=b0bb96d4-b305-4e3e-9c20-c76e7282139c","ios":"levelo://app?vid=b0bb96d4-b305-4e3e-9c20-c76e7282139c"},"vehicle_type_id":"4","last_reported":1774245776,"current_range_meters":10800,"station_id":"ce4bhh92rcd13ifvqfj0","pricing_plan_id":"cebpf4jnsgd1na2vs0mg"},{"bike_id":"6711ca2b-9a4e-46b1-892e-1007cc2a656e","system_id":"levelo_inurba_marseille","lat":43.28543,"lon":5.44126,"is_reserved":false,"is_disabled":false,"rental_uris":{"android":"levelo://app?vid=6711ca2b-9a4e-46b1-892e-1007cc2a656e","ios":"levelo://app?vid=6711ca2b-9a4e-46b1-892e-1007cc2a656e"},"vehicle_type_id":"4","last_reported":1774245776,"current_range_meters":10800,"station_id":"st_d3j3df2ikq2c7380ej80","pricing_plan_id":"cebpf4jnsgd1na2vs0mg"},{"bike_id":"d83ea82e-be2f-431e-9ab0-6788d75de82a","system_id":"levelo_inurba_marseille","lat":43.27951,"lon":5.43645,"is_reserved":false,"is_disabled":false,"rental_uris":{"android":"levelo://app?vid=d83ea82e-be2f-431e-9ab0-6788d75de82a","ios":"levelo://app?vid=d83ea82e-be2f-431e-9ab0-6788d75de82a"},"vehicle_type_id":"4","last_reported":1774245776,"current_range_meters":10800,"station_id":"","pricing_plan_id":"cebpf4jnsgd1na2vs0mg"},{"bike_id":"cb6f9d55-044f-4b41-a0c4-e3da4e421b9e","system_id":"levelo_inurba_marseille","lat":43.27053,"lon":5.40251,"is_reserved":false,"is_disabled":false,"rental_uris":{"android":"levelo://app?vid=cb6f9d55-044f-4b41-a0c4-e3da4e421b9e","ios":"levelo://app?vid=cb6f9d55-044f-4b41-a0c4-e3da4e421b9e"},"vehicle_type_id":"4","last_reported":1774245776,"current_range_meters":11200,"station_id":"ce4bhk92rcd13ifvqgc0","pricing_plan_id":"cebpf4jnsgd1na2vs0mg"},{"bike_id":"258ecf01-b367-4a76-ac49-bc64b3305074","system_id":"levelo_inurba_marseille","lat":43.29934,"lon":5.36554,"is_reserved":false,"is_disabled":false,"rental_uris":{"android":"levelo://app?vid=258ecf01-b367-4a76-ac49-bc64b3305074","ios":"levelo://app?vid=258ecf01-b367-4a76-ac49-bc64b3305074"},"vehicle_type_id":"4","last_reported":1774245776,"current_range_meters":11200,"station_id":"ce4bgm92rcd13ifvqbr0","pricing_plan_id":"cebpf4jnsgd1na2vs0mg"},{"bike_id":"445a363e-6635-4c6f-9d9b-6ed1d223c4e8","system_id":"levelo_inurba_marseille","lat":43.29561,"lon":5.43886,"is_reserved":false,"is_disabled":false,"rental_uris":{"android":"levelo://app?vid=445a363e-6635-4c6f-9d9b-6ed1d223c4e8","ios":"levelo://app?vid=445a363e-6635-4c6f-9d9b-6ed1d223c4e8"},"vehicle_type_id":"4","last_reported":1774245776,"current_range_meters":11200,"station_id":"","pricing_plan_id":"cebpf4jnsgd1na2vs0mg"},{"bike_id":"34626e01-cc86-4c92-b6b2-0a10b25993e7","system_id":"levelo_inurba_marseille","lat":43.28617,"lon":5.35101,"is_reserved":false,"is_disabled":true,"rental_uris":{"android":"levelo://app?vid=34626e01-cc86-4c92-b6b2-0a10b25993e7","ios":"levelo://app?vid=34626e01-cc86-4c92-b6b2-0a10b25993e7"},"vehicle_type_id":"4","last_reported":1774245776,"current_range_meters":11200,"station_id":"ce4bhch2rcd13ifvqeug","pricing_plan_id":"cebpf4jnsgd1na2vs0mg"},{"bike_id":"ca4e314c-bf2f-4e93-89c6-79cfa26245c3","system_id":"levelo_inurba_marseille","lat":43.2894,"lon":5.39651,"is_reserved":false,"is_disabled":true,"rental_uris":{"android":"levelo://app?vid=ca4e314c-bf2f-4e93-89c6-79cfa26245c3","ios":"levelo://app?vid=ca4e314c-bf2f-4e93-89c6-79cfa26245c3"},"vehicle_type_id":"4","last_reported":1774245776,"current_range_meters":11200,"station_id":"ce4bh3h2rcd13ifvqdn0","pricing_plan_id":"cebpf4jnsgd1na2vs0mg"},{"bike_id":"db6cb8bd-934a-4587-b044-6ea58cbd11b5","system_id":"levelo_inurba_marseille","lat":43.30955,"lon":5.40129,"is_reserved":false,"is_disabled":false,"rental_uris":{"android":"levelo://app?vid=db6cb8bd-934a-4587-b044-6ea58cbd11b5","ios":"levelo://app?vid=db6cb8bd-934a-4587-b044-6ea58cbd11b5"},"vehicle_type_id":"4","last_reported":1774245776,"current_range_meters":11200,"station_id":"ce4bgvp2rcd13ifvqct0","pricing_plan_id":"cebpf4jnsgd1na2vs0mg"},{"bike_id":"ae849cd5-d720-4be4-bcab-93f0ccba2c10","system_id":"levelo_inurba_marseille","lat":43.29972,"lon":5.38484,"is_reserved":false,"is_disabled":true,"rental_uris":{"android":"levelo://app?vid=ae849cd5-d720-4be4-bcab-93f0ccba2c10","ios":"levelo://app?vid=ae849cd5-d720-4be4-bcab-93f0ccba2c10"},"vehicle_type_id":"4","last_reported":1774245776,"current_range_meters":11200,"station_id":"ce4bgj92rcd13ifvqbd0","pricing_plan_id":"cebpf4jnsgd1na2vs0mg"},{"bike_id":"22198e4c-05a9-4135-822e-fed3eb0a0767","system_id":"levelo_inurba_marseille","lat":43.24003,"lon":5.36256,"is_reserved":false,"is_disabled":false,"rental_uris":{"android":"levelo://app?vid=22198e4c-05a9-4135-822e-fed3eb0a0767","ios":"levelo://app?vid=22198e4c-05a9-4135-822e-fed3eb0a0767"},"vehicle_type_id":"4","last_reported":1774245776,"current_range_meters":11200,"station_id":"","pricing_plan_id":"cebpf4jnsgd1na2vs0mg"},{"bike_id":"f3dccb27-25f8-415f-8a8c-207408b72398","system_id":"levelo_inurba_marseille","lat":43.32075,"lon":5.36763,"is_reserved":false,"is_disabled":false,"rental_uris":{"android":"levelo://app?vid=f3dccb27-25f8-415f-8a8c-207408b72398","ios":"levelo://app?vid=f3dccb27-25f8-415f-8a8c-207408b72398"},"vehicle_type_id":"4","last_reported":1774245776,"current_range_meters":11200,"station_id":"ce4bhrh2rcd13ifvqhug","pricing_plan_id":"cebpf4jnsgd1na2vs0mg"},{"bike_id":"4a4c5b02-3826-46bf-ab56-d7070d2a92cf","system_id":"levelo_inurba_marseille","lat":43.27183,"lon":5.39246,"is_reserved":false,"is_disabled":true,"rental_uris":{"android":"levelo://app?vid=4a4c5b02-3826-46bf-ab56-d7070d2a92cf","ios":"levelo://app?vid=4a4c5b02-3826-46bf-ab56-d7070d2a92cf"},"vehicle_type_id":"4","last_reported":1774245776,"current_range_meters":11200,"station_id":"","pricing_plan_id":"cebpf4jnsgd1na2vs0mg"},{"bike_id":"8d8566de-f03a-4e5e-aa8c-ad2e3c17ab03","system_id":"levelo_inurba_marseille","lat":43.31542,"lon":5.37323,"is_reserved":false,"is_disabled":false,"rental_uris":{"android":"levelo://app?vid=8d8566de-f03a-4e5e-aa8c-ad2e3c17ab03","ios":"levelo://app?vid=8d8566de-f03a-4e5e-aa8c-ad2e3c17ab03"},"vehicle_type_id":"4","last_reported":1774245776,"current_range_meters":11200,"station_id":"","pricing_plan_id":"cebpf4jnsgd1na2vs0mg"},{"bike_id":"af10273c-7918-4b93-870b-c972d39a814c","system_id":"levelo_inurba_marseille","lat":43.29363,"lon":5.37854,"is_reserved":false,"is_disabled":false,"rental_uris":{"android":"levelo://app?vid=af10273c-7918-4b93-870b-c972d39a814c","ios":"levelo://app?vid=af10273c-7918-4b93-870b-c972d39a814c"},"vehicle_type_id":"4","last_reported":1774245776,"current_range_meters":11200,"station_id":"ce4bgjh2rcd13ifvqbf0","pricing_plan_id":"cebpf4jnsgd1na2vs0mg"},{"bike_id":"1206b80d-08df-4dbc-999c-48aabe775d89","system_id":"levelo_inurba_marseille","lat":43.30302,"lon":5.44965,"is_reserved":false,"is_disabled":false,"rental_uris":{"android":"levelo://app?vid=1206b80d-08df-4dbc-999c-48aabe775d89","ios":"levelo://app?vid=1206b80d-08df-4dbc-999c-48aabe775d89"},"vehicle_type_id":"4","last_reported":1774245776,"current_range_meters":11200,"station_id":"","pricing_plan_id":"cebpf4jnsgd1na2vs0mg"},{"bike_id":"a50b390d-5da0-4e7c-b82b-581803072c00","system_id":"levelo_inurba_marseille","lat":43.30551,"lon":5.38439,"is_reserved":false,"is_disabled":true,"rental_uris":{"android":"levelo://app?vid=a50b390d-5da0-4e7c-b82b-581803072c00","ios":"levelo://app?vid=a50b390d-5da0-4e7c-b82b-581803072c00"},"vehicle_type_id":"4","last_reported":1774245776,"current_range_meters":11600,"station_id":"ce4bgg92rcd13ifvqb30","pricing_plan_id":"cebpf4jnsgd1na2vs0mg"},{"bike_id":"cc694c90-48c9-44bd-9fbd-be6eb3a63165","system_id":"levelo_inurba_marseille","lat":43.30128,"lon":5.43125,"is_reserved":false,"is_disabled":false,"rental_uris":{"android":"levelo://app?vid=cc694c90-48c9-44bd-9fbd-be6eb3a63165","ios":"levelo://app?vid=cc694c90-48c9-44bd-9fbd-be6eb3a63165"},"vehicle_type_id":"4","last_reported":1774245776,"current_range_meters":11600,"station_id":"st_d3js3co5814s73ftftug","pricing_plan_id":"cebpf4jnsgd1na2vs0mg"},{"bike_id":"a14d2edd-85c5-4116-8db5-355e3fb2ddbe","system_id":"levelo_inurba_marseille","lat":43.3353,"lon":5.37453,"is_reserved":false,"is_disabled":false,"rental_uris":{"android":"levelo://app?vid=a14d2edd-85c5-4116-8db5-355e3fb2ddbe","ios":"levelo://app?vid=a14d2edd-85c5-4116-8db5-355e3fb2ddbe"},"vehicle_type_id":"4","last_reported":1774245776,"current_range_meters":11600,"station_id":"st_d46tts09ee8s73dlu43g","pricing_plan_id":"cebpf4jnsgd1na2vs0mg"},{"bike_id":"3db0d5b3-5a26-43cc-9c86-13842885627f","system_id":"levelo_inurba_marseille","lat":43.29076,"lon":5.37159,"is_reserved":false,"is_disabled":false,"rental_uris":{"android":"levelo://app?vid=3db0d5b3-5a26-43cc-9c86-13842885627f","ios":"levelo://app?vid=3db0d5b3-5a26-43cc-9c86-13842885627f"},"vehicle_type_id":"4","last_reported":1774245776,"current_range_meters":11600,"station_id":"ce4bh5p2rcd13ifvqe4g","pricing_plan_id":"cebpf4jnsgd1na2vs0mg"},{"bike_id":"efe811b6-5e10-4e8c-9e59-a484522fb832","system_id":"levelo_inurba_marseille","lat":43.25574,"lon":5.38228,"is_reserved":false,"is_disabled":false,"rental_uris":{"android":"levelo://app?vid=efe811b6-5e10-4e8c-9e59-a484522fb832","ios":"levelo://app?vid=efe811b6-5e10-4e8c-9e59-a484522fb832"},"vehicle_type_id":"4","last_reported":1774245776,"current_range_meters":11600,"station_id":"ce4bhih2rcd13ifvqfs0","pricing_plan_id":"cebpf4jnsgd1na2vs0mg"},{"bike_id":"ba3022d7-e9b1-41e9-87b5-e8d444428181","system_id":"levelo_inurba_marseille","lat":43.29996,"lon":5.37173,"is_reserved":false,"is_disabled":true,"rental_uris":{"android":"levelo://app?vid=ba3022d7-e9b1-41e9-87b5-e8d444428181","ios":"levelo://app?vid=ba3022d7-e9b1-41e9-87b5-e8d444428181"},"vehicle_type_id":"4","last_reported":1774245776,"current_range_meters":11600,"station_id":"ce4bgr92rcd13ifvqc7g","pricing_plan_id":"cebpf4jnsgd1na2vs0mg"},{"bike_id":"543df3f3-032e-48af-8eca-af9ff1129bfe","system_id":"levelo_inurba_marseille","lat":43.3104,"lon":5.37179,"is_reserved":false,"is_disabled":false,"rental_uris":{"android":"levelo://app?vid=543df3f3-032e-48af-8eca-af9ff1129bfe","ios":"levelo://app?vid=543df3f3-032e-48af-8eca-af9ff1129bfe"},"vehicle_type_id":"4","last_reported":1774245776,"current_range_meters":11600,"station_id":"st_d4kl2rp97mjs73e7tdfg","pricing_plan_id":"cebpf4jnsgd1na2vs0mg"},{"bike_id":"bc8433fb-2ae3-4f65-a681-78d9ea89d90e","system_id":"levelo_inurba_marseille","lat":43.23897,"lon":5.37458,"is_reserved":false,"is_disabled":true,"rental_uris":{"android":"levelo://app?vid=bc8433fb-2ae3-4f65-a681-78d9ea89d90e","ios":"levelo://app?vid=bc8433fb-2ae3-4f65-a681-78d9ea89d90e"},"vehicle_type_id":"4","last_reported":1774245776,"current_range_meters":11600,"station_id":"st_d6sm7csbq4hs73f8fpjg","pricing_plan_id":"cebpf4jnsgd1na2vs0mg"},{"bike_id":"40906df4-17dd-4d9f-ac1f-0880c5eb117e","system_id":"levelo_inurba_marseille","lat":43.32348,"lon":5.3676,"is_reserved":false,"is_disabled":false,"rental_uris":{"android":"levelo://app?vid=40906df4-17dd-4d9f-ac1f-0880c5eb117e","ios":"levelo://app?vid=40906df4-17dd-4d9f-ac1f-0880c5eb117e"},"vehicle_type_id":"4","last_reported":1774245776,"current_range_meters":12000,"station_id":"ce4bhsh2rcd13ifvqi2g","pricing_plan_id":"cebpf4jnsgd1na2vs0mg"},{"bike_id":"0fd033e4-5a1d-40d1-a80c-98a43294da01","system_id":"levelo_inurba_marseille","lat":43.23754,"lon":5.36665,"is_reserved":false,"is_disabled":true,"rental_uris":{"android":"levelo://app?vid=0fd033e4-5a1d-40d1-a80c-98a43294da01","ios":"levelo://app?vid=0fd033e4-5a1d-40d1-a80c-98a43294da01"},"vehicle_type_id":"4","last_reported":1774245776,"current_range_meters":12000,"station_id":"st_d3nk18o9ro0c73en2l3g","pricing_plan_id":"cebpf4jnsgd1na2vs0mg"},{"bike_id":"a9338625-ab93-4ae1-ac6b-c8efe0465985","system_id":"levelo_inurba_marseille","lat":43.28212,"lon":5.39079,"is_reserved":false,"is_disabled":false,"rental_uris":{"android":"levelo://app?vid=a9338625-ab93-4ae1-ac6b-c8efe0465985","ios":"levelo://app?vid=a9338625-ab93-4ae1-ac6b-c8efe0465985"},"vehicle_type_id":"4","last_reported":1774245776,"current_range_meters":12000,"station_id":"ce4bhn92rcd13ifvqgsg","pricing_plan_id":"cebpf4jnsgd1na2vs0mg"},{"bike_id":"4ce98637-072f-4197-bd69-11f207a88eab","system_id":"levelo_inurba_marseille","lat":43.28496,"lon":5.47279,"is_reserved":false,"is_disabled":false,"rental_uris":{"android":"levelo://app?vid=4ce98637-072f-4197-bd69-11f207a88eab","ios":"levelo://app?vid=4ce98637-072f-4197-bd69-11f207a88eab"},"vehicle_type_id":"4","last_reported":1774245776,"current_range_meters":12000,"station_id":"","pricing_plan_id":"cebpf4jnsgd1na2vs0mg"},{"bike_id":"03de066e-76f7-4061-86fd-4299f0e7442e","system_id":"levelo_inurba_marseille","lat":43.23168,"lon":5.43692,"is_reserved":false,"is_disabled":false,"rental_uris":{"android":"levelo://app?vid=03de066e-76f7-4061-86fd-4299f0e7442e","ios":"levelo://app?vid=03de066e-76f7-4061-86fd-4299f0e7442e"},"vehicle_type_id":"4","last_reported":1774245776,"current_range_meters":12000,"station_id":"ce4bhmp2rcd13ifvqgog","pricing_plan_id":"cebpf4jnsgd1na2vs0mg"},{"bike_id":"66a43d55-32c7-48fb-b013-3d7574d12857","system_id":"levelo_inurba_marseille","lat":43.25015,"lon":5.38908,"is_reserved":false,"is_disabled":true,"rental_uris":{"android":"levelo://app?vid=66a43d55-32c7-48fb-b013-3d7574d12857","ios":"levelo://app?vid=66a43d55-32c7-48fb-b013-3d7574d12857"},"vehicle_type_id":"4","last_reported":1774245776,"current_range_meters":12400,"station_id":"ce4bhgp2rcd13ifvqfd0","pricing_plan_id":"cebpf4jnsgd1na2vs0mg"},{"bike_id":"e4739c25-dd1d-43da-9941-56dfa51da56f","system_id":"levelo_inurba_marseille","lat":43.24465,"lon":5.42566,"is_reserved":false,"is_disabled":false,"rental_uris":{"android":"levelo://app?vid=e4739c25-dd1d-43da-9941-56dfa51da56f","ios":"levelo://app?vid=e4739c25-dd1d-43da-9941-56dfa51da56f"},"vehicle_type_id":"4","last_reported":1774245776,"current_range_meters":12400,"station_id":"st_d4a3vfp97mjs738cd8kg","pricing_plan_id":"cebpf4jnsgd1na2vs0mg"},{"bike_id":"17b6291a-b600-49d3-9437-0d985b9a42cc","system_id":"levelo_inurba_marseille","lat":43.30306,"lon":5.36898,"is_reserved":false,"is_disabled":false,"rental_uris":{"android":"levelo://app?vid=17b6291a-b600-49d3-9437-0d985b9a42cc","ios":"levelo://app?vid=17b6291a-b600-49d3-9437-0d985b9a42cc"},"vehicle_type_id":"4","last_reported":1774245776,"current_range_meters":12400,"station_id":"ce4bgqh2rcd13ifvqc5g","pricing_plan_id":"cebpf4jnsgd1na2vs0mg"},{"bike_id":"22a24422-8367-44e3-afc2-fd1672c2c7f5","system_id":"levelo_inurba_marseille","lat":43.28465,"lon":5.48397,"is_reserved":false,"is_disabled":false,"rental_uris":{"android":"levelo://app?vid=22a24422-8367-44e3-afc2-fd1672c2c7f5","ios":"levelo://app?vid=22a24422-8367-44e3-afc2-fd1672c2c7f5"},"vehicle_type_id":"4","last_reported":1774245776,"current_range_meters":12400,"station_id":"","pricing_plan_id":"cebpf4jnsgd1na2vs0mg"},{"bike_id":"2f5b6265-483e-47d4-831c-32860cec290b","system_id":"levelo_inurba_marseille","lat":43.29572,"lon":5.42278,"is_reserved":false,"is_disabled":false,"rental_uris":{"android":"levelo://app?vid=2f5b6265-483e-47d4-831c-32860cec290b","ios":"levelo://app?vid=2f5b6265-483e-47d4-831c-32860cec290b"},"vehicle_type_id":"4","last_reported":1774245776,"current_range_meters":12400,"station_id":"ce4bhph2rcd13ifvqhdg","pricing_plan_id":"cebpf4jnsgd1na2vs0mg"},{"bike_id":"5987f688-172d-467f-a4f8-2365ff50bca8","system_id":"levelo_inurba_marseille","lat":43.31337,"lon":5.39701,"is_reserved":false,"is_disabled":false,"rental_uris":{"android":"levelo://app?vid=5987f688-172d-467f-a4f8-2365ff50bca8","ios":"levelo://app?vid=5987f688-172d-467f-a4f8-2365ff50bca8"},"vehicle_type_id":"4","last_reported":1774245776,"current_range_meters":12400,"station_id":"ce4bgvp2rcd13ifvqcu0","pricing_plan_id":"cebpf4jnsgd1na2vs0mg"},{"bike_id":"b15a8670-d1c3-40c0-805f-f16a08339103","system_id":"levelo_inurba_marseille","lat":43.29342,"lon":5.37855,"is_reserved":false,"is_disabled":false,"rental_uris":{"android":"levelo://app?vid=b15a8670-d1c3-40c0-805f-f16a08339103","ios":"levelo://app?vid=b15a8670-d1c3-40c0-805f-f16a08339103"},"vehicle_type_id":"4","last_reported":1774245776,"current_range_meters":12400,"station_id":"ce4bgjh2rcd13ifvqbf0","pricing_plan_id":"cebpf4jnsgd1na2vs0mg"},{"bike_id":"cbe143e8-3e8d-46c8-8239-3389a4661d28","system_id":"levelo_inurba_marseille","lat":43.30309,"lon":5.36937,"is_reserved":false,"is_disabled":false,"rental_uris":{"android":"levelo://app?vid=cbe143e8-3e8d-46c8-8239-3389a4661d28","ios":"levelo://app?vid=cbe143e8-3e8d-46c8-8239-3389a4661d28"},"vehicle_type_id":"4","last_reported":1774245776,"current_range_meters":12400,"station_id":"ce4bgqh2rcd13ifvqc5g","pricing_plan_id":"cebpf4jnsgd1na2vs0mg"},{"bike_id":"75d3faa8-0304-4eca-9bc0-30a99e6e4a5e","system_id":"levelo_inurba_marseille","lat":43.22536,"lon":5.34839,"is_reserved":false,"is_disabled":true,"rental_uris":{"android":"levelo://app?vid=75d3faa8-0304-4eca-9bc0-30a99e6e4a5e","ios":"levelo://app?vid=75d3faa8-0304-4eca-9bc0-30a99e6e4a5e"},"vehicle_type_id":"4","last_reported":1774245776,"current_range_meters":12400,"station_id":"st_cvj5dfep6f1abm77gieg","pricing_plan_id":"cebpf4jnsgd1na2vs0mg"},{"bike_id":"51566a7d-cc55-414f-b9b9-8b5cf184cc61","system_id":"levelo_inurba_marseille","lat":43.23149,"lon":5.43698,"is_reserved":false,"is_disabled":true,"rental_uris":{"android":"levelo://app?vid=51566a7d-cc55-414f-b9b9-8b5cf184cc61","ios":"levelo://app?vid=51566a7d-cc55-414f-b9b9-8b5cf184cc61"},"vehicle_type_id":"4","last_reported":1774245776,"current_range_meters":12400,"station_id":"ce4bhmp2rcd13ifvqgog","pricing_plan_id":"cebpf4jnsgd1na2vs0mg"},{"bike_id":"c72b7fd2-e680-4892-b230-2090babbdf59","system_id":"levelo_inurba_marseille","lat":43.31422,"lon":5.40372,"is_reserved":false,"is_disabled":false,"rental_uris":{"android":"levelo://app?vid=c72b7fd2-e680-4892-b230-2090babbdf59","ios":"levelo://app?vid=c72b7fd2-e680-4892-b230-2090babbdf59"},"vehicle_type_id":"4","last_reported":1774245776,"current_range_meters":12400,"station_id":"","pricing_plan_id":"cebpf4jnsgd1na2vs0mg"},{"bike_id":"43bd9f61-7579-47d3-86b0-f7694257f2c4","system_id":"levelo_inurba_marseille","lat":43.23368,"lon":5.4126,"is_reserved":false,"is_disabled":false,"rental_uris":{"android":"levelo://app?vid=43bd9f61-7579-47d3-86b0-f7694257f2c4","ios":"levelo://app?vid=43bd9f61-7579-47d3-86b0-f7694257f2c4"},"vehicle_type_id":"4","last_reported":1774245776,"current_range_meters":12400,"station_id":"","pricing_plan_id":"cebpf4jnsgd1na2vs0mg"},{"bike_id":"d685d600-4270-4464-a62f-01c8fad5f3e7","system_id":"levelo_inurba_marseille","lat":43.29916,"lon":5.36551,"is_reserved":false,"is_disabled":false,"rental_uris":{"android":"levelo://app?vid=d685d600-4270-4464-a62f-01c8fad5f3e7","ios":"levelo://app?vid=d685d600-4270-4464-a62f-01c8fad5f3e7"},"vehicle_type_id":"4","last_reported":1774245776,"current_range_meters":12400,"station_id":"ce4bgm92rcd13ifvqbr0","pricing_plan_id":"cebpf4jnsgd1na2vs0mg"},{"bike_id":"0e2f4137-e82a-401c-945f-6a1c7c098239","system_id":"levelo_inurba_marseille","lat":43.29618,"lon":5.37142,"is_reserved":false,"is_disabled":false,"rental_uris":{"android":"levelo://app?vid=0e2f4137-e82a-401c-945f-6a1c7c098239","ios":"levelo://app?vid=0e2f4137-e82a-401c-945f-6a1c7c098239"},"vehicle_type_id":"4","last_reported":1774245776,"current_range_meters":12800,"station_id":"ce4bgnh2rcd13ifvqc0g","pricing_plan_id":"cebpf4jnsgd1na2vs0mg"},{"bike_id":"a0f79a9b-cbf6-4e81-b701-a044dfaba4a7","system_id":"levelo_inurba_marseille","lat":43.28529,"lon":5.44126,"is_reserved":false,"is_disabled":false,"rental_uris":{"android":"levelo://app?vid=a0f79a9b-cbf6-4e81-b701-a044dfaba4a7","ios":"levelo://app?vid=a0f79a9b-cbf6-4e81-b701-a044dfaba4a7"},"vehicle_type_id":"4","last_reported":1774245776,"current_range_meters":12800,"station_id":"st_d3j3df2ikq2c7380ej80","pricing_plan_id":"cebpf4jnsgd1na2vs0mg"},{"bike_id":"992d461f-8839-4086-b27a-9edc1d38b03d","system_id":"levelo_inurba_marseille","lat":43.3354,"lon":5.37462,"is_reserved":false,"is_disabled":false,"rental_uris":{"android":"levelo://app?vid=992d461f-8839-4086-b27a-9edc1d38b03d","ios":"levelo://app?vid=992d461f-8839-4086-b27a-9edc1d38b03d"},"vehicle_type_id":"4","last_reported":1774245776,"current_range_meters":12800,"station_id":"st_d46tts09ee8s73dlu43g","pricing_plan_id":"cebpf4jnsgd1na2vs0mg"},{"bike_id":"823ce9da-d856-4f2e-ad32-95cc89d2c5cd","system_id":"levelo_inurba_marseille","lat":43.29618,"lon":5.37699,"is_reserved":false,"is_disabled":true,"rental_uris":{"android":"levelo://app?vid=823ce9da-d856-4f2e-ad32-95cc89d2c5cd","ios":"levelo://app?vid=823ce9da-d856-4f2e-ad32-95cc89d2c5cd"},"vehicle_type_id":"4","last_reported":1774245776,"current_range_meters":12800,"station_id":"ce4bgi92rcd13ifvqb90","pricing_plan_id":"cebpf4jnsgd1na2vs0mg"},{"bike_id":"0532bc68-6e09-4402-b669-047c6d5ea80b","system_id":"levelo_inurba_marseille","lat":43.30554,"lon":5.36699,"is_reserved":false,"is_disabled":false,"rental_uris":{"android":"levelo://app?vid=0532bc68-6e09-4402-b669-047c6d5ea80b","ios":"levelo://app?vid=0532bc68-6e09-4402-b669-047c6d5ea80b"},"vehicle_type_id":"4","last_reported":1774245776,"current_range_meters":12800,"station_id":"ce4bgrp2rcd13ifvqc9g","pricing_plan_id":"cebpf4jnsgd1na2vs0mg"},{"bike_id":"6b8acac9-ccf3-4647-89ff-89fbb46b6df8","system_id":"levelo_inurba_marseille","lat":43.30318,"lon":5.4508,"is_reserved":false,"is_disabled":false,"rental_uris":{"android":"levelo://app?vid=6b8acac9-ccf3-4647-89ff-89fbb46b6df8","ios":"levelo://app?vid=6b8acac9-ccf3-4647-89ff-89fbb46b6df8"},"vehicle_type_id":"4","last_reported":1774245776,"current_range_meters":12800,"station_id":"","pricing_plan_id":"cebpf4jnsgd1na2vs0mg"},{"bike_id":"66071a2b-b2ee-4a77-b65d-976f06c79310","system_id":"levelo_inurba_marseille","lat":43.26377,"lon":5.4106,"is_reserved":false,"is_disabled":false,"rental_uris":{"android":"levelo://app?vid=66071a2b-b2ee-4a77-b65d-976f06c79310","ios":"levelo://app?vid=66071a2b-b2ee-4a77-b65d-976f06c79310"},"vehicle_type_id":"4","last_reported":1774245776,"current_range_meters":12800,"station_id":"st_d4e5ca6na9uc73bfl5fg","pricing_plan_id":"cebpf4jnsgd1na2vs0mg"},{"bike_id":"069ec664-b917-4d10-96fa-44bfc77ffd53","system_id":"levelo_inurba_marseille","lat":43.29855,"lon":5.39733,"is_reserved":false,"is_disabled":false,"rental_uris":{"android":"levelo://app?vid=069ec664-b917-4d10-96fa-44bfc77ffd53","ios":"levelo://app?vid=069ec664-b917-4d10-96fa-44bfc77ffd53"},"vehicle_type_id":"4","last_reported":1774245776,"current_range_meters":12800,"station_id":"ce4bh0h2rcd13ifvqd50","pricing_plan_id":"cebpf4jnsgd1na2vs0mg"},{"bike_id":"4b091834-965b-422d-88ac-3983b49cac43","system_id":"levelo_inurba_marseille","lat":43.30904,"lon":5.41637,"is_reserved":false,"is_disabled":false,"rental_uris":{"android":"levelo://app?vid=4b091834-965b-422d-88ac-3983b49cac43","ios":"levelo://app?vid=4b091834-965b-422d-88ac-3983b49cac43"},"vehicle_type_id":"4","last_reported":1774245776,"current_range_meters":12800,"station_id":"","pricing_plan_id":"cebpf4jnsgd1na2vs0mg"},{"bike_id":"6aa8ac5c-78a8-4a7a-a40c-0f35a1ef4204","system_id":"levelo_inurba_marseille","lat":43.28459,"lon":5.35875,"is_reserved":false,"is_disabled":false,"rental_uris":{"android":"levelo://app?vid=6aa8ac5c-78a8-4a7a-a40c-0f35a1ef4204","ios":"levelo://app?vid=6aa8ac5c-78a8-4a7a-a40c-0f35a1ef4204"},"vehicle_type_id":"4","last_reported":1774245776,"current_range_meters":12800,"station_id":"ce4bhah2rcd13ifvqei0","pricing_plan_id":"cebpf4jnsgd1na2vs0mg"},{"bike_id":"6890ce30-9172-4a9b-926e-e04f9d838001","system_id":"levelo_inurba_marseille","lat":43.32024,"lon":5.41565,"is_reserved":false,"is_disabled":true,"rental_uris":{"android":"levelo://app?vid=6890ce30-9172-4a9b-926e-e04f9d838001","ios":"levelo://app?vid=6890ce30-9172-4a9b-926e-e04f9d838001"},"vehicle_type_id":"4","last_reported":1774245776,"current_range_meters":12800,"station_id":"ce4bhq92rcd13ifvqhkg","pricing_plan_id":"cebpf4jnsgd1na2vs0mg"},{"bike_id":"f6411e92-2a7f-463e-a33e-acdfe23abff9","system_id":"levelo_inurba_marseille","lat":43.29195,"lon":5.3936,"is_reserved":false,"is_disabled":false,"rental_uris":{"android":"levelo://app?vid=f6411e92-2a7f-463e-a33e-acdfe23abff9","ios":"levelo://app?vid=f6411e92-2a7f-463e-a33e-acdfe23abff9"},"vehicle_type_id":"4","last_reported":1774245776,"current_range_meters":12800,"station_id":"ce4bh192rcd13ifvqdd0","pricing_plan_id":"cebpf4jnsgd1na2vs0mg"},{"bike_id":"18f25b74-ebab-486a-b432-3c03e3ef09ee","system_id":"levelo_inurba_marseille","lat":43.28473,"lon":5.48406,"is_reserved":false,"is_disabled":false,"rental_uris":{"android":"levelo://app?vid=18f25b74-ebab-486a-b432-3c03e3ef09ee","ios":"levelo://app?vid=18f25b74-ebab-486a-b432-3c03e3ef09ee"},"vehicle_type_id":"4","last_reported":1774245776,"current_range_meters":12800,"station_id":"","pricing_plan_id":"cebpf4jnsgd1na2vs0mg"},{"bike_id":"cd86196f-a299-44bf-a768-5dde57c7ab2b","system_id":"levelo_inurba_marseille","lat":43.28468,"lon":5.48398,"is_reserved":false,"is_disabled":false,"rental_uris":{"android":"levelo://app?vid=cd86196f-a299-44bf-a768-5dde57c7ab2b","ios":"levelo://app?vid=cd86196f-a299-44bf-a768-5dde57c7ab2b"},"vehicle_type_id":"4","last_reported":1774245776,"current_range_meters":13600,"station_id":"","pricing_plan_id":"cebpf4jnsgd1na2vs0mg"},{"bike_id":"5016f481-c4f2-49ee-b195-5a686f3fce52","system_id":"levelo_inurba_marseille","lat":43.288522,"lon":5.358479,"is_reserved":false,"is_disabled":true,"rental_uris":{"android":"levelo://app?vid=5016f481-c4f2-49ee-b195-5a686f3fce52","ios":"levelo://app?vid=5016f481-c4f2-49ee-b195-5a686f3fce52"},"vehicle_type_id":"4","last_reported":1774245776,"current_range_meters":13600,"station_id":"","pricing_plan_id":"cebpf4jnsgd1na2vs0mg"},{"bike_id":"fdd8bf84-b2fe-4508-9572-06ea662fa5ac","system_id":"levelo_inurba_marseille","lat":43.28478,"lon":5.48397,"is_reserved":false,"is_disabled":false,"rental_uris":{"android":"levelo://app?vid=fdd8bf84-b2fe-4508-9572-06ea662fa5ac","ios":"levelo://app?vid=fdd8bf84-b2fe-4508-9572-06ea662fa5ac"},"vehicle_type_id":"4","last_reported":1774245776,"current_range_meters":13600,"station_id":"","pricing_plan_id":"cebpf4jnsgd1na2vs0mg"},{"bike_id":"3da40683-d69d-4593-a0a9-7cd4e543cddf","system_id":"levelo_inurba_marseille","lat":43.2849,"lon":5.38441,"is_reserved":false,"is_disabled":false,"rental_uris":{"android":"levelo://app?vid=3da40683-d69d-4593-a0a9-7cd4e543cddf","ios":"levelo://app?vid=3da40683-d69d-4593-a0a9-7cd4e543cddf"},"vehicle_type_id":"4","last_reported":1774245776,"current_range_meters":13600,"station_id":"ce4bh512rcd13ifvqe3g","pricing_plan_id":"cebpf4jnsgd1na2vs0mg"},{"bike_id":"7e6d8e28-6c0b-4a1d-9453-3bf954665b97","system_id":"levelo_inurba_marseille","lat":43.24944,"lon":5.40514,"is_reserved":false,"is_disabled":false,"rental_uris":{"android":"levelo://app?vid=7e6d8e28-6c0b-4a1d-9453-3bf954665b97","ios":"levelo://app?vid=7e6d8e28-6c0b-4a1d-9453-3bf954665b97"},"vehicle_type_id":"4","last_reported":1774245776,"current_range_meters":13600,"station_id":"st_d2ngiaodas8pm72gd1h0","pricing_plan_id":"cebpf4jnsgd1na2vs0mg"},{"bike_id":"96e579ec-159d-4d4a-81b0-fe699969cb15","system_id":"levelo_inurba_marseille","lat":43.27628,"lon":5.36092,"is_reserved":false,"is_disabled":true,"rental_uris":{"android":"levelo://app?vid=96e579ec-159d-4d4a-81b0-fe699969cb15","ios":"levelo://app?vid=96e579ec-159d-4d4a-81b0-fe699969cb15"},"vehicle_type_id":"4","last_reported":1774245776,"current_range_meters":13600,"station_id":"ce4bgj92rcd13ifvqbe0","pricing_plan_id":"cebpf4jnsgd1na2vs0mg"},{"bike_id":"9a579f9a-a88b-4d5d-8192-2f3d2401da4b","system_id":"levelo_inurba_marseille","lat":43.28108,"lon":5.37876,"is_reserved":false,"is_disabled":false,"rental_uris":{"android":"levelo://app?vid=9a579f9a-a88b-4d5d-8192-2f3d2401da4b","ios":"levelo://app?vid=9a579f9a-a88b-4d5d-8192-2f3d2401da4b"},"vehicle_type_id":"4","last_reported":1774245776,"current_range_meters":13600,"station_id":"ce4bha12rcd13ifvqee0","pricing_plan_id":"cebpf4jnsgd1na2vs0mg"},{"bike_id":"f7f1894c-daf2-4259-865f-2e81d02f8cdf","system_id":"levelo_inurba_marseille","lat":43.30173,"lon":5.38091,"is_reserved":false,"is_disabled":false,"rental_uris":{"android":"levelo://app?vid=f7f1894c-daf2-4259-865f-2e81d02f8cdf","ios":"levelo://app?vid=f7f1894c-daf2-4259-865f-2e81d02f8cdf"},"vehicle_type_id":"4","last_reported":1774245776,"current_range_meters":13600,"station_id":"ce4bgjp2rcd13ifvqbh0","pricing_plan_id":"cebpf4jnsgd1na2vs0mg"},{"bike_id":"9de7daed-cdb7-48e4-b077-5a43c5e59fb6","system_id":"levelo_inurba_marseille","lat":43.2707,"lon":5.42268,"is_reserved":false,"is_disabled":false,"rental_uris":{"android":"levelo://app?vid=9de7daed-cdb7-48e4-b077-5a43c5e59fb6","ios":"levelo://app?vid=9de7daed-cdb7-48e4-b077-5a43c5e59fb6"},"vehicle_type_id":"4","last_reported":1774245776,"current_range_meters":13600,"station_id":"ce4bhk92rcd13ifvqgb0","pricing_plan_id":"cebpf4jnsgd1na2vs0mg"},{"bike_id":"12fa34e7-96ae-4548-9aaa-c6d3e3fe6ed1","system_id":"levelo_inurba_marseille","lat":43.29923,"lon":5.37456,"is_reserved":false,"is_disabled":false,"rental_uris":{"android":"levelo://app?vid=12fa34e7-96ae-4548-9aaa-c6d3e3fe6ed1","ios":"levelo://app?vid=12fa34e7-96ae-4548-9aaa-c6d3e3fe6ed1"},"vehicle_type_id":"4","last_reported":1774245776,"current_range_meters":13600,"station_id":"ce4bgjh2rcd13ifvqbg0","pricing_plan_id":"cebpf4jnsgd1na2vs0mg"},{"bike_id":"263c6668-bba1-43cc-8727-742e3b633d6c","system_id":"levelo_inurba_marseille","lat":43.28504,"lon":5.38446,"is_reserved":false,"is_disabled":false,"rental_uris":{"android":"levelo://app?vid=263c6668-bba1-43cc-8727-742e3b633d6c","ios":"levelo://app?vid=263c6668-bba1-43cc-8727-742e3b633d6c"},"vehicle_type_id":"4","last_reported":1774245776,"current_range_meters":13600,"station_id":"ce4bh512rcd13ifvqe3g","pricing_plan_id":"cebpf4jnsgd1na2vs0mg"},{"bike_id":"b8d7a02a-f8e6-461d-88a3-e73fba899271","system_id":"levelo_inurba_marseille","lat":43.21734,"lon":5.34601,"is_reserved":false,"is_disabled":true,"rental_uris":{"android":"levelo://app?vid=b8d7a02a-f8e6-461d-88a3-e73fba899271","ios":"levelo://app?vid=b8d7a02a-f8e6-461d-88a3-e73fba899271"},"vehicle_type_id":"4","last_reported":1774245776,"current_range_meters":14000,"station_id":"st_cvj6r9ubvosntc0bgbag","pricing_plan_id":"cebpf4jnsgd1na2vs0mg"},{"bike_id":"62c0eda8-c666-40c1-b62d-71242266f316","system_id":"levelo_inurba_marseille","lat":43.28449,"lon":5.39143,"is_reserved":false,"is_disabled":true,"rental_uris":{"android":"levelo://app?vid=62c0eda8-c666-40c1-b62d-71242266f316","ios":"levelo://app?vid=62c0eda8-c666-40c1-b62d-71242266f316"},"vehicle_type_id":"4","last_reported":1774245776,"current_range_meters":14000,"station_id":"","pricing_plan_id":"cebpf4jnsgd1na2vs0mg"},{"bike_id":"3a9284ca-c3d6-47ae-b3b3-07b0f9b4c818","system_id":"levelo_inurba_marseille","lat":43.29258,"lon":5.40894,"is_reserved":false,"is_disabled":false,"rental_uris":{"android":"levelo://app?vid=3a9284ca-c3d6-47ae-b3b3-07b0f9b4c818","ios":"levelo://app?vid=3a9284ca-c3d6-47ae-b3b3-07b0f9b4c818"},"vehicle_type_id":"4","last_reported":1774245776,"current_range_meters":14000,"station_id":"ce4bh192rcd13ifvqdc0","pricing_plan_id":"cebpf4jnsgd1na2vs0mg"},{"bike_id":"5b8ea324-5b58-4766-96d2-9aa62b04ab43","system_id":"levelo_inurba_marseille","lat":43.24954,"lon":5.4049,"is_reserved":false,"is_disabled":false,"rental_uris":{"android":"levelo://app?vid=5b8ea324-5b58-4766-96d2-9aa62b04ab43","ios":"levelo://app?vid=5b8ea324-5b58-4766-96d2-9aa62b04ab43"},"vehicle_type_id":"4","last_reported":1774245776,"current_range_meters":14000,"station_id":"st_d2ngiaodas8pm72gd1h0","pricing_plan_id":"cebpf4jnsgd1na2vs0mg"},{"bike_id":"03f1da3e-bd83-41c0-bea6-c6f8789a04e5","system_id":"levelo_inurba_marseille","lat":43.29524,"lon":5.39412,"is_reserved":false,"is_disabled":false,"rental_uris":{"android":"levelo://app?vid=03f1da3e-bd83-41c0-bea6-c6f8789a04e5","ios":"levelo://app?vid=03f1da3e-bd83-41c0-bea6-c6f8789a04e5"},"vehicle_type_id":"4","last_reported":1774245776,"current_range_meters":14000,"station_id":"ce4bh292rcd13ifvqdf0","pricing_plan_id":"cebpf4jnsgd1na2vs0mg"},{"bike_id":"489b1f47-9bf9-4f10-90f5-3b4dff230700","system_id":"levelo_inurba_marseille","lat":43.23791,"lon":5.36642,"is_reserved":false,"is_disabled":false,"rental_uris":{"android":"levelo://app?vid=489b1f47-9bf9-4f10-90f5-3b4dff230700","ios":"levelo://app?vid=489b1f47-9bf9-4f10-90f5-3b4dff230700"},"vehicle_type_id":"4","last_reported":1774245776,"current_range_meters":14400,"station_id":"st_d3nk18o9ro0c73en2l3g","pricing_plan_id":"cebpf4jnsgd1na2vs0mg"},{"bike_id":"81afbade-9b61-4865-965d-d9c81a599521","system_id":"levelo_inurba_marseille","lat":43.23781,"lon":5.36635,"is_reserved":false,"is_disabled":false,"rental_uris":{"android":"levelo://app?vid=81afbade-9b61-4865-965d-d9c81a599521","ios":"levelo://app?vid=81afbade-9b61-4865-965d-d9c81a599521"},"vehicle_type_id":"4","last_reported":1774245776,"current_range_meters":14400,"station_id":"st_d3nk18o9ro0c73en2l3g","pricing_plan_id":"cebpf4jnsgd1na2vs0mg"},{"bike_id":"0dd51d3b-465d-4f2a-a37a-ec4776cf1275","system_id":"levelo_inurba_marseille","lat":43.31698,"lon":5.43702,"is_reserved":false,"is_disabled":false,"rental_uris":{"android":"levelo://app?vid=0dd51d3b-465d-4f2a-a37a-ec4776cf1275","ios":"levelo://app?vid=0dd51d3b-465d-4f2a-a37a-ec4776cf1275"},"vehicle_type_id":"4","last_reported":1774245776,"current_range_meters":14400,"station_id":"ce4bhp92rcd13ifvqhcg","pricing_plan_id":"cebpf4jnsgd1na2vs0mg"},{"bike_id":"f75cb29a-3175-423e-8495-2629dc9a38d9","system_id":"levelo_inurba_marseille","lat":43.32364,"lon":5.38486,"is_reserved":false,"is_disabled":false,"rental_uris":{"android":"levelo://app?vid=f75cb29a-3175-423e-8495-2629dc9a38d9","ios":"levelo://app?vid=f75cb29a-3175-423e-8495-2629dc9a38d9"},"vehicle_type_id":"4","last_reported":1774245776,"current_range_meters":14400,"station_id":"st_d45171o9ee8s73djdqug","pricing_plan_id":"cebpf4jnsgd1na2vs0mg"},{"bike_id":"26108a37-c467-4811-a0c3-d12e7c8355fb","system_id":"levelo_inurba_marseille","lat":43.25897,"lon":5.39308,"is_reserved":false,"is_disabled":true,"rental_uris":{"android":"levelo://app?vid=26108a37-c467-4811-a0c3-d12e7c8355fb","ios":"levelo://app?vid=26108a37-c467-4811-a0c3-d12e7c8355fb"},"vehicle_type_id":"4","last_reported":1774245776,"current_range_meters":14400,"station_id":"","pricing_plan_id":"cebpf4jnsgd1na2vs0mg"},{"bike_id":"9b92ce9d-3c94-4f7d-9ebc-36d97cda2452","system_id":"levelo_inurba_marseille","lat":43.29266,"lon":5.36836,"is_reserved":false,"is_disabled":false,"rental_uris":{"android":"levelo://app?vid=9b92ce9d-3c94-4f7d-9ebc-36d97cda2452","ios":"levelo://app?vid=9b92ce9d-3c94-4f7d-9ebc-36d97cda2452"},"vehicle_type_id":"4","last_reported":1774245776,"current_range_meters":14400,"station_id":"ce4bhbp2rcd13ifvqesg","pricing_plan_id":"cebpf4jnsgd1na2vs0mg"},