{"last_updated":1745446198,"ttl":60,"version":"2.2","data":{"bikes":[{"bike_id":"a538e75e-ada1-4951-875f-69919feb24a6","system_id":"levelo_inurba_marseille","lat":43.28441,"lon":5.39172,"is_reserved":false,"is_disabled":false,"rental_uris":{"android":"levelo://app?vid=a538e75e-ada1-4951-875f-69919feb24a6","ios":"levelo://app?vid=a538e75e-ada1-4951-875f-69919feb24a6"},"vehicle_type_id":"4","last_reported":1745446198,"current_range_meters":2800,"station_id":"ce4bhoh2rcd13ifvqh5g","pricing_plan_id":"cebpf4jnsgd1na2vs0mg"},{"bike_id":"3798ef7a-14dc-4c36-b287-33e93ba3f27e","system_id":"levelo_inurba_marseille","lat":43.29452,"lon":5.38621,"is_reserved":false,"is_disabled":true,"rental_uris":{"android":"levelo://app?vid=3798ef7a-14dc-4c36-b287-33e93ba3f27e","ios":"levelo://app?vid=3798ef7a-14dc-4c36-b287-33e93ba3f27e"},"vehicle_type_id":"4","last_reported":1745446198,"current_range_meters":2800,"station_id":"ce4bh2h2rcd13ifvqdh0","pricing_plan_id":"cebpf4jnsgd1na2vs0mg"},{"bike_id":"a8313e07-fc7d-46da-a852-e2be5019fefd","system_id":"levelo_inurba_marseille","lat":43.2893,"lon":5.38399,"is_reserved":false,"is_disabled":true,"rental_uris":{"android":"levelo://app?vid=a8313e07-fc7d-46da-a852-e2be5019fefd","ios":"levelo://app?vid=a8313e07-fc7d-46da-a852-e2be5019fefd"},"vehicle_type_id":"4","last_reported":1745446198,"current_range_meters":3200,"station_id":"ce4bh612rcd13ifvqe6g","pricing_plan_id":"cebpf4jnsgd1na2vs0mg"},{"bike_id":"f1a7cf0b-1057-4b78-a524-b40b9c5ff38b","system_id":"levelo_inurba_marseille","lat":43.31526,"lon":5.38038,"is_reserved":false,"is_disabled":false,"rental_uris":{"android":"levelo://app?vid=f1a7cf0b-1057-4b78-a524-b40b9c5ff38b","ios":"levelo://app?vid=f1a7cf0b-1057-4b78-a524-b40b9c5ff38b"},"vehicle_type_id":"4","last_reported":1745446198,"current_range_meters":3200,"station_id":"ce4bhsp2rcd13ifvqi50","pricing_plan_id":"cebpf4jnsgd1na2vs0mg"},{"bike_id":"2ff50662-85e1-49cb-995a-b397492c2839","system_id":"levelo_inurba_marseille","lat":43.287038,"lon":5.373862,"is_reserved":false,"is_disabled":false,"rental_uris":{"android":"levelo://app?vid=2ff50662-85e1-49cb-995a-b397492c2839","ios":"levelo://app?vid=2ff50662-85e1-49cb-995a-b397492c2839"},"vehicle_type_id":"4","last_reported":1745446198,"current_range_meters":3600,"station_id":"ce4bh3p2rcd13ifvqdq0","pricing_plan_id":"cebpf4jnsgd1na2vs0mg"},{"bike_id":"023dc62e-0acd-4e96-932b-01918b80e05f","system_id":"levelo_inurba_marseille","lat":43.30032,"lon":5.38287,"is_reserved":false,"is_disabled":false,"rental_uris":{"android":"levelo://app?vid=023dc62e-0acd-4e96-932b-01918b80e05f","ios":"levelo://app?vid=023dc62e-0acd-4e96-932b-01918b80e05f"},"vehicle_type_id":"4","last_reported":1745446198,"current_range_meters":3600,"station_id":"","pricing_plan_id":"cebpf4jnsgd1na2vs0mg"},{"bike_id":"55797dbb-c59c-483a-8055-bf5cecbaceb2","system_id":"levelo_inurba_marseille","lat":43.27814,"lon":5.40709,"is_reserved":false,"is_disabled":false,"rental_uris":{"android":"levelo://app?vid=55797dbb-c59c-483a-8055-bf5cecbaceb2","ios":"levelo://app?vid=55797dbb-c59c-483a-8055-bf5cecbaceb2"},"vehicle_type_id":"4","last_reported":1745446198,"current_range_meters":3600,"station_id":"ce4bhnh2rcd13ifvqgtg","pricing_plan_id":"cebpf4jnsgd1na2vs0mg"},{"bike_id":"f96a0008-b171-45ef-9bb6-60e88eff0378","system_id":"levelo_inurba_marseille","lat":43.27993,"lon":5.40014,"is_reserved":false,"is_disabled":false,"rental_uris":{"android":"levelo://app?vid=f96a0008-b171-45ef-9bb6-60e88eff0378","ios":"levelo://app?vid=f96a0008-b171-45ef-9bb6-60e88eff0378"},"vehicle_type_id":"4","last_reported":1745446198,"current_range_meters":4000,"station_id":"ce4bho92rcd13ifvqh4g","pricing_plan_id":"cebpf4jnsgd1na2vs0mg"},{"bike_id":"feca8c66-2b72-4a43-950e-81cae59b5867","system_id":"levelo_inurba_marseille","lat":43.29274,"lon":5.36843,"is_reserved":false,"is_disabled":false,"rental_uris":{"android":"levelo://app?vid=feca8c66-2b72-4a43-950e-81cae59b5867","ios":"levelo://app?vid=feca8c66-2b72-4a43-950e-81cae59b5867"},"vehicle_type_id":"4","last_reported":1745446198,"current_range_meters":4000,"station_id":"ce4bhbp2rcd13ifvqesg","pricing_plan_id":"cebpf4jnsgd1na2vs0mg"},{"bike_id":"991a0c92-713e-4b38-b385-8e6fcafa98d6","system_id":"levelo_inurba_marseille","lat":43.287,"lon":5.37389,"is_reserved":false,"is_disabled":false,"rental_uris":{"android":"levelo://app?vid=991a0c92-713e-4b38-b385-8e6fcafa98d6","ios":"levelo://app?vid=991a0c92-713e-4b38-b385-8e6fcafa98d6"},"vehicle_type_id":"4","last_reported":1745446198,"current_range_meters":4000,"station_id":"ce4bh3p2rcd13ifvqdq0","pricing_plan_id":"cebpf4jnsgd1na2vs0mg"},{"bike_id":"6d85eac8-2807-47cf-9f6e-8094fefcf027","system_id":"levelo_inurba_marseille","lat":43.30543,"lon":5.38419,"is_reserved":false,"is_disabled":false,"rental_uris":{"android":"levelo://app?vid=6d85eac8-2807-47cf-9f6e-8094fefcf027","ios":"levelo://app?vid=6d85eac8-2807-47cf-9f6e-8094fefcf027"},"vehicle_type_id":"4","last_reported":1745446198,"current_range_meters":4000,"station_id":"ce4bgg92rcd13ifvqb30","pricing_plan_id":"cebpf4jnsgd1na2vs0mg"},{"bike_id":"53e76e69-542e-498c-be3c-54ee74e28889","system_id":"levelo_inurba_marseille","lat":43.29707,"lon":5.366,"is_reserved":false,"is_disabled":true,"rental_uris":{"android":"levelo://app?vid=53e76e69-542e-498c-be3c-54ee74e28889","ios":"levelo://app?vid=53e76e69-542e-498c-be3c-54ee74e28889"},"vehicle_type_id":"4","last_reported":1745446198,"current_range_meters":4000,"station_id":"ce4bgn12rcd13ifvqbt0","pricing_plan_id":"cebpf4jnsgd1na2vs0mg"},{"bike_id":"f6bc53d6-d2db-4ffe-bd89-fcf07b581175","system_id":"levelo_inurba_marseille","lat":43.25114,"lon":5.40317,"is_reserved":false,"is_disabled":false,"rental_uris":{"android":"levelo://app?vid=f6bc53d6-d2db-4ffe-bd89-fcf07b581175","ios":"levelo://app?vid=f6bc53d6-d2db-4ffe-bd89-fcf07b581175"},"vehicle_type_id":"4","last_reported":1745446198,"current_range_meters":4400,"station_id":"ce4bhlh2rcd13ifvqgig","pricing_plan_id":"cebpf4jnsgd1na2vs0mg"},{"bike_id":"8ce6e918-c045-4ee6-a981-d95d3d378534","system_id":"levelo_inurba_marseille","lat":43.29933,"lon":5.36556,"is_reserved":false,"is_disabled":false,"rental_uris":{"android":"levelo://app?vid=8ce6e918-c045-4ee6-a981-d95d3d378534","ios":"levelo://app?vid=8ce6e918-c045-4ee6-a981-d95d3d378534"},"vehicle_type_id":"4","last_reported":1745446198,"current_range_meters":4400,"station_id":"ce4bgm92rcd13ifvqbr0","pricing_plan_id":"cebpf4jnsgd1na2vs0mg"},{"bike_id":"67682fcc-bcb6-4aa9-944e-6887169df522","system_id":"levelo_inurba_marseille","lat":43.28939,"lon":5.36388,"is_reserved":false,"is_disabled":false,"rental_uris":{"android":"levelo://app?vid=67682fcc-bcb6-4aa9-944e-6887169df522","ios":"levelo://app?vid=67682fcc-bcb6-4aa9-944e-6887169df522"},"vehicle_type_id":"4","last_reported":1745446198,"current_range_meters":4800,"station_id":"ce4bhc92rcd13ifvqetg","pricing_plan_id":"cebpf4jnsgd1na2vs0mg"},{"bike_id":"8d2789be-d356-436f-bee5-111c80e6604e","system_id":"levelo_inurba_marseille","lat":43.24174,"lon":5.36387,"is_reserved":false,"is_disabled":false,"rental_uris":{"android":"levelo://app?vid=8d2789be-d356-436f-bee5-111c80e6604e","ios":"levelo://app?vid=8d2789be-d356-436f-bee5-111c80e6604e"},"vehicle_type_id":"4","last_reported":1745446198,"current_range_meters":4800,"station_id":"cpo36qri1sfpv3e86is0","pricing_plan_id":"cebpf4jnsgd1na2vs0mg"},{"bike_id":"b6553d69-feb1-4f55-99dc-e45ef526cd58","system_id":"levelo_inurba_marseille","lat":43.29554,"lon":5.42293,"is_reserved":false,"is_disabled":true,"rental_uris":{"android":"levelo://app?vid=b6553d69-feb1-4f55-99dc-e45ef526cd58","ios":"levelo://app?vid=b6553d69-feb1-4f55-99dc-e45ef526cd58"},"vehicle_type_id":"4","last_reported":1745446198,"current_range_meters":5600,"station_id":"ce4bhph2rcd13ifvqhdg","pricing_plan_id":"cebpf4jnsgd1na2vs0mg"},{"bike_id":"7aae3ac5-7379-45f1-93d1-027c93df8505","system_id":"levelo_inurba_marseille","lat":43.27946,"lon":5.41048,"is_reserved":false,"is_disabled":false,"rental_uris":{"android":"levelo://app?vid=7aae3ac5-7379-45f1-93d1-027c93df8505","ios":"levelo://app?vid=7aae3ac5-7379-45f1-93d1-027c93df8505"},"vehicle_type_id":"4","last_reported":1745446198,"current_range_meters":5600,"station_id":"ce4bhnp2rcd13ifvqh0g","pricing_plan_id":"cebpf4jnsgd1na2vs0mg"},{"bike_id":"62603431-7ffe-4763-a417-ccc1e93f51e0","system_id":"levelo_inurba_marseille","lat":43.26613,"lon":5.39029,"is_reserved":false,"is_disabled":false,"rental_uris":{"android":"levelo://app?vid=62603431-7ffe-4763-a417-ccc1e93f51e0","ios":"levelo://app?vid=62603431-7ffe-4763-a417-ccc1e93f51e0"},"vehicle_type_id":"4","last_reported":1745446198,"current_range_meters":6000,"station_id":"ce4bhe12rcd13ifvqf30","pricing_plan_id":"cebpf4jnsgd1na2vs0mg"},{"bike_id":"0e956a52-9f1c-4373-9fd9-05b1de4dc5a0","system_id":"levelo_inurba_marseille","lat":43.30885,"lon":5.39625,"is_reserved":false,"is_disabled":true,"rental_uris":{"android":"levelo://app?vid=0e956a52-9f1c-4373-9fd9-05b1de4dc5a0","ios":"levelo://app?vid=0e956a52-9f1c-4373-9fd9-05b1de4dc5a0"},"vehicle_type_id":"4","last_reported":1745446198,"current_range_meters":6000,"station_id":"ce4bh012rcd13ifvqcv0","pricing_plan_id":"cebpf4jnsgd1na2vs0mg"},{"bike_id":"7f072e7e-3bd4-4526-bfc4-d86b633cef9c","system_id":"levelo_inurba_marseille","lat":43.299088,"lon":5.381562,"is_reserved":false,"is_disabled":false,"rental_uris":{"android":"levelo://app?vid=7f072e7e-3bd4-4526-bfc4-d86b633cef9c","ios":"levelo://app?vid=7f072e7e-3bd4-4526-bfc4-d86b633cef9c"},"vehicle_type_id":"4","last_reported":1745446198,"current_range_meters":6400,"station_id":"ce4bgj12rcd13ifvqbc0","pricing_plan_id":"cebpf4jnsgd1na2vs0mg"},{"bike_id":"c94e26c1-7575-4802-86ec-0bd6f82482cc","system_id":"levelo_inurba_marseille","lat":43.28615,"lon":5.37058,"is_reserved":false,"is_disabled":false,"rental_uris":{"android":"levelo://app?vid=c94e26c1-7575-4802-86ec-0bd6f82482cc","ios":"levelo://app?vid=c94e26c1-7575-4802-86ec-0bd6f82482cc"},"vehicle_type_id":"4","last_reported":1745446198,"current_range_meters":6400,"station_id":"ce4bht12rcd13ifvqi60","pricing_plan_id":"cebpf4jnsgd1na2vs0mg"},{"bike_id":"e88ac0aa-172e-418f-9134-2e3c247b5863","system_id":"levelo_inurba_marseille","lat":43.23965,"lon":5.36635,"is_reserved":false,"is_disabled":false,"rental_uris":{"android":"levelo://app?vid=e88ac0aa-172e-418f-9134-2e3c247b5863","ios":"levelo://app?vid=e88ac0aa-172e-418f-9134-2e3c247b5863"},"vehicle_type_id":"4","last_reported":1745446198,"current_range_meters":6400,"station_id":"ce4bhi12rcd13ifvqfp0","pricing_plan_id":"cebpf4jnsgd1na2vs0mg"},{"bike_id":"01bac9f4-c92b-4f48-bc8d-cb661e298d7d","system_id":"levelo_inurba_marseille","lat":43.25574,"lon":5.38236,"is_reserved":false,"is_disabled":false,"rental_uris":{"android":"levelo://app?vid=01bac9f4-c92b-4f48-bc8d-cb661e298d7d","ios":"levelo://app?vid=01bac9f4-c92b-4f48-bc8d-cb661e298d7d"},"vehicle_type_id":"4","last_reported":1745446198,"current_range_meters":6400,"station_id":"ce4bhih2rcd13ifvqfs0","pricing_plan_id":"cebpf4jnsgd1na2vs0mg"},{"bike_id":"23502d3a-a91e-464a-8efb-33e01f17995e","system_id":"levelo_inurba_marseille","lat":43.30798,"lon":5.38159,"is_reserved":false,"is_disabled":false,"rental_uris":{"android":"levelo://app?vid=23502d3a-a91e-464a-8efb-33e01f17995e","ios":"levelo://app?vid=23502d3a-a91e-464a-8efb-33e01f17995e"},"vehicle_type_id":"4","last_reported":1745446198,"current_range_meters":6400,"station_id":"ce4bgt12rcd13ifvqce0","pricing_plan_id":"cebpf4jnsgd1na2vs0mg"},{"bike_id":"1c5ec038-935d-45d4-ab05-1768d5c6745a","system_id":"levelo_inurba_marseille","lat":43.240729,"lon":5.377571,"is_reserved":false,"is_disabled":false,"rental_uris":{"android":"levelo://app?vid=1c5ec038-935d-45d4-ab05-1768d5c6745a","ios":"levelo://app?vid=1c5ec038-935d-45d4-ab05-1768d5c6745a"},"vehicle_type_id":"4","last_reported":1745446198,"current_range_meters":6400,"station_id":"ce4bhnp2rcd13ifvqgvg","pricing_plan_id":"cebpf4jnsgd1na2vs0mg"},{"bike_id":"adf4021e-176e-4b13-ac10-6ebb8cb1e100","system_id":"levelo_inurba_marseille","lat":43.28696,"lon":5.37401,"is_reserved":false,"is_disabled":false,"rental_uris":{"android":"levelo://app?vid=adf4021e-176e-4b13-ac10-6ebb8cb1e100","ios":"levelo://app?vid=adf4021e-176e-4b13-ac10-6ebb8cb1e100"},"vehicle_type_id":"4","last_reported":1745446198,"current_range_meters":6800,"station_id":"ce4bh3p2rcd13ifvqdq0","pricing_plan_id":"cebpf4jnsgd1na2vs0mg"},{"bike_id":"2fabdb6d-99b5-4a93-94eb-6e9251c3dc2d","system_id":"levelo_inurba_marseille","lat":43.28453,"lon":5.35886,"is_reserved":false,"is_disabled":false,"rental_uris":{"android":"levelo://app?vid=2fabdb6d-99b5-4a93-94eb-6e9251c3dc2d","ios":"levelo://app?vid=2fabdb6d-99b5-4a93-94eb-6e9251c3dc2d"},"vehicle_type_id":"4","last_reported":1745446198,"current_range_meters":6800,"station_id":"ce4bhah2rcd13ifvqei0","pricing_plan_id":"cebpf4jnsgd1na2vs0mg"},{"bike_id":"a548c257-3d7e-419d-9364-98f14d712cbe","system_id":"levelo_inurba_marseille","lat":43.30886,"lon":5.39642,"is_reserved":false,"is_disabled":false,"rental_uris":{"android":"levelo://app?vid=a548c257-3d7e-419d-9364-98f14d712cbe","ios":"levelo://app?vid=a548c257-3d7e-419d-9364-98f14d712cbe"},"vehicle_type_id":"4","last_reported":1745446198,"current_range_meters":6800,"station_id":"ce4bh012rcd13ifvqcv0","pricing_plan_id":"cebpf4jnsgd1na2vs0mg"},{"bike_id":"f7889748-d9da-4a0d-a4b5-6ffb90fef077","system_id":"levelo_inurba_marseille","lat":43.3176,"lon":5.39017,"is_reserved":false,"is_disabled":true,"rental_uris":{"android":"levelo://app?vid=f7889748-d9da-4a0d-a4b5-6ffb90fef077","ios":"levelo://app?vid=f7889748-d9da-4a0d-a4b5-6ffb90fef077"},"vehicle_type_id":"4","last_reported":1745446198,"current_range_meters":6800,"station_id":"ce4bhqp2rcd13ifvqhng","pricing_plan_id":"cebpf4jnsgd1na2vs0mg"},{"bike_id":"e37792a6-f349-4512-8625-113ccd6f5c99","system_id":"levelo_inurba_marseille","lat":43.27976,"lon":5.40026,"is_reserved":false,"is_disabled":true,"rental_uris":{"android":"levelo://app?vid=e37792a6-f349-4512-8625-113ccd6f5c99","ios":"levelo://app?vid=e37792a6-f349-4512-8625-113ccd6f5c99"},"vehicle_type_id":"4","last_reported":1745446198,"current_range_meters":6800,"station_id":"ce4bho92rcd13ifvqh4g","pricing_plan_id":"cebpf4jnsgd1na2vs0mg"},{"bike_id":"433e3771-4c74-457f-96d1-baa3b6ea0d40","system_id":"levelo_inurba_marseille","lat":43.28733,"lon":5.36075,"is_reserved":false,"is_disabled":false,"rental_uris":{"android":"levelo://app?vid=433e3771-4c74-457f-96d1-baa3b6ea0d40","ios":"levelo://app?vid=433e3771-4c74-457f-96d1-baa3b6ea0d40"},"vehicle_type_id":"4","last_reported":1745446198,"current_range_meters":6800,"station_id":"cki0cbj6b192h4jlfktg","pricing_plan_id":"cebpf4jnsgd1na2vs0mg"},{"bike_id":"b7e3549c-066f-4860-82c6-ec049a468f26","system_id":"levelo_inurba_marseille","lat":43.30647,"lon":5.40071,"is_reserved":false,"is_disabled":false,"rental_uris":{"android":"levelo://app?vid=b7e3549c-066f-4860-82c6-ec049a468f26","ios":"levelo://app?vid=b7e3549c-066f-4860-82c6-ec049a468f26"},"vehicle_type_id":"4","last_reported":1745446198,"current_range_meters":7200,"station_id":"ce4bh112rcd13ifvqda0","pricing_plan_id":"cebpf4jnsgd1na2vs0mg"},{"bike_id":"0b7a9109-7668-4db4-9724-d01cac3cc1a1","system_id":"levelo_inurba_marseille","lat":43.291623,"lon":5.409947,"is_reserved":false,"is_disabled":false,"rental_uris":{"android":"levelo://app?vid=0b7a9109-7668-4db4-9724-d01cac3cc1a1","ios":"levelo://app?vid=0b7a9109-7668-4db4-9724-d01cac3cc1a1"},"vehicle_type_id":"4","last_reported":1745446198,"current_range_meters":7200,"station_id":"","pricing_plan_id":"cebpf4jnsgd1na2vs0mg"},{"bike_id":"c57f642b-1ae5-4a44-94e3-924f21538523","system_id":"levelo_inurba_marseille","lat":43.30889,"lon":5.39621,"is_reserved":false,"is_disabled":false,"rental_uris":{"android":"levelo://app?vid=c57f642b-1ae5-4a44-94e3-924f21538523","ios":"levelo://app?vid=c57f642b-1ae5-4a44-94e3-924f21538523"},"vehicle_type_id":"4","last_reported":1745446198,"current_range_meters":7200,"station_id":"ce4bh012rcd13ifvqcv0","pricing_plan_id":"cebpf4jnsgd1na2vs0mg"},{"bike_id":"0f36c06d-b34a-4b6a-9c76-b87640418fc7","system_id":"levelo_inurba_marseille","lat":43.2306,"lon":5.35496,"is_reserved":false,"is_disabled":false,"rental_uris":{"android":"levelo://app?vid=0f36c06d-b34a-4b6a-9c76-b87640418fc7","ios":"levelo://app?vid=0f36c06d-b34a-4b6a-9c76-b87640418fc7"},"vehicle_type_id":"4","last_reported":1745446198,"current_range_meters":7200,"station_id":"cpo3342slgdg3j2ifvpg","pricing_plan_id":"cebpf4jnsgd1na2vs0mg"},{"bike_id":"3dd50929-80e8-4861-abf3-0cc06f516279","system_id":"levelo_inurba_marseille","lat":43.2407,"lon":5.37755,"is_reserved":false,"is_disabled":false,"rental_uris":{"android":"levelo://app?vid=3dd50929-80e8-4861-abf3-0cc06f516279","ios":"levelo://app?vid=3dd50929-80e8-4861-abf3-0cc06f516279"},"vehicle_type_id":"4","last_reported":1745446198,"current_range_meters":7200,"station_id":"ce4bhnp2rcd13ifvqgvg","pricing_plan_id":"cebpf4jnsgd1na2vs0mg"},{"bike_id":"ee6fe346-129a-4352-b7c7-aefa1e451c7a","system_id":"levelo_inurba_marseille","lat":43.306526,"lon":5.400876,"is_reserved":false,"is_disabled":true,"rental_uris":{"android":"levelo://app?vid=ee6fe346-129a-4352-b7c7-aefa1e451c7a","ios":"levelo://app?vid=ee6fe346-129a-4352-b7c7-aefa1e451c7a"},"vehicle_type_id":"4","last_reported":1745446198,"current_range_meters":8000,"station_id":"ce4bh112rcd13ifvqda0","pricing_plan_id":"cebpf4jnsgd1na2vs0mg"},{"bike_id":"d96f749b-28d5-4c2b-b6b0-c40c35e72009","system_id":"levelo_inurba_marseille","lat":43.28679,"lon":5.39965,"is_reserved":false,"is_disabled":false,"rental_uris":{"android":"levelo://app?vid=d96f749b-28d5-4c2b-b6b0-c40c35e72009","ios":"levelo://app?vid=d96f749b-28d5-4c2b-b6b0-c40c35e72009"},"vehicle_type_id":"4","last_reported":1745446198,"current_range_meters":8000,"station_id":"ce4bho92rcd13ifvqh3g","pricing_plan_id":"cebpf4jnsgd1na2vs0mg"},{"bike_id":"66ad86ce-fc20-4e27-ae09-168f203aa7c0","system_id":"levelo_inurba_marseille","lat":43.29246,"lon":5.409,"is_reserved":false,"is_disabled":false,"rental_uris":{"android":"levelo://app?vid=66ad86ce-fc20-4e27-ae09-168f203aa7c0","ios":"levelo://app?vid=66ad86ce-fc20-4e27-ae09-168f203aa7c0"},"vehicle_type_id":"4","last_reported":1745446198,"current_range_meters":8000,"station_id":"ce4bh192rcd13ifvqdc0","pricing_plan_id":"cebpf4jnsgd1na2vs0mg"},{"bike_id":"49c0f902-eac7-4a79-adf0-d142aff51e11","system_id":"levelo_inurba_marseille","lat":43.24161,"lon":5.36402,"is_reserved":false,"is_disabled":false,"rental_uris":{"android":"levelo://app?vid=49c0f902-eac7-4a79-adf0-d142aff51e11","ios":"levelo://app?vid=49c0f902-eac7-4a79-adf0-d142aff51e11"},"vehicle_type_id":"4","last_reported":1745446198,"current_range_meters":8000,"station_id":"cpo36qri1sfpv3e86is0","pricing_plan_id":"cebpf4jnsgd1na2vs0mg"},{"bike_id":"2e084519-ee49-419e-abb9-0d7b32653da5","system_id":"levelo_inurba_marseille","lat":43.31314,"lon":5.3968,"is_reserved":false,"is_disabled":false,"rental_uris":{"android":"levelo://app?vid=2e084519-ee49-419e-abb9-0d7b32653da5","ios":"levelo://app?vid=2e084519-ee49-419e-abb9-0d7b32653da5"},"vehicle_type_id":"4","last_reported":1745446198,"current_range_meters":8400,"station_id":"ce4bgvp2rcd13ifvqcu0","pricing_plan_id":"cebpf4jnsgd1na2vs0mg"},{"bike_id":"f881a57b-9c07-4d1f-b146-fc55e427d03d","system_id":"levelo_inurba_marseille","lat":43.29567,"lon":5.39979,"is_reserved":false,"is_disabled":false,"rental_uris":{"android":"levelo://app?vid=f881a57b-9c07-4d1f-b146-fc55e427d03d","ios":"levelo://app?vid=f881a57b-9c07-4d1f-b146-fc55e427d03d"},"vehicle_type_id":"4","last_reported":1745446198,"current_range_meters":8400,"station_id":"ce4bh312rcd13ifvqdj0","pricing_plan_id":"cebpf4jnsgd1na2vs0mg"},{"bike_id":"bdcc3299-d3c3-4757-91dc-0f505490cd24","system_id":"levelo_inurba_marseille","lat":43.23143,"lon":5.43708,"is_reserved":false,"is_disabled":false,"rental_uris":{"android":"levelo://app?vid=bdcc3299-d3c3-4757-91dc-0f505490cd24","ios":"levelo://app?vid=bdcc3299-d3c3-4757-91dc-0f505490cd24"},"vehicle_type_id":"4","last_reported":1745446198,"current_range_meters":8400,"station_id":"ce4bhmp2rcd13ifvqgog","pricing_plan_id":"cebpf4jnsgd1na2vs0mg"},{"bike_id":"9e413059-7cf1-4bcb-94d0-d441a1bc78ba","system_id":"levelo_inurba_marseille","lat":43.28715,"lon":5.37385,"is_reserved":false,"is_disabled":false,"rental_uris":{"android":"levelo://app?vid=9e413059-7cf1-4bcb-94d0-d441a1bc78ba","ios":"levelo://app?vid=9e413059-7cf1-4bcb-94d0-d441a1bc78ba"},"vehicle_type_id":"4","last_reported":1745446198,"current_range_meters":8400,"station_id":"ce4bh3p2rcd13ifvqdq0","pricing_plan_id":"cebpf4jnsgd1na2vs0mg"},{"bike_id":"67e80e12-0df0-47a3-a76c-955808049931","system_id":"levelo_inurba_marseille","lat":43.23205,"lon":5.39974,"is_reserved":false,"is_disabled":false,"rental_uris":{"android":"levelo://app?vid=67e80e12-0df0-47a3-a76c-955808049931","ios":"levelo://app?vid=67e80e12-0df0-47a3-a76c-955808049931"},"vehicle_type_id":"4","last_reported":1745446198,"current_range_meters":8800,"station_id":"ce4bhn12rcd13ifvqgqg","pricing_plan_id":"cebpf4jnsgd1na2vs0mg"},{"bike_id":"6d654830-ff88-4894-b299-9d7aebc9aab6","system_id":"levelo_inurba_marseille","lat":43.30147,"lon":5.39851,"is_reserved":false,"is_disabled":false,"rental_uris":{"android":"levelo://app?vid=6d654830-ff88-4894-b299-9d7aebc9aab6","ios":"levelo://app?vid=6d654830-ff88-4894-b299-9d7aebc9aab6"},"vehicle_type_id":"4","last_reported":1745446198,"current_range_meters":8800,"station_id":"ce4bh0h2rcd13ifvqd40","pricing_plan_id":"cebpf4jnsgd1na2vs0mg"},{"bike_id":"bbdf6de1-1a4a-4137-864f-aa21238b58db","system_id":"levelo_inurba_marseille","lat":43.26798,"lon":5.4026,"is_reserved":false,"is_disabled":false,"rental_uris":{"android":"levelo://app?vid=bbdf6de1-1a4a-4137-864f-aa21238b58db","ios":"levelo://app?vid=bbdf6de1-1a4a-4137-864f-aa21238b58db"},"vehicle_type_id":"4","last_reported":1745446198,"current_range_meters":8800,"station_id":"ce501612rcd8frsf0b60","pricing_plan_id":"cebpf4jnsgd1na2vs0mg"},{"bike_id":"2444db48-73b9-4f67-9dc6-6e8bcceff093","system_id":"levelo_inurba_marseille","lat":43.29776,"lon":5.38095,"is_reserved":false,"is_disabled":true,"rental_uris":{"android":"levelo://app?vid=2444db48-73b9-4f67-9dc6-6e8bcceff093","ios":"levelo://app?vid=2444db48-73b9-4f67-9dc6-6e8bcceff093"},"vehicle_type_id":"4","last_reported":1745446198,"current_range_meters":8800,"station_id":"ce4bgip2rcd13ifvqbb0","pricing_plan_id":"cebpf4jnsgd1na2vs0mg"},{"bike_id":"805ea2d5-ec08-4b13-ba23-87cc0a37bf03","system_id":"levelo_inurba_marseille","lat":43.24067,"lon":5.37758,"is_reserved":false,"is_disabled":false,"rental_uris":{"android":"levelo://app?vid=805ea2d5-ec08-4b13-ba23-87cc0a37bf03","ios":"levelo://app?vid=805ea2d5-ec08-4b13-ba23-87cc0a37bf03"},"vehicle_type_id":"4","last_reported":1745446198,"current_range_meters":8800,"station_id":"ce4bhnp2rcd13ifvqgvg","pricing_plan_id":"cebpf4jnsgd1na2vs0mg"},{"bike_id":"cbd0f7e4-e0e7-4c85-bfb0-0f7fd19ee508","system_id":"levelo_inurba_marseille","lat":43.28464,"lon":5.35883,"is_reserved":false,"is_disabled":false,"rental_uris":{"android":"levelo://app?vid=cbd0f7e4-e0e7-4c85-bfb0-0f7fd19ee508","ios":"levelo://app?vid=cbd0f7e4-e0e7-4c85-bfb0-0f7fd19ee508"},"vehicle_type_id":"4","last_reported":1745446198,"current_range_meters":8800,"station_id":"ce4bhah2rcd13ifvqei0","pricing_plan_id":"cebpf4jnsgd1na2vs0mg"},{"bike_id":"fbb6be43-75ac-4697-af84-df6581464ee0","system_id":"levelo_inurba_marseille","lat":43.23959,"lon":5.36652,"is_reserved":false,"is_disabled":false,"rental_uris":{"android":"levelo://app?vid=fbb6be43-75ac-4697-af84-df6581464ee0","ios":"levelo://app?vid=fbb6be43-75ac-4697-af84-df6581464ee0"},"vehicle_type_id":"4","last_reported":1745446198,"current_range_meters":8800,"station_id":"ce4bhi12rcd13ifvqfp0","pricing_plan_id":"cebpf4jnsgd1na2vs0mg"},{"bike_id":"c52f77ae-077c-414b-9907-e819fbb6cccb","system_id":"levelo_inurba_marseille","lat":43.28935,"lon":5.36626,"is_reserved":false,"is_disabled":false,"rental_uris":{"android":"levelo://app?vid=c52f77ae-077c-414b-9907-e819fbb6cccb","ios":"levelo://app?vid=c52f77ae-077c-414b-9907-e819fbb6cccb"},"vehicle_type_id":"4","last_reported":1745446198,"current_range_meters":9200,"station_id":"ce4bhap2rcd13ifvqek0","pricing_plan_id":"cebpf4jnsgd1na2vs0mg"},{"bike_id":"235f2bae-0a04-4484-8459-9c3ece0a1b2c","system_id":"levelo_inurba_marseille","lat":43.30728,"lon":5.42447,"is_reserved":false,"is_disabled":false,"rental_uris":{"android":"levelo://app?vid=235f2bae-0a04-4484-8459-9c3ece0a1b2c","ios":"levelo://app?vid=235f2bae-0a04-4484-8459-9c3ece0a1b2c"},"vehicle_type_id":"4","last_reported":1745446198,"current_range_meters":9200,"station_id":"st_cvj6ca6bvosntc0bfgr0","pricing_plan_id":"cebpf4jnsgd1na2vs0mg"},{"bike_id":"24db7984-1359-45eb-baef-06faf93e6ff6","system_id":"levelo_inurba_marseille","lat":43.34674,"lon":5.34546,"is_reserved":false,"is_disabled":false,"rental_uris":{"android":"levelo://app?vid=24db7984-1359-45eb-baef-06faf93e6ff6","ios":"levelo://app?vid=24db7984-1359-45eb-baef-06faf93e6ff6"},"vehicle_type_id":"4","last_reported":1745446198,"current_range_meters":9200,"station_id":"","pricing_plan_id":"cebpf4jnsgd1na2vs0mg"},{"bike_id":"4b5ad419-2a9e-4292-b343-3486796c2a93","system_id":"levelo_inurba_marseille","lat":43.28716,"lon":5.37356,"is_reserved":false,"is_disabled":false,"rental_uris":{"android":"levelo://app?vid=4b5ad419-2a9e-4292-b343-3486796c2a93","ios":"levelo://app?vid=4b5ad419-2a9e-4292-b343-3486796c2a93"},"vehicle_type_id":"4","last_reported":1745446198,"current_range_meters":9200,"station_id":"ce4bh3p2rcd13ifvqdq0","pricing_plan_id":"cebpf4jnsgd1na2vs0mg"},{"bike_id":"baf16995-e7d6-40d5-afca-58467ccd3dd8","system_id":"levelo_inurba_marseille","lat":43.279964,"lon":5.400124,"is_reserved":false,"is_disabled":false,"rental_uris":{"android":"levelo://app?vid=baf16995-e7d6-40d5-afca-58467ccd3dd8","ios":"levelo://app?vid=baf16995-e7d6-40d5-afca-58467ccd3dd8"},"vehicle_type_id":"4","last_reported":1745446198,"current_range_meters":9200,"station_id":"ce4bho92rcd13ifvqh4g","pricing_plan_id":"cebpf4jnsgd1na2vs0mg"},{"bike_id":"c480a7af-8fff-44a4-9689-bb0d0443c7fb","system_id":"levelo_inurba_marseille","lat":43.28698,"lon":5.39976,"is_reserved":false,"is_disabled":false,"rental_uris":{"android":"levelo://app?vid=c480a7af-8fff-44a4-9689-bb0d0443c7fb","ios":"levelo://app?vid=c480a7af-8fff-44a4-9689-bb0d0443c7fb"},"vehicle_type_id":"4","last_reported":1745446198,"current_range_meters":9200,"station_id":"ce4bho92rcd13ifvqh3g","pricing_plan_id":"cebpf4jnsgd1na2vs0mg"},{"bike_id":"80066cef-5d64-4a49-9561-7e2ce806f875","system_id":"levelo_inurba_marseille","lat":43.31364,"lon":5.38497,"is_reserved":false,"is_disabled":false,"rental_uris":{"android":"levelo://app?vid=80066cef-5d64-4a49-9561-7e2ce806f875","ios":"levelo://app?vid=80066cef-5d64-4a49-9561-7e2ce806f875"},"vehicle_type_id":"4","last_reported":1745446198,"current_range_meters":9200,"station_id":"ce4bgt92rcd13ifvqcf0","pricing_plan_id":"cebpf4jnsgd1na2vs0mg"},{"bike_id":"4cd052ba-32ce-49df-a7f0-6ff1ef572466","system_id":"levelo_inurba_marseille","lat":43.28416,"lon":5.37513,"is_reserved":false,"is_disabled":false,"rental_uris":{"android":"levelo://app?vid=4cd052ba-32ce-49df-a7f0-6ff1ef572466","ios":"levelo://app?vid=4cd052ba-32ce-49df-a7f0-6ff1ef572466"},"vehicle_type_id":"4","last_reported":1745446198,"current_range_meters":9200,"station_id":"ce4bh412rcd13ifvqds0","pricing_plan_id":"cebpf4jnsgd1na2vs0mg"},{"bike_id":"ec350b30-9b32-4c5f-aa22-3a10fc683fe2","system_id":"levelo_inurba_marseille","lat":43.29315,"lon":5.43447,"is_reserved":false,"is_disabled":false,"rental_uris":{"android":"levelo://app?vid=ec350b30-9b32-4c5f-aa22-3a10fc683fe2","ios":"levelo://app?vid=ec350b30-9b32-4c5f-aa22-3a10fc683fe2"},"vehicle_type_id":"4","last_reported":1745446198,"current_range_meters":9200,"station_id":"","pricing_plan_id":"cebpf4jnsgd1na2vs0mg"},{"bike_id":"009ef8fd-65f7-40c3-90d3-7dca1597284b","system_id":"levelo_inurba_marseille","lat":43.3117,"lon":5.38715,"is_reserved":false,"is_disabled":false,"rental_uris":{"android":"levelo://app?vid=009ef8fd-65f7-40c3-90d3-7dca1597284b","ios":"levelo://app?vid=009ef8fd-65f7-40c3-90d3-7dca1597284b"},"vehicle_type_id":"4","last_reported":1745446198,"current_range_meters":9600,"station_id":"ce4bgv12rcd13ifvqcp0","pricing_plan_id":"cebpf4jnsgd1na2vs0mg"},{"bike_id":"28388528-8a23-4283-8e69-993639e56162","system_id":"levelo_inurba_marseille","lat":43.295199,"lon":5.38542,"is_reserved":false,"is_disabled":false,"rental_uris":{"android":"levelo://app?vid=28388528-8a23-4283-8e69-993639e56162","ios":"levelo://app?vid=28388528-8a23-4283-8e69-993639e56162"},"vehicle_type_id":"4","last_reported":1745446198,"current_range_meters":9600,"station_id":"ce4bgt92rcd13ifvqcf0","pricing_plan_id":"cebpf4jnsgd1na2vs0mg"},{"bike_id":"7e9d26b8-b748-4e10-b3e2-977d9fd05087","system_id":"levelo_inurba_marseille","lat":43.32357,"lon":5.36765,"is_reserved":false,"is_disabled":false,"rental_uris":{"android":"levelo://app?vid=7e9d26b8-b748-4e10-b3e2-977d9fd05087","ios":"levelo://app?vid=7e9d26b8-b748-4e10-b3e2-977d9fd05087"},"vehicle_type_id":"4","last_reported":1745446198,"current_range_meters":9600,"station_id":"ce4bhsh2rcd13ifvqi2g","pricing_plan_id":"cebpf4jnsgd1na2vs0mg"},{"bike_id":"9c325fd4-f154-4a48-857e-569f4cc367f9","system_id":"levelo_inurba_marseille","lat":43.229296,"lon":5.353803,"is_reserved":false,"is_disabled":false,"rental_uris":{"android":"levelo://app?vid=9c325fd4-f154-4a48-857e-569f4cc367f9","ios":"levelo://app?vid=9c325fd4-f154-4a48-857e-569f4cc367f9"},"vehicle_type_id":"4","last_reported":1745446198,"current_range_meters":9600,"station_id":"cpo3532slgdg3j2ikp40","pricing_plan_id":"cebpf4jnsgd1na2vs0mg"},{"bike_id":"b5937484-6cf8-47d6-aa9f-590a6cb6bc39","system_id":"levelo_inurba_marseille","lat":43.3024,"lon":5.40067,"is_reserved":false,"is_disabled":false,"rental_uris":{"android":"levelo://app?vid=b5937484-6cf8-47d6-aa9f-590a6cb6bc39","ios":"levelo://app?vid=b5937484-6cf8-47d6-aa9f-590a6cb6bc39"},"vehicle_type_id":"4","last_reported":1745446198,"current_range_meters":9600,"station_id":"ce4bgvh2rcd13ifvqcs0","pricing_plan_id":"cebpf4jnsgd1na2vs0mg"},{"bike_id":"4f5ac7c4-fae3-469d-a49f-999fe327ce77","system_id":"levelo_inurba_marseille","lat":43.31979,"lon":5.38133,"is_reserved":false,"is_disabled":false,"rental_uris":{"android":"levelo://app?vid=4f5ac7c4-fae3-469d-a49f-999fe327ce77","ios":"levelo://app?vid=4f5ac7c4-fae3-469d-a49f-999fe327ce77"},"vehicle_type_id":"4","last_reported":1745446198,"current_range_meters":9600,"station_id":"ce4bhr12rcd13ifvqhpg","pricing_plan_id":"cebpf4jnsgd1na2vs0mg"},{"bike_id":"9ac3ef30-659b-4bfa-be03-8c5d23f92efb","system_id":"levelo_inurba_marseille","lat":43.2175,"lon":5.34598,"is_reserved":false,"is_disabled":false,"rental_uris":{"android":"levelo://app?vid=9ac3ef30-659b-4bfa-be03-8c5d23f92efb","ios":"levelo://app?vid=9ac3ef30-659b-4bfa-be03-8c5d23f92efb"},"vehicle_type_id":"4","last_reported":1745446198,"current_range_meters":9600,"station_id":"st_cvj6r9ubvosntc0bgbag","pricing_plan_id":"cebpf4jnsgd1na2vs0mg"},{"bike_id":"8c7cba96-a3d5-439a-9e64-c18b09dd7aa5","system_id":"levelo_inurba_marseille","lat":43.295458,"lon":5.422932,"is_reserved":false,"is_disabled":false,"rental_uris":{"android":"levelo://app?vid=8c7cba96-a3d5-439a-9e64-c18b09dd7aa5","ios":"levelo://app?vid=8c7cba96-a3d5-439a-9e64-c18b09dd7aa5"},"vehicle_type_id":"4","last_reported":1745446198,"current_range_meters":9600,"station_id":"ce4bhph2rcd13ifvqhdg","pricing_plan_id":"cebpf4jnsgd1na2vs0mg"},{"bike_id":"92c3b340-d069-4f1c-b55b-44c52f19597b","system_id":"levelo_inurba_marseille","lat":43.28236,"lon":5.37791,"is_reserved":false,"is_disabled":false,"rental_uris":{"android":"levelo://app?vid=92c3b340-d069-4f1c-b55b-44c52f19597b","ios":"levelo://app?vid=92c3b340-d069-4f1c-b55b-44c52f19597b"},"vehicle_type_id":"4","last_reported":1745446198,"current_range_meters":10000,"station_id":"","pricing_plan_id":"cebpf4jnsgd1na2vs0mg"},{"bike_id":"c2af1cc3-8c6b-4f7b-a9e5-deaee2e35eee","system_id":"levelo_inurba_marseille","lat":43.31092,"lon":5.38338,"is_reserved":false,"is_disabled":false,"rental_uris":{"android":"levelo://app?vid=c2af1cc3-8c6b-4f7b-a9e5-deaee2e35eee","ios":"levelo://app?vid=c2af1cc3-8c6b-4f7b-a9e5-deaee2e35eee"},"vehicle_type_id":"4","last_reported":1745446198,"current_range_meters":10000,"station_id":"ce4bgv92rcd13ifvqcr0","pricing_plan_id":"cebpf4jnsgd1na2vs0mg"},{"bike_id":"3413468b-d45b-40a5-b9a9-31b387901996","system_id":"levelo_inurba_marseille","lat":43.28698,"lon":5.3998,"is_reserved":false,"is_disabled":false,"rental_uris":{"android":"levelo://app?vid=3413468b-d45b-40a5-b9a9-31b387901996","ios":"levelo://app?vid=3413468b-d45b-40a5-b9a9-31b387901996"},"vehicle_type_id":"4","last_reported":1745446198,"current_range_meters":10000,"station_id":"ce4bho92rcd13ifvqh3g","pricing_plan_id":"cebpf4jnsgd1na2vs0mg"},{"bike_id":"0d0d4c78-11e2-4258-b6e0-5e2418b7432e","system_id":"levelo_inurba_marseille","lat":43.28705,"lon":5.37389,"is_reserved":false,"is_disabled":false,"rental_uris":{"android":"levelo://app?vid=0d0d4c78-11e2-4258-b6e0-5e2418b7432e","ios":"levelo://app?vid=0d0d4c78-11e2-4258-b6e0-5e2418b7432e"},"vehicle_type_id":"4","last_reported":1745446198,"current_range_meters":10000,"station_id":"ce4bh3p2rcd13ifvqdq0","pricing_plan_id":"cebpf4jnsgd1na2vs0mg"},{"bike_id":"b96d48d5-fc65-423b-9a30-5d2c864e8939","system_id":"levelo_inurba_marseille","lat":43.22499,"lon":5.34789,"is_reserved":false,"is_disabled":false,"rental_uris":{"android":"levelo://app?vid=b96d48d5-fc65-423b-9a30-5d2c864e8939","ios":"levelo://app?vid=b96d48d5-fc65-423b-9a30-5d2c864e8939"},"vehicle_type_id":"4","last_reported":1745446198,"current_range_meters":10000,"station_id":"st_cvj5dfep6f1abm77gieg","pricing_plan_id":"cebpf4jnsgd1na2vs0mg"},{"bike_id":"7affd995-e96b-402e-86ac-a786554a4a0f","system_id":"levelo_inurba_marseille","lat":43.30799,"lon":5.37634,"is_reserved":false,"is_disabled":false,"rental_uris":{"android":"levelo://app?vid=7affd995-e96b-402e-86ac-a786554a4a0f","ios":"levelo://app?vid=7affd995-e96b-402e-86ac-a786554a4a0f"},"vehicle_type_id":"4","last_reported":1745446198,"current_range_meters":10000,"station_id":"ce4bgv92rcd13ifvqcq0","pricing_plan_id":"cebpf4jnsgd1na2vs0mg"},{"bike_id":"363e2595-b8c3-401e-8e09-27303f712a69","system_id":"levelo_inurba_marseille","lat":43.30885,"lon":5.39643,"is_reserved":false,"is_disabled":false,"rental_uris":{"android":"levelo://app?vid=363e2595-b8c3-401e-8e09-27303f712a69","ios":"levelo://app?vid=363e2595-b8c3-401e-8e09-27303f712a69"},"vehicle_type_id":"4","last_reported":1745446198,"current_range_meters":10000,"station_id":"ce4bh012rcd13ifvqcv0","pricing_plan_id":"cebpf4jnsgd1na2vs0mg"},{"bike_id":"7c08cc4a-f103-4eff-ab83-bb9176c294cf","system_id":"levelo_inurba_marseille","lat":43.3054,"lon":5.38409,"is_reserved":false,"is_disabled":false,"rental_uris":{"android":"levelo://app?vid=7c08cc4a-f103-4eff-ab83-bb9176c294cf","ios":"levelo://app?vid=7c08cc4a-f103-4eff-ab83-bb9176c294cf"},"vehicle_type_id":"4","last_reported":1745446198,"current_range_meters":10000,"station_id":"ce4bgg92rcd13ifvqb30","pricing_plan_id":"cebpf4jnsgd1na2vs0mg"},{"bike_id":"5cec985c-475e-4a47-afd7-2118745a458f","system_id":"levelo_inurba_marseille","lat":43.229367,"lon":5.353823,"is_reserved":false,"is_disabled":false,"rental_uris":{"android":"levelo://app?vid=5cec985c-475e-4a47-afd7-2118745a458f","ios":"levelo://app?vid=5cec985c-475e-4a47-afd7-2118745a458f"},"vehicle_type_id":"4","last_reported":1745446198,"current_range_meters":10000,"station_id":"cpo3532slgdg3j2ikp40","pricing_plan_id":"cebpf4jnsgd1na2vs0mg"},{"bike_id":"d2015aa4-f9d9-446e-922b-13ac3075e793","system_id":"levelo_inurba_marseille","lat":43.27321,"lon":5.39087,"is_reserved":false,"is_disabled":false,"rental_uris":{"android":"levelo://app?vid=d2015aa4-f9d9-446e-922b-13ac3075e793","ios":"levelo://app?vid=d2015aa4-f9d9-446e-922b-13ac3075e793"},"vehicle_type_id":"4","last_reported":1745446198,"current_range_meters":10800,"station_id":"ce4bhgp2rcd13ifvqfe0","pricing_plan_id":"cebpf4jnsgd1na2vs0mg"},{"bike_id":"3a3bedf2-0adb-4d0d-9782-0a51518983df","system_id":"levelo_inurba_marseille","lat":43.289187,"lon":5.38392,"is_reserved":false,"is_disabled":true,"rental_uris":{"android":"levelo://app?vid=3a3bedf2-0adb-4d0d-9782-0a51518983df","ios":"levelo://app?vid=3a3bedf2-0adb-4d0d-9782-0a51518983df"},"vehicle_type_id":"4","last_reported":1745446198,"current_range_meters":10800,"station_id":"ce4bh612rcd13ifvqe6g","pricing_plan_id":"cebpf4jnsgd1na2vs0mg"},{"bike_id":"8fb44261-49c3-4680-b8bd-36f293c27199","system_id":"levelo_inurba_marseille","lat":43.24064,"lon":5.37754,"is_reserved":false,"is_disabled":false,"rental_uris":{"android":"levelo://app?vid=8fb44261-49c3-4680-b8bd-36f293c27199","ios":"levelo://app?vid=8fb44261-49c3-4680-b8bd-36f293c27199"},"vehicle_type_id":"4","last_reported":1745446198,"current_range_meters":10800,"station_id":"ce4bhnp2rcd13ifvqgvg","pricing_plan_id":"cebpf4jnsgd1na2vs0mg"},{"bike_id":"d6a00241-8f25-44db-ac6d-8e84872db2a8","system_id":"levelo_inurba_marseille","lat":43.33728,"lon":5.39182,"is_reserved":false,"is_disabled":false,"rental_uris":{"android":"levelo://app?vid=d6a00241-8f25-44db-ac6d-8e84872db2a8","ios":"levelo://app?vid=d6a00241-8f25-44db-ac6d-8e84872db2a8"},"vehicle_type_id":"4","last_reported":1745446198,"current_range_meters":10800,"station_id":"ce4bhr92rcd13ifvqhsg","pricing_plan_id":"cebpf4jnsgd1na2vs0mg"},{"bike_id":"61034bff-863b-4f17-b306-04653b14a109","system_id":"levelo_inurba_marseille","lat":43.3093,"lon":5.40149,"is_reserved":false,"is_disabled":true,"rental_uris":{"android":"levelo://app?vid=61034bff-863b-4f17-b306-04653b14a109","ios":"levelo://app?vid=61034bff-863b-4f17-b306-04653b14a109"},"vehicle_type_id":"4","last_reported":1745446198,"current_range_meters":10800,"station_id":"ce4bgvp2rcd13ifvqct0","pricing_plan_id":"cebpf4jnsgd1na2vs0mg"},{"bike_id":"d11778d2-405c-4d2c-baa1-e9db1690a962","system_id":"levelo_inurba_marseille","lat":43.28455,"lon":5.35889,"is_reserved":false,"is_disabled":false,"rental_uris":{"android":"levelo://app?vid=d11778d2-405c-4d2c-baa1-e9db1690a962","ios":"levelo://app?vid=d11778d2-405c-4d2c-baa1-e9db1690a962"},"vehicle_type_id":"4","last_reported":1745446198,"current_range_meters":10800,"station_id":"ce4bhah2rcd13ifvqei0","pricing_plan_id":"cebpf4jnsgd1na2vs0mg"},{"bike_id":"abd226a8-d003-4133-b9d2-b7c952b7ead1","system_id":"levelo_inurba_marseille","lat":43.23061,"lon":5.35478,"is_reserved":false,"is_disabled":false,"rental_uris":{"android":"levelo://app?vid=abd226a8-d003-4133-b9d2-b7c952b7ead1","ios":"levelo://app?vid=abd226a8-d003-4133-b9d2-b7c952b7ead1"},"vehicle_type_id":"4","last_reported":1745446198,"current_range_meters":10800,"station_id":"cpo3342slgdg3j2ifvpg","pricing_plan_id":"cebpf4jnsgd1na2vs0mg"},{"bike_id":"7552fc2b-a352-41da-b0fd-f384f680cc27","system_id":"levelo_inurba_marseille","lat":43.3127,"lon":5.40162,"is_reserved":false,"is_disabled":false,"rental_uris":{"android":"levelo://app?vid=7552fc2b-a352-41da-b0fd-f384f680cc27","ios":"levelo://app?vid=7552fc2b-a352-41da-b0fd-f384f680cc27"},"vehicle_type_id":"4","last_reported":1745446198,"current_range_meters":10800,"station_id":"ce4bh092rcd13ifvqd30","pricing_plan_id":"cebpf4jnsgd1na2vs0mg"},{"bike_id":"9e4499ec-11e0-4420-aa9c-7cd35460907d","system_id":"levelo_inurba_marseille","lat":43.25825,"lon":5.3943,"is_reserved":false,"is_disabled":false,"rental_uris":{"android":"levelo://app?vid=9e4499ec-11e0-4420-aa9c-7cd35460907d","ios":"levelo://app?vid=9e4499ec-11e0-4420-aa9c-7cd35460907d"},"vehicle_type_id":"4","last_reported":1745446198,"current_range_meters":10800,"station_id":"ce4bhip2rcd13ifvqft0","pricing_plan_id":"cebpf4jnsgd1na2vs0mg"},{"bike_id":"ec17534f-ec17-44c7-9edd-1a9613ee4f49","system_id":"levelo_inurba_marseille","lat":43.30798,"lon":5.43519,"is_reserved":false,"is_disabled":false,"rental_uris":{"android":"levelo://app?vid=ec17534f-ec17-44c7-9edd-1a9613ee4f49","ios":"levelo://app?vid=ec17534f-ec17-44c7-9edd-1a9613ee4f49"},"vehicle_type_id":"4","last_reported":1745446198,"current_range_meters":10800,"station_id":"ce4bhph2rcd13ifvqheg","pricing_plan_id":"cebpf4jnsgd1na2vs0mg"},{"bike_id":"68a1f062-5c2d-4ccb-ae4a-3e9364d925b5","system_id":"levelo_inurba_marseille","lat":43.316846,"lon":5.404687,"is_reserved":false,"is_disabled":false,"rental_uris":{"android":"levelo://app?vid=68a1f062-5c2d-4ccb-ae4a-3e9364d925b5","ios":"levelo://app?vid=68a1f062-5c2d-4ccb-ae4a-3e9364d925b5"},"vehicle_type_id":"4","last_reported":1745446198,"current_range_meters":10800,"station_id":"ce4bh692rcd13ifvqea0","pricing_plan_id":"cebpf4jnsgd1na2vs0mg"},{"bike_id":"730c7476-95c4-4e18-a1b3-3a935e74be04","system_id":"levelo_inurba_marseille","lat":43.29015,"lon":5.37564,"is_reserved":false,"is_disabled":true,"rental_uris":{"android":"levelo://app?vid=730c7476-95c4-4e18-a1b3-3a935e74be04","ios":"levelo://app?vid=730c7476-95c4-4e18-a1b3-3a935e74be04"},"vehicle_type_id":"4","last_reported":1745446198,"current_range_meters":11200,"station_id":"ce4bh692rcd13ifvqe90","pricing_plan_id":"cebpf4jnsgd1na2vs0mg"},{"bike_id":"1ed15132-6d7d-4abe-b136-71017b50be10","system_id":"levelo_inurba_marseille","lat":43.23969,"lon":5.36628,"is_reserved":false,"is_disabled":false,"rental_uris":{"android":"levelo://app?vid=1ed15132-6d7d-4abe-b136-71017b50be10","ios":"levelo://app?vid=1ed15132-6d7d-4abe-b136-71017b50be10"},"vehicle_type_id":"4","last_reported":1745446198,"current_range_meters":11200,"station_id":"ce4bhi12rcd13ifvqfp0","pricing_plan_id":"cebpf4jnsgd1na2vs0mg"},{"bike_id":"e2dcabcf-64d8-4394-bb9a-ff877bee611a","system_id":"levelo_inurba_marseille","lat":43.32045,"lon":5.4155,"is_reserved":false,"is_disabled":false,"rental_uris":{"android":"levelo://app?vid=e2dcabcf-64d8-4394-bb9a-ff877bee611a","ios":"levelo://app?vid=e2dcabcf-64d8-4394-bb9a-ff877bee611a"},"vehicle_type_id":"4","last_reported":1745446198,"current_range_meters":11200,"station_id":"ce4bhq92rcd13ifvqhkg","pricing_plan_id":"cebpf4jnsgd1na2vs0mg"},{"bike_id":"66d3f2a2-5910-443a-9c4a-b4c3a7c14e40","system_id":"levelo_inurba_marseille","lat":43.30025,"lon":5.40943,"is_reserved":false,"is_disabled":false,"rental_uris":{"android":"levelo://app?vid=66d3f2a2-5910-443a-9c4a-b4c3a7c14e40","ios":"levelo://app?vid=66d3f2a2-5910-443a-9c4a-b4c3a7c14e40"},"vehicle_type_id":"4","last_reported":1745446198,"current_range_meters":11200,"station_id":"","pricing_plan_id":"cebpf4jnsgd1na2vs0mg"},{"bike_id":"1b8b7145-49a7-4fe1-96a2-72a1d6e84a54","system_id":"levelo_inurba_marseille","lat":43.23063,"lon":5.35491,"is_reserved":false,"is_disabled":false,"rental_uris":{"android":"levelo://app?vid=1b8b7145-49a7-4fe1-96a2-72a1d6e84a54","ios":"levelo://app?vid=1b8b7145-49a7-4fe1-96a2-72a1d6e84a54"},"vehicle_type_id":"4","last_reported":1745446198,"current_range_meters":11200,"station_id":"cpo3342slgdg3j2ifvpg","pricing_plan_id":"cebpf4jnsgd1na2vs0mg"},{"bike_id":"55cfd899-1002-4506-8659-42ac23e45317","system_id":"levelo_inurba_marseille","lat":43.29245,"lon":5.40907,"is_reserved":false,"is_disabled":false,"rental_uris":{"android":"levelo://app?vid=55cfd899-1002-4506-8659-42ac23e45317","ios":"levelo://app?vid=55cfd899-1002-4506-8659-42ac23e45317"},"vehicle_type_id":"4","last_reported":1745446198,"current_range_meters":11200,"station_id":"ce4bh192rcd13ifvqdc0","pricing_plan_id":"cebpf4jnsgd1na2vs0mg"},{"bike_id":"535ce4a1-1af3-4cbb-aa98-06d91ac25ff9","system_id":"levelo_inurba_marseille","lat":43.28726,"lon":5.36088,"is_reserved":false,"is_disabled":false,"rental_uris":{"android":"levelo://app?vid=535ce4a1-1af3-4cbb-aa98-06d91ac25ff9","ios":"levelo://app?vid=535ce4a1-1af3-4cbb-aa98-06d91ac25ff9"},"vehicle_type_id":"4","last_reported":1745446198,"current_range_meters":11200,"station_id":"cki0cbj6b192h4jlfktg","pricing_plan_id":"cebpf4jnsgd1na2vs0mg"},{"bike_id":"a0efe7f5-6c3a-4c1f-8a9a-19fd4fcc277f","system_id":"levelo_inurba_marseille","lat":43.30267,"lon":5.40075,"is_reserved":false,"is_disabled":false,"rental_uris":{"android":"levelo://app?vid=a0efe7f5-6c3a-4c1f-8a9a-19fd4fcc277f","ios":"levelo://app?vid=a0efe7f5-6c3a-4c1f-8a9a-19fd4fcc277f"},"vehicle_type_id":"4","last_reported":1745446198,"current_range_meters":11600,"station_id":"ce4bgvh2rcd13ifvqcs0","pricing_plan_id":"cebpf4jnsgd1na2vs0mg"},{"bike_id":"f4240832-be75-486f-be90-a38ce111aeef","system_id":"levelo_inurba_marseille","lat":43.30817,"lon":5.37681,"is_reserved":false,"is_disabled":false,"rental_uris":{"android":"levelo://app?vid=f4240832-be75-486f-be90-a38ce111aeef","ios":"levelo://app?vid=f4240832-be75-486f-be90-a38ce111aeef"},"vehicle_type_id":"4","last_reported":1745446198,"current_range_meters":11600,"station_id":"ce4bgv92rcd13ifvqcq0","pricing_plan_id":"cebpf4jnsgd1na2vs0mg"},{"bike_id":"e6f3e4ad-958f-47a4-8f7f-a8c75c5becc3","system_id":"levelo_inurba_marseille","lat":43.2952,"lon":5.39394,"is_reserved":false,"is_disabled":false,"rental_uris":{"android":"levelo://app?vid=e6f3e4ad-958f-47a4-8f7f-a8c75c5becc3","ios":"levelo://app?vid=e6f3e4ad-958f-47a4-8f7f-a8c75c5becc3"},"vehicle_type_id":"4","last_reported":1745446198,"current_range_meters":11600,"station_id":"ce4bh292rcd13ifvqdf0","pricing_plan_id":"cebpf4jnsgd1na2vs0mg"},{"bike_id":"fc7cf061-d023-41a6-a698-643eae7a2bac","system_id":"levelo_inurba_marseille","lat":43.29284,"lon":5.40118,"is_reserved":false,"is_disabled":false,"rental_uris":{"android":"levelo://app?vid=fc7cf061-d023-41a6-a698-643eae7a2bac","ios":"levelo://app?vid=fc7cf061-d023-41a6-a698-643eae7a2bac"},"vehicle_type_id":"4","last_reported":1745446198,"current_range_meters":11600,"station_id":"ce4bh312rcd13ifvqdk0","pricing_plan_id":"cebpf4jnsgd1na2vs0mg"},{"bike_id":"eb1f00ba-611e-4063-ab2a-863b8c85e10c","system_id":"levelo_inurba_marseille","lat":43.28583,"lon":5.39489,"is_reserved":false,"is_disabled":false,"rental_uris":{"android":"levelo://app?vid=eb1f00ba-611e-4063-ab2a-863b8c85e10c","ios":"levelo://app?vid=eb1f00ba-611e-4063-ab2a-863b8c85e10c"},"vehicle_type_id":"4","last_reported":1745446198,"current_range_meters":11600,"station_id":"","pricing_plan_id":"cebpf4jnsgd1na2vs0mg"},{"bike_id":"e80d6036-1913-47ec-a939-60ef7b86907e","system_id":"levelo_inurba_marseille","lat":43.31984,"lon":5.38128,"is_reserved":false,"is_disabled":false,"rental_uris":{"android":"levelo://app?vid=e80d6036-1913-47ec-a939-60ef7b86907e","ios":"levelo://app?vid=e80d6036-1913-47ec-a939-60ef7b86907e"},"vehicle_type_id":"4","last_reported":1745446198,"current_range_meters":11600,"station_id":"ce4bhr12rcd13ifvqhpg","pricing_plan_id":"cebpf4jnsgd1na2vs0mg"},{"bike_id":"f01515da-fd6d-4981-9589-c552dba802d4","system_id":"levelo_inurba_marseille","lat":43.27321,"lon":5.39079,"is_reserved":false,"is_disabled":false,"rental_uris":{"android":"levelo://app?vid=f01515da-fd6d-4981-9589-c552dba802d4","ios":"levelo://app?vid=f01515da-fd6d-4981-9589-c552dba802d4"},"vehicle_type_id":"4","last_reported":1745446198,"current_range_meters":11600,"station_id":"ce4bhgp2rcd13ifvqfe0","pricing_plan_id":"cebpf4jnsgd1na2vs0mg"},{"bike_id":"527ab9af-1602-4e3b-a3d5-77f5acec1ebf","system_id":"levelo_inurba_marseille","lat":43.26196,"lon":5.3746,"is_reserved":false,"is_disabled":true,"rental_uris":{"android":"levelo://app?vid=527ab9af-1602-4e3b-a3d5-77f5acec1ebf","ios":"levelo://app?vid=527ab9af-1602-4e3b-a3d5-77f5acec1ebf"},"vehicle_type_id":"4","last_reported":1745446198,"current_range_meters":12000,"station_id":"ce4bhgp2rcd13ifvqfc0","pricing_plan_id":"cebpf4jnsgd1na2vs0mg"},{"bike_id":"cf9dc78c-f729-4d80-a194-142405d2bc35","system_id":"levelo_inurba_marseille","lat":43.29711,"lon":5.36609,"is_reserved":false,"is_disabled":false,"rental_uris":{"android":"levelo://app?vid=cf9dc78c-f729-4d80-a194-142405d2bc35","ios":"levelo://app?vid=cf9dc78c-f729-4d80-a194-142405d2bc35"},"vehicle_type_id":"4","last_reported":1745446198,"current_range_meters":12400,"station_id":"ce4bgn12rcd13ifvqbt0","pricing_plan_id":"cebpf4jnsgd1na2vs0mg"},{"bike_id":"012b9d59-47c7-4faa-ac0c-d91c09e3e027","system_id":"levelo_inurba_marseille","lat":43.28459,"lon":5.35889,"is_reserved":false,"is_disabled":false,"rental_uris":{"android":"levelo://app?vid=012b9d59-47c7-4faa-ac0c-d91c09e3e027","ios":"levelo://app?vid=012b9d59-47c7-4faa-ac0c-d91c09e3e027"},"vehicle_type_id":"4","last_reported":1745446198,"current_range_meters":12800,"station_id":"ce4bhah2rcd13ifvqei0","pricing_plan_id":"cebpf4jnsgd1na2vs0mg"},{"bike_id":"6590828e-60a6-4c06-80e1-9a44bd6f3a16","system_id":"levelo_inurba_marseille","lat":43.3136,"lon":5.38498,"is_reserved":false,"is_disabled":false,"rental_uris":{"android":"levelo://app?vid=6590828e-60a6-4c06-80e1-9a44bd6f3a16","ios":"levelo://app?vid=6590828e-60a6-4c06-80e1-9a44bd6f3a16"},"vehicle_type_id":"4","last_reported":1745446198,"current_range_meters":13600,"station_id":"ce4bgt92rcd13ifvqcf0","pricing_plan_id":"cebpf4jnsgd1na2vs0mg"},{"bike_id":"2c297328-9141-46d9-b654-826eb68707ec","system_id":"levelo_inurba_marseille","lat":43.28704,"lon":5.36099,"is_reserved":false,"is_disabled":false,"rental_uris":{"android":"levelo://app?vid=2c297328-9141-46d9-b654-826eb68707ec","ios":"levelo://app?vid=2c297328-9141-46d9-b654-826eb68707ec"},"vehicle_type_id":"4","last_reported":1745446198,"current_range_meters":13600,"station_id":"cki0cbj6b192h4jlfktg","pricing_plan_id":"cebpf4jnsgd1na2vs0mg"},{"bike_id":"7e168725-4d64-4302-a96b-dfc8d5097467","system_id":"levelo_inurba_marseille","lat":43.31166,"lon":5.38691,"is_reserved":false,"is_disabled":false,"rental_uris":{"android":"levelo://app?vid=7e168725-4d64-4302-a96b-dfc8d5097467","ios":"levelo://app?vid=7e168725-4d64-4302-a96b-dfc8d5097467"},"vehicle_type_id":"4","last_reported":1745446198,"current_range_meters":13600,"station_id":"ce4bgv12rcd13ifvqcp0","pricing_plan_id":"cebpf4jnsgd1na2vs0mg"},{"bike_id":"55b0ef87-6160-4a51-895c-2b402230864b","system_id":"levelo_inurba_marseille","lat":43.29872,"lon":5.39739,"is_reserved":false,"is_disabled":false,"rental_uris":{"android":"levelo://app?vid=55b0ef87-6160-4a51-895c-2b402230864b","ios":"levelo://app?vid=55b0ef87-6160-4a51-895c-2b402230864b"},"vehicle_type_id":"4","last_reported":1745446198,"current_range_meters":14000,"station_id":"ce4bh0h2rcd13ifvqd50","pricing_plan_id":"cebpf4jnsgd1na2vs0mg"},{"bike_id":"30e08c8c-a2b6-45d6-9704-9460af4f4d07","system_id":"levelo_inurba_marseille","lat":43.31081,"lon":5.42439,"is_reserved":false,"is_disabled":false,"rental_uris":{"android":"levelo://app?vid=30e08c8c-a2b6-45d6-9704-9460af4f4d07","ios":"levelo://app?vid=30e08c8c-a2b6-45d6-9704-9460af4f4d07"},"vehicle_type_id":"4","last_reported":1745446198,"current_range_meters":14000,"station_id":"ce4bhp92rcd13ifvqhag","pricing_plan_id":"cebpf4jnsgd1na2vs0mg"},{"bike_id":"61355652-4e68-4a43-a0c1-1c1e74476611","system_id":"levelo_inurba_marseille","lat":43.30651,"lon":5.40078,"is_reserved":false,"is_disabled":false,"rental_uris":{"android":"levelo://app?vid=61355652-4e68-4a43-a0c1-1c1e74476611","ios":"levelo://app?vid=61355652-4e68-4a43-a0c1-1c1e74476611"},"vehicle_type_id":"4","last_reported":1745446198,"current_range_meters":14400,"station_id":"ce4bh112rcd13ifvqda0","pricing_plan_id":"cebpf4jnsgd1na2vs0mg"},{"bike_id":"46374c49-3adc-4c5a-8966-e00f056c0d57","system_id":"levelo_inurba_marseille","lat":43.27846,"lon":5.35442,"is_reserved":false,"is_disabled":false,"rental_uris":{"android":"levelo://app?vid=46374c49-3adc-4c5a-8966-e00f056c0d57","ios":"levelo://app?vid=46374c49-3adc-4c5a-8966-e00f056c0d57"},"vehicle_type_id":"4","last_reported":1745446198,"current_range_meters":14400,"station_id":"","pricing_plan_id":"cebpf4jnsgd1na2vs0mg"},{"bike_id":"11ce02ec-5de1-4d28-b35b-b9d2498a4135","system_id":"levelo_inurba_marseille","lat":43.230681,"lon":5.354956,"is_reserved":false,"is_disabled":false,"rental_uris":{"android":"levelo://app?vid=11ce02ec-5de1-4d28-b35b-b9d2498a4135","ios":"levelo://app?vid=11ce02ec-5de1-4d28-b35b-b9d2498a4135"},"vehicle_type_id":"4","last_reported":1745446198,"current_range_meters":14400,"station_id":"cpo3342slgdg3j2ifvpg","pricing_plan_id":"cebpf4jnsgd1na2vs0mg"},{"bike_id":"716b8428-36de-4a4e-bede-3f01e8feff4d","system_id":"levelo_inurba_marseille","lat":43.27999,"lon":5.40024,"is_reserved":false,"is_disabled":false,"rental_uris":{"android":"levelo://app?vid=716b8428-36de-4a4e-bede-3f01e8feff4d","ios":"levelo://app?vid=716b8428-36de-4a4e-bede-3f01e8feff4d"},"vehicle_type_id":"4","last_reported":1745446198,"current_range_meters":14800,"station_id":"ce4bho92rcd13ifvqh4g","pricing_plan_id":"cebpf4jnsgd1na2vs0mg"},{"bike_id":"162104c9-c9c3-41e8-9022-0f16a6a968c6","system_id":"levelo_inurba_marseille","lat":43.330281,"lon":5.390374,"is_reserved":false,"is_disabled":false,"rental_uris":{"android":"levelo://app?vid=162104c9-c9c3-41e8-9022-0f16a6a968c6","ios":"levelo://app?vid=162104c9-c9c3-41e8-9022-0f16a6a968c6"},"vehicle_type_id":"4","last_reported":1745446198,"current_range_meters":14800,"station_id":"ce4bhr92rcd13ifvqhrg","pricing_plan_id":"cebpf4jnsgd1na2vs0mg"},{"bike_id":"00b03977-cadd-4a9c-9bd4-37274470a556","system_id":"levelo_inurba_marseille","lat":43.313595,"lon":5.384929,"is_reserved":false,"is_disabled":false,"rental_uris":{"android":"levelo://app?vid=00b03977-cadd-4a9c-9bd4-37274470a556","ios":"levelo://app?vid=00b03977-cadd-4a9c-9bd4-37274470a556"},"vehicle_type_id":"4","last_reported":1745446198,"current_range_meters":14800,"station_id":"ce4bgt92rcd13ifvqcf0","pricing_plan_id":"cebpf4jnsgd1na2vs0mg"},{"bike_id":"e1035640-cbde-4956-9c7c-825d447b0c44","system_id":"levelo_inurba_marseille","lat":43.27918,"lon":5.39573,"is_reserved":false,"is_disabled":false,"rental_uris":{"android":"levelo://app?vid=e1035640-cbde-4956-9c7c-825d447b0c44","ios":"levelo://app?vid=e1035640-cbde-4956-9c7c-825d447b0c44"},"vehicle_type_id":"4","last_reported":1745446198,"current_range_meters":14800,"station_id":"ce4bhf92rcd13ifvqf40","pricing_plan_id":"cebpf4jnsgd1na2vs0mg"},{"bike_id":"477fb2a7-756c-4d4c-af0d-b2c081e348c9","system_id":"levelo_inurba_marseille","lat":43.30933,"lon":5.40145,"is_reserved":false,"is_disabled":false,"rental_uris":{"android":"levelo://app?vid=477fb2a7-756c-4d4c-af0d-b2c081e348c9","ios":"levelo://app?vid=477fb2a7-756c-4d4c-af0d-b2c081e348c9"},"vehicle_type_id":"4","last_reported":1745446198,"current_range_meters":15200,"station_id":"ce4bgvp2rcd13ifvqct0","pricing_plan_id":"cebpf4jnsgd1na2vs0mg"},{"bike_id":"eaedb804-0e7c-4c63-a1b3-fcbc9ec36df3","system_id":"levelo_inurba_marseille","lat":43.28709,"lon":5.37399,"is_reserved":false,"is_disabled":false,"rental_uris":{"android":"levelo://app?vid=eaedb804-0e7c-4c63-a1b3-fcbc9ec36df3","ios":"levelo://app?vid=eaedb804-0e7c-4c63-a1b3-fcbc9ec36df3"},"vehicle_type_id":"4","last_reported":1745446198,"current_range_meters":15200,"station_id":"ce4bh3p2rcd13ifvqdq0","pricing_plan_id":"cebpf4jnsgd1na2vs0mg"},{"bike_id":"29b27eb8-5b29-494c-b20a-f027c7d38195","system_id":"levelo_inurba_marseille","lat":43.31323,"lon":5.39698,"is_reserved":false,"is_disabled":false,"rental_uris":{"android":"levelo://app?vid=29b27eb8-5b29-494c-b20a-f027c7d38195","ios":"levelo://app?vid=29b27eb8-5b29-494c-b20a-f027c7d38195"},"vehicle_type_id":"4","last_reported":1745446198,"current_range_meters":15200,"station_id":"ce4bgvp2rcd13ifvqcu0","pricing_plan_id":"cebpf4jnsgd1na2vs0mg"},{"bike_id":"9c3f0281-0921-4b75-a287-6453fbb59048","system_id":"levelo_inurba_marseille","lat":43.30244,"lon":5.40064,"is_reserved":false,"is_disabled":false,"rental_uris":{"android":"levelo://app?vid=9c3f0281-0921-4b75-a287-6453fbb59048","ios":"levelo://app?vid=9c3f0281-0921-4b75-a287-6453fbb59048"},"vehicle_type_id":"4","last_reported":1745446198,"current_range_meters":15200,"station_id":"ce4bgvh2rcd13ifvqcs0","pricing_plan_id":"cebpf4jnsgd1na2vs0mg"},{"bike_id":"ffba0ba4-4b22-400f-b823-14c1532b754c","system_id":"levelo_inurba_marseille","lat":43.21749,"lon":5.34607,"is_reserved":false,"is_disabled":false,"rental_uris":{"android":"levelo://app?vid=ffba0ba4-4b22-400f-b823-14c1532b754c","ios":"levelo://app?vid=ffba0ba4-4b22-400f-b823-14c1532b754c"},"vehicle_type_id":"4","last_reported":1745446198,"current_range_meters":16000,"station_id":"","pricing_plan_id":"cebpf4jnsgd1na2vs0mg"},{"bike_id":"29c27f6c-b172-4d99-add3-c74bdfc6be20","system_id":"levelo_inurba_marseille","lat":43.33016,"lon":5.39033,"is_reserved":false,"is_disabled":false,"rental_uris":{"android":"levelo://app?vid=29c27f6c-b172-4d99-add3-c74bdfc6be20","ios":"levelo://app?vid=29c27f6c-b172-4d99-add3-c74bdfc6be20"},"vehicle_type_id":"4","last_reported":1745446198,"current_range_meters":16000,"station_id":"ce4bhr92rcd13ifvqhrg","pricing_plan_id":"cebpf4jnsgd1na2vs0mg"},{"bike_id":"305a8662-bc62-4326-b66d-c6d8c543cba5","system_id":"levelo_inurba_marseille","lat":43.3117,"lon":5.38714,"is_reserved":false,"is_disabled":false,"rental_uris":{"android":"levelo://app?vid=305a8662-bc62-4326-b66d-c6d8c543cba5","ios":"levelo://app?vid=305a8662-bc62-4326-b66d-c6d8c543cba5"},"vehicle_type_id":"4","last_reported":1745446198,"current_range_meters":16000,"station_id":"ce4bgv12rcd13ifvqcp0","pricing_plan_id":"cebpf4jnsgd1na2vs0mg"},{"bike_id":"bd4f0b28-c324-459c-8482-b4d9162923c5","system_id":"levelo_inurba_marseille","lat":43.28149,"lon":5.37815,"is_reserved":false,"is_disabled":false,"rental_uris":{"android":"levelo://app?vid=bd4f0b28-c324-459c-8482-b4d9162923c5","ios":"levelo://app?vid=bd4f0b28-c324-459c-8482-b4d9162923c5"},"vehicle_type_id":"4","last_reported":1745446198,"current_range_meters":16000,"station_id":"ce4bha12rcd13ifvqee0","pricing_plan_id":"cebpf4jnsgd1na2vs0mg"},{"bike_id":"7d2633a5-2cb0-46eb-8c00-357bd5fadfef","system_id":"levelo_inurba_marseille","lat":43.254945,"lon":5.376403,"is_reserved":false,"is_disabled":true,"rental_uris":{"android":"levelo://app?vid=7d2633a5-2cb0-46eb-8c00-357bd5fadfef","ios":"levelo://app?vid=7d2633a5-2cb0-46eb-8c00-357bd5fadfef"},"vehicle_type_id":"4","last_reported":1745446198,"current_range_meters":16000,"station_id":"ce4bhh12rcd13ifvqff0","pricing_plan_id":"cebpf4jnsgd1na2vs0mg"},{"bike_id":"755abc1a-f797-479c-8e88-5f59f436c9d9","system_id":"levelo_inurba_marseille","lat":43.239632,"lon":5.366226,"is_reserved":false,"is_disabled":true,"rental_uris":{"android":"levelo://app?vid=755abc1a-f797-479c-8e88-5f59f436c9d9","ios":"levelo://app?vid=755abc1a-f797-479c-8e88-5f59f436c9d9"},"vehicle_type_id":"4","last_reported":1745446198,"current_range_meters":16000,"station_id":"ce4bhi12rcd13ifvqfp0","pricing_plan_id":"cebpf4jnsgd1na2vs0mg"},{"bike_id":"885f6bad-949c-4063-96c9-038aae10a74b","system_id":"levelo_inurba_marseille","lat":43.322989,"lon":5.412289,"is_reserved":false,"is_disabled":false,"rental_uris":{"android":"levelo://app?vid=885f6bad-949c-4063-96c9-038aae10a74b","ios":"levelo://app?vid=885f6bad-949c-4063-96c9-038aae10a74b"},"vehicle_type_id":"4","last_reported":1745446198,"current_range_meters":16000,"station_id":"ce4bhpp2rcd13ifvqhgg","pricing_plan_id":"cebpf4jnsgd1na2vs0mg"},{"bike_id":"bbf99303-c90e-41ab-8829-87d50e8fa382","system_id":"levelo_inurba_marseille","lat":43.284637,"lon":5.358792,"is_reserved":false,"is_disabled":false,"rental_uris":{"android":"levelo://app?vid=bbf99303-c90e-41ab-8829-87d50e8fa382","ios":"levelo://app?vid=bbf99303-c90e-41ab-8829-87d50e8fa382"},"vehicle_type_id":"4","last_reported":1745446198,"current_range_meters":16000,"station_id":"ce4bhah2rcd13ifvqei0","pricing_plan_id":"cebpf4jnsgd1na2vs0mg"},{"bike_id":"4c4334fd-83c9-4afe-b055-16cf90ed58e3","system_id":"levelo_inurba_marseille","lat":43.31324,"lon":5.39704,"is_reserved":false,"is_disabled":false,"rental_uris":{"android":"levelo://app?vid=4c4334fd-83c9-4afe-b055-16cf90ed58e3","ios":"levelo://app?vid=4c4334fd-83c9-4afe-b055-16cf90ed58e3"},"vehicle_type_id":"4","last_reported":1745446198,"current_range_meters":16000,"station_id":"ce4bgvp2rcd13ifvqcu0","pricing_plan_id":"cebpf4jnsgd1na2vs0mg"},{"bike_id":"13306d83-ed88-476f-bce6-7a18094c5170","system_id":"levelo_inurba_marseille","lat":43.31081,"lon":5.38337,"is_reserved":false,"is_disabled":false,"rental_uris":{"android":"levelo://app?vid=13306d83-ed88-476f-bce6-7a18094c5170","ios":"levelo://app?vid=13306d83-ed88-476f-bce6-7a18094c5170"},"vehicle_type_id":"4","last_reported":1745446198,"current_range_meters":16400,"station_id":"ce4bgv92rcd13ifvqcr0","pricing_plan_id":"cebpf4jnsgd1na2vs0mg"},{"bike_id":"dfd69b24-961c-414b-a74c-3d3f365a3276","system_id":"levelo_inurba_marseille","lat":43.25837,"lon":5.39438,"is_reserved":false,"is_disabled":false,"rental_uris":{"android":"levelo://app?vid=dfd69b24-961c-414b-a74c-3d3f365a3276","ios":"levelo://app?vid=dfd69b24-961c-414b-a74c-3d3f365a3276"},"vehicle_type_id":"4","last_reported":1745446198,"current_range_meters":16400,"station_id":"ce4bhip2rcd13ifvqft0","pricing_plan_id":"cebpf4jnsgd1na2vs0mg"},{"bike_id":"e7ceb111-ad1a-4f31-a96a-46e4b911a670","system_id":"levelo_inurba_marseille","lat":43.31485,"lon":5.37301,"is_reserved":false,"is_disabled":false,"rental_uris":{"android":"levelo://app?vid=e7ceb111-ad1a-4f31-a96a-46e4b911a670","ios":"levelo://app?vid=e7ceb111-ad1a-4f31-a96a-46e4b911a670"},"vehicle_type_id":"4","last_reported":1745446198,"current_range_meters":16400,"station_id":"ce4bgt12rcd13ifvqcd0","pricing_plan_id":"cebpf4jnsgd1na2vs0mg"},{"bike_id":"415b2609-c0ae-472a-aa20-d8c246fb2a5e","system_id":"levelo_inurba_marseille","lat":43.31678,"lon":5.37874,"is_reserved":false,"is_disabled":false,"rental_uris":{"android":"levelo://app?vid=415b2609-c0ae-472a-aa20-d8c246fb2a5e","ios":"levelo://app?vid=415b2609-c0ae-472a-aa20-d8c246fb2a5e"},"vehicle_type_id":"4","last_reported":1745446198,"current_range_meters":16400,"station_id":"","pricing_plan_id":"cebpf4jnsgd1na2vs0mg"},{"bike_id":"06dd8ac2-a46a-4aa4-ad9c-eafec922adfd","system_id":"levelo_inurba_marseille","lat":43.33013,"lon":5.39036,"is_reserved":false,"is_disabled":false,"rental_uris":{"android":"levelo://app?vid=06dd8ac2-a46a-4aa4-ad9c-eafec922adfd","ios":"levelo://app?vid=06dd8ac2-a46a-4aa4-ad9c-eafec922adfd"},"vehicle_type_id":"4","last_reported":1745446198,"current_range_meters":16400,"station_id":"ce4bhr92rcd13ifvqhrg","pricing_plan_id":"cebpf4jnsgd1na2vs0mg"},{"bike_id":"ebf1b236-2bb7-44a9-a6ad-9eab96bd4a12","system_id":"levelo_inurba_marseille","lat":43.28461,"lon":5.35885,"is_reserved":false,"is_disabled":false,"rental_uris":{"android":"levelo://app?vid=ebf1b236-2bb7-44a9-a6ad-9eab96bd4a12","ios":"levelo://app?vid=ebf1b236-2bb7-44a9-a6ad-9eab96bd4a12"},"vehicle_type_id":"4","last_reported":1745446198,"current_range_meters":16400,"station_id":"ce4bhah2rcd13ifvqei0","pricing_plan_id":"cebpf4jnsgd1na2vs0mg"},{"bike_id":"d2f9ab38-d77b-417d-8e17-1403be698e41","system_id":"levelo_inurba_marseille","lat":43.24065,"lon":5.37757,"is_reserved":false,"is_disabled":false,"rental_uris":{"android":"levelo://app?vid=d2f9ab38-d77b-417d-8e17-1403be698e41","ios":"levelo://app?vid=d2f9ab38-d77b-417d-8e17-1403be698e41"},"vehicle_type_id":"4","last_reported":1745446198,"current_range_meters":16400,"station_id":"ce4bhnp2rcd13ifvqgvg","pricing_plan_id":"cebpf4jnsgd1na2vs0mg"},{"bike_id":"08d8024f-ca85-4aea-8a41-bf3abb5d15c0","system_id":"levelo_inurba_marseille","lat":43.2844,"lon":5.39187,"is_reserved":false,"is_disabled":false,"rental_uris":{"android":"levelo://app?vid=08d8024f-ca85-4aea-8a41-bf3abb5d15c0","ios":"levelo://app?vid=08d8024f-ca85-4aea-8a41-bf3abb5d15c0"},"vehicle_type_id":"4","last_reported":1745446198,"current_range_meters":16400,"station_id":"ce4bhoh2rcd13ifvqh5g","pricing_plan_id":"cebpf4jnsgd1na2vs0mg"},{"bike_id":"8dff3327-c704-4870-8401-73b9c1029785","system_id":"levelo_inurba_marseille","lat":43.2586,"lon":5.39917,"is_reserved":false,"is_disabled":true,"rental_uris":{"android":"levelo://app?vid=8dff3327-c704-4870-8401-73b9c1029785","ios":"levelo://app?vid=8dff3327-c704-4870-8401-73b9c1029785"},"vehicle_type_id":"4","last_reported":1745446198,"current_range_meters":16800,"station_id":"ce4bhl92rcd13ifvqghg","pricing_plan_id":"cebpf4jnsgd1na2vs0mg"},{"bike_id":"4fd7cf77-d47f-472d-8105-02ed18eb9e1b","system_id":"levelo_inurba_marseille","lat":43.255787,"lon":5.382267,"is_reserved":false,"is_disabled":false,"rental_uris":{"android":"levelo://app?vid=4fd7cf77-d47f-472d-8105-02ed18eb9e1b","ios":"levelo://app?vid=4fd7cf77-d47f-472d-8105-02ed18eb9e1b"},"vehicle_type_id":"4","last_reported":1745446198,"current_range_meters":16800,"station_id":"ce4bhih2rcd13ifvqfs0","pricing_plan_id":"cebpf4jnsgd1na2vs0mg"},{"bike_id":"ebd60230-852f-4552-befa-36dd36cec448","system_id":"levelo_inurba_marseille","lat":43.2962,"lon":5.37168,"is_reserved":false,"is_disabled":false,"rental_uris":{"android":"levelo://app?vid=ebd60230-852f-4552-befa-36dd36cec448","ios":"levelo://app?vid=ebd60230-852f-4552-befa-36dd36cec448"},"vehicle_type_id":"4","last_reported":1745446198,"current_range_meters":16800,"station_id":"ce4bgnh2rcd13ifvqc0g","pricing_plan_id":"cebpf4jnsgd1na2vs0mg"},{"bike_id":"b194ab8b-8c19-4cdd-979a-747e5e8d4622","system_id":"levelo_inurba_marseille","lat":43.29933,"lon":5.37487,"is_reserved":false,"is_disabled":false,"rental_uris":{"android":"levelo://app?vid=b194ab8b-8c19-4cdd-979a-747e5e8d4622","ios":"levelo://app?vid=b194ab8b-8c19-4cdd-979a-747e5e8d4622"},"vehicle_type_id":"4","last_reported":1745446198,"current_range_meters":16800,"station_id":"ce4bgjh2rcd13ifvqbg0","pricing_plan_id":"cebpf4jnsgd1na2vs0mg"},{"bike_id":"8ab2ed8d-364c-4252-a36f-2dad9a4f2a15","system_id":"levelo_inurba_marseille","lat":43.23946,"lon":5.36665,"is_reserved":false,"is_disabled":false,"rental_uris":{"android":"levelo://app?vid=8ab2ed8d-364c-4252-a36f-2dad9a4f2a15","ios":"levelo://app?vid=8ab2ed8d-364c-4252-a36f-2dad9a4f2a15"},"vehicle_type_id":"4","last_reported":1745446198,"current_range_meters":16800,"station_id":"ce4bhi12rcd13ifvqfp0","pricing_plan_id":"cebpf4jnsgd1na2vs0mg"},{"bike_id":"6b11b64e-78f5-4f05-8c63-c592e726ebe8","system_id":"levelo_inurba_marseille","lat":43.25107,"lon":5.4034,"is_reserved":false,"is_disabled":false,"rental_uris":{"android":"levelo://app?vid=6b11b64e-78f5-4f05-8c63-c592e726ebe8","ios":"levelo://app?vid=6b11b64e-78f5-4f05-8c63-c592e726ebe8"},"vehicle_type_id":"4","last_reported":1745446198,"current_range_meters":16800,"station_id":"ce4bhlh2rcd13ifvqgig","pricing_plan_id":"cebpf4jnsgd1na2vs0mg"},{"bike_id":"8d45bee7-bfce-433b-98c1-8f404b9b27b1","system_id":"levelo_inurba_marseille","lat":43.298678,"lon":5.397398,"is_reserved":false,"is_disabled":false,"rental_uris":{"android":"levelo://app?vid=8d45bee7-bfce-433b-98c1-8f404b9b27b1","ios":"levelo://app?vid=8d45bee7-bfce-433b-98c1-8f404b9b27b1"},"vehicle_type_id":"4","last_reported":1745446198,"current_range_meters":16800,"station_id":"ce4bh0h2rcd13ifvqd50","pricing_plan_id":"cebpf4jnsgd1na2vs0mg"},{"bike_id":"fa8a552a-d2d3-4e8d-8d8e-02bdba037836","system_id":"levelo_inurba_marseille","lat":43.230674,"lon":5.35488,"is_reserved":false,"is_disabled":false,"rental_uris":{"android":"levelo://app?vid=fa8a552a-d2d3-4e8d-8d8e-02bdba037836","ios":"levelo://app?vid=fa8a552a-d2d3-4e8d-8d8e-02bdba037836"},"vehicle_type_id":"4","last_reported":1745446198,"current_range_meters":16800,"station_id":"cpo3342slgdg3j2ifvpg","pricing_plan_id":"cebpf4jnsgd1na2vs0mg"},{"bike_id":"7d4db56f-cb5b-4791-9f77-1dad90e3a3ec","system_id":"levelo_inurba_marseille","lat":43.24804,"lon":5.3746,"is_reserved":false,"is_disabled":false,"rental_uris":{"android":"levelo://app?vid=7d4db56f-cb5b-4791-9f77-1dad90e3a3ec","ios":"levelo://app?vid=7d4db56f-cb5b-4791-9f77-1dad90e3a3ec"},"vehicle_type_id":"4","last_reported":1745446198,"current_range_meters":16800,"station_id":"ce4bhgh2rcd13ifvqfb0","pricing_plan_id":"cebpf4jnsgd1na2vs0mg"},{"bike_id":"708f6555-490b-40d4-a032-87f825a452ce","system_id":"levelo_inurba_marseille","lat":43.28026,"lon":5.36938,"is_reserved":false,"is_disabled":false,"rental_uris":{"android":"levelo://app?vid=708f6555-490b-40d4-a032-87f825a452ce","ios":"levelo://app?vid=708f6555-490b-40d4-a032-87f825a452ce"},"vehicle_type_id":"4","last_reported":1745446198,"current_range_meters":21600,"station_id":"ce4bha12rcd13ifvqef0","pricing_plan_id":"cebpf4jnsgd1na2vs0mg"},{"bike_id":"87873093-27f5-49a2-8c34-ddd2205add84","system_id":"levelo_inurba_marseille","lat":43.28479,"lon":5.38436,"is_reserved":false,"is_disabled":true,"rental_uris":{"android":"levelo://app?vid=87873093-27f5-49a2-8c34-ddd2205add84","ios":"levelo://app?vid=87873093-27f5-49a2-8c34-ddd2205add84"},"vehicle_type_id":"4","last_reported":1745446198,"current_range_meters":17200,"station_id":"ce4bh512rcd13ifvqe3g","pricing_plan_id":"cebpf4jnsgd1na2vs0mg"},{"bike_id":"0b15608b-3ca1-4c69-9671-832d05f98826","system_id":"levelo_inurba_marseille","lat":43.30426,"lon":5.39749,"is_reserved":false,"is_disabled":false,"rental_uris":{"android":"levelo://app?vid=0b15608b-3ca1-4c69-9671-832d05f98826","ios":"levelo://app?vid=0b15608b-3ca1-4c69-9671-832d05f98826"},"vehicle_type_id":"4","last_reported":1745446198,"current_range_meters":17200,"station_id":"ce4bh092rcd13ifvqd20","pricing_plan_id":"cebpf4jnsgd1na2vs0mg"},{"bike_id":"b217c7a4-92b6-4872-91fa-f2c2827250cc","system_id":"levelo_inurba_marseille","lat":43.28843,"lon":5.39232,"is_reserved":false,"is_disabled":false,"rental_uris":{"android":"levelo://app?vid=b217c7a4-92b6-4872-91fa-f2c2827250cc","ios":"levelo://app?vid=b217c7a4-92b6-4872-91fa-f2c2827250cc"},"vehicle_type_id":"4","last_reported":1745446198,"current_range_meters":17200,"station_id":"","pricing_plan_id":"cebpf4jnsgd1na2vs0mg"},{"bike_id":"2a0931e6-1239-4335-8dc5-a428f512bfc0","system_id":"levelo_inurba_marseille","lat":43.27829,"lon":5.39208,"is_reserved":false,"is_disabled":false,"rental_uris":{"android":"levelo://app?vid=2a0931e6-1239-4335-8dc5-a428f512bfc0","ios":"levelo://app?vid=2a0931e6-1239-4335-8dc5-a428f512bfc0"},"vehicle_type_id":"4","last_reported":1745446198,"current_range_meters":17600,"station_id":"ce4bhjp2rcd13ifvqga0","pricing_plan_id":"cebpf4jnsgd1na2vs0mg"},{"bike_id":"6a1b385f-4c37-4399-89d8-2a1bce2af65b","system_id":"levelo_inurba_marseille","lat":43.33725,"lon":5.39178,"is_reserved":false,"is_disabled":false,"rental_uris":{"android":"levelo://app?vid=6a1b385f-4c37-4399-89d8-2a1bce2af65b","ios":"levelo://app?vid=6a1b385f-4c37-4399-89d8-2a1bce2af65b"},"vehicle_type_id":"4","last_reported":1745446198,"current_range_meters":17600,"station_id":"ce4bhr92rcd13ifvqhsg","pricing_plan_id":"cebpf4jnsgd1na2vs0mg"},{"bike_id":"70f58000-b46f-4dea-9403-90f0fe1a02d2","system_id":"levelo_inurba_marseille","lat":43.28708,"lon":5.3739,"is_reserved":false,"is_disabled":false,"rental_uris":{"android":"levelo://app?vid=70f58000-b46f-4dea-9403-90f0fe1a02d2","ios":"levelo://app?vid=70f58000-b46f-4dea-9403-90f0fe1a02d2"},"vehicle_type_id":"4","last_reported":1745446198,"current_range_meters":17600,"station_id":"ce4bh3p2rcd13ifvqdq0","pricing_plan_id":"cebpf4jnsgd1na2vs0mg"},{"bike_id":"bd14c086-b21e-4360-b45c-7cb79e1d9f0e","system_id":"levelo_inurba_marseille","lat":43.31095,"lon":5.38373,"is_reserved":false,"is_disabled":false,"rental_uris":{"android":"levelo://app?vid=bd14c086-b21e-4360-b45c-7cb79e1d9f0e","ios":"levelo://app?vid=bd14c086-b21e-4360-b45c-7cb79e1d9f0e"},"vehicle_type_id":"4","last_reported":1745446198,"current_range_meters":17600,"station_id":"ce4bgv92rcd13ifvqcr0","pricing_plan_id":"cebpf4jnsgd1na2vs0mg"},{"bike_id":"788f87a8-7cec-4429-95b8-581f88103984","system_id":"levelo_inurba_marseille","lat":43.313177,"lon":5.397143,"is_reserved":false,"is_disabled":false,"rental_uris":{"android":"levelo://app?vid=788f87a8-7cec-4429-95b8-581f88103984","ios":"levelo://app?vid=788f87a8-7cec-4429-95b8-581f88103984"},"vehicle_type_id":"4","last_reported":1745446198,"current_range_meters":17600,"station_id":"ce4bgvp2rcd13ifvqcu0","pricing_plan_id":"cebpf4jnsgd1na2vs0mg"},{"bike_id":"6d4d4cae-c0ce-4d66-94ac-cdce6c4dcd48","system_id":"levelo_inurba_marseille","lat":43.25715,"lon":5.41112,"is_reserved":false,"is_disabled":false,"rental_uris":{"android":"levelo://app?vid=6d4d4cae-c0ce-4d66-94ac-cdce6c4dcd48","ios":"levelo://app?vid=6d4d4cae-c0ce-4d66-94ac-cdce6c4dcd48"},"vehicle_type_id":"4","last_reported":1745446198,"current_range_meters":18000,"station_id":"ce4bhkp2rcd13ifvqgd0","pricing_plan_id":"cebpf4jnsgd1na2vs0mg"},{"bike_id":"4f68919f-000c-4a19-8495-0f5b6db98860","system_id":"levelo_inurba_marseille","lat":43.24682,"lon":5.38147,"is_reserved":false,"is_disabled":false,"rental_uris":{"android":"levelo://app?vid=4f68919f-000c-4a19-8495-0f5b6db98860","ios":"levelo://app?vid=4f68919f-000c-4a19-8495-0f5b6db98860"},"vehicle_type_id":"4","last_reported":1745446198,"current_range_meters":18000,"station_id":"ce4bhih2rcd13ifvqfr0","pricing_plan_id":"cebpf4jnsgd1na2vs0mg"},{"bike_id":"007b8d99-d89d-47a6-9fef-850944abb7db","system_id":"levelo_inurba_marseille","lat":43.31162,"lon":5.38707,"is_reserved":false,"is_disabled":false,"rental_uris":{"android":"levelo://app?vid=007b8d99-d89d-47a6-9fef-850944abb7db","ios":"levelo://app?vid=007b8d99-d89d-47a6-9fef-850944abb7db"},"vehicle_type_id":"4","last_reported":1745446198,"current_range_meters":18000,"station_id":"ce4bgv12rcd13ifvqcp0","pricing_plan_id":"cebpf4jnsgd1na2vs0mg"},{"bike_id":"5dd12b3b-eef7-4dab-a6de-2ed4ff99da38","system_id":"levelo_inurba_marseille","lat":43.29024,"lon":5.37547,"is_reserved":false,"is_disabled":true,"rental_uris":{"android":"levelo://app?vid=5dd12b3b-eef7-4dab-a6de-2ed4ff99da38","ios":"levelo://app?vid=5dd12b3b-eef7-4dab-a6de-2ed4ff99da38"},"vehicle_type_id":"4","last_reported":1745446198,"current_range_meters":18000,"station_id":"ce4bh692rcd13ifvqe90","pricing_plan_id":"cebpf4jnsgd1na2vs0mg"},{"bike_id":"caef2552-e2e3-41e9-a827-ac546470c0d7","system_id":"levelo_inurba_marseille","lat":43.2314,"lon":5.43715,"is_reserved":false,"is_disabled":false,"rental_uris":{"android":"levelo://app?vid=caef2552-e2e3-41e9-a827-ac546470c0d7","ios":"levelo://app?vid=caef2552-e2e3-41e9-a827-ac546470c0d7"},"vehicle_type_id":"4","last_reported":1745446198,"current_range_meters":18000,"station_id":"ce4bhmp2rcd13ifvqgog","pricing_plan_id":"cebpf4jnsgd1na2vs0mg"},{"bike_id":"a6f1ac59-8b57-4c91-8953-25ef377761cf","system_id":"levelo_inurba_marseille","lat":43.3078,"lon":5.3764,"is_reserved":false,"is_disabled":false,"rental_uris":{"android":"levelo://app?vid=a6f1ac59-8b57-4c91-8953-25ef377761cf","ios":"levelo://app?vid=a6f1ac59-8b57-4c91-8953-25ef377761cf"},"vehicle_type_id":"4","last_reported":1745446198,"current_range_meters":18000,"station_id":"ce4bgv92rcd13ifvqcq0","pricing_plan_id":"cebpf4jnsgd1na2vs0mg"},{"bike_id":"ab660249-0742-4ee6-9f3c-cbf7eabd0145","system_id":"levelo_inurba_marseille","lat":43.28604,"lon":5.37056,"is_reserved":false,"is_disabled":false,"rental_uris":{"android":"levelo://app?vid=ab660249-0742-4ee6-9f3c-cbf7eabd0145","ios":"levelo://app?vid=ab660249-0742-4ee6-9f3c-cbf7eabd0145"},"vehicle_type_id":"4","last_reported":1745446198,"current_range_meters":18000,"station_id":"ce4bht12rcd13ifvqi60","pricing_plan_id":"cebpf4jnsgd1na2vs0mg"},{"bike_id":"890ad4cd-fa56-473a-9b75-9a62637c50dc","system_id":"levelo_inurba_marseille","lat":43.32657,"lon":5.36715,"is_reserved":false,"is_disabled":false,"rental_uris":{"android":"levelo://app?vid=890ad4cd-fa56-473a-9b75-9a62637c50dc","ios":"levelo://app?vid=890ad4cd-fa56-473a-9b75-9a62637c50dc"},"vehicle_type_id":"4","last_reported":1745446198,"current_range_meters":18000,"station_id":"","pricing_plan_id":"cebpf4jnsgd1na2vs0mg"},{"bike_id":"2ce4b7f3-b9d9-4b98-a654-e6d1021c8a35","system_id":"levelo_inurba_marseille","lat":43.29873,"lon":5.39738,"is_reserved":false,"is_disabled":false,"rental_uris":{"android":"levelo://app?vid=2ce4b7f3-b9d9-4b98-a654-e6d1021c8a35","ios":"levelo://app?vid=2ce4b7f3-b9d9-4b98-a654-e6d1021c8a35"},"vehicle_type_id":"4","last_reported":1745446198,"current_range_meters":18000,"station_id":"ce4bh0h2rcd13ifvqd50","pricing_plan_id":"cebpf4jnsgd1na2vs0mg"},{"bike_id":"6fa93a30-9477-472b-911d-f334fbcc0d65","system_id":"levelo_inurba_marseille","lat":43.30127,"lon":5.38789,"is_reserved":false,"is_disabled":true,"rental_uris":{"android":"levelo://app?vid=6fa93a30-9477-472b-911d-f334fbcc0d65","ios":"levelo://app?vid=6fa93a30-9477-472b-911d-f334fbcc0d65"},"vehicle_type_id":"4","last_reported":1745446198,"current_range_meters":18000,"station_id":"ce4bghh2rcd13ifvqb60","pricing_plan_id":"cebpf4jnsgd1na2vs0mg"},{"bike_id":"d99abc64-fc5e-4365-b2fd-7591e88627e8","system_id":"levelo_inurba_marseille","lat":43.313669,"lon":5.384881,"is_reserved":false,"is_disabled":false,"rental_uris":{"android":"levelo://app?vid=d99abc64-fc5e-4365-b2fd-7591e88627e8","ios":"levelo://app?vid=d99abc64-fc5e-4365-b2fd-7591e88627e8"},"vehicle_type_id":"4","last_reported":1745446198,"current_range_meters":18000,"station_id":"ce4bgt92rcd13ifvqcf0","pricing_plan_id":"cebpf4jnsgd1na2vs0mg"},{"bike_id":"a5ccf778-40c7-43d1-8d46-99c2c68b3f38","system_id":"levelo_inurba_marseille","lat":43.28462,"lon":5.35889,"is_reserved":false,"is_disabled":false,"rental_uris":{"android":"levelo://app?vid=a5ccf778-40c7-43d1-8d46-99c2c68b3f38","ios":"levelo://app?vid=a5ccf778-40c7-43d1-8d46-99c2c68b3f38"},"vehicle_type_id":"4","last_reported":1745446198,"current_range_meters":18800,"station_id":"ce4bhah2rcd13ifvqei0","pricing_plan_id":"cebpf4jnsgd1na2vs0mg"},{"bike_id":"7369f2c7-ebee-4ebd-9536-6bdbca072cf3","system_id":"levelo_inurba_marseille","lat":43.28418,"lon":5.34979,"is_reserved":false,"is_disabled":false,"rental_uris":{"android":"levelo://app?vid=7369f2c7-ebee-4ebd-9536-6bdbca072cf3","ios":"levelo://app?vid=7369f2c7-ebee-4ebd-9536-6bdbca072cf3"},"vehicle_type_id":"4","last_reported":1745446198,"current_range_meters":18800,"station_id":"ce4bhbh2rcd13ifvqepg","pricing_plan_id":"cebpf4jnsgd1na2vs0mg"},{"bike_id":"226ffe90-da23-4800-ae5f-00f65faa00f9","system_id":"levelo_inurba_marseille","lat":43.31371,"lon":5.38493,"is_reserved":false,"is_disabled":false,"rental_uris":{"android":"levelo://app?vid=226ffe90-da23-4800-ae5f-00f65faa00f9","ios":"levelo://app?vid=226ffe90-da23-4800-ae5f-00f65faa00f9"},"vehicle_type_id":"4","last_reported":1745446198,"current_range_meters":18800,"station_id":"ce4bgt92rcd13ifvqcf0","pricing_plan_id":"cebpf4jnsgd1na2vs0mg"},{"bike_id":"6d51da42-143e-4c42-8c35-29bec0272d31","system_id":"levelo_inurba_marseille","lat":43.27992,"lon":5.40021,"is_reserved":false,"is_disabled":false,"rental_uris":{"android":"levelo://app?vid=6d51da42-143e-4c42-8c35-29bec0272d31","ios":"levelo://app?vid=6d51da42-143e-4c42-8c35-29bec0272d31"},"vehicle_type_id":"4","last_reported":1745446198,"current_range_meters":18800,"station_id":"ce4bho92rcd13ifvqh4g","pricing_plan_id":"cebpf4jnsgd1na2vs0mg"},{"bike_id":"2655adba-5bd9-4da0-8cd3-5bc0123170f2","system_id":"levelo_inurba_marseille","lat":43.31367,"lon":5.38497,"is_reserved":false,"is_disabled":false,"rental_uris":{"android":"levelo://app?vid=2655adba-5bd9-4da0-8cd3-5bc0123170f2","ios":"levelo://app?vid=2655adba-5bd9-4da0-8cd3-5bc0123170f2"},"vehicle_type_id":"4","last_reported":1745446198,"current_range_meters":18800,"station_id":"ce4bgt92rcd13ifvqcf0","pricing_plan_id":"cebpf4jnsgd1na2vs0mg"},{"bike_id":"c8cc5bc6-4aee-4811-8513-2b242b7ce89b","system_id":"levelo_inurba_marseille","lat":43.23194,"lon":5.3555,"is_reserved":false,"is_disabled":false,"rental_uris":{"android":"levelo://app?vid=c8cc5bc6-4aee-4811-8513-2b242b7ce89b","ios":"levelo://app?vid=c8cc5bc6-4aee-4811-8513-2b242b7ce89b"},"vehicle_type_id":"4","last_reported":1745446198,"current_range_meters":18800,"station_id":"ce4bhu92rcd13ifvqi70","pricing_plan_id":"cebpf4jnsgd1na2vs0mg"},{"bike_id":"e139658a-7edf-4768-8598-e719cf4aa58a","system_id":"levelo_inurba_marseille","lat":43.29255,"lon":5.40904,"is_reserved":false,"is_disabled":false,"rental_uris":{"android":"levelo://app?vid=e139658a-7edf-4768-8598-e719cf4aa58a","ios":"levelo://app?vid=e139658a-7edf-4768-8598-e719cf4aa58a"},"vehicle_type_id":"4","last_reported":1745446198,"current_range_meters":18800,"station_id":"ce4bh192rcd13ifvqdc0","pricing_plan_id":"cebpf4jnsgd1na2vs0mg"},{"bike_id":"0a2f3df2-be5d-47f7-97b1-3871d48b5243","system_id":"levelo_inurba_marseille","lat":43.28466,"lon":5.35875,"is_reserved":false,"is_disabled":false,"rental_uris":{"android":"levelo://app?vid=0a2f3df2-be5d-47f7-97b1-3871d48b5243","ios":"levelo://app?vid=0a2f3df2-be5d-47f7-97b1-3871d48b5243"},"vehicle_type_id":"4","last_reported":1745446198,"current_range_meters":18800,"station_id":"ce4bhah2rcd13ifvqei0","pricing_plan_id":"cebpf4jnsgd1na2vs0mg"},{"bike_id":"19b1e669-c0ec-46a9-8c21-4f491a13468c","system_id":"levelo_inurba_marseille","lat":43.29542,"lon":5.38546,"is_reserved":false,"is_disabled":true,"rental_uris":{"android":"levelo://app?vid=19b1e669-c0ec-46a9-8c21-4f491a13468c","ios":"levelo://app?vid=19b1e669-c0ec-46a9-8c21-4f491a13468c"},"vehicle_type_id":"4","last_reported":1745446198,"current_range_meters":19200,"station_id":"ce4bgih2rcd13ifvqba0","pricing_plan_id":"cebpf4jnsgd1na2vs0mg"},{"bike_id":"643cae56-6d75-4a1f-b6b1-9acac8f9abf8","system_id":"levelo_inurba_marseille","lat":43.28703,"lon":5.39981,"is_reserved":false,"is_disabled":false,"rental_uris":{"android":"levelo://app?vid=643cae56-6d75-4a1f-b6b1-9acac8f9abf8","ios":"levelo://app?vid=643cae56-6d75-4a1f-b6b1-9acac8f9abf8"},"vehicle_type_id":"4","last_reported":1745446198,"current_range_meters":19200,"station_id":"ce4bho92rcd13ifvqh3g","pricing_plan_id":"cebpf4jnsgd1na2vs0mg"},{"bike_id":"ab8406b2-4f8d-4381-8821-3db52b0a4d4d","system_id":"levelo_inurba_marseille","lat":43.2735,"lon":5.37857,"is_reserved":false,"is_disabled":false,"rental_uris":{"android":"levelo://app?vid=ab8406b2-4f8d-4381-8821-3db52b0a4d4d","ios":"levelo://app?vid=ab8406b2-4f8d-4381-8821-3db52b0a4d4d"},"vehicle_type_id":"4","last_reported":1745446198,"current_range_meters":19200,"station_id":"","pricing_plan_id":"cebpf4jnsgd1na2vs0mg"},{"bike_id":"c5260414-53ea-4c4b-84bd-1a38f855ebd9","system_id":"levelo_inurba_marseille","lat":43.3106,"lon":5.38351,"is_reserved":false,"is_disabled":true,"rental_uris":{"android":"levelo://app?vid=c5260414-53ea-4c4b-84bd-1a38f855ebd9","ios":"levelo://app?vid=c5260414-53ea-4c4b-84bd-1a38f855ebd9"},"vehicle_type_id":"4","last_reported":1745446198,"current_range_meters":19200,"station_id":"ce4bgv92rcd13ifvqcr0","pricing_plan_id":"cebpf4jnsgd1na2vs0mg"},{"bike_id":"05789d63-1a14-4489-aad6-4361ab4352d6","system_id":"levelo_inurba_marseille","lat":43.31334,"lon":5.39684,"is_reserved":false,"is_disabled":false,"rental_uris":{"android":"levelo://app?vid=05789d63-1a14-4489-aad6-4361ab4352d6","ios":"levelo://app?vid=05789d63-1a14-4489-aad6-4361ab4352d6"},"vehicle_type_id":"4","last_reported":1745446198,"current_range_meters":19200,"station_id":"ce4bgvp2rcd13ifvqcu0","pricing_plan_id":"cebpf4jnsgd1na2vs0mg"},{"bike_id":"e7814257-e2d4-458a-a393-8e4c58c1661d","system_id":"levelo_inurba_marseille","lat":43.26057,"lon":5.39387,"is_reserved":false,"is_disabled":false,"rental_uris":{"android":"levelo://app?vid=e7814257-e2d4-458a-a393-8e4c58c1661d","ios":"levelo://app?vid=e7814257-e2d4-458a-a393-8e4c58c1661d"},"vehicle_type_id":"4","last_reported":1745446198,"current_range_meters":19600,"station_id":"ce4bhh92rcd13ifvqfj0","pricing_plan_id":"cebpf4jnsgd1na2vs0mg"},{"bike_id":"47190e3f-b500-4537-a213-0b80afe51449","system_id":"levelo_inurba_marseille","lat":43.24675,"lon":5.38142,"is_reserved":false,"is_disabled":false,"rental_uris":{"android":"levelo://app?vid=47190e3f-b500-4537-a213-0b80afe51449","ios":"levelo://app?vid=47190e3f-b500-4537-a213-0b80afe51449"},"vehicle_type_id":"4","last_reported":1745446198,"current_range_meters":19600,"station_id":"ce4bhih2rcd13ifvqfr0","pricing_plan_id":"cebpf4jnsgd1na2vs0mg"},{"bike_id":"f91a33e0-c093-4eda-8d2d-0b7850edc5d9","system_id":"levelo_inurba_marseille","lat":43.31174,"lon":5.38709,"is_reserved":false,"is_disabled":false,"rental_uris":{"android":"levelo://app?vid=f91a33e0-c093-4eda-8d2d-0b7850edc5d9","ios":"levelo://app?vid=f91a33e0-c093-4eda-8d2d-0b7850edc5d9"},"vehicle_type_id":"4","last_reported":1745446198,"current_range_meters":19600,"station_id":"ce4bgv12rcd13ifvqcp0","pricing_plan_id":"cebpf4jnsgd1na2vs0mg"},{"bike_id":"83ce8635-e014-4d4b-b4bb-5f7a1fac789e","system_id":"levelo_inurba_marseille","lat":43.26716,"lon":5.38265,"is_reserved":false,"is_disabled":true,"rental_uris":{"android":"levelo://app?vid=83ce8635-e014-4d4b-b4bb-5f7a1fac789e","ios":"levelo://app?vid=83ce8635-e014-4d4b-b4bb-5f7a1fac789e"},"vehicle_type_id":"4","last_reported":1745446198,"current_range_meters":19600,"station_id":"ce4bhg92rcd13ifvqf90","pricing_plan_id":"cebpf4jnsgd1na2vs0mg"},{"bike_id":"f77ff247-dda1-4996-9576-8d16c2dd9342","system_id":"levelo_inurba_marseille","lat":43.28937,"lon":5.36623,"is_reserved":false,"is_disabled":false,"rental_uris":{"android":"levelo://app?vid=f77ff247-dda1-4996-9576-8d16c2dd9342","ios":"levelo://app?vid=f77ff247-dda1-4996-9576-8d16c2dd9342"},"vehicle_type_id":"4","last_reported":1745446198,"current_range_meters":19600,"station_id":"ce4bhap2rcd13ifvqek0","pricing_plan_id":"cebpf4jnsgd1na2vs0mg"},{"bike_id":"49a618ad-f128-48c6-86ae-87a0b0505bf2","system_id":"levelo_inurba_marseille","lat":43.31231,"lon":5.36853,"is_reserved":false,"is_disabled":false,"rental_uris":{"android":"levelo://app?vid=49a618ad-f128-48c6-86ae-87a0b0505bf2","ios":"levelo://app?vid=49a618ad-f128-48c6-86ae-87a0b0505bf2"},"vehicle_type_id":"4","last_reported":1745446198,"current_range_meters":19600,"station_id":"ce4bgl92rcd13ifvqbq0","pricing_plan_id":"cebpf4jnsgd1na2vs0mg"},{"bike_id":"fbae3d13-4305-4309-b90d-8310a9527283","system_id":"levelo_inurba_marseille","lat":43.30793,"lon":5.37647,"is_reserved":false,"is_disabled":false,"rental_uris":{"android":"levelo://app?vid=fbae3d13-4305-4309-b90d-8310a9527283","ios":"levelo://app?vid=fbae3d13-4305-4309-b90d-8310a9527283"},"vehicle_type_id":"4","last_reported":1745446198,"current_range_meters":19600,"station_id":"ce4bgv92rcd13ifvqcq0","pricing_plan_id":"cebpf4jnsgd1na2vs0mg"},{"bike_id":"96f95ec8-2ec8-4f85-847e-9992741b9ee1","system_id":"levelo_inurba_marseille","lat":43.310705,"lon":5.383482,"is_reserved":false,"is_disabled":false,"rental_uris":{"android":"levelo://app?vid=96f95ec8-2ec8-4f85-847e-9992741b9ee1","ios":"levelo://app?vid=96f95ec8-2ec8-4f85-847e-9992741b9ee1"},"vehicle_type_id":"4","last_reported":1745446198,"current_range_meters":19600,"station_id":"ce4bgv92rcd13ifvqcr0","pricing_plan_id":"cebpf4jnsgd1na2vs0mg"},{"bike_id":"7a38cd50-7a93-4627-806c-1a69d66aceb3","system_id":"levelo_inurba_marseille","lat":43.307982,"lon":5.435265,"is_reserved":false,"is_disabled":false,"rental_uris":{"android":"levelo://app?vid=7a38cd50-7a93-4627-806c-1a69d66aceb3","ios":"levelo://app?vid=7a38cd50-7a93-4627-806c-1a69d66aceb3"},"vehicle_type_id":"4","last_reported":1745446198,"current_range_meters":19600,"station_id":"ce4bhph2rcd13ifvqheg","pricing_plan_id":"cebpf4jnsgd1na2vs0mg"},{"bike_id":"4003137a-c0a8-4d94-ad44-309b823db1c7","system_id":"levelo_inurba_marseille","lat":43.30182,"lon":5.36633,"is_reserved":false,"is_disabled":false,"rental_uris":{"android":"levelo://app?vid=4003137a-c0a8-4d94-ad44-309b823db1c7","ios":"levelo://app?vid=4003137a-c0a8-4d94-ad44-309b823db1c7"},"vehicle_type_id":"4","last_reported":1745446198,"current_range_meters":19600,"station_id":"ce4bgrh2rcd13ifvqc8g","pricing_plan_id":"cebpf4jnsgd1na2vs0mg"},{"bike_id":"cadd2a19-c37c-493d-b003-1c5753f859f2","system_id":"levelo_inurba_marseille","lat":43.30556,"lon":5.38433,"is_reserved":false,"is_disabled":true,"rental_uris":{"android":"levelo://app?vid=cadd2a19-c37c-493d-b003-1c5753f859f2","ios":"levelo://app?vid=cadd2a19-c37c-493d-b003-1c5753f859f2"},"vehicle_type_id":"4","last_reported":1745446198,"current_range_meters":20000,"station_id":"ce4bgg92rcd13ifvqb30","pricing_plan_id":"cebpf4jnsgd1na2vs0mg"},{"bike_id":"e0475622-ca3c-4cc9-8273-63b58a33d69d","system_id":"levelo_inurba_marseille","lat":43.31701,"lon":5.43675,"is_reserved":false,"is_disabled":false,"rental_uris":{"android":"levelo://app?vid=e0475622-ca3c-4cc9-8273-63b58a33d69d","ios":"levelo://app?vid=e0475622-ca3c-4cc9-8273-63b58a33d69d"},"vehicle_type_id":"4","last_reported":1745446198,"current_range_meters":20400,"station_id":"ce4bhp92rcd13ifvqhcg","pricing_plan_id":"cebpf4jnsgd1na2vs0mg"},{"bike_id":"129ea9c4-35d8-4d8a-97f1-d90eefdd4cf8","system_id":"levelo_inurba_marseille","lat":43.29198,"lon":5.39307,"is_reserved":false,"is_disabled":true,"rental_uris":{"android":"levelo://app?vid=129ea9c4-35d8-4d8a-97f1-d90eefdd4cf8","ios":"levelo://app?vid=129ea9c4-35d8-4d8a-97f1-d90eefdd4cf8"},"vehicle_type_id":"4","last_reported":1745446198,"current_range_meters":20400,"station_id":"ce4bh192rcd13ifvqdd0","pricing_plan_id":"cebpf4jnsgd1na2vs0mg"},{"bike_id":"b9a0b8e1-f49f-4b78-864f-be5e25d4a18c","system_id":"levelo_inurba_marseille","lat":43.33065,"lon":5.40815,"is_reserved":false,"is_disabled":false,"rental_uris":{"android":"levelo://app?vid=b9a0b8e1-f49f-4b78-864f-be5e25d4a18c","ios":"levelo://app?vid=b9a0b8e1-f49f-4b78-864f-be5e25d4a18c"},"vehicle_type_id":"4","last_reported":1745446198,"current_range_meters":20400,"station_id":"","pricing_plan_id":"cebpf4jnsgd1na2vs0mg"},{"bike_id":"91e998e5-c194-4bec-8fac-19f1229a85e3","system_id":"levelo_inurba_marseille","lat":43.28045,"lon":5.3695,"is_reserved":false,"is_disabled":false,"rental_uris":{"android":"levelo://app?vid=91e998e5-c194-4bec-8fac-19f1229a85e3","ios":"levelo://app?vid=91e998e5-c194-4bec-8fac-19f1229a85e3"},"vehicle_type_id":"4","last_reported":1745446198,"current_range_meters":20400,"station_id":"ce4bha12rcd13ifvqef0","pricing_plan_id":"cebpf4jnsgd1na2vs0mg"},{"bike_id":"9ce9ed10-eeed-4d45-8f84-41863276a87d","system_id":"levelo_inurba_marseille","lat":43.28855,"lon":5.35844,"is_reserved":false,"is_disabled":false,"rental_uris":{"android":"levelo://app?vid=9ce9ed10-eeed-4d45-8f84-41863276a87d","ios":"levelo://app?vid=9ce9ed10-eeed-4d45-8f84-41863276a87d"},"vehicle_type_id":"4","last_reported":1745446198,"current_range_meters":20400,"station_id":"ce4bhb12rcd13ifvqem0","pricing_plan_id":"cebpf4jnsgd1na2vs0mg"},{"bike_id":"11c89eef-e28f-4d63-917a-9c08720938cb","system_id":"levelo_inurba_marseille","lat":43.31534,"lon":5.38041,"is_reserved":false,"is_disabled":false,"rental_uris":{"android":"levelo://app?vid=11c89eef-e28f-4d63-917a-9c08720938cb","ios":"levelo://app?vid=11c89eef-e28f-4d63-917a-9c08720938cb"},"vehicle_type_id":"4","last_reported":1745446198,"current_range_meters":20400,"station_id":"ce4bhsp2rcd13ifvqi50","pricing_plan_id":"cebpf4jnsgd1na2vs0mg"},{"bike_id":"dad7fce6-c989-477c-a1e2-e0ed34d8f0d9","system_id":"levelo_inurba_marseille","lat":43.28848,"lon":5.393133,"is_reserved":false,"is_disabled":false,"rental_uris":{"android":"levelo://app?vid=dad7fce6-c989-477c-a1e2-e0ed34d8f0d9","ios":"levelo://app?vid=dad7fce6-c989-477c-a1e2-e0ed34d8f0d9"},"vehicle_type_id":"4","last_reported":1745446198,"current_range_meters":20400,"station_id":"ce4bh2p2rcd13ifvqdi0","pricing_plan_id":"cebpf4jnsgd1na2vs0mg"},{"bike_id":"cfa3005a-e229-4b19-ba9e-16ba83623768","system_id":"levelo_inurba_marseille","lat":43.28039,"lon":5.36943,"is_reserved":false,"is_disabled":false,"rental_uris":{"android":"levelo://app?vid=cfa3005a-e229-4b19-ba9e-16ba83623768","ios":"levelo://app?vid=cfa3005a-e229-4b19-ba9e-16ba83623768"},"vehicle_type_id":"4","last_reported":1745446198,"current_range_meters":20400,"station_id":"ce4bha12rcd13ifvqef0","pricing_plan_id":"cebpf4jnsgd1na2vs0mg"},{"bike_id":"6f8110d9-0891-4a33-8a98-df34fa3c7719","system_id":"levelo_inurba_marseille","lat":43.29554,"lon":5.42276,"is_reserved":false,"is_disabled":false,"rental_uris":{"android":"levelo://app?vid=6f8110d9-0891-4a33-8a98-df34fa3c7719","ios":"levelo://app?vid=6f8110d9-0891-4a33-8a98-df34fa3c7719"},"vehicle_type_id":"4","last_reported":1745446198,"current_range_meters":20400,"station_id":"ce4bhph2rcd13ifvqhdg","pricing_plan_id":"cebpf4jnsgd1na2vs0mg"},{"bike_id":"5a4c5cc2-d271-481d-93a9-75655897398b","system_id":"levelo_inurba_marseille","lat":43.30541,"lon":5.38421,"is_reserved":false,"is_disabled":false,"rental_uris":{"android":"levelo://app?vid=5a4c5cc2-d271-481d-93a9-75655897398b","ios":"levelo://app?vid=5a4c5cc2-d271-481d-93a9-75655897398b"},"vehicle_type_id":"4","last_reported":1745446198,"current_range_meters":20800,"station_id":"ce4bgg92rcd13ifvqb30","pricing_plan_id":"cebpf4jnsgd1na2vs0mg"},{"bike_id":"e5d8cf2a-9551-4f01-b365-35558d069dad","system_id":"levelo_inurba_marseille","lat":43.27358,"lon":5.36247,"is_reserved":false,"is_disabled":true,"rental_uris":{"android":"levelo://app?vid=e5d8cf2a-9551-4f01-b365-35558d069dad","ios":"levelo://app?vid=e5d8cf2a-9551-4f01-b365-35558d069dad"},"vehicle_type_id":"4","last_reported":1745446198,"current_range_meters":20400,"station_id":"ce4bhbh2rcd13ifvqeo0","pricing_plan_id":"cebpf4jnsgd1na2vs0mg"},{"bike_id":"4d322af7-44ba-44ca-a5a4-8cf73450d35e","system_id":"levelo_inurba_marseille","lat":43.31769,"lon":5.39013,"is_reserved":false,"is_disabled":false,"rental_uris":{"android":"levelo://app?vid=4d322af7-44ba-44ca-a5a4-8cf73450d35e","ios":"levelo://app?vid=4d322af7-44ba-44ca-a5a4-8cf73450d35e"},"vehicle_type_id":"4","last_reported":1745446198,"current_range_meters":20800,"station_id":"ce4bhqp2rcd13ifvqhng","pricing_plan_id":"cebpf4jnsgd1na2vs0mg"},{"bike_id":"30da752e-5450-4da3-965e-773778ce5d7d","system_id":"levelo_inurba_marseille","lat":43.24175,"lon":5.3638,"is_reserved":false,"is_disabled":false,"rental_uris":{"android":"levelo://app?vid=30da752e-5450-4da3-965e-773778ce5d7d","ios":"levelo://app?vid=30da752e-5450-4da3-965e-773778ce5d7d"},"vehicle_type_id":"4","last_reported":1745446198,"current_range_meters":20800,"station_id":"cpo36qri1sfpv3e86is0","pricing_plan_id":"cebpf4jnsgd1na2vs0mg"},{"bike_id":"2dbeca46-8111-463a-9871-bab9f5e41944","system_id":"levelo_inurba_marseille","lat":43.29908,"lon":5.38146,"is_reserved":false,"is_disabled":false,"rental_uris":{"android":"levelo://app?vid=2dbeca46-8111-463a-9871-bab9f5e41944","ios":"levelo://app?vid=2dbeca46-8111-463a-9871-bab9f5e41944"},"vehicle_type_id":"4","last_reported":1745446198,"current_range_meters":20800,"station_id":"ce4bgj12rcd13ifvqbc0","pricing_plan_id":"cebpf4jnsgd1na2vs0mg"},{"bike_id":"e6d56b8f-a5ad-4e10-996e-8e21ff3f1e20","system_id":"levelo_inurba_marseille","lat":43.27569,"lon":5.38418,"is_reserved":false,"is_disabled":false,"rental_uris":{"android":"levelo://app?vid=e6d56b8f-a5ad-4e10-996e-8e21ff3f1e20","ios":"levelo://app?vid=e6d56b8f-a5ad-4e10-996e-8e21ff3f1e20"},"vehicle_type_id":"4","last_reported":1745446198,"current_range_meters":20800,"station_id":"ce4bhh92rcd13ifvqfi0","pricing_plan_id":"cebpf4jnsgd1na2vs0mg"},{"bike_id":"52b3f36b-575c-4a38-8f85-30281ccd5ccf","system_id":"levelo_inurba_marseille","lat":43.28572,"lon":5.39492,"is_reserved":false,"is_disabled":false,"rental_uris":{"android":"levelo://app?vid=52b3f36b-575c-4a38-8f85-30281ccd5ccf","ios":"levelo://app?vid=52b3f36b-575c-4a38-8f85-30281ccd5ccf"},"vehicle_type_id":"4","last_reported":1745446198,"current_range_meters":20800,"station_id":"ce4bh292rcd13ifvqdg0","pricing_plan_id":"cebpf4jnsgd1na2vs0mg"},{"bike_id":"73f40cff-bb71-4b7a-8ad7-f06c69fb0596","system_id":"levelo_inurba_marseille","lat":43.21195,"lon":5.3507,"is_reserved":false,"is_disabled":false,"rental_uris":{"android":"levelo://app?vid=73f40cff-bb71-4b7a-8ad7-f06c69fb0596","ios":"levelo://app?vid=73f40cff-bb71-4b7a-8ad7-f06c69fb0596"},"vehicle_type_id":"4","last_reported":1745446198,"current_range_meters":21600,"station_id":"st_cvj6sg6p6f1abm77japg","pricing_plan_id":"cebpf4jnsgd1na2vs0mg"},{"bike_id":"6d76d93b-b85c-4aa5-a9db-84e4bcf1d3e4","system_id":"levelo_inurba_marseille","lat":43.30133,"lon":5.39862,"is_reserved":false,"is_disabled":false,"rental_uris":{"android":"levelo://app?vid=6d76d93b-b85c-4aa5-a9db-84e4bcf1d3e4","ios":"levelo://app?vid=6d76d93b-b85c-4aa5-a9db-84e4bcf1d3e4"},"vehicle_type_id":"4","last_reported":1745446198,"current_range_meters":21600,"station_id":"ce4bh0h2rcd13ifvqd40","pricing_plan_id":"cebpf4jnsgd1na2vs0mg"},{"bike_id":"f18197bd-2114-455a-af71-1ec272624c82","system_id":"levelo_inurba_marseille","lat":43.30152,"lon":5.38073,"is_reserved":false,"is_disabled":false,"rental_uris":{"android":"levelo://app?vid=f18197bd-2114-455a-af71-1ec272624c82","ios":"levelo://app?vid=f18197bd-2114-455a-af71-1ec272624c82"},"vehicle_type_id":"4","last_reported":1745446198,"current_range_meters":21600,"station_id":"ce4bgjp2rcd13ifvqbh0","pricing_plan_id":"cebpf4jnsgd1na2vs0mg"},{"bike_id":"afb47f80-30d4-4ee2-a29e-7947a831a09d","system_id":"levelo_inurba_marseille","lat":43.31179,"lon":5.38699,"is_reserved":false,"is_disabled":false,"rental_uris":{"android":"levelo://app?vid=afb47f80-30d4-4ee2-a29e-7947a831a09d","ios":"levelo://app?vid=afb47f80-30d4-4ee2-a29e-7947a831a09d"},"vehicle_type_id":"4","last_reported":1745446198,"current_range_meters":22000,"station_id":"ce4bgv12rcd13ifvqcp0","pricing_plan_id":"cebpf4jnsgd1na2vs0mg"},{"bike_id":"0e266f08-9679-407a-a623-5dc0454d6058","system_id":"levelo_inurba_marseille","lat":43.30441,"lon":5.38889,"is_reserved":false,"is_disabled":false,"rental_uris":{"android":"levelo://app?vid=0e266f08-9679-407a-a623-5dc0454d6058","ios":"levelo://app?vid=0e266f08-9679-407a-a623-5dc0454d6058"},"vehicle_type_id":"4","last_reported":1745446198,"current_range_meters":22000,"station_id":"ce4bgk12rcd13ifvqbi0","pricing_plan_id":"cebpf4jnsgd1na2vs0mg"},{"bike_id":"a823ec9d-7d2e-4894-8bcc-79b308d25452","system_id":"levelo_inurba_marseille","lat":43.33718,"lon":5.39167,"is_reserved":false,"is_disabled":false,"rental_uris":{"android":"levelo://app?vid=a823ec9d-7d2e-4894-8bcc-79b308d25452","ios":"levelo://app?vid=a823ec9d-7d2e-4894-8bcc-79b308d25452"},"vehicle_type_id":"4","last_reported":1745446198,"current_range_meters":22000,"station_id":"ce4bhr92rcd13ifvqhsg","pricing_plan_id":"cebpf4jnsgd1na2vs0mg"},{"bike_id":"2ddb7626-06dc-4abf-976e-19ce121be91c","system_id":"levelo_inurba_marseille","lat":43.31732,"lon":5.37741,"is_reserved":false,"is_disabled":false,"rental_uris":{"android":"levelo://app?vid=2ddb7626-06dc-4abf-976e-19ce121be91c","ios":"levelo://app?vid=2ddb7626-06dc-4abf-976e-19ce121be91c"},"vehicle_type_id":"4","last_reported":1745446198,"current_range_meters":22000,"station_id":"ce4bgth2rcd13ifvqch0","pricing_plan_id":"cebpf4jnsgd1na2vs0mg"},{"bike_id":"2054c923-e81d-4a3f-8bec-385edda06d15","system_id":"levelo_inurba_marseille","lat":43.281021,"lon":5.378358,"is_reserved":false,"is_disabled":false,"rental_uris":{"android":"levelo://app?vid=2054c923-e81d-4a3f-8bec-385edda06d15","ios":"levelo://app?vid=2054c923-e81d-4a3f-8bec-385edda06d15"},"vehicle_type_id":"4","last_reported":1745446198,"current_range_meters":22000,"station_id":"ce4bha12rcd13ifvqee0","pricing_plan_id":"cebpf4jnsgd1na2vs0mg"},{"bike_id":"d71e5110-a181-4390-b3db-18202b6a9d1c","system_id":"levelo_inurba_marseille","lat":43.28355,"lon":5.38121,"is_reserved":false,"is_disabled":false,"rental_uris":{"android":"levelo://app?vid=d71e5110-a181-4390-b3db-18202b6a9d1c","ios":"levelo://app?vid=d71e5110-a181-4390-b3db-18202b6a9d1c"},"vehicle_type_id":"4","last_reported":1745446198,"current_range_meters":21600,"station_id":"ce4bh412rcd13ifvqdr0","pricing_plan_id":"cebpf4jnsgd1na2vs0mg"},{"bike_id":"d386891c-61a2-4b1d-8dc2-4037d91f37b2","system_id":"levelo_inurba_marseille","lat":43.31364,"lon":5.39682,"is_reserved":false,"is_disabled":false,"rental_uris":{"android":"levelo://app?vid=d386891c-61a2-4b1d-8dc2-4037d91f37b2","ios":"levelo://app?vid=d386891c-61a2-4b1d-8dc2-4037d91f37b2"},"vehicle_type_id":"4","last_reported":1745446198,"current_range_meters":22000,"station_id":"ce4bgvp2rcd13ifvqcu0","pricing_plan_id":"cebpf4jnsgd1na2vs0mg"},{"bike_id":"149ea6cc-657e-4902-bcdc-b72de18f8d93","system_id":"levelo_inurba_marseille","lat":43.27587,"lon":5.38428,"is_reserved":false,"is_disabled":false,"rental_uris":{"android":"levelo://app?vid=149ea6cc-657e-4902-bcdc-b72de18f8d93","ios":"levelo://app?vid=149ea6cc-657e-4902-bcdc-b72de18f8d93"},"vehicle_type_id":"4","last_reported":1745446198,"current_range_meters":22400,"station_id":"ce4bhh92rcd13ifvqfi0","pricing_plan_id":"cebpf4jnsgd1na2vs0mg"},