{"last_updated":1741860667,"ttl":60,"version":"2.2","data":{"bikes":[{"bike_id":"6ce0e605-1e94-4680-96d8-93c1b5f891e4","system_id":"levelo_inurba_marseille","lat":43.28705,"lon":5.39993,"is_reserved":false,"is_disabled":true,"rental_uris":{"android":"levelo://app?vid=6ce0e605-1e94-4680-96d8-93c1b5f891e4","ios":"levelo://app?vid=6ce0e605-1e94-4680-96d8-93c1b5f891e4"},"vehicle_type_id":"4","last_reported":1741860667,"current_range_meters":2800,"station_id":"ce4bho92rcd13ifvqh3g","pricing_plan_id":"cebpf4jnsgd1na2vs0mg"},{"bike_id":"448bd231-ed06-4dfe-b39d-98d7cf453c43","system_id":"levelo_inurba_marseille","lat":43.33653,"lon":5.41019,"is_reserved":false,"is_disabled":false,"rental_uris":{"android":"levelo://app?vid=448bd231-ed06-4dfe-b39d-98d7cf453c43","ios":"levelo://app?vid=448bd231-ed06-4dfe-b39d-98d7cf453c43"},"vehicle_type_id":"4","last_reported":1741860667,"current_range_meters":2800,"station_id":"ce4bhqh2rcd13ifvqhmg","pricing_plan_id":"cebpf4jnsgd1na2vs0mg"},{"bike_id":"f37febe4-54f3-457e-af52-4e55fc0ceba2","system_id":"levelo_inurba_marseille","lat":43.24082,"lon":5.37755,"is_reserved":false,"is_disabled":false,"rental_uris":{"android":"levelo://app?vid=f37febe4-54f3-457e-af52-4e55fc0ceba2","ios":"levelo://app?vid=f37febe4-54f3-457e-af52-4e55fc0ceba2"},"vehicle_type_id":"4","last_reported":1741860667,"current_range_meters":3200,"station_id":"ce4bhnp2rcd13ifvqgvg","pricing_plan_id":"cebpf4jnsgd1na2vs0mg"},{"bike_id":"24eb750f-1f86-4737-9904-2e8ccb55c442","system_id":"levelo_inurba_marseille","lat":43.26683,"lon":5.38275,"is_reserved":false,"is_disabled":false,"rental_uris":{"android":"levelo://app?vid=24eb750f-1f86-4737-9904-2e8ccb55c442","ios":"levelo://app?vid=24eb750f-1f86-4737-9904-2e8ccb55c442"},"vehicle_type_id":"4","last_reported":1741860667,"current_range_meters":3200,"station_id":"ce4bhg92rcd13ifvqf90","pricing_plan_id":"cebpf4jnsgd1na2vs0mg"},{"bike_id":"19a22633-3471-49c9-9219-f7874ea2b226","system_id":"levelo_inurba_marseille","lat":43.29098,"lon":5.38154,"is_reserved":false,"is_disabled":false,"rental_uris":{"android":"levelo://app?vid=19a22633-3471-49c9-9219-f7874ea2b226","ios":"levelo://app?vid=19a22633-3471-49c9-9219-f7874ea2b226"},"vehicle_type_id":"4","last_reported":1741860667,"current_range_meters":3200,"station_id":"ce4bh512rcd13ifvqe2g","pricing_plan_id":"cebpf4jnsgd1na2vs0mg"},{"bike_id":"9782f7b3-b971-453a-8513-edbd92d8d4f8","system_id":"levelo_inurba_marseille","lat":43.2681,"lon":5.40263,"is_reserved":false,"is_disabled":false,"rental_uris":{"android":"levelo://app?vid=9782f7b3-b971-453a-8513-edbd92d8d4f8","ios":"levelo://app?vid=9782f7b3-b971-453a-8513-edbd92d8d4f8"},"vehicle_type_id":"4","last_reported":1741860667,"current_range_meters":3200,"station_id":"ce501612rcd8frsf0b60","pricing_plan_id":"cebpf4jnsgd1na2vs0mg"},{"bike_id":"241d79a7-8164-4ee5-8d3f-2565e2e0b3e8","system_id":"levelo_inurba_marseille","lat":43.31342,"lon":5.37926,"is_reserved":false,"is_disabled":false,"rental_uris":{"android":"levelo://app?vid=241d79a7-8164-4ee5-8d3f-2565e2e0b3e8","ios":"levelo://app?vid=241d79a7-8164-4ee5-8d3f-2565e2e0b3e8"},"vehicle_type_id":"4","last_reported":1741860667,"current_range_meters":3200,"station_id":"","pricing_plan_id":"cebpf4jnsgd1na2vs0mg"},{"bike_id":"f640465e-8c9e-425a-8e36-08d8d5201bf6","system_id":"levelo_inurba_marseille","lat":43.23197,"lon":5.35552,"is_reserved":false,"is_disabled":false,"rental_uris":{"android":"levelo://app?vid=f640465e-8c9e-425a-8e36-08d8d5201bf6","ios":"levelo://app?vid=f640465e-8c9e-425a-8e36-08d8d5201bf6"},"vehicle_type_id":"4","last_reported":1741860667,"current_range_meters":3200,"station_id":"ce4bhu92rcd13ifvqi70","pricing_plan_id":"cebpf4jnsgd1na2vs0mg"},{"bike_id":"0cb9d178-7a6f-4412-8cc2-0d2542239e5a","system_id":"levelo_inurba_marseille","lat":43.31338,"lon":5.36694,"is_reserved":false,"is_disabled":false,"rental_uris":{"android":"levelo://app?vid=0cb9d178-7a6f-4412-8cc2-0d2542239e5a","ios":"levelo://app?vid=0cb9d178-7a6f-4412-8cc2-0d2542239e5a"},"vehicle_type_id":"4","last_reported":1741860667,"current_range_meters":3600,"station_id":"ce4bgr92rcd13ifvqc6g","pricing_plan_id":"cebpf4jnsgd1na2vs0mg"},{"bike_id":"9ae9d456-8778-484a-afed-e98e16da56d0","system_id":"levelo_inurba_marseille","lat":43.31769,"lon":5.39035,"is_reserved":false,"is_disabled":false,"rental_uris":{"android":"levelo://app?vid=9ae9d456-8778-484a-afed-e98e16da56d0","ios":"levelo://app?vid=9ae9d456-8778-484a-afed-e98e16da56d0"},"vehicle_type_id":"4","last_reported":1741860667,"current_range_meters":3600,"station_id":"ce4bhqp2rcd13ifvqhng","pricing_plan_id":"cebpf4jnsgd1na2vs0mg"},{"bike_id":"0250762c-f15e-4c52-9700-20efd148ffa6","system_id":"levelo_inurba_marseille","lat":43.25933,"lon":5.40911,"is_reserved":false,"is_disabled":false,"rental_uris":{"android":"levelo://app?vid=0250762c-f15e-4c52-9700-20efd148ffa6","ios":"levelo://app?vid=0250762c-f15e-4c52-9700-20efd148ffa6"},"vehicle_type_id":"4","last_reported":1741860667,"current_range_meters":4000,"station_id":"ce4bhm92rcd13ifvqglg","pricing_plan_id":"cebpf4jnsgd1na2vs0mg"},{"bike_id":"e24fb72b-b2fd-4268-baf6-390fc5a8f48e","system_id":"levelo_inurba_marseille","lat":43.28937,"lon":5.39644,"is_reserved":false,"is_disabled":false,"rental_uris":{"android":"levelo://app?vid=e24fb72b-b2fd-4268-baf6-390fc5a8f48e","ios":"levelo://app?vid=e24fb72b-b2fd-4268-baf6-390fc5a8f48e"},"vehicle_type_id":"4","last_reported":1741860667,"current_range_meters":4000,"station_id":"ce4bh3h2rcd13ifvqdn0","pricing_plan_id":"cebpf4jnsgd1na2vs0mg"},{"bike_id":"f0d88637-0f69-41f5-99fc-462e1536161f","system_id":"levelo_inurba_marseille","lat":43.26063,"lon":5.39396,"is_reserved":false,"is_disabled":false,"rental_uris":{"android":"levelo://app?vid=f0d88637-0f69-41f5-99fc-462e1536161f","ios":"levelo://app?vid=f0d88637-0f69-41f5-99fc-462e1536161f"},"vehicle_type_id":"4","last_reported":1741860667,"current_range_meters":4000,"station_id":"ce4bhh92rcd13ifvqfj0","pricing_plan_id":"cebpf4jnsgd1na2vs0mg"},{"bike_id":"9be0e64f-fd3c-47c5-a70a-2d19cb7ed170","system_id":"levelo_inurba_marseille","lat":43.31359,"lon":5.3848,"is_reserved":false,"is_disabled":false,"rental_uris":{"android":"levelo://app?vid=9be0e64f-fd3c-47c5-a70a-2d19cb7ed170","ios":"levelo://app?vid=9be0e64f-fd3c-47c5-a70a-2d19cb7ed170"},"vehicle_type_id":"4","last_reported":1741860667,"current_range_meters":4000,"station_id":"ce4bgt92rcd13ifvqcf0","pricing_plan_id":"cebpf4jnsgd1na2vs0mg"},{"bike_id":"6c531d67-4efb-494d-9d51-0797408d4009","system_id":"levelo_inurba_marseille","lat":43.30465,"lon":5.37917,"is_reserved":false,"is_disabled":false,"rental_uris":{"android":"levelo://app?vid=6c531d67-4efb-494d-9d51-0797408d4009","ios":"levelo://app?vid=6c531d67-4efb-494d-9d51-0797408d4009"},"vehicle_type_id":"4","last_reported":1741860667,"current_range_meters":4000,"station_id":"ce4bgup2rcd13ifvqcn0","pricing_plan_id":"cebpf4jnsgd1na2vs0mg"},{"bike_id":"133761ff-f4e1-4bc3-aa52-a9cf08d57a99","system_id":"levelo_inurba_marseille","lat":43.26786,"lon":5.39417,"is_reserved":false,"is_disabled":false,"rental_uris":{"android":"levelo://app?vid=133761ff-f4e1-4bc3-aa52-a9cf08d57a99","ios":"levelo://app?vid=133761ff-f4e1-4bc3-aa52-a9cf08d57a99"},"vehicle_type_id":"4","last_reported":1741860667,"current_range_meters":3600,"station_id":"ce4bhh12rcd13ifvqfg0","pricing_plan_id":"cebpf4jnsgd1na2vs0mg"},{"bike_id":"e12be538-6dde-4604-98c7-f66a323a5270","system_id":"levelo_inurba_marseille","lat":43.23068,"lon":5.35501,"is_reserved":false,"is_disabled":false,"rental_uris":{"android":"levelo://app?vid=e12be538-6dde-4604-98c7-f66a323a5270","ios":"levelo://app?vid=e12be538-6dde-4604-98c7-f66a323a5270"},"vehicle_type_id":"4","last_reported":1741860667,"current_range_meters":4000,"station_id":"cpo3342slgdg3j2ifvpg","pricing_plan_id":"cebpf4jnsgd1na2vs0mg"},{"bike_id":"76a8db1a-c303-45c7-bbd0-22503810a76d","system_id":"levelo_inurba_marseille","lat":43.30468,"lon":5.37898,"is_reserved":false,"is_disabled":false,"rental_uris":{"android":"levelo://app?vid=76a8db1a-c303-45c7-bbd0-22503810a76d","ios":"levelo://app?vid=76a8db1a-c303-45c7-bbd0-22503810a76d"},"vehicle_type_id":"4","last_reported":1741860667,"current_range_meters":4000,"station_id":"ce4bgup2rcd13ifvqcn0","pricing_plan_id":"cebpf4jnsgd1na2vs0mg"},{"bike_id":"feb4b9df-ca5a-441d-8892-405597e7da99","system_id":"levelo_inurba_marseille","lat":43.23048,"lon":5.35504,"is_reserved":false,"is_disabled":false,"rental_uris":{"android":"levelo://app?vid=feb4b9df-ca5a-441d-8892-405597e7da99","ios":"levelo://app?vid=feb4b9df-ca5a-441d-8892-405597e7da99"},"vehicle_type_id":"4","last_reported":1741860667,"current_range_meters":4000,"station_id":"cpo3342slgdg3j2ifvpg","pricing_plan_id":"cebpf4jnsgd1na2vs0mg"},{"bike_id":"415e7a31-245d-4ead-9f33-dad092a04302","system_id":"levelo_inurba_marseille","lat":43.23059,"lon":5.35496,"is_reserved":false,"is_disabled":false,"rental_uris":{"android":"levelo://app?vid=415e7a31-245d-4ead-9f33-dad092a04302","ios":"levelo://app?vid=415e7a31-245d-4ead-9f33-dad092a04302"},"vehicle_type_id":"4","last_reported":1741860667,"current_range_meters":4400,"station_id":"cpo3342slgdg3j2ifvpg","pricing_plan_id":"cebpf4jnsgd1na2vs0mg"},{"bike_id":"60addeb5-8b0b-4949-b3a6-5f197b8d4abb","system_id":"levelo_inurba_marseille","lat":43.33349,"lon":5.39628,"is_reserved":false,"is_disabled":false,"rental_uris":{"android":"levelo://app?vid=60addeb5-8b0b-4949-b3a6-5f197b8d4abb","ios":"levelo://app?vid=60addeb5-8b0b-4949-b3a6-5f197b8d4abb"},"vehicle_type_id":"4","last_reported":1741860667,"current_range_meters":4400,"station_id":"","pricing_plan_id":"cebpf4jnsgd1na2vs0mg"},{"bike_id":"f1dcd13e-ab3a-40aa-b836-0beb81609621","system_id":"levelo_inurba_marseille","lat":43.24541,"lon":5.39541,"is_reserved":false,"is_disabled":false,"rental_uris":{"android":"levelo://app?vid=f1dcd13e-ab3a-40aa-b836-0beb81609621","ios":"levelo://app?vid=f1dcd13e-ab3a-40aa-b836-0beb81609621"},"vehicle_type_id":"4","last_reported":1741860667,"current_range_meters":4400,"station_id":"ce4bhlp2rcd13ifvqgjg","pricing_plan_id":"cebpf4jnsgd1na2vs0mg"},{"bike_id":"05386f4f-da55-49c6-b422-a78038bbad3e","system_id":"levelo_inurba_marseille","lat":43.23152,"lon":5.43719,"is_reserved":false,"is_disabled":false,"rental_uris":{"android":"levelo://app?vid=05386f4f-da55-49c6-b422-a78038bbad3e","ios":"levelo://app?vid=05386f4f-da55-49c6-b422-a78038bbad3e"},"vehicle_type_id":"4","last_reported":1741860667,"current_range_meters":4400,"station_id":"ce4bhmp2rcd13ifvqgog","pricing_plan_id":"cebpf4jnsgd1na2vs0mg"},{"bike_id":"0504f23f-2945-4cf0-90fa-f9579b05ebfe","system_id":"levelo_inurba_marseille","lat":43.28619,"lon":5.35105,"is_reserved":false,"is_disabled":false,"rental_uris":{"android":"levelo://app?vid=0504f23f-2945-4cf0-90fa-f9579b05ebfe","ios":"levelo://app?vid=0504f23f-2945-4cf0-90fa-f9579b05ebfe"},"vehicle_type_id":"4","last_reported":1741860667,"current_range_meters":4800,"station_id":"ce4bgi92rcd13ifvqb90","pricing_plan_id":"cebpf4jnsgd1na2vs0mg"},{"bike_id":"f310e1a5-0a24-483c-883e-355e88479a1d","system_id":"levelo_inurba_marseille","lat":43.30138,"lon":5.37412,"is_reserved":false,"is_disabled":false,"rental_uris":{"android":"levelo://app?vid=f310e1a5-0a24-483c-883e-355e88479a1d","ios":"levelo://app?vid=f310e1a5-0a24-483c-883e-355e88479a1d"},"vehicle_type_id":"4","last_reported":1741860667,"current_range_meters":4800,"station_id":"ce4bgs92rcd13ifvqcc0","pricing_plan_id":"cebpf4jnsgd1na2vs0mg"},{"bike_id":"de36c783-0801-4e4f-8cf1-45bf52ad96b6","system_id":"levelo_inurba_marseille","lat":43.26566,"lon":5.39014,"is_reserved":false,"is_disabled":false,"rental_uris":{"android":"levelo://app?vid=de36c783-0801-4e4f-8cf1-45bf52ad96b6","ios":"levelo://app?vid=de36c783-0801-4e4f-8cf1-45bf52ad96b6"},"vehicle_type_id":"4","last_reported":1741860667,"current_range_meters":4800,"station_id":"ce4bhe12rcd13ifvqf30","pricing_plan_id":"cebpf4jnsgd1na2vs0mg"},{"bike_id":"2e86a074-ed0e-468b-a688-2d4bc242b4e8","system_id":"levelo_inurba_marseille","lat":43.30157,"lon":5.37401,"is_reserved":false,"is_disabled":false,"rental_uris":{"android":"levelo://app?vid=2e86a074-ed0e-468b-a688-2d4bc242b4e8","ios":"levelo://app?vid=2e86a074-ed0e-468b-a688-2d4bc242b4e8"},"vehicle_type_id":"4","last_reported":1741860667,"current_range_meters":4800,"station_id":"ce4bgs92rcd13ifvqcc0","pricing_plan_id":"cebpf4jnsgd1na2vs0mg"},{"bike_id":"22fbb181-e2f3-4b65-a93d-ea678c43f3d2","system_id":"levelo_inurba_marseille","lat":43.24539,"lon":5.39525,"is_reserved":false,"is_disabled":false,"rental_uris":{"android":"levelo://app?vid=22fbb181-e2f3-4b65-a93d-ea678c43f3d2","ios":"levelo://app?vid=22fbb181-e2f3-4b65-a93d-ea678c43f3d2"},"vehicle_type_id":"4","last_reported":1741860667,"current_range_meters":5600,"station_id":"ce4bhlp2rcd13ifvqgjg","pricing_plan_id":"cebpf4jnsgd1na2vs0mg"},{"bike_id":"72de4c85-7223-490f-9219-5d9d46436df5","system_id":"levelo_inurba_marseille","lat":43.33174,"lon":5.39474,"is_reserved":false,"is_disabled":false,"rental_uris":{"android":"levelo://app?vid=72de4c85-7223-490f-9219-5d9d46436df5","ios":"levelo://app?vid=72de4c85-7223-490f-9219-5d9d46436df5"},"vehicle_type_id":"4","last_reported":1741860667,"current_range_meters":5600,"station_id":"","pricing_plan_id":"cebpf4jnsgd1na2vs0mg"},{"bike_id":"889312f3-d9bf-42e5-9095-9c85d31301e6","system_id":"levelo_inurba_marseille","lat":43.24181,"lon":5.39729,"is_reserved":false,"is_disabled":false,"rental_uris":{"android":"levelo://app?vid=889312f3-d9bf-42e5-9095-9c85d31301e6","ios":"levelo://app?vid=889312f3-d9bf-42e5-9095-9c85d31301e6"},"vehicle_type_id":"4","last_reported":1741860667,"current_range_meters":5600,"station_id":"ce4bhn12rcd13ifvqgpg","pricing_plan_id":"cebpf4jnsgd1na2vs0mg"},{"bike_id":"d20a848b-dbda-449f-9b98-3a524ab79101","system_id":"levelo_inurba_marseille","lat":43.313567,"lon":5.367273,"is_reserved":false,"is_disabled":false,"rental_uris":{"android":"levelo://app?vid=d20a848b-dbda-449f-9b98-3a524ab79101","ios":"levelo://app?vid=d20a848b-dbda-449f-9b98-3a524ab79101"},"vehicle_type_id":"4","last_reported":1741860667,"current_range_meters":5600,"station_id":"ce4bgr92rcd13ifvqc6g","pricing_plan_id":"cebpf4jnsgd1na2vs0mg"},{"bike_id":"5d388b73-c3f0-4b88-946a-59e2a98ccd2d","system_id":"levelo_inurba_marseille","lat":43.32485,"lon":5.36553,"is_reserved":false,"is_disabled":false,"rental_uris":{"android":"levelo://app?vid=5d388b73-c3f0-4b88-946a-59e2a98ccd2d","ios":"levelo://app?vid=5d388b73-c3f0-4b88-946a-59e2a98ccd2d"},"vehicle_type_id":"4","last_reported":1741860667,"current_range_meters":5600,"station_id":"ce4bhs12rcd13ifvqhvg","pricing_plan_id":"cebpf4jnsgd1na2vs0mg"},{"bike_id":"d27cb89b-ea03-49ca-ba68-4c09480e7c97","system_id":"levelo_inurba_marseille","lat":43.29785,"lon":5.38103,"is_reserved":false,"is_disabled":false,"rental_uris":{"android":"levelo://app?vid=d27cb89b-ea03-49ca-ba68-4c09480e7c97","ios":"levelo://app?vid=d27cb89b-ea03-49ca-ba68-4c09480e7c97"},"vehicle_type_id":"4","last_reported":1741860667,"current_range_meters":5600,"station_id":"ce4bgip2rcd13ifvqbb0","pricing_plan_id":"cebpf4jnsgd1na2vs0mg"},{"bike_id":"56a8d5c0-cc16-4725-9674-91a7590488b7","system_id":"levelo_inurba_marseille","lat":43.27188,"lon":5.39195,"is_reserved":false,"is_disabled":false,"rental_uris":{"android":"levelo://app?vid=56a8d5c0-cc16-4725-9674-91a7590488b7","ios":"levelo://app?vid=56a8d5c0-cc16-4725-9674-91a7590488b7"},"vehicle_type_id":"4","last_reported":1741860667,"current_range_meters":5600,"station_id":"ce4bhhp2rcd13ifvqfm0","pricing_plan_id":"cebpf4jnsgd1na2vs0mg"},{"bike_id":"4bd1d516-27fc-4a7a-a82b-0dd452c88ab3","system_id":"levelo_inurba_marseille","lat":43.27494,"lon":5.42458,"is_reserved":false,"is_disabled":false,"rental_uris":{"android":"levelo://app?vid=4bd1d516-27fc-4a7a-a82b-0dd452c88ab3","ios":"levelo://app?vid=4bd1d516-27fc-4a7a-a82b-0dd452c88ab3"},"vehicle_type_id":"4","last_reported":1741860667,"current_range_meters":5600,"station_id":"ce4bhn92rcd13ifvqgrg","pricing_plan_id":"cebpf4jnsgd1na2vs0mg"},{"bike_id":"f039f414-eccc-42a8-a53e-cb8bdc624480","system_id":"levelo_inurba_marseille","lat":43.303227,"lon":5.36909,"is_reserved":false,"is_disabled":false,"rental_uris":{"android":"levelo://app?vid=f039f414-eccc-42a8-a53e-cb8bdc624480","ios":"levelo://app?vid=f039f414-eccc-42a8-a53e-cb8bdc624480"},"vehicle_type_id":"4","last_reported":1741860667,"current_range_meters":5600,"station_id":"ce4bgqh2rcd13ifvqc5g","pricing_plan_id":"cebpf4jnsgd1na2vs0mg"},{"bike_id":"09e23dc9-ce75-4133-a021-e939046593da","system_id":"levelo_inurba_marseille","lat":43.28456,"lon":5.35896,"is_reserved":false,"is_disabled":false,"rental_uris":{"android":"levelo://app?vid=09e23dc9-ce75-4133-a021-e939046593da","ios":"levelo://app?vid=09e23dc9-ce75-4133-a021-e939046593da"},"vehicle_type_id":"4","last_reported":1741860667,"current_range_meters":6000,"station_id":"ce4bhah2rcd13ifvqei0","pricing_plan_id":"cebpf4jnsgd1na2vs0mg"},{"bike_id":"8188b88b-4c6f-4367-87f4-4eb702bd284a","system_id":"levelo_inurba_marseille","lat":43.23195,"lon":5.35563,"is_reserved":false,"is_disabled":false,"rental_uris":{"android":"levelo://app?vid=8188b88b-4c6f-4367-87f4-4eb702bd284a","ios":"levelo://app?vid=8188b88b-4c6f-4367-87f4-4eb702bd284a"},"vehicle_type_id":"4","last_reported":1741860667,"current_range_meters":6000,"station_id":"ce4bhu92rcd13ifvqi70","pricing_plan_id":"cebpf4jnsgd1na2vs0mg"},{"bike_id":"f829a819-671e-4b71-9c22-56c5f8047725","system_id":"levelo_inurba_marseille","lat":43.32364,"lon":5.36768,"is_reserved":false,"is_disabled":false,"rental_uris":{"android":"levelo://app?vid=f829a819-671e-4b71-9c22-56c5f8047725","ios":"levelo://app?vid=f829a819-671e-4b71-9c22-56c5f8047725"},"vehicle_type_id":"4","last_reported":1741860667,"current_range_meters":6000,"station_id":"ce4bhsh2rcd13ifvqi2g","pricing_plan_id":"cebpf4jnsgd1na2vs0mg"},{"bike_id":"9400d411-6b30-4ae8-a86f-02352a18029a","system_id":"levelo_inurba_marseille","lat":43.27507,"lon":5.42472,"is_reserved":false,"is_disabled":false,"rental_uris":{"android":"levelo://app?vid=9400d411-6b30-4ae8-a86f-02352a18029a","ios":"levelo://app?vid=9400d411-6b30-4ae8-a86f-02352a18029a"},"vehicle_type_id":"4","last_reported":1741860667,"current_range_meters":6400,"station_id":"ce4bhn92rcd13ifvqgrg","pricing_plan_id":"cebpf4jnsgd1na2vs0mg"},{"bike_id":"39997eb9-a372-4db0-a51e-68e043d38c64","system_id":"levelo_inurba_marseille","lat":43.26229,"lon":5.40467,"is_reserved":false,"is_disabled":true,"rental_uris":{"android":"levelo://app?vid=39997eb9-a372-4db0-a51e-68e043d38c64","ios":"levelo://app?vid=39997eb9-a372-4db0-a51e-68e043d38c64"},"vehicle_type_id":"4","last_reported":1741860667,"current_range_meters":6400,"station_id":"ce4bhmh2rcd13ifvqgmg","pricing_plan_id":"cebpf4jnsgd1na2vs0mg"},{"bike_id":"9104b748-eaa8-471a-8e0e-fa841547ccf7","system_id":"levelo_inurba_marseille","lat":43.308872,"lon":5.371852,"is_reserved":false,"is_disabled":false,"rental_uris":{"android":"levelo://app?vid=9104b748-eaa8-471a-8e0e-fa841547ccf7","ios":"levelo://app?vid=9104b748-eaa8-471a-8e0e-fa841547ccf7"},"vehicle_type_id":"4","last_reported":1741860667,"current_range_meters":6400,"station_id":"ce4bguh2rcd13ifvqckg","pricing_plan_id":"cebpf4jnsgd1na2vs0mg"},{"bike_id":"9ef63287-5b1b-443b-afc8-2fcd4c7a15eb","system_id":"levelo_inurba_marseille","lat":43.30553,"lon":5.36528,"is_reserved":false,"is_disabled":false,"rental_uris":{"android":"levelo://app?vid=9ef63287-5b1b-443b-afc8-2fcd4c7a15eb","ios":"levelo://app?vid=9ef63287-5b1b-443b-afc8-2fcd4c7a15eb"},"vehicle_type_id":"4","last_reported":1741860667,"current_range_meters":6400,"station_id":"ce4bgs12rcd13ifvqcag","pricing_plan_id":"cebpf4jnsgd1na2vs0mg"},{"bike_id":"472a02ae-36ca-4538-bd27-225364dfe50f","system_id":"levelo_inurba_marseille","lat":43.24521,"lon":5.37349,"is_reserved":false,"is_disabled":false,"rental_uris":{"android":"levelo://app?vid=472a02ae-36ca-4538-bd27-225364dfe50f","ios":"levelo://app?vid=472a02ae-36ca-4538-bd27-225364dfe50f"},"vehicle_type_id":"4","last_reported":1741860667,"current_range_meters":6400,"station_id":"","pricing_plan_id":"cebpf4jnsgd1na2vs0mg"},{"bike_id":"9bbbcd12-f035-4491-913d-177c7cec21b5","system_id":"levelo_inurba_marseille","lat":43.29519,"lon":5.37734,"is_reserved":false,"is_disabled":false,"rental_uris":{"android":"levelo://app?vid=9bbbcd12-f035-4491-913d-177c7cec21b5","ios":"levelo://app?vid=9bbbcd12-f035-4491-913d-177c7cec21b5"},"vehicle_type_id":"4","last_reported":1741860667,"current_range_meters":6400,"station_id":"ce4bgrp2rcd13ifvqc9g","pricing_plan_id":"cebpf4jnsgd1na2vs0mg"},{"bike_id":"e711d118-fe8f-4513-b116-a55c5b5e95a8","system_id":"levelo_inurba_marseille","lat":43.33616,"lon":5.40978,"is_reserved":false,"is_disabled":false,"rental_uris":{"android":"levelo://app?vid=e711d118-fe8f-4513-b116-a55c5b5e95a8","ios":"levelo://app?vid=e711d118-fe8f-4513-b116-a55c5b5e95a8"},"vehicle_type_id":"4","last_reported":1741860667,"current_range_meters":6400,"station_id":"ce4bhqh2rcd13ifvqhmg","pricing_plan_id":"cebpf4jnsgd1na2vs0mg"},{"bike_id":"5b638169-8ffd-4eef-8ee0-8a1c4db37193","system_id":"levelo_inurba_marseille","lat":43.250063,"lon":5.389143,"is_reserved":false,"is_disabled":false,"rental_uris":{"android":"levelo://app?vid=5b638169-8ffd-4eef-8ee0-8a1c4db37193","ios":"levelo://app?vid=5b638169-8ffd-4eef-8ee0-8a1c4db37193"},"vehicle_type_id":"4","last_reported":1741860667,"current_range_meters":6400,"station_id":"ce4bhgp2rcd13ifvqfd0","pricing_plan_id":"cebpf4jnsgd1na2vs0mg"},{"bike_id":"5c0be3c0-190a-43f3-becc-02f064bfef44","system_id":"levelo_inurba_marseille","lat":43.33432,"lon":5.40061,"is_reserved":false,"is_disabled":false,"rental_uris":{"android":"levelo://app?vid=5c0be3c0-190a-43f3-becc-02f064bfef44","ios":"levelo://app?vid=5c0be3c0-190a-43f3-becc-02f064bfef44"},"vehicle_type_id":"4","last_reported":1741860667,"current_range_meters":6400,"station_id":"","pricing_plan_id":"cebpf4jnsgd1na2vs0mg"},{"bike_id":"a4024768-86bf-4442-9280-be67a79a2989","system_id":"levelo_inurba_marseille","lat":43.2591,"lon":5.40911,"is_reserved":false,"is_disabled":false,"rental_uris":{"android":"levelo://app?vid=a4024768-86bf-4442-9280-be67a79a2989","ios":"levelo://app?vid=a4024768-86bf-4442-9280-be67a79a2989"},"vehicle_type_id":"4","last_reported":1741860667,"current_range_meters":6400,"station_id":"ce4bhm92rcd13ifvqglg","pricing_plan_id":"cebpf4jnsgd1na2vs0mg"},{"bike_id":"03fcef79-f017-4d15-a10d-891c5cd96db2","system_id":"levelo_inurba_marseille","lat":43.23059,"lon":5.35507,"is_reserved":false,"is_disabled":false,"rental_uris":{"android":"levelo://app?vid=03fcef79-f017-4d15-a10d-891c5cd96db2","ios":"levelo://app?vid=03fcef79-f017-4d15-a10d-891c5cd96db2"},"vehicle_type_id":"4","last_reported":1741860667,"current_range_meters":6400,"station_id":"cpo3342slgdg3j2ifvpg","pricing_plan_id":"cebpf4jnsgd1na2vs0mg"},{"bike_id":"7800fc23-fd1f-49c5-8509-6ffc3df70459","system_id":"levelo_inurba_marseille","lat":43.26769,"lon":5.39414,"is_reserved":false,"is_disabled":false,"rental_uris":{"android":"levelo://app?vid=7800fc23-fd1f-49c5-8509-6ffc3df70459","ios":"levelo://app?vid=7800fc23-fd1f-49c5-8509-6ffc3df70459"},"vehicle_type_id":"4","last_reported":1741860667,"current_range_meters":6800,"station_id":"ce4bhh12rcd13ifvqfg0","pricing_plan_id":"cebpf4jnsgd1na2vs0mg"},{"bike_id":"6bda5996-8bd7-4225-b18e-497cd96a2444","system_id":"levelo_inurba_marseille","lat":43.27376,"lon":5.36254,"is_reserved":false,"is_disabled":false,"rental_uris":{"android":"levelo://app?vid=6bda5996-8bd7-4225-b18e-497cd96a2444","ios":"levelo://app?vid=6bda5996-8bd7-4225-b18e-497cd96a2444"},"vehicle_type_id":"4","last_reported":1741860667,"current_range_meters":6800,"station_id":"ce4bhbh2rcd13ifvqeo0","pricing_plan_id":"cebpf4jnsgd1na2vs0mg"},{"bike_id":"e649e2d0-af54-4ce5-b5f7-1fd68a3b0a85","system_id":"levelo_inurba_marseille","lat":43.2815,"lon":5.42652,"is_reserved":false,"is_disabled":false,"rental_uris":{"android":"levelo://app?vid=e649e2d0-af54-4ce5-b5f7-1fd68a3b0a85","ios":"levelo://app?vid=e649e2d0-af54-4ce5-b5f7-1fd68a3b0a85"},"vehicle_type_id":"4","last_reported":1741860667,"current_range_meters":6800,"station_id":"ce4bhnh2rcd13ifvqgug","pricing_plan_id":"cebpf4jnsgd1na2vs0mg"},{"bike_id":"21202178-9a74-4bc8-9d9e-6fb631a00822","system_id":"levelo_inurba_marseille","lat":43.29793,"lon":5.3735,"is_reserved":false,"is_disabled":true,"rental_uris":{"android":"levelo://app?vid=21202178-9a74-4bc8-9d9e-6fb631a00822","ios":"levelo://app?vid=21202178-9a74-4bc8-9d9e-6fb631a00822"},"vehicle_type_id":"4","last_reported":1741860667,"current_range_meters":6800,"station_id":"","pricing_plan_id":"cebpf4jnsgd1na2vs0mg"},{"bike_id":"2931d81f-abb3-45b8-9224-dc3fce2fae31","system_id":"levelo_inurba_marseille","lat":43.32373,"lon":5.36752,"is_reserved":false,"is_disabled":false,"rental_uris":{"android":"levelo://app?vid=2931d81f-abb3-45b8-9224-dc3fce2fae31","ios":"levelo://app?vid=2931d81f-abb3-45b8-9224-dc3fce2fae31"},"vehicle_type_id":"4","last_reported":1741860667,"current_range_meters":6800,"station_id":"ce4bhsh2rcd13ifvqi2g","pricing_plan_id":"cebpf4jnsgd1na2vs0mg"},{"bike_id":"bd0689b5-5981-4834-a6d3-9a18cb2e0eca","system_id":"levelo_inurba_marseille","lat":43.25929,"lon":5.40898,"is_reserved":false,"is_disabled":false,"rental_uris":{"android":"levelo://app?vid=bd0689b5-5981-4834-a6d3-9a18cb2e0eca","ios":"levelo://app?vid=bd0689b5-5981-4834-a6d3-9a18cb2e0eca"},"vehicle_type_id":"4","last_reported":1741860667,"current_range_meters":6800,"station_id":"ce4bhm92rcd13ifvqglg","pricing_plan_id":"cebpf4jnsgd1na2vs0mg"},{"bike_id":"f86187b0-ce50-4edc-810f-93d7f1cc7c5a","system_id":"levelo_inurba_marseille","lat":43.27492,"lon":5.42456,"is_reserved":false,"is_disabled":false,"rental_uris":{"android":"levelo://app?vid=f86187b0-ce50-4edc-810f-93d7f1cc7c5a","ios":"levelo://app?vid=f86187b0-ce50-4edc-810f-93d7f1cc7c5a"},"vehicle_type_id":"4","last_reported":1741860667,"current_range_meters":6800,"station_id":"ce4bhn92rcd13ifvqgrg","pricing_plan_id":"cebpf4jnsgd1na2vs0mg"},{"bike_id":"ec5d08ce-934d-49b5-9a73-c20b44942d11","system_id":"levelo_inurba_marseille","lat":43.31422,"lon":5.37588,"is_reserved":false,"is_disabled":false,"rental_uris":{"android":"levelo://app?vid=ec5d08ce-934d-49b5-9a73-c20b44942d11","ios":"levelo://app?vid=ec5d08ce-934d-49b5-9a73-c20b44942d11"},"vehicle_type_id":"4","last_reported":1741860667,"current_range_meters":7200,"station_id":"","pricing_plan_id":"cebpf4jnsgd1na2vs0mg"},{"bike_id":"aa928ddd-6b3f-48d4-8a20-7c404512c318","system_id":"levelo_inurba_marseille","lat":43.2407,"lon":5.37694,"is_reserved":false,"is_disabled":false,"rental_uris":{"android":"levelo://app?vid=aa928ddd-6b3f-48d4-8a20-7c404512c318","ios":"levelo://app?vid=aa928ddd-6b3f-48d4-8a20-7c404512c318"},"vehicle_type_id":"4","last_reported":1741860667,"current_range_meters":7200,"station_id":"ce4bhnp2rcd13ifvqgvg","pricing_plan_id":"cebpf4jnsgd1na2vs0mg"},{"bike_id":"62c0ce80-a465-4ebc-ad2f-91473a9007e0","system_id":"levelo_inurba_marseille","lat":43.23192,"lon":5.39995,"is_reserved":false,"is_disabled":false,"rental_uris":{"android":"levelo://app?vid=62c0ce80-a465-4ebc-ad2f-91473a9007e0","ios":"levelo://app?vid=62c0ce80-a465-4ebc-ad2f-91473a9007e0"},"vehicle_type_id":"4","last_reported":1741860667,"current_range_meters":7200,"station_id":"ce4bhn12rcd13ifvqgqg","pricing_plan_id":"cebpf4jnsgd1na2vs0mg"},{"bike_id":"f4f6951d-a3fd-42a9-86a0-c61cdb750c82","system_id":"levelo_inurba_marseille","lat":43.25092,"lon":5.39516,"is_reserved":false,"is_disabled":false,"rental_uris":{"android":"levelo://app?vid=f4f6951d-a3fd-42a9-86a0-c61cdb750c82","ios":"levelo://app?vid=f4f6951d-a3fd-42a9-86a0-c61cdb750c82"},"vehicle_type_id":"4","last_reported":1741860667,"current_range_meters":7200,"station_id":"ce4bhm12rcd13ifvqgkg","pricing_plan_id":"cebpf4jnsgd1na2vs0mg"},{"bike_id":"bc6c9268-6450-4d95-971e-62517c50c6c1","system_id":"levelo_inurba_marseille","lat":43.31494,"lon":5.37291,"is_reserved":false,"is_disabled":false,"rental_uris":{"android":"levelo://app?vid=bc6c9268-6450-4d95-971e-62517c50c6c1","ios":"levelo://app?vid=bc6c9268-6450-4d95-971e-62517c50c6c1"},"vehicle_type_id":"4","last_reported":1741860667,"current_range_meters":7200,"station_id":"ce4bgt12rcd13ifvqcd0","pricing_plan_id":"cebpf4jnsgd1na2vs0mg"},{"bike_id":"cab54c81-02a9-4249-a654-a799841b0878","system_id":"levelo_inurba_marseille","lat":43.26223,"lon":5.40449,"is_reserved":false,"is_disabled":false,"rental_uris":{"android":"levelo://app?vid=cab54c81-02a9-4249-a654-a799841b0878","ios":"levelo://app?vid=cab54c81-02a9-4249-a654-a799841b0878"},"vehicle_type_id":"4","last_reported":1741860667,"current_range_meters":7200,"station_id":"ce4bhmh2rcd13ifvqgmg","pricing_plan_id":"cebpf4jnsgd1na2vs0mg"},{"bike_id":"96b68334-5aca-43bb-99d6-07e7361f7430","system_id":"levelo_inurba_marseille","lat":43.23156,"lon":5.43716,"is_reserved":false,"is_disabled":false,"rental_uris":{"android":"levelo://app?vid=96b68334-5aca-43bb-99d6-07e7361f7430","ios":"levelo://app?vid=96b68334-5aca-43bb-99d6-07e7361f7430"},"vehicle_type_id":"4","last_reported":1741860667,"current_range_meters":8000,"station_id":"ce4bhmp2rcd13ifvqgog","pricing_plan_id":"cebpf4jnsgd1na2vs0mg"},{"bike_id":"55fe5d5a-17ad-4e56-ad62-6cc28a264c81","system_id":"levelo_inurba_marseille","lat":43.249989,"lon":5.389361,"is_reserved":false,"is_disabled":false,"rental_uris":{"android":"levelo://app?vid=55fe5d5a-17ad-4e56-ad62-6cc28a264c81","ios":"levelo://app?vid=55fe5d5a-17ad-4e56-ad62-6cc28a264c81"},"vehicle_type_id":"4","last_reported":1741860667,"current_range_meters":8000,"station_id":"ce4bhgp2rcd13ifvqfd0","pricing_plan_id":"cebpf4jnsgd1na2vs0mg"},{"bike_id":"87ce2481-836f-4216-ae86-f796b0edead5","system_id":"levelo_inurba_marseille","lat":43.30142,"lon":5.37417,"is_reserved":false,"is_disabled":true,"rental_uris":{"android":"levelo://app?vid=87ce2481-836f-4216-ae86-f796b0edead5","ios":"levelo://app?vid=87ce2481-836f-4216-ae86-f796b0edead5"},"vehicle_type_id":"4","last_reported":1741860667,"current_range_meters":8000,"station_id":"ce4bgs92rcd13ifvqcc0","pricing_plan_id":"cebpf4jnsgd1na2vs0mg"},{"bike_id":"600a8b1d-91ce-4fc9-92cd-846d63d5cb51","system_id":"levelo_inurba_marseille","lat":43.24999,"lon":5.38945,"is_reserved":false,"is_disabled":false,"rental_uris":{"android":"levelo://app?vid=600a8b1d-91ce-4fc9-92cd-846d63d5cb51","ios":"levelo://app?vid=600a8b1d-91ce-4fc9-92cd-846d63d5cb51"},"vehicle_type_id":"4","last_reported":1741860667,"current_range_meters":8000,"station_id":"ce4bhgp2rcd13ifvqfd0","pricing_plan_id":"cebpf4jnsgd1na2vs0mg"},{"bike_id":"485f1510-a973-46b6-8b2d-6d22ffc60cae","system_id":"levelo_inurba_marseille","lat":43.24171,"lon":5.36401,"is_reserved":false,"is_disabled":false,"rental_uris":{"android":"levelo://app?vid=485f1510-a973-46b6-8b2d-6d22ffc60cae","ios":"levelo://app?vid=485f1510-a973-46b6-8b2d-6d22ffc60cae"},"vehicle_type_id":"4","last_reported":1741860667,"current_range_meters":8000,"station_id":"cpo36qri1sfpv3e86is0","pricing_plan_id":"cebpf4jnsgd1na2vs0mg"},{"bike_id":"723a78ea-0221-426f-ab34-e893a1197bf5","system_id":"levelo_inurba_marseille","lat":43.30295,"lon":5.377,"is_reserved":false,"is_disabled":false,"rental_uris":{"android":"levelo://app?vid=723a78ea-0221-426f-ab34-e893a1197bf5","ios":"levelo://app?vid=723a78ea-0221-426f-ab34-e893a1197bf5"},"vehicle_type_id":"4","last_reported":1741860667,"current_range_meters":8000,"station_id":"ce4bguh2rcd13ifvqcj0","pricing_plan_id":"cebpf4jnsgd1na2vs0mg"},{"bike_id":"707f97a7-32db-422b-bfa8-ef8d193a1bb4","system_id":"levelo_inurba_marseille","lat":43.22949,"lon":5.35371,"is_reserved":false,"is_disabled":false,"rental_uris":{"android":"levelo://app?vid=707f97a7-32db-422b-bfa8-ef8d193a1bb4","ios":"levelo://app?vid=707f97a7-32db-422b-bfa8-ef8d193a1bb4"},"vehicle_type_id":"4","last_reported":1741860667,"current_range_meters":8000,"station_id":"cpo3532slgdg3j2ikp40","pricing_plan_id":"cebpf4jnsgd1na2vs0mg"},{"bike_id":"9145a6f3-ce1c-4996-a4db-990e32a5c052","system_id":"levelo_inurba_marseille","lat":43.23962,"lon":5.36643,"is_reserved":false,"is_disabled":false,"rental_uris":{"android":"levelo://app?vid=9145a6f3-ce1c-4996-a4db-990e32a5c052","ios":"levelo://app?vid=9145a6f3-ce1c-4996-a4db-990e32a5c052"},"vehicle_type_id":"4","last_reported":1741860667,"current_range_meters":8000,"station_id":"ce4bhi12rcd13ifvqfp0","pricing_plan_id":"cebpf4jnsgd1na2vs0mg"},{"bike_id":"2627b050-563e-4691-a911-03c820231134","system_id":"levelo_inurba_marseille","lat":43.24085,"lon":5.37752,"is_reserved":false,"is_disabled":false,"rental_uris":{"android":"levelo://app?vid=2627b050-563e-4691-a911-03c820231134","ios":"levelo://app?vid=2627b050-563e-4691-a911-03c820231134"},"vehicle_type_id":"4","last_reported":1741860667,"current_range_meters":8000,"station_id":"ce4bhnp2rcd13ifvqgvg","pricing_plan_id":"cebpf4jnsgd1na2vs0mg"},{"bike_id":"23c9cbe9-557f-4354-b6c8-4d33721082fa","system_id":"levelo_inurba_marseille","lat":43.29936,"lon":5.36528,"is_reserved":false,"is_disabled":false,"rental_uris":{"android":"levelo://app?vid=23c9cbe9-557f-4354-b6c8-4d33721082fa","ios":"levelo://app?vid=23c9cbe9-557f-4354-b6c8-4d33721082fa"},"vehicle_type_id":"4","last_reported":1741860667,"current_range_meters":8000,"station_id":"ce4bgm92rcd13ifvqbr0","pricing_plan_id":"cebpf4jnsgd1na2vs0mg"},{"bike_id":"6484135d-cc7f-43fa-96dc-9d860579fe11","system_id":"levelo_inurba_marseille","lat":43.2408,"lon":5.3775,"is_reserved":false,"is_disabled":false,"rental_uris":{"android":"levelo://app?vid=6484135d-cc7f-43fa-96dc-9d860579fe11","ios":"levelo://app?vid=6484135d-cc7f-43fa-96dc-9d860579fe11"},"vehicle_type_id":"4","last_reported":1741860667,"current_range_meters":8000,"station_id":"ce4bhnp2rcd13ifvqgvg","pricing_plan_id":"cebpf4jnsgd1na2vs0mg"},{"bike_id":"c8f5a7aa-328f-49c1-a785-9624fa888d07","system_id":"levelo_inurba_marseille","lat":43.25028,"lon":5.38926,"is_reserved":false,"is_disabled":false,"rental_uris":{"android":"levelo://app?vid=c8f5a7aa-328f-49c1-a785-9624fa888d07","ios":"levelo://app?vid=c8f5a7aa-328f-49c1-a785-9624fa888d07"},"vehicle_type_id":"4","last_reported":1741860667,"current_range_meters":8000,"station_id":"ce4bhgp2rcd13ifvqfd0","pricing_plan_id":"cebpf4jnsgd1na2vs0mg"},{"bike_id":"ccc60824-c79b-431c-a6af-0ceb79e3288a","system_id":"levelo_inurba_marseille","lat":43.28454,"lon":5.35903,"is_reserved":false,"is_disabled":true,"rental_uris":{"android":"levelo://app?vid=ccc60824-c79b-431c-a6af-0ceb79e3288a","ios":"levelo://app?vid=ccc60824-c79b-431c-a6af-0ceb79e3288a"},"vehicle_type_id":"4","last_reported":1741860667,"current_range_meters":8000,"station_id":"ce4bhah2rcd13ifvqei0","pricing_plan_id":"cebpf4jnsgd1na2vs0mg"},{"bike_id":"0a995a9a-6122-4f4b-b298-a8b06cbca7e2","system_id":"levelo_inurba_marseille","lat":43.25006,"lon":5.38918,"is_reserved":false,"is_disabled":false,"rental_uris":{"android":"levelo://app?vid=0a995a9a-6122-4f4b-b298-a8b06cbca7e2","ios":"levelo://app?vid=0a995a9a-6122-4f4b-b298-a8b06cbca7e2"},"vehicle_type_id":"4","last_reported":1741860667,"current_range_meters":8400,"station_id":"ce4bhgp2rcd13ifvqfd0","pricing_plan_id":"cebpf4jnsgd1na2vs0mg"},{"bike_id":"9997e013-4ad9-4555-a534-b03bc83c4f67","system_id":"levelo_inurba_marseille","lat":43.293096,"lon":5.374644,"is_reserved":false,"is_disabled":false,"rental_uris":{"android":"levelo://app?vid=9997e013-4ad9-4555-a534-b03bc83c4f67","ios":"levelo://app?vid=9997e013-4ad9-4555-a534-b03bc83c4f67"},"vehicle_type_id":"4","last_reported":1741860667,"current_range_meters":8400,"station_id":"ce4bgi12rcd13ifvqb70","pricing_plan_id":"cebpf4jnsgd1na2vs0mg"},{"bike_id":"dea35085-4b50-414e-b2b5-c4028e1ea0a6","system_id":"levelo_inurba_marseille","lat":43.3132,"lon":5.36719,"is_reserved":false,"is_disabled":false,"rental_uris":{"android":"levelo://app?vid=dea35085-4b50-414e-b2b5-c4028e1ea0a6","ios":"levelo://app?vid=dea35085-4b50-414e-b2b5-c4028e1ea0a6"},"vehicle_type_id":"4","last_reported":1741860667,"current_range_meters":8400,"station_id":"ce4bgr92rcd13ifvqc6g","pricing_plan_id":"cebpf4jnsgd1na2vs0mg"},{"bike_id":"f83b1590-73f8-4900-a667-6c005eb9b249","system_id":"levelo_inurba_marseille","lat":43.29573,"lon":5.39971,"is_reserved":false,"is_disabled":true,"rental_uris":{"android":"levelo://app?vid=f83b1590-73f8-4900-a667-6c005eb9b249","ios":"levelo://app?vid=f83b1590-73f8-4900-a667-6c005eb9b249"},"vehicle_type_id":"4","last_reported":1741860667,"current_range_meters":8400,"station_id":"ce4bh312rcd13ifvqdj0","pricing_plan_id":"cebpf4jnsgd1na2vs0mg"},{"bike_id":"cb9ce543-be44-4e72-93db-e23a2c11f5c9","system_id":"levelo_inurba_marseille","lat":43.3055,"lon":5.36708,"is_reserved":false,"is_disabled":false,"rental_uris":{"android":"levelo://app?vid=cb9ce543-be44-4e72-93db-e23a2c11f5c9","ios":"levelo://app?vid=cb9ce543-be44-4e72-93db-e23a2c11f5c9"},"vehicle_type_id":"4","last_reported":1741860667,"current_range_meters":8400,"station_id":"ce4bgrp2rcd13ifvqc9g","pricing_plan_id":"cebpf4jnsgd1na2vs0mg"},{"bike_id":"9f25a6ad-433a-45b0-a0d0-4a619d769e26","system_id":"levelo_inurba_marseille","lat":43.231897,"lon":5.355579,"is_reserved":false,"is_disabled":false,"rental_uris":{"android":"levelo://app?vid=9f25a6ad-433a-45b0-a0d0-4a619d769e26","ios":"levelo://app?vid=9f25a6ad-433a-45b0-a0d0-4a619d769e26"},"vehicle_type_id":"4","last_reported":1741860667,"current_range_meters":8400,"station_id":"ce4bhu92rcd13ifvqi70","pricing_plan_id":"cebpf4jnsgd1na2vs0mg"},{"bike_id":"23291ae8-60be-4b82-9808-0f2187022356","system_id":"levelo_inurba_marseille","lat":43.3014,"lon":5.37407,"is_reserved":false,"is_disabled":false,"rental_uris":{"android":"levelo://app?vid=23291ae8-60be-4b82-9808-0f2187022356","ios":"levelo://app?vid=23291ae8-60be-4b82-9808-0f2187022356"},"vehicle_type_id":"4","last_reported":1741860667,"current_range_meters":8400,"station_id":"ce4bgs92rcd13ifvqcc0","pricing_plan_id":"cebpf4jnsgd1na2vs0mg"},{"bike_id":"1409686b-65ac-4450-8ae4-eee836ba0243","system_id":"levelo_inurba_marseille","lat":43.33725,"lon":5.39191,"is_reserved":false,"is_disabled":false,"rental_uris":{"android":"levelo://app?vid=1409686b-65ac-4450-8ae4-eee836ba0243","ios":"levelo://app?vid=1409686b-65ac-4450-8ae4-eee836ba0243"},"vehicle_type_id":"4","last_reported":1741860667,"current_range_meters":8400,"station_id":"ce4bhr92rcd13ifvqhsg","pricing_plan_id":"cebpf4jnsgd1na2vs0mg"},{"bike_id":"fe2204e9-6ef4-43c7-a1b0-0421ad0839ef","system_id":"levelo_inurba_marseille","lat":43.30471,"lon":5.37895,"is_reserved":false,"is_disabled":false,"rental_uris":{"android":"levelo://app?vid=fe2204e9-6ef4-43c7-a1b0-0421ad0839ef","ios":"levelo://app?vid=fe2204e9-6ef4-43c7-a1b0-0421ad0839ef"},"vehicle_type_id":"4","last_reported":1741860667,"current_range_meters":8400,"station_id":"ce4bgup2rcd13ifvqcn0","pricing_plan_id":"cebpf4jnsgd1na2vs0mg"},{"bike_id":"38396903-da53-4b7e-b8d3-e8fdf876b79f","system_id":"levelo_inurba_marseille","lat":43.29268,"lon":5.37621,"is_reserved":false,"is_disabled":false,"rental_uris":{"android":"levelo://app?vid=38396903-da53-4b7e-b8d3-e8fdf876b79f","ios":"levelo://app?vid=38396903-da53-4b7e-b8d3-e8fdf876b79f"},"vehicle_type_id":"4","last_reported":1741860667,"current_range_meters":8400,"station_id":"ce4bgi12rcd13ifvqb80","pricing_plan_id":"cebpf4jnsgd1na2vs0mg"},{"bike_id":"a91ad3e1-1b6c-4d4d-8e80-225ea763f1bf","system_id":"levelo_inurba_marseille","lat":43.30157,"lon":5.37404,"is_reserved":false,"is_disabled":false,"rental_uris":{"android":"levelo://app?vid=a91ad3e1-1b6c-4d4d-8e80-225ea763f1bf","ios":"levelo://app?vid=a91ad3e1-1b6c-4d4d-8e80-225ea763f1bf"},"vehicle_type_id":"4","last_reported":1741860667,"current_range_meters":8400,"station_id":"ce4bgs92rcd13ifvqcc0","pricing_plan_id":"cebpf4jnsgd1na2vs0mg"},{"bike_id":"234f837a-7327-4b92-8f17-adec428df1b9","system_id":"levelo_inurba_marseille","lat":43.25921,"lon":5.40873,"is_reserved":false,"is_disabled":false,"rental_uris":{"android":"levelo://app?vid=234f837a-7327-4b92-8f17-adec428df1b9","ios":"levelo://app?vid=234f837a-7327-4b92-8f17-adec428df1b9"},"vehicle_type_id":"4","last_reported":1741860667,"current_range_meters":8400,"station_id":"ce4bhm92rcd13ifvqglg","pricing_plan_id":"cebpf4jnsgd1na2vs0mg"},{"bike_id":"4301399b-f674-44db-93d7-a53fcc92849d","system_id":"levelo_inurba_marseille","lat":43.2749,"lon":5.42461,"is_reserved":false,"is_disabled":false,"rental_uris":{"android":"levelo://app?vid=4301399b-f674-44db-93d7-a53fcc92849d","ios":"levelo://app?vid=4301399b-f674-44db-93d7-a53fcc92849d"},"vehicle_type_id":"4","last_reported":1741860667,"current_range_meters":8400,"station_id":"ce4bhn92rcd13ifvqgrg","pricing_plan_id":"cebpf4jnsgd1na2vs0mg"},{"bike_id":"7d4aedfe-c4d1-46e1-9530-386849f612f8","system_id":"levelo_inurba_marseille","lat":43.303747,"lon":5.424913,"is_reserved":false,"is_disabled":false,"rental_uris":{"android":"levelo://app?vid=7d4aedfe-c4d1-46e1-9530-386849f612f8","ios":"levelo://app?vid=7d4aedfe-c4d1-46e1-9530-386849f612f8"},"vehicle_type_id":"4","last_reported":1741860667,"current_range_meters":8400,"station_id":"ce4bghh2rcd13ifvqb60","pricing_plan_id":"cebpf4jnsgd1na2vs0mg"},{"bike_id":"3fd84816-9092-43f8-a38a-6e332e63433d","system_id":"levelo_inurba_marseille","lat":43.25906,"lon":5.40895,"is_reserved":false,"is_disabled":false,"rental_uris":{"android":"levelo://app?vid=3fd84816-9092-43f8-a38a-6e332e63433d","ios":"levelo://app?vid=3fd84816-9092-43f8-a38a-6e332e63433d"},"vehicle_type_id":"4","last_reported":1741860667,"current_range_meters":8400,"station_id":"ce4bhm92rcd13ifvqglg","pricing_plan_id":"cebpf4jnsgd1na2vs0mg"},{"bike_id":"2d16443d-ed2e-4c48-af94-4deffe2479f1","system_id":"levelo_inurba_marseille","lat":43.25013,"lon":5.38924,"is_reserved":false,"is_disabled":false,"rental_uris":{"android":"levelo://app?vid=2d16443d-ed2e-4c48-af94-4deffe2479f1","ios":"levelo://app?vid=2d16443d-ed2e-4c48-af94-4deffe2479f1"},"vehicle_type_id":"4","last_reported":1741860667,"current_range_meters":8400,"station_id":"ce4bhgp2rcd13ifvqfd0","pricing_plan_id":"cebpf4jnsgd1na2vs0mg"},{"bike_id":"bfe3b610-c7b1-4202-9351-43a581dda6a4","system_id":"levelo_inurba_marseille","lat":43.29053,"lon":5.37167,"is_reserved":false,"is_disabled":false,"rental_uris":{"android":"levelo://app?vid=bfe3b610-c7b1-4202-9351-43a581dda6a4","ios":"levelo://app?vid=bfe3b610-c7b1-4202-9351-43a581dda6a4"},"vehicle_type_id":"4","last_reported":1741860667,"current_range_meters":8400,"station_id":"ce4bh5p2rcd13ifvqe4g","pricing_plan_id":"cebpf4jnsgd1na2vs0mg"},{"bike_id":"e01ee09f-3386-46be-9a75-51087cf0cd73","system_id":"levelo_inurba_marseille","lat":43.28099,"lon":5.37815,"is_reserved":false,"is_disabled":false,"rental_uris":{"android":"levelo://app?vid=e01ee09f-3386-46be-9a75-51087cf0cd73","ios":"levelo://app?vid=e01ee09f-3386-46be-9a75-51087cf0cd73"},"vehicle_type_id":"4","last_reported":1741860667,"current_range_meters":8800,"station_id":"ce4bha12rcd13ifvqee0","pricing_plan_id":"cebpf4jnsgd1na2vs0mg"},{"bike_id":"34de0a8e-d188-496a-a78b-7bf7a3a012f9","system_id":"levelo_inurba_marseille","lat":43.25938,"lon":5.40904,"is_reserved":false,"is_disabled":false,"rental_uris":{"android":"levelo://app?vid=34de0a8e-d188-496a-a78b-7bf7a3a012f9","ios":"levelo://app?vid=34de0a8e-d188-496a-a78b-7bf7a3a012f9"},"vehicle_type_id":"4","last_reported":1741860667,"current_range_meters":8800,"station_id":"ce4bhm92rcd13ifvqglg","pricing_plan_id":"cebpf4jnsgd1na2vs0mg"},{"bike_id":"a4198c61-a46b-4d29-96d9-daa51909dd9c","system_id":"levelo_inurba_marseille","lat":43.24666,"lon":5.38165,"is_reserved":false,"is_disabled":false,"rental_uris":{"android":"levelo://app?vid=a4198c61-a46b-4d29-96d9-daa51909dd9c","ios":"levelo://app?vid=a4198c61-a46b-4d29-96d9-daa51909dd9c"},"vehicle_type_id":"4","last_reported":1741860667,"current_range_meters":8800,"station_id":"ce4bhih2rcd13ifvqfr0","pricing_plan_id":"cebpf4jnsgd1na2vs0mg"},{"bike_id":"d0ff3c4d-8349-46b9-86f2-0b5148e92be7","system_id":"levelo_inurba_marseille","lat":43.23177,"lon":5.3999,"is_reserved":false,"is_disabled":false,"rental_uris":{"android":"levelo://app?vid=d0ff3c4d-8349-46b9-86f2-0b5148e92be7","ios":"levelo://app?vid=d0ff3c4d-8349-46b9-86f2-0b5148e92be7"},"vehicle_type_id":"4","last_reported":1741860667,"current_range_meters":8800,"station_id":"ce4bhn12rcd13ifvqgqg","pricing_plan_id":"cebpf4jnsgd1na2vs0mg"},{"bike_id":"6dbc9b4a-c5a1-4dbf-a00f-5bb7462d2694","system_id":"levelo_inurba_marseille","lat":43.28099,"lon":5.39798,"is_reserved":false,"is_disabled":false,"rental_uris":{"android":"levelo://app?vid=6dbc9b4a-c5a1-4dbf-a00f-5bb7462d2694","ios":"levelo://app?vid=6dbc9b4a-c5a1-4dbf-a00f-5bb7462d2694"},"vehicle_type_id":"4","last_reported":1741860667,"current_range_meters":8800,"station_id":"","pricing_plan_id":"cebpf4jnsgd1na2vs0mg"},{"bike_id":"63470f88-c6f3-4edd-93f4-b3cb06f5c741","system_id":"levelo_inurba_marseille","lat":43.29911,"lon":5.38148,"is_reserved":false,"is_disabled":false,"rental_uris":{"android":"levelo://app?vid=63470f88-c6f3-4edd-93f4-b3cb06f5c741","ios":"levelo://app?vid=63470f88-c6f3-4edd-93f4-b3cb06f5c741"},"vehicle_type_id":"4","last_reported":1741860667,"current_range_meters":8800,"station_id":"ce4bgj12rcd13ifvqbc0","pricing_plan_id":"cebpf4jnsgd1na2vs0mg"},{"bike_id":"8d2a2347-6224-4cac-8d9c-0bfb58d2746e","system_id":"levelo_inurba_marseille","lat":43.28701,"lon":5.39994,"is_reserved":false,"is_disabled":false,"rental_uris":{"android":"levelo://app?vid=8d2a2347-6224-4cac-8d9c-0bfb58d2746e","ios":"levelo://app?vid=8d2a2347-6224-4cac-8d9c-0bfb58d2746e"},"vehicle_type_id":"4","last_reported":1741860667,"current_range_meters":8800,"station_id":"ce4bho92rcd13ifvqh3g","pricing_plan_id":"cebpf4jnsgd1na2vs0mg"},{"bike_id":"f89b9f3b-9595-4d0e-acf5-ac5f650bb50c","system_id":"levelo_inurba_marseille","lat":43.30379,"lon":5.42489,"is_reserved":false,"is_disabled":false,"rental_uris":{"android":"levelo://app?vid=f89b9f3b-9595-4d0e-acf5-ac5f650bb50c","ios":"levelo://app?vid=f89b9f3b-9595-4d0e-acf5-ac5f650bb50c"},"vehicle_type_id":"4","last_reported":1741860667,"current_range_meters":8800,"station_id":"ce4bghh2rcd13ifvqb60","pricing_plan_id":"cebpf4jnsgd1na2vs0mg"},{"bike_id":"3f3c324d-b77d-4081-b6ab-00a4cec25d2b","system_id":"levelo_inurba_marseille","lat":43.30196,"lon":5.39471,"is_reserved":false,"is_disabled":false,"rental_uris":{"android":"levelo://app?vid=3f3c324d-b77d-4081-b6ab-00a4cec25d2b","ios":"levelo://app?vid=3f3c324d-b77d-4081-b6ab-00a4cec25d2b"},"vehicle_type_id":"4","last_reported":1741860667,"current_range_meters":8800,"station_id":"ce4bh0p2rcd13ifvqd70","pricing_plan_id":"cebpf4jnsgd1na2vs0mg"},{"bike_id":"b0cb3ad7-6aba-4982-8725-3a799ba6ccc2","system_id":"levelo_inurba_marseille","lat":43.30149,"lon":5.3987,"is_reserved":false,"is_disabled":false,"rental_uris":{"android":"levelo://app?vid=b0cb3ad7-6aba-4982-8725-3a799ba6ccc2","ios":"levelo://app?vid=b0cb3ad7-6aba-4982-8725-3a799ba6ccc2"},"vehicle_type_id":"4","last_reported":1741860667,"current_range_meters":8800,"station_id":"ce4bh0h2rcd13ifvqd40","pricing_plan_id":"cebpf4jnsgd1na2vs0mg"},{"bike_id":"0234a9c0-0d92-4771-9dd1-5abbd3156dde","system_id":"levelo_inurba_marseille","lat":43.24078,"lon":5.37743,"is_reserved":false,"is_disabled":false,"rental_uris":{"android":"levelo://app?vid=0234a9c0-0d92-4771-9dd1-5abbd3156dde","ios":"levelo://app?vid=0234a9c0-0d92-4771-9dd1-5abbd3156dde"},"vehicle_type_id":"4","last_reported":1741860667,"current_range_meters":8800,"station_id":"ce4bhnp2rcd13ifvqgvg","pricing_plan_id":"cebpf4jnsgd1na2vs0mg"},{"bike_id":"9bf27536-36e1-468f-b8e2-c221d57df0af","system_id":"levelo_inurba_marseille","lat":43.24063,"lon":5.37764,"is_reserved":false,"is_disabled":false,"rental_uris":{"android":"levelo://app?vid=9bf27536-36e1-468f-b8e2-c221d57df0af","ios":"levelo://app?vid=9bf27536-36e1-468f-b8e2-c221d57df0af"},"vehicle_type_id":"4","last_reported":1741860667,"current_range_meters":8800,"station_id":"ce4bhnp2rcd13ifvqgvg","pricing_plan_id":"cebpf4jnsgd1na2vs0mg"},{"bike_id":"dfc5b2ed-f893-4c50-bdd5-4d5f241177cf","system_id":"levelo_inurba_marseille","lat":43.275,"lon":5.42458,"is_reserved":false,"is_disabled":false,"rental_uris":{"android":"levelo://app?vid=dfc5b2ed-f893-4c50-bdd5-4d5f241177cf","ios":"levelo://app?vid=dfc5b2ed-f893-4c50-bdd5-4d5f241177cf"},"vehicle_type_id":"4","last_reported":1741860667,"current_range_meters":8800,"station_id":"ce4bhn92rcd13ifvqgrg","pricing_plan_id":"cebpf4jnsgd1na2vs0mg"},{"bike_id":"e316d5c1-ee15-4b09-9ba8-67b03efb0503","system_id":"levelo_inurba_marseille","lat":43.3025,"lon":5.40059,"is_reserved":false,"is_disabled":false,"rental_uris":{"android":"levelo://app?vid=e316d5c1-ee15-4b09-9ba8-67b03efb0503","ios":"levelo://app?vid=e316d5c1-ee15-4b09-9ba8-67b03efb0503"},"vehicle_type_id":"4","last_reported":1741860667,"current_range_meters":9200,"station_id":"ce4bgvh2rcd13ifvqcs0","pricing_plan_id":"cebpf4jnsgd1na2vs0mg"},{"bike_id":"a8dd78e9-1043-46b3-bc27-db2938a77a58","system_id":"levelo_inurba_marseille","lat":43.302464,"lon":5.397178,"is_reserved":false,"is_disabled":false,"rental_uris":{"android":"levelo://app?vid=a8dd78e9-1043-46b3-bc27-db2938a77a58","ios":"levelo://app?vid=a8dd78e9-1043-46b3-bc27-db2938a77a58"},"vehicle_type_id":"4","last_reported":1741860667,"current_range_meters":9200,"station_id":"ce4bh112rcd13ifvqd90","pricing_plan_id":"cebpf4jnsgd1na2vs0mg"},{"bike_id":"631e91f7-5608-4e33-8bef-abd7e8d4c72e","system_id":"levelo_inurba_marseille","lat":43.31234,"lon":5.36871,"is_reserved":false,"is_disabled":false,"rental_uris":{"android":"levelo://app?vid=631e91f7-5608-4e33-8bef-abd7e8d4c72e","ios":"levelo://app?vid=631e91f7-5608-4e33-8bef-abd7e8d4c72e"},"vehicle_type_id":"4","last_reported":1741860667,"current_range_meters":9200,"station_id":"ce4bgl92rcd13ifvqbq0","pricing_plan_id":"cebpf4jnsgd1na2vs0mg"},{"bike_id":"602761df-849c-4f8a-bbfc-47d3fb0d744a","system_id":"levelo_inurba_marseille","lat":43.24069,"lon":5.3773,"is_reserved":false,"is_disabled":false,"rental_uris":{"android":"levelo://app?vid=602761df-849c-4f8a-bbfc-47d3fb0d744a","ios":"levelo://app?vid=602761df-849c-4f8a-bbfc-47d3fb0d744a"},"vehicle_type_id":"4","last_reported":1741860667,"current_range_meters":9200,"station_id":"ce4bhnp2rcd13ifvqgvg","pricing_plan_id":"cebpf4jnsgd1na2vs0mg"},{"bike_id":"b3e3c68a-277c-4a7c-9ea1-d2ad2b5606bf","system_id":"levelo_inurba_marseille","lat":43.2907,"lon":5.37179,"is_reserved":false,"is_disabled":false,"rental_uris":{"android":"levelo://app?vid=b3e3c68a-277c-4a7c-9ea1-d2ad2b5606bf","ios":"levelo://app?vid=b3e3c68a-277c-4a7c-9ea1-d2ad2b5606bf"},"vehicle_type_id":"4","last_reported":1741860667,"current_range_meters":8800,"station_id":"","pricing_plan_id":"cebpf4jnsgd1na2vs0mg"},{"bike_id":"a87ce96e-ac43-41b3-b52e-e2a9da1d1473","system_id":"levelo_inurba_marseille","lat":43.29278,"lon":5.40124,"is_reserved":false,"is_disabled":false,"rental_uris":{"android":"levelo://app?vid=a87ce96e-ac43-41b3-b52e-e2a9da1d1473","ios":"levelo://app?vid=a87ce96e-ac43-41b3-b52e-e2a9da1d1473"},"vehicle_type_id":"4","last_reported":1741860667,"current_range_meters":9200,"station_id":"ce4bh312rcd13ifvqdk0","pricing_plan_id":"cebpf4jnsgd1na2vs0mg"},{"bike_id":"ea3cc9a6-ae16-4517-aa9f-5a1866e7f280","system_id":"levelo_inurba_marseille","lat":43.29276,"lon":5.40132,"is_reserved":false,"is_disabled":false,"rental_uris":{"android":"levelo://app?vid=ea3cc9a6-ae16-4517-aa9f-5a1866e7f280","ios":"levelo://app?vid=ea3cc9a6-ae16-4517-aa9f-5a1866e7f280"},"vehicle_type_id":"4","last_reported":1741860667,"current_range_meters":9200,"station_id":"ce4bh312rcd13ifvqdk0","pricing_plan_id":"cebpf4jnsgd1na2vs0mg"},{"bike_id":"eb548213-1a2b-4ef8-8f48-bca646287382","system_id":"levelo_inurba_marseille","lat":43.24664,"lon":5.3816,"is_reserved":false,"is_disabled":false,"rental_uris":{"android":"levelo://app?vid=eb548213-1a2b-4ef8-8f48-bca646287382","ios":"levelo://app?vid=eb548213-1a2b-4ef8-8f48-bca646287382"},"vehicle_type_id":"4","last_reported":1741860667,"current_range_meters":9200,"station_id":"ce4bhih2rcd13ifvqfr0","pricing_plan_id":"cebpf4jnsgd1na2vs0mg"},{"bike_id":"766155f0-863a-4daa-9968-9cf68442c310","system_id":"levelo_inurba_marseille","lat":43.2929,"lon":5.37434,"is_reserved":false,"is_disabled":false,"rental_uris":{"android":"levelo://app?vid=766155f0-863a-4daa-9968-9cf68442c310","ios":"levelo://app?vid=766155f0-863a-4daa-9968-9cf68442c310"},"vehicle_type_id":"4","last_reported":1741860667,"current_range_meters":9200,"station_id":"ce4bgi12rcd13ifvqb70","pricing_plan_id":"cebpf4jnsgd1na2vs0mg"},{"bike_id":"58479d0b-7b3c-441f-9db3-5c3f74e9d4d0","system_id":"levelo_inurba_marseille","lat":43.25896,"lon":5.40927,"is_reserved":false,"is_disabled":false,"rental_uris":{"android":"levelo://app?vid=58479d0b-7b3c-441f-9db3-5c3f74e9d4d0","ios":"levelo://app?vid=58479d0b-7b3c-441f-9db3-5c3f74e9d4d0"},"vehicle_type_id":"4","last_reported":1741860667,"current_range_meters":9200,"station_id":"ce4bhm92rcd13ifvqglg","pricing_plan_id":"cebpf4jnsgd1na2vs0mg"},{"bike_id":"f306f7be-e04f-4968-9a2f-ec70b66a96d2","system_id":"levelo_inurba_marseille","lat":43.301667,"lon":5.374123,"is_reserved":false,"is_disabled":false,"rental_uris":{"android":"levelo://app?vid=f306f7be-e04f-4968-9a2f-ec70b66a96d2","ios":"levelo://app?vid=f306f7be-e04f-4968-9a2f-ec70b66a96d2"},"vehicle_type_id":"4","last_reported":1741860667,"current_range_meters":9600,"station_id":"ce4bgs92rcd13ifvqcc0","pricing_plan_id":"cebpf4jnsgd1na2vs0mg"},{"bike_id":"904e1a36-ac91-4a51-8b4e-5316a877a656","system_id":"levelo_inurba_marseille","lat":43.29571,"lon":5.37503,"is_reserved":false,"is_disabled":false,"rental_uris":{"android":"levelo://app?vid=904e1a36-ac91-4a51-8b4e-5316a877a656","ios":"levelo://app?vid=904e1a36-ac91-4a51-8b4e-5316a877a656"},"vehicle_type_id":"4","last_reported":1741860667,"current_range_meters":9600,"station_id":"ce4bgh92rcd13ifvqb50","pricing_plan_id":"cebpf4jnsgd1na2vs0mg"},{"bike_id":"daa78882-a661-4133-90cb-5e1097e77af1","system_id":"levelo_inurba_marseille","lat":43.29026,"lon":5.37567,"is_reserved":false,"is_disabled":false,"rental_uris":{"android":"levelo://app?vid=daa78882-a661-4133-90cb-5e1097e77af1","ios":"levelo://app?vid=daa78882-a661-4133-90cb-5e1097e77af1"},"vehicle_type_id":"4","last_reported":1741860667,"current_range_meters":9600,"station_id":"ce4bh692rcd13ifvqe90","pricing_plan_id":"cebpf4jnsgd1na2vs0mg"},{"bike_id":"e86c07b7-a090-4f77-930c-ccb6bf075dc7","system_id":"levelo_inurba_marseille","lat":43.25924,"lon":5.40898,"is_reserved":false,"is_disabled":false,"rental_uris":{"android":"levelo://app?vid=e86c07b7-a090-4f77-930c-ccb6bf075dc7","ios":"levelo://app?vid=e86c07b7-a090-4f77-930c-ccb6bf075dc7"},"vehicle_type_id":"4","last_reported":1741860667,"current_range_meters":9600,"station_id":"ce4bhm92rcd13ifvqglg","pricing_plan_id":"cebpf4jnsgd1na2vs0mg"},{"bike_id":"4c607265-c996-4d9b-81fd-daa80dd99e32","system_id":"levelo_inurba_marseille","lat":43.287817,"lon":5.3842,"is_reserved":false,"is_disabled":false,"rental_uris":{"android":"levelo://app?vid=4c607265-c996-4d9b-81fd-daa80dd99e32","ios":"levelo://app?vid=4c607265-c996-4d9b-81fd-daa80dd99e32"},"vehicle_type_id":"4","last_reported":1741860667,"current_range_meters":9600,"station_id":"","pricing_plan_id":"cebpf4jnsgd1na2vs0mg"},{"bike_id":"79e732be-e7d8-4dc9-8c8f-89d56717d799","system_id":"levelo_inurba_marseille","lat":43.29024,"lon":5.37552,"is_reserved":false,"is_disabled":true,"rental_uris":{"android":"levelo://app?vid=79e732be-e7d8-4dc9-8c8f-89d56717d799","ios":"levelo://app?vid=79e732be-e7d8-4dc9-8c8f-89d56717d799"},"vehicle_type_id":"4","last_reported":1741860667,"current_range_meters":9600,"station_id":"ce4bh692rcd13ifvqe90","pricing_plan_id":"cebpf4jnsgd1na2vs0mg"},{"bike_id":"3c4e3eac-1eb3-42e9-9712-1ef887e50e19","system_id":"levelo_inurba_marseille","lat":43.24664,"lon":5.38164,"is_reserved":false,"is_disabled":false,"rental_uris":{"android":"levelo://app?vid=3c4e3eac-1eb3-42e9-9712-1ef887e50e19","ios":"levelo://app?vid=3c4e3eac-1eb3-42e9-9712-1ef887e50e19"},"vehicle_type_id":"4","last_reported":1741860667,"current_range_meters":9600,"station_id":"ce4bhih2rcd13ifvqfr0","pricing_plan_id":"cebpf4jnsgd1na2vs0mg"},{"bike_id":"79397302-4916-493d-9bc0-e5035ae3c476","system_id":"levelo_inurba_marseille","lat":43.22931,"lon":5.35392,"is_reserved":false,"is_disabled":false,"rental_uris":{"android":"levelo://app?vid=79397302-4916-493d-9bc0-e5035ae3c476","ios":"levelo://app?vid=79397302-4916-493d-9bc0-e5035ae3c476"},"vehicle_type_id":"4","last_reported":1741860667,"current_range_meters":9600,"station_id":"cpo3532slgdg3j2ikp40","pricing_plan_id":"cebpf4jnsgd1na2vs0mg"},{"bike_id":"5412c073-a21a-4f09-b8b3-6e8cd885fd55","system_id":"levelo_inurba_marseille","lat":43.3105,"lon":5.38356,"is_reserved":false,"is_disabled":true,"rental_uris":{"android":"levelo://app?vid=5412c073-a21a-4f09-b8b3-6e8cd885fd55","ios":"levelo://app?vid=5412c073-a21a-4f09-b8b3-6e8cd885fd55"},"vehicle_type_id":"4","last_reported":1741860667,"current_range_meters":9600,"station_id":"ce4bgv92rcd13ifvqcr0","pricing_plan_id":"cebpf4jnsgd1na2vs0mg"},{"bike_id":"443a3fb1-e6f8-4551-9dcb-92b2072390e6","system_id":"levelo_inurba_marseille","lat":43.30155,"lon":5.3769,"is_reserved":false,"is_disabled":false,"rental_uris":{"android":"levelo://app?vid=443a3fb1-e6f8-4551-9dcb-92b2072390e6","ios":"levelo://app?vid=443a3fb1-e6f8-4551-9dcb-92b2072390e6"},"vehicle_type_id":"4","last_reported":1741860667,"current_range_meters":9600,"station_id":"","pricing_plan_id":"cebpf4jnsgd1na2vs0mg"},{"bike_id":"9c298458-9168-485c-a6fd-bc9aa475b8d1","system_id":"levelo_inurba_marseille","lat":43.282419,"lon":5.386503,"is_reserved":false,"is_disabled":false,"rental_uris":{"android":"levelo://app?vid=9c298458-9168-485c-a6fd-bc9aa475b8d1","ios":"levelo://app?vid=9c298458-9168-485c-a6fd-bc9aa475b8d1"},"vehicle_type_id":"4","last_reported":1741860667,"current_range_meters":9600,"station_id":"ce4bht12rcd13ifvqi60","pricing_plan_id":"cebpf4jnsgd1na2vs0mg"},{"bike_id":"28ea0184-fbaa-406b-bde7-387bcdec8a6c","system_id":"levelo_inurba_marseille","lat":43.31266,"lon":5.40169,"is_reserved":false,"is_disabled":false,"rental_uris":{"android":"levelo://app?vid=28ea0184-fbaa-406b-bde7-387bcdec8a6c","ios":"levelo://app?vid=28ea0184-fbaa-406b-bde7-387bcdec8a6c"},"vehicle_type_id":"4","last_reported":1741860667,"current_range_meters":9600,"station_id":"ce4bh092rcd13ifvqd30","pricing_plan_id":"cebpf4jnsgd1na2vs0mg"},{"bike_id":"4b71f5a9-0b65-417f-bb82-1ec69a6a8263","system_id":"levelo_inurba_marseille","lat":43.29277,"lon":5.40136,"is_reserved":false,"is_disabled":false,"rental_uris":{"android":"levelo://app?vid=4b71f5a9-0b65-417f-bb82-1ec69a6a8263","ios":"levelo://app?vid=4b71f5a9-0b65-417f-bb82-1ec69a6a8263"},"vehicle_type_id":"4","last_reported":1741860667,"current_range_meters":10000,"station_id":"ce4bh312rcd13ifvqdk0","pricing_plan_id":"cebpf4jnsgd1na2vs0mg"},{"bike_id":"04b6b0f6-d318-40e6-a023-347d481d621c","system_id":"levelo_inurba_marseille","lat":43.29171,"lon":5.37565,"is_reserved":false,"is_disabled":false,"rental_uris":{"android":"levelo://app?vid=04b6b0f6-d318-40e6-a023-347d481d621c","ios":"levelo://app?vid=04b6b0f6-d318-40e6-a023-347d481d621c"},"vehicle_type_id":"4","last_reported":1741860667,"current_range_meters":10000,"station_id":"","pricing_plan_id":"cebpf4jnsgd1na2vs0mg"},{"bike_id":"c27a00bb-8805-455d-a9b3-fb84df9b586e","system_id":"levelo_inurba_marseille","lat":43.27489,"lon":5.42459,"is_reserved":false,"is_disabled":false,"rental_uris":{"android":"levelo://app?vid=c27a00bb-8805-455d-a9b3-fb84df9b586e","ios":"levelo://app?vid=c27a00bb-8805-455d-a9b3-fb84df9b586e"},"vehicle_type_id":"4","last_reported":1741860667,"current_range_meters":10000,"station_id":"ce4bhn92rcd13ifvqgrg","pricing_plan_id":"cebpf4jnsgd1na2vs0mg"},{"bike_id":"b592acb7-cacd-4757-a870-24e12e49b5fe","system_id":"levelo_inurba_marseille","lat":43.30191,"lon":5.38051,"is_reserved":false,"is_disabled":false,"rental_uris":{"android":"levelo://app?vid=b592acb7-cacd-4757-a870-24e12e49b5fe","ios":"levelo://app?vid=b592acb7-cacd-4757-a870-24e12e49b5fe"},"vehicle_type_id":"4","last_reported":1741860667,"current_range_meters":10000,"station_id":"","pricing_plan_id":"cebpf4jnsgd1na2vs0mg"},{"bike_id":"dd201e36-d87e-4b30-8cbf-fde246d7f832","system_id":"levelo_inurba_marseille","lat":43.28452,"lon":5.35894,"is_reserved":false,"is_disabled":false,"rental_uris":{"android":"levelo://app?vid=dd201e36-d87e-4b30-8cbf-fde246d7f832","ios":"levelo://app?vid=dd201e36-d87e-4b30-8cbf-fde246d7f832"},"vehicle_type_id":"4","last_reported":1741860667,"current_range_meters":10000,"station_id":"ce4bhah2rcd13ifvqei0","pricing_plan_id":"cebpf4jnsgd1na2vs0mg"},{"bike_id":"776661c3-8e08-4e85-b966-bb43f307be93","system_id":"levelo_inurba_marseille","lat":43.3059,"lon":5.37242,"is_reserved":false,"is_disabled":false,"rental_uris":{"android":"levelo://app?vid=776661c3-8e08-4e85-b966-bb43f307be93","ios":"levelo://app?vid=776661c3-8e08-4e85-b966-bb43f307be93"},"vehicle_type_id":"4","last_reported":1741860667,"current_range_meters":6400,"station_id":"ce4bgqh2rcd13ifvqc4g","pricing_plan_id":"cebpf4jnsgd1na2vs0mg"},{"bike_id":"a3d0bb8b-f055-4eca-a65e-f10219d07e75","system_id":"levelo_inurba_marseille","lat":43.26485,"lon":5.3955,"is_reserved":false,"is_disabled":false,"rental_uris":{"android":"levelo://app?vid=a3d0bb8b-f055-4eca-a65e-f10219d07e75","ios":"levelo://app?vid=a3d0bb8b-f055-4eca-a65e-f10219d07e75"},"vehicle_type_id":"4","last_reported":1741860667,"current_range_meters":10000,"station_id":"ce4bhi12rcd13ifvqfq0","pricing_plan_id":"cebpf4jnsgd1na2vs0mg"},{"bike_id":"0fd54929-fda1-4124-8332-4d4edc632c97","system_id":"levelo_inurba_marseille","lat":43.30149,"lon":5.38092,"is_reserved":false,"is_disabled":false,"rental_uris":{"android":"levelo://app?vid=0fd54929-fda1-4124-8332-4d4edc632c97","ios":"levelo://app?vid=0fd54929-fda1-4124-8332-4d4edc632c97"},"vehicle_type_id":"4","last_reported":1741860667,"current_range_meters":10000,"station_id":"ce4bgjp2rcd13ifvqbh0","pricing_plan_id":"cebpf4jnsgd1na2vs0mg"},{"bike_id":"69fa48fe-37f0-461a-9c2a-5ac2b5c809fc","system_id":"levelo_inurba_marseille","lat":43.26554,"lon":5.39035,"is_reserved":false,"is_disabled":false,"rental_uris":{"android":"levelo://app?vid=69fa48fe-37f0-461a-9c2a-5ac2b5c809fc","ios":"levelo://app?vid=69fa48fe-37f0-461a-9c2a-5ac2b5c809fc"},"vehicle_type_id":"4","last_reported":1741860667,"current_range_meters":10000,"station_id":"ce4bhe12rcd13ifvqf30","pricing_plan_id":"cebpf4jnsgd1na2vs0mg"},{"bike_id":"81aa8f23-b821-4abf-aa25-ce8dd50e2f74","system_id":"levelo_inurba_marseille","lat":43.24082,"lon":5.37732,"is_reserved":false,"is_disabled":false,"rental_uris":{"android":"levelo://app?vid=81aa8f23-b821-4abf-aa25-ce8dd50e2f74","ios":"levelo://app?vid=81aa8f23-b821-4abf-aa25-ce8dd50e2f74"},"vehicle_type_id":"4","last_reported":1741860667,"current_range_meters":10000,"station_id":"ce4bhnp2rcd13ifvqgvg","pricing_plan_id":"cebpf4jnsgd1na2vs0mg"},{"bike_id":"52727d89-d5a1-43eb-9b49-dbd459fb4c88","system_id":"levelo_inurba_marseille","lat":43.2649,"lon":5.395463,"is_reserved":false,"is_disabled":false,"rental_uris":{"android":"levelo://app?vid=52727d89-d5a1-43eb-9b49-dbd459fb4c88","ios":"levelo://app?vid=52727d89-d5a1-43eb-9b49-dbd459fb4c88"},"vehicle_type_id":"4","last_reported":1741860667,"current_range_meters":10000,"station_id":"ce4bhi12rcd13ifvqfq0","pricing_plan_id":"cebpf4jnsgd1na2vs0mg"},{"bike_id":"b17833c2-8a29-40aa-84a7-a1940a968f79","system_id":"levelo_inurba_marseille","lat":43.3016,"lon":5.38091,"is_reserved":false,"is_disabled":false,"rental_uris":{"android":"levelo://app?vid=b17833c2-8a29-40aa-84a7-a1940a968f79","ios":"levelo://app?vid=b17833c2-8a29-40aa-84a7-a1940a968f79"},"vehicle_type_id":"4","last_reported":1741860667,"current_range_meters":10000,"station_id":"ce4bgjp2rcd13ifvqbh0","pricing_plan_id":"cebpf4jnsgd1na2vs0mg"},{"bike_id":"69f0f074-f883-411f-855f-15be7b2ed938","system_id":"levelo_inurba_marseille","lat":43.298828,"lon":5.384749,"is_reserved":false,"is_disabled":false,"rental_uris":{"android":"levelo://app?vid=69f0f074-f883-411f-855f-15be7b2ed938","ios":"levelo://app?vid=69f0f074-f883-411f-855f-15be7b2ed938"},"vehicle_type_id":"4","last_reported":1741860667,"current_range_meters":10000,"station_id":"ce4bh2p2rcd13ifvqdi0","pricing_plan_id":"cebpf4jnsgd1na2vs0mg"},{"bike_id":"0f09a34b-743f-460f-866a-def7681beb24","system_id":"levelo_inurba_marseille","lat":43.26687,"lon":5.382786,"is_reserved":false,"is_disabled":false,"rental_uris":{"android":"levelo://app?vid=0f09a34b-743f-460f-866a-def7681beb24","ios":"levelo://app?vid=0f09a34b-743f-460f-866a-def7681beb24"},"vehicle_type_id":"4","last_reported":1741860667,"current_range_meters":10000,"station_id":"ce4bhg92rcd13ifvqf90","pricing_plan_id":"cebpf4jnsgd1na2vs0mg"},{"bike_id":"43210ee2-7bae-42bd-8e6d-b2d5802f48a9","system_id":"levelo_inurba_marseille","lat":43.29006,"lon":5.40029,"is_reserved":false,"is_disabled":false,"rental_uris":{"android":"levelo://app?vid=43210ee2-7bae-42bd-8e6d-b2d5802f48a9","ios":"levelo://app?vid=43210ee2-7bae-42bd-8e6d-b2d5802f48a9"},"vehicle_type_id":"4","last_reported":1741860667,"current_range_meters":10000,"station_id":"","pricing_plan_id":"cebpf4jnsgd1na2vs0mg"},{"bike_id":"e3d6a6b9-cc18-4321-8a36-574dc6db5ef8","system_id":"levelo_inurba_marseille","lat":43.2668,"lon":5.38269,"is_reserved":false,"is_disabled":false,"rental_uris":{"android":"levelo://app?vid=e3d6a6b9-cc18-4321-8a36-574dc6db5ef8","ios":"levelo://app?vid=e3d6a6b9-cc18-4321-8a36-574dc6db5ef8"},"vehicle_type_id":"4","last_reported":1741860667,"current_range_meters":10000,"station_id":"ce4bhg92rcd13ifvqf90","pricing_plan_id":"cebpf4jnsgd1na2vs0mg"},{"bike_id":"6c4013e2-dee9-41c3-a1ec-b1bb73f1a9cf","system_id":"levelo_inurba_marseille","lat":43.31689,"lon":5.4047,"is_reserved":false,"is_disabled":false,"rental_uris":{"android":"levelo://app?vid=6c4013e2-dee9-41c3-a1ec-b1bb73f1a9cf","ios":"levelo://app?vid=6c4013e2-dee9-41c3-a1ec-b1bb73f1a9cf"},"vehicle_type_id":"4","last_reported":1741860667,"current_range_meters":10800,"station_id":"ce4bh012rcd13ifvqd00","pricing_plan_id":"cebpf4jnsgd1na2vs0mg"},{"bike_id":"0118782e-a9be-4c57-a3c6-f989e8d3b9bf","system_id":"levelo_inurba_marseille","lat":43.24184,"lon":5.39717,"is_reserved":false,"is_disabled":false,"rental_uris":{"android":"levelo://app?vid=0118782e-a9be-4c57-a3c6-f989e8d3b9bf","ios":"levelo://app?vid=0118782e-a9be-4c57-a3c6-f989e8d3b9bf"},"vehicle_type_id":"4","last_reported":1741860667,"current_range_meters":10800,"station_id":"ce4bhn12rcd13ifvqgpg","pricing_plan_id":"cebpf4jnsgd1na2vs0mg"},{"bike_id":"4397b0a2-9146-49c9-a107-ffa18a7b65b6","system_id":"levelo_inurba_marseille","lat":43.28478,"lon":5.38426,"is_reserved":false,"is_disabled":false,"rental_uris":{"android":"levelo://app?vid=4397b0a2-9146-49c9-a107-ffa18a7b65b6","ios":"levelo://app?vid=4397b0a2-9146-49c9-a107-ffa18a7b65b6"},"vehicle_type_id":"4","last_reported":1741860667,"current_range_meters":8000,"station_id":"ce4bh512rcd13ifvqe3g","pricing_plan_id":"cebpf4jnsgd1na2vs0mg"},{"bike_id":"e8fd26ef-6903-4e20-ab4a-abfea64ee9ab","system_id":"levelo_inurba_marseille","lat":43.24995,"lon":5.38931,"is_reserved":false,"is_disabled":false,"rental_uris":{"android":"levelo://app?vid=e8fd26ef-6903-4e20-ab4a-abfea64ee9ab","ios":"levelo://app?vid=e8fd26ef-6903-4e20-ab4a-abfea64ee9ab"},"vehicle_type_id":"4","last_reported":1741860667,"current_range_meters":10800,"station_id":"ce4bhgp2rcd13ifvqfd0","pricing_plan_id":"cebpf4jnsgd1na2vs0mg"},{"bike_id":"3e1ac28a-c2d4-446a-a943-b5016a8ec2ed","system_id":"levelo_inurba_marseille","lat":43.29568,"lon":5.37515,"is_reserved":false,"is_disabled":false,"rental_uris":{"android":"levelo://app?vid=3e1ac28a-c2d4-446a-a943-b5016a8ec2ed","ios":"levelo://app?vid=3e1ac28a-c2d4-446a-a943-b5016a8ec2ed"},"vehicle_type_id":"4","last_reported":1741860667,"current_range_meters":10800,"station_id":"ce4bgh92rcd13ifvqb50","pricing_plan_id":"cebpf4jnsgd1na2vs0mg"},{"bike_id":"d1749825-a00e-4ab4-a952-4ff33e012918","system_id":"levelo_inurba_marseille","lat":43.30556,"lon":5.3671,"is_reserved":false,"is_disabled":false,"rental_uris":{"android":"levelo://app?vid=d1749825-a00e-4ab4-a952-4ff33e012918","ios":"levelo://app?vid=d1749825-a00e-4ab4-a952-4ff33e012918"},"vehicle_type_id":"4","last_reported":1741860667,"current_range_meters":10800,"station_id":"ce4bgrp2rcd13ifvqc9g","pricing_plan_id":"cebpf4jnsgd1na2vs0mg"},{"bike_id":"6291feed-1dee-4192-bb76-319c63a3627d","system_id":"levelo_inurba_marseille","lat":43.286164,"lon":5.370643,"is_reserved":false,"is_disabled":false,"rental_uris":{"android":"levelo://app?vid=6291feed-1dee-4192-bb76-319c63a3627d","ios":"levelo://app?vid=6291feed-1dee-4192-bb76-319c63a3627d"},"vehicle_type_id":"4","last_reported":1741860667,"current_range_meters":10800,"station_id":"ce4bht12rcd13ifvqi60","pricing_plan_id":"cebpf4jnsgd1na2vs0mg"},{"bike_id":"1e035dd9-c722-449e-a91f-94b7615a145e","system_id":"levelo_inurba_marseille","lat":43.30147,"lon":5.39867,"is_reserved":false,"is_disabled":false,"rental_uris":{"android":"levelo://app?vid=1e035dd9-c722-449e-a91f-94b7615a145e","ios":"levelo://app?vid=1e035dd9-c722-449e-a91f-94b7615a145e"},"vehicle_type_id":"4","last_reported":1741860667,"current_range_meters":10800,"station_id":"ce4bh0h2rcd13ifvqd40","pricing_plan_id":"cebpf4jnsgd1na2vs0mg"},{"bike_id":"6ade9452-7719-4e92-a697-4b57c32c0ea5","system_id":"levelo_inurba_marseille","lat":43.27087,"lon":5.40242,"is_reserved":false,"is_disabled":false,"rental_uris":{"android":"levelo://app?vid=6ade9452-7719-4e92-a697-4b57c32c0ea5","ios":"levelo://app?vid=6ade9452-7719-4e92-a697-4b57c32c0ea5"},"vehicle_type_id":"4","last_reported":1741860667,"current_range_meters":10800,"station_id":"ce4bhk92rcd13ifvqgc0","pricing_plan_id":"cebpf4jnsgd1na2vs0mg"},{"bike_id":"7f0ce0ec-8eea-41e3-8a06-ee27854a7b0b","system_id":"levelo_inurba_marseille","lat":43.31264,"lon":5.36872,"is_reserved":false,"is_disabled":false,"rental_uris":{"android":"levelo://app?vid=7f0ce0ec-8eea-41e3-8a06-ee27854a7b0b","ios":"levelo://app?vid=7f0ce0ec-8eea-41e3-8a06-ee27854a7b0b"},"vehicle_type_id":"4","last_reported":1741860667,"current_range_meters":11200,"station_id":"ce4bgl92rcd13ifvqbq0","pricing_plan_id":"cebpf4jnsgd1na2vs0mg"},{"bike_id":"370e354a-8bbe-4efe-a156-3f171809e8dd","system_id":"levelo_inurba_marseille","lat":43.2407,"lon":5.37762,"is_reserved":false,"is_disabled":false,"rental_uris":{"android":"levelo://app?vid=370e354a-8bbe-4efe-a156-3f171809e8dd","ios":"levelo://app?vid=370e354a-8bbe-4efe-a156-3f171809e8dd"},"vehicle_type_id":"4","last_reported":1741860667,"current_range_meters":11200,"station_id":"ce4bhnp2rcd13ifvqgvg","pricing_plan_id":"cebpf4jnsgd1na2vs0mg"},{"bike_id":"873e67c4-d854-4ea4-be73-0fd591992e20","system_id":"levelo_inurba_marseille","lat":43.24063,"lon":5.37708,"is_reserved":false,"is_disabled":false,"rental_uris":{"android":"levelo://app?vid=873e67c4-d854-4ea4-be73-0fd591992e20","ios":"levelo://app?vid=873e67c4-d854-4ea4-be73-0fd591992e20"},"vehicle_type_id":"4","last_reported":1741860667,"current_range_meters":11200,"station_id":"ce4bhnp2rcd13ifvqgvg","pricing_plan_id":"cebpf4jnsgd1na2vs0mg"},{"bike_id":"894adb72-eba3-4c31-be33-a34cdb918fbd","system_id":"levelo_inurba_marseille","lat":43.25728,"lon":5.41092,"is_reserved":false,"is_disabled":false,"rental_uris":{"android":"levelo://app?vid=894adb72-eba3-4c31-be33-a34cdb918fbd","ios":"levelo://app?vid=894adb72-eba3-4c31-be33-a34cdb918fbd"},"vehicle_type_id":"4","last_reported":1741860667,"current_range_meters":11200,"station_id":"ce4bhkp2rcd13ifvqgd0","pricing_plan_id":"cebpf4jnsgd1na2vs0mg"},{"bike_id":"d1235ce3-1007-4d2d-9e28-ea39398a63a8","system_id":"levelo_inurba_marseille","lat":43.23207,"lon":5.35548,"is_reserved":false,"is_disabled":false,"rental_uris":{"android":"levelo://app?vid=d1235ce3-1007-4d2d-9e28-ea39398a63a8","ios":"levelo://app?vid=d1235ce3-1007-4d2d-9e28-ea39398a63a8"},"vehicle_type_id":"4","last_reported":1741860667,"current_range_meters":11200,"station_id":"ce4bhu92rcd13ifvqi70","pricing_plan_id":"cebpf4jnsgd1na2vs0mg"},{"bike_id":"cfacb6ce-03b7-4545-87ac-7ab9550643b3","system_id":"levelo_inurba_marseille","lat":43.33114,"lon":5.38214,"is_reserved":false,"is_disabled":false,"rental_uris":{"android":"levelo://app?vid=cfacb6ce-03b7-4545-87ac-7ab9550643b3","ios":"levelo://app?vid=cfacb6ce-03b7-4545-87ac-7ab9550643b3"},"vehicle_type_id":"4","last_reported":1741860667,"current_range_meters":11200,"station_id":"","pricing_plan_id":"cebpf4jnsgd1na2vs0mg"},{"bike_id":"9203865e-ca45-4cac-a4a2-49b3bfa1d4f8","system_id":"levelo_inurba_marseille","lat":43.29857,"lon":5.36256,"is_reserved":false,"is_disabled":false,"rental_uris":{"android":"levelo://app?vid=9203865e-ca45-4cac-a4a2-49b3bfa1d4f8","ios":"levelo://app?vid=9203865e-ca45-4cac-a4a2-49b3bfa1d4f8"},"vehicle_type_id":"4","last_reported":1741860667,"current_range_meters":11200,"station_id":"ce4bgpp2rcd13ifvqc3g","pricing_plan_id":"cebpf4jnsgd1na2vs0mg"},{"bike_id":"38e01127-76f8-45da-b84d-2178f461e9fd","system_id":"levelo_inurba_marseille","lat":43.27812,"lon":5.40713,"is_reserved":false,"is_disabled":false,"rental_uris":{"android":"levelo://app?vid=38e01127-76f8-45da-b84d-2178f461e9fd","ios":"levelo://app?vid=38e01127-76f8-45da-b84d-2178f461e9fd"},"vehicle_type_id":"4","last_reported":1741860667,"current_range_meters":11200,"station_id":"ce4bhnh2rcd13ifvqgtg","pricing_plan_id":"cebpf4jnsgd1na2vs0mg"},{"bike_id":"ef7ca9a6-3467-44cc-bad4-14e9163fcc71","system_id":"levelo_inurba_marseille","lat":43.24191,"lon":5.39728,"is_reserved":false,"is_disabled":false,"rental_uris":{"android":"levelo://app?vid=ef7ca9a6-3467-44cc-bad4-14e9163fcc71","ios":"levelo://app?vid=ef7ca9a6-3467-44cc-bad4-14e9163fcc71"},"vehicle_type_id":"4","last_reported":1741860667,"current_range_meters":11200,"station_id":"ce4bhn12rcd13ifvqgpg","pricing_plan_id":"cebpf4jnsgd1na2vs0mg"},{"bike_id":"6a7ef2df-bee0-45b4-ba9f-5aa28bc98bf8","system_id":"levelo_inurba_marseille","lat":43.301365,"lon":5.374237,"is_reserved":false,"is_disabled":false,"rental_uris":{"android":"levelo://app?vid=6a7ef2df-bee0-45b4-ba9f-5aa28bc98bf8","ios":"levelo://app?vid=6a7ef2df-bee0-45b4-ba9f-5aa28bc98bf8"},"vehicle_type_id":"4","last_reported":1741860667,"current_range_meters":11200,"station_id":"ce4bgs92rcd13ifvqcc0","pricing_plan_id":"cebpf4jnsgd1na2vs0mg"},{"bike_id":"9f260f59-22bd-46b1-85d9-b6b4b5fd2f82","system_id":"levelo_inurba_marseille","lat":43.2594,"lon":5.40902,"is_reserved":false,"is_disabled":false,"rental_uris":{"android":"levelo://app?vid=9f260f59-22bd-46b1-85d9-b6b4b5fd2f82","ios":"levelo://app?vid=9f260f59-22bd-46b1-85d9-b6b4b5fd2f82"},"vehicle_type_id":"4","last_reported":1741860667,"current_range_meters":11200,"station_id":"ce4bhm92rcd13ifvqglg","pricing_plan_id":"cebpf4jnsgd1na2vs0mg"},{"bike_id":"a823fe98-0845-44f0-af70-a3e75e70ed04","system_id":"levelo_inurba_marseille","lat":43.25014,"lon":5.38924,"is_reserved":false,"is_disabled":false,"rental_uris":{"android":"levelo://app?vid=a823fe98-0845-44f0-af70-a3e75e70ed04","ios":"levelo://app?vid=a823fe98-0845-44f0-af70-a3e75e70ed04"},"vehicle_type_id":"4","last_reported":1741860667,"current_range_meters":11600,"station_id":"ce4bhgp2rcd13ifvqfd0","pricing_plan_id":"cebpf4jnsgd1na2vs0mg"},{"bike_id":"fd440347-0404-4c36-8fbe-7ebffd7a9e8f","system_id":"levelo_inurba_marseille","lat":43.333446,"lon":5.396143,"is_reserved":false,"is_disabled":false,"rental_uris":{"android":"levelo://app?vid=fd440347-0404-4c36-8fbe-7ebffd7a9e8f","ios":"levelo://app?vid=fd440347-0404-4c36-8fbe-7ebffd7a9e8f"},"vehicle_type_id":"4","last_reported":1741860667,"current_range_meters":11600,"station_id":"","pricing_plan_id":"cebpf4jnsgd1na2vs0mg"},{"bike_id":"16e3afe0-cf85-410c-88a0-8e337726a46a","system_id":"levelo_inurba_marseille","lat":43.2666,"lon":5.38617,"is_reserved":false,"is_disabled":false,"rental_uris":{"android":"levelo://app?vid=16e3afe0-cf85-410c-88a0-8e337726a46a","ios":"levelo://app?vid=16e3afe0-cf85-410c-88a0-8e337726a46a"},"vehicle_type_id":"4","last_reported":1741860667,"current_range_meters":11600,"station_id":"","pricing_plan_id":"cebpf4jnsgd1na2vs0mg"},{"bike_id":"f550acae-a478-493d-8418-eb4ab17dc323","system_id":"levelo_inurba_marseille","lat":43.25011,"lon":5.3891,"is_reserved":false,"is_disabled":false,"rental_uris":{"android":"levelo://app?vid=f550acae-a478-493d-8418-eb4ab17dc323","ios":"levelo://app?vid=f550acae-a478-493d-8418-eb4ab17dc323"},"vehicle_type_id":"4","last_reported":1741860667,"current_range_meters":11600,"station_id":"ce4bhgp2rcd13ifvqfd0","pricing_plan_id":"cebpf4jnsgd1na2vs0mg"},{"bike_id":"bde855ec-533b-4bf8-a1ff-efe87f04155f","system_id":"levelo_inurba_marseille","lat":43.2749,"lon":5.42461,"is_reserved":false,"is_disabled":false,"rental_uris":{"android":"levelo://app?vid=bde855ec-533b-4bf8-a1ff-efe87f04155f","ios":"levelo://app?vid=bde855ec-533b-4bf8-a1ff-efe87f04155f"},"vehicle_type_id":"4","last_reported":1741860667,"current_range_meters":11600,"station_id":"ce4bhn92rcd13ifvqgrg","pricing_plan_id":"cebpf4jnsgd1na2vs0mg"},{"bike_id":"ce6931b2-4584-4e09-a220-751d1e37b7c6","system_id":"levelo_inurba_marseille","lat":43.31337,"lon":5.36714,"is_reserved":false,"is_disabled":false,"rental_uris":{"android":"levelo://app?vid=ce6931b2-4584-4e09-a220-751d1e37b7c6","ios":"levelo://app?vid=ce6931b2-4584-4e09-a220-751d1e37b7c6"},"vehicle_type_id":"4","last_reported":1741860667,"current_range_meters":12000,"station_id":"ce4bgr92rcd13ifvqc6g","pricing_plan_id":"cebpf4jnsgd1na2vs0mg"},{"bike_id":"76184859-8b82-4afe-a02c-67b54bab3f2a","system_id":"levelo_inurba_marseille","lat":43.25815,"lon":5.39426,"is_reserved":false,"is_disabled":true,"rental_uris":{"android":"levelo://app?vid=76184859-8b82-4afe-a02c-67b54bab3f2a","ios":"levelo://app?vid=76184859-8b82-4afe-a02c-67b54bab3f2a"},"vehicle_type_id":"4","last_reported":1741860667,"current_range_meters":12000,"station_id":"ce4bhip2rcd13ifvqft0","pricing_plan_id":"cebpf4jnsgd1na2vs0mg"},{"bike_id":"5dd9c21c-8540-4daa-994f-2f97c4cf383d","system_id":"levelo_inurba_marseille","lat":43.2749,"lon":5.42448,"is_reserved":false,"is_disabled":false,"rental_uris":{"android":"levelo://app?vid=5dd9c21c-8540-4daa-994f-2f97c4cf383d","ios":"levelo://app?vid=5dd9c21c-8540-4daa-994f-2f97c4cf383d"},"vehicle_type_id":"4","last_reported":1741860667,"current_range_meters":12000,"station_id":"ce4bhn92rcd13ifvqgrg","pricing_plan_id":"cebpf4jnsgd1na2vs0mg"},{"bike_id":"90f8c03f-d684-43c1-847d-5fc1275e68f3","system_id":"levelo_inurba_marseille","lat":43.29933,"lon":5.36529,"is_reserved":false,"is_disabled":false,"rental_uris":{"android":"levelo://app?vid=90f8c03f-d684-43c1-847d-5fc1275e68f3","ios":"levelo://app?vid=90f8c03f-d684-43c1-847d-5fc1275e68f3"},"vehicle_type_id":"4","last_reported":1741860667,"current_range_meters":12000,"station_id":"ce4bgm92rcd13ifvqbr0","pricing_plan_id":"cebpf4jnsgd1na2vs0mg"},{"bike_id":"e0075072-7d65-4477-83a2-44821f3b7188","system_id":"levelo_inurba_marseille","lat":43.30933,"lon":5.40166,"is_reserved":false,"is_disabled":false,"rental_uris":{"android":"levelo://app?vid=e0075072-7d65-4477-83a2-44821f3b7188","ios":"levelo://app?vid=e0075072-7d65-4477-83a2-44821f3b7188"},"vehicle_type_id":"4","last_reported":1741860667,"current_range_meters":12000,"station_id":"ce4bgvp2rcd13ifvqct0","pricing_plan_id":"cebpf4jnsgd1na2vs0mg"},{"bike_id":"1789fff5-1f9f-41e4-876c-54bb6ef81f84","system_id":"levelo_inurba_marseille","lat":43.29491,"lon":5.38675,"is_reserved":false,"is_disabled":false,"rental_uris":{"android":"levelo://app?vid=1789fff5-1f9f-41e4-876c-54bb6ef81f84","ios":"levelo://app?vid=1789fff5-1f9f-41e4-876c-54bb6ef81f84"},"vehicle_type_id":"4","last_reported":1741860667,"current_range_meters":12000,"station_id":"","pricing_plan_id":"cebpf4jnsgd1na2vs0mg"},{"bike_id":"ca7073b3-7a61-4ba6-99ba-bb754b837a13","system_id":"levelo_inurba_marseille","lat":43.241757,"lon":5.397352,"is_reserved":false,"is_disabled":false,"rental_uris":{"android":"levelo://app?vid=ca7073b3-7a61-4ba6-99ba-bb754b837a13","ios":"levelo://app?vid=ca7073b3-7a61-4ba6-99ba-bb754b837a13"},"vehicle_type_id":"4","last_reported":1741860667,"current_range_meters":12400,"station_id":"ce4bhn12rcd13ifvqgpg","pricing_plan_id":"cebpf4jnsgd1na2vs0mg"},{"bike_id":"68b398bd-529e-411b-a8d8-a77307504320","system_id":"levelo_inurba_marseille","lat":43.29303,"lon":5.37449,"is_reserved":false,"is_disabled":false,"rental_uris":{"android":"levelo://app?vid=68b398bd-529e-411b-a8d8-a77307504320","ios":"levelo://app?vid=68b398bd-529e-411b-a8d8-a77307504320"},"vehicle_type_id":"4","last_reported":1741860667,"current_range_meters":12400,"station_id":"ce4bgi12rcd13ifvqb70","pricing_plan_id":"cebpf4jnsgd1na2vs0mg"},{"bike_id":"9cce9208-7cee-4c1b-a29a-1b23c4eeb22f","system_id":"levelo_inurba_marseille","lat":43.26694,"lon":5.38264,"is_reserved":false,"is_disabled":false,"rental_uris":{"android":"levelo://app?vid=9cce9208-7cee-4c1b-a29a-1b23c4eeb22f","ios":"levelo://app?vid=9cce9208-7cee-4c1b-a29a-1b23c4eeb22f"},"vehicle_type_id":"4","last_reported":1741860667,"current_range_meters":12400,"station_id":"ce4bhg92rcd13ifvqf90","pricing_plan_id":"cebpf4jnsgd1na2vs0mg"},{"bike_id":"6e709a37-d120-41cd-899c-df06670f22de","system_id":"levelo_inurba_marseille","lat":43.31348,"lon":5.36721,"is_reserved":false,"is_disabled":false,"rental_uris":{"android":"levelo://app?vid=6e709a37-d120-41cd-899c-df06670f22de","ios":"levelo://app?vid=6e709a37-d120-41cd-899c-df06670f22de"},"vehicle_type_id":"4","last_reported":1741860667,"current_range_meters":12400,"station_id":"ce4bgr92rcd13ifvqc6g","pricing_plan_id":"cebpf4jnsgd1na2vs0mg"},{"bike_id":"6a01bcd6-d597-43ea-9f33-f612ae30f0a5","system_id":"levelo_inurba_marseille","lat":43.315034,"lon":5.373026,"is_reserved":false,"is_disabled":false,"rental_uris":{"android":"levelo://app?vid=6a01bcd6-d597-43ea-9f33-f612ae30f0a5","ios":"levelo://app?vid=6a01bcd6-d597-43ea-9f33-f612ae30f0a5"},"vehicle_type_id":"4","last_reported":1741860667,"current_range_meters":12400,"station_id":"ce4bgt12rcd13ifvqcd0","pricing_plan_id":"cebpf4jnsgd1na2vs0mg"},{"bike_id":"7e002c60-5ca2-4d33-896a-ac426aef85f1","system_id":"levelo_inurba_marseille","lat":43.25719,"lon":5.41116,"is_reserved":false,"is_disabled":false,"rental_uris":{"android":"levelo://app?vid=7e002c60-5ca2-4d33-896a-ac426aef85f1","ios":"levelo://app?vid=7e002c60-5ca2-4d33-896a-ac426aef85f1"},"vehicle_type_id":"4","last_reported":1741860667,"current_range_meters":12400,"station_id":"ce4bhkp2rcd13ifvqgd0","pricing_plan_id":"cebpf4jnsgd1na2vs0mg"},{"bike_id":"297fae17-c6a8-4934-accf-8c50087df34d","system_id":"levelo_inurba_marseille","lat":43.24813,"lon":5.37451,"is_reserved":false,"is_disabled":false,"rental_uris":{"android":"levelo://app?vid=297fae17-c6a8-4934-accf-8c50087df34d","ios":"levelo://app?vid=297fae17-c6a8-4934-accf-8c50087df34d"},"vehicle_type_id":"4","last_reported":1741860667,"current_range_meters":12800,"station_id":"ce4bhgh2rcd13ifvqfb0","pricing_plan_id":"cebpf4jnsgd1na2vs0mg"},{"bike_id":"b82ce96a-e071-4177-80d3-afcff4e82b19","system_id":"levelo_inurba_marseille","lat":43.25928,"lon":5.40905,"is_reserved":false,"is_disabled":false,"rental_uris":{"android":"levelo://app?vid=b82ce96a-e071-4177-80d3-afcff4e82b19","ios":"levelo://app?vid=b82ce96a-e071-4177-80d3-afcff4e82b19"},"vehicle_type_id":"4","last_reported":1741860667,"current_range_meters":12800,"station_id":"ce4bhm92rcd13ifvqglg","pricing_plan_id":"cebpf4jnsgd1na2vs0mg"},{"bike_id":"d3c9cc59-4147-4136-94ef-7d8aa6d807f5","system_id":"levelo_inurba_marseille","lat":43.28368,"lon":5.38635,"is_reserved":false,"is_disabled":false,"rental_uris":{"android":"levelo://app?vid=d3c9cc59-4147-4136-94ef-7d8aa6d807f5","ios":"levelo://app?vid=d3c9cc59-4147-4136-94ef-7d8aa6d807f5"},"vehicle_type_id":"4","last_reported":1741860667,"current_range_meters":12800,"station_id":"ce4bh492rcd13ifvqdvg","pricing_plan_id":"cebpf4jnsgd1na2vs0mg"},{"bike_id":"5777f9c0-a8ad-4dd2-b2de-acc41f0406f0","system_id":"levelo_inurba_marseille","lat":43.27802,"lon":5.40732,"is_reserved":false,"is_disabled":true,"rental_uris":{"android":"levelo://app?vid=5777f9c0-a8ad-4dd2-b2de-acc41f0406f0","ios":"levelo://app?vid=5777f9c0-a8ad-4dd2-b2de-acc41f0406f0"},"vehicle_type_id":"4","last_reported":1741860667,"current_range_meters":12800,"station_id":"ce4bhnh2rcd13ifvqgtg","pricing_plan_id":"cebpf4jnsgd1na2vs0mg"},{"bike_id":"275c5f1e-eab9-433b-9246-3032f195375b","system_id":"levelo_inurba_marseille","lat":43.3054,"lon":5.36548,"is_reserved":false,"is_disabled":false,"rental_uris":{"android":"levelo://app?vid=275c5f1e-eab9-433b-9246-3032f195375b","ios":"levelo://app?vid=275c5f1e-eab9-433b-9246-3032f195375b"},"vehicle_type_id":"4","last_reported":1741860667,"current_range_meters":12800,"station_id":"ce4bgs12rcd13ifvqcag","pricing_plan_id":"cebpf4jnsgd1na2vs0mg"},{"bike_id":"1f5179d5-e5a1-45d3-9cef-b854c336e745","system_id":"levelo_inurba_marseille","lat":43.34145,"lon":5.40909,"is_reserved":false,"is_disabled":false,"rental_uris":{"android":"levelo://app?vid=1f5179d5-e5a1-45d3-9cef-b854c336e745","ios":"levelo://app?vid=1f5179d5-e5a1-45d3-9cef-b854c336e745"},"vehicle_type_id":"4","last_reported":1741860667,"current_range_meters":12800,"station_id":"ce4bhqh2rcd13ifvqhlg","pricing_plan_id":"cebpf4jnsgd1na2vs0mg"},{"bike_id":"3b1dc66c-eb9b-4e6f-8bcc-e87b3cbdf37c","system_id":"levelo_inurba_marseille","lat":43.30158,"lon":5.39866,"is_reserved":false,"is_disabled":false,"rental_uris":{"android":"levelo://app?vid=3b1dc66c-eb9b-4e6f-8bcc-e87b3cbdf37c","ios":"levelo://app?vid=3b1dc66c-eb9b-4e6f-8bcc-e87b3cbdf37c"},"vehicle_type_id":"4","last_reported":1741860667,"current_range_meters":12800,"station_id":"ce4bh0h2rcd13ifvqd40","pricing_plan_id":"cebpf4jnsgd1na2vs0mg"},{"bike_id":"d499aa7d-37fe-4efe-8d86-7fc011ad17ad","system_id":"levelo_inurba_marseille","lat":43.23059,"lon":5.35497,"is_reserved":false,"is_disabled":false,"rental_uris":{"android":"levelo://app?vid=d499aa7d-37fe-4efe-8d86-7fc011ad17ad","ios":"levelo://app?vid=d499aa7d-37fe-4efe-8d86-7fc011ad17ad"},"vehicle_type_id":"4","last_reported":1741860667,"current_range_meters":12800,"station_id":"cpo3342slgdg3j2ifvpg","pricing_plan_id":"cebpf4jnsgd1na2vs0mg"},{"bike_id":"cecedfc4-0296-4a79-b649-589328e39bd3","system_id":"levelo_inurba_marseille","lat":43.24185,"lon":5.39744,"is_reserved":false,"is_disabled":false,"rental_uris":{"android":"levelo://app?vid=cecedfc4-0296-4a79-b649-589328e39bd3","ios":"levelo://app?vid=cecedfc4-0296-4a79-b649-589328e39bd3"},"vehicle_type_id":"4","last_reported":1741860667,"current_range_meters":12800,"station_id":"ce4bhn12rcd13ifvqgpg","pricing_plan_id":"cebpf4jnsgd1na2vs0mg"},{"bike_id":"586c2964-3296-4342-9df0-54c3b80ed8f5","system_id":"levelo_inurba_marseille","lat":43.27064,"lon":5.42282,"is_reserved":false,"is_disabled":false,"rental_uris":{"android":"levelo://app?vid=586c2964-3296-4342-9df0-54c3b80ed8f5","ios":"levelo://app?vid=586c2964-3296-4342-9df0-54c3b80ed8f5"},"vehicle_type_id":"4","last_reported":1741860667,"current_range_meters":13600,"station_id":"ce4bhk92rcd13ifvqgb0","pricing_plan_id":"cebpf4jnsgd1na2vs0mg"},{"bike_id":"137f4a90-ab71-49d3-80a4-5009ae8dd792","system_id":"levelo_inurba_marseille","lat":43.30143,"lon":5.37423,"is_reserved":false,"is_disabled":false,"rental_uris":{"android":"levelo://app?vid=137f4a90-ab71-49d3-80a4-5009ae8dd792","ios":"levelo://app?vid=137f4a90-ab71-49d3-80a4-5009ae8dd792"},"vehicle_type_id":"4","last_reported":1741860667,"current_range_meters":13600,"station_id":"ce4bgs92rcd13ifvqcc0","pricing_plan_id":"cebpf4jnsgd1na2vs0mg"},{"bike_id":"347eb5fa-4c18-4262-bdcf-93aa4e665d57","system_id":"levelo_inurba_marseille","lat":43.25868,"lon":5.39899,"is_reserved":false,"is_disabled":false,"rental_uris":{"android":"levelo://app?vid=347eb5fa-4c18-4262-bdcf-93aa4e665d57","ios":"levelo://app?vid=347eb5fa-4c18-4262-bdcf-93aa4e665d57"},"vehicle_type_id":"4","last_reported":1741860667,"current_range_meters":13600,"station_id":"ce4bhl92rcd13ifvqghg","pricing_plan_id":"cebpf4jnsgd1na2vs0mg"},{"bike_id":"70a53264-8bbe-452e-8c7e-ee5964d8270a","system_id":"levelo_inurba_marseille","lat":43.24062,"lon":5.37713,"is_reserved":false,"is_disabled":false,"rental_uris":{"android":"levelo://app?vid=70a53264-8bbe-452e-8c7e-ee5964d8270a","ios":"levelo://app?vid=70a53264-8bbe-452e-8c7e-ee5964d8270a"},"vehicle_type_id":"4","last_reported":1741860667,"current_range_meters":13600,"station_id":"ce4bhnp2rcd13ifvqgvg","pricing_plan_id":"cebpf4jnsgd1na2vs0mg"},{"bike_id":"a1b2a85a-4578-4607-a24a-7c4987c5260c","system_id":"levelo_inurba_marseille","lat":43.24084,"lon":5.37751,"is_reserved":false,"is_disabled":false,"rental_uris":{"android":"levelo://app?vid=a1b2a85a-4578-4607-a24a-7c4987c5260c","ios":"levelo://app?vid=a1b2a85a-4578-4607-a24a-7c4987c5260c"},"vehicle_type_id":"4","last_reported":1741860667,"current_range_meters":13600,"station_id":"ce4bhnp2rcd13ifvqgvg","pricing_plan_id":"cebpf4jnsgd1na2vs0mg"},{"bike_id":"0d12cac5-ac93-4e98-ab85-ebb154e602cc","system_id":"levelo_inurba_marseille","lat":43.25001,"lon":5.38941,"is_reserved":false,"is_disabled":false,"rental_uris":{"android":"levelo://app?vid=0d12cac5-ac93-4e98-ab85-ebb154e602cc","ios":"levelo://app?vid=0d12cac5-ac93-4e98-ab85-ebb154e602cc"},"vehicle_type_id":"4","last_reported":1741860667,"current_range_meters":13600,"station_id":"ce4bhgp2rcd13ifvqfd0","pricing_plan_id":"cebpf4jnsgd1na2vs0mg"},{"bike_id":"909e037c-5e8b-42ea-b90c-fd33ecc7d0b5","system_id":"levelo_inurba_marseille","lat":43.28608,"lon":5.37065,"is_reserved":false,"is_disabled":false,"rental_uris":{"android":"levelo://app?vid=909e037c-5e8b-42ea-b90c-fd33ecc7d0b5","ios":"levelo://app?vid=909e037c-5e8b-42ea-b90c-fd33ecc7d0b5"},"vehicle_type_id":"4","last_reported":1741860667,"current_range_meters":13600,"station_id":"ce4bht12rcd13ifvqi60","pricing_plan_id":"cebpf4jnsgd1na2vs0mg"},{"bike_id":"1c4c8cdb-6ff0-4f0a-a0dd-f179b888caaa","system_id":"levelo_inurba_marseille","lat":43.23146,"lon":5.43722,"is_reserved":false,"is_disabled":false,"rental_uris":{"android":"levelo://app?vid=1c4c8cdb-6ff0-4f0a-a0dd-f179b888caaa","ios":"levelo://app?vid=1c4c8cdb-6ff0-4f0a-a0dd-f179b888caaa"},"vehicle_type_id":"4","last_reported":1741860667,"current_range_meters":14000,"station_id":"ce4bhmp2rcd13ifvqgog","pricing_plan_id":"cebpf4jnsgd1na2vs0mg"},{"bike_id":"691d917d-180c-48ac-9a83-6694789ad2a1","system_id":"levelo_inurba_marseille","lat":43.29162,"lon":5.38601,"is_reserved":false,"is_disabled":false,"rental_uris":{"android":"levelo://app?vid=691d917d-180c-48ac-9a83-6694789ad2a1","ios":"levelo://app?vid=691d917d-180c-48ac-9a83-6694789ad2a1"},"vehicle_type_id":"4","last_reported":1741860667,"current_range_meters":14000,"station_id":"","pricing_plan_id":"cebpf4jnsgd1na2vs0mg"},{"bike_id":"44589c34-8c32-4ea0-a7e2-cc6ddbabde86","system_id":"levelo_inurba_marseille","lat":43.29852,"lon":5.36285,"is_reserved":false,"is_disabled":false,"rental_uris":{"android":"levelo://app?vid=44589c34-8c32-4ea0-a7e2-cc6ddbabde86","ios":"levelo://app?vid=44589c34-8c32-4ea0-a7e2-cc6ddbabde86"},"vehicle_type_id":"4","last_reported":1741860667,"current_range_meters":14000,"station_id":"ce4bgpp2rcd13ifvqc3g","pricing_plan_id":"cebpf4jnsgd1na2vs0mg"},{"bike_id":"7d2050ec-b295-4c87-99df-cd9cba63916d","system_id":"levelo_inurba_marseille","lat":43.25861,"lon":5.39905,"is_reserved":false,"is_disabled":false,"rental_uris":{"android":"levelo://app?vid=7d2050ec-b295-4c87-99df-cd9cba63916d","ios":"levelo://app?vid=7d2050ec-b295-4c87-99df-cd9cba63916d"},"vehicle_type_id":"4","last_reported":1741860667,"current_range_meters":14000,"station_id":"ce4bhl92rcd13ifvqghg","pricing_plan_id":"cebpf4jnsgd1na2vs0mg"},{"bike_id":"e3565dcf-4d34-49d7-919b-1234920ea466","system_id":"levelo_inurba_marseille","lat":43.33746,"lon":5.3745,"is_reserved":false,"is_disabled":false,"rental_uris":{"android":"levelo://app?vid=e3565dcf-4d34-49d7-919b-1234920ea466","ios":"levelo://app?vid=e3565dcf-4d34-49d7-919b-1234920ea466"},"vehicle_type_id":"4","last_reported":1741860667,"current_range_meters":14000,"station_id":"","pricing_plan_id":"cebpf4jnsgd1na2vs0mg"},{"bike_id":"e1caa5c1-3f95-4def-a2db-a132daf73cbc","system_id":"levelo_inurba_marseille","lat":43.30524,"lon":5.36532,"is_reserved":false,"is_disabled":false,"rental_uris":{"android":"levelo://app?vid=e1caa5c1-3f95-4def-a2db-a132daf73cbc","ios":"levelo://app?vid=e1caa5c1-3f95-4def-a2db-a132daf73cbc"},"vehicle_type_id":"4","last_reported":1741860667,"current_range_meters":14400,"station_id":"ce4bgs12rcd13ifvqcag","pricing_plan_id":"cebpf4jnsgd1na2vs0mg"},{"bike_id":"ef3795b7-4cf8-45c2-aad4-bdec14eb51a9","system_id":"levelo_inurba_marseille","lat":43.30594,"lon":5.3673,"is_reserved":false,"is_disabled":false,"rental_uris":{"android":"levelo://app?vid=ef3795b7-4cf8-45c2-aad4-bdec14eb51a9","ios":"levelo://app?vid=ef3795b7-4cf8-45c2-aad4-bdec14eb51a9"},"vehicle_type_id":"4","last_reported":1741860667,"current_range_meters":14400,"station_id":"ce4bgrp2rcd13ifvqc9g","pricing_plan_id":"cebpf4jnsgd1na2vs0mg"},{"bike_id":"bd619a36-f1d3-4aef-bc4e-de195403abb2","system_id":"levelo_inurba_marseille","lat":43.29988,"lon":5.41322,"is_reserved":false,"is_disabled":false,"rental_uris":{"android":"levelo://app?vid=bd619a36-f1d3-4aef-bc4e-de195403abb2","ios":"levelo://app?vid=bd619a36-f1d3-4aef-bc4e-de195403abb2"},"vehicle_type_id":"4","last_reported":1741860667,"current_range_meters":14400,"station_id":"ce4bhp12rcd13ifvqh9g","pricing_plan_id":"cebpf4jnsgd1na2vs0mg"},{"bike_id":"f3270881-6269-49ee-ab34-f91d841ff0a7","system_id":"levelo_inurba_marseille","lat":43.24866,"lon":5.40653,"is_reserved":false,"is_disabled":false,"rental_uris":{"android":"levelo://app?vid=f3270881-6269-49ee-ab34-f91d841ff0a7","ios":"levelo://app?vid=f3270881-6269-49ee-ab34-f91d841ff0a7"},"vehicle_type_id":"4","last_reported":1741860667,"current_range_meters":14400,"station_id":"","pricing_plan_id":"cebpf4jnsgd1na2vs0mg"},{"bike_id":"e7d9823d-900a-4c17-b02f-a50236e6a928","system_id":"levelo_inurba_marseille","lat":43.24071,"lon":5.377644,"is_reserved":false,"is_disabled":false,"rental_uris":{"android":"levelo://app?vid=e7d9823d-900a-4c17-b02f-a50236e6a928","ios":"levelo://app?vid=e7d9823d-900a-4c17-b02f-a50236e6a928"},"vehicle_type_id":"4","last_reported":1741860667,"current_range_meters":14400,"station_id":"ce4bhnp2rcd13ifvqgvg","pricing_plan_id":"cebpf4jnsgd1na2vs0mg"},{"bike_id":"e6c69541-7509-46db-af31-a0c27ab2219e","system_id":"levelo_inurba_marseille","lat":43.25923,"lon":5.40913,"is_reserved":false,"is_disabled":false,"rental_uris":{"android":"levelo://app?vid=e6c69541-7509-46db-af31-a0c27ab2219e","ios":"levelo://app?vid=e6c69541-7509-46db-af31-a0c27ab2219e"},"vehicle_type_id":"4","last_reported":1741860667,"current_range_meters":14800,"station_id":"ce4bhm92rcd13ifvqglg","pricing_plan_id":"cebpf4jnsgd1na2vs0mg"},{"bike_id":"2dc76b83-d508-416c-8c4e-06a457c12249","system_id":"levelo_inurba_marseille","lat":43.29097,"lon":5.38149,"is_reserved":false,"is_disabled":false,"rental_uris":{"android":"levelo://app?vid=2dc76b83-d508-416c-8c4e-06a457c12249","ios":"levelo://app?vid=2dc76b83-d508-416c-8c4e-06a457c12249"},"vehicle_type_id":"4","last_reported":1741860667,"current_range_meters":14800,"station_id":"ce4bh512rcd13ifvqe2g","pricing_plan_id":"cebpf4jnsgd1na2vs0mg"},{"bike_id":"8f81d07b-74f3-4217-9d5b-4bfebf018a20","system_id":"levelo_inurba_marseille","lat":43.24067,"lon":5.37707,"is_reserved":false,"is_disabled":false,"rental_uris":{"android":"levelo://app?vid=8f81d07b-74f3-4217-9d5b-4bfebf018a20","ios":"levelo://app?vid=8f81d07b-74f3-4217-9d5b-4bfebf018a20"},"vehicle_type_id":"4","last_reported":1741860667,"current_range_meters":14800,"station_id":"ce4bhnp2rcd13ifvqgvg","pricing_plan_id":"cebpf4jnsgd1na2vs0mg"},{"bike_id":"a03dac9a-8a6b-41ed-8ffc-4753f7d5a883","system_id":"levelo_inurba_marseille","lat":43.27497,"lon":5.42454,"is_reserved":false,"is_disabled":false,"rental_uris":{"android":"levelo://app?vid=a03dac9a-8a6b-41ed-8ffc-4753f7d5a883","ios":"levelo://app?vid=a03dac9a-8a6b-41ed-8ffc-4753f7d5a883"},"vehicle_type_id":"4","last_reported":1741860667,"current_range_meters":14800,"station_id":"ce4bhn92rcd13ifvqgrg","pricing_plan_id":"cebpf4jnsgd1na2vs0mg"},{"bike_id":"a7d16e14-41c9-4c64-af39-2989a9e76526","system_id":"levelo_inurba_marseille","lat":43.24068,"lon":5.37763,"is_reserved":false,"is_disabled":false,"rental_uris":{"android":"levelo://app?vid=a7d16e14-41c9-4c64-af39-2989a9e76526","ios":"levelo://app?vid=a7d16e14-41c9-4c64-af39-2989a9e76526"},"vehicle_type_id":"4","last_reported":1741860667,"current_range_meters":14800,"station_id":"ce4bhnp2rcd13ifvqgvg","pricing_plan_id":"cebpf4jnsgd1na2vs0mg"},{"bike_id":"b0a1739b-5fbc-47c1-a250-d773e52344ad","system_id":"levelo_inurba_marseille","lat":43.250923,"lon":5.410567,"is_reserved":false,"is_disabled":false,"rental_uris":{"android":"levelo://app?vid=b0a1739b-5fbc-47c1-a250-d773e52344ad","ios":"levelo://app?vid=b0a1739b-5fbc-47c1-a250-d773e52344ad"},"vehicle_type_id":"4","last_reported":1741860667,"current_range_meters":15200,"station_id":"","pricing_plan_id":"cebpf4jnsgd1na2vs0mg"},{"bike_id":"9aa6d630-446c-4daf-8886-0710d80499f7","system_id":"levelo_inurba_marseille","lat":43.27488,"lon":5.42466,"is_reserved":false,"is_disabled":false,"rental_uris":{"android":"levelo://app?vid=9aa6d630-446c-4daf-8886-0710d80499f7","ios":"levelo://app?vid=9aa6d630-446c-4daf-8886-0710d80499f7"},"vehicle_type_id":"4","last_reported":1741860667,"current_range_meters":15200,"station_id":"ce4bhn92rcd13ifvqgrg","pricing_plan_id":"cebpf4jnsgd1na2vs0mg"},{"bike_id":"74e3fa8e-c88d-4993-b957-30cabff8c92d","system_id":"levelo_inurba_marseille","lat":43.30547,"lon":5.36514,"is_reserved":false,"is_disabled":false,"rental_uris":{"android":"levelo://app?vid=74e3fa8e-c88d-4993-b957-30cabff8c92d","ios":"levelo://app?vid=74e3fa8e-c88d-4993-b957-30cabff8c92d"},"vehicle_type_id":"4","last_reported":1741860667,"current_range_meters":15200,"station_id":"ce4bgs12rcd13ifvqcag","pricing_plan_id":"cebpf4jnsgd1na2vs0mg"},{"bike_id":"afaf4387-b718-48a1-84c0-3f0669b200da","system_id":"levelo_inurba_marseille","lat":43.29566,"lon":5.42284,"is_reserved":false,"is_disabled":false,"rental_uris":{"android":"levelo://app?vid=afaf4387-b718-48a1-84c0-3f0669b200da","ios":"levelo://app?vid=afaf4387-b718-48a1-84c0-3f0669b200da"},"vehicle_type_id":"4","last_reported":1741860667,"current_range_meters":15200,"station_id":"ce4bhph2rcd13ifvqhdg","pricing_plan_id":"cebpf4jnsgd1na2vs0mg"},{"bike_id":"12fc2ce9-9dd7-40d2-9aa3-8a250de09b31","system_id":"levelo_inurba_marseille","lat":43.2669,"lon":5.38264,"is_reserved":false,"is_disabled":false,"rental_uris":{"android":"levelo://app?vid=12fc2ce9-9dd7-40d2-9aa3-8a250de09b31","ios":"levelo://app?vid=12fc2ce9-9dd7-40d2-9aa3-8a250de09b31"},"vehicle_type_id":"4","last_reported":1741860667,"current_range_meters":15200,"station_id":"ce4bhg92rcd13ifvqf90","pricing_plan_id":"cebpf4jnsgd1na2vs0mg"},{"bike_id":"1cc5c33e-2453-4e40-9d01-c10e034768a0","system_id":"levelo_inurba_marseille","lat":43.230556,"lon":5.354945,"is_reserved":false,"is_disabled":false,"rental_uris":{"android":"levelo://app?vid=1cc5c33e-2453-4e40-9d01-c10e034768a0","ios":"levelo://app?vid=1cc5c33e-2453-4e40-9d01-c10e034768a0"},"vehicle_type_id":"4","last_reported":1741860667,"current_range_meters":15200,"station_id":"cpo3342slgdg3j2ifvpg","pricing_plan_id":"cebpf4jnsgd1na2vs0mg"},{"bike_id":"2692ecec-5758-4add-8b2c-3833eb14a18b","system_id":"levelo_inurba_marseille","lat":43.31113,"lon":5.37786,"is_reserved":false,"is_disabled":false,"rental_uris":{"android":"levelo://app?vid=2692ecec-5758-4add-8b2c-3833eb14a18b","ios":"levelo://app?vid=2692ecec-5758-4add-8b2c-3833eb14a18b"},"vehicle_type_id":"4","last_reported":1741860667,"current_range_meters":15200,"station_id":"ce4bgt92rcd13ifvqcg0","pricing_plan_id":"cebpf4jnsgd1na2vs0mg"},{"bike_id":"6963eebe-2196-4471-a653-1e7e827e8ce0","system_id":"levelo_inurba_marseille","lat":43.30296,"lon":5.40151,"is_reserved":false,"is_disabled":true,"rental_uris":{"android":"levelo://app?vid=6963eebe-2196-4471-a653-1e7e827e8ce0","ios":"levelo://app?vid=6963eebe-2196-4471-a653-1e7e827e8ce0"},