{"last_updated":1702026453,"ttl":30,"version":"2.2","data":{"bikes":[{"bike_id":"cb1d61cc-7556-42fd-88f8-5c8c49d4d3db","system_id":"levelo_inurba_marseille","lat":43.31341,"lon":5.367098,"is_reserved":false,"is_disabled":false,"rental_uris":{"android":"levelo://app?vid=cb1d61cc-7556-42fd-88f8-5c8c49d4d3db","ios":"levelo://app?vid=cb1d61cc-7556-42fd-88f8-5c8c49d4d3db"},"vehicle_type_id":"4","last_reported":1702026453,"current_range_meters":28400,"station_id":"ce4bgr92rcd13ifvqc6g","pricing_plan_id":"free"},{"bike_id":"4cc92d93-b1b6-4f86-84b9-5c43d6d332d5","system_id":"levelo_inurba_marseille","lat":43.31341,"lon":5.367098,"is_reserved":false,"is_disabled":false,"rental_uris":{"android":"levelo://app?vid=4cc92d93-b1b6-4f86-84b9-5c43d6d332d5","ios":"levelo://app?vid=4cc92d93-b1b6-4f86-84b9-5c43d6d332d5"},"vehicle_type_id":"4","last_reported":1702026453,"current_range_meters":21200,"station_id":"ce4bgr92rcd13ifvqc6g","pricing_plan_id":"free"},{"bike_id":"62fb5385-2c5d-4c9d-b743-187bb4fbb192","system_id":"levelo_inurba_marseille","lat":43.313391,"lon":5.36706,"is_reserved":false,"is_disabled":false,"rental_uris":{"android":"levelo://app?vid=62fb5385-2c5d-4c9d-b743-187bb4fbb192","ios":"levelo://app?vid=62fb5385-2c5d-4c9d-b743-187bb4fbb192"},"vehicle_type_id":"4","last_reported":1702026453,"current_range_meters":31200,"station_id":"ce4bgr92rcd13ifvqc6g","pricing_plan_id":"free"},{"bike_id":"c62abb18-2d16-40d8-ad0c-83d7d3660624","system_id":"levelo_inurba_marseille","lat":43.312239,"lon":5.368562,"is_reserved":false,"is_disabled":false,"rental_uris":{"android":"levelo://app?vid=c62abb18-2d16-40d8-ad0c-83d7d3660624","ios":"levelo://app?vid=c62abb18-2d16-40d8-ad0c-83d7d3660624"},"vehicle_type_id":"4","last_reported":1702026453,"current_range_meters":22000,"station_id":"ce4bgl92rcd13ifvqbq0","pricing_plan_id":"free"},{"bike_id":"c18eeac4-26f3-4d7f-a37a-dbf41160ad67","system_id":"levelo_inurba_marseille","lat":43.312239,"lon":5.368562,"is_reserved":false,"is_disabled":false,"rental_uris":{"android":"levelo://app?vid=c18eeac4-26f3-4d7f-a37a-dbf41160ad67","ios":"levelo://app?vid=c18eeac4-26f3-4d7f-a37a-dbf41160ad67"},"vehicle_type_id":"4","last_reported":1702026453,"current_range_meters":26000,"station_id":"ce4bgl92rcd13ifvqbq0","pricing_plan_id":"free"},{"bike_id":"0a953cc7-7432-4ee8-a4ad-e589f76abf36","system_id":"levelo_inurba_marseille","lat":43.314811,"lon":5.373103,"is_reserved":false,"is_disabled":false,"rental_uris":{"android":"levelo://app?vid=0a953cc7-7432-4ee8-a4ad-e589f76abf36","ios":"levelo://app?vid=0a953cc7-7432-4ee8-a4ad-e589f76abf36"},"vehicle_type_id":"4","last_reported":1702026453,"current_range_meters":15200,"station_id":"ce4bgt12rcd13ifvqcd0","pricing_plan_id":"free"},{"bike_id":"09a9f57e-6ef6-4dfd-913f-be9d43135967","system_id":"levelo_inurba_marseille","lat":43.3053,"lon":5.36716,"is_reserved":false,"is_disabled":false,"rental_uris":{"android":"levelo://app?vid=09a9f57e-6ef6-4dfd-913f-be9d43135967","ios":"levelo://app?vid=09a9f57e-6ef6-4dfd-913f-be9d43135967"},"vehicle_type_id":"4","last_reported":1702026453,"current_range_meters":24800,"station_id":"ce4bgrp2rcd13ifvqc9g","pricing_plan_id":"free"},{"bike_id":"fedb3e29-bcf2-4166-90e4-d598ddafdc95","system_id":"levelo_inurba_marseille","lat":43.30527,"lon":5.36702,"is_reserved":false,"is_disabled":false,"rental_uris":{"android":"levelo://app?vid=fedb3e29-bcf2-4166-90e4-d598ddafdc95","ios":"levelo://app?vid=fedb3e29-bcf2-4166-90e4-d598ddafdc95"},"vehicle_type_id":"4","last_reported":1702026453,"current_range_meters":29600,"station_id":"ce4bgrp2rcd13ifvqc9g","pricing_plan_id":"free"},{"bike_id":"83fbf89c-062e-46be-ae77-900d06221fc3","system_id":"levelo_inurba_marseille","lat":43.30526,"lon":5.36703,"is_reserved":false,"is_disabled":false,"rental_uris":{"android":"levelo://app?vid=83fbf89c-062e-46be-ae77-900d06221fc3","ios":"levelo://app?vid=83fbf89c-062e-46be-ae77-900d06221fc3"},"vehicle_type_id":"4","last_reported":1702026453,"current_range_meters":23600,"station_id":"ce4bgrp2rcd13ifvqc9g","pricing_plan_id":"free"},{"bike_id":"c5d5dd7e-bae5-40c8-bd8e-b79f470b8c06","system_id":"levelo_inurba_marseille","lat":43.305706,"lon":5.365654,"is_reserved":false,"is_disabled":false,"rental_uris":{"android":"levelo://app?vid=c5d5dd7e-bae5-40c8-bd8e-b79f470b8c06","ios":"levelo://app?vid=c5d5dd7e-bae5-40c8-bd8e-b79f470b8c06"},"vehicle_type_id":"4","last_reported":1702026453,"current_range_meters":18800,"station_id":"ce4bgs12rcd13ifvqcag","pricing_plan_id":"free"},{"bike_id":"a3fc864d-3e77-4381-970e-aeca670d7eea","system_id":"levelo_inurba_marseille","lat":43.305714,"lon":5.365633,"is_reserved":false,"is_disabled":false,"rental_uris":{"android":"levelo://app?vid=a3fc864d-3e77-4381-970e-aeca670d7eea","ios":"levelo://app?vid=a3fc864d-3e77-4381-970e-aeca670d7eea"},"vehicle_type_id":"4","last_reported":1702026453,"current_range_meters":23600,"station_id":"ce4bgs12rcd13ifvqcag","pricing_plan_id":"free"},{"bike_id":"f9146fd0-e73b-49a9-8e63-2fda003b5559","system_id":"levelo_inurba_marseille","lat":43.31126,"lon":5.37763,"is_reserved":false,"is_disabled":false,"rental_uris":{"android":"levelo://app?vid=f9146fd0-e73b-49a9-8e63-2fda003b5559","ios":"levelo://app?vid=f9146fd0-e73b-49a9-8e63-2fda003b5559"},"vehicle_type_id":"4","last_reported":1702026453,"current_range_meters":23200,"station_id":"ce4bgt92rcd13ifvqcg0","pricing_plan_id":"free"},{"bike_id":"80df9bdc-2dad-48a3-8150-404e8d362f3a","system_id":"levelo_inurba_marseille","lat":43.307945,"lon":5.376487,"is_reserved":false,"is_disabled":false,"rental_uris":{"android":"levelo://app?vid=80df9bdc-2dad-48a3-8150-404e8d362f3a","ios":"levelo://app?vid=80df9bdc-2dad-48a3-8150-404e8d362f3a"},"vehicle_type_id":"4","last_reported":1702026453,"current_range_meters":22400,"station_id":"ce4bgv92rcd13ifvqcq0","pricing_plan_id":"free"},{"bike_id":"adf146c5-e4e1-4668-9a33-042940925130","system_id":"levelo_inurba_marseille","lat":43.31351,"lon":5.37909,"is_reserved":false,"is_disabled":false,"rental_uris":{"android":"levelo://app?vid=adf146c5-e4e1-4668-9a33-042940925130","ios":"levelo://app?vid=adf146c5-e4e1-4668-9a33-042940925130"},"vehicle_type_id":"4","last_reported":1702026453,"current_range_meters":0,"station_id":"","pricing_plan_id":"free"},{"bike_id":"7c35d63d-f967-495f-b9fe-b0094fb3b888","system_id":"levelo_inurba_marseille","lat":43.3032,"lon":5.36894,"is_reserved":false,"is_disabled":false,"rental_uris":{"android":"levelo://app?vid=7c35d63d-f967-495f-b9fe-b0094fb3b888","ios":"levelo://app?vid=7c35d63d-f967-495f-b9fe-b0094fb3b888"},"vehicle_type_id":"4","last_reported":1702026453,"current_range_meters":31200,"station_id":"ce4bgqh2rcd13ifvqc5g","pricing_plan_id":"free"},{"bike_id":"1c5bd8ad-09cd-46a6-a17b-15bc893af4b2","system_id":"levelo_inurba_marseille","lat":43.30316,"lon":5.36901,"is_reserved":false,"is_disabled":false,"rental_uris":{"android":"levelo://app?vid=1c5bd8ad-09cd-46a6-a17b-15bc893af4b2","ios":"levelo://app?vid=1c5bd8ad-09cd-46a6-a17b-15bc893af4b2"},"vehicle_type_id":"4","last_reported":1702026453,"current_range_meters":31200,"station_id":"ce4bgqh2rcd13ifvqc5g","pricing_plan_id":"free"},{"bike_id":"796977cc-15a4-414a-aa19-2709631b7836","system_id":"levelo_inurba_marseille","lat":43.303046,"lon":5.368981,"is_reserved":false,"is_disabled":false,"rental_uris":{"android":"levelo://app?vid=796977cc-15a4-414a-aa19-2709631b7836","ios":"levelo://app?vid=796977cc-15a4-414a-aa19-2709631b7836"},"vehicle_type_id":"4","last_reported":1702026453,"current_range_meters":30400,"station_id":"ce4bgqh2rcd13ifvqc5g","pricing_plan_id":"free"},{"bike_id":"1ea60f58-75f7-4484-b705-1156df4b02ad","system_id":"levelo_inurba_marseille","lat":43.30281,"lon":5.373453,"is_reserved":false,"is_disabled":false,"rental_uris":{"android":"levelo://app?vid=1ea60f58-75f7-4484-b705-1156df4b02ad","ios":"levelo://app?vid=1ea60f58-75f7-4484-b705-1156df4b02ad"},"vehicle_type_id":"4","last_reported":1702026453,"current_range_meters":1600,"station_id":"","pricing_plan_id":"free"},{"bike_id":"bdf7f841-1ac7-4eed-b40b-4ff3167f9b14","system_id":"levelo_inurba_marseille","lat":43.304625,"lon":5.378938,"is_reserved":false,"is_disabled":false,"rental_uris":{"android":"levelo://app?vid=bdf7f841-1ac7-4eed-b40b-4ff3167f9b14","ios":"levelo://app?vid=bdf7f841-1ac7-4eed-b40b-4ff3167f9b14"},"vehicle_type_id":"4","last_reported":1702026453,"current_range_meters":28000,"station_id":"ce4bgup2rcd13ifvqcn0","pricing_plan_id":"free"},{"bike_id":"a7b0f9ea-0bcd-424a-8cd9-25f19c0f17eb","system_id":"levelo_inurba_marseille","lat":43.304606,"lon":5.379026,"is_reserved":false,"is_disabled":false,"rental_uris":{"android":"levelo://app?vid=a7b0f9ea-0bcd-424a-8cd9-25f19c0f17eb","ios":"levelo://app?vid=a7b0f9ea-0bcd-424a-8cd9-25f19c0f17eb"},"vehicle_type_id":"4","last_reported":1702026453,"current_range_meters":24000,"station_id":"ce4bgup2rcd13ifvqcn0","pricing_plan_id":"free"},{"bike_id":"c3b0dba2-651a-4c13-8863-238f71c84bd3","system_id":"levelo_inurba_marseille","lat":43.304606,"lon":5.379026,"is_reserved":false,"is_disabled":false,"rental_uris":{"android":"levelo://app?vid=c3b0dba2-651a-4c13-8863-238f71c84bd3","ios":"levelo://app?vid=c3b0dba2-651a-4c13-8863-238f71c84bd3"},"vehicle_type_id":"4","last_reported":1702026453,"current_range_meters":19200,"station_id":"ce4bgup2rcd13ifvqcn0","pricing_plan_id":"free"},{"bike_id":"41fa312d-985f-47a8-8212-22ce13ae5df8","system_id":"levelo_inurba_marseille","lat":43.302784,"lon":5.377158,"is_reserved":false,"is_disabled":false,"rental_uris":{"android":"levelo://app?vid=41fa312d-985f-47a8-8212-22ce13ae5df8","ios":"levelo://app?vid=41fa312d-985f-47a8-8212-22ce13ae5df8"},"vehicle_type_id":"4","last_reported":1702026453,"current_range_meters":28800,"station_id":"ce4bguh2rcd13ifvqcj0","pricing_plan_id":"free"},{"bike_id":"8394df41-349d-4d83-a3f9-03c1910c00d4","system_id":"levelo_inurba_marseille","lat":43.30143,"lon":5.37413,"is_reserved":false,"is_disabled":false,"rental_uris":{"android":"levelo://app?vid=8394df41-349d-4d83-a3f9-03c1910c00d4","ios":"levelo://app?vid=8394df41-349d-4d83-a3f9-03c1910c00d4"},"vehicle_type_id":"4","last_reported":1702026453,"current_range_meters":27600,"station_id":"ce4bgs92rcd13ifvqcc0","pricing_plan_id":"free"},{"bike_id":"7e9b28ca-b290-4623-a504-88527bf521f0","system_id":"levelo_inurba_marseille","lat":43.31997,"lon":5.38151,"is_reserved":false,"is_disabled":false,"rental_uris":{"android":"levelo://app?vid=7e9b28ca-b290-4623-a504-88527bf521f0","ios":"levelo://app?vid=7e9b28ca-b290-4623-a504-88527bf521f0"},"vehicle_type_id":"4","last_reported":1702026453,"current_range_meters":24000,"station_id":"ce4bhr12rcd13ifvqhpg","pricing_plan_id":"free"},{"bike_id":"8e6bcc22-26a3-4f21-b99e-ec3014f3e345","system_id":"levelo_inurba_marseille","lat":43.319971,"lon":5.381516,"is_reserved":false,"is_disabled":false,"rental_uris":{"android":"levelo://app?vid=8e6bcc22-26a3-4f21-b99e-ec3014f3e345","ios":"levelo://app?vid=8e6bcc22-26a3-4f21-b99e-ec3014f3e345"},"vehicle_type_id":"4","last_reported":1702026453,"current_range_meters":14400,"station_id":"ce4bhr12rcd13ifvqhpg","pricing_plan_id":"free"},{"bike_id":"9ee0ef7a-8d9c-4d78-8ae5-64e12b708d26","system_id":"levelo_inurba_marseille","lat":43.319997,"lon":5.381594,"is_reserved":false,"is_disabled":false,"rental_uris":{"android":"levelo://app?vid=9ee0ef7a-8d9c-4d78-8ae5-64e12b708d26","ios":"levelo://app?vid=9ee0ef7a-8d9c-4d78-8ae5-64e12b708d26"},"vehicle_type_id":"4","last_reported":1702026453,"current_range_meters":0,"station_id":"ce4bhr12rcd13ifvqhpg","pricing_plan_id":"free"},{"bike_id":"a49b99ee-38eb-49b5-978d-00cf198fff08","system_id":"levelo_inurba_marseille","lat":43.299648,"lon":5.366322,"is_reserved":false,"is_disabled":false,"rental_uris":{"android":"levelo://app?vid=a49b99ee-38eb-49b5-978d-00cf198fff08","ios":"levelo://app?vid=a49b99ee-38eb-49b5-978d-00cf198fff08"},"vehicle_type_id":"4","last_reported":1702026453,"current_range_meters":20400,"station_id":"","pricing_plan_id":"free"},{"bike_id":"b7e05232-6445-4335-9a14-a9c0bf0a5e9b","system_id":"levelo_inurba_marseille","lat":43.313571,"lon":5.384829,"is_reserved":false,"is_disabled":false,"rental_uris":{"android":"levelo://app?vid=b7e05232-6445-4335-9a14-a9c0bf0a5e9b","ios":"levelo://app?vid=b7e05232-6445-4335-9a14-a9c0bf0a5e9b"},"vehicle_type_id":"4","last_reported":1702026453,"current_range_meters":17200,"station_id":"ce4bgt92rcd13ifvqcf0","pricing_plan_id":"free"},{"bike_id":"9deae512-4eb1-4849-a597-c9f18c863d97","system_id":"levelo_inurba_marseille","lat":43.299724,"lon":5.371829,"is_reserved":false,"is_disabled":false,"rental_uris":{"android":"levelo://app?vid=9deae512-4eb1-4849-a597-c9f18c863d97","ios":"levelo://app?vid=9deae512-4eb1-4849-a597-c9f18c863d97"},"vehicle_type_id":"4","last_reported":1702026453,"current_range_meters":21200,"station_id":"ce4bgr92rcd13ifvqc7g","pricing_plan_id":"free"},{"bike_id":"23d9cdc8-3d7c-43b5-8102-e0ecfae80b21","system_id":"levelo_inurba_marseille","lat":43.298433,"lon":5.362774,"is_reserved":false,"is_disabled":false,"rental_uris":{"android":"levelo://app?vid=23d9cdc8-3d7c-43b5-8102-e0ecfae80b21","ios":"levelo://app?vid=23d9cdc8-3d7c-43b5-8102-e0ecfae80b21"},"vehicle_type_id":"4","last_reported":1702026453,"current_range_meters":29200,"station_id":"ce4bgpp2rcd13ifvqc3g","pricing_plan_id":"free"},{"bike_id":"f6035d5e-4139-4d6c-a59b-1981801100fa","system_id":"levelo_inurba_marseille","lat":43.298433,"lon":5.362774,"is_reserved":false,"is_disabled":false,"rental_uris":{"android":"levelo://app?vid=f6035d5e-4139-4d6c-a59b-1981801100fa","ios":"levelo://app?vid=f6035d5e-4139-4d6c-a59b-1981801100fa"},"vehicle_type_id":"4","last_reported":1702026453,"current_range_meters":8800,"station_id":"ce4bgpp2rcd13ifvqc3g","pricing_plan_id":"free"},{"bike_id":"ab9817ae-ab24-4dab-8e0b-05ae4b3f2e93","system_id":"levelo_inurba_marseille","lat":43.298433,"lon":5.362774,"is_reserved":false,"is_disabled":false,"rental_uris":{"android":"levelo://app?vid=ab9817ae-ab24-4dab-8e0b-05ae4b3f2e93","ios":"levelo://app?vid=ab9817ae-ab24-4dab-8e0b-05ae4b3f2e93"},"vehicle_type_id":"4","last_reported":1702026453,"current_range_meters":20000,"station_id":"ce4bgpp2rcd13ifvqc3g","pricing_plan_id":"free"},{"bike_id":"05c3a9b0-e2cd-486a-818c-6d72d94fe576","system_id":"levelo_inurba_marseille","lat":43.298433,"lon":5.362774,"is_reserved":false,"is_disabled":false,"rental_uris":{"android":"levelo://app?vid=05c3a9b0-e2cd-486a-818c-6d72d94fe576","ios":"levelo://app?vid=05c3a9b0-e2cd-486a-818c-6d72d94fe576"},"vehicle_type_id":"4","last_reported":1702026453,"current_range_meters":30000,"station_id":"ce4bgpp2rcd13ifvqc3g","pricing_plan_id":"free"},{"bike_id":"3dcd4a73-468d-493a-bf11-93ceddd109f8","system_id":"levelo_inurba_marseille","lat":43.322872,"lon":5.382756,"is_reserved":false,"is_disabled":false,"rental_uris":{"android":"levelo://app?vid=3dcd4a73-468d-493a-bf11-93ceddd109f8","ios":"levelo://app?vid=3dcd4a73-468d-493a-bf11-93ceddd109f8"},"vehicle_type_id":"4","last_reported":1702026453,"current_range_meters":30400,"station_id":"ce4bhr12rcd13ifvqhqg","pricing_plan_id":"free"},{"bike_id":"286045f1-cbca-451b-8ce9-4e291e38161e","system_id":"levelo_inurba_marseille","lat":43.297163,"lon":5.365866,"is_reserved":false,"is_disabled":false,"rental_uris":{"android":"levelo://app?vid=286045f1-cbca-451b-8ce9-4e291e38161e","ios":"levelo://app?vid=286045f1-cbca-451b-8ce9-4e291e38161e"},"vehicle_type_id":"4","last_reported":1702026453,"current_range_meters":27200,"station_id":"ce4bgn12rcd13ifvqbt0","pricing_plan_id":"free"},{"bike_id":"92dc65d6-6823-4de3-93d4-056f738f090c","system_id":"levelo_inurba_marseille","lat":43.316538,"lon":5.38954,"is_reserved":false,"is_disabled":false,"rental_uris":{"android":"levelo://app?vid=92dc65d6-6823-4de3-93d4-056f738f090c","ios":"levelo://app?vid=92dc65d6-6823-4de3-93d4-056f738f090c"},"vehicle_type_id":"4","last_reported":1702026453,"current_range_meters":2400,"station_id":"","pricing_plan_id":"free"},{"bike_id":"d1307e43-628c-409e-9c23-9d78c232078d","system_id":"levelo_inurba_marseille","lat":43.29573,"lon":5.367355,"is_reserved":false,"is_disabled":false,"rental_uris":{"android":"levelo://app?vid=d1307e43-628c-409e-9c23-9d78c232078d","ios":"levelo://app?vid=d1307e43-628c-409e-9c23-9d78c232078d"},"vehicle_type_id":"4","last_reported":1702026453,"current_range_meters":26000,"station_id":"ce4bgph2rcd13ifvqc2g","pricing_plan_id":"free"},{"bike_id":"41ea995b-d8e3-4f8c-ba5b-d82af1d807d2","system_id":"levelo_inurba_marseille","lat":43.299118,"lon":5.381374,"is_reserved":false,"is_disabled":false,"rental_uris":{"android":"levelo://app?vid=41ea995b-d8e3-4f8c-ba5b-d82af1d807d2","ios":"levelo://app?vid=41ea995b-d8e3-4f8c-ba5b-d82af1d807d2"},"vehicle_type_id":"4","last_reported":1702026453,"current_range_meters":26400,"station_id":"ce4bgj12rcd13ifvqbc0","pricing_plan_id":"free"},{"bike_id":"8545a072-55fd-40c3-b910-1f48bb5c5543","system_id":"levelo_inurba_marseille","lat":43.309589,"lon":5.390258,"is_reserved":false,"is_disabled":false,"rental_uris":{"android":"levelo://app?vid=8545a072-55fd-40c3-b910-1f48bb5c5543","ios":"levelo://app?vid=8545a072-55fd-40c3-b910-1f48bb5c5543"},"vehicle_type_id":"4","last_reported":1702026453,"current_range_meters":25600,"station_id":"ce4bgup2rcd13ifvqco0","pricing_plan_id":"free"},{"bike_id":"3da42c83-2273-47f5-9a06-03822509ad02","system_id":"levelo_inurba_marseille","lat":43.309589,"lon":5.390258,"is_reserved":false,"is_disabled":false,"rental_uris":{"android":"levelo://app?vid=3da42c83-2273-47f5-9a06-03822509ad02","ios":"levelo://app?vid=3da42c83-2273-47f5-9a06-03822509ad02"},"vehicle_type_id":"4","last_reported":1702026453,"current_range_meters":2800,"station_id":"ce4bgup2rcd13ifvqco0","pricing_plan_id":"free"},{"bike_id":"2eccf32c-af8c-4d38-b729-0d82a57f0acd","system_id":"levelo_inurba_marseille","lat":43.309589,"lon":5.390258,"is_reserved":false,"is_disabled":false,"rental_uris":{"android":"levelo://app?vid=2eccf32c-af8c-4d38-b729-0d82a57f0acd","ios":"levelo://app?vid=2eccf32c-af8c-4d38-b729-0d82a57f0acd"},"vehicle_type_id":"4","last_reported":1702026453,"current_range_meters":29200,"station_id":"ce4bgup2rcd13ifvqco0","pricing_plan_id":"free"},{"bike_id":"351a932d-0306-47e5-9066-c97d13aa5a20","system_id":"levelo_inurba_marseille","lat":43.309589,"lon":5.390258,"is_reserved":false,"is_disabled":false,"rental_uris":{"android":"levelo://app?vid=351a932d-0306-47e5-9066-c97d13aa5a20","ios":"levelo://app?vid=351a932d-0306-47e5-9066-c97d13aa5a20"},"vehicle_type_id":"4","last_reported":1702026453,"current_range_meters":20000,"station_id":"ce4bgup2rcd13ifvqco0","pricing_plan_id":"free"},{"bike_id":"c4a72437-c625-49b8-9de9-c98b0bb498a0","system_id":"levelo_inurba_marseille","lat":43.309589,"lon":5.390258,"is_reserved":false,"is_disabled":false,"rental_uris":{"android":"levelo://app?vid=c4a72437-c625-49b8-9de9-c98b0bb498a0","ios":"levelo://app?vid=c4a72437-c625-49b8-9de9-c98b0bb498a0"},"vehicle_type_id":"4","last_reported":1702026453,"current_range_meters":26000,"station_id":"ce4bgup2rcd13ifvqco0","pricing_plan_id":"free"},{"bike_id":"6467b236-f162-4266-9ca9-da6e02ed2ece","system_id":"levelo_inurba_marseille","lat":43.298037,"lon":5.381066,"is_reserved":false,"is_disabled":false,"rental_uris":{"android":"levelo://app?vid=6467b236-f162-4266-9ca9-da6e02ed2ece","ios":"levelo://app?vid=6467b236-f162-4266-9ca9-da6e02ed2ece"},"vehicle_type_id":"4","last_reported":1702026453,"current_range_meters":0,"station_id":"ce4bgip2rcd13ifvqbb0","pricing_plan_id":"free"},{"bike_id":"04e4cd15-a59b-4ed1-b4db-953b8027260c","system_id":"levelo_inurba_marseille","lat":43.304274,"lon":5.388873,"is_reserved":false,"is_disabled":false,"rental_uris":{"android":"levelo://app?vid=04e4cd15-a59b-4ed1-b4db-953b8027260c","ios":"levelo://app?vid=04e4cd15-a59b-4ed1-b4db-953b8027260c"},"vehicle_type_id":"4","last_reported":1702026453,"current_range_meters":28400,"station_id":"ce4bgk12rcd13ifvqbi0","pricing_plan_id":"free"},{"bike_id":"e37ac621-b119-47db-a4a0-b01f262c7bd9","system_id":"levelo_inurba_marseille","lat":43.32363,"lon":5.38882,"is_reserved":false,"is_disabled":false,"rental_uris":{"android":"levelo://app?vid=e37ac621-b119-47db-a4a0-b01f262c7bd9","ios":"levelo://app?vid=e37ac621-b119-47db-a4a0-b01f262c7bd9"},"vehicle_type_id":"4","last_reported":1702026453,"current_range_meters":22400,"station_id":"ce4bhqp2rcd13ifvqhog","pricing_plan_id":"free"},{"bike_id":"edb65791-72fd-4efe-a1f5-46dfb8da63e8","system_id":"levelo_inurba_marseille","lat":43.32369,"lon":5.38879,"is_reserved":false,"is_disabled":false,"rental_uris":{"android":"levelo://app?vid=edb65791-72fd-4efe-a1f5-46dfb8da63e8","ios":"levelo://app?vid=edb65791-72fd-4efe-a1f5-46dfb8da63e8"},"vehicle_type_id":"4","last_reported":1702026453,"current_range_meters":30800,"station_id":"ce4bhqp2rcd13ifvqhog","pricing_plan_id":"free"},{"bike_id":"5eb1dfb9-5bd9-4a22-aa1f-850e8465d9e1","system_id":"levelo_inurba_marseille","lat":43.29601,"lon":5.381084,"is_reserved":false,"is_disabled":false,"rental_uris":{"android":"levelo://app?vid=5eb1dfb9-5bd9-4a22-aa1f-850e8465d9e1","ios":"levelo://app?vid=5eb1dfb9-5bd9-4a22-aa1f-850e8465d9e1"},"vehicle_type_id":"4","last_reported":1702026453,"current_range_meters":20400,"station_id":"ce4bgl12rcd13ifvqbo0","pricing_plan_id":"free"},{"bike_id":"7579423d-f3b8-4e7f-be59-2ba9da91b549","system_id":"levelo_inurba_marseille","lat":43.31422,"lon":5.3939,"is_reserved":false,"is_disabled":false,"rental_uris":{"android":"levelo://app?vid=7579423d-f3b8-4e7f-be59-2ba9da91b549","ios":"levelo://app?vid=7579423d-f3b8-4e7f-be59-2ba9da91b549"},"vehicle_type_id":"4","last_reported":1702026453,"current_range_meters":5600,"station_id":"","pricing_plan_id":"free"},{"bike_id":"35167050-f909-4250-a110-df5bedfb0a40","system_id":"levelo_inurba_marseille","lat":43.298983,"lon":5.387267,"is_reserved":false,"is_disabled":false,"rental_uris":{"android":"levelo://app?vid=35167050-f909-4250-a110-df5bedfb0a40","ios":"levelo://app?vid=35167050-f909-4250-a110-df5bedfb0a40"},"vehicle_type_id":"4","last_reported":1702026453,"current_range_meters":2400,"station_id":"","pricing_plan_id":"free"},{"bike_id":"f4a89127-abd5-4653-874a-73b05b4890d2","system_id":"levelo_inurba_marseille","lat":43.305994,"lon":5.393687,"is_reserved":false,"is_disabled":false,"rental_uris":{"android":"levelo://app?vid=f4a89127-abd5-4653-874a-73b05b4890d2","ios":"levelo://app?vid=f4a89127-abd5-4653-874a-73b05b4890d2"},"vehicle_type_id":"4","last_reported":1702026453,"current_range_meters":20800,"station_id":"ce4bh0p2rcd13ifvqd80","pricing_plan_id":"free"},{"bike_id":"a40d96ef-38c7-4733-9061-b273a09501f9","system_id":"levelo_inurba_marseille","lat":43.2936,"lon":5.37835,"is_reserved":false,"is_disabled":false,"rental_uris":{"android":"levelo://app?vid=a40d96ef-38c7-4733-9061-b273a09501f9","ios":"levelo://app?vid=a40d96ef-38c7-4733-9061-b273a09501f9"},"vehicle_type_id":"4","last_reported":1702026453,"current_range_meters":24400,"station_id":"ce4bgjh2rcd13ifvqbf0","pricing_plan_id":"free"},{"bike_id":"d23dcc0a-abfe-4795-b2df-643eabe8964a","system_id":"levelo_inurba_marseille","lat":43.33277,"lon":5.37527,"is_reserved":false,"is_disabled":false,"rental_uris":{"android":"levelo://app?vid=d23dcc0a-abfe-4795-b2df-643eabe8964a","ios":"levelo://app?vid=d23dcc0a-abfe-4795-b2df-643eabe8964a"},"vehicle_type_id":"4","last_reported":1702026453,"current_range_meters":0,"station_id":"","pricing_plan_id":"free"},{"bike_id":"d013a706-f671-4005-97af-b26d4ded95a6","system_id":"levelo_inurba_marseille","lat":43.292311,"lon":5.360731,"is_reserved":false,"is_disabled":false,"rental_uris":{"android":"levelo://app?vid=d013a706-f671-4005-97af-b26d4ded95a6","ios":"levelo://app?vid=d013a706-f671-4005-97af-b26d4ded95a6"},"vehicle_type_id":"4","last_reported":1702026453,"current_range_meters":31600,"station_id":"ce4bhbh2rcd13ifvqeqg","pricing_plan_id":"free"},{"bike_id":"bda41671-13d5-4b7d-bcfc-4a9716d0696e","system_id":"levelo_inurba_marseille","lat":43.29274,"lon":5.3764,"is_reserved":false,"is_disabled":false,"rental_uris":{"android":"levelo://app?vid=bda41671-13d5-4b7d-bcfc-4a9716d0696e","ios":"levelo://app?vid=bda41671-13d5-4b7d-bcfc-4a9716d0696e"},"vehicle_type_id":"4","last_reported":1702026453,"current_range_meters":4800,"station_id":"ce4bgi12rcd13ifvqb80","pricing_plan_id":"free"},{"bike_id":"fa7c98fc-122c-4d6a-959c-edac095e08f0","system_id":"levelo_inurba_marseille","lat":43.292663,"lon":5.376394,"is_reserved":false,"is_disabled":false,"rental_uris":{"android":"levelo://app?vid=fa7c98fc-122c-4d6a-959c-edac095e08f0","ios":"levelo://app?vid=fa7c98fc-122c-4d6a-959c-edac095e08f0"},"vehicle_type_id":"4","last_reported":1702026453,"current_range_meters":1200,"station_id":"ce4bgi12rcd13ifvqb80","pricing_plan_id":"free"},{"bike_id":"6e738fe4-c179-4088-b6df-b32aaaf7d5d4","system_id":"levelo_inurba_marseille","lat":43.313291,"lon":5.396838,"is_reserved":false,"is_disabled":false,"rental_uris":{"android":"levelo://app?vid=6e738fe4-c179-4088-b6df-b32aaaf7d5d4","ios":"levelo://app?vid=6e738fe4-c179-4088-b6df-b32aaaf7d5d4"},"vehicle_type_id":"4","last_reported":1702026453,"current_range_meters":0,"station_id":"ce4bgvp2rcd13ifvqcu0","pricing_plan_id":"free"},{"bike_id":"cce61342-3043-4148-9508-f094c87187e4","system_id":"levelo_inurba_marseille","lat":43.302008,"lon":5.394694,"is_reserved":false,"is_disabled":false,"rental_uris":{"android":"levelo://app?vid=cce61342-3043-4148-9508-f094c87187e4","ios":"levelo://app?vid=cce61342-3043-4148-9508-f094c87187e4"},"vehicle_type_id":"4","last_reported":1702026453,"current_range_meters":22800,"station_id":"ce4bh0p2rcd13ifvqd70","pricing_plan_id":"free"},{"bike_id":"61d454bc-5764-4f51-beed-6f666d2a7937","system_id":"levelo_inurba_marseille","lat":43.290327,"lon":5.375711,"is_reserved":false,"is_disabled":false,"rental_uris":{"android":"levelo://app?vid=61d454bc-5764-4f51-beed-6f666d2a7937","ios":"levelo://app?vid=61d454bc-5764-4f51-beed-6f666d2a7937"},"vehicle_type_id":"4","last_reported":1702026453,"current_range_meters":19200,"station_id":"ce4bh692rcd13ifvqe90","pricing_plan_id":"free"},{"bike_id":"bb4af82b-29ef-44ca-baac-9099077e880f","system_id":"levelo_inurba_marseille","lat":43.290161,"lon":5.375651,"is_reserved":false,"is_disabled":false,"rental_uris":{"android":"levelo://app?vid=bb4af82b-29ef-44ca-baac-9099077e880f","ios":"levelo://app?vid=bb4af82b-29ef-44ca-baac-9099077e880f"},"vehicle_type_id":"4","last_reported":1702026453,"current_range_meters":18000,"station_id":"","pricing_plan_id":"free"},{"bike_id":"a02a1b20-1fb1-4951-988a-77389649024d","system_id":"levelo_inurba_marseille","lat":43.289259,"lon":5.366364,"is_reserved":false,"is_disabled":false,"rental_uris":{"android":"levelo://app?vid=a02a1b20-1fb1-4951-988a-77389649024d","ios":"levelo://app?vid=a02a1b20-1fb1-4951-988a-77389649024d"},"vehicle_type_id":"4","last_reported":1702026453,"current_range_meters":16400,"station_id":"","pricing_plan_id":"free"},{"bike_id":"2b0b1a94-4530-4619-aaea-c8ebb8bedcb2","system_id":"levelo_inurba_marseille","lat":43.292644,"lon":5.384257,"is_reserved":false,"is_disabled":false,"rental_uris":{"android":"levelo://app?vid=2b0b1a94-4530-4619-aaea-c8ebb8bedcb2","ios":"levelo://app?vid=2b0b1a94-4530-4619-aaea-c8ebb8bedcb2"},"vehicle_type_id":"4","last_reported":1702026453,"current_range_meters":30000,"station_id":"ce4bh692rcd13ifvqea0","pricing_plan_id":"free"},{"bike_id":"3f1b381a-8cd7-4ae8-8be7-57db14e4f769","system_id":"levelo_inurba_marseille","lat":43.290995,"lon":5.381361,"is_reserved":false,"is_disabled":false,"rental_uris":{"android":"levelo://app?vid=3f1b381a-8cd7-4ae8-8be7-57db14e4f769","ios":"levelo://app?vid=3f1b381a-8cd7-4ae8-8be7-57db14e4f769"},"vehicle_type_id":"4","last_reported":1702026453,"current_range_meters":10400,"station_id":"ce4bh512rcd13ifvqe2g","pricing_plan_id":"free"},{"bike_id":"60693214-cea7-42c5-acea-52201fbf6d69","system_id":"levelo_inurba_marseille","lat":43.290995,"lon":5.381361,"is_reserved":false,"is_disabled":false,"rental_uris":{"android":"levelo://app?vid=60693214-cea7-42c5-acea-52201fbf6d69","ios":"levelo://app?vid=60693214-cea7-42c5-acea-52201fbf6d69"},"vehicle_type_id":"4","last_reported":1702026453,"current_range_meters":26000,"station_id":"ce4bh512rcd13ifvqe2g","pricing_plan_id":"free"},{"bike_id":"4c5c6390-6cf8-4aa1-b897-9df691968182","system_id":"levelo_inurba_marseille","lat":43.290995,"lon":5.381361,"is_reserved":false,"is_disabled":false,"rental_uris":{"android":"levelo://app?vid=4c5c6390-6cf8-4aa1-b897-9df691968182","ios":"levelo://app?vid=4c5c6390-6cf8-4aa1-b897-9df691968182"},"vehicle_type_id":"4","last_reported":1702026453,"current_range_meters":30000,"station_id":"ce4bh512rcd13ifvqe2g","pricing_plan_id":"free"},{"bike_id":"50dbaccd-af06-4c2d-aaa0-e9c75307bf40","system_id":"levelo_inurba_marseille","lat":43.290995,"lon":5.381361,"is_reserved":false,"is_disabled":false,"rental_uris":{"android":"levelo://app?vid=50dbaccd-af06-4c2d-aaa0-e9c75307bf40","ios":"levelo://app?vid=50dbaccd-af06-4c2d-aaa0-e9c75307bf40"},"vehicle_type_id":"4","last_reported":1702026453,"current_range_meters":26800,"station_id":"ce4bh512rcd13ifvqe2g","pricing_plan_id":"free"},{"bike_id":"9848ba73-49ec-4143-88aa-cbfd93cef708","system_id":"levelo_inurba_marseille","lat":43.297815,"lon":5.393548,"is_reserved":false,"is_disabled":false,"rental_uris":{"android":"levelo://app?vid=9848ba73-49ec-4143-88aa-cbfd93cef708","ios":"levelo://app?vid=9848ba73-49ec-4143-88aa-cbfd93cef708"},"vehicle_type_id":"4","last_reported":1702026453,"current_range_meters":14000,"station_id":"chh1huq6cuj3fo74tm60","pricing_plan_id":"free"},{"bike_id":"a3ff2172-765a-41b6-b8b0-f136435ca898","system_id":"levelo_inurba_marseille","lat":43.28856,"lon":5.358371,"is_reserved":false,"is_disabled":false,"rental_uris":{"android":"levelo://app?vid=a3ff2172-765a-41b6-b8b0-f136435ca898","ios":"levelo://app?vid=a3ff2172-765a-41b6-b8b0-f136435ca898"},"vehicle_type_id":"4","last_reported":1702026453,"current_range_meters":20000,"station_id":"ce4bhb12rcd13ifvqem0","pricing_plan_id":"free"},{"bike_id":"0357dcdc-4d4e-455d-8d4c-96629bdf5e98","system_id":"levelo_inurba_marseille","lat":43.33758,"lon":5.37457,"is_reserved":false,"is_disabled":false,"rental_uris":{"android":"levelo://app?vid=0357dcdc-4d4e-455d-8d4c-96629bdf5e98","ios":"levelo://app?vid=0357dcdc-4d4e-455d-8d4c-96629bdf5e98"},"vehicle_type_id":"4","last_reported":1702026453,"current_range_meters":22800,"station_id":"","pricing_plan_id":"free"},{"bike_id":"2bd46814-40ae-4336-91f9-3581a12fcd25","system_id":"levelo_inurba_marseille","lat":43.295196,"lon":5.39397,"is_reserved":false,"is_disabled":false,"rental_uris":{"android":"levelo://app?vid=2bd46814-40ae-4336-91f9-3581a12fcd25","ios":"levelo://app?vid=2bd46814-40ae-4336-91f9-3581a12fcd25"},"vehicle_type_id":"4","last_reported":1702026453,"current_range_meters":26000,"station_id":"ce4bh292rcd13ifvqdf0","pricing_plan_id":"free"},{"bike_id":"b6f43335-a23b-4afd-b11a-955153a7864e","system_id":"levelo_inurba_marseille","lat":43.289307,"lon":5.38406,"is_reserved":false,"is_disabled":false,"rental_uris":{"android":"levelo://app?vid=b6f43335-a23b-4afd-b11a-955153a7864e","ios":"levelo://app?vid=b6f43335-a23b-4afd-b11a-955153a7864e"},"vehicle_type_id":"4","last_reported":1702026453,"current_range_meters":26000,"station_id":"ce4bh612rcd13ifvqe6g","pricing_plan_id":"free"},{"bike_id":"2ba35343-54f7-4559-b0a8-48d2bdf692a1","system_id":"levelo_inurba_marseille","lat":43.302759,"lon":5.400793,"is_reserved":false,"is_disabled":false,"rental_uris":{"android":"levelo://app?vid=2ba35343-54f7-4559-b0a8-48d2bdf692a1","ios":"levelo://app?vid=2ba35343-54f7-4559-b0a8-48d2bdf692a1"},"vehicle_type_id":"4","last_reported":1702026453,"current_range_meters":3200,"station_id":"ce4bgvh2rcd13ifvqcs0","pricing_plan_id":"free"},{"bike_id":"9771dfd8-017b-477e-9f38-39c8dec9c905","system_id":"levelo_inurba_marseille","lat":43.286039,"lon":5.370679,"is_reserved":false,"is_disabled":false,"rental_uris":{"android":"levelo://app?vid=9771dfd8-017b-477e-9f38-39c8dec9c905","ios":"levelo://app?vid=9771dfd8-017b-477e-9f38-39c8dec9c905"},"vehicle_type_id":"4","last_reported":1702026453,"current_range_meters":31600,"station_id":"ce4bht12rcd13ifvqi60","pricing_plan_id":"free"},{"bike_id":"7064fa8d-ca6b-45cd-a79a-e2ea82fb47d1","system_id":"levelo_inurba_marseille","lat":43.287184,"lon":5.37937,"is_reserved":false,"is_disabled":false,"rental_uris":{"android":"levelo://app?vid=7064fa8d-ca6b-45cd-a79a-e2ea82fb47d1","ios":"levelo://app?vid=7064fa8d-ca6b-45cd-a79a-e2ea82fb47d1"},"vehicle_type_id":"4","last_reported":1702026453,"current_range_meters":8400,"station_id":"ce4bh9p2rcd13ifvqec0","pricing_plan_id":"free"},{"bike_id":"14e48da3-0a9c-46af-8b81-08dd8033bdbd","system_id":"levelo_inurba_marseille","lat":43.284538,"lon":5.358657,"is_reserved":false,"is_disabled":false,"rental_uris":{"android":"levelo://app?vid=14e48da3-0a9c-46af-8b81-08dd8033bdbd","ios":"levelo://app?vid=14e48da3-0a9c-46af-8b81-08dd8033bdbd"},"vehicle_type_id":"4","last_reported":1702026453,"current_range_meters":8400,"station_id":"ce4bhah2rcd13ifvqei0","pricing_plan_id":"free"},{"bike_id":"604f26a9-f79c-4d00-ba14-c17f81babd01","system_id":"levelo_inurba_marseille","lat":43.294314,"lon":5.397498,"is_reserved":false,"is_disabled":false,"rental_uris":{"android":"levelo://app?vid=604f26a9-f79c-4d00-ba14-c17f81babd01","ios":"levelo://app?vid=604f26a9-f79c-4d00-ba14-c17f81babd01"},"vehicle_type_id":"4","last_reported":1702026453,"current_range_meters":26400,"station_id":"ce4bh3h2rcd13ifvqdo0","pricing_plan_id":"free"},{"bike_id":"fb5da59c-858d-48db-997a-b28af2ef0dc0","system_id":"levelo_inurba_marseille","lat":43.2862,"lon":5.35102,"is_reserved":false,"is_disabled":false,"rental_uris":{"android":"levelo://app?vid=fb5da59c-858d-48db-997a-b28af2ef0dc0","ios":"levelo://app?vid=fb5da59c-858d-48db-997a-b28af2ef0dc0"},"vehicle_type_id":"4","last_reported":1702026453,"current_range_meters":1600,"station_id":"ce4bhch2rcd13ifvqeug","pricing_plan_id":"free"},{"bike_id":"06070a5a-4b04-4262-80e6-ef3153c54cac","system_id":"levelo_inurba_marseille","lat":43.319179,"lon":5.407725,"is_reserved":false,"is_disabled":false,"rental_uris":{"android":"levelo://app?vid=06070a5a-4b04-4262-80e6-ef3153c54cac","ios":"levelo://app?vid=06070a5a-4b04-4262-80e6-ef3153c54cac"},"vehicle_type_id":"4","last_reported":1702026453,"current_range_meters":26000,"station_id":"ce4bhq12rcd13ifvqhig","pricing_plan_id":"free"},{"bike_id":"a467677d-92df-4d97-9e52-e6780c760738","system_id":"levelo_inurba_marseille","lat":43.31889,"lon":5.407412,"is_reserved":false,"is_disabled":false,"rental_uris":{"android":"levelo://app?vid=a467677d-92df-4d97-9e52-e6780c760738","ios":"levelo://app?vid=a467677d-92df-4d97-9e52-e6780c760738"},"vehicle_type_id":"4","last_reported":1702026453,"current_range_meters":0,"station_id":"ce4bhq12rcd13ifvqhig","pricing_plan_id":"free"},{"bike_id":"35437a3b-546d-4804-a96b-f2464a7a3e3e","system_id":"levelo_inurba_marseille","lat":43.323464,"lon":5.406297,"is_reserved":false,"is_disabled":false,"rental_uris":{"android":"levelo://app?vid=35437a3b-546d-4804-a96b-f2464a7a3e3e","ios":"levelo://app?vid=35437a3b-546d-4804-a96b-f2464a7a3e3e"},"vehicle_type_id":"4","last_reported":1702026453,"current_range_meters":30400,"station_id":"ce4bhq92rcd13ifvqhjg","pricing_plan_id":"free"},{"bike_id":"56ac9cc9-bb61-47d5-bb32-c23299a9fd93","system_id":"levelo_inurba_marseille","lat":43.32256,"lon":5.407,"is_reserved":false,"is_disabled":false,"rental_uris":{"android":"levelo://app?vid=56ac9cc9-bb61-47d5-bb32-c23299a9fd93","ios":"levelo://app?vid=56ac9cc9-bb61-47d5-bb32-c23299a9fd93"},"vehicle_type_id":"4","last_reported":1702026453,"current_range_meters":24400,"station_id":"","pricing_plan_id":"free"},{"bike_id":"b9587647-1ce4-4b86-a392-867d01986546","system_id":"levelo_inurba_marseille","lat":43.284219,"lon":5.3497,"is_reserved":false,"is_disabled":false,"rental_uris":{"android":"levelo://app?vid=b9587647-1ce4-4b86-a392-867d01986546","ios":"levelo://app?vid=b9587647-1ce4-4b86-a392-867d01986546"},"vehicle_type_id":"4","last_reported":1702026453,"current_range_meters":27200,"station_id":"ce4bhbh2rcd13ifvqepg","pricing_plan_id":"free"},{"bike_id":"89bd02e0-fe6f-41ca-aa55-6ba6436bf949","system_id":"levelo_inurba_marseille","lat":43.289363,"lon":5.396322,"is_reserved":false,"is_disabled":false,"rental_uris":{"android":"levelo://app?vid=89bd02e0-fe6f-41ca-aa55-6ba6436bf949","ios":"levelo://app?vid=89bd02e0-fe6f-41ca-aa55-6ba6436bf949"},"vehicle_type_id":"4","last_reported":1702026453,"current_range_meters":26800,"station_id":"ce4bh3h2rcd13ifvqdn0","pricing_plan_id":"free"},{"bike_id":"aae2ba7b-8999-4318-878b-a856b7c98bf2","system_id":"levelo_inurba_marseille","lat":43.28273,"lon":5.35074,"is_reserved":false,"is_disabled":false,"rental_uris":{"android":"levelo://app?vid=aae2ba7b-8999-4318-878b-a856b7c98bf2","ios":"levelo://app?vid=aae2ba7b-8999-4318-878b-a856b7c98bf2"},"vehicle_type_id":"4","last_reported":1702026453,"current_range_meters":12800,"station_id":"ce4bhbp2rcd13ifvqerg","pricing_plan_id":"free"},{"bike_id":"50cfdd7b-10cb-4333-beb5-71a466ec72d4","system_id":"levelo_inurba_marseille","lat":43.283502,"lon":5.386471,"is_reserved":false,"is_disabled":false,"rental_uris":{"android":"levelo://app?vid=50cfdd7b-10cb-4333-beb5-71a466ec72d4","ios":"levelo://app?vid=50cfdd7b-10cb-4333-beb5-71a466ec72d4"},"vehicle_type_id":"4","last_reported":1702026453,"current_range_meters":26800,"station_id":"ce4bh492rcd13ifvqdvg","pricing_plan_id":"free"},{"bike_id":"475b39ac-b9e9-41b5-86d6-94c969081b69","system_id":"levelo_inurba_marseille","lat":43.290412,"lon":5.399633,"is_reserved":false,"is_disabled":false,"rental_uris":{"android":"levelo://app?vid=475b39ac-b9e9-41b5-86d6-94c969081b69","ios":"levelo://app?vid=475b39ac-b9e9-41b5-86d6-94c969081b69"},"vehicle_type_id":"4","last_reported":1702026453,"current_range_meters":30000,"station_id":"ce4bh392rcd13ifvqdm0","pricing_plan_id":"free"},{"bike_id":"f14ead39-4f41-4599-9321-f960783c1e12","system_id":"levelo_inurba_marseille","lat":43.326605,"lon":5.409903,"is_reserved":false,"is_disabled":false,"rental_uris":{"android":"levelo://app?vid=f14ead39-4f41-4599-9321-f960783c1e12","ios":"levelo://app?vid=f14ead39-4f41-4599-9321-f960783c1e12"},"vehicle_type_id":"4","last_reported":1702026453,"current_range_meters":28400,"station_id":"ce4bhpp2rcd13ifvqhgg","pricing_plan_id":"free"},{"bike_id":"070a260d-ecc1-46d1-afab-6774750cd900","system_id":"levelo_inurba_marseille","lat":43.326605,"lon":5.409903,"is_reserved":false,"is_disabled":false,"rental_uris":{"android":"levelo://app?vid=070a260d-ecc1-46d1-afab-6774750cd900","ios":"levelo://app?vid=070a260d-ecc1-46d1-afab-6774750cd900"},"vehicle_type_id":"4","last_reported":1702026453,"current_range_meters":28800,"station_id":"ce4bhpp2rcd13ifvqhgg","pricing_plan_id":"free"},{"bike_id":"5fefe554-fe99-4e7c-bf4d-9b8cb69d1b6a","system_id":"levelo_inurba_marseille","lat":43.279087,"lon":5.380114,"is_reserved":false,"is_disabled":false,"rental_uris":{"android":"levelo://app?vid=5fefe554-fe99-4e7c-bf4d-9b8cb69d1b6a","ios":"levelo://app?vid=5fefe554-fe99-4e7c-bf4d-9b8cb69d1b6a"},"vehicle_type_id":"4","last_reported":1702026453,"current_range_meters":3600,"station_id":"ce4bhf92rcd13ifvqf50","pricing_plan_id":"free"},{"bike_id":"bf9c0286-54ca-458d-a58a-9d0d9c0353fb","system_id":"levelo_inurba_marseille","lat":43.279087,"lon":5.380114,"is_reserved":false,"is_disabled":false,"rental_uris":{"android":"levelo://app?vid=bf9c0286-54ca-458d-a58a-9d0d9c0353fb","ios":"levelo://app?vid=bf9c0286-54ca-458d-a58a-9d0d9c0353fb"},"vehicle_type_id":"4","last_reported":1702026453,"current_range_meters":31600,"station_id":"ce4bhf92rcd13ifvqf50","pricing_plan_id":"free"},{"bike_id":"6ffec1e5-b72d-499b-9a28-06e18a9866a7","system_id":"levelo_inurba_marseille","lat":43.279742,"lon":5.38744,"is_reserved":false,"is_disabled":false,"rental_uris":{"android":"levelo://app?vid=6ffec1e5-b72d-499b-9a28-06e18a9866a7","ios":"levelo://app?vid=6ffec1e5-b72d-499b-9a28-06e18a9866a7"},"vehicle_type_id":"4","last_reported":1702026453,"current_range_meters":24400,"station_id":"ce4bhg12rcd13ifvqf80","pricing_plan_id":"free"},{"bike_id":"6b6d90cf-67df-4a3a-a15a-1d04a692c5dd","system_id":"levelo_inurba_marseille","lat":43.325243,"lon":5.414326,"is_reserved":false,"is_disabled":false,"rental_uris":{"android":"levelo://app?vid=6b6d90cf-67df-4a3a-a15a-1d04a692c5dd","ios":"levelo://app?vid=6b6d90cf-67df-4a3a-a15a-1d04a692c5dd"},"vehicle_type_id":"4","last_reported":1702026453,"current_range_meters":6800,"station_id":"ce4bhq12rcd13ifvqhhg","pricing_plan_id":"free"},{"bike_id":"cf28e55e-951a-4b0e-80ed-914fb42c100f","system_id":"levelo_inurba_marseille","lat":43.280784,"lon":5.396622,"is_reserved":false,"is_disabled":false,"rental_uris":{"android":"levelo://app?vid=cf28e55e-951a-4b0e-80ed-914fb42c100f","ios":"levelo://app?vid=cf28e55e-951a-4b0e-80ed-914fb42c100f"},"vehicle_type_id":"4","last_reported":1702026453,"current_range_meters":31200,"station_id":"ce4bho12rcd13ifvqh2g","pricing_plan_id":"free"},{"bike_id":"21353717-0ebc-4941-8111-34c7a0b5fb53","system_id":"levelo_inurba_marseille","lat":43.280742,"lon":5.396482,"is_reserved":false,"is_disabled":false,"rental_uris":{"android":"levelo://app?vid=21353717-0ebc-4941-8111-34c7a0b5fb53","ios":"levelo://app?vid=21353717-0ebc-4941-8111-34c7a0b5fb53"},"vehicle_type_id":"4","last_reported":1702026453,"current_range_meters":20000,"station_id":"ce4bho12rcd13ifvqh2g","pricing_plan_id":"free"},{"bike_id":"9b5528ec-c69e-4612-b0a8-fd28dcc894b4","system_id":"levelo_inurba_marseille","lat":43.280784,"lon":5.396622,"is_reserved":false,"is_disabled":false,"rental_uris":{"android":"levelo://app?vid=9b5528ec-c69e-4612-b0a8-fd28dcc894b4","ios":"levelo://app?vid=9b5528ec-c69e-4612-b0a8-fd28dcc894b4"},"vehicle_type_id":"4","last_reported":1702026453,"current_range_meters":22800,"station_id":"ce4bho12rcd13ifvqh2g","pricing_plan_id":"free"},{"bike_id":"6c07e982-b7bd-44e0-8bfd-6eba9dde01aa","system_id":"levelo_inurba_marseille","lat":43.33612,"lon":5.410321,"is_reserved":false,"is_disabled":false,"rental_uris":{"android":"levelo://app?vid=6c07e982-b7bd-44e0-8bfd-6eba9dde01aa","ios":"levelo://app?vid=6c07e982-b7bd-44e0-8bfd-6eba9dde01aa"},"vehicle_type_id":"4","last_reported":1702026453,"current_range_meters":6800,"station_id":"ce4bhqh2rcd13ifvqhmg","pricing_plan_id":"free"},{"bike_id":"92288d4e-db85-49a0-8d44-3c330313b612","system_id":"levelo_inurba_marseille","lat":43.278399,"lon":5.392139,"is_reserved":false,"is_disabled":false,"rental_uris":{"android":"levelo://app?vid=92288d4e-db85-49a0-8d44-3c330313b612","ios":"levelo://app?vid=92288d4e-db85-49a0-8d44-3c330313b612"},"vehicle_type_id":"4","last_reported":1702026453,"current_range_meters":20800,"station_id":"ce4bhjp2rcd13ifvqga0","pricing_plan_id":"free"},{"bike_id":"57b61f4e-d2e5-4b68-9369-a72ab13e3f2a","system_id":"levelo_inurba_marseille","lat":43.336134,"lon":5.410341,"is_reserved":false,"is_disabled":false,"rental_uris":{"android":"levelo://app?vid=57b61f4e-d2e5-4b68-9369-a72ab13e3f2a","ios":"levelo://app?vid=57b61f4e-d2e5-4b68-9369-a72ab13e3f2a"},"vehicle_type_id":"4","last_reported":1702026453,"current_range_meters":10400,"station_id":"ce4bhqh2rcd13ifvqhmg","pricing_plan_id":"free"},{"bike_id":"58715b71-05cb-47c5-9f7a-5fac0f4f4152","system_id":"levelo_inurba_marseille","lat":43.336134,"lon":5.410341,"is_reserved":false,"is_disabled":false,"rental_uris":{"android":"levelo://app?vid=58715b71-05cb-47c5-9f7a-5fac0f4f4152","ios":"levelo://app?vid=58715b71-05cb-47c5-9f7a-5fac0f4f4152"},"vehicle_type_id":"4","last_reported":1702026453,"current_range_meters":18400,"station_id":"ce4bhqh2rcd13ifvqhmg","pricing_plan_id":"free"},{"bike_id":"5cc7b054-7f74-4799-ba27-acd88dcc15ab","system_id":"levelo_inurba_marseille","lat":43.276325,"lon":5.391897,"is_reserved":false,"is_disabled":false,"rental_uris":{"android":"levelo://app?vid=5cc7b054-7f74-4799-ba27-acd88dcc15ab","ios":"levelo://app?vid=5cc7b054-7f74-4799-ba27-acd88dcc15ab"},"vehicle_type_id":"4","last_reported":1702026453,"current_range_meters":20000,"station_id":"","pricing_plan_id":"free"},{"bike_id":"986e2640-07f1-4aaf-ae9d-a0bb0a20f26c","system_id":"levelo_inurba_marseille","lat":43.27997,"lon":5.40019,"is_reserved":false,"is_disabled":false,"rental_uris":{"android":"levelo://app?vid=986e2640-07f1-4aaf-ae9d-a0bb0a20f26c","ios":"levelo://app?vid=986e2640-07f1-4aaf-ae9d-a0bb0a20f26c"},"vehicle_type_id":"4","last_reported":1702026453,"current_range_meters":24800,"station_id":"ce4bho92rcd13ifvqh4g","pricing_plan_id":"free"},{"bike_id":"200eafbf-d9f3-4a6e-935c-b56619044876","system_id":"levelo_inurba_marseille","lat":43.28761,"lon":5.41208,"is_reserved":false,"is_disabled":false,"rental_uris":{"android":"levelo://app?vid=200eafbf-d9f3-4a6e-935c-b56619044876","ios":"levelo://app?vid=200eafbf-d9f3-4a6e-935c-b56619044876"},"vehicle_type_id":"4","last_reported":1702026453,"current_range_meters":24800,"station_id":"","pricing_plan_id":"free"},{"bike_id":"ac48d04c-c813-4dcb-8013-15216c7aa7de","system_id":"levelo_inurba_marseille","lat":43.340804,"lon":5.410219,"is_reserved":false,"is_disabled":false,"rental_uris":{"android":"levelo://app?vid=ac48d04c-c813-4dcb-8013-15216c7aa7de","ios":"levelo://app?vid=ac48d04c-c813-4dcb-8013-15216c7aa7de"},"vehicle_type_id":"4","last_reported":1702026453,"current_range_meters":16800,"station_id":"ce4bhqh2rcd13ifvqhlg","pricing_plan_id":"free"},{"bike_id":"7777002e-5813-436f-aaf3-5560b01b82cf","system_id":"levelo_inurba_marseille","lat":43.310785,"lon":5.424305,"is_reserved":false,"is_disabled":false,"rental_uris":{"android":"levelo://app?vid=7777002e-5813-436f-aaf3-5560b01b82cf","ios":"levelo://app?vid=7777002e-5813-436f-aaf3-5560b01b82cf"},"vehicle_type_id":"4","last_reported":1702026453,"current_range_meters":20000,"station_id":"ce4bhp92rcd13ifvqhag","pricing_plan_id":"free"},{"bike_id":"98fd8ac5-d7f0-4eec-935b-9888a8c99cac","system_id":"levelo_inurba_marseille","lat":43.310785,"lon":5.424305,"is_reserved":false,"is_disabled":false,"rental_uris":{"android":"levelo://app?vid=98fd8ac5-d7f0-4eec-935b-9888a8c99cac","ios":"levelo://app?vid=98fd8ac5-d7f0-4eec-935b-9888a8c99cac"},"vehicle_type_id":"4","last_reported":1702026453,"current_range_meters":12400,"station_id":"ce4bhp92rcd13ifvqhag","pricing_plan_id":"free"},{"bike_id":"6ebb6371-316d-471a-968f-60b71f1ca6c8","system_id":"levelo_inurba_marseille","lat":43.310785,"lon":5.424305,"is_reserved":false,"is_disabled":false,"rental_uris":{"android":"levelo://app?vid=6ebb6371-316d-471a-968f-60b71f1ca6c8","ios":"levelo://app?vid=6ebb6371-316d-471a-968f-60b71f1ca6c8"},"vehicle_type_id":"4","last_reported":1702026453,"current_range_meters":20800,"station_id":"ce4bhp92rcd13ifvqhag","pricing_plan_id":"free"},{"bike_id":"7f906411-9fb1-4869-badf-f4ee1b588984","system_id":"levelo_inurba_marseille","lat":43.340804,"lon":5.410219,"is_reserved":false,"is_disabled":false,"rental_uris":{"android":"levelo://app?vid=7f906411-9fb1-4869-badf-f4ee1b588984","ios":"levelo://app?vid=7f906411-9fb1-4869-badf-f4ee1b588984"},"vehicle_type_id":"4","last_reported":1702026453,"current_range_meters":30000,"station_id":"ce4bhqh2rcd13ifvqhlg","pricing_plan_id":"free"},{"bike_id":"63133364-316e-458e-b234-bbd4926c63fc","system_id":"levelo_inurba_marseille","lat":43.27583,"lon":5.39474,"is_reserved":false,"is_disabled":false,"rental_uris":{"android":"levelo://app?vid=63133364-316e-458e-b234-bbd4926c63fc","ios":"levelo://app?vid=63133364-316e-458e-b234-bbd4926c63fc"},"vehicle_type_id":"4","last_reported":1702026453,"current_range_meters":13600,"station_id":"","pricing_plan_id":"free"},{"bike_id":"f0c32c6a-c49a-468c-a9cb-3f725cbe11db","system_id":"levelo_inurba_marseille","lat":43.273129,"lon":5.390725,"is_reserved":false,"is_disabled":false,"rental_uris":{"android":"levelo://app?vid=f0c32c6a-c49a-468c-a9cb-3f725cbe11db","ios":"levelo://app?vid=f0c32c6a-c49a-468c-a9cb-3f725cbe11db"},"vehicle_type_id":"4","last_reported":1702026453,"current_range_meters":24800,"station_id":"ce4bhgp2rcd13ifvqfe0","pricing_plan_id":"free"},{"bike_id":"e804e9cb-54b6-4fa3-a7d2-287d963962e5","system_id":"levelo_inurba_marseille","lat":43.273125,"lon":5.390731,"is_reserved":false,"is_disabled":false,"rental_uris":{"android":"levelo://app?vid=e804e9cb-54b6-4fa3-a7d2-287d963962e5","ios":"levelo://app?vid=e804e9cb-54b6-4fa3-a7d2-287d963962e5"},"vehicle_type_id":"4","last_reported":1702026453,"current_range_meters":26000,"station_id":"ce4bhgp2rcd13ifvqfe0","pricing_plan_id":"free"},{"bike_id":"09f71d2f-81ea-4644-8e24-dfea3454a076","system_id":"levelo_inurba_marseille","lat":43.274099,"lon":5.394019,"is_reserved":false,"is_disabled":false,"rental_uris":{"android":"levelo://app?vid=09f71d2f-81ea-4644-8e24-dfea3454a076","ios":"levelo://app?vid=09f71d2f-81ea-4644-8e24-dfea3454a076"},"vehicle_type_id":"4","last_reported":1702026453,"current_range_meters":27600,"station_id":"ce4bhdp2rcd13ifvqf20","pricing_plan_id":"free"},{"bike_id":"04c2aa8c-b393-49e3-9a35-1842ccaf897c","system_id":"levelo_inurba_marseille","lat":43.274103,"lon":5.394016,"is_reserved":false,"is_disabled":false,"rental_uris":{"android":"levelo://app?vid=04c2aa8c-b393-49e3-9a35-1842ccaf897c","ios":"levelo://app?vid=04c2aa8c-b393-49e3-9a35-1842ccaf897c"},"vehicle_type_id":"4","last_reported":1702026453,"current_range_meters":29600,"station_id":"ce4bhdp2rcd13ifvqf20","pricing_plan_id":"free"},{"bike_id":"cc056b65-6a46-4a5b-ac34-957528500157","system_id":"levelo_inurba_marseille","lat":43.295511,"lon":5.422926,"is_reserved":false,"is_disabled":false,"rental_uris":{"android":"levelo://app?vid=cc056b65-6a46-4a5b-ac34-957528500157","ios":"levelo://app?vid=cc056b65-6a46-4a5b-ac34-957528500157"},"vehicle_type_id":"4","last_reported":1702026453,"current_range_meters":29200,"station_id":"ce4bhph2rcd13ifvqhdg","pricing_plan_id":"free"},{"bike_id":"4ee84928-30de-467c-8215-de7b5558b7ed","system_id":"levelo_inurba_marseille","lat":43.295511,"lon":5.422926,"is_reserved":false,"is_disabled":false,"rental_uris":{"android":"levelo://app?vid=4ee84928-30de-467c-8215-de7b5558b7ed","ios":"levelo://app?vid=4ee84928-30de-467c-8215-de7b5558b7ed"},"vehicle_type_id":"4","last_reported":1702026453,"current_range_meters":31600,"station_id":"ce4bhph2rcd13ifvqhdg","pricing_plan_id":"free"},{"bike_id":"c9a354e1-cd47-4a73-9444-d6227e3bfab5","system_id":"levelo_inurba_marseille","lat":43.295511,"lon":5.422926,"is_reserved":false,"is_disabled":false,"rental_uris":{"android":"levelo://app?vid=c9a354e1-cd47-4a73-9444-d6227e3bfab5","ios":"levelo://app?vid=c9a354e1-cd47-4a73-9444-d6227e3bfab5"},"vehicle_type_id":"4","last_reported":1702026453,"current_range_meters":26000,"station_id":"ce4bhph2rcd13ifvqhdg","pricing_plan_id":"free"},{"bike_id":"77e2df1b-d75a-48fe-a6ad-744dfbe91f1d","system_id":"levelo_inurba_marseille","lat":43.27214,"lon":5.3925,"is_reserved":false,"is_disabled":false,"rental_uris":{"android":"levelo://app?vid=77e2df1b-d75a-48fe-a6ad-744dfbe91f1d","ios":"levelo://app?vid=77e2df1b-d75a-48fe-a6ad-744dfbe91f1d"},"vehicle_type_id":"4","last_reported":1702026453,"current_range_meters":6000,"station_id":"","pricing_plan_id":"free"},{"bike_id":"2eb7b164-467e-49b0-a554-29c177f95c2a","system_id":"levelo_inurba_marseille","lat":43.278128,"lon":5.407195,"is_reserved":false,"is_disabled":false,"rental_uris":{"android":"levelo://app?vid=2eb7b164-467e-49b0-a554-29c177f95c2a","ios":"levelo://app?vid=2eb7b164-467e-49b0-a554-29c177f95c2a"},"vehicle_type_id":"4","last_reported":1702026453,"current_range_meters":17200,"station_id":"ce4bhnh2rcd13ifvqgtg","pricing_plan_id":"free"},{"bike_id":"7b84562b-f023-458e-9f63-22f52b26a915","system_id":"levelo_inurba_marseille","lat":43.278128,"lon":5.407195,"is_reserved":false,"is_disabled":false,"rental_uris":{"android":"levelo://app?vid=7b84562b-f023-458e-9f63-22f52b26a915","ios":"levelo://app?vid=7b84562b-f023-458e-9f63-22f52b26a915"},"vehicle_type_id":"4","last_reported":1702026453,"current_range_meters":31200,"station_id":"ce4bhnh2rcd13ifvqgtg","pricing_plan_id":"free"},{"bike_id":"b697429d-0119-4908-92fc-5d4d4451b858","system_id":"levelo_inurba_marseille","lat":43.278128,"lon":5.407195,"is_reserved":false,"is_disabled":false,"rental_uris":{"android":"levelo://app?vid=b697429d-0119-4908-92fc-5d4d4451b858","ios":"levelo://app?vid=b697429d-0119-4908-92fc-5d4d4451b858"},"vehicle_type_id":"4","last_reported":1702026453,"current_range_meters":26400,"station_id":"ce4bhnh2rcd13ifvqgtg","pricing_plan_id":"free"},{"bike_id":"8e3ed466-32b5-40fb-9e63-efc51e8e36c0","system_id":"levelo_inurba_marseille","lat":43.278128,"lon":5.407195,"is_reserved":false,"is_disabled":false,"rental_uris":{"android":"levelo://app?vid=8e3ed466-32b5-40fb-9e63-efc51e8e36c0","ios":"levelo://app?vid=8e3ed466-32b5-40fb-9e63-efc51e8e36c0"},"vehicle_type_id":"4","last_reported":1702026453,"current_range_meters":30000,"station_id":"ce4bhnh2rcd13ifvqgtg","pricing_plan_id":"free"},{"bike_id":"2e85e846-8324-4813-8d3e-dfa625a93eaa","system_id":"levelo_inurba_marseille","lat":43.278128,"lon":5.407195,"is_reserved":false,"is_disabled":false,"rental_uris":{"android":"levelo://app?vid=2e85e846-8324-4813-8d3e-dfa625a93eaa","ios":"levelo://app?vid=2e85e846-8324-4813-8d3e-dfa625a93eaa"},"vehicle_type_id":"4","last_reported":1702026453,"current_range_meters":31200,"station_id":"ce4bhnh2rcd13ifvqgtg","pricing_plan_id":"free"},{"bike_id":"f2eeebe8-a797-432c-a01d-6a867f40292c","system_id":"levelo_inurba_marseille","lat":43.278128,"lon":5.407195,"is_reserved":false,"is_disabled":false,"rental_uris":{"android":"levelo://app?vid=f2eeebe8-a797-432c-a01d-6a867f40292c","ios":"levelo://app?vid=f2eeebe8-a797-432c-a01d-6a867f40292c"},"vehicle_type_id":"4","last_reported":1702026453,"current_range_meters":26000,"station_id":"ce4bhnh2rcd13ifvqgtg","pricing_plan_id":"free"},{"bike_id":"0919e87c-4337-45ca-a2e8-a7b2006ec699","system_id":"levelo_inurba_marseille","lat":43.278128,"lon":5.407195,"is_reserved":false,"is_disabled":false,"rental_uris":{"android":"levelo://app?vid=0919e87c-4337-45ca-a2e8-a7b2006ec699","ios":"levelo://app?vid=0919e87c-4337-45ca-a2e8-a7b2006ec699"},"vehicle_type_id":"4","last_reported":1702026453,"current_range_meters":24800,"station_id":"ce4bhnh2rcd13ifvqgtg","pricing_plan_id":"free"},{"bike_id":"54f18ff7-4784-4dbe-ac30-cd93f7ecd65c","system_id":"levelo_inurba_marseille","lat":43.278128,"lon":5.407195,"is_reserved":false,"is_disabled":false,"rental_uris":{"android":"levelo://app?vid=54f18ff7-4784-4dbe-ac30-cd93f7ecd65c","ios":"levelo://app?vid=54f18ff7-4784-4dbe-ac30-cd93f7ecd65c"},"vehicle_type_id":"4","last_reported":1702026453,"current_range_meters":28000,"station_id":"ce4bhnh2rcd13ifvqgtg","pricing_plan_id":"free"},{"bike_id":"64da958b-7151-4488-a92f-824fc9d4dcc5","system_id":"levelo_inurba_marseille","lat":43.269467,"lon":5.386439,"is_reserved":false,"is_disabled":false,"rental_uris":{"android":"levelo://app?vid=64da958b-7151-4488-a92f-824fc9d4dcc5","ios":"levelo://app?vid=64da958b-7151-4488-a92f-824fc9d4dcc5"},"vehicle_type_id":"4","last_reported":1702026453,"current_range_meters":28400,"station_id":"ce4bhh92rcd13ifvqfh0","pricing_plan_id":"free"},{"bike_id":"a752f5d5-4e68-470c-94fd-6bdaff601d0e","system_id":"levelo_inurba_marseille","lat":43.269467,"lon":5.386439,"is_reserved":false,"is_disabled":false,"rental_uris":{"android":"levelo://app?vid=a752f5d5-4e68-470c-94fd-6bdaff601d0e","ios":"levelo://app?vid=a752f5d5-4e68-470c-94fd-6bdaff601d0e"},"vehicle_type_id":"4","last_reported":1702026453,"current_range_meters":30000,"station_id":"ce4bhh92rcd13ifvqfh0","pricing_plan_id":"free"},{"bike_id":"dffd642e-6acf-43e9-84fd-33fa89f52c00","system_id":"levelo_inurba_marseille","lat":43.27905,"lon":5.41219,"is_reserved":false,"is_disabled":false,"rental_uris":{"android":"levelo://app?vid=dffd642e-6acf-43e9-84fd-33fa89f52c00","ios":"levelo://app?vid=dffd642e-6acf-43e9-84fd-33fa89f52c00"},"vehicle_type_id":"4","last_reported":1702026453,"current_range_meters":11200,"station_id":"","pricing_plan_id":"free"},{"bike_id":"278d3881-2a72-4b9f-b073-2914ce67f608","system_id":"levelo_inurba_marseille","lat":43.26681,"lon":5.382694,"is_reserved":false,"is_disabled":false,"rental_uris":{"android":"levelo://app?vid=278d3881-2a72-4b9f-b073-2914ce67f608","ios":"levelo://app?vid=278d3881-2a72-4b9f-b073-2914ce67f608"},"vehicle_type_id":"4","last_reported":1702026453,"current_range_meters":28800,"station_id":"ce4bhg92rcd13ifvqf90","pricing_plan_id":"free"},{"bike_id":"1fda5528-ce12-4baf-b7ef-72d32bd3f500","system_id":"levelo_inurba_marseille","lat":43.26681,"lon":5.382694,"is_reserved":false,"is_disabled":false,"rental_uris":{"android":"levelo://app?vid=1fda5528-ce12-4baf-b7ef-72d32bd3f500","ios":"levelo://app?vid=1fda5528-ce12-4baf-b7ef-72d32bd3f500"},"vehicle_type_id":"4","last_reported":1702026453,"current_range_meters":6400,"station_id":"ce4bhg92rcd13ifvqf90","pricing_plan_id":"free"},{"bike_id":"69cf0675-0b26-4e62-9580-22f1eaf1e028","system_id":"levelo_inurba_marseille","lat":43.26681,"lon":5.382694,"is_reserved":false,"is_disabled":false,"rental_uris":{"android":"levelo://app?vid=69cf0675-0b26-4e62-9580-22f1eaf1e028","ios":"levelo://app?vid=69cf0675-0b26-4e62-9580-22f1eaf1e028"},"vehicle_type_id":"4","last_reported":1702026453,"current_range_meters":32000,"station_id":"ce4bhg92rcd13ifvqf90","pricing_plan_id":"free"},{"bike_id":"64205017-117b-49da-8a8d-7d36ff1d6f75","system_id":"levelo_inurba_marseille","lat":43.26681,"lon":5.382694,"is_reserved":false,"is_disabled":false,"rental_uris":{"android":"levelo://app?vid=64205017-117b-49da-8a8d-7d36ff1d6f75","ios":"levelo://app?vid=64205017-117b-49da-8a8d-7d36ff1d6f75"},"vehicle_type_id":"4","last_reported":1702026453,"current_range_meters":31200,"station_id":"ce4bhg92rcd13ifvqf90","pricing_plan_id":"free"},{"bike_id":"d1229013-f4fa-4838-b99c-7170643c99ca","system_id":"levelo_inurba_marseille","lat":43.27996,"lon":5.416624,"is_reserved":false,"is_disabled":false,"rental_uris":{"android":"levelo://app?vid=d1229013-f4fa-4838-b99c-7170643c99ca","ios":"levelo://app?vid=d1229013-f4fa-4838-b99c-7170643c99ca"},"vehicle_type_id":"4","last_reported":1702026453,"current_range_meters":4400,"station_id":"ce4bho12rcd13ifvqh1g","pricing_plan_id":"free"},{"bike_id":"99cab206-deb5-4d69-95cd-78d9fad48997","system_id":"levelo_inurba_marseille","lat":43.27996,"lon":5.416624,"is_reserved":false,"is_disabled":false,"rental_uris":{"android":"levelo://app?vid=99cab206-deb5-4d69-95cd-78d9fad48997","ios":"levelo://app?vid=99cab206-deb5-4d69-95cd-78d9fad48997"},"vehicle_type_id":"4","last_reported":1702026453,"current_range_meters":20400,"station_id":"ce4bho12rcd13ifvqh1g","pricing_plan_id":"free"},{"bike_id":"5c62f0fe-2a68-4f0e-8c5e-1c3be35b64ff","system_id":"levelo_inurba_marseille","lat":43.29178,"lon":5.42785,"is_reserved":false,"is_disabled":false,"rental_uris":{"android":"levelo://app?vid=5c62f0fe-2a68-4f0e-8c5e-1c3be35b64ff","ios":"levelo://app?vid=5c62f0fe-2a68-4f0e-8c5e-1c3be35b64ff"},"vehicle_type_id":"4","last_reported":1702026453,"current_range_meters":11600,"station_id":"","pricing_plan_id":"free"},{"bike_id":"d651cbba-6706-4cc3-b22b-e37dcaf35aa9","system_id":"levelo_inurba_marseille","lat":43.265571,"lon":5.390032,"is_reserved":false,"is_disabled":false,"rental_uris":{"android":"levelo://app?vid=d651cbba-6706-4cc3-b22b-e37dcaf35aa9","ios":"levelo://app?vid=d651cbba-6706-4cc3-b22b-e37dcaf35aa9"},"vehicle_type_id":"4","last_reported":1702026453,"current_range_meters":10800,"station_id":"ce4bhe12rcd13ifvqf30","pricing_plan_id":"free"},{"bike_id":"b3ff566c-2dfd-4bc0-b69b-7984474cf26d","system_id":"levelo_inurba_marseille","lat":43.265569,"lon":5.390047,"is_reserved":false,"is_disabled":false,"rental_uris":{"android":"levelo://app?vid=b3ff566c-2dfd-4bc0-b69b-7984474cf26d","ios":"levelo://app?vid=b3ff566c-2dfd-4bc0-b69b-7984474cf26d"},"vehicle_type_id":"4","last_reported":1702026453,"current_range_meters":26000,"station_id":"ce4bhe12rcd13ifvqf30","pricing_plan_id":"free"},{"bike_id":"f076cecd-d7cf-41d2-831d-4d046a72d397","system_id":"levelo_inurba_marseille","lat":43.265569,"lon":5.390047,"is_reserved":false,"is_disabled":false,"rental_uris":{"android":"levelo://app?vid=f076cecd-d7cf-41d2-831d-4d046a72d397","ios":"levelo://app?vid=f076cecd-d7cf-41d2-831d-4d046a72d397"},"vehicle_type_id":"4","last_reported":1702026453,"current_range_meters":30800,"station_id":"ce4bhe12rcd13ifvqf30","pricing_plan_id":"free"},{"bike_id":"771e7660-af40-49d5-ba02-520296a6bc10","system_id":"levelo_inurba_marseille","lat":43.269511,"lon":5.402506,"is_reserved":false,"is_disabled":false,"rental_uris":{"android":"levelo://app?vid=771e7660-af40-49d5-ba02-520296a6bc10","ios":"levelo://app?vid=771e7660-af40-49d5-ba02-520296a6bc10"},"vehicle_type_id":"4","last_reported":1702026453,"current_range_meters":1600,"station_id":"","pricing_plan_id":"free"},{"bike_id":"02ec38ae-edb4-4a1e-a5a9-61773447cb82","system_id":"levelo_inurba_marseille","lat":43.269448,"lon":5.402484,"is_reserved":false,"is_disabled":false,"rental_uris":{"android":"levelo://app?vid=02ec38ae-edb4-4a1e-a5a9-61773447cb82","ios":"levelo://app?vid=02ec38ae-edb4-4a1e-a5a9-61773447cb82"},"vehicle_type_id":"4","last_reported":1702026453,"current_range_meters":1200,"station_id":"cjm6bp8fraef2m0cb0m0","pricing_plan_id":"free"},{"bike_id":"ea381d9c-61ab-4e4c-9c8e-758dcf066ee3","system_id":"levelo_inurba_marseille","lat":43.26949,"lon":5.40262,"is_reserved":false,"is_disabled":false,"rental_uris":{"android":"levelo://app?vid=ea381d9c-61ab-4e4c-9c8e-758dcf066ee3","ios":"levelo://app?vid=ea381d9c-61ab-4e4c-9c8e-758dcf066ee3"},"vehicle_type_id":"4","last_reported":1702026453,"current_range_meters":28000,"station_id":"cjm6bp8fraef2m0cb0m0","pricing_plan_id":"free"},{"bike_id":"b2b103ac-0819-4d45-aab7-66487a241d22","system_id":"levelo_inurba_marseille","lat":43.26949,"lon":5.40262,"is_reserved":false,"is_disabled":false,"rental_uris":{"android":"levelo://app?vid=b2b103ac-0819-4d45-aab7-66487a241d22","ios":"levelo://app?vid=b2b103ac-0819-4d45-aab7-66487a241d22"},"vehicle_type_id":"4","last_reported":1702026453,"current_range_meters":0,"station_id":"cjm6bp8fraef2m0cb0m0","pricing_plan_id":"free"},{"bike_id":"736d0151-31db-4cb0-a5cc-0fa8fd52a877","system_id":"levelo_inurba_marseille","lat":43.269286,"lon":5.402629,"is_reserved":false,"is_disabled":false,"rental_uris":{"android":"levelo://app?vid=736d0151-31db-4cb0-a5cc-0fa8fd52a877","ios":"levelo://app?vid=736d0151-31db-4cb0-a5cc-0fa8fd52a877"},"vehicle_type_id":"4","last_reported":1702026453,"current_range_meters":16800,"station_id":"","pricing_plan_id":"free"},{"bike_id":"f2e5d013-6edb-494d-8e09-78d711cf04a7","system_id":"levelo_inurba_marseille","lat":43.317104,"lon":5.436818,"is_reserved":false,"is_disabled":false,"rental_uris":{"android":"levelo://app?vid=f2e5d013-6edb-494d-8e09-78d711cf04a7","ios":"levelo://app?vid=f2e5d013-6edb-494d-8e09-78d711cf04a7"},"vehicle_type_id":"4","last_reported":1702026453,"current_range_meters":27200,"station_id":"ce4bhp92rcd13ifvqhcg","pricing_plan_id":"free"},{"bike_id":"ed3d39e3-16d0-4193-b5f3-7d15fa62181e","system_id":"levelo_inurba_marseille","lat":43.262012,"lon":5.379307,"is_reserved":false,"is_disabled":false,"rental_uris":{"android":"levelo://app?vid=ed3d39e3-16d0-4193-b5f3-7d15fa62181e","ios":"levelo://app?vid=ed3d39e3-16d0-4193-b5f3-7d15fa62181e"},"vehicle_type_id":"4","last_reported":1702026453,"current_range_meters":31200,"station_id":"ce4bhjp2rcd13ifvqg90","pricing_plan_id":"free"},{"bike_id":"3304d659-2172-4c05-95b9-9ce22aa618b6","system_id":"levelo_inurba_marseille","lat":43.271388,"lon":5.409269,"is_reserved":false,"is_disabled":false,"rental_uris":{"android":"levelo://app?vid=3304d659-2172-4c05-95b9-9ce22aa618b6","ios":"levelo://app?vid=3304d659-2172-4c05-95b9-9ce22aa618b6"},"vehicle_type_id":"4","last_reported":1702026453,"current_range_meters":30000,"station_id":"ce4bhl12rcd13ifvqgf0","pricing_plan_id":"free"},{"bike_id":"8a8bc4d6-0029-4fbf-9728-a692a0316877","system_id":"levelo_inurba_marseille","lat":43.27557,"lon":5.41681,"is_reserved":false,"is_disabled":false,"rental_uris":{"android":"levelo://app?vid=8a8bc4d6-0029-4fbf-9728-a692a0316877","ios":"levelo://app?vid=8a8bc4d6-0029-4fbf-9728-a692a0316877"},"vehicle_type_id":"4","last_reported":1702026453,"current_range_meters":3200,"station_id":"","pricing_plan_id":"free"},{"bike_id":"0a3af9fe-4495-4765-a364-07e789cdace4","system_id":"levelo_inurba_marseille","lat":43.298768,"lon":5.43643,"is_reserved":false,"is_disabled":false,"rental_uris":{"android":"levelo://app?vid=0a3af9fe-4495-4765-a364-07e789cdace4","ios":"levelo://app?vid=0a3af9fe-4495-4765-a364-07e789cdace4"},"vehicle_type_id":"4","last_reported":1702026453,"current_range_meters":27600,"station_id":"ce4bhpp2rcd13ifvqhfg","pricing_plan_id":"free"},{"bike_id":"ca4db8a8-5b98-4b78-bc3d-514f38028a3d","system_id":"levelo_inurba_marseille","lat":43.298768,"lon":5.43643,"is_reserved":false,"is_disabled":false,"rental_uris":{"android":"levelo://app?vid=ca4db8a8-5b98-4b78-bc3d-514f38028a3d","ios":"levelo://app?vid=ca4db8a8-5b98-4b78-bc3d-514f38028a3d"},"vehicle_type_id":"4","last_reported":1702026453,"current_range_meters":30400,"station_id":"ce4bhpp2rcd13ifvqhfg","pricing_plan_id":"free"},{"bike_id":"4f68f183-a711-4386-a731-e8ea8e2f115e","system_id":"levelo_inurba_marseille","lat":43.298768,"lon":5.43643,"is_reserved":false,"is_disabled":false,"rental_uris":{"android":"levelo://app?vid=4f68f183-a711-4386-a731-e8ea8e2f115e","ios":"levelo://app?vid=4f68f183-a711-4386-a731-e8ea8e2f115e"},"vehicle_type_id":"4","last_reported":1702026453,"current_range_meters":25200,"station_id":"ce4bhpp2rcd13ifvqhfg","pricing_plan_id":"free"},{"bike_id":"83e2018e-7127-4415-8bbf-2e347a9c6750","system_id":"levelo_inurba_marseille","lat":43.29897,"lon":5.43669,"is_reserved":false,"is_disabled":false,"rental_uris":{"android":"levelo://app?vid=83e2018e-7127-4415-8bbf-2e347a9c6750","ios":"levelo://app?vid=83e2018e-7127-4415-8bbf-2e347a9c6750"},"vehicle_type_id":"4","last_reported":1702026453,"current_range_meters":4000,"station_id":"ce4bhpp2rcd13ifvqhfg","pricing_plan_id":"free"},{"bike_id":"fee59bde-6126-4a98-a3e0-c862515d1a23","system_id":"levelo_inurba_marseille","lat":43.281548,"lon":5.42643,"is_reserved":false,"is_disabled":false,"rental_uris":{"android":"levelo://app?vid=fee59bde-6126-4a98-a3e0-c862515d1a23","ios":"levelo://app?vid=fee59bde-6126-4a98-a3e0-c862515d1a23"},"vehicle_type_id":"4","last_reported":1702026453,"current_range_meters":30400,"station_id":"ce4bhnh2rcd13ifvqgug","pricing_plan_id":"free"},{"bike_id":"6c4a4127-c4de-4571-99d2-c4e93580765c","system_id":"levelo_inurba_marseille","lat":43.281548,"lon":5.42643,"is_reserved":false,"is_disabled":false,"rental_uris":{"android":"levelo://app?vid=6c4a4127-c4de-4571-99d2-c4e93580765c","ios":"levelo://app?vid=6c4a4127-c4de-4571-99d2-c4e93580765c"},"vehicle_type_id":"4","last_reported":1702026453,"current_range_meters":23600,"station_id":"ce4bhnh2rcd13ifvqgug","pricing_plan_id":"free"},{"bike_id":"ba7ddf79-ff50-4f5c-8fc6-82d165f47152","system_id":"levelo_inurba_marseille","lat":43.28153,"lon":5.42651,"is_reserved":false,"is_disabled":false,"rental_uris":{"android":"levelo://app?vid=ba7ddf79-ff50-4f5c-8fc6-82d165f47152","ios":"levelo://app?vid=ba7ddf79-ff50-4f5c-8fc6-82d165f47152"},"vehicle_type_id":"4","last_reported":1702026453,"current_range_meters":4800,"station_id":"ce4bhnh2rcd13ifvqgug","pricing_plan_id":"free"},{"bike_id":"aa000ddb-e1a1-44b1-9c45-a1da2129918f","system_id":"levelo_inurba_marseille","lat":43.2607,"lon":5.393983,"is_reserved":false,"is_disabled":false,"rental_uris":{"android":"levelo://app?vid=aa000ddb-e1a1-44b1-9c45-a1da2129918f","ios":"levelo://app?vid=aa000ddb-e1a1-44b1-9c45-a1da2129918f"},"vehicle_type_id":"4","last_reported":1702026453,"current_range_meters":13600,"station_id":"ce4bhh92rcd13ifvqfj0","pricing_plan_id":"free"},{"bike_id":"c90d4f1f-c031-4bfa-9513-341cda3df957","system_id":"levelo_inurba_marseille","lat":43.2607,"lon":5.393983,"is_reserved":false,"is_disabled":false,"rental_uris":{"android":"levelo://app?vid=c90d4f1f-c031-4bfa-9513-341cda3df957","ios":"levelo://app?vid=c90d4f1f-c031-4bfa-9513-341cda3df957"},"vehicle_type_id":"4","last_reported":1702026453,"current_range_meters":29600,"station_id":"ce4bhh92rcd13ifvqfj0","pricing_plan_id":"free"},{"bike_id":"a31da206-9ccc-41ba-b9e0-95fc13a79ad5","system_id":"levelo_inurba_marseille","lat":43.2607,"lon":5.393983,"is_reserved":false,"is_disabled":false,"rental_uris":{"android":"levelo://app?vid=a31da206-9ccc-41ba-b9e0-95fc13a79ad5","ios":"levelo://app?vid=a31da206-9ccc-41ba-b9e0-95fc13a79ad5"},"vehicle_type_id":"4","last_reported":1702026453,"current_range_meters":26800,"station_id":"ce4bhh92rcd13ifvqfj0","pricing_plan_id":"free"},{"bike_id":"6c375ee1-709c-47a6-b877-b3e435d63266","system_id":"levelo_inurba_marseille","lat":43.25583,"lon":5.38231,"is_reserved":false,"is_disabled":false,"rental_uris":{"android":"levelo://app?vid=6c375ee1-709c-47a6-b877-b3e435d63266","ios":"levelo://app?vid=6c375ee1-709c-47a6-b877-b3e435d63266"},"vehicle_type_id":"4","last_reported":1702026453,"current_range_meters":23600,"station_id":"ce4bhih2rcd13ifvqfs0","pricing_plan_id":"free"},{"bike_id":"8ed0ddca-11cc-4b43-b35d-ac1d76bafade","system_id":"levelo_inurba_marseille","lat":43.25824,"lon":5.39427,"is_reserved":false,"is_disabled":false,"rental_uris":{"android":"levelo://app?vid=8ed0ddca-11cc-4b43-b35d-ac1d76bafade","ios":"levelo://app?vid=8ed0ddca-11cc-4b43-b35d-ac1d76bafade"},"vehicle_type_id":"4","last_reported":1702026453,"current_range_meters":28800,"station_id":"ce4bhip2rcd13ifvqft0","pricing_plan_id":"free"},{"bike_id":"3ad59db9-ba6e-4237-879d-9ad671817685","system_id":"levelo_inurba_marseille","lat":43.258224,"lon":5.394369,"is_reserved":false,"is_disabled":false,"rental_uris":{"android":"levelo://app?vid=3ad59db9-ba6e-4237-879d-9ad671817685","ios":"levelo://app?vid=3ad59db9-ba6e-4237-879d-9ad671817685"},"vehicle_type_id":"4","last_reported":1702026453,"current_range_meters":26400,"station_id":"ce4bhip2rcd13ifvqft0","pricing_plan_id":"free"},{"bike_id":"a031c3ff-6dea-4029-b24a-3333710bb2e1","system_id":"levelo_inurba_marseille","lat":43.255713,"lon":5.382367,"is_reserved":false,"is_disabled":false,"rental_uris":{"android":"levelo://app?vid=a031c3ff-6dea-4029-b24a-3333710bb2e1","ios":"levelo://app?vid=a031c3ff-6dea-4029-b24a-3333710bb2e1"},"vehicle_type_id":"4","last_reported":1702026453,"current_range_meters":20800,"station_id":"ce4bhih2rcd13ifvqfs0","pricing_plan_id":"free"},{"bike_id":"d3f8d42e-7148-47c9-80b9-54e0739fd8b2","system_id":"levelo_inurba_marseille","lat":43.254947,"lon":5.376454,"is_reserved":false,"is_disabled":false,"rental_uris":{"android":"levelo://app?vid=d3f8d42e-7148-47c9-80b9-54e0739fd8b2","ios":"levelo://app?vid=d3f8d42e-7148-47c9-80b9-54e0739fd8b2"},"vehicle_type_id":"4","last_reported":1702026453,"current_range_meters":24400,"station_id":"ce4bhh12rcd13ifvqff0","pricing_plan_id":"free"},{"bike_id":"7b3c5568-a81d-4b3e-a545-3e6cf8403cc7","system_id":"levelo_inurba_marseille","lat":43.270721,"lon":5.422764,"is_reserved":false,"is_disabled":false,"rental_uris":{"android":"levelo://app?vid=7b3c5568-a81d-4b3e-a545-3e6cf8403cc7","ios":"levelo://app?vid=7b3c5568-a81d-4b3e-a545-3e6cf8403cc7"},"vehicle_type_id":"4","last_reported":1702026453,"current_range_meters":30000,"station_id":"ce4bhk92rcd13ifvqgb0","pricing_plan_id":"free"},{"bike_id":"6ff46a94-5053-46dc-a5ab-d6855b60d424","system_id":"levelo_inurba_marseille","lat":43.258658,"lon":5.398935,"is_reserved":false,"is_disabled":false,"rental_uris":{"android":"levelo://app?vid=6ff46a94-5053-46dc-a5ab-d6855b60d424","ios":"levelo://app?vid=6ff46a94-5053-46dc-a5ab-d6855b60d424"},"vehicle_type_id":"4","last_reported":1702026453,"current_range_meters":30800,"station_id":"ce4bhl92rcd13ifvqghg","pricing_plan_id":"free"},{"bike_id":"86c273ec-8ba5-46e9-8021-4aa98debfb6d","system_id":"levelo_inurba_marseille","lat":43.258658,"lon":5.398935,"is_reserved":false,"is_disabled":false,"rental_uris":{"android":"levelo://app?vid=86c273ec-8ba5-46e9-8021-4aa98debfb6d","ios":"levelo://app?vid=86c273ec-8ba5-46e9-8021-4aa98debfb6d"},"vehicle_type_id":"4","last_reported":1702026453,"current_range_meters":28800,"station_id":"ce4bhl92rcd13ifvqghg","pricing_plan_id":"free"},{"bike_id":"292c952d-e4e1-4c4c-a37e-be6cd513fd85","system_id":"levelo_inurba_marseille","lat":43.259009,"lon":5.40929,"is_reserved":false,"is_disabled":false,"rental_uris":{"android":"levelo://app?vid=292c952d-e4e1-4c4c-a37e-be6cd513fd85","ios":"levelo://app?vid=292c952d-e4e1-4c4c-a37e-be6cd513fd85"},"vehicle_type_id":"4","last_reported":1702026453,"current_range_meters":22400,"station_id":"ce4bhm92rcd13ifvqglg","pricing_plan_id":"free"},{"bike_id":"282047d9-53d4-40d7-a00e-dc16f8f5c42f","system_id":"levelo_inurba_marseille","lat":43.259013,"lon":5.409301,"is_reserved":false,"is_disabled":false,"rental_uris":{"android":"levelo://app?vid=282047d9-53d4-40d7-a00e-dc16f8f5c42f","ios":"levelo://app?vid=282047d9-53d4-40d7-a00e-dc16f8f5c42f"},"vehicle_type_id":"4","last_reported":1702026453,"current_range_meters":18800,"station_id":"ce4bhm92rcd13ifvqglg","pricing_plan_id":"free"},{"bike_id":"edb444dc-2efe-4df9-b284-a7027743e237","system_id":"levelo_inurba_marseille","lat":43.250023,"lon":5.38919,"is_reserved":false,"is_disabled":false,"rental_uris":{"android":"levelo://app?vid=edb444dc-2efe-4df9-b284-a7027743e237","ios":"levelo://app?vid=edb444dc-2efe-4df9-b284-a7027743e237"},"vehicle_type_id":"4","last_reported":1702026453,"current_range_meters":25600,"station_id":"ce4bhgp2rcd13ifvqfd0","pricing_plan_id":"free"},{"bike_id":"5df955c1-69ce-44bd-b0a5-f2dfd66c5dee","system_id":"levelo_inurba_marseille","lat":43.250009,"lon":5.389195,"is_reserved":false,"is_disabled":false,"rental_uris":{"android":"levelo://app?vid=5df955c1-69ce-44bd-b0a5-f2dfd66c5dee","ios":"levelo://app?vid=5df955c1-69ce-44bd-b0a5-f2dfd66c5dee"},"vehicle_type_id":"4","last_reported":1702026453,"current_range_meters":12800,"station_id":"ce4bhgp2rcd13ifvqfd0","pricing_plan_id":"free"},{"bike_id":"ddf2951b-2b04-424f-9ef1-6d8217c9e48c","system_id":"levelo_inurba_marseille","lat":43.250009,"lon":5.389195,"is_reserved":false,"is_disabled":false,"rental_uris":{"android":"levelo://app?vid=ddf2951b-2b04-424f-9ef1-6d8217c9e48c","ios":"levelo://app?vid=ddf2951b-2b04-424f-9ef1-6d8217c9e48c"},"vehicle_type_id":"4","last_reported":1702026453,"current_range_meters":31600,"station_id":"ce4bhgp2rcd13ifvqfd0","pricing_plan_id":"free"},{"bike_id":"0b4d00e8-4368-45fa-a64c-57ed80dcd7f5","system_id":"levelo_inurba_marseille","lat":43.2479,"lon":5.374457,"is_reserved":false,"is_disabled":false,"rental_uris":{"android":"levelo://app?vid=0b4d00e8-4368-45fa-a64c-57ed80dcd7f5","ios":"levelo://app?vid=0b4d00e8-4368-45fa-a64c-57ed80dcd7f5"},"vehicle_type_id":"4","last_reported":1702026453,"current_range_meters":12400,"station_id":"ce4bhgh2rcd13ifvqfb0","pricing_plan_id":"free"},{"bike_id":"1910481b-21fb-47f4-83ed-74524824e591","system_id":"levelo_inurba_marseille","lat":43.25102,"lon":5.403214,"is_reserved":false,"is_disabled":false,"rental_uris":{"android":"levelo://app?vid=1910481b-21fb-47f4-83ed-74524824e591","ios":"levelo://app?vid=1910481b-21fb-47f4-83ed-74524824e591"},"vehicle_type_id":"4","last_reported":1702026453,"current_range_meters":17600,"station_id":"ce4bhlh2rcd13ifvqgig","pricing_plan_id":"free"},{"bike_id":"55d4cda2-7880-44c8-8815-1b2f87dd305f","system_id":"levelo_inurba_marseille","lat":43.251087,"lon":5.403287,"is_reserved":false,"is_disabled":false,"rental_uris":{"android":"levelo://app?vid=55d4cda2-7880-44c8-8815-1b2f87dd305f","ios":"levelo://app?vid=55d4cda2-7880-44c8-8815-1b2f87dd305f"},"vehicle_type_id":"4","last_reported":1702026453,"current_range_meters":21600,"station_id":"ce4bhlh2rcd13ifvqgig","pricing_plan_id":"free"},{"bike_id":"e33b5033-9a3a-44d2-b7a2-0be2a23a1972","system_id":"levelo_inurba_marseille","lat":43.25109,"lon":5.4033,"is_reserved":false,"is_disabled":false,"rental_uris":{"android":"levelo://app?vid=e33b5033-9a3a-44d2-b7a2-0be2a23a1972","ios":"levelo://app?vid=e33b5033-9a3a-44d2-b7a2-0be2a23a1972"},"vehicle_type_id":"4","last_reported":1702026453,"current_range_meters":400,"station_id":"ce4bhlh2rcd13ifvqgig","pricing_plan_id":"free"},{"bike_id":"9721f0e7-0120-440d-9db1-67014846166a","system_id":"levelo_inurba_marseille","lat":43.243884,"lon":5.370737,"is_reserved":false,"is_disabled":false,"rental_uris":{"android":"levelo://app?vid=9721f0e7-0120-440d-9db1-67014846166a","ios":"levelo://app?vid=9721f0e7-0120-440d-9db1-67014846166a"},"vehicle_type_id":"4","last_reported":1702026453,"current_range_meters":26800,"station_id":"ce4bhhh2rcd13ifvqfk0","pricing_plan_id":"free"},{"bike_id":"a7359d42-ae96-4fbc-9d7e-58e1b4f3ca8c","system_id":"levelo_inurba_marseille","lat":43.243884,"lon":5.370737,"is_reserved":false,"is_disabled":false,"rental_uris":{"android":"levelo://app?vid=a7359d42-ae96-4fbc-9d7e-58e1b4f3ca8c","ios":"levelo://app?vid=a7359d42-ae96-4fbc-9d7e-58e1b4f3ca8c"},"vehicle_type_id":"4","last_reported":1702026453,"current_range_meters":28400,"station_id":"ce4bhhh2rcd13ifvqfk0","pricing_plan_id":"free"},{"bike_id":"2ee3d9c4-4972-4e95-9aee-470fd68e876e","system_id":"levelo_inurba_marseille","lat":43.245581,"lon":5.395069,"is_reserved":false,"is_disabled":false,"rental_uris":{"android":"levelo://app?vid=2ee3d9c4-4972-4e95-9aee-470fd68e876e","ios":"levelo://app?vid=2ee3d9c4-4972-4e95-9aee-470fd68e876e"},"vehicle_type_id":"4","last_reported":1702026453,"current_range_meters":25600,"station_id":"ce4bhlp2rcd13ifvqgjg","pricing_plan_id":"free"},{"bike_id":"1736197e-d189-44ae-962b-c17bbaad9b62","system_id":"levelo_inurba_marseille","lat":43.24071,"lon":5.37768,"is_reserved":false,"is_disabled":false,"rental_uris":{"android":"levelo://app?vid=1736197e-d189-44ae-962b-c17bbaad9b62","ios":"levelo://app?vid=1736197e-d189-44ae-962b-c17bbaad9b62"},"vehicle_type_id":"4","last_reported":1702026453,"current_range_meters":14800,"station_id":"ce4bhnp2rcd13ifvqgvg","pricing_plan_id":"free"},{"bike_id":"2dafbae8-0bbc-4e71-af1a-94cb2906751e","system_id":"levelo_inurba_marseille","lat":43.240623,"lon":5.377642,"is_reserved":false,"is_disabled":false,"rental_uris":{"android":"levelo://app?vid=2dafbae8-0bbc-4e71-af1a-94cb2906751e","ios":"levelo://app?vid=2dafbae8-0bbc-4e71-af1a-94cb2906751e"},"vehicle_type_id":"4","last_reported":1702026453,"current_range_meters":26800,"station_id":"ce4bhnp2rcd13ifvqgvg","pricing_plan_id":"free"},{"bike_id":"7b9cfb95-8237-4d3b-9c78-123155f59e13","system_id":"levelo_inurba_marseille","lat":43.240623,"lon":5.377642,"is_reserved":false,"is_disabled":false,"rental_uris":{"android":"levelo://app?vid=7b9cfb95-8237-4d3b-9c78-123155f59e13","ios":"levelo://app?vid=7b9cfb95-8237-4d3b-9c78-123155f59e13"},"vehicle_type_id":"4","last_reported":1702026453,"current_range_meters":27200,"station_id":"ce4bhnp2rcd13ifvqgvg","pricing_plan_id":"free"},{"bike_id":"9d647af5-6803-4dd5-8103-82cd449f1b60","system_id":"levelo_inurba_marseille","lat":43.240623,"lon":5.377642,"is_reserved":false,"is_disabled":false,"rental_uris":{"android":"levelo://app?vid=9d647af5-6803-4dd5-8103-82cd449f1b60","ios":"levelo://app?vid=9d647af5-6803-4dd5-8103-82cd449f1b60"},"vehicle_type_id":"4","last_reported":1702026453,"current_range_meters":21200,"station_id":"ce4bhnp2rcd13ifvqgvg","pricing_plan_id":"free"},{"bike_id":"d3f11772-4714-412b-8bd4-43d49e060b1a","system_id":"levelo_inurba_marseille","lat":43.240623,"lon":5.377642,"is_reserved":false,"is_disabled":false,"rental_uris":{"android":"levelo://app?vid=d3f11772-4714-412b-8bd4-43d49e060b1a","ios":"levelo://app?vid=d3f11772-4714-412b-8bd4-43d49e060b1a"},"vehicle_type_id":"4","last_reported":1702026453,"current_range_meters":31600,"station_id":"ce4bhnp2rcd13ifvqgvg","pricing_plan_id":"free"},{"bike_id":"1692a47e-c817-462d-93d2-64b93ec2a3db","system_id":"levelo_inurba_marseille","lat":43.240623,"lon":5.377642,"is_reserved":false,"is_disabled":false,"rental_uris":{"android":"levelo://app?vid=1692a47e-c817-462d-93d2-64b93ec2a3db","ios":"levelo://app?vid=1692a47e-c817-462d-93d2-64b93ec2a3db"},"vehicle_type_id":"4","last_reported":1702026453,"current_range_meters":2000,"station_id":"ce4bhnp2rcd13ifvqgvg","pricing_plan_id":"free"},{"bike_id":"6084096c-589b-4ba6-bd9d-6d547fd35b59","system_id":"levelo_inurba_marseille","lat":43.239588,"lon":5.366238,"is_reserved":false,"is_disabled":false,"rental_uris":{"android":"levelo://app?vid=6084096c-589b-4ba6-bd9d-6d547fd35b59","ios":"levelo://app?vid=6084096c-589b-4ba6-bd9d-6d547fd35b59"},"vehicle_type_id":"4","last_reported":1702026453,"current_range_meters":27600,"station_id":"ce4bhi12rcd13ifvqfp0","pricing_plan_id":"free"},{"bike_id":"19de1d90-0ef7-4697-bd3a-3e98bd2bf2e7","system_id":"levelo_inurba_marseille","lat":43.239588,"lon":5.366238,"is_reserved":false,"is_disabled":false,"rental_uris":{"android":"levelo://app?vid=19de1d90-0ef7-4697-bd3a-3e98bd2bf2e7","ios":"levelo://app?vid=19de1d90-0ef7-4697-bd3a-3e98bd2bf2e7"},"vehicle_type_id":"4","last_reported":1702026453,"current_range_meters":26400,"station_id":"ce4bhi12rcd13ifvqfp0","pricing_plan_id":"free"},{"bike_id":"6756da97-db2c-4337-aa21-556950095f65","system_id":"levelo_inurba_marseille","lat":43.24178,"lon":5.3973,"is_reserved":false,"is_disabled":false,"rental_uris":{"android":"levelo://app?vid=6756da97-db2c-4337-aa21-556950095f65","ios":"levelo://app?vid=6756da97-db2c-4337-aa21-556950095f65"},"vehicle_type_id":"4","last_reported":1702026453,"current_range_meters":5200,"station_id":"ce4bhn12rcd13ifvqgpg","pricing_plan_id":"free"},{"bike_id":"febb7c6a-3a82-4621-b837-c53042603cf4","system_id":"levelo_inurba_marseille","lat":43.231919,"lon":5.355532,"is_reserved":false,"is_disabled":false,"rental_uris":{"android":"levelo://app?vid=febb7c6a-3a82-4621-b837-c53042603cf4","ios":"levelo://app?vid=febb7c6a-3a82-4621-b837-c53042603cf4"},"vehicle_type_id":"4","last_reported":1702026453,"current_range_meters":26800,"station_id":"ce4bhu92rcd13ifvqi70","pricing_plan_id":"free"},{"bike_id":"6c4620c0-0d4d-493f-9950-4fd3c4457696","system_id":"levelo_inurba_marseille","lat":43.231794,"lon":5.400052,"is_reserved":false,"is_disabled":false,"rental_uris":{"android":"levelo://app?vid=6c4620c0-0d4d-493f-9950-4fd3c4457696","ios":"levelo://app?vid=6c4620c0-0d4d-493f-9950-4fd3c4457696"},"vehicle_type_id":"4","last_reported":1702026453,"current_range_meters":31600,"station_id":"ce4bhn12rcd13ifvqgqg","pricing_plan_id":"free"},{"bike_id":"be845917-f52e-4a9f-83ff-909546a09332","system_id":"levelo_inurba_marseille","lat":43.231794,"lon":5.400052,"is_reserved":false,"is_disabled":false,"rental_uris":{"android":"levelo://app?vid=be845917-f52e-4a9f-83ff-909546a09332","ios":"levelo://app?vid=be845917-f52e-4a9f-83ff-909546a09332"},"vehicle_type_id":"4","last_reported":1702026453,"current_range_meters":31600,"station_id":"ce4bhn12rcd13ifvqgqg","pricing_plan_id":"free"},{"bike_id":"10da1a3b-e2ae-4935-9987-5ceaccc8f64a","system_id":"levelo_inurba_marseille","lat":43.231794,"lon":5.400052,"is_reserved":false,"is_disabled":false,"rental_uris":{"android":"levelo://app?vid=10da1a3b-e2ae-4935-9987-5ceaccc8f64a","ios":"levelo://app?vid=10da1a3b-e2ae-4935-9987-5ceaccc8f64a"},"vehicle_type_id":"4","last_reported":1702026453,"current_range_meters":400,"station_id":"ce4bhn12rcd13ifvqgqg","pricing_plan_id":"free"},{"bike_id":"7f60bfa5-372f-4145-80ce-761d45a3c320","system_id":"levelo_inurba_marseille","lat":43.231562,"lon":5.436933,"is_reserved":false,"is_disabled":false,"rental_uris":{"android":"levelo://app?vid=7f60bfa5-372f-4145-80ce-761d45a3c320","ios":"levelo://app?vid=7f60bfa5-372f-4145-80ce-761d45a3c320"},"vehicle_type_id":"4","last_reported":1702026453,"current_range_meters":19200,"station_id":"ce4bhmp2rcd13ifvqgog","pricing_plan_id":"free"},{"bike_id":"6c3e3c9e-4b18-4000-ba39-0358b7d7d901","system_id":"levelo_inurba_marseille","lat":43.231562,"lon":5.436933,"is_reserved":false,"is_disabled":false,"rental_uris":{"android":"levelo://app?vid=6c3e3c9e-4b18-4000-ba39-0358b7d7d901","ios":"levelo://app?vid=6c3e3c9e-4b18-4000-ba39-0358b7d7d901"},"vehicle_type_id":"4","last_reported":1702026453,"current_range_meters":25600,"station_id":"ce4bhmp2rcd13ifvqgog","pricing_plan_id":"free"},{"bike_id":"52185dc8-f8c9-4df9-8092-bb2437fd062c","system_id":"levelo_inurba_marseille","lat":43.231562,"lon":5.436933,"is_reserved":false,"is_disabled":false,"rental_uris":{"android":"levelo://app?vid=52185dc8-f8c9-4df9-8092-bb2437fd062c","ios":"levelo://app?vid=52185dc8-f8c9-4df9-8092-bb2437fd062c"},"vehicle_type_id":"4","last_reported":1702026453,"current_range_meters":29200,"station_id":"ce4bhmp2rcd13ifvqgog","pricing_plan_id":"free"}]}}