{"last_updated":1701115655,"ttl":30,"version":"2.2","data":{"bikes":[{"bike_id":"f79e56b7-07fc-4cbb-8c5f-1219abdbaaa0","system_id":"levelo_inurba_marseille","lat":43.31341,"lon":5.367098,"is_reserved":false,"is_disabled":false,"rental_uris":{"android":"levelo://app?vid=f79e56b7-07fc-4cbb-8c5f-1219abdbaaa0","ios":"levelo://app?vid=f79e56b7-07fc-4cbb-8c5f-1219abdbaaa0"},"vehicle_type_id":"4","last_reported":1701115655,"current_range_meters":28000,"station_id":"ce4bgr92rcd13ifvqc6g","pricing_plan_id":"free"},{"bike_id":"f51fe9fd-4279-44cb-8049-f49fa432c2b0","system_id":"levelo_inurba_marseille","lat":43.312244,"lon":5.368555,"is_reserved":false,"is_disabled":false,"rental_uris":{"android":"levelo://app?vid=f51fe9fd-4279-44cb-8049-f49fa432c2b0","ios":"levelo://app?vid=f51fe9fd-4279-44cb-8049-f49fa432c2b0"},"vehicle_type_id":"4","last_reported":1701115655,"current_range_meters":31200,"station_id":"ce4bgl92rcd13ifvqbq0","pricing_plan_id":"free"},{"bike_id":"5126b0aa-d865-4589-8d50-8d8600ba8782","system_id":"levelo_inurba_marseille","lat":43.308515,"lon":5.368727,"is_reserved":false,"is_disabled":false,"rental_uris":{"android":"levelo://app?vid=5126b0aa-d865-4589-8d50-8d8600ba8782","ios":"levelo://app?vid=5126b0aa-d865-4589-8d50-8d8600ba8782"},"vehicle_type_id":"4","last_reported":1701115655,"current_range_meters":25200,"station_id":"","pricing_plan_id":"free"},{"bike_id":"4c3aff8e-69af-496f-b676-c009479e1889","system_id":"levelo_inurba_marseille","lat":43.314811,"lon":5.373103,"is_reserved":false,"is_disabled":false,"rental_uris":{"android":"levelo://app?vid=4c3aff8e-69af-496f-b676-c009479e1889","ios":"levelo://app?vid=4c3aff8e-69af-496f-b676-c009479e1889"},"vehicle_type_id":"4","last_reported":1701115655,"current_range_meters":30000,"station_id":"ce4bgt12rcd13ifvqcd0","pricing_plan_id":"free"},{"bike_id":"09b4c0c8-dcea-460e-bacf-553a29699226","system_id":"levelo_inurba_marseille","lat":43.309039,"lon":5.371797,"is_reserved":false,"is_disabled":false,"rental_uris":{"android":"levelo://app?vid=09b4c0c8-dcea-460e-bacf-553a29699226","ios":"levelo://app?vid=09b4c0c8-dcea-460e-bacf-553a29699226"},"vehicle_type_id":"4","last_reported":1701115655,"current_range_meters":12000,"station_id":"ce4bguh2rcd13ifvqckg","pricing_plan_id":"free"},{"bike_id":"fa4c08a8-f79b-4419-8791-02374ece74c7","system_id":"levelo_inurba_marseille","lat":43.316889,"lon":5.372801,"is_reserved":false,"is_disabled":false,"rental_uris":{"android":"levelo://app?vid=fa4c08a8-f79b-4419-8791-02374ece74c7","ios":"levelo://app?vid=fa4c08a8-f79b-4419-8791-02374ece74c7"},"vehicle_type_id":"4","last_reported":1701115655,"current_range_meters":4800,"station_id":"","pricing_plan_id":"free"},{"bike_id":"226310b2-638c-444c-a15f-247c16471cee","system_id":"levelo_inurba_marseille","lat":43.319292,"lon":5.368006,"is_reserved":false,"is_disabled":false,"rental_uris":{"android":"levelo://app?vid=226310b2-638c-444c-a15f-247c16471cee","ios":"levelo://app?vid=226310b2-638c-444c-a15f-247c16471cee"},"vehicle_type_id":"4","last_reported":1701115655,"current_range_meters":14400,"station_id":"","pricing_plan_id":"free"},{"bike_id":"87b7d67a-a5ed-4dee-80bc-e755854e28b8","system_id":"levelo_inurba_marseille","lat":43.31123,"lon":5.37772,"is_reserved":false,"is_disabled":false,"rental_uris":{"android":"levelo://app?vid=87b7d67a-a5ed-4dee-80bc-e755854e28b8","ios":"levelo://app?vid=87b7d67a-a5ed-4dee-80bc-e755854e28b8"},"vehicle_type_id":"4","last_reported":1701115655,"current_range_meters":14400,"station_id":"ce4bgt92rcd13ifvqcg0","pricing_plan_id":"free"},{"bike_id":"0525c228-cd5d-40c2-ac67-edd6915961b7","system_id":"levelo_inurba_marseille","lat":43.308194,"lon":5.376558,"is_reserved":false,"is_disabled":false,"rental_uris":{"android":"levelo://app?vid=0525c228-cd5d-40c2-ac67-edd6915961b7","ios":"levelo://app?vid=0525c228-cd5d-40c2-ac67-edd6915961b7"},"vehicle_type_id":"4","last_reported":1701115655,"current_range_meters":4800,"station_id":"ce4bgv92rcd13ifvqcq0","pricing_plan_id":"free"},{"bike_id":"fc415d5e-6575-4d37-9a53-1372d544d6af","system_id":"levelo_inurba_marseille","lat":43.308167,"lon":5.376557,"is_reserved":false,"is_disabled":false,"rental_uris":{"android":"levelo://app?vid=fc415d5e-6575-4d37-9a53-1372d544d6af","ios":"levelo://app?vid=fc415d5e-6575-4d37-9a53-1372d544d6af"},"vehicle_type_id":"4","last_reported":1701115655,"current_range_meters":24400,"station_id":"ce4bgv92rcd13ifvqcq0","pricing_plan_id":"free"},{"bike_id":"f427a2c3-6e4a-446b-ae2f-9be8aa7f4122","system_id":"levelo_inurba_marseille","lat":43.31719,"lon":5.376813,"is_reserved":false,"is_disabled":false,"rental_uris":{"android":"levelo://app?vid=f427a2c3-6e4a-446b-ae2f-9be8aa7f4122","ios":"levelo://app?vid=f427a2c3-6e4a-446b-ae2f-9be8aa7f4122"},"vehicle_type_id":"4","last_reported":1701115655,"current_range_meters":16000,"station_id":"ce4bgth2rcd13ifvqch0","pricing_plan_id":"free"},{"bike_id":"e913f328-1e31-4c22-bd87-f809ea246de4","system_id":"levelo_inurba_marseille","lat":43.317168,"lon":5.376883,"is_reserved":false,"is_disabled":false,"rental_uris":{"android":"levelo://app?vid=e913f328-1e31-4c22-bd87-f809ea246de4","ios":"levelo://app?vid=e913f328-1e31-4c22-bd87-f809ea246de4"},"vehicle_type_id":"4","last_reported":1701115655,"current_range_meters":18400,"station_id":"ce4bgth2rcd13ifvqch0","pricing_plan_id":"free"},{"bike_id":"f993eceb-afc0-4301-8e19-5772b3d7b2b6","system_id":"levelo_inurba_marseille","lat":43.317075,"lon":5.377367,"is_reserved":false,"is_disabled":false,"rental_uris":{"android":"levelo://app?vid=f993eceb-afc0-4301-8e19-5772b3d7b2b6","ios":"levelo://app?vid=f993eceb-afc0-4301-8e19-5772b3d7b2b6"},"vehicle_type_id":"4","last_reported":1701115655,"current_range_meters":19600,"station_id":"ce4bgth2rcd13ifvqch0","pricing_plan_id":"free"},{"bike_id":"1253bc3f-7b3f-4baf-bfb2-4acaba6b779a","system_id":"levelo_inurba_marseille","lat":43.303046,"lon":5.368981,"is_reserved":false,"is_disabled":false,"rental_uris":{"android":"levelo://app?vid=1253bc3f-7b3f-4baf-bfb2-4acaba6b779a","ios":"levelo://app?vid=1253bc3f-7b3f-4baf-bfb2-4acaba6b779a"},"vehicle_type_id":"4","last_reported":1701115655,"current_range_meters":7600,"station_id":"ce4bgqh2rcd13ifvqc5g","pricing_plan_id":"free"},{"bike_id":"7fcdacd0-b608-4301-ad7d-f2b3dd9cb659","system_id":"levelo_inurba_marseille","lat":43.308023,"lon":5.381462,"is_reserved":false,"is_disabled":false,"rental_uris":{"android":"levelo://app?vid=7fcdacd0-b608-4301-ad7d-f2b3dd9cb659","ios":"levelo://app?vid=7fcdacd0-b608-4301-ad7d-f2b3dd9cb659"},"vehicle_type_id":"4","last_reported":1701115655,"current_range_meters":0,"station_id":"ce4bgt12rcd13ifvqce0","pricing_plan_id":"free"},{"bike_id":"a016fa93-9e2d-44ac-a69d-d7c783a61473","system_id":"levelo_inurba_marseille","lat":43.304662,"lon":5.379085,"is_reserved":false,"is_disabled":false,"rental_uris":{"android":"levelo://app?vid=a016fa93-9e2d-44ac-a69d-d7c783a61473","ios":"levelo://app?vid=a016fa93-9e2d-44ac-a69d-d7c783a61473"},"vehicle_type_id":"4","last_reported":1701115655,"current_range_meters":14400,"station_id":"","pricing_plan_id":"free"},{"bike_id":"4ad8db87-2e2d-4900-a804-a1bb931ba164","system_id":"levelo_inurba_marseille","lat":43.32003,"lon":5.38162,"is_reserved":false,"is_disabled":false,"rental_uris":{"android":"levelo://app?vid=4ad8db87-2e2d-4900-a804-a1bb931ba164","ios":"levelo://app?vid=4ad8db87-2e2d-4900-a804-a1bb931ba164"},"vehicle_type_id":"4","last_reported":1701115655,"current_range_meters":400,"station_id":"ce4bhr12rcd13ifvqhpg","pricing_plan_id":"free"},{"bike_id":"e17a7de5-ebd4-42fc-8860-6e511f77b829","system_id":"levelo_inurba_marseille","lat":43.325154,"lon":5.361725,"is_reserved":false,"is_disabled":false,"rental_uris":{"android":"levelo://app?vid=e17a7de5-ebd4-42fc-8860-6e511f77b829","ios":"levelo://app?vid=e17a7de5-ebd4-42fc-8860-6e511f77b829"},"vehicle_type_id":"4","last_reported":1701115655,"current_range_meters":26800,"station_id":"","pricing_plan_id":"free"},{"bike_id":"f8d165e7-d334-4abd-8688-f7bbe3b066ac","system_id":"levelo_inurba_marseille","lat":43.313571,"lon":5.384829,"is_reserved":false,"is_disabled":false,"rental_uris":{"android":"levelo://app?vid=f8d165e7-d334-4abd-8688-f7bbe3b066ac","ios":"levelo://app?vid=f8d165e7-d334-4abd-8688-f7bbe3b066ac"},"vehicle_type_id":"4","last_reported":1701115655,"current_range_meters":25200,"station_id":"ce4bgt92rcd13ifvqcf0","pricing_plan_id":"free"},{"bike_id":"b2ee6be8-55aa-485f-af71-aa9a87f6169d","system_id":"levelo_inurba_marseille","lat":43.313571,"lon":5.384829,"is_reserved":false,"is_disabled":false,"rental_uris":{"android":"levelo://app?vid=b2ee6be8-55aa-485f-af71-aa9a87f6169d","ios":"levelo://app?vid=b2ee6be8-55aa-485f-af71-aa9a87f6169d"},"vehicle_type_id":"4","last_reported":1701115655,"current_range_meters":22000,"station_id":"ce4bgt92rcd13ifvqcf0","pricing_plan_id":"free"},{"bike_id":"74c61186-5a22-47b0-9c3e-c78231c21522","system_id":"levelo_inurba_marseille","lat":43.313678,"lon":5.384953,"is_reserved":false,"is_disabled":false,"rental_uris":{"android":"levelo://app?vid=74c61186-5a22-47b0-9c3e-c78231c21522","ios":"levelo://app?vid=74c61186-5a22-47b0-9c3e-c78231c21522"},"vehicle_type_id":"4","last_reported":1701115655,"current_range_meters":18400,"station_id":"","pricing_plan_id":"free"},{"bike_id":"1f083617-7f99-4dae-88e8-a90de29324f5","system_id":"levelo_inurba_marseille","lat":43.299724,"lon":5.371829,"is_reserved":false,"is_disabled":false,"rental_uris":{"android":"levelo://app?vid=1f083617-7f99-4dae-88e8-a90de29324f5","ios":"levelo://app?vid=1f083617-7f99-4dae-88e8-a90de29324f5"},"vehicle_type_id":"4","last_reported":1701115655,"current_range_meters":9200,"station_id":"ce4bgr92rcd13ifvqc7g","pricing_plan_id":"free"},{"bike_id":"dd3aed2c-fca5-4fe9-8c85-beb305eab1a4","system_id":"levelo_inurba_marseille","lat":43.299724,"lon":5.371829,"is_reserved":false,"is_disabled":false,"rental_uris":{"android":"levelo://app?vid=dd3aed2c-fca5-4fe9-8c85-beb305eab1a4","ios":"levelo://app?vid=dd3aed2c-fca5-4fe9-8c85-beb305eab1a4"},"vehicle_type_id":"4","last_reported":1701115655,"current_range_meters":16000,"station_id":"ce4bgr92rcd13ifvqc7g","pricing_plan_id":"free"},{"bike_id":"a84c3af9-c512-48af-8ce7-dc82d26f7933","system_id":"levelo_inurba_marseille","lat":43.305364,"lon":5.384119,"is_reserved":false,"is_disabled":false,"rental_uris":{"android":"levelo://app?vid=a84c3af9-c512-48af-8ce7-dc82d26f7933","ios":"levelo://app?vid=a84c3af9-c512-48af-8ce7-dc82d26f7933"},"vehicle_type_id":"4","last_reported":1701115655,"current_range_meters":10400,"station_id":"ce4bgg92rcd13ifvqb30","pricing_plan_id":"free"},{"bike_id":"c7e92377-39ba-4f83-8e6b-cbfb718ecee8","system_id":"levelo_inurba_marseille","lat":43.305364,"lon":5.384119,"is_reserved":false,"is_disabled":false,"rental_uris":{"android":"levelo://app?vid=c7e92377-39ba-4f83-8e6b-cbfb718ecee8","ios":"levelo://app?vid=c7e92377-39ba-4f83-8e6b-cbfb718ecee8"},"vehicle_type_id":"4","last_reported":1701115655,"current_range_meters":18000,"station_id":"ce4bgg92rcd13ifvqb30","pricing_plan_id":"free"},{"bike_id":"0d661962-3ce2-40f7-b487-b37bd4562dea","system_id":"levelo_inurba_marseille","lat":43.305364,"lon":5.384119,"is_reserved":false,"is_disabled":false,"rental_uris":{"android":"levelo://app?vid=0d661962-3ce2-40f7-b487-b37bd4562dea","ios":"levelo://app?vid=0d661962-3ce2-40f7-b487-b37bd4562dea"},"vehicle_type_id":"4","last_reported":1701115655,"current_range_meters":16400,"station_id":"ce4bgg92rcd13ifvqb30","pricing_plan_id":"free"},{"bike_id":"1000a605-b623-4a9a-af4f-16cadc09c3af","system_id":"levelo_inurba_marseille","lat":43.31172,"lon":5.38714,"is_reserved":false,"is_disabled":false,"rental_uris":{"android":"levelo://app?vid=1000a605-b623-4a9a-af4f-16cadc09c3af","ios":"levelo://app?vid=1000a605-b623-4a9a-af4f-16cadc09c3af"},"vehicle_type_id":"4","last_reported":1701115655,"current_range_meters":15200,"station_id":"ce4bgv12rcd13ifvqcp0","pricing_plan_id":"free"},{"bike_id":"53af2ece-3b0a-45d3-b185-0fe050e696d8","system_id":"levelo_inurba_marseille","lat":43.297774,"lon":5.370875,"is_reserved":false,"is_disabled":false,"rental_uris":{"android":"levelo://app?vid=53af2ece-3b0a-45d3-b185-0fe050e696d8","ios":"levelo://app?vid=53af2ece-3b0a-45d3-b185-0fe050e696d8"},"vehicle_type_id":"4","last_reported":1701115655,"current_range_meters":27200,"station_id":"ce4bgop2rcd13ifvqc1g","pricing_plan_id":"free"},{"bike_id":"ea81c7a7-10cd-4f6b-b0a5-a3d91306bc0f","system_id":"levelo_inurba_marseille","lat":43.322872,"lon":5.382756,"is_reserved":false,"is_disabled":false,"rental_uris":{"android":"levelo://app?vid=ea81c7a7-10cd-4f6b-b0a5-a3d91306bc0f","ios":"levelo://app?vid=ea81c7a7-10cd-4f6b-b0a5-a3d91306bc0f"},"vehicle_type_id":"4","last_reported":1701115655,"current_range_meters":30400,"station_id":"ce4bhr12rcd13ifvqhqg","pricing_plan_id":"free"},{"bike_id":"1df95087-0211-4401-99cb-f533fc6d5326","system_id":"levelo_inurba_marseille","lat":43.328269,"lon":5.366851,"is_reserved":false,"is_disabled":false,"rental_uris":{"android":"levelo://app?vid=1df95087-0211-4401-99cb-f533fc6d5326","ios":"levelo://app?vid=1df95087-0211-4401-99cb-f533fc6d5326"},"vehicle_type_id":"4","last_reported":1701115655,"current_range_meters":20800,"station_id":"","pricing_plan_id":"free"},{"bike_id":"f7f59c23-bc6f-479d-8752-b4ab95b41a11","system_id":"levelo_inurba_marseille","lat":43.297163,"lon":5.365866,"is_reserved":false,"is_disabled":false,"rental_uris":{"android":"levelo://app?vid=f7f59c23-bc6f-479d-8752-b4ab95b41a11","ios":"levelo://app?vid=f7f59c23-bc6f-479d-8752-b4ab95b41a11"},"vehicle_type_id":"4","last_reported":1701115655,"current_range_meters":27600,"station_id":"ce4bgn12rcd13ifvqbt0","pricing_plan_id":"free"},{"bike_id":"69526fd8-bd61-4c81-acee-5dc202c982ba","system_id":"levelo_inurba_marseille","lat":43.2968,"lon":5.37291,"is_reserved":false,"is_disabled":false,"rental_uris":{"android":"levelo://app?vid=69526fd8-bd61-4c81-acee-5dc202c982ba","ios":"levelo://app?vid=69526fd8-bd61-4c81-acee-5dc202c982ba"},"vehicle_type_id":"4","last_reported":1701115655,"current_range_meters":14000,"station_id":"ce4bgk12rcd13ifvqbj0","pricing_plan_id":"free"},{"bike_id":"4c95beac-a5ce-4bfa-b22f-3c47a7c86e4e","system_id":"levelo_inurba_marseille","lat":43.2959,"lon":5.368002,"is_reserved":false,"is_disabled":false,"rental_uris":{"android":"levelo://app?vid=4c95beac-a5ce-4bfa-b22f-3c47a7c86e4e","ios":"levelo://app?vid=4c95beac-a5ce-4bfa-b22f-3c47a7c86e4e"},"vehicle_type_id":"4","last_reported":1701115655,"current_range_meters":22400,"station_id":"","pricing_plan_id":"free"},{"bike_id":"822f537c-d44a-438d-a78c-74cb3f439fa7","system_id":"levelo_inurba_marseille","lat":43.317557,"lon":5.390173,"is_reserved":false,"is_disabled":false,"rental_uris":{"android":"levelo://app?vid=822f537c-d44a-438d-a78c-74cb3f439fa7","ios":"levelo://app?vid=822f537c-d44a-438d-a78c-74cb3f439fa7"},"vehicle_type_id":"4","last_reported":1701115655,"current_range_meters":30000,"station_id":"ce4bhqp2rcd13ifvqhng","pricing_plan_id":"free"},{"bike_id":"0fb75189-8062-4821-b946-33279a608388","system_id":"levelo_inurba_marseille","lat":43.304274,"lon":5.388873,"is_reserved":false,"is_disabled":false,"rental_uris":{"android":"levelo://app?vid=0fb75189-8062-4821-b946-33279a608388","ios":"levelo://app?vid=0fb75189-8062-4821-b946-33279a608388"},"vehicle_type_id":"4","last_reported":1701115655,"current_range_meters":2800,"station_id":"ce4bgk12rcd13ifvqbi0","pricing_plan_id":"free"},{"bike_id":"780f9145-2062-4ab8-857e-5aeadfbac862","system_id":"levelo_inurba_marseille","lat":43.304278,"lon":5.388868,"is_reserved":false,"is_disabled":false,"rental_uris":{"android":"levelo://app?vid=780f9145-2062-4ab8-857e-5aeadfbac862","ios":"levelo://app?vid=780f9145-2062-4ab8-857e-5aeadfbac862"},"vehicle_type_id":"4","last_reported":1701115655,"current_range_meters":12800,"station_id":"ce4bgk12rcd13ifvqbi0","pricing_plan_id":"free"},{"bike_id":"341ff6c8-1a7a-421b-9b8e-5f5cd1ea5551","system_id":"levelo_inurba_marseille","lat":43.304278,"lon":5.388868,"is_reserved":false,"is_disabled":false,"rental_uris":{"android":"levelo://app?vid=341ff6c8-1a7a-421b-9b8e-5f5cd1ea5551","ios":"levelo://app?vid=341ff6c8-1a7a-421b-9b8e-5f5cd1ea5551"},"vehicle_type_id":"4","last_reported":1701115655,"current_range_meters":8800,"station_id":"ce4bgk12rcd13ifvqbi0","pricing_plan_id":"free"},{"bike_id":"4a990a4a-4abb-478c-af13-e7cd89b4b263","system_id":"levelo_inurba_marseille","lat":43.304274,"lon":5.388873,"is_reserved":false,"is_disabled":false,"rental_uris":{"android":"levelo://app?vid=4a990a4a-4abb-478c-af13-e7cd89b4b263","ios":"levelo://app?vid=4a990a4a-4abb-478c-af13-e7cd89b4b263"},"vehicle_type_id":"4","last_reported":1701115655,"current_range_meters":31200,"station_id":"ce4bgk12rcd13ifvqbi0","pricing_plan_id":"free"},{"bike_id":"ef14b776-ccee-4abf-b065-5216fc632d78","system_id":"levelo_inurba_marseille","lat":43.304278,"lon":5.388868,"is_reserved":false,"is_disabled":false,"rental_uris":{"android":"levelo://app?vid=ef14b776-ccee-4abf-b065-5216fc632d78","ios":"levelo://app?vid=ef14b776-ccee-4abf-b065-5216fc632d78"},"vehicle_type_id":"4","last_reported":1701115655,"current_range_meters":14400,"station_id":"ce4bgk12rcd13ifvqbi0","pricing_plan_id":"free"},{"bike_id":"0ab926dd-74af-49b4-8315-7c3283e2fd18","system_id":"levelo_inurba_marseille","lat":43.304278,"lon":5.388868,"is_reserved":false,"is_disabled":false,"rental_uris":{"android":"levelo://app?vid=0ab926dd-74af-49b4-8315-7c3283e2fd18","ios":"levelo://app?vid=0ab926dd-74af-49b4-8315-7c3283e2fd18"},"vehicle_type_id":"4","last_reported":1701115655,"current_range_meters":21600,"station_id":"ce4bgk12rcd13ifvqbi0","pricing_plan_id":"free"},{"bike_id":"206167ba-51a0-4f30-a21e-08debe391481","system_id":"levelo_inurba_marseille","lat":43.304274,"lon":5.388873,"is_reserved":false,"is_disabled":false,"rental_uris":{"android":"levelo://app?vid=206167ba-51a0-4f30-a21e-08debe391481","ios":"levelo://app?vid=206167ba-51a0-4f30-a21e-08debe391481"},"vehicle_type_id":"4","last_reported":1701115655,"current_range_meters":10400,"station_id":"ce4bgk12rcd13ifvqbi0","pricing_plan_id":"free"},{"bike_id":"707013bc-b378-4364-bebc-7afc219dabba","system_id":"levelo_inurba_marseille","lat":43.29601,"lon":5.381084,"is_reserved":false,"is_disabled":false,"rental_uris":{"android":"levelo://app?vid=707013bc-b378-4364-bebc-7afc219dabba","ios":"levelo://app?vid=707013bc-b378-4364-bebc-7afc219dabba"},"vehicle_type_id":"4","last_reported":1701115655,"current_range_meters":24800,"station_id":"ce4bgl12rcd13ifvqbo0","pricing_plan_id":"free"},{"bike_id":"6b3cd4b4-eb56-4412-a03c-981b6593a438","system_id":"levelo_inurba_marseille","lat":43.29602,"lon":5.381084,"is_reserved":false,"is_disabled":false,"rental_uris":{"android":"levelo://app?vid=6b3cd4b4-eb56-4412-a03c-981b6593a438","ios":"levelo://app?vid=6b3cd4b4-eb56-4412-a03c-981b6593a438"},"vehicle_type_id":"4","last_reported":1701115655,"current_range_meters":30800,"station_id":"ce4bgl12rcd13ifvqbo0","pricing_plan_id":"free"},{"bike_id":"0148a870-8a5a-4888-b700-35c070a56750","system_id":"levelo_inurba_marseille","lat":43.2936,"lon":5.37835,"is_reserved":false,"is_disabled":false,"rental_uris":{"android":"levelo://app?vid=0148a870-8a5a-4888-b700-35c070a56750","ios":"levelo://app?vid=0148a870-8a5a-4888-b700-35c070a56750"},"vehicle_type_id":"4","last_reported":1701115655,"current_range_meters":8400,"station_id":"ce4bgjh2rcd13ifvqbf0","pricing_plan_id":"free"},{"bike_id":"24af6817-ca93-4c45-8ee3-64913853c3c6","system_id":"levelo_inurba_marseille","lat":43.2936,"lon":5.37835,"is_reserved":false,"is_disabled":false,"rental_uris":{"android":"levelo://app?vid=24af6817-ca93-4c45-8ee3-64913853c3c6","ios":"levelo://app?vid=24af6817-ca93-4c45-8ee3-64913853c3c6"},"vehicle_type_id":"4","last_reported":1701115655,"current_range_meters":18000,"station_id":"ce4bgjh2rcd13ifvqbf0","pricing_plan_id":"free"},{"bike_id":"99c17f20-b420-4223-9627-b6e43c79d4e6","system_id":"levelo_inurba_marseille","lat":43.303002,"lon":5.392142,"is_reserved":false,"is_disabled":false,"rental_uris":{"android":"levelo://app?vid=99c17f20-b420-4223-9627-b6e43c79d4e6","ios":"levelo://app?vid=99c17f20-b420-4223-9627-b6e43c79d4e6"},"vehicle_type_id":"4","last_reported":1701115655,"current_range_meters":26800,"station_id":"ce4bgkh2rcd13ifvqbk0","pricing_plan_id":"free"},{"bike_id":"560ffa87-286e-4454-bf3c-81de0327863b","system_id":"levelo_inurba_marseille","lat":43.2936,"lon":5.37835,"is_reserved":false,"is_disabled":false,"rental_uris":{"android":"levelo://app?vid=560ffa87-286e-4454-bf3c-81de0327863b","ios":"levelo://app?vid=560ffa87-286e-4454-bf3c-81de0327863b"},"vehicle_type_id":"4","last_reported":1701115655,"current_range_meters":24800,"station_id":"ce4bgjh2rcd13ifvqbf0","pricing_plan_id":"free"},{"bike_id":"3c901414-cb82-44e7-802f-6b507149bc79","system_id":"levelo_inurba_marseille","lat":43.302992,"lon":5.392136,"is_reserved":false,"is_disabled":false,"rental_uris":{"android":"levelo://app?vid=3c901414-cb82-44e7-802f-6b507149bc79","ios":"levelo://app?vid=3c901414-cb82-44e7-802f-6b507149bc79"},"vehicle_type_id":"4","last_reported":1701115655,"current_range_meters":28000,"station_id":"ce4bgkh2rcd13ifvqbk0","pricing_plan_id":"free"},{"bike_id":"e99a2f51-6eae-405d-b586-ead19553240e","system_id":"levelo_inurba_marseille","lat":43.300852,"lon":5.390859,"is_reserved":false,"is_disabled":false,"rental_uris":{"android":"levelo://app?vid=e99a2f51-6eae-405d-b586-ead19553240e","ios":"levelo://app?vid=e99a2f51-6eae-405d-b586-ead19553240e"},"vehicle_type_id":"4","last_reported":1701115655,"current_range_meters":23200,"station_id":"ce4bh192rcd13ifvqdb0","pricing_plan_id":"free"},{"bike_id":"b69451bb-0f34-4a12-bb1f-0c7b7daebaa3","system_id":"levelo_inurba_marseille","lat":43.30085,"lon":5.390856,"is_reserved":false,"is_disabled":false,"rental_uris":{"android":"levelo://app?vid=b69451bb-0f34-4a12-bb1f-0c7b7daebaa3","ios":"levelo://app?vid=b69451bb-0f34-4a12-bb1f-0c7b7daebaa3"},"vehicle_type_id":"4","last_reported":1701115655,"current_range_meters":21600,"station_id":"ce4bh192rcd13ifvqdb0","pricing_plan_id":"free"},{"bike_id":"46372db6-9d0d-4ecc-9ea1-5bcac73c6171","system_id":"levelo_inurba_marseille","lat":43.30085,"lon":5.390856,"is_reserved":false,"is_disabled":false,"rental_uris":{"android":"levelo://app?vid=46372db6-9d0d-4ecc-9ea1-5bcac73c6171","ios":"levelo://app?vid=46372db6-9d0d-4ecc-9ea1-5bcac73c6171"},"vehicle_type_id":"4","last_reported":1701115655,"current_range_meters":6000,"station_id":"ce4bh192rcd13ifvqdb0","pricing_plan_id":"free"},{"bike_id":"3e7110e2-6f6f-49eb-a71d-9fb432530ced","system_id":"levelo_inurba_marseille","lat":43.300852,"lon":5.390859,"is_reserved":false,"is_disabled":false,"rental_uris":{"android":"levelo://app?vid=3e7110e2-6f6f-49eb-a71d-9fb432530ced","ios":"levelo://app?vid=3e7110e2-6f6f-49eb-a71d-9fb432530ced"},"vehicle_type_id":"4","last_reported":1701115655,"current_range_meters":7200,"station_id":"ce4bh192rcd13ifvqdb0","pricing_plan_id":"free"},{"bike_id":"c093d5c2-1414-45ed-8276-4da55513601b","system_id":"levelo_inurba_marseille","lat":43.286593,"lon":5.363346,"is_reserved":false,"is_disabled":false,"rental_uris":{"android":"levelo://app?vid=c093d5c2-1414-45ed-8276-4da55513601b","ios":"levelo://app?vid=c093d5c2-1414-45ed-8276-4da55513601b"},"vehicle_type_id":"4","last_reported":1701115655,"current_range_meters":15600,"station_id":"ce4bhah2rcd13ifvqej0","pricing_plan_id":"free"},{"bike_id":"923100cc-607d-447b-bf3b-17960e6836e9","system_id":"levelo_inurba_marseille","lat":43.298764,"lon":5.388973,"is_reserved":false,"is_disabled":false,"rental_uris":{"android":"levelo://app?vid=923100cc-607d-447b-bf3b-17960e6836e9","ios":"levelo://app?vid=923100cc-607d-447b-bf3b-17960e6836e9"},"vehicle_type_id":"4","last_reported":1701115655,"current_range_meters":29600,"station_id":"ce4bh392rcd13ifvqdl0","pricing_plan_id":"free"},{"bike_id":"f2e7533f-807d-4008-803e-979b23a6f127","system_id":"levelo_inurba_marseille","lat":43.29866,"lon":5.389073,"is_reserved":false,"is_disabled":false,"rental_uris":{"android":"levelo://app?vid=f2e7533f-807d-4008-803e-979b23a6f127","ios":"levelo://app?vid=f2e7533f-807d-4008-803e-979b23a6f127"},"vehicle_type_id":"4","last_reported":1701115655,"current_range_meters":31200,"station_id":"ce4bh392rcd13ifvqdl0","pricing_plan_id":"free"},{"bike_id":"72edd8fb-1f78-46ab-a528-f5c72497e419","system_id":"levelo_inurba_marseille","lat":43.31328,"lon":5.39686,"is_reserved":false,"is_disabled":false,"rental_uris":{"android":"levelo://app?vid=72edd8fb-1f78-46ab-a528-f5c72497e419","ios":"levelo://app?vid=72edd8fb-1f78-46ab-a528-f5c72497e419"},"vehicle_type_id":"4","last_reported":1701115655,"current_range_meters":17200,"station_id":"ce4bgvp2rcd13ifvqcu0","pricing_plan_id":"free"},{"bike_id":"9dfc1be4-40e0-479e-8a23-39504815e756","system_id":"levelo_inurba_marseille","lat":43.332716,"lon":5.379629,"is_reserved":false,"is_disabled":false,"rental_uris":{"android":"levelo://app?vid=9dfc1be4-40e0-479e-8a23-39504815e756","ios":"levelo://app?vid=9dfc1be4-40e0-479e-8a23-39504815e756"},"vehicle_type_id":"4","last_reported":1701115655,"current_range_meters":30800,"station_id":"","pricing_plan_id":"free"},{"bike_id":"5d003559-94fe-44e8-9cee-1d1e48fb166c","system_id":"levelo_inurba_marseille","lat":43.29529,"lon":5.385581,"is_reserved":false,"is_disabled":false,"rental_uris":{"android":"levelo://app?vid=5d003559-94fe-44e8-9cee-1d1e48fb166c","ios":"levelo://app?vid=5d003559-94fe-44e8-9cee-1d1e48fb166c"},"vehicle_type_id":"4","last_reported":1701115655,"current_range_meters":22400,"station_id":"ce4bgih2rcd13ifvqba0","pricing_plan_id":"free"},{"bike_id":"8387bb27-1021-4662-959d-f2e3c13eb3bb","system_id":"levelo_inurba_marseille","lat":43.290624,"lon":5.359245,"is_reserved":false,"is_disabled":false,"rental_uris":{"android":"levelo://app?vid=8387bb27-1021-4662-959d-f2e3c13eb3bb","ios":"levelo://app?vid=8387bb27-1021-4662-959d-f2e3c13eb3bb"},"vehicle_type_id":"4","last_reported":1701115655,"current_range_meters":20000,"station_id":"ce4bha92rcd13ifvqeg0","pricing_plan_id":"free"},{"bike_id":"a6081ea1-e858-4e73-8cc7-4d0c581634f2","system_id":"levelo_inurba_marseille","lat":43.294153,"lon":5.386305,"is_reserved":false,"is_disabled":false,"rental_uris":{"android":"levelo://app?vid=a6081ea1-e858-4e73-8cc7-4d0c581634f2","ios":"levelo://app?vid=a6081ea1-e858-4e73-8cc7-4d0c581634f2"},"vehicle_type_id":"4","last_reported":1701115655,"current_range_meters":10400,"station_id":"ce4bh2h2rcd13ifvqdh0","pricing_plan_id":"free"},{"bike_id":"a248d733-ba07-4514-b56b-818d25632f33","system_id":"levelo_inurba_marseille","lat":43.294162,"lon":5.386292,"is_reserved":false,"is_disabled":false,"rental_uris":{"android":"levelo://app?vid=a248d733-ba07-4514-b56b-818d25632f33","ios":"levelo://app?vid=a248d733-ba07-4514-b56b-818d25632f33"},"vehicle_type_id":"4","last_reported":1701115655,"current_range_meters":11600,"station_id":"ce4bh2h2rcd13ifvqdh0","pricing_plan_id":"free"},{"bike_id":"985b7c02-afd7-4b7b-8d03-eb2c8b458f07","system_id":"levelo_inurba_marseille","lat":43.29414,"lon":5.38626,"is_reserved":false,"is_disabled":false,"rental_uris":{"android":"levelo://app?vid=985b7c02-afd7-4b7b-8d03-eb2c8b458f07","ios":"levelo://app?vid=985b7c02-afd7-4b7b-8d03-eb2c8b458f07"},"vehicle_type_id":"4","last_reported":1701115655,"current_range_meters":0,"station_id":"ce4bh2h2rcd13ifvqdh0","pricing_plan_id":"free"},{"bike_id":"65537db9-1ff1-4cdd-828f-28f36d467f8d","system_id":"levelo_inurba_marseille","lat":43.289423,"lon":5.364012,"is_reserved":false,"is_disabled":false,"rental_uris":{"android":"levelo://app?vid=65537db9-1ff1-4cdd-828f-28f36d467f8d","ios":"levelo://app?vid=65537db9-1ff1-4cdd-828f-28f36d467f8d"},"vehicle_type_id":"4","last_reported":1701115655,"current_range_meters":0,"station_id":"ce4bhc92rcd13ifvqetg","pricing_plan_id":"free"},{"bike_id":"b4707e23-9a73-4dc3-ad92-7d157f42afdb","system_id":"levelo_inurba_marseille","lat":43.30293,"lon":5.39618,"is_reserved":false,"is_disabled":false,"rental_uris":{"android":"levelo://app?vid=b4707e23-9a73-4dc3-ad92-7d157f42afdb","ios":"levelo://app?vid=b4707e23-9a73-4dc3-ad92-7d157f42afdb"},"vehicle_type_id":"4","last_reported":1701115655,"current_range_meters":12800,"station_id":"","pricing_plan_id":"free"},{"bike_id":"d7712109-0756-421c-a5ec-b477b13f9196","system_id":"levelo_inurba_marseille","lat":43.289402,"lon":5.363924,"is_reserved":false,"is_disabled":false,"rental_uris":{"android":"levelo://app?vid=d7712109-0756-421c-a5ec-b477b13f9196","ios":"levelo://app?vid=d7712109-0756-421c-a5ec-b477b13f9196"},"vehicle_type_id":"4","last_reported":1701115655,"current_range_meters":28400,"station_id":"ce4bhc92rcd13ifvqetg","pricing_plan_id":"free"},{"bike_id":"0f08827b-c028-4732-a7d8-5b51e5025f03","system_id":"levelo_inurba_marseille","lat":43.292644,"lon":5.384257,"is_reserved":false,"is_disabled":false,"rental_uris":{"android":"levelo://app?vid=0f08827b-c028-4732-a7d8-5b51e5025f03","ios":"levelo://app?vid=0f08827b-c028-4732-a7d8-5b51e5025f03"},"vehicle_type_id":"4","last_reported":1701115655,"current_range_meters":1200,"station_id":"ce4bh692rcd13ifvqea0","pricing_plan_id":"free"},{"bike_id":"6a439ea7-ec67-4692-b5f0-a1e32d1bc756","system_id":"levelo_inurba_marseille","lat":43.292644,"lon":5.384257,"is_reserved":false,"is_disabled":false,"rental_uris":{"android":"levelo://app?vid=6a439ea7-ec67-4692-b5f0-a1e32d1bc756","ios":"levelo://app?vid=6a439ea7-ec67-4692-b5f0-a1e32d1bc756"},"vehicle_type_id":"4","last_reported":1701115655,"current_range_meters":4000,"station_id":"ce4bh692rcd13ifvqea0","pricing_plan_id":"free"},{"bike_id":"a351cab0-10a9-4df4-953c-4fd50466a12b","system_id":"levelo_inurba_marseille","lat":43.33038,"lon":5.38916,"is_reserved":false,"is_disabled":false,"rental_uris":{"android":"levelo://app?vid=a351cab0-10a9-4df4-953c-4fd50466a12b","ios":"levelo://app?vid=a351cab0-10a9-4df4-953c-4fd50466a12b"},"vehicle_type_id":"4","last_reported":1701115655,"current_range_meters":5600,"station_id":"ce4bhr92rcd13ifvqhrg","pricing_plan_id":"free"},{"bike_id":"0e8b74c5-db88-4ede-90fd-1c86c15e2e8f","system_id":"levelo_inurba_marseille","lat":43.330442,"lon":5.389148,"is_reserved":false,"is_disabled":false,"rental_uris":{"android":"levelo://app?vid=0e8b74c5-db88-4ede-90fd-1c86c15e2e8f","ios":"levelo://app?vid=0e8b74c5-db88-4ede-90fd-1c86c15e2e8f"},"vehicle_type_id":"4","last_reported":1701115655,"current_range_meters":13600,"station_id":"ce4bhr92rcd13ifvqhrg","pricing_plan_id":"free"},{"bike_id":"733df573-ef55-4625-82f6-5556c4c6510e","system_id":"levelo_inurba_marseille","lat":43.330442,"lon":5.389148,"is_reserved":false,"is_disabled":false,"rental_uris":{"android":"levelo://app?vid=733df573-ef55-4625-82f6-5556c4c6510e","ios":"levelo://app?vid=733df573-ef55-4625-82f6-5556c4c6510e"},"vehicle_type_id":"4","last_reported":1701115655,"current_range_meters":18000,"station_id":"ce4bhr92rcd13ifvqhrg","pricing_plan_id":"free"},{"bike_id":"d9b955d1-954f-42c5-99a9-57c968f2c76e","system_id":"levelo_inurba_marseille","lat":43.295169,"lon":5.390426,"is_reserved":false,"is_disabled":false,"rental_uris":{"android":"levelo://app?vid=d9b955d1-954f-42c5-99a9-57c968f2c76e","ios":"levelo://app?vid=d9b955d1-954f-42c5-99a9-57c968f2c76e"},"vehicle_type_id":"4","last_reported":1701115655,"current_range_meters":28400,"station_id":"ce4bh3p2rcd13ifvqdp0","pricing_plan_id":"free"},{"bike_id":"9cb2e143-991f-4b64-9aeb-5b2b87f3e627","system_id":"levelo_inurba_marseille","lat":43.295169,"lon":5.390426,"is_reserved":false,"is_disabled":false,"rental_uris":{"android":"levelo://app?vid=9cb2e143-991f-4b64-9aeb-5b2b87f3e627","ios":"levelo://app?vid=9cb2e143-991f-4b64-9aeb-5b2b87f3e627"},"vehicle_type_id":"4","last_reported":1701115655,"current_range_meters":29200,"station_id":"ce4bh3p2rcd13ifvqdp0","pricing_plan_id":"free"},{"bike_id":"addb3e50-3a2c-4803-9317-cff8a3badf2d","system_id":"levelo_inurba_marseille","lat":43.29529,"lon":5.39047,"is_reserved":false,"is_disabled":false,"rental_uris":{"android":"levelo://app?vid=addb3e50-3a2c-4803-9317-cff8a3badf2d","ios":"levelo://app?vid=addb3e50-3a2c-4803-9317-cff8a3badf2d"},"vehicle_type_id":"4","last_reported":1701115655,"current_range_meters":27200,"station_id":"ce4bh3p2rcd13ifvqdp0","pricing_plan_id":"free"},{"bike_id":"ac7422dd-0446-4f47-9dd4-184763ecc50c","system_id":"levelo_inurba_marseille","lat":43.295169,"lon":5.390426,"is_reserved":false,"is_disabled":false,"rental_uris":{"android":"levelo://app?vid=ac7422dd-0446-4f47-9dd4-184763ecc50c","ios":"levelo://app?vid=ac7422dd-0446-4f47-9dd4-184763ecc50c"},"vehicle_type_id":"4","last_reported":1701115655,"current_range_meters":31200,"station_id":"ce4bh3p2rcd13ifvqdp0","pricing_plan_id":"free"},{"bike_id":"aa0be479-c859-474b-80b9-29d1b0ab0b98","system_id":"levelo_inurba_marseille","lat":43.295169,"lon":5.390426,"is_reserved":false,"is_disabled":false,"rental_uris":{"android":"levelo://app?vid=aa0be479-c859-474b-80b9-29d1b0ab0b98","ios":"levelo://app?vid=aa0be479-c859-474b-80b9-29d1b0ab0b98"},"vehicle_type_id":"4","last_reported":1701115655,"current_range_meters":8000,"station_id":"ce4bh3p2rcd13ifvqdp0","pricing_plan_id":"free"},{"bike_id":"c903c1d2-9a0e-41ce-bb03-5686834c5b1f","system_id":"levelo_inurba_marseille","lat":43.295169,"lon":5.390426,"is_reserved":false,"is_disabled":false,"rental_uris":{"android":"levelo://app?vid=c903c1d2-9a0e-41ce-bb03-5686834c5b1f","ios":"levelo://app?vid=c903c1d2-9a0e-41ce-bb03-5686834c5b1f"},"vehicle_type_id":"4","last_reported":1701115655,"current_range_meters":22800,"station_id":"ce4bh3p2rcd13ifvqdp0","pricing_plan_id":"free"},{"bike_id":"5420457c-df53-4dfa-99d3-c9cfe53e81ab","system_id":"levelo_inurba_marseille","lat":43.295169,"lon":5.390426,"is_reserved":false,"is_disabled":false,"rental_uris":{"android":"levelo://app?vid=5420457c-df53-4dfa-99d3-c9cfe53e81ab","ios":"levelo://app?vid=5420457c-df53-4dfa-99d3-c9cfe53e81ab"},"vehicle_type_id":"4","last_reported":1701115655,"current_range_meters":20000,"station_id":"ce4bh3p2rcd13ifvqdp0","pricing_plan_id":"free"},{"bike_id":"fcfcc5dc-319a-4fb6-900a-71e7fa153c9d","system_id":"levelo_inurba_marseille","lat":43.28856,"lon":5.358371,"is_reserved":false,"is_disabled":false,"rental_uris":{"android":"levelo://app?vid=fcfcc5dc-319a-4fb6-900a-71e7fa153c9d","ios":"levelo://app?vid=fcfcc5dc-319a-4fb6-900a-71e7fa153c9d"},"vehicle_type_id":"4","last_reported":1701115655,"current_range_meters":0,"station_id":"ce4bhb12rcd13ifvqem0","pricing_plan_id":"free"},{"bike_id":"f3ee3b5f-d9bd-46c4-af6e-8604c5cb2a3e","system_id":"levelo_inurba_marseille","lat":43.28856,"lon":5.358371,"is_reserved":false,"is_disabled":false,"rental_uris":{"android":"levelo://app?vid=f3ee3b5f-d9bd-46c4-af6e-8604c5cb2a3e","ios":"levelo://app?vid=f3ee3b5f-d9bd-46c4-af6e-8604c5cb2a3e"},"vehicle_type_id":"4","last_reported":1701115655,"current_range_meters":25200,"station_id":"ce4bhb12rcd13ifvqem0","pricing_plan_id":"free"},{"bike_id":"aa8dab3f-fe11-4df7-b6f7-50983c13052c","system_id":"levelo_inurba_marseille","lat":43.28856,"lon":5.358371,"is_reserved":false,"is_disabled":false,"rental_uris":{"android":"levelo://app?vid=aa8dab3f-fe11-4df7-b6f7-50983c13052c","ios":"levelo://app?vid=aa8dab3f-fe11-4df7-b6f7-50983c13052c"},"vehicle_type_id":"4","last_reported":1701115655,"current_range_meters":28800,"station_id":"ce4bhb12rcd13ifvqem0","pricing_plan_id":"free"},{"bike_id":"a87dd6eb-6785-4e4e-a749-2efe2e4773b6","system_id":"levelo_inurba_marseille","lat":43.28856,"lon":5.358371,"is_reserved":false,"is_disabled":false,"rental_uris":{"android":"levelo://app?vid=a87dd6eb-6785-4e4e-a749-2efe2e4773b6","ios":"levelo://app?vid=a87dd6eb-6785-4e4e-a749-2efe2e4773b6"},"vehicle_type_id":"4","last_reported":1701115655,"current_range_meters":15600,"station_id":"ce4bhb12rcd13ifvqem0","pricing_plan_id":"free"},{"bike_id":"1affd046-af12-41fb-ade5-939f7e0100fb","system_id":"levelo_inurba_marseille","lat":43.31277,"lon":5.40165,"is_reserved":false,"is_disabled":false,"rental_uris":{"android":"levelo://app?vid=1affd046-af12-41fb-ade5-939f7e0100fb","ios":"levelo://app?vid=1affd046-af12-41fb-ade5-939f7e0100fb"},"vehicle_type_id":"4","last_reported":1701115655,"current_range_meters":7200,"station_id":"ce4bh092rcd13ifvqd30","pricing_plan_id":"free"},{"bike_id":"3189f36d-eef8-493a-9360-ba220aab2c25","system_id":"levelo_inurba_marseille","lat":43.31279,"lon":5.40168,"is_reserved":false,"is_disabled":false,"rental_uris":{"android":"levelo://app?vid=3189f36d-eef8-493a-9360-ba220aab2c25","ios":"levelo://app?vid=3189f36d-eef8-493a-9360-ba220aab2c25"},"vehicle_type_id":"4","last_reported":1701115655,"current_range_meters":23600,"station_id":"ce4bh092rcd13ifvqd30","pricing_plan_id":"free"},{"bike_id":"78bfa985-dbba-4a55-966f-6778c9115146","system_id":"levelo_inurba_marseille","lat":43.31275,"lon":5.40174,"is_reserved":false,"is_disabled":false,"rental_uris":{"android":"levelo://app?vid=78bfa985-dbba-4a55-966f-6778c9115146","ios":"levelo://app?vid=78bfa985-dbba-4a55-966f-6778c9115146"},"vehicle_type_id":"4","last_reported":1701115655,"current_range_meters":22800,"station_id":"ce4bh092rcd13ifvqd30","pricing_plan_id":"free"},{"bike_id":"211709a7-8bc2-45c7-8863-32163dc37e94","system_id":"levelo_inurba_marseille","lat":43.33748,"lon":5.37457,"is_reserved":false,"is_disabled":false,"rental_uris":{"android":"levelo://app?vid=211709a7-8bc2-45c7-8863-32163dc37e94","ios":"levelo://app?vid=211709a7-8bc2-45c7-8863-32163dc37e94"},"vehicle_type_id":"4","last_reported":1701115655,"current_range_meters":25200,"station_id":"","pricing_plan_id":"free"},{"bike_id":"9b486256-89e9-4880-93d5-58b2a2344e55","system_id":"levelo_inurba_marseille","lat":43.306412,"lon":5.401035,"is_reserved":false,"is_disabled":false,"rental_uris":{"android":"levelo://app?vid=9b486256-89e9-4880-93d5-58b2a2344e55","ios":"levelo://app?vid=9b486256-89e9-4880-93d5-58b2a2344e55"},"vehicle_type_id":"4","last_reported":1701115655,"current_range_meters":12400,"station_id":"ce4bh112rcd13ifvqda0","pricing_plan_id":"free"},{"bike_id":"4082c4ab-3467-4f15-9a8e-e63a4dcdfbc2","system_id":"levelo_inurba_marseille","lat":43.30642,"lon":5.401031,"is_reserved":false,"is_disabled":false,"rental_uris":{"android":"levelo://app?vid=4082c4ab-3467-4f15-9a8e-e63a4dcdfbc2","ios":"levelo://app?vid=4082c4ab-3467-4f15-9a8e-e63a4dcdfbc2"},"vehicle_type_id":"4","last_reported":1701115655,"current_range_meters":26000,"station_id":"ce4bh112rcd13ifvqda0","pricing_plan_id":"free"},{"bike_id":"dfec96ff-ad72-4bd6-9c0f-4013dc0411f5","system_id":"levelo_inurba_marseille","lat":43.306412,"lon":5.401035,"is_reserved":false,"is_disabled":false,"rental_uris":{"android":"levelo://app?vid=dfec96ff-ad72-4bd6-9c0f-4013dc0411f5","ios":"levelo://app?vid=dfec96ff-ad72-4bd6-9c0f-4013dc0411f5"},"vehicle_type_id":"4","last_reported":1701115655,"current_range_meters":16400,"station_id":"ce4bh112rcd13ifvqda0","pricing_plan_id":"free"},{"bike_id":"0f47b4e2-b0ec-49db-a4d8-26825a477124","system_id":"levelo_inurba_marseille","lat":43.30642,"lon":5.401031,"is_reserved":false,"is_disabled":false,"rental_uris":{"android":"levelo://app?vid=0f47b4e2-b0ec-49db-a4d8-26825a477124","ios":"levelo://app?vid=0f47b4e2-b0ec-49db-a4d8-26825a477124"},"vehicle_type_id":"4","last_reported":1701115655,"current_range_meters":5200,"station_id":"ce4bh112rcd13ifvqda0","pricing_plan_id":"free"},{"bike_id":"a306b5f8-d346-457a-b48a-7a7bb8bb2e0a","system_id":"levelo_inurba_marseille","lat":43.30642,"lon":5.401031,"is_reserved":false,"is_disabled":false,"rental_uris":{"android":"levelo://app?vid=a306b5f8-d346-457a-b48a-7a7bb8bb2e0a","ios":"levelo://app?vid=a306b5f8-d346-457a-b48a-7a7bb8bb2e0a"},"vehicle_type_id":"4","last_reported":1701115655,"current_range_meters":20400,"station_id":"ce4bh112rcd13ifvqda0","pricing_plan_id":"free"},{"bike_id":"17d77149-f5d4-4fda-9f82-7bd72b431470","system_id":"levelo_inurba_marseille","lat":43.28727,"lon":5.36078,"is_reserved":false,"is_disabled":false,"rental_uris":{"android":"levelo://app?vid=17d77149-f5d4-4fda-9f82-7bd72b431470","ios":"levelo://app?vid=17d77149-f5d4-4fda-9f82-7bd72b431470"},"vehicle_type_id":"4","last_reported":1701115655,"current_range_meters":15600,"station_id":"cki0cbj6b192h4jlfktg","pricing_plan_id":"free"},{"bike_id":"cf3b36af-2c00-4833-a3dd-afc17ed25d2f","system_id":"levelo_inurba_marseille","lat":43.30626,"lon":5.40172,"is_reserved":false,"is_disabled":false,"rental_uris":{"android":"levelo://app?vid=cf3b36af-2c00-4833-a3dd-afc17ed25d2f","ios":"levelo://app?vid=cf3b36af-2c00-4833-a3dd-afc17ed25d2f"},"vehicle_type_id":"4","last_reported":1701115655,"current_range_meters":25200,"station_id":"","pricing_plan_id":"free"},{"bike_id":"ecc3b2fe-3019-41f7-b77b-fcef35c90d76","system_id":"levelo_inurba_marseille","lat":43.287039,"lon":5.373716,"is_reserved":false,"is_disabled":false,"rental_uris":{"android":"levelo://app?vid=ecc3b2fe-3019-41f7-b77b-fcef35c90d76","ios":"levelo://app?vid=ecc3b2fe-3019-41f7-b77b-fcef35c90d76"},"vehicle_type_id":"4","last_reported":1701115655,"current_range_meters":26400,"station_id":"","pricing_plan_id":"free"},{"bike_id":"09ffa2f6-fcec-47c3-8367-28c3660a197c","system_id":"levelo_inurba_marseille","lat":43.286593,"lon":5.363346,"is_reserved":false,"is_disabled":false,"rental_uris":{"android":"levelo://app?vid=09ffa2f6-fcec-47c3-8367-28c3660a197c","ios":"levelo://app?vid=09ffa2f6-fcec-47c3-8367-28c3660a197c"},"vehicle_type_id":"4","last_reported":1701115655,"current_range_meters":26000,"station_id":"ce4bhah2rcd13ifvqej0","pricing_plan_id":"free"},{"bike_id":"7ce9b15f-6c16-45dc-aa95-26ea1be6a293","system_id":"levelo_inurba_marseille","lat":43.286633,"lon":5.363493,"is_reserved":false,"is_disabled":false,"rental_uris":{"android":"levelo://app?vid=7ce9b15f-6c16-45dc-aa95-26ea1be6a293","ios":"levelo://app?vid=7ce9b15f-6c16-45dc-aa95-26ea1be6a293"},"vehicle_type_id":"4","last_reported":1701115655,"current_range_meters":21600,"station_id":"ce4bhah2rcd13ifvqej0","pricing_plan_id":"free"},{"bike_id":"b86167c9-7a0c-443f-8b9c-0b048ed5ec36","system_id":"levelo_inurba_marseille","lat":43.286593,"lon":5.363346,"is_reserved":false,"is_disabled":false,"rental_uris":{"android":"levelo://app?vid=b86167c9-7a0c-443f-8b9c-0b048ed5ec36","ios":"levelo://app?vid=b86167c9-7a0c-443f-8b9c-0b048ed5ec36"},"vehicle_type_id":"4","last_reported":1701115655,"current_range_meters":22400,"station_id":"ce4bhah2rcd13ifvqej0","pricing_plan_id":"free"},{"bike_id":"b691dbb5-abe7-4d11-a190-bb1f0789c1e8","system_id":"levelo_inurba_marseille","lat":43.286961,"lon":5.373785,"is_reserved":false,"is_disabled":false,"rental_uris":{"android":"levelo://app?vid=b691dbb5-abe7-4d11-a190-bb1f0789c1e8","ios":"levelo://app?vid=b691dbb5-abe7-4d11-a190-bb1f0789c1e8"},"vehicle_type_id":"4","last_reported":1701115655,"current_range_meters":9200,"station_id":"ce4bh3p2rcd13ifvqdq0","pricing_plan_id":"free"},{"bike_id":"2a27f955-612d-4a87-8913-c0b4960386d0","system_id":"levelo_inurba_marseille","lat":43.286593,"lon":5.363346,"is_reserved":false,"is_disabled":false,"rental_uris":{"android":"levelo://app?vid=2a27f955-612d-4a87-8913-c0b4960386d0","ios":"levelo://app?vid=2a27f955-612d-4a87-8913-c0b4960386d0"},"vehicle_type_id":"4","last_reported":1701115655,"current_range_meters":16400,"station_id":"ce4bhah2rcd13ifvqej0","pricing_plan_id":"free"},{"bike_id":"083f19ad-2e4d-4bb5-9ce5-507a6851a7fe","system_id":"levelo_inurba_marseille","lat":43.295196,"lon":5.39397,"is_reserved":false,"is_disabled":false,"rental_uris":{"android":"levelo://app?vid=083f19ad-2e4d-4bb5-9ce5-507a6851a7fe","ios":"levelo://app?vid=083f19ad-2e4d-4bb5-9ce5-507a6851a7fe"},"vehicle_type_id":"4","last_reported":1701115655,"current_range_meters":19200,"station_id":"ce4bh292rcd13ifvqdf0","pricing_plan_id":"free"},{"bike_id":"5e92d5d0-807f-462a-bafc-ea6cbc33c392","system_id":"levelo_inurba_marseille","lat":43.295196,"lon":5.39397,"is_reserved":false,"is_disabled":false,"rental_uris":{"android":"levelo://app?vid=5e92d5d0-807f-462a-bafc-ea6cbc33c392","ios":"levelo://app?vid=5e92d5d0-807f-462a-bafc-ea6cbc33c392"},"vehicle_type_id":"4","last_reported":1701115655,"current_range_meters":0,"station_id":"ce4bh292rcd13ifvqdf0","pricing_plan_id":"free"},{"bike_id":"89f3c921-bab2-49df-9f80-d94aa48ad19f","system_id":"levelo_inurba_marseille","lat":43.295196,"lon":5.39397,"is_reserved":false,"is_disabled":false,"rental_uris":{"android":"levelo://app?vid=89f3c921-bab2-49df-9f80-d94aa48ad19f","ios":"levelo://app?vid=89f3c921-bab2-49df-9f80-d94aa48ad19f"},"vehicle_type_id":"4","last_reported":1701115655,"current_range_meters":19200,"station_id":"ce4bh292rcd13ifvqdf0","pricing_plan_id":"free"},{"bike_id":"2ce64600-0875-4643-bf56-e215ba9ef503","system_id":"levelo_inurba_marseille","lat":43.295196,"lon":5.39397,"is_reserved":false,"is_disabled":false,"rental_uris":{"android":"levelo://app?vid=2ce64600-0875-4643-bf56-e215ba9ef503","ios":"levelo://app?vid=2ce64600-0875-4643-bf56-e215ba9ef503"},"vehicle_type_id":"4","last_reported":1701115655,"current_range_meters":4400,"station_id":"ce4bh292rcd13ifvqdf0","pricing_plan_id":"free"},{"bike_id":"38a9db08-a464-4bdf-9693-aac7e317f55d","system_id":"levelo_inurba_marseille","lat":43.295196,"lon":5.39397,"is_reserved":false,"is_disabled":false,"rental_uris":{"android":"levelo://app?vid=38a9db08-a464-4bdf-9693-aac7e317f55d","ios":"levelo://app?vid=38a9db08-a464-4bdf-9693-aac7e317f55d"},"vehicle_type_id":"4","last_reported":1701115655,"current_range_meters":18800,"station_id":"ce4bh292rcd13ifvqdf0","pricing_plan_id":"free"},{"bike_id":"1c26fc50-dd1f-418c-8ce3-326ebb971a48","system_id":"levelo_inurba_marseille","lat":43.295194,"lon":5.39397,"is_reserved":false,"is_disabled":false,"rental_uris":{"android":"levelo://app?vid=1c26fc50-dd1f-418c-8ce3-326ebb971a48","ios":"levelo://app?vid=1c26fc50-dd1f-418c-8ce3-326ebb971a48"},"vehicle_type_id":"4","last_reported":1701115655,"current_range_meters":5200,"station_id":"ce4bh292rcd13ifvqdf0","pricing_plan_id":"free"},{"bike_id":"c5723763-f60e-4416-8557-1cae0195adfc","system_id":"levelo_inurba_marseille","lat":43.30256,"lon":5.40052,"is_reserved":false,"is_disabled":false,"rental_uris":{"android":"levelo://app?vid=c5723763-f60e-4416-8557-1cae0195adfc","ios":"levelo://app?vid=c5723763-f60e-4416-8557-1cae0195adfc"},"vehicle_type_id":"4","last_reported":1701115655,"current_range_meters":29600,"station_id":"ce4bgvh2rcd13ifvqcs0","pricing_plan_id":"free"},{"bike_id":"218ad862-5bde-4e4d-8a15-be014385d3e2","system_id":"levelo_inurba_marseille","lat":43.289342,"lon":5.383989,"is_reserved":false,"is_disabled":false,"rental_uris":{"android":"levelo://app?vid=218ad862-5bde-4e4d-8a15-be014385d3e2","ios":"levelo://app?vid=218ad862-5bde-4e4d-8a15-be014385d3e2"},"vehicle_type_id":"4","last_reported":1701115655,"current_range_meters":14000,"station_id":"ce4bh612rcd13ifvqe6g","pricing_plan_id":"free"},{"bike_id":"7647cbec-25c4-45d7-8524-43c06dca786e","system_id":"levelo_inurba_marseille","lat":43.29037,"lon":5.38644,"is_reserved":false,"is_disabled":false,"rental_uris":{"android":"levelo://app?vid=7647cbec-25c4-45d7-8524-43c06dca786e","ios":"levelo://app?vid=7647cbec-25c4-45d7-8524-43c06dca786e"},"vehicle_type_id":"4","last_reported":1701115655,"current_range_meters":13600,"station_id":"ce4bh4p2rcd13ifvqe0g","pricing_plan_id":"free"},{"bike_id":"067774af-342d-41cc-9f0a-04fcb2628adb","system_id":"levelo_inurba_marseille","lat":43.30259,"lon":5.40057,"is_reserved":false,"is_disabled":false,"rental_uris":{"android":"levelo://app?vid=067774af-342d-41cc-9f0a-04fcb2628adb","ios":"levelo://app?vid=067774af-342d-41cc-9f0a-04fcb2628adb"},"vehicle_type_id":"4","last_reported":1701115655,"current_range_meters":20800,"station_id":"","pricing_plan_id":"free"},{"bike_id":"169b64f2-4490-487d-9a32-04aa3843ea12","system_id":"levelo_inurba_marseille","lat":43.30251,"lon":5.40054,"is_reserved":false,"is_disabled":false,"rental_uris":{"android":"levelo://app?vid=169b64f2-4490-487d-9a32-04aa3843ea12","ios":"levelo://app?vid=169b64f2-4490-487d-9a32-04aa3843ea12"},"vehicle_type_id":"4","last_reported":1701115655,"current_range_meters":16400,"station_id":"ce4bgvh2rcd13ifvqcs0","pricing_plan_id":"free"},{"bike_id":"ed6d9639-e939-48dd-ac37-70ecb1ca96ad","system_id":"levelo_inurba_marseille","lat":43.3026,"lon":5.4006,"is_reserved":false,"is_disabled":false,"rental_uris":{"android":"levelo://app?vid=ed6d9639-e939-48dd-ac37-70ecb1ca96ad","ios":"levelo://app?vid=ed6d9639-e939-48dd-ac37-70ecb1ca96ad"},"vehicle_type_id":"4","last_reported":1701115655,"current_range_meters":19200,"station_id":"ce4bgvh2rcd13ifvqcs0","pricing_plan_id":"free"},{"bike_id":"4e4acaba-42b7-4b58-b6eb-b276aff1b133","system_id":"levelo_inurba_marseille","lat":43.29036,"lon":5.38648,"is_reserved":false,"is_disabled":false,"rental_uris":{"android":"levelo://app?vid=4e4acaba-42b7-4b58-b6eb-b276aff1b133","ios":"levelo://app?vid=4e4acaba-42b7-4b58-b6eb-b276aff1b133"},"vehicle_type_id":"4","last_reported":1701115655,"current_range_meters":0,"station_id":"ce4bh4p2rcd13ifvqe0g","pricing_plan_id":"free"},{"bike_id":"bfc52f53-bfdc-4bfa-b4ba-f2f553fdb3a7","system_id":"levelo_inurba_marseille","lat":43.29036,"lon":5.3865,"is_reserved":false,"is_disabled":false,"rental_uris":{"android":"levelo://app?vid=bfc52f53-bfdc-4bfa-b4ba-f2f553fdb3a7","ios":"levelo://app?vid=bfc52f53-bfdc-4bfa-b4ba-f2f553fdb3a7"},"vehicle_type_id":"4","last_reported":1701115655,"current_range_meters":24800,"station_id":"ce4bh4p2rcd13ifvqe0g","pricing_plan_id":"free"},{"bike_id":"8aaae49b-3121-41ec-892c-6b396494fffe","system_id":"levelo_inurba_marseille","lat":43.29031,"lon":5.38645,"is_reserved":false,"is_disabled":false,"rental_uris":{"android":"levelo://app?vid=8aaae49b-3121-41ec-892c-6b396494fffe","ios":"levelo://app?vid=8aaae49b-3121-41ec-892c-6b396494fffe"},"vehicle_type_id":"4","last_reported":1701115655,"current_range_meters":14800,"station_id":"ce4bh4p2rcd13ifvqe0g","pricing_plan_id":"free"},{"bike_id":"ecd91e79-28a6-47f4-86b4-1c36f19e5bf8","system_id":"levelo_inurba_marseille","lat":43.302759,"lon":5.400793,"is_reserved":false,"is_disabled":false,"rental_uris":{"android":"levelo://app?vid=ecd91e79-28a6-47f4-86b4-1c36f19e5bf8","ios":"levelo://app?vid=ecd91e79-28a6-47f4-86b4-1c36f19e5bf8"},"vehicle_type_id":"4","last_reported":1701115655,"current_range_meters":26000,"station_id":"ce4bgvh2rcd13ifvqcs0","pricing_plan_id":"free"},{"bike_id":"1f3aa395-3a60-4d58-8f22-b070fc013951","system_id":"levelo_inurba_marseille","lat":43.289307,"lon":5.38406,"is_reserved":false,"is_disabled":false,"rental_uris":{"android":"levelo://app?vid=1f3aa395-3a60-4d58-8f22-b070fc013951","ios":"levelo://app?vid=1f3aa395-3a60-4d58-8f22-b070fc013951"},"vehicle_type_id":"4","last_reported":1701115655,"current_range_meters":16400,"station_id":"ce4bh612rcd13ifvqe6g","pricing_plan_id":"free"},{"bike_id":"1e608afe-80f9-4a01-8810-8e62d91262d7","system_id":"levelo_inurba_marseille","lat":43.30256,"lon":5.40071,"is_reserved":false,"is_disabled":false,"rental_uris":{"android":"levelo://app?vid=1e608afe-80f9-4a01-8810-8e62d91262d7","ios":"levelo://app?vid=1e608afe-80f9-4a01-8810-8e62d91262d7"},"vehicle_type_id":"4","last_reported":1701115655,"current_range_meters":26800,"station_id":"ce4bgvh2rcd13ifvqcs0","pricing_plan_id":"free"},{"bike_id":"27b6fd51-3987-4957-b9a0-b555baf5bddb","system_id":"levelo_inurba_marseille","lat":43.302563,"lon":5.400727,"is_reserved":false,"is_disabled":false,"rental_uris":{"android":"levelo://app?vid=27b6fd51-3987-4957-b9a0-b555baf5bddb","ios":"levelo://app?vid=27b6fd51-3987-4957-b9a0-b555baf5bddb"},"vehicle_type_id":"4","last_reported":1701115655,"current_range_meters":30400,"station_id":"ce4bgvh2rcd13ifvqcs0","pricing_plan_id":"free"},{"bike_id":"ae46468a-8415-470a-908c-347afe972df5","system_id":"levelo_inurba_marseille","lat":43.289307,"lon":5.38406,"is_reserved":false,"is_disabled":false,"rental_uris":{"android":"levelo://app?vid=ae46468a-8415-470a-908c-347afe972df5","ios":"levelo://app?vid=ae46468a-8415-470a-908c-347afe972df5"},"vehicle_type_id":"4","last_reported":1701115655,"current_range_meters":19200,"station_id":"ce4bh612rcd13ifvqe6g","pricing_plan_id":"free"},{"bike_id":"15e6465f-0b6e-4233-aa8b-e230108a9a5e","system_id":"levelo_inurba_marseille","lat":43.302437,"lon":5.40068,"is_reserved":false,"is_disabled":false,"rental_uris":{"android":"levelo://app?vid=15e6465f-0b6e-4233-aa8b-e230108a9a5e","ios":"levelo://app?vid=15e6465f-0b6e-4233-aa8b-e230108a9a5e"},"vehicle_type_id":"4","last_reported":1701115655,"current_range_meters":24400,"station_id":"ce4bgvh2rcd13ifvqcs0","pricing_plan_id":"free"},{"bike_id":"c975c58e-5a26-499c-8e1c-dc6d538d56fa","system_id":"levelo_inurba_marseille","lat":43.287185,"lon":5.379373,"is_reserved":false,"is_disabled":false,"rental_uris":{"android":"levelo://app?vid=c975c58e-5a26-499c-8e1c-dc6d538d56fa","ios":"levelo://app?vid=c975c58e-5a26-499c-8e1c-dc6d538d56fa"},"vehicle_type_id":"4","last_reported":1701115655,"current_range_meters":5600,"station_id":"ce4bh9p2rcd13ifvqec0","pricing_plan_id":"free"},{"bike_id":"e9a2ae38-b440-4f73-b018-6b2042388f60","system_id":"levelo_inurba_marseille","lat":43.287185,"lon":5.379373,"is_reserved":false,"is_disabled":false,"rental_uris":{"android":"levelo://app?vid=e9a2ae38-b440-4f73-b018-6b2042388f60","ios":"levelo://app?vid=e9a2ae38-b440-4f73-b018-6b2042388f60"},"vehicle_type_id":"4","last_reported":1701115655,"current_range_meters":30400,"station_id":"ce4bh9p2rcd13ifvqec0","pricing_plan_id":"free"},{"bike_id":"14117dcc-3a03-468b-8b0e-a678b3bdec23","system_id":"levelo_inurba_marseille","lat":43.291994,"lon":5.392907,"is_reserved":false,"is_disabled":false,"rental_uris":{"android":"levelo://app?vid=14117dcc-3a03-468b-8b0e-a678b3bdec23","ios":"levelo://app?vid=14117dcc-3a03-468b-8b0e-a678b3bdec23"},"vehicle_type_id":"4","last_reported":1701115655,"current_range_meters":11200,"station_id":"ce4bh192rcd13ifvqdd0","pricing_plan_id":"free"},{"bike_id":"10889358-5e19-486c-b30c-593c612bde27","system_id":"levelo_inurba_marseille","lat":43.291913,"lon":5.393165,"is_reserved":false,"is_disabled":false,"rental_uris":{"android":"levelo://app?vid=10889358-5e19-486c-b30c-593c612bde27","ios":"levelo://app?vid=10889358-5e19-486c-b30c-593c612bde27"},"vehicle_type_id":"4","last_reported":1701115655,"current_range_meters":31200,"station_id":"ce4bh192rcd13ifvqdd0","pricing_plan_id":"free"},{"bike_id":"fdfc44ee-48d9-4c8c-99e0-fa5e6a889c82","system_id":"levelo_inurba_marseille","lat":43.284611,"lon":5.358885,"is_reserved":false,"is_disabled":false,"rental_uris":{"android":"levelo://app?vid=fdfc44ee-48d9-4c8c-99e0-fa5e6a889c82","ios":"levelo://app?vid=fdfc44ee-48d9-4c8c-99e0-fa5e6a889c82"},"vehicle_type_id":"4","last_reported":1701115655,"current_range_meters":26800,"station_id":"ce4bhah2rcd13ifvqei0","pricing_plan_id":"free"},{"bike_id":"aa1603ac-437d-4dc9-87cc-4bd8d3c02f92","system_id":"levelo_inurba_marseille","lat":43.2846,"lon":5.3588,"is_reserved":false,"is_disabled":false,"rental_uris":{"android":"levelo://app?vid=aa1603ac-437d-4dc9-87cc-4bd8d3c02f92","ios":"levelo://app?vid=aa1603ac-437d-4dc9-87cc-4bd8d3c02f92"},"vehicle_type_id":"4","last_reported":1701115655,"current_range_meters":10400,"station_id":"ce4bhah2rcd13ifvqei0","pricing_plan_id":"free"},{"bike_id":"b24e4fcc-b02a-4c1f-b7f9-7210a389fca7","system_id":"levelo_inurba_marseille","lat":43.28459,"lon":5.358783,"is_reserved":false,"is_disabled":false,"rental_uris":{"android":"levelo://app?vid=b24e4fcc-b02a-4c1f-b7f9-7210a389fca7","ios":"levelo://app?vid=b24e4fcc-b02a-4c1f-b7f9-7210a389fca7"},"vehicle_type_id":"4","last_reported":1701115655,"current_range_meters":20000,"station_id":"ce4bhah2rcd13ifvqei0","pricing_plan_id":"free"},{"bike_id":"eb23f825-31b2-4ae6-b526-916161a6fa03","system_id":"levelo_inurba_marseille","lat":43.28458,"lon":5.358825,"is_reserved":false,"is_disabled":false,"rental_uris":{"android":"levelo://app?vid=eb23f825-31b2-4ae6-b526-916161a6fa03","ios":"levelo://app?vid=eb23f825-31b2-4ae6-b526-916161a6fa03"},"vehicle_type_id":"4","last_reported":1701115655,"current_range_meters":23600,"station_id":"ce4bhah2rcd13ifvqei0","pricing_plan_id":"free"},{"bike_id":"133469e0-6899-4538-83db-9fc816004c1a","system_id":"levelo_inurba_marseille","lat":43.312788,"lon":5.406482,"is_reserved":false,"is_disabled":false,"rental_uris":{"android":"levelo://app?vid=133469e0-6899-4538-83db-9fc816004c1a","ios":"levelo://app?vid=133469e0-6899-4538-83db-9fc816004c1a"},"vehicle_type_id":"4","last_reported":1701115655,"current_range_meters":20800,"station_id":"","pricing_plan_id":"free"},{"bike_id":"2ef6a675-4e3f-4bc8-b5af-6dd2de7be8d7","system_id":"levelo_inurba_marseille","lat":43.284328,"lon":5.375188,"is_reserved":false,"is_disabled":false,"rental_uris":{"android":"levelo://app?vid=2ef6a675-4e3f-4bc8-b5af-6dd2de7be8d7","ios":"levelo://app?vid=2ef6a675-4e3f-4bc8-b5af-6dd2de7be8d7"},"vehicle_type_id":"4","last_reported":1701115655,"current_range_meters":0,"station_id":"ce4bh412rcd13ifvqds0","pricing_plan_id":"free"},{"bike_id":"b430f992-f7d3-48af-ae25-306455da45ce","system_id":"levelo_inurba_marseille","lat":43.285856,"lon":5.350771,"is_reserved":false,"is_disabled":false,"rental_uris":{"android":"levelo://app?vid=b430f992-f7d3-48af-ae25-306455da45ce","ios":"levelo://app?vid=b430f992-f7d3-48af-ae25-306455da45ce"},"vehicle_type_id":"4","last_reported":1701115655,"current_range_meters":27200,"station_id":"ce4bhch2rcd13ifvqeug","pricing_plan_id":"free"},{"bike_id":"c2b59919-4a58-4ef8-9c49-1240b5fdbcf3","system_id":"levelo_inurba_marseille","lat":43.283998,"lon":5.375062,"is_reserved":false,"is_disabled":false,"rental_uris":{"android":"levelo://app?vid=c2b59919-4a58-4ef8-9c49-1240b5fdbcf3","ios":"levelo://app?vid=c2b59919-4a58-4ef8-9c49-1240b5fdbcf3"},"vehicle_type_id":"4","last_reported":1701115655,"current_range_meters":0,"station_id":"ce4bh412rcd13ifvqds0","pricing_plan_id":"free"},{"bike_id":"8ff62079-d734-4a56-9e5b-84c4321b39ac","system_id":"levelo_inurba_marseille","lat":43.283998,"lon":5.375062,"is_reserved":false,"is_disabled":false,"rental_uris":{"android":"levelo://app?vid=8ff62079-d734-4a56-9e5b-84c4321b39ac","ios":"levelo://app?vid=8ff62079-d734-4a56-9e5b-84c4321b39ac"},"vehicle_type_id":"4","last_reported":1701115655,"current_range_meters":7200,"station_id":"ce4bh412rcd13ifvqds0","pricing_plan_id":"free"},{"bike_id":"4672c25e-5e15-4d6a-9298-43bed0973e5d","system_id":"levelo_inurba_marseille","lat":43.258224,"lon":5.394369,"is_reserved":false,"is_disabled":false,"rental_uris":{"android":"levelo://app?vid=4672c25e-5e15-4d6a-9298-43bed0973e5d","ios":"levelo://app?vid=4672c25e-5e15-4d6a-9298-43bed0973e5d"},"vehicle_type_id":"4","last_reported":1701115655,"current_range_meters":26000,"station_id":"ce4bhip2rcd13ifvqft0","pricing_plan_id":"free"},{"bike_id":"832f5eab-424c-49f2-9a46-94bfaffac849","system_id":"levelo_inurba_marseille","lat":43.283998,"lon":5.375062,"is_reserved":false,"is_disabled":false,"rental_uris":{"android":"levelo://app?vid=832f5eab-424c-49f2-9a46-94bfaffac849","ios":"levelo://app?vid=832f5eab-424c-49f2-9a46-94bfaffac849"},"vehicle_type_id":"4","last_reported":1701115655,"current_range_meters":24800,"station_id":"ce4bh412rcd13ifvqds0","pricing_plan_id":"free"},{"bike_id":"a6941947-37b1-42e9-8e03-0364e5d01717","system_id":"levelo_inurba_marseille","lat":43.283998,"lon":5.375062,"is_reserved":false,"is_disabled":false,"rental_uris":{"android":"levelo://app?vid=a6941947-37b1-42e9-8e03-0364e5d01717","ios":"levelo://app?vid=a6941947-37b1-42e9-8e03-0364e5d01717"},"vehicle_type_id":"4","last_reported":1701115655,"current_range_meters":2800,"station_id":"ce4bh412rcd13ifvqds0","pricing_plan_id":"free"},{"bike_id":"f42c3fce-4b62-4615-adbe-ccdbca6d8c10","system_id":"levelo_inurba_marseille","lat":43.283998,"lon":5.375062,"is_reserved":false,"is_disabled":false,"rental_uris":{"android":"levelo://app?vid=f42c3fce-4b62-4615-adbe-ccdbca6d8c10","ios":"levelo://app?vid=f42c3fce-4b62-4615-adbe-ccdbca6d8c10"},"vehicle_type_id":"4","last_reported":1701115655,"current_range_meters":400,"station_id":"ce4bh412rcd13ifvqds0","pricing_plan_id":"free"},{"bike_id":"f59936c8-bfa4-4e82-9b6a-a89887ecb79d","system_id":"levelo_inurba_marseille","lat":43.283998,"lon":5.375062,"is_reserved":false,"is_disabled":false,"rental_uris":{"android":"levelo://app?vid=f59936c8-bfa4-4e82-9b6a-a89887ecb79d","ios":"levelo://app?vid=f59936c8-bfa4-4e82-9b6a-a89887ecb79d"},"vehicle_type_id":"4","last_reported":1701115655,"current_range_meters":8000,"station_id":"ce4bh412rcd13ifvqds0","pricing_plan_id":"free"},{"bike_id":"26e76107-5acf-409a-b0e1-a92aaa43015e","system_id":"levelo_inurba_marseille","lat":43.295713,"lon":5.399639,"is_reserved":false,"is_disabled":false,"rental_uris":{"android":"levelo://app?vid=26e76107-5acf-409a-b0e1-a92aaa43015e","ios":"levelo://app?vid=26e76107-5acf-409a-b0e1-a92aaa43015e"},"vehicle_type_id":"4","last_reported":1701115655,"current_range_meters":6400,"station_id":"ce4bh312rcd13ifvqdj0","pricing_plan_id":"free"},{"bike_id":"965b3f97-e4da-4bb5-86d1-d2eea6340b3f","system_id":"levelo_inurba_marseille","lat":43.286595,"lon":5.386795,"is_reserved":false,"is_disabled":false,"rental_uris":{"android":"levelo://app?vid=965b3f97-e4da-4bb5-86d1-d2eea6340b3f","ios":"levelo://app?vid=965b3f97-e4da-4bb5-86d1-d2eea6340b3f"},"vehicle_type_id":"4","last_reported":1701115655,"current_range_meters":21600,"station_id":"ce4bh492rcd13ifvqdug","pricing_plan_id":"free"},{"bike_id":"f5e745d7-bb0f-4603-8a97-b297e6821ee9","system_id":"levelo_inurba_marseille","lat":43.286595,"lon":5.386795,"is_reserved":false,"is_disabled":false,"rental_uris":{"android":"levelo://app?vid=f5e745d7-bb0f-4603-8a97-b297e6821ee9","ios":"levelo://app?vid=f5e745d7-bb0f-4603-8a97-b297e6821ee9"},"vehicle_type_id":"4","last_reported":1701115655,"current_range_meters":20000,"station_id":"ce4bh492rcd13ifvqdug","pricing_plan_id":"free"},{"bike_id":"cc17f51c-2a77-4f12-9d6e-82137c29f28b","system_id":"levelo_inurba_marseille","lat":43.319179,"lon":5.407725,"is_reserved":false,"is_disabled":false,"rental_uris":{"android":"levelo://app?vid=cc17f51c-2a77-4f12-9d6e-82137c29f28b","ios":"levelo://app?vid=cc17f51c-2a77-4f12-9d6e-82137c29f28b"},"vehicle_type_id":"4","last_reported":1701115655,"current_range_meters":25200,"station_id":"ce4bhq12rcd13ifvqhig","pricing_plan_id":"free"},{"bike_id":"8fa51fbe-d3ae-468c-918d-b5d900ca27bf","system_id":"levelo_inurba_marseille","lat":43.323464,"lon":5.406297,"is_reserved":false,"is_disabled":false,"rental_uris":{"android":"levelo://app?vid=8fa51fbe-d3ae-468c-918d-b5d900ca27bf","ios":"levelo://app?vid=8fa51fbe-d3ae-468c-918d-b5d900ca27bf"},"vehicle_type_id":"4","last_reported":1701115655,"current_range_meters":14000,"station_id":"ce4bhq92rcd13ifvqhjg","pricing_plan_id":"free"},{"bike_id":"2ec5961f-1b4b-4587-a7b0-f9177d2b9fbd","system_id":"levelo_inurba_marseille","lat":43.323464,"lon":5.406297,"is_reserved":false,"is_disabled":false,"rental_uris":{"android":"levelo://app?vid=2ec5961f-1b4b-4587-a7b0-f9177d2b9fbd","ios":"levelo://app?vid=2ec5961f-1b4b-4587-a7b0-f9177d2b9fbd"},"vehicle_type_id":"4","last_reported":1701115655,"current_range_meters":30800,"station_id":"ce4bhq92rcd13ifvqhjg","pricing_plan_id":"free"},{"bike_id":"6e5fc2ab-e680-4453-a607-400458212688","system_id":"levelo_inurba_marseille","lat":43.323464,"lon":5.406297,"is_reserved":false,"is_disabled":false,"rental_uris":{"android":"levelo://app?vid=6e5fc2ab-e680-4453-a607-400458212688","ios":"levelo://app?vid=6e5fc2ab-e680-4453-a607-400458212688"},"vehicle_type_id":"4","last_reported":1701115655,"current_range_meters":29200,"station_id":"ce4bhq92rcd13ifvqhjg","pricing_plan_id":"free"},{"bike_id":"4bc6097f-11a7-4361-b1f5-9931bdc49e7c","system_id":"levelo_inurba_marseille","lat":43.284787,"lon":5.384116,"is_reserved":false,"is_disabled":false,"rental_uris":{"android":"levelo://app?vid=4bc6097f-11a7-4361-b1f5-9931bdc49e7c","ios":"levelo://app?vid=4bc6097f-11a7-4361-b1f5-9931bdc49e7c"},"vehicle_type_id":"4","last_reported":1701115655,"current_range_meters":17600,"station_id":"ce4bh512rcd13ifvqe3g","pricing_plan_id":"free"},{"bike_id":"555eea31-d2ce-4f08-8a25-0a2b22718a1a","system_id":"levelo_inurba_marseille","lat":43.283494,"lon":5.380945,"is_reserved":false,"is_disabled":false,"rental_uris":{"android":"levelo://app?vid=555eea31-d2ce-4f08-8a25-0a2b22718a1a","ios":"levelo://app?vid=555eea31-d2ce-4f08-8a25-0a2b22718a1a"},"vehicle_type_id":"4","last_reported":1701115655,"current_range_meters":11600,"station_id":"ce4bh412rcd13ifvqdr0","pricing_plan_id":"free"},{"bike_id":"7e7353e4-d1fd-4173-b243-11dfff403386","system_id":"levelo_inurba_marseille","lat":43.283498,"lon":5.380948,"is_reserved":false,"is_disabled":false,"rental_uris":{"android":"levelo://app?vid=7e7353e4-d1fd-4173-b243-11dfff403386","ios":"levelo://app?vid=7e7353e4-d1fd-4173-b243-11dfff403386"},"vehicle_type_id":"4","last_reported":1701115655,"current_range_meters":8400,"station_id":"ce4bh412rcd13ifvqdr0","pricing_plan_id":"free"},{"bike_id":"fbd7a3f2-3396-4d54-a303-db3095906b01","system_id":"levelo_inurba_marseille","lat":43.283498,"lon":5.380948,"is_reserved":false,"is_disabled":false,"rental_uris":{"android":"levelo://app?vid=fbd7a3f2-3396-4d54-a303-db3095906b01","ios":"levelo://app?vid=fbd7a3f2-3396-4d54-a303-db3095906b01"},"vehicle_type_id":"4","last_reported":1701115655,"current_range_meters":31200,"station_id":"ce4bh412rcd13ifvqdr0","pricing_plan_id":"free"},{"bike_id":"a6c63440-b4bf-4efe-91b7-9388078427d3","system_id":"levelo_inurba_marseille","lat":43.283498,"lon":5.380948,"is_reserved":false,"is_disabled":false,"rental_uris":{"android":"levelo://app?vid=a6c63440-b4bf-4efe-91b7-9388078427d3","ios":"levelo://app?vid=a6c63440-b4bf-4efe-91b7-9388078427d3"},"vehicle_type_id":"4","last_reported":1701115655,"current_range_meters":25600,"station_id":"ce4bh412rcd13ifvqdr0","pricing_plan_id":"free"},{"bike_id":"e2284003-4e46-4e0a-93e7-73d05c3666d9","system_id":"levelo_inurba_marseille","lat":43.33508,"lon":5.397755,"is_reserved":false,"is_disabled":false,"rental_uris":{"android":"levelo://app?vid=e2284003-4e46-4e0a-93e7-73d05c3666d9","ios":"levelo://app?vid=e2284003-4e46-4e0a-93e7-73d05c3666d9"},"vehicle_type_id":"4","last_reported":1701115655,"current_range_meters":13600,"station_id":"","pricing_plan_id":"free"},{"bike_id":"5db1d8e2-4372-4622-813a-9229011e936b","system_id":"levelo_inurba_marseille","lat":43.282754,"lon":5.350519,"is_reserved":false,"is_disabled":false,"rental_uris":{"android":"levelo://app?vid=5db1d8e2-4372-4622-813a-9229011e936b","ios":"levelo://app?vid=5db1d8e2-4372-4622-813a-9229011e936b"},"vehicle_type_id":"4","last_reported":1701115655,"current_range_meters":16000,"station_id":"ce4bhbp2rcd13ifvqerg","pricing_plan_id":"free"},{"bike_id":"313dfd64-03f5-4e44-afeb-2fabff1d2a2c","system_id":"levelo_inurba_marseille","lat":43.282744,"lon":5.350533,"is_reserved":false,"is_disabled":false,"rental_uris":{"android":"levelo://app?vid=313dfd64-03f5-4e44-afeb-2fabff1d2a2c","ios":"levelo://app?vid=313dfd64-03f5-4e44-afeb-2fabff1d2a2c"},"vehicle_type_id":"4","last_reported":1701115655,"current_range_meters":12800,"station_id":"ce4bhbp2rcd13ifvqerg","pricing_plan_id":"free"},{"bike_id":"63ba3539-cbad-42dc-8cba-9adc149b5148","system_id":"levelo_inurba_marseille","lat":43.282744,"lon":5.350533,"is_reserved":false,"is_disabled":false,"rental_uris":{"android":"levelo://app?vid=63ba3539-cbad-42dc-8cba-9adc149b5148","ios":"levelo://app?vid=63ba3539-cbad-42dc-8cba-9adc149b5148"},"vehicle_type_id":"4","last_reported":1701115655,"current_range_meters":1600,"station_id":"ce4bhbp2rcd13ifvqerg","pricing_plan_id":"free"},{"bike_id":"db6e04db-4936-4a1e-8849-2d6792e5797e","system_id":"levelo_inurba_marseille","lat":43.282754,"lon":5.350519,"is_reserved":false,"is_disabled":false,"rental_uris":{"android":"levelo://app?vid=db6e04db-4936-4a1e-8849-2d6792e5797e","ios":"levelo://app?vid=db6e04db-4936-4a1e-8849-2d6792e5797e"},"vehicle_type_id":"4","last_reported":1701115655,"current_range_meters":9200,"station_id":"ce4bhbp2rcd13ifvqerg","pricing_plan_id":"free"},{"bike_id":"c36c81c4-803a-4d80-ab3a-843a22a70b74","system_id":"levelo_inurba_marseille","lat":43.280382,"lon":5.369291,"is_reserved":false,"is_disabled":false,"rental_uris":{"android":"levelo://app?vid=c36c81c4-803a-4d80-ab3a-843a22a70b74","ios":"levelo://app?vid=c36c81c4-803a-4d80-ab3a-843a22a70b74"},"vehicle_type_id":"4","last_reported":1701115655,"current_range_meters":24800,"station_id":"ce4bha12rcd13ifvqef0","pricing_plan_id":"free"},{"bike_id":"cab7a74c-73b2-4530-b250-feaa23499635","system_id":"levelo_inurba_marseille","lat":43.282744,"lon":5.350533,"is_reserved":false,"is_disabled":false,"rental_uris":{"android":"levelo://app?vid=cab7a74c-73b2-4530-b250-feaa23499635","ios":"levelo://app?vid=cab7a74c-73b2-4530-b250-feaa23499635"},"vehicle_type_id":"4","last_reported":1701115655,"current_range_meters":20000,"station_id":"ce4bhbp2rcd13ifvqerg","pricing_plan_id":"free"},{"bike_id":"b018c6f1-e1b2-45dc-915d-09140eefc2a3","system_id":"levelo_inurba_marseille","lat":43.28039,"lon":5.369297,"is_reserved":false,"is_disabled":false,"rental_uris":{"android":"levelo://app?vid=b018c6f1-e1b2-45dc-915d-09140eefc2a3","ios":"levelo://app?vid=b018c6f1-e1b2-45dc-915d-09140eefc2a3"},"vehicle_type_id":"4","last_reported":1701115655,"current_range_meters":12000,"station_id":"ce4bha12rcd13ifvqef0","pricing_plan_id":"free"},{"bike_id":"2d884891-2722-4f44-8072-8fada83a090e","system_id":"levelo_inurba_marseille","lat":43.28039,"lon":5.369297,"is_reserved":false,"is_disabled":false,"rental_uris":{"android":"levelo://app?vid=2d884891-2722-4f44-8072-8fada83a090e","ios":"levelo://app?vid=2d884891-2722-4f44-8072-8fada83a090e"},"vehicle_type_id":"4","last_reported":1701115655,"current_range_meters":31200,"station_id":"ce4bha12rcd13ifvqef0","pricing_plan_id":"free"},{"bike_id":"f6b36f6f-71c2-48b7-928a-28ddaa19d0e5","system_id":"levelo_inurba_marseille","lat":43.28039,"lon":5.369297,"is_reserved":false,"is_disabled":false,"rental_uris":{"android":"levelo://app?vid=f6b36f6f-71c2-48b7-928a-28ddaa19d0e5","ios":"levelo://app?vid=f6b36f6f-71c2-48b7-928a-28ddaa19d0e5"},"vehicle_type_id":"4","last_reported":1701115655,"current_range_meters":29600,"station_id":"ce4bha12rcd13ifvqef0","pricing_plan_id":"free"},{"bike_id":"190df295-f81a-4b41-9349-5a5c25e04f62","system_id":"levelo_inurba_marseille","lat":43.28031,"lon":5.36936,"is_reserved":false,"is_disabled":false,"rental_uris":{"android":"levelo://app?vid=190df295-f81a-4b41-9349-5a5c25e04f62","ios":"levelo://app?vid=190df295-f81a-4b41-9349-5a5c25e04f62"},"vehicle_type_id":"4","last_reported":1701115655,"current_range_meters":4800,"station_id":"ce4bha12rcd13ifvqef0","pricing_plan_id":"free"},{"bike_id":"df7354c0-d6d5-43be-b9a5-e8027b581f65","system_id":"levelo_inurba_marseille","lat":43.296263,"lon":5.40601,"is_reserved":false,"is_disabled":false,"rental_uris":{"android":"levelo://app?vid=df7354c0-d6d5-43be-b9a5-e8027b581f65","ios":"levelo://app?vid=df7354c0-d6d5-43be-b9a5-e8027b581f65"},"vehicle_type_id":"4","last_reported":1701115655,"current_range_meters":14800,"station_id":"ce4bh0h2rcd13ifvqd60","pricing_plan_id":"free"},{"bike_id":"3c3cc511-48d8-4309-ba28-b5221f8cef7b","system_id":"levelo_inurba_marseille","lat":43.281044,"lon":5.378308,"is_reserved":false,"is_disabled":false,"rental_uris":{"android":"levelo://app?vid=3c3cc511-48d8-4309-ba28-b5221f8cef7b","ios":"levelo://app?vid=3c3cc511-48d8-4309-ba28-b5221f8cef7b"},"vehicle_type_id":"4","last_reported":1701115655,"current_range_meters":28000,"station_id":"ce4bha12rcd13ifvqee0","pricing_plan_id":"free"},{"bike_id":"223cb07c-0d59-4e66-9f4e-cc84b20e739d","system_id":"levelo_inurba_marseille","lat":43.284462,"lon":5.392121,"is_reserved":false,"is_disabled":false,"rental_uris":{"android":"levelo://app?vid=223cb07c-0d59-4e66-9f4e-cc84b20e739d","ios":"levelo://app?vid=223cb07c-0d59-4e66-9f4e-cc84b20e739d"},"vehicle_type_id":"4","last_reported":1701115655,"current_range_meters":20400,"station_id":"ce4bhoh2rcd13ifvqh5g","pricing_plan_id":"free"},{"bike_id":"6eff11b8-c344-4717-b9a9-80ee74928243","system_id":"levelo_inurba_marseille","lat":43.284462,"lon":5.392121,"is_reserved":false,"is_disabled":false,"rental_uris":{"android":"levelo://app?vid=6eff11b8-c344-4717-b9a9-80ee74928243","ios":"levelo://app?vid=6eff11b8-c344-4717-b9a9-80ee74928243"},"vehicle_type_id":"4","last_reported":1701115655,"current_range_meters":26400,"station_id":"ce4bhoh2rcd13ifvqh5g","pricing_plan_id":"free"},{"bike_id":"8dfa577f-3576-4c7f-b041-5979b90e1dfe","system_id":"levelo_inurba_marseille","lat":43.28573,"lon":5.394992,"is_reserved":false,"is_disabled":false,"rental_uris":{"android":"levelo://app?vid=8dfa577f-3576-4c7f-b041-5979b90e1dfe","ios":"levelo://app?vid=8dfa577f-3576-4c7f-b041-5979b90e1dfe"},"vehicle_type_id":"4","last_reported":1701115655,"current_range_meters":14000,"station_id":"ce4bh292rcd13ifvqdg0","pricing_plan_id":"free"},{"bike_id":"02a89952-eb3e-4865-ac69-0f1946fc35fd","system_id":"levelo_inurba_marseille","lat":43.285742,"lon":5.395004,"is_reserved":false,"is_disabled":false,"rental_uris":{"android":"levelo://app?vid=02a89952-eb3e-4865-ac69-0f1946fc35fd","ios":"levelo://app?vid=02a89952-eb3e-4865-ac69-0f1946fc35fd"},"vehicle_type_id":"4","last_reported":1701115655,"current_range_meters":23600,"station_id":"ce4bh292rcd13ifvqdg0","pricing_plan_id":"free"},{"bike_id":"97d4638b-37be-42d2-8f32-1ef82d154eb9","system_id":"levelo_inurba_marseille","lat":43.28573,"lon":5.394992,"is_reserved":false,"is_disabled":false,"rental_uris":{"android":"levelo://app?vid=97d4638b-37be-42d2-8f32-1ef82d154eb9","ios":"levelo://app?vid=97d4638b-37be-42d2-8f32-1ef82d154eb9"},"vehicle_type_id":"4","last_reported":1701115655,"current_range_meters":18000,"station_id":"ce4bh292rcd13ifvqdg0","pricing_plan_id":"free"},{"bike_id":"5dae3872-2e74-4178-9be3-401f885be640","system_id":"levelo_inurba_marseille","lat":43.304188,"lon":5.412904,"is_reserved":false,"is_disabled":false,"rental_uris":{"android":"levelo://app?vid=5dae3872-2e74-4178-9be3-401f885be640","ios":"levelo://app?vid=5dae3872-2e74-4178-9be3-401f885be640"},"vehicle_type_id":"4","last_reported":1701115655,"current_range_meters":0,"station_id":"ce4bhop2rcd13ifvqh8g","pricing_plan_id":"free"},{"bike_id":"f3c63244-0337-4410-b91e-a15e22054fa5","system_id":"levelo_inurba_marseille","lat":43.304188,"lon":5.412904,"is_reserved":false,"is_disabled":false,"rental_uris":{"android":"levelo://app?vid=f3c63244-0337-4410-b91e-a15e22054fa5","ios":"levelo://app?vid=f3c63244-0337-4410-b91e-a15e22054fa5"},"vehicle_type_id":"4","last_reported":1701115655,"current_range_meters":2000,"station_id":"ce4bhop2rcd13ifvqh8g","pricing_plan_id":"free"},{"bike_id":"7d18d8c2-3d50-4316-8060-5d1b0d443517","system_id":"levelo_inurba_marseille","lat":43.304188,"lon":5.412904,"is_reserved":false,"is_disabled":false,"rental_uris":{"android":"levelo://app?vid=7d18d8c2-3d50-4316-8060-5d1b0d443517","ios":"levelo://app?vid=7d18d8c2-3d50-4316-8060-5d1b0d443517"},"vehicle_type_id":"4","last_reported":1701115655,"current_range_meters":20000,"station_id":"ce4bhop2rcd13ifvqh8g","pricing_plan_id":"free"},{"bike_id":"6526cad1-2f4b-4db1-8d6b-ce04bc407b31","system_id":"levelo_inurba_marseille","lat":43.346897,"lon":5.37683,"is_reserved":false,"is_disabled":false,"rental_uris":{"android":"levelo://app?vid=6526cad1-2f4b-4db1-8d6b-ce04bc407b31","ios":"levelo://app?vid=6526cad1-2f4b-4db1-8d6b-ce04bc407b31"},"vehicle_type_id":"4","last_reported":1701115655,"current_range_meters":0,"station_id":"","pricing_plan_id":"free"},{"bike_id":"aa18d61e-9101-4378-bf51-e64cb8159de3","system_id":"levelo_inurba_marseille","lat":43.279742,"lon":5.38744,"is_reserved":false,"is_disabled":false,"rental_uris":{"android":"levelo://app?vid=aa18d61e-9101-4378-bf51-e64cb8159de3","ios":"levelo://app?vid=aa18d61e-9101-4378-bf51-e64cb8159de3"},"vehicle_type_id":"4","last_reported":1701115655,"current_range_meters":23600,"station_id":"ce4bhg12rcd13ifvqf80","pricing_plan_id":"free"},{"bike_id":"4cc96243-2d94-4fd1-84f8-a6e0c22ea4e2","system_id":"levelo_inurba_marseille","lat":43.29264,"lon":5.40907,"is_reserved":false,"is_disabled":false,"rental_uris":{"android":"levelo://app?vid=4cc96243-2d94-4fd1-84f8-a6e0c22ea4e2","ios":"levelo://app?vid=4cc96243-2d94-4fd1-84f8-a6e0c22ea4e2"},"vehicle_type_id":"4","last_reported":1701115655,"current_range_meters":13200,"station_id":"ce4bh192rcd13ifvqdc0","pricing_plan_id":"free"},{"bike_id":"521e0e2e-a8d2-4d18-8079-009c449dd225","system_id":"levelo_inurba_marseille","lat":43.29283,"lon":5.40994,"is_reserved":false,"is_disabled":false,"rental_uris":{"android":"levelo://app?vid=521e0e2e-a8d2-4d18-8079-009c449dd225","ios":"levelo://app?vid=521e0e2e-a8d2-4d18-8079-009c449dd225"},"vehicle_type_id":"4","last_reported":1701115655,"current_range_meters":4000,"station_id":"","pricing_plan_id":"free"},{"bike_id":"2a1a99c2-b40b-47d5-83ec-73fe8d8ad059","system_id":"levelo_inurba_marseille","lat":43.28083,"lon":5.39656,"is_reserved":false,"is_disabled":false,"rental_uris":{"android":"levelo://app?vid=2a1a99c2-b40b-47d5-83ec-73fe8d8ad059","ios":"levelo://app?vid=2a1a99c2-b40b-47d5-83ec-73fe8d8ad059"},"vehicle_type_id":"4","last_reported":1701115655,"current_range_meters":0,"station_id":"ce4bho12rcd13ifvqh2g","pricing_plan_id":"free"},{"bike_id":"44087013-9d8f-488c-9025-5d33d053b6d3","system_id":"levelo_inurba_marseille","lat":43.280784,"lon":5.396622,"is_reserved":false,"is_disabled":false,"rental_uris":{"android":"levelo://app?vid=44087013-9d8f-488c-9025-5d33d053b6d3","ios":"levelo://app?vid=44087013-9d8f-488c-9025-5d33d053b6d3"},"vehicle_type_id":"4","last_reported":1701115655,"current_range_meters":25600,"station_id":"ce4bho12rcd13ifvqh2g","pricing_plan_id":"free"},{"bike_id":"be9690c5-c7a1-4c76-a31f-e0ecc29f7955","system_id":"levelo_inurba_marseille","lat":43.280784,"lon":5.396622,"is_reserved":false,"is_disabled":false,"rental_uris":{"android":"levelo://app?vid=be9690c5-c7a1-4c76-a31f-e0ecc29f7955","ios":"levelo://app?vid=be9690c5-c7a1-4c76-a31f-e0ecc29f7955"},"vehicle_type_id":"4","last_reported":1701115655,"current_range_meters":12800,"station_id":"ce4bho12rcd13ifvqh2g","pricing_plan_id":"free"},{"bike_id":"a6f9448e-832d-44a3-9936-c32e6436e76b","system_id":"levelo_inurba_marseille","lat":43.278399,"lon":5.392139,"is_reserved":false,"is_disabled":false,"rental_uris":{"android":"levelo://app?vid=a6f9448e-832d-44a3-9936-c32e6436e76b","ios":"levelo://app?vid=a6f9448e-832d-44a3-9936-c32e6436e76b"},"vehicle_type_id":"4","last_reported":1701115655,"current_range_meters":18400,"station_id":"ce4bhjp2rcd13ifvqga0","pricing_plan_id":"free"},{"bike_id":"6828a77b-30ea-44b6-a8fd-f6c7d2d200ad","system_id":"levelo_inurba_marseille","lat":43.278307,"lon":5.39191,"is_reserved":false,"is_disabled":false,"rental_uris":{"android":"levelo://app?vid=6828a77b-30ea-44b6-a8fd-f6c7d2d200ad","ios":"levelo://app?vid=6828a77b-30ea-44b6-a8fd-f6c7d2d200ad"},"vehicle_type_id":"4","last_reported":1701115655,"current_range_meters":0,"station_id":"ce4bhjp2rcd13ifvqga0","pricing_plan_id":"free"},{"bike_id":"65a6bc97-46ab-4be9-93d6-3f5986a84f2d","system_id":"levelo_inurba_marseille","lat":43.278399,"lon":5.392139,"is_reserved":false,"is_disabled":false,"rental_uris":{"android":"levelo://app?vid=65a6bc97-46ab-4be9-93d6-3f5986a84f2d","ios":"levelo://app?vid=65a6bc97-46ab-4be9-93d6-3f5986a84f2d"},"vehicle_type_id":"4","last_reported":1701115655,"current_range_meters":25600,"station_id":"ce4bhjp2rcd13ifvqga0","pricing_plan_id":"free"},{"bike_id":"a48c1e10-0245-47bc-a953-a428bba4beb2","system_id":"levelo_inurba_marseille","lat":43.278399,"lon":5.392139,"is_reserved":false,"is_disabled":false,"rental_uris":{"android":"levelo://app?vid=a48c1e10-0245-47bc-a953-a428bba4beb2","ios":"levelo://app?vid=a48c1e10-0245-47bc-a953-a428bba4beb2"},"vehicle_type_id":"4","last_reported":1701115655,"current_range_meters":26000,"station_id":"ce4bhjp2rcd13ifvqga0","pricing_plan_id":"free"},{"bike_id":"6f4937b4-7edf-4eb1-b78a-3a8ee6d53240","system_id":"levelo_inurba_marseille","lat":43.278401,"lon":5.392152,"is_reserved":false,"is_disabled":false,"rental_uris":{"android":"levelo://app?vid=6f4937b4-7edf-4eb1-b78a-3a8ee6d53240","ios":"levelo://app?vid=6f4937b4-7edf-4eb1-b78a-3a8ee6d53240"},"vehicle_type_id":"4","last_reported":1701115655,"current_range_meters":13200,"station_id":"ce4bhjp2rcd13ifvqga0","pricing_plan_id":"free"},{"bike_id":"1c65a731-f44d-4095-8f56-ade1cfe17088","system_id":"levelo_inurba_marseille","lat":43.275625,"lon":5.384392,"is_reserved":false,"is_disabled":false,"rental_uris":{"android":"levelo://app?vid=1c65a731-f44d-4095-8f56-ade1cfe17088","ios":"levelo://app?vid=1c65a731-f44d-4095-8f56-ade1cfe17088"},"vehicle_type_id":"4","last_reported":1701115655,"current_range_meters":23600,"station_id":"ce4bhh92rcd13ifvqfi0","pricing_plan_id":"free"},{"bike_id":"02f623df-3276-4700-ab31-d4a22e1c46a6","system_id":"levelo_inurba_marseille","lat":43.273613,"lon":5.362705,"is_reserved":false,"is_disabled":false,"rental_uris":{"android":"levelo://app?vid=02f623df-3276-4700-ab31-d4a22e1c46a6","ios":"levelo://app?vid=02f623df-3276-4700-ab31-d4a22e1c46a6"},"vehicle_type_id":"4","last_reported":1701115655,"current_range_meters":25200,"station_id":"ce4bhbh2rcd13ifvqeo0","pricing_plan_id":"free"},{"bike_id":"40f6d377-528e-4074-806e-ae08fe5a0e27","system_id":"levelo_inurba_marseille","lat":43.273613,"lon":5.362705,"is_reserved":false,"is_disabled":false,"rental_uris":{"android":"levelo://app?vid=40f6d377-528e-4074-806e-ae08fe5a0e27","ios":"levelo://app?vid=40f6d377-528e-4074-806e-ae08fe5a0e27"},"vehicle_type_id":"4","last_reported":1701115655,"current_range_meters":17600,"station_id":"ce4bhbh2rcd13ifvqeo0","pricing_plan_id":"free"},{"bike_id":"43a0b753-fb47-4881-91d9-d29a0815f06e","system_id":"levelo_inurba_marseille","lat":43.273609,"lon":5.362708,"is_reserved":false,"is_disabled":false,"rental_uris":{"android":"levelo://app?vid=43a0b753-fb47-4881-91d9-d29a0815f06e","ios":"levelo://app?vid=43a0b753-fb47-4881-91d9-d29a0815f06e"},"vehicle_type_id":"4","last_reported":1701115655,"current_range_meters":30400,"station_id":"ce4bhbh2rcd13ifvqeo0","pricing_plan_id":"free"},{"bike_id":"5772c8d7-9920-4cc5-b40a-2987d0322bd8","system_id":"levelo_inurba_marseille","lat":43.275625,"lon":5.384392,"is_reserved":false,"is_disabled":false,"rental_uris":{"android":"levelo://app?vid=5772c8d7-9920-4cc5-b40a-2987d0322bd8","ios":"levelo://app?vid=5772c8d7-9920-4cc5-b40a-2987d0322bd8"},"vehicle_type_id":"4","last_reported":1701115655,"current_range_meters":14400,"station_id":"ce4bhh92rcd13ifvqfi0","pricing_plan_id":"free"},{"bike_id":"3d955af7-b7d1-4f39-8a2f-4096fce89c61","system_id":"levelo_inurba_marseille","lat":43.273609,"lon":5.362708,"is_reserved":false,"is_disabled":false,"rental_uris":{"android":"levelo://app?vid=3d955af7-b7d1-4f39-8a2f-4096fce89c61","ios":"levelo://app?vid=3d955af7-b7d1-4f39-8a2f-4096fce89c61"},"vehicle_type_id":"4","last_reported":1701115655,"current_range_meters":26000,"station_id":"ce4bhbh2rcd13ifvqeo0","pricing_plan_id":"free"},{"bike_id":"57b1714c-1e72-4c62-859f-cae474d32c93","system_id":"levelo_inurba_marseille","lat":43.336134,"lon":5.410341,"is_reserved":false,"is_disabled":false,"rental_uris":{"android":"levelo://app?vid=57b1714c-1e72-4c62-859f-cae474d32c93","ios":"levelo://app?vid=57b1714c-1e72-4c62-859f-cae474d32c93"},"vehicle_type_id":"4","last_reported":1701115655,"current_range_meters":22800,"station_id":"ce4bhqh2rcd13ifvqhmg","pricing_plan_id":"free"},{"bike_id":"8b655a3a-b8c3-4a2d-99c3-a247665e6349","system_id":"levelo_inurba_marseille","lat":43.276769,"lon":5.388787,"is_reserved":false,"is_disabled":false,"rental_uris":{"android":"levelo://app?vid=8b655a3a-b8c3-4a2d-99c3-a247665e6349","ios":"levelo://app?vid=8b655a3a-b8c3-4a2d-99c3-a247665e6349"},"vehicle_type_id":"4","last_reported":1701115655,"current_range_meters":27200,"station_id":"ce4bhi12rcd13ifvqfo0","pricing_plan_id":"free"},{"bike_id":"93d2e195-48fb-4653-8a69-e206dff22f91","system_id":"levelo_inurba_marseille","lat":43.279952,"lon":5.400085,"is_reserved":false,"is_disabled":false,"rental_uris":{"android":"levelo://app?vid=93d2e195-48fb-4653-8a69-e206dff22f91","ios":"levelo://app?vid=93d2e195-48fb-4653-8a69-e206dff22f91"},"vehicle_type_id":"4","last_reported":1701115655,"current_range_meters":23600,"station_id":"ce4bho92rcd13ifvqh4g","pricing_plan_id":"free"},{"bike_id":"89b9a57b-3c62-4bcd-a510-245ba6546272","system_id":"levelo_inurba_marseille","lat":43.317121,"lon":5.423936,"is_reserved":false,"is_disabled":false,"rental_uris":{"android":"levelo://app?vid=89b9a57b-3c62-4bcd-a510-245ba6546272","ios":"levelo://app?vid=89b9a57b-3c62-4bcd-a510-245ba6546272"},"vehicle_type_id":"4","last_reported":1701115655,"current_range_meters":0,"station_id":"ce4bhp92rcd13ifvqhbg","pricing_plan_id":"free"},{"bike_id":"460d5063-5d7a-4405-ba58-f7ba9110acb2","system_id":"levelo_inurba_marseille","lat":43.31718,"lon":5.42403,"is_reserved":false,"is_disabled":false,"rental_uris":{"android":"levelo://app?vid=460d5063-5d7a-4405-ba58-f7ba9110acb2","ios":"levelo://app?vid=460d5063-5d7a-4405-ba58-f7ba9110acb2"},"vehicle_type_id":"4","last_reported":1701115655,"current_range_meters":7200,"station_id":"ce4bhp92rcd13ifvqhbg","pricing_plan_id":"free"},{"bike_id":"177119fa-77bc-4b45-9076-05ca3e223bc7","system_id":"levelo_inurba_marseille","lat":43.340804,"lon":5.410219,"is_reserved":false,"is_disabled":false,"rental_uris":{"android":"levelo://app?vid=177119fa-77bc-4b45-9076-05ca3e223bc7","ios":"levelo://app?vid=177119fa-77bc-4b45-9076-05ca3e223bc7"},"vehicle_type_id":"4","last_reported":1701115655,"current_range_meters":30400,"station_id":"ce4bhqh2rcd13ifvqhlg","pricing_plan_id":"free"},{"bike_id":"e6e0d346-27b7-42ec-84de-4e7b27eb6bac","system_id":"levelo_inurba_marseille","lat":43.273129,"lon":5.390725,"is_reserved":false,"is_disabled":false,"rental_uris":{"android":"levelo://app?vid=e6e0d346-27b7-42ec-84de-4e7b27eb6bac","ios":"levelo://app?vid=e6e0d346-27b7-42ec-84de-4e7b27eb6bac"},"vehicle_type_id":"4","last_reported":1701115655,"current_range_meters":4800,"station_id":"ce4bhgp2rcd13ifvqfe0","pricing_plan_id":"free"},{"bike_id":"3be36413-8dd6-43cf-b50c-dcca9cdf7f57","system_id":"levelo_inurba_marseille","lat":43.274103,"lon":5.394016,"is_reserved":false,"is_disabled":false,"rental_uris":{"android":"levelo://app?vid=3be36413-8dd6-43cf-b50c-dcca9cdf7f57","ios":"levelo://app?vid=3be36413-8dd6-43cf-b50c-dcca9cdf7f57"},"vehicle_type_id":"4","last_reported":1701115655,"current_range_meters":22000,"station_id":"ce4bhdp2rcd13ifvqf20","pricing_plan_id":"free"},{"bike_id":"f2bde5fe-1806-4abd-8d3e-905bb0bc42a6","system_id":"levelo_inurba_marseille","lat":43.274099,"lon":5.394019,"is_reserved":false,"is_disabled":false,"rental_uris":{"android":"levelo://app?vid=f2bde5fe-1806-4abd-8d3e-905bb0bc42a6","ios":"levelo://app?vid=f2bde5fe-1806-4abd-8d3e-905bb0bc42a6"},"vehicle_type_id":"4","last_reported":1701115655,"current_range_meters":15600,"station_id":"ce4bhdp2rcd13ifvqf20","pricing_plan_id":"free"},{"bike_id":"73eeb136-9ad5-41a6-a459-fb0ef87f8779","system_id":"levelo_inurba_marseille","lat":43.295523,"lon":5.422926,"is_reserved":false,"is_disabled":false,"rental_uris":{"android":"levelo://app?vid=73eeb136-9ad5-41a6-a459-fb0ef87f8779","ios":"levelo://app?vid=73eeb136-9ad5-41a6-a459-fb0ef87f8779"},"vehicle_type_id":"4","last_reported":1701115655,"current_range_meters":4000,"station_id":"ce4bhph2rcd13ifvqhdg","pricing_plan_id":"free"},{"bike_id":"fccf1799-4473-414c-9389-9b30b0508c40","system_id":"levelo_inurba_marseille","lat":43.295523,"lon":5.422926,"is_reserved":false,"is_disabled":false,"rental_uris":{"android":"levelo://app?vid=fccf1799-4473-414c-9389-9b30b0508c40","ios":"levelo://app?vid=fccf1799-4473-414c-9389-9b30b0508c40"},"vehicle_type_id":"4","last_reported":1701115655,"current_range_meters":20000,"station_id":"ce4bhph2rcd13ifvqhdg","pricing_plan_id":"free"},{"bike_id":"08fe44e4-201e-4497-b2af-1597ca570ac3","system_id":"levelo_inurba_marseille","lat":43.295511,"lon":5.422926,"is_reserved":false,"is_disabled":false,"rental_uris":{"android":"levelo://app?vid=08fe44e4-201e-4497-b2af-1597ca570ac3","ios":"levelo://app?vid=08fe44e4-201e-4497-b2af-1597ca570ac3"},"vehicle_type_id":"4","last_reported":1701115655,"current_range_meters":22000,"station_id":"ce4bhph2rcd13ifvqhdg","pricing_plan_id":"free"},{"bike_id":"76c54cc3-5f25-4fd7-a417-9afa50fb9df9","system_id":"levelo_inurba_marseille","lat":43.295523,"lon":5.422926,"is_reserved":false,"is_disabled":false,"rental_uris":{"android":"levelo://app?vid=76c54cc3-5f25-4fd7-a417-9afa50fb9df9","ios":"levelo://app?vid=76c54cc3-5f25-4fd7-a417-9afa50fb9df9"},"vehicle_type_id":"4","last_reported":1701115655,"current_range_meters":14800,"station_id":"ce4bhph2rcd13ifvqhdg","pricing_plan_id":"free"},{"bike_id":"96661c5e-90e7-498e-8229-323d527ddcf5","system_id":"levelo_inurba_marseille","lat":43.295523,"lon":5.422926,"is_reserved":false,"is_disabled":false,"rental_uris":{"android":"levelo://app?vid=96661c5e-90e7-498e-8229-323d527ddcf5","ios":"levelo://app?vid=96661c5e-90e7-498e-8229-323d527ddcf5"},"vehicle_type_id":"4","last_reported":1701115655,"current_range_meters":20800,"station_id":"ce4bhph2rcd13ifvqhdg","pricing_plan_id":"free"},{"bike_id":"b5345938-438d-49b4-a969-d1562d2f1280","system_id":"levelo_inurba_marseille","lat":43.295523,"lon":5.422926,"is_reserved":false,"is_disabled":false,"rental_uris":{"android":"levelo://app?vid=b5345938-438d-49b4-a969-d1562d2f1280","ios":"levelo://app?vid=b5345938-438d-49b4-a969-d1562d2f1280"},"vehicle_type_id":"4","last_reported":1701115655,"current_range_meters":28400,"station_id":"ce4bhph2rcd13ifvqhdg","pricing_plan_id":"free"},{"bike_id":"6b00c00a-acab-4a0b-825e-4b6c2ea383bc","system_id":"levelo_inurba_marseille","lat":43.295523,"lon":5.422926,"is_reserved":false,"is_disabled":false,"rental_uris":{"android":"levelo://app?vid=6b00c00a-acab-4a0b-825e-4b6c2ea383bc","ios":"levelo://app?vid=6b00c00a-acab-4a0b-825e-4b6c2ea383bc"},"vehicle_type_id":"4","last_reported":1701115655,"current_range_meters":28400,"station_id":"ce4bhph2rcd13ifvqhdg","pricing_plan_id":"free"},{"bike_id":"487e8935-2222-4e65-8507-6d483307a42a","system_id":"levelo_inurba_marseille","lat":43.295511,"lon":5.422926,"is_reserved":false,"is_disabled":false,"rental_uris":{"android":"levelo://app?vid=487e8935-2222-4e65-8507-6d483307a42a","ios":"levelo://app?vid=487e8935-2222-4e65-8507-6d483307a42a"},"vehicle_type_id":"4","last_reported":1701115655,"current_range_meters":31200,"station_id":"ce4bhph2rcd13ifvqhdg","pricing_plan_id":"free"},{"bike_id":"60d68696-e37a-4397-b24a-012f516bc63c","system_id":"levelo_inurba_marseille","lat":43.295523,"lon":5.422926,"is_reserved":false,"is_disabled":false,"rental_uris":{"android":"levelo://app?vid=60d68696-e37a-4397-b24a-012f516bc63c","ios":"levelo://app?vid=60d68696-e37a-4397-b24a-012f516bc63c"},"vehicle_type_id":"4","last_reported":1701115655,"current_range_meters":17200,"station_id":"ce4bhph2rcd13ifvqhdg","pricing_plan_id":"free"},{"bike_id":"fe1a0da7-ac78-4623-9b9d-9ec231e567e0","system_id":"levelo_inurba_marseille","lat":43.29549,"lon":5.42289,"is_reserved":false,"is_disabled":false,"rental_uris":{"android":"levelo://app?vid=fe1a0da7-ac78-4623-9b9d-9ec231e567e0","ios":"levelo://app?vid=fe1a0da7-ac78-4623-9b9d-9ec231e567e0"},"vehicle_type_id":"4","last_reported":1701115655,"current_range_meters":24000,"station_id":"ce4bhph2rcd13ifvqhdg","pricing_plan_id":"free"},{"bike_id":"4c605ca3-481c-41f4-97f4-419aa29ab2ca","system_id":"levelo_inurba_marseille","lat":43.295523,"lon":5.422926,"is_reserved":false,"is_disabled":false,"rental_uris":{"android":"levelo://app?vid=4c605ca3-481c-41f4-97f4-419aa29ab2ca","ios":"levelo://app?vid=4c605ca3-481c-41f4-97f4-419aa29ab2ca"},"vehicle_type_id":"4","last_reported":1701115655,"current_range_meters":2000,"station_id":"ce4bhph2rcd13ifvqhdg","pricing_plan_id":"free"},{"bike_id":"6e77bb38-4c02-4a8e-b2e5-c59cea35717c","system_id":"levelo_inurba_marseille","lat":43.272116,"lon":5.391747,"is_reserved":false,"is_disabled":false,"rental_uris":{"android":"levelo://app?vid=6e77bb38-4c02-4a8e-b2e5-c59cea35717c","ios":"levelo://app?vid=6e77bb38-4c02-4a8e-b2e5-c59cea35717c"},"vehicle_type_id":"4","last_reported":1701115655,"current_range_meters":29200,"station_id":"ce4bhhp2rcd13ifvqfm0","pricing_plan_id":"free"},{"bike_id":"62cfa572-51d4-4a04-9e45-ea785883caeb","system_id":"levelo_inurba_marseille","lat":43.27207,"lon":5.39264,"is_reserved":false,"is_disabled":false,"rental_uris":{"android":"levelo://app?vid=62cfa572-51d4-4a04-9e45-ea785883caeb","ios":"levelo://app?vid=62cfa572-51d4-4a04-9e45-ea785883caeb"},"vehicle_type_id":"4","last_reported":1701115655,"current_range_meters":14400,"station_id":"","pricing_plan_id":"free"},{"bike_id":"ef821ba3-501b-433d-a9ca-be8ed9ba2349","system_id":"levelo_inurba_marseille","lat":43.278128,"lon":5.407195,"is_reserved":false,"is_disabled":false,"rental_uris":{"android":"levelo://app?vid=ef821ba3-501b-433d-a9ca-be8ed9ba2349","ios":"levelo://app?vid=ef821ba3-501b-433d-a9ca-be8ed9ba2349"},"vehicle_type_id":"4","last_reported":1701115655,"current_range_meters":15600,"station_id":"ce4bhnh2rcd13ifvqgtg","pricing_plan_id":"free"},{"bike_id":"e4c77c51-e3c9-4758-b9ae-43d3dfb94218","system_id":"levelo_inurba_marseille","lat":43.278128,"lon":5.407195,"is_reserved":false,"is_disabled":false,"rental_uris":{"android":"levelo://app?vid=e4c77c51-e3c9-4758-b9ae-43d3dfb94218","ios":"levelo://app?vid=e4c77c51-e3c9-4758-b9ae-43d3dfb94218"},"vehicle_type_id":"4","last_reported":1701115655,"current_range_meters":0,"station_id":"ce4bhnh2rcd13ifvqgtg","pricing_plan_id":"free"},{"bike_id":"4ecaebc4-f74c-4dbb-a23c-f0f8f006b2a7","system_id":"levelo_inurba_marseille","lat":43.27813,"lon":5.407139,"is_reserved":false,"is_disabled":false,"rental_uris":{"android":"levelo://app?vid=4ecaebc4-f74c-4dbb-a23c-f0f8f006b2a7","ios":"levelo://app?vid=4ecaebc4-f74c-4dbb-a23c-f0f8f006b2a7"},"vehicle_type_id":"4","last_reported":1701115655,"current_range_meters":0,"station_id":"ce4bhnh2rcd13ifvqgtg","pricing_plan_id":"free"},{"bike_id":"9efe761d-4b17-4e3f-a49f-4e76c8ea96ba","system_id":"levelo_inurba_marseille","lat":43.26912,"lon":5.38632,"is_reserved":false,"is_disabled":false,"rental_uris":{"android":"levelo://app?vid=9efe761d-4b17-4e3f-a49f-4e76c8ea96ba","ios":"levelo://app?vid=9efe761d-4b17-4e3f-a49f-4e76c8ea96ba"},"vehicle_type_id":"4","last_reported":1701115655,"current_range_meters":20800,"station_id":"ce4bhh92rcd13ifvqfh0","pricing_plan_id":"free"},{"bike_id":"c8268e82-32de-476d-b43b-a0fe479b442d","system_id":"levelo_inurba_marseille","lat":43.27912,"lon":5.41222,"is_reserved":false,"is_disabled":false,"rental_uris":{"android":"levelo://app?vid=c8268e82-32de-476d-b43b-a0fe479b442d","ios":"levelo://app?vid=c8268e82-32de-476d-b43b-a0fe479b442d"},"vehicle_type_id":"4","last_reported":1701115655,"current_range_meters":11600,"station_id":"","pricing_plan_id":"free"},{"bike_id":"f23d8119-b478-4639-98c5-6883279f9f84","system_id":"levelo_inurba_marseille","lat":43.32592,"lon":5.43067,"is_reserved":false,"is_disabled":false,"rental_uris":{"android":"levelo://app?vid=f23d8119-b478-4639-98c5-6883279f9f84","ios":"levelo://app?vid=f23d8119-b478-4639-98c5-6883279f9f84"},"vehicle_type_id":"4","last_reported":1701115655,"current_range_meters":18000,"station_id":"","pricing_plan_id":"free"},{"bike_id":"ed30d6a1-b23a-49e5-9c83-5546be72a734","system_id":"levelo_inurba_marseille","lat":43.3259,"lon":5.43075,"is_reserved":false,"is_disabled":false,"rental_uris":{"android":"levelo://app?vid=ed30d6a1-b23a-49e5-9c83-5546be72a734","ios":"levelo://app?vid=ed30d6a1-b23a-49e5-9c83-5546be72a734"},"vehicle_type_id":"4","last_reported":1701115655,"current_range_meters":12800,"station_id":"","pricing_plan_id":"free"},{"bike_id":"d67469ee-5362-4610-a163-fe05ae3cf4f7","system_id":"levelo_inurba_marseille","lat":43.32604,"lon":5.430817,"is_reserved":false,"is_disabled":false,"rental_uris":{"android":"levelo://app?vid=d67469ee-5362-4610-a163-fe05ae3cf4f7","ios":"levelo://app?vid=d67469ee-5362-4610-a163-fe05ae3cf4f7"},"vehicle_type_id":"4","last_reported":1701115655,"current_range_meters":1200,"station_id":"","pricing_plan_id":"free"},{"bike_id":"5986dab0-7b77-4674-8135-17288066df9b","system_id":"levelo_inurba_marseille","lat":43.275404,"lon":5.409494,"is_reserved":false,"is_disabled":false,"rental_uris":{"android":"levelo://app?vid=5986dab0-7b77-4674-8135-17288066df9b","ios":"levelo://app?vid=5986dab0-7b77-4674-8135-17288066df9b"},"vehicle_type_id":"4","last_reported":1701115655,"current_range_meters":16800,"station_id":"","pricing_plan_id":"free"},{"bike_id":"90cbab28-a875-4d11-98d3-9d382568c5c8","system_id":"levelo_inurba_marseille","lat":43.27996,"lon":5.416624,"is_reserved":false,"is_disabled":false,"rental_uris":{"android":"levelo://app?vid=90cbab28-a875-4d11-98d3-9d382568c5c8","ios":"levelo://app?vid=90cbab28-a875-4d11-98d3-9d382568c5c8"},"vehicle_type_id":"4","last_reported":1701115655,"current_range_meters":30400,"station_id":"ce4bho12rcd13ifvqh1g","pricing_plan_id":"free"},{"bike_id":"8b74d3bd-d40e-4453-992f-9b4deed5beb4","system_id":"levelo_inurba_marseille","lat":43.308051,"lon":5.43527,"is_reserved":false,"is_disabled":false,"rental_uris":{"android":"levelo://app?vid=8b74d3bd-d40e-4453-992f-9b4deed5beb4","ios":"levelo://app?vid=8b74d3bd-d40e-4453-992f-9b4deed5beb4"},"vehicle_type_id":"4","last_reported":1701115655,"current_range_meters":30400,"station_id":"ce4bhph2rcd13ifvqheg","pricing_plan_id":"free"},{"bike_id":"321c185a-e8e8-4c99-a238-cdaa5b01202c","system_id":"levelo_inurba_marseille","lat":43.26567,"lon":5.39002,"is_reserved":false,"is_disabled":false,"rental_uris":{"android":"levelo://app?vid=321c185a-e8e8-4c99-a238-cdaa5b01202c","ios":"levelo://app?vid=321c185a-e8e8-4c99-a238-cdaa5b01202c"},"vehicle_type_id":"4","last_reported":1701115655,"current_range_meters":6800,"station_id":"ce4bhe12rcd13ifvqf30","pricing_plan_id":"free"},{"bike_id":"85c6e9a7-ab6f-4be9-adbc-94f5a0a272b5","system_id":"levelo_inurba_marseille","lat":43.317104,"lon":5.436818,"is_reserved":false,"is_disabled":false,"rental_uris":{"android":"levelo://app?vid=85c6e9a7-ab6f-4be9-adbc-94f5a0a272b5","ios":"levelo://app?vid=85c6e9a7-ab6f-4be9-adbc-94f5a0a272b5"},"vehicle_type_id":"4","last_reported":1701115655,"current_range_meters":24800,"station_id":"ce4bhp92rcd13ifvqhcg","pricing_plan_id":"free"},{"bike_id":"d2e989fa-38dc-43b1-ba08-12ab74122c34","system_id":"levelo_inurba_marseille","lat":43.271762,"lon":5.409976,"is_reserved":false,"is_disabled":false,"rental_uris":{"android":"levelo://app?vid=d2e989fa-38dc-43b1-ba08-12ab74122c34","ios":"levelo://app?vid=d2e989fa-38dc-43b1-ba08-12ab74122c34"},"vehicle_type_id":"4","last_reported":1701115655,"current_range_meters":11600,"station_id":"ce4bhl12rcd13ifvqgf0","pricing_plan_id":"free"},{"bike_id":"3e469c88-1717-4aca-bd5e-1ec315470d14","system_id":"levelo_inurba_marseille","lat":43.298768,"lon":5.43643,"is_reserved":false,"is_disabled":false,"rental_uris":{"android":"levelo://app?vid=3e469c88-1717-4aca-bd5e-1ec315470d14","ios":"levelo://app?vid=3e469c88-1717-4aca-bd5e-1ec315470d14"},"vehicle_type_id":"4","last_reported":1701115655,"current_range_meters":24800,"station_id":"ce4bhpp2rcd13ifvqhfg","pricing_plan_id":"free"},{"bike_id":"3865e87c-590e-474f-b570-8a1ace950d6b","system_id":"levelo_inurba_marseille","lat":43.298768,"lon":5.43643,"is_reserved":false,"is_disabled":false,"rental_uris":{"android":"levelo://app?vid=3865e87c-590e-474f-b570-8a1ace950d6b","ios":"levelo://app?vid=3865e87c-590e-474f-b570-8a1ace950d6b"},"vehicle_type_id":"4","last_reported":1701115655,"current_range_meters":30800,"station_id":"ce4bhpp2rcd13ifvqhfg","pricing_plan_id":"free"},{"bike_id":"9713bde9-c9a7-4d76-bb95-dac32047e32a","system_id":"levelo_inurba_marseille","lat":43.298768,"lon":5.43643,"is_reserved":false,"is_disabled":false,"rental_uris":{"android":"levelo://app?vid=9713bde9-c9a7-4d76-bb95-dac32047e32a","ios":"levelo://app?vid=9713bde9-c9a7-4d76-bb95-dac32047e32a"},"vehicle_type_id":"4","last_reported":1701115655,"current_range_meters":30800,"station_id":"ce4bhpp2rcd13ifvqhfg","pricing_plan_id":"free"},