{"last_updated":1751444119,"ttl":60,"version":"2.2","data":{"bikes":[{"bike_id":"3da29fb8-fc97-44c6-b9ac-31dd456b2fd4","system_id":"levelo_inurba_marseille","lat":43.33771,"lon":5.37424,"is_reserved":false,"is_disabled":true,"rental_uris":{"android":"levelo://app?vid=3da29fb8-fc97-44c6-b9ac-31dd456b2fd4","ios":"levelo://app?vid=3da29fb8-fc97-44c6-b9ac-31dd456b2fd4"},"vehicle_type_id":"4","last_reported":1751444119,"current_range_meters":0,"station_id":"","pricing_plan_id":"cebpf4jnsgd1na2vs0mg"},{"bike_id":"01861ad8-a8d7-4be6-816e-651927c87584","system_id":"levelo_inurba_marseille","lat":43.33751,"lon":5.37456,"is_reserved":false,"is_disabled":true,"rental_uris":{"android":"levelo://app?vid=01861ad8-a8d7-4be6-816e-651927c87584","ios":"levelo://app?vid=01861ad8-a8d7-4be6-816e-651927c87584"},"vehicle_type_id":"4","last_reported":1751444119,"current_range_meters":0,"station_id":"","pricing_plan_id":"cebpf4jnsgd1na2vs0mg"},{"bike_id":"3168b9fb-97d2-4a0e-b7ee-673bb8cf7525","system_id":"levelo_inurba_marseille","lat":43.277616,"lon":5.355681,"is_reserved":false,"is_disabled":true,"rental_uris":{"android":"levelo://app?vid=3168b9fb-97d2-4a0e-b7ee-673bb8cf7525","ios":"levelo://app?vid=3168b9fb-97d2-4a0e-b7ee-673bb8cf7525"},"vehicle_type_id":"4","last_reported":1751444119,"current_range_meters":0,"station_id":"","pricing_plan_id":"cebpf4jnsgd1na2vs0mg"},{"bike_id":"a0c739b7-33d0-407a-9ce5-2e701bb7e0fe","system_id":"levelo_inurba_marseille","lat":43.27008,"lon":5.43136,"is_reserved":false,"is_disabled":true,"rental_uris":{"android":"levelo://app?vid=a0c739b7-33d0-407a-9ce5-2e701bb7e0fe","ios":"levelo://app?vid=a0c739b7-33d0-407a-9ce5-2e701bb7e0fe"},"vehicle_type_id":"4","last_reported":1751444119,"current_range_meters":0,"station_id":"","pricing_plan_id":"cebpf4jnsgd1na2vs0mg"},{"bike_id":"2ccccc82-c8a9-4c3b-909d-52c0bf697aa3","system_id":"levelo_inurba_marseille","lat":43.27609,"lon":5.35872,"is_reserved":false,"is_disabled":true,"rental_uris":{"android":"levelo://app?vid=2ccccc82-c8a9-4c3b-909d-52c0bf697aa3","ios":"levelo://app?vid=2ccccc82-c8a9-4c3b-909d-52c0bf697aa3"},"vehicle_type_id":"4","last_reported":1751444119,"current_range_meters":0,"station_id":"","pricing_plan_id":"cebpf4jnsgd1na2vs0mg"},{"bike_id":"f4c3bf38-9763-45a3-be90-5e6bfe303582","system_id":"levelo_inurba_marseille","lat":43.32721,"lon":5.36638,"is_reserved":false,"is_disabled":true,"rental_uris":{"android":"levelo://app?vid=f4c3bf38-9763-45a3-be90-5e6bfe303582","ios":"levelo://app?vid=f4c3bf38-9763-45a3-be90-5e6bfe303582"},"vehicle_type_id":"4","last_reported":1751444119,"current_range_meters":0,"station_id":"","pricing_plan_id":"cebpf4jnsgd1na2vs0mg"},{"bike_id":"7547e1e4-2d85-4907-971d-6c8e5c4cb529","system_id":"levelo_inurba_marseille","lat":43.253685,"lon":5.375045,"is_reserved":false,"is_disabled":true,"rental_uris":{"android":"levelo://app?vid=7547e1e4-2d85-4907-971d-6c8e5c4cb529","ios":"levelo://app?vid=7547e1e4-2d85-4907-971d-6c8e5c4cb529"},"vehicle_type_id":"4","last_reported":1751444119,"current_range_meters":0,"station_id":"","pricing_plan_id":"cebpf4jnsgd1na2vs0mg"},{"bike_id":"1c475596-6406-4a50-bcee-7512685f3e72","system_id":"levelo_inurba_marseille","lat":43.30543,"lon":5.36522,"is_reserved":false,"is_disabled":false,"rental_uris":{"android":"levelo://app?vid=1c475596-6406-4a50-bcee-7512685f3e72","ios":"levelo://app?vid=1c475596-6406-4a50-bcee-7512685f3e72"},"vehicle_type_id":"4","last_reported":1751444119,"current_range_meters":0,"station_id":"ce4bgs12rcd13ifvqcag","pricing_plan_id":"cebpf4jnsgd1na2vs0mg"},{"bike_id":"02a6e3c2-fad0-4d52-aae0-b29b620958c9","system_id":"levelo_inurba_marseille","lat":43.27368,"lon":5.36252,"is_reserved":false,"is_disabled":true,"rental_uris":{"android":"levelo://app?vid=02a6e3c2-fad0-4d52-aae0-b29b620958c9","ios":"levelo://app?vid=02a6e3c2-fad0-4d52-aae0-b29b620958c9"},"vehicle_type_id":"4","last_reported":1751444119,"current_range_meters":0,"station_id":"ce4bhbh2rcd13ifvqeo0","pricing_plan_id":"cebpf4jnsgd1na2vs0mg"},{"bike_id":"a8cc3463-3b1a-4343-9477-78b3b2524ecd","system_id":"levelo_inurba_marseille","lat":43.32287,"lon":5.38272,"is_reserved":false,"is_disabled":true,"rental_uris":{"android":"levelo://app?vid=a8cc3463-3b1a-4343-9477-78b3b2524ecd","ios":"levelo://app?vid=a8cc3463-3b1a-4343-9477-78b3b2524ecd"},"vehicle_type_id":"4","last_reported":1751444119,"current_range_meters":0,"station_id":"ce4bhr12rcd13ifvqhqg","pricing_plan_id":"cebpf4jnsgd1na2vs0mg"},{"bike_id":"2b79eac2-8d7f-455a-ab7b-57d1965acf5f","system_id":"levelo_inurba_marseille","lat":43.32029,"lon":5.38106,"is_reserved":false,"is_disabled":true,"rental_uris":{"android":"levelo://app?vid=2b79eac2-8d7f-455a-ab7b-57d1965acf5f","ios":"levelo://app?vid=2b79eac2-8d7f-455a-ab7b-57d1965acf5f"},"vehicle_type_id":"4","last_reported":1751444119,"current_range_meters":400,"station_id":"","pricing_plan_id":"cebpf4jnsgd1na2vs0mg"},{"bike_id":"8c777a99-2933-4fa4-987b-588db3bf3e99","system_id":"levelo_inurba_marseille","lat":43.295838,"lon":5.375174,"is_reserved":false,"is_disabled":true,"rental_uris":{"android":"levelo://app?vid=8c777a99-2933-4fa4-987b-588db3bf3e99","ios":"levelo://app?vid=8c777a99-2933-4fa4-987b-588db3bf3e99"},"vehicle_type_id":"4","last_reported":1751444119,"current_range_meters":400,"station_id":"ce4bgh92rcd13ifvqb50","pricing_plan_id":"cebpf4jnsgd1na2vs0mg"},{"bike_id":"754343a6-eb52-4c16-91cb-4c257cf9bb72","system_id":"levelo_inurba_marseille","lat":43.3148,"lon":5.37305,"is_reserved":false,"is_disabled":true,"rental_uris":{"android":"levelo://app?vid=754343a6-eb52-4c16-91cb-4c257cf9bb72","ios":"levelo://app?vid=754343a6-eb52-4c16-91cb-4c257cf9bb72"},"vehicle_type_id":"4","last_reported":1751444119,"current_range_meters":400,"station_id":"ce4bgt12rcd13ifvqcd0","pricing_plan_id":"cebpf4jnsgd1na2vs0mg"},{"bike_id":"c03b9c11-2068-4cd9-b39f-b3e14fca6855","system_id":"levelo_inurba_marseille","lat":43.2903,"lon":5.38124,"is_reserved":false,"is_disabled":true,"rental_uris":{"android":"levelo://app?vid=c03b9c11-2068-4cd9-b39f-b3e14fca6855","ios":"levelo://app?vid=c03b9c11-2068-4cd9-b39f-b3e14fca6855"},"vehicle_type_id":"4","last_reported":1751444119,"current_range_meters":400,"station_id":"ce4bh4p2rcd13ifvqe1g","pricing_plan_id":"cebpf4jnsgd1na2vs0mg"},{"bike_id":"4a2b97d2-160c-4ed4-8381-99e7987885ad","system_id":"levelo_inurba_marseille","lat":43.28271,"lon":5.35071,"is_reserved":false,"is_disabled":true,"rental_uris":{"android":"levelo://app?vid=4a2b97d2-160c-4ed4-8381-99e7987885ad","ios":"levelo://app?vid=4a2b97d2-160c-4ed4-8381-99e7987885ad"},"vehicle_type_id":"4","last_reported":1751444119,"current_range_meters":400,"station_id":"ce4bhbp2rcd13ifvqerg","pricing_plan_id":"cebpf4jnsgd1na2vs0mg"},{"bike_id":"083e00bc-1317-4b70-aa97-63eacb2d59ec","system_id":"levelo_inurba_marseille","lat":43.29742,"lon":5.37735,"is_reserved":false,"is_disabled":true,"rental_uris":{"android":"levelo://app?vid=083e00bc-1317-4b70-aa97-63eacb2d59ec","ios":"levelo://app?vid=083e00bc-1317-4b70-aa97-63eacb2d59ec"},"vehicle_type_id":"4","last_reported":1751444119,"current_range_meters":1200,"station_id":"","pricing_plan_id":"cebpf4jnsgd1na2vs0mg"},{"bike_id":"162af4e6-d224-4240-aeac-6cb0ae06de53","system_id":"levelo_inurba_marseille","lat":43.299062,"lon":5.378409,"is_reserved":false,"is_disabled":true,"rental_uris":{"android":"levelo://app?vid=162af4e6-d224-4240-aeac-6cb0ae06de53","ios":"levelo://app?vid=162af4e6-d224-4240-aeac-6cb0ae06de53"},"vehicle_type_id":"4","last_reported":1751444119,"current_range_meters":1600,"station_id":"","pricing_plan_id":"cebpf4jnsgd1na2vs0mg"},{"bike_id":"d54d20e4-11f0-4db8-825e-01cd594caa7e","system_id":"levelo_inurba_marseille","lat":43.21751,"lon":5.34598,"is_reserved":false,"is_disabled":true,"rental_uris":{"android":"levelo://app?vid=d54d20e4-11f0-4db8-825e-01cd594caa7e","ios":"levelo://app?vid=d54d20e4-11f0-4db8-825e-01cd594caa7e"},"vehicle_type_id":"4","last_reported":1751444119,"current_range_meters":1600,"station_id":"st_cvj6r9ubvosntc0bgbag","pricing_plan_id":"cebpf4jnsgd1na2vs0mg"},{"bike_id":"b8143f21-c04d-4da2-a11b-dc4b558b4c2e","system_id":"levelo_inurba_marseille","lat":43.292285,"lon":5.360583,"is_reserved":false,"is_disabled":true,"rental_uris":{"android":"levelo://app?vid=b8143f21-c04d-4da2-a11b-dc4b558b4c2e","ios":"levelo://app?vid=b8143f21-c04d-4da2-a11b-dc4b558b4c2e"},"vehicle_type_id":"4","last_reported":1751444119,"current_range_meters":2000,"station_id":"ce4bhbh2rcd13ifvqeqg","pricing_plan_id":"cebpf4jnsgd1na2vs0mg"},{"bike_id":"21e2c51d-4563-4efd-afbf-0ddeff93c862","system_id":"levelo_inurba_marseille","lat":43.21749,"lon":5.34603,"is_reserved":false,"is_disabled":false,"rental_uris":{"android":"levelo://app?vid=21e2c51d-4563-4efd-afbf-0ddeff93c862","ios":"levelo://app?vid=21e2c51d-4563-4efd-afbf-0ddeff93c862"},"vehicle_type_id":"4","last_reported":1751444119,"current_range_meters":2800,"station_id":"st_cvj6r9ubvosntc0bgbag","pricing_plan_id":"cebpf4jnsgd1na2vs0mg"},{"bike_id":"13624bb3-72a8-4556-9dfe-f9b87c8c465f","system_id":"levelo_inurba_marseille","lat":43.2871,"lon":5.38916,"is_reserved":false,"is_disabled":false,"rental_uris":{"android":"levelo://app?vid=13624bb3-72a8-4556-9dfe-f9b87c8c465f","ios":"levelo://app?vid=13624bb3-72a8-4556-9dfe-f9b87c8c465f"},"vehicle_type_id":"4","last_reported":1751444119,"current_range_meters":3200,"station_id":"","pricing_plan_id":"cebpf4jnsgd1na2vs0mg"},{"bike_id":"e2551a1f-7374-436f-bc45-acada03e3fd4","system_id":"levelo_inurba_marseille","lat":43.28485,"lon":5.38407,"is_reserved":false,"is_disabled":false,"rental_uris":{"android":"levelo://app?vid=e2551a1f-7374-436f-bc45-acada03e3fd4","ios":"levelo://app?vid=e2551a1f-7374-436f-bc45-acada03e3fd4"},"vehicle_type_id":"4","last_reported":1751444119,"current_range_meters":3600,"station_id":"ce4bh512rcd13ifvqe3g","pricing_plan_id":"cebpf4jnsgd1na2vs0mg"},{"bike_id":"21a005ab-b46b-4524-ab5e-c8a1fe6164c1","system_id":"levelo_inurba_marseille","lat":43.287184,"lon":5.364622,"is_reserved":false,"is_disabled":false,"rental_uris":{"android":"levelo://app?vid=21a005ab-b46b-4524-ab5e-c8a1fe6164c1","ios":"levelo://app?vid=21a005ab-b46b-4524-ab5e-c8a1fe6164c1"},"vehicle_type_id":"4","last_reported":1751444119,"current_range_meters":3600,"station_id":"ce4bhah2rcd13ifvqei0","pricing_plan_id":"cebpf4jnsgd1na2vs0mg"},{"bike_id":"a2017121-8342-439c-9853-789b6ff0806f","system_id":"levelo_inurba_marseille","lat":43.21191,"lon":5.35064,"is_reserved":false,"is_disabled":false,"rental_uris":{"android":"levelo://app?vid=a2017121-8342-439c-9853-789b6ff0806f","ios":"levelo://app?vid=a2017121-8342-439c-9853-789b6ff0806f"},"vehicle_type_id":"4","last_reported":1751444119,"current_range_meters":3600,"station_id":"st_cvj6sg6p6f1abm77japg","pricing_plan_id":"cebpf4jnsgd1na2vs0mg"},{"bike_id":"97533356-3f8f-476a-a521-deac6548f954","system_id":"levelo_inurba_marseille","lat":43.29295,"lon":5.37438,"is_reserved":false,"is_disabled":false,"rental_uris":{"android":"levelo://app?vid=97533356-3f8f-476a-a521-deac6548f954","ios":"levelo://app?vid=97533356-3f8f-476a-a521-deac6548f954"},"vehicle_type_id":"4","last_reported":1751444119,"current_range_meters":4400,"station_id":"ce4bgi12rcd13ifvqb70","pricing_plan_id":"cebpf4jnsgd1na2vs0mg"},{"bike_id":"e512f7b2-5125-467d-bdb3-b5cd42538774","system_id":"levelo_inurba_marseille","lat":43.28269,"lon":5.35067,"is_reserved":false,"is_disabled":false,"rental_uris":{"android":"levelo://app?vid=e512f7b2-5125-467d-bdb3-b5cd42538774","ios":"levelo://app?vid=e512f7b2-5125-467d-bdb3-b5cd42538774"},"vehicle_type_id":"4","last_reported":1751444119,"current_range_meters":4400,"station_id":"ce4bhbp2rcd13ifvqerg","pricing_plan_id":"cebpf4jnsgd1na2vs0mg"},{"bike_id":"aa2415cb-f72e-483d-b0ac-e588167e15a1","system_id":"levelo_inurba_marseille","lat":43.2842,"lon":5.34981,"is_reserved":false,"is_disabled":false,"rental_uris":{"android":"levelo://app?vid=aa2415cb-f72e-483d-b0ac-e588167e15a1","ios":"levelo://app?vid=aa2415cb-f72e-483d-b0ac-e588167e15a1"},"vehicle_type_id":"4","last_reported":1751444119,"current_range_meters":4800,"station_id":"ce4bhbh2rcd13ifvqepg","pricing_plan_id":"cebpf4jnsgd1na2vs0mg"},{"bike_id":"1a7bd66e-b729-468e-9731-6800639d29ec","system_id":"levelo_inurba_marseille","lat":43.25941,"lon":5.40902,"is_reserved":false,"is_disabled":false,"rental_uris":{"android":"levelo://app?vid=1a7bd66e-b729-468e-9731-6800639d29ec","ios":"levelo://app?vid=1a7bd66e-b729-468e-9731-6800639d29ec"},"vehicle_type_id":"4","last_reported":1751444119,"current_range_meters":4800,"station_id":"ce4bhm92rcd13ifvqglg","pricing_plan_id":"cebpf4jnsgd1na2vs0mg"},{"bike_id":"21548d8b-5c84-43c2-91e1-15d505c1e104","system_id":"levelo_inurba_marseille","lat":43.28608,"lon":5.35104,"is_reserved":false,"is_disabled":false,"rental_uris":{"android":"levelo://app?vid=21548d8b-5c84-43c2-91e1-15d505c1e104","ios":"levelo://app?vid=21548d8b-5c84-43c2-91e1-15d505c1e104"},"vehicle_type_id":"4","last_reported":1751444119,"current_range_meters":5600,"station_id":"ce4bhch2rcd13ifvqeug","pricing_plan_id":"cebpf4jnsgd1na2vs0mg"},{"bike_id":"e9497a27-6e1d-4fe1-b21d-2c97e21c8559","system_id":"levelo_inurba_marseille","lat":43.32054,"lon":5.41551,"is_reserved":false,"is_disabled":false,"rental_uris":{"android":"levelo://app?vid=e9497a27-6e1d-4fe1-b21d-2c97e21c8559","ios":"levelo://app?vid=e9497a27-6e1d-4fe1-b21d-2c97e21c8559"},"vehicle_type_id":"4","last_reported":1751444119,"current_range_meters":5600,"station_id":"ce4bhq92rcd13ifvqhkg","pricing_plan_id":"cebpf4jnsgd1na2vs0mg"},{"bike_id":"c1ac4456-7263-408c-9706-6b0425041f09","system_id":"levelo_inurba_marseille","lat":43.23195,"lon":5.35555,"is_reserved":false,"is_disabled":false,"rental_uris":{"android":"levelo://app?vid=c1ac4456-7263-408c-9706-6b0425041f09","ios":"levelo://app?vid=c1ac4456-7263-408c-9706-6b0425041f09"},"vehicle_type_id":"4","last_reported":1751444119,"current_range_meters":5600,"station_id":"ce4bhu92rcd13ifvqi70","pricing_plan_id":"cebpf4jnsgd1na2vs0mg"},{"bike_id":"deb5d481-3d53-4ee7-a7cd-63436f14e540","system_id":"levelo_inurba_marseille","lat":43.23961,"lon":5.36623,"is_reserved":false,"is_disabled":false,"rental_uris":{"android":"levelo://app?vid=deb5d481-3d53-4ee7-a7cd-63436f14e540","ios":"levelo://app?vid=deb5d481-3d53-4ee7-a7cd-63436f14e540"},"vehicle_type_id":"4","last_reported":1751444119,"current_range_meters":6000,"station_id":"ce4bhi12rcd13ifvqfp0","pricing_plan_id":"cebpf4jnsgd1na2vs0mg"},{"bike_id":"a20ea16a-8f75-4cd6-a248-a8135262f86f","system_id":"levelo_inurba_marseille","lat":43.24166,"lon":5.3639,"is_reserved":false,"is_disabled":false,"rental_uris":{"android":"levelo://app?vid=a20ea16a-8f75-4cd6-a248-a8135262f86f","ios":"levelo://app?vid=a20ea16a-8f75-4cd6-a248-a8135262f86f"},"vehicle_type_id":"4","last_reported":1751444119,"current_range_meters":6000,"station_id":"cpo36qri1sfpv3e86is0","pricing_plan_id":"cebpf4jnsgd1na2vs0mg"},{"bike_id":"8252b44a-d048-4379-9209-2efa2e627825","system_id":"levelo_inurba_marseille","lat":43.29219,"lon":5.40554,"is_reserved":false,"is_disabled":false,"rental_uris":{"android":"levelo://app?vid=8252b44a-d048-4379-9209-2efa2e627825","ios":"levelo://app?vid=8252b44a-d048-4379-9209-2efa2e627825"},"vehicle_type_id":"4","last_reported":1751444119,"current_range_meters":6400,"station_id":"","pricing_plan_id":"cebpf4jnsgd1na2vs0mg"},{"bike_id":"5f435eb2-b98e-4772-9d2e-221e92822cef","system_id":"levelo_inurba_marseille","lat":43.30334,"lon":5.40439,"is_reserved":false,"is_disabled":false,"rental_uris":{"android":"levelo://app?vid=5f435eb2-b98e-4772-9d2e-221e92822cef","ios":"levelo://app?vid=5f435eb2-b98e-4772-9d2e-221e92822cef"},"vehicle_type_id":"4","last_reported":1751444119,"current_range_meters":6400,"station_id":"ce4bh012rcd13ifvqd10","pricing_plan_id":"cebpf4jnsgd1na2vs0mg"},{"bike_id":"bf97eb8b-cb58-49da-9975-caad753cdbd5","system_id":"levelo_inurba_marseille","lat":43.28933,"lon":5.36614,"is_reserved":false,"is_disabled":false,"rental_uris":{"android":"levelo://app?vid=bf97eb8b-cb58-49da-9975-caad753cdbd5","ios":"levelo://app?vid=bf97eb8b-cb58-49da-9975-caad753cdbd5"},"vehicle_type_id":"4","last_reported":1751444119,"current_range_meters":6400,"station_id":"ce4bhap2rcd13ifvqek0","pricing_plan_id":"cebpf4jnsgd1na2vs0mg"},{"bike_id":"e3ff2741-2c53-4741-96b7-d2ff3c39c0e2","system_id":"levelo_inurba_marseille","lat":43.3077,"lon":5.37601,"is_reserved":false,"is_disabled":false,"rental_uris":{"android":"levelo://app?vid=e3ff2741-2c53-4741-96b7-d2ff3c39c0e2","ios":"levelo://app?vid=e3ff2741-2c53-4741-96b7-d2ff3c39c0e2"},"vehicle_type_id":"4","last_reported":1751444119,"current_range_meters":6800,"station_id":"ce4bgv92rcd13ifvqcq0","pricing_plan_id":"cebpf4jnsgd1na2vs0mg"},{"bike_id":"565a8f32-b135-475b-a7fb-c3cd2f119146","system_id":"levelo_inurba_marseille","lat":43.2842,"lon":5.34977,"is_reserved":false,"is_disabled":false,"rental_uris":{"android":"levelo://app?vid=565a8f32-b135-475b-a7fb-c3cd2f119146","ios":"levelo://app?vid=565a8f32-b135-475b-a7fb-c3cd2f119146"},"vehicle_type_id":"4","last_reported":1751444119,"current_range_meters":6800,"station_id":"ce4bhbh2rcd13ifvqepg","pricing_plan_id":"cebpf4jnsgd1na2vs0mg"},{"bike_id":"e10f8c65-dc6d-4061-b24e-b72ace6ed43b","system_id":"levelo_inurba_marseille","lat":43.31723,"lon":5.43678,"is_reserved":false,"is_disabled":false,"rental_uris":{"android":"levelo://app?vid=e10f8c65-dc6d-4061-b24e-b72ace6ed43b","ios":"levelo://app?vid=e10f8c65-dc6d-4061-b24e-b72ace6ed43b"},"vehicle_type_id":"4","last_reported":1751444119,"current_range_meters":6800,"station_id":"ce4bhp92rcd13ifvqhcg","pricing_plan_id":"cebpf4jnsgd1na2vs0mg"},{"bike_id":"27283166-6602-47b0-b7ac-ba0898231f7b","system_id":"levelo_inurba_marseille","lat":43.33777,"lon":5.37457,"is_reserved":false,"is_disabled":false,"rental_uris":{"android":"levelo://app?vid=27283166-6602-47b0-b7ac-ba0898231f7b","ios":"levelo://app?vid=27283166-6602-47b0-b7ac-ba0898231f7b"},"vehicle_type_id":"4","last_reported":1751444119,"current_range_meters":7200,"station_id":"","pricing_plan_id":"cebpf4jnsgd1na2vs0mg"},{"bike_id":"83015633-1b29-4bf9-9024-4fe2ee97954a","system_id":"levelo_inurba_marseille","lat":43.32375,"lon":5.38858,"is_reserved":false,"is_disabled":false,"rental_uris":{"android":"levelo://app?vid=83015633-1b29-4bf9-9024-4fe2ee97954a","ios":"levelo://app?vid=83015633-1b29-4bf9-9024-4fe2ee97954a"},"vehicle_type_id":"4","last_reported":1751444119,"current_range_meters":7200,"station_id":"ce4bhqp2rcd13ifvqhog","pricing_plan_id":"cebpf4jnsgd1na2vs0mg"},{"bike_id":"9ddbdaf9-d6f0-4e7b-817e-0cfa195b6086","system_id":"levelo_inurba_marseille","lat":43.296845,"lon":5.372573,"is_reserved":false,"is_disabled":false,"rental_uris":{"android":"levelo://app?vid=9ddbdaf9-d6f0-4e7b-817e-0cfa195b6086","ios":"levelo://app?vid=9ddbdaf9-d6f0-4e7b-817e-0cfa195b6086"},"vehicle_type_id":"4","last_reported":1751444119,"current_range_meters":8000,"station_id":"ce4bgk12rcd13ifvqbj0","pricing_plan_id":"cebpf4jnsgd1na2vs0mg"},{"bike_id":"2079a3bc-2800-4acf-8843-fca1c0d8af56","system_id":"levelo_inurba_marseille","lat":43.23155,"lon":5.43705,"is_reserved":false,"is_disabled":false,"rental_uris":{"android":"levelo://app?vid=2079a3bc-2800-4acf-8843-fca1c0d8af56","ios":"levelo://app?vid=2079a3bc-2800-4acf-8843-fca1c0d8af56"},"vehicle_type_id":"4","last_reported":1751444119,"current_range_meters":8000,"station_id":"ce4bhmp2rcd13ifvqgog","pricing_plan_id":"cebpf4jnsgd1na2vs0mg"},{"bike_id":"483ba61c-e9d3-4100-9ca2-9f76b3853385","system_id":"levelo_inurba_marseille","lat":43.33604,"lon":5.41026,"is_reserved":false,"is_disabled":false,"rental_uris":{"android":"levelo://app?vid=483ba61c-e9d3-4100-9ca2-9f76b3853385","ios":"levelo://app?vid=483ba61c-e9d3-4100-9ca2-9f76b3853385"},"vehicle_type_id":"4","last_reported":1751444119,"current_range_meters":8000,"station_id":"ce4bhqh2rcd13ifvqhmg","pricing_plan_id":"cebpf4jnsgd1na2vs0mg"},{"bike_id":"6e5a379a-1750-4ebb-9fa4-2235d0420ba5","system_id":"levelo_inurba_marseille","lat":43.29968,"lon":5.37153,"is_reserved":false,"is_disabled":false,"rental_uris":{"android":"levelo://app?vid=6e5a379a-1750-4ebb-9fa4-2235d0420ba5","ios":"levelo://app?vid=6e5a379a-1750-4ebb-9fa4-2235d0420ba5"},"vehicle_type_id":"4","last_reported":1751444119,"current_range_meters":8400,"station_id":"ce4bgr92rcd13ifvqc7g","pricing_plan_id":"cebpf4jnsgd1na2vs0mg"},{"bike_id":"a615a8e5-a679-472f-a522-5ae71d0a509e","system_id":"levelo_inurba_marseille","lat":43.29043,"lon":5.37562,"is_reserved":false,"is_disabled":false,"rental_uris":{"android":"levelo://app?vid=a615a8e5-a679-472f-a522-5ae71d0a509e","ios":"levelo://app?vid=a615a8e5-a679-472f-a522-5ae71d0a509e"},"vehicle_type_id":"4","last_reported":1751444119,"current_range_meters":8400,"station_id":"ce4bh692rcd13ifvqe90","pricing_plan_id":"cebpf4jnsgd1na2vs0mg"},{"bike_id":"2726f14f-8d32-4e17-9b3e-62cc809675e1","system_id":"levelo_inurba_marseille","lat":43.32107,"lon":5.36772,"is_reserved":false,"is_disabled":false,"rental_uris":{"android":"levelo://app?vid=2726f14f-8d32-4e17-9b3e-62cc809675e1","ios":"levelo://app?vid=2726f14f-8d32-4e17-9b3e-62cc809675e1"},"vehicle_type_id":"4","last_reported":1751444119,"current_range_meters":8400,"station_id":"ce4bhrh2rcd13ifvqhug","pricing_plan_id":"cebpf4jnsgd1na2vs0mg"},{"bike_id":"b2ec7371-4e1a-4f7b-ae6c-60c5a54c237b","system_id":"levelo_inurba_marseille","lat":43.211965,"lon":5.350658,"is_reserved":false,"is_disabled":false,"rental_uris":{"android":"levelo://app?vid=b2ec7371-4e1a-4f7b-ae6c-60c5a54c237b","ios":"levelo://app?vid=b2ec7371-4e1a-4f7b-ae6c-60c5a54c237b"},"vehicle_type_id":"4","last_reported":1751444119,"current_range_meters":8400,"station_id":"st_cvj6sg6p6f1abm77japg","pricing_plan_id":"cebpf4jnsgd1na2vs0mg"},{"bike_id":"4b7c05e8-07fd-45ea-a4bf-cc923298c4ba","system_id":"levelo_inurba_marseille","lat":43.31121,"lon":5.3777,"is_reserved":false,"is_disabled":false,"rental_uris":{"android":"levelo://app?vid=4b7c05e8-07fd-45ea-a4bf-cc923298c4ba","ios":"levelo://app?vid=4b7c05e8-07fd-45ea-a4bf-cc923298c4ba"},"vehicle_type_id":"4","last_reported":1751444119,"current_range_meters":8800,"station_id":"ce4bgt92rcd13ifvqcg0","pricing_plan_id":"cebpf4jnsgd1na2vs0mg"},{"bike_id":"a5b098f2-1248-4c05-94c4-ab06241751c4","system_id":"levelo_inurba_marseille","lat":43.25931,"lon":5.40915,"is_reserved":false,"is_disabled":false,"rental_uris":{"android":"levelo://app?vid=a5b098f2-1248-4c05-94c4-ab06241751c4","ios":"levelo://app?vid=a5b098f2-1248-4c05-94c4-ab06241751c4"},"vehicle_type_id":"4","last_reported":1751444119,"current_range_meters":8800,"station_id":"ce4bhm92rcd13ifvqglg","pricing_plan_id":"cebpf4jnsgd1na2vs0mg"},{"bike_id":"b28aa0a0-791c-4a08-9a16-c7bf6ea0ed5a","system_id":"levelo_inurba_marseille","lat":43.22504,"lon":5.34772,"is_reserved":false,"is_disabled":false,"rental_uris":{"android":"levelo://app?vid=b28aa0a0-791c-4a08-9a16-c7bf6ea0ed5a","ios":"levelo://app?vid=b28aa0a0-791c-4a08-9a16-c7bf6ea0ed5a"},"vehicle_type_id":"4","last_reported":1751444119,"current_range_meters":8800,"station_id":"st_cvj5dfep6f1abm77gieg","pricing_plan_id":"cebpf4jnsgd1na2vs0mg"},{"bike_id":"c2b72fe0-bae6-4c7b-ad48-9e771b203dc8","system_id":"levelo_inurba_marseille","lat":43.31356,"lon":5.38451,"is_reserved":false,"is_disabled":false,"rental_uris":{"android":"levelo://app?vid=c2b72fe0-bae6-4c7b-ad48-9e771b203dc8","ios":"levelo://app?vid=c2b72fe0-bae6-4c7b-ad48-9e771b203dc8"},"vehicle_type_id":"4","last_reported":1751444119,"current_range_meters":9200,"station_id":"ce4bgt92rcd13ifvqcf0","pricing_plan_id":"cebpf4jnsgd1na2vs0mg"},{"bike_id":"3f51ceec-447c-4a8a-af78-5029e9c36989","system_id":"levelo_inurba_marseille","lat":43.30895,"lon":5.37203,"is_reserved":false,"is_disabled":false,"rental_uris":{"android":"levelo://app?vid=3f51ceec-447c-4a8a-af78-5029e9c36989","ios":"levelo://app?vid=3f51ceec-447c-4a8a-af78-5029e9c36989"},"vehicle_type_id":"4","last_reported":1751444119,"current_range_meters":9200,"station_id":"ce4bguh2rcd13ifvqckg","pricing_plan_id":"cebpf4jnsgd1na2vs0mg"},{"bike_id":"8f10a9ab-b2d1-48a1-84c5-75424f1b18f7","system_id":"levelo_inurba_marseille","lat":43.21159,"lon":5.35065,"is_reserved":false,"is_disabled":false,"rental_uris":{"android":"levelo://app?vid=8f10a9ab-b2d1-48a1-84c5-75424f1b18f7","ios":"levelo://app?vid=8f10a9ab-b2d1-48a1-84c5-75424f1b18f7"},"vehicle_type_id":"4","last_reported":1751444119,"current_range_meters":9200,"station_id":"st_cvj6sg6p6f1abm77japg","pricing_plan_id":"cebpf4jnsgd1na2vs0mg"},{"bike_id":"a65fb276-f04a-4244-b3d7-414de5907cd5","system_id":"levelo_inurba_marseille","lat":43.28269,"lon":5.35067,"is_reserved":false,"is_disabled":false,"rental_uris":{"android":"levelo://app?vid=a65fb276-f04a-4244-b3d7-414de5907cd5","ios":"levelo://app?vid=a65fb276-f04a-4244-b3d7-414de5907cd5"},"vehicle_type_id":"4","last_reported":1751444119,"current_range_meters":9600,"station_id":"ce4bhbp2rcd13ifvqerg","pricing_plan_id":"cebpf4jnsgd1na2vs0mg"},{"bike_id":"4056d422-f66f-4a00-af76-54f61f524c47","system_id":"levelo_inurba_marseille","lat":43.29008,"lon":5.37566,"is_reserved":false,"is_disabled":false,"rental_uris":{"android":"levelo://app?vid=4056d422-f66f-4a00-af76-54f61f524c47","ios":"levelo://app?vid=4056d422-f66f-4a00-af76-54f61f524c47"},"vehicle_type_id":"4","last_reported":1751444119,"current_range_meters":10000,"station_id":"ce4bh692rcd13ifvqe90","pricing_plan_id":"cebpf4jnsgd1na2vs0mg"},{"bike_id":"a768f0ec-c252-41b9-a06f-d380e29a2ea9","system_id":"levelo_inurba_marseille","lat":43.29001,"lon":5.356,"is_reserved":false,"is_disabled":false,"rental_uris":{"android":"levelo://app?vid=a768f0ec-c252-41b9-a06f-d380e29a2ea9","ios":"levelo://app?vid=a768f0ec-c252-41b9-a06f-d380e29a2ea9"},"vehicle_type_id":"4","last_reported":1751444119,"current_range_meters":10000,"station_id":"ce4bhb92rcd13ifvqen0","pricing_plan_id":"cebpf4jnsgd1na2vs0mg"},{"bike_id":"34ef8d19-abd3-418b-af23-9942dadb071a","system_id":"levelo_inurba_marseille","lat":43.21193,"lon":5.35061,"is_reserved":false,"is_disabled":false,"rental_uris":{"android":"levelo://app?vid=34ef8d19-abd3-418b-af23-9942dadb071a","ios":"levelo://app?vid=34ef8d19-abd3-418b-af23-9942dadb071a"},"vehicle_type_id":"4","last_reported":1751444119,"current_range_meters":10000,"station_id":"st_cvj6sg6p6f1abm77japg","pricing_plan_id":"cebpf4jnsgd1na2vs0mg"},{"bike_id":"c61036a9-1a66-4480-8bd4-cd2fb585b287","system_id":"levelo_inurba_marseille","lat":43.269839,"lon":5.405488,"is_reserved":false,"is_disabled":false,"rental_uris":{"android":"levelo://app?vid=c61036a9-1a66-4480-8bd4-cd2fb585b287","ios":"levelo://app?vid=c61036a9-1a66-4480-8bd4-cd2fb585b287"},"vehicle_type_id":"4","last_reported":1751444119,"current_range_meters":10800,"station_id":"","pricing_plan_id":"cebpf4jnsgd1na2vs0mg"},{"bike_id":"63e48e06-b91f-4043-a5fb-572d5a600b5e","system_id":"levelo_inurba_marseille","lat":43.309547,"lon":5.390387,"is_reserved":false,"is_disabled":false,"rental_uris":{"android":"levelo://app?vid=63e48e06-b91f-4043-a5fb-572d5a600b5e","ios":"levelo://app?vid=63e48e06-b91f-4043-a5fb-572d5a600b5e"},"vehicle_type_id":"4","last_reported":1751444119,"current_range_meters":10800,"station_id":"ce4bgup2rcd13ifvqco0","pricing_plan_id":"cebpf4jnsgd1na2vs0mg"},{"bike_id":"9e6faf97-26f2-425e-b135-afe50ef20831","system_id":"levelo_inurba_marseille","lat":43.29321,"lon":5.40097,"is_reserved":false,"is_disabled":false,"rental_uris":{"android":"levelo://app?vid=9e6faf97-26f2-425e-b135-afe50ef20831","ios":"levelo://app?vid=9e6faf97-26f2-425e-b135-afe50ef20831"},"vehicle_type_id":"4","last_reported":1751444119,"current_range_meters":10800,"station_id":"ce4bh312rcd13ifvqdk0","pricing_plan_id":"cebpf4jnsgd1na2vs0mg"},{"bike_id":"a0ffdf28-d659-45dc-b870-b2d591eeef83","system_id":"levelo_inurba_marseille","lat":43.2572,"lon":5.41102,"is_reserved":false,"is_disabled":false,"rental_uris":{"android":"levelo://app?vid=a0ffdf28-d659-45dc-b870-b2d591eeef83","ios":"levelo://app?vid=a0ffdf28-d659-45dc-b870-b2d591eeef83"},"vehicle_type_id":"4","last_reported":1751444119,"current_range_meters":10800,"station_id":"ce4bhkp2rcd13ifvqgd0","pricing_plan_id":"cebpf4jnsgd1na2vs0mg"},{"bike_id":"ddf528b1-4427-4205-b74c-58daba4bcb9d","system_id":"levelo_inurba_marseille","lat":43.32569,"lon":5.4147,"is_reserved":false,"is_disabled":false,"rental_uris":{"android":"levelo://app?vid=ddf528b1-4427-4205-b74c-58daba4bcb9d","ios":"levelo://app?vid=ddf528b1-4427-4205-b74c-58daba4bcb9d"},"vehicle_type_id":"4","last_reported":1751444119,"current_range_meters":10800,"station_id":"ce4bhq12rcd13ifvqhhg","pricing_plan_id":"cebpf4jnsgd1na2vs0mg"},{"bike_id":"86c8e1a5-b5c2-42b1-99f8-14e6e2096d9b","system_id":"levelo_inurba_marseille","lat":43.3141,"lon":5.36706,"is_reserved":false,"is_disabled":false,"rental_uris":{"android":"levelo://app?vid=86c8e1a5-b5c2-42b1-99f8-14e6e2096d9b","ios":"levelo://app?vid=86c8e1a5-b5c2-42b1-99f8-14e6e2096d9b"},"vehicle_type_id":"4","last_reported":1751444119,"current_range_meters":11200,"station_id":"","pricing_plan_id":"cebpf4jnsgd1na2vs0mg"},{"bike_id":"532dd0a0-0c3a-4bce-9438-648d9e739b03","system_id":"levelo_inurba_marseille","lat":43.291,"lon":5.3816,"is_reserved":false,"is_disabled":false,"rental_uris":{"android":"levelo://app?vid=532dd0a0-0c3a-4bce-9438-648d9e739b03","ios":"levelo://app?vid=532dd0a0-0c3a-4bce-9438-648d9e739b03"},"vehicle_type_id":"4","last_reported":1751444119,"current_range_meters":11200,"station_id":"ce4bh512rcd13ifvqe2g","pricing_plan_id":"cebpf4jnsgd1na2vs0mg"},{"bike_id":"e895fd8c-cc0a-4b16-b25f-1442b0afb049","system_id":"levelo_inurba_marseille","lat":43.29154,"lon":5.37148,"is_reserved":false,"is_disabled":false,"rental_uris":{"android":"levelo://app?vid=e895fd8c-cc0a-4b16-b25f-1442b0afb049","ios":"levelo://app?vid=e895fd8c-cc0a-4b16-b25f-1442b0afb049"},"vehicle_type_id":"4","last_reported":1751444119,"current_range_meters":11200,"station_id":"ce4bha92rcd13ifvqeh0","pricing_plan_id":"cebpf4jnsgd1na2vs0mg"},{"bike_id":"2a545bb8-b798-4cb1-94f1-c3bd39583926","system_id":"levelo_inurba_marseille","lat":43.24078,"lon":5.37743,"is_reserved":false,"is_disabled":false,"rental_uris":{"android":"levelo://app?vid=2a545bb8-b798-4cb1-94f1-c3bd39583926","ios":"levelo://app?vid=2a545bb8-b798-4cb1-94f1-c3bd39583926"},"vehicle_type_id":"4","last_reported":1751444119,"current_range_meters":11200,"station_id":"ce4bhnp2rcd13ifvqgvg","pricing_plan_id":"cebpf4jnsgd1na2vs0mg"},{"bike_id":"c3f805b2-adfc-43b0-912a-f548f4a26919","system_id":"levelo_inurba_marseille","lat":43.23196,"lon":5.35549,"is_reserved":false,"is_disabled":false,"rental_uris":{"android":"levelo://app?vid=c3f805b2-adfc-43b0-912a-f548f4a26919","ios":"levelo://app?vid=c3f805b2-adfc-43b0-912a-f548f4a26919"},"vehicle_type_id":"4","last_reported":1751444119,"current_range_meters":11200,"station_id":"ce4bhu92rcd13ifvqi70","pricing_plan_id":"cebpf4jnsgd1na2vs0mg"},{"bike_id":"5a60d481-2dbc-4ab0-bd9f-59a533563583","system_id":"levelo_inurba_marseille","lat":43.30313,"lon":5.36883,"is_reserved":false,"is_disabled":false,"rental_uris":{"android":"levelo://app?vid=5a60d481-2dbc-4ab0-bd9f-59a533563583","ios":"levelo://app?vid=5a60d481-2dbc-4ab0-bd9f-59a533563583"},"vehicle_type_id":"4","last_reported":1751444119,"current_range_meters":11600,"station_id":"ce4bgqh2rcd13ifvqc5g","pricing_plan_id":"cebpf4jnsgd1na2vs0mg"},{"bike_id":"787f40b1-0d42-445e-9952-38e165cf513d","system_id":"levelo_inurba_marseille","lat":43.24802,"lon":5.37453,"is_reserved":false,"is_disabled":false,"rental_uris":{"android":"levelo://app?vid=787f40b1-0d42-445e-9952-38e165cf513d","ios":"levelo://app?vid=787f40b1-0d42-445e-9952-38e165cf513d"},"vehicle_type_id":"4","last_reported":1751444119,"current_range_meters":11600,"station_id":"ce4bhgh2rcd13ifvqfb0","pricing_plan_id":"cebpf4jnsgd1na2vs0mg"},{"bike_id":"6335e18e-9829-4571-82f7-23b6ce10fe5e","system_id":"levelo_inurba_marseille","lat":43.24165,"lon":5.3639,"is_reserved":false,"is_disabled":false,"rental_uris":{"android":"levelo://app?vid=6335e18e-9829-4571-82f7-23b6ce10fe5e","ios":"levelo://app?vid=6335e18e-9829-4571-82f7-23b6ce10fe5e"},"vehicle_type_id":"4","last_reported":1751444119,"current_range_meters":11600,"station_id":"cpo36qri1sfpv3e86is0","pricing_plan_id":"cebpf4jnsgd1na2vs0mg"},{"bike_id":"86fa6ce7-8cbe-47ff-b5d3-c2b4938fd05c","system_id":"levelo_inurba_marseille","lat":43.212029,"lon":5.350577,"is_reserved":false,"is_disabled":false,"rental_uris":{"android":"levelo://app?vid=86fa6ce7-8cbe-47ff-b5d3-c2b4938fd05c","ios":"levelo://app?vid=86fa6ce7-8cbe-47ff-b5d3-c2b4938fd05c"},"vehicle_type_id":"4","last_reported":1751444119,"current_range_meters":11600,"station_id":"st_cvj6sg6p6f1abm77japg","pricing_plan_id":"cebpf4jnsgd1na2vs0mg"},{"bike_id":"f89fd505-f59b-4dab-b60c-b2ea567d8b9b","system_id":"levelo_inurba_marseille","lat":43.29917,"lon":5.37477,"is_reserved":false,"is_disabled":false,"rental_uris":{"android":"levelo://app?vid=f89fd505-f59b-4dab-b60c-b2ea567d8b9b","ios":"levelo://app?vid=f89fd505-f59b-4dab-b60c-b2ea567d8b9b"},"vehicle_type_id":"4","last_reported":1751444119,"current_range_meters":12000,"station_id":"ce4bgjh2rcd13ifvqbg0","pricing_plan_id":"cebpf4jnsgd1na2vs0mg"},{"bike_id":"a820e15a-282e-4858-8312-0300c2fa011c","system_id":"levelo_inurba_marseille","lat":43.29596,"lon":5.38096,"is_reserved":false,"is_disabled":false,"rental_uris":{"android":"levelo://app?vid=a820e15a-282e-4858-8312-0300c2fa011c","ios":"levelo://app?vid=a820e15a-282e-4858-8312-0300c2fa011c"},"vehicle_type_id":"4","last_reported":1751444119,"current_range_meters":12000,"station_id":"ce4bgl12rcd13ifvqbo0","pricing_plan_id":"cebpf4jnsgd1na2vs0mg"},{"bike_id":"617abdb6-0a3b-41f0-8138-2b6bd92183fe","system_id":"levelo_inurba_marseille","lat":43.25929,"lon":5.40905,"is_reserved":false,"is_disabled":false,"rental_uris":{"android":"levelo://app?vid=617abdb6-0a3b-41f0-8138-2b6bd92183fe","ios":"levelo://app?vid=617abdb6-0a3b-41f0-8138-2b6bd92183fe"},"vehicle_type_id":"4","last_reported":1751444119,"current_range_meters":12000,"station_id":"ce4bhm92rcd13ifvqglg","pricing_plan_id":"cebpf4jnsgd1na2vs0mg"},{"bike_id":"5ea1dd93-3c49-4f8f-bb7f-00d3c982b0ae","system_id":"levelo_inurba_marseille","lat":43.229302,"lon":5.353673,"is_reserved":false,"is_disabled":false,"rental_uris":{"android":"levelo://app?vid=5ea1dd93-3c49-4f8f-bb7f-00d3c982b0ae","ios":"levelo://app?vid=5ea1dd93-3c49-4f8f-bb7f-00d3c982b0ae"},"vehicle_type_id":"4","last_reported":1751444119,"current_range_meters":12000,"station_id":"cpo3532slgdg3j2ikp40","pricing_plan_id":"cebpf4jnsgd1na2vs0mg"},{"bike_id":"282852d0-af67-46a4-a478-b04fb0fa04a4","system_id":"levelo_inurba_marseille","lat":43.31387,"lon":5.36745,"is_reserved":false,"is_disabled":false,"rental_uris":{"android":"levelo://app?vid=282852d0-af67-46a4-a478-b04fb0fa04a4","ios":"levelo://app?vid=282852d0-af67-46a4-a478-b04fb0fa04a4"},"vehicle_type_id":"4","last_reported":1751444119,"current_range_meters":12400,"station_id":"","pricing_plan_id":"cebpf4jnsgd1na2vs0mg"},{"bike_id":"bf9a42f0-3236-41b2-aead-463e94f79ff6","system_id":"levelo_inurba_marseille","lat":43.232867,"lon":5.354028,"is_reserved":false,"is_disabled":false,"rental_uris":{"android":"levelo://app?vid=bf9a42f0-3236-41b2-aead-463e94f79ff6","ios":"levelo://app?vid=bf9a42f0-3236-41b2-aead-463e94f79ff6"},"vehicle_type_id":"4","last_reported":1751444119,"current_range_meters":12400,"station_id":"","pricing_plan_id":"cebpf4jnsgd1na2vs0mg"},{"bike_id":"569027a7-02b0-4149-af7e-21ec913c321e","system_id":"levelo_inurba_marseille","lat":43.26028,"lon":5.37555,"is_reserved":false,"is_disabled":false,"rental_uris":{"android":"levelo://app?vid=569027a7-02b0-4149-af7e-21ec913c321e","ios":"levelo://app?vid=569027a7-02b0-4149-af7e-21ec913c321e"},"vehicle_type_id":"4","last_reported":1751444119,"current_range_meters":12400,"station_id":"ce4bhgh2rcd13ifvqfa0","pricing_plan_id":"cebpf4jnsgd1na2vs0mg"},{"bike_id":"4bcd58de-55d3-4f1d-9ef8-d5bbc3dc11d2","system_id":"levelo_inurba_marseille","lat":43.255802,"lon":5.382361,"is_reserved":false,"is_disabled":false,"rental_uris":{"android":"levelo://app?vid=4bcd58de-55d3-4f1d-9ef8-d5bbc3dc11d2","ios":"levelo://app?vid=4bcd58de-55d3-4f1d-9ef8-d5bbc3dc11d2"},"vehicle_type_id":"4","last_reported":1751444119,"current_range_meters":12400,"station_id":"ce4bhih2rcd13ifvqfs0","pricing_plan_id":"cebpf4jnsgd1na2vs0mg"},{"bike_id":"fe549a79-0695-42e2-ad2d-47f47f9592b1","system_id":"levelo_inurba_marseille","lat":43.31684,"lon":5.40482,"is_reserved":false,"is_disabled":false,"rental_uris":{"android":"levelo://app?vid=fe549a79-0695-42e2-ad2d-47f47f9592b1","ios":"levelo://app?vid=fe549a79-0695-42e2-ad2d-47f47f9592b1"},"vehicle_type_id":"4","last_reported":1751444119,"current_range_meters":12800,"station_id":"ce4bh012rcd13ifvqd00","pricing_plan_id":"cebpf4jnsgd1na2vs0mg"},{"bike_id":"c176876a-4a9d-4955-8b4b-ef400edf6f01","system_id":"levelo_inurba_marseille","lat":43.27318,"lon":5.39083,"is_reserved":false,"is_disabled":false,"rental_uris":{"android":"levelo://app?vid=c176876a-4a9d-4955-8b4b-ef400edf6f01","ios":"levelo://app?vid=c176876a-4a9d-4955-8b4b-ef400edf6f01"},"vehicle_type_id":"4","last_reported":1751444119,"current_range_meters":12800,"station_id":"ce4bhgp2rcd13ifvqfe0","pricing_plan_id":"cebpf4jnsgd1na2vs0mg"},{"bike_id":"4810f33f-d5e0-4478-89ab-5e50f6676b57","system_id":"levelo_inurba_marseille","lat":43.25727,"lon":5.41095,"is_reserved":false,"is_disabled":false,"rental_uris":{"android":"levelo://app?vid=4810f33f-d5e0-4478-89ab-5e50f6676b57","ios":"levelo://app?vid=4810f33f-d5e0-4478-89ab-5e50f6676b57"},"vehicle_type_id":"4","last_reported":1751444119,"current_range_meters":12800,"station_id":"ce4bhkp2rcd13ifvqgd0","pricing_plan_id":"cebpf4jnsgd1na2vs0mg"},{"bike_id":"b91f0c35-1074-4055-9ea4-8bce700995fc","system_id":"levelo_inurba_marseille","lat":43.25917,"lon":5.40911,"is_reserved":false,"is_disabled":false,"rental_uris":{"android":"levelo://app?vid=b91f0c35-1074-4055-9ea4-8bce700995fc","ios":"levelo://app?vid=b91f0c35-1074-4055-9ea4-8bce700995fc"},"vehicle_type_id":"4","last_reported":1751444119,"current_range_meters":12800,"station_id":"ce4bhm92rcd13ifvqglg","pricing_plan_id":"cebpf4jnsgd1na2vs0mg"},{"bike_id":"d4c73a67-6ae9-4da7-86b1-c540a417377a","system_id":"levelo_inurba_marseille","lat":43.32351,"lon":5.40609,"is_reserved":false,"is_disabled":false,"rental_uris":{"android":"levelo://app?vid=d4c73a67-6ae9-4da7-86b1-c540a417377a","ios":"levelo://app?vid=d4c73a67-6ae9-4da7-86b1-c540a417377a"},"vehicle_type_id":"4","last_reported":1751444119,"current_range_meters":12800,"station_id":"ce4bhq92rcd13ifvqhjg","pricing_plan_id":"cebpf4jnsgd1na2vs0mg"},{"bike_id":"0c1b4f74-5294-4b59-932d-b742ce647d9e","system_id":"levelo_inurba_marseille","lat":43.21191,"lon":5.350759,"is_reserved":false,"is_disabled":false,"rental_uris":{"android":"levelo://app?vid=0c1b4f74-5294-4b59-932d-b742ce647d9e","ios":"levelo://app?vid=0c1b4f74-5294-4b59-932d-b742ce647d9e"},"vehicle_type_id":"4","last_reported":1751444119,"current_range_meters":12800,"station_id":"st_cvj6sg6p6f1abm77japg","pricing_plan_id":"cebpf4jnsgd1na2vs0mg"},{"bike_id":"8a74f5cd-9efa-4362-bea7-a32db4dcc85c","system_id":"levelo_inurba_marseille","lat":43.21193,"lon":5.35074,"is_reserved":false,"is_disabled":false,"rental_uris":{"android":"levelo://app?vid=8a74f5cd-9efa-4362-bea7-a32db4dcc85c","ios":"levelo://app?vid=8a74f5cd-9efa-4362-bea7-a32db4dcc85c"},"vehicle_type_id":"4","last_reported":1751444119,"current_range_meters":12800,"station_id":"st_cvj6sg6p6f1abm77japg","pricing_plan_id":"cebpf4jnsgd1na2vs0mg"},{"bike_id":"7c65c4b3-f4fa-4b54-8076-2af6b2629340","system_id":"levelo_inurba_marseille","lat":43.25934,"lon":5.40912,"is_reserved":false,"is_disabled":false,"rental_uris":{"android":"levelo://app?vid=7c65c4b3-f4fa-4b54-8076-2af6b2629340","ios":"levelo://app?vid=7c65c4b3-f4fa-4b54-8076-2af6b2629340"},"vehicle_type_id":"4","last_reported":1751444119,"current_range_meters":13600,"station_id":"ce4bhm92rcd13ifvqglg","pricing_plan_id":"cebpf4jnsgd1na2vs0mg"},{"bike_id":"c2cc3873-3136-4ba7-984d-6514f2a6bcc2","system_id":"levelo_inurba_marseille","lat":43.26692,"lon":5.3827,"is_reserved":false,"is_disabled":false,"rental_uris":{"android":"levelo://app?vid=c2cc3873-3136-4ba7-984d-6514f2a6bcc2","ios":"levelo://app?vid=c2cc3873-3136-4ba7-984d-6514f2a6bcc2"},"vehicle_type_id":"4","last_reported":1751444119,"current_range_meters":14000,"station_id":"ce4bhg92rcd13ifvqf90","pricing_plan_id":"cebpf4jnsgd1na2vs0mg"},{"bike_id":"77e652d2-27e3-4b7e-8763-af4a4bbd0999","system_id":"levelo_inurba_marseille","lat":43.26204,"lon":5.37445,"is_reserved":false,"is_disabled":false,"rental_uris":{"android":"levelo://app?vid=77e652d2-27e3-4b7e-8763-af4a4bbd0999","ios":"levelo://app?vid=77e652d2-27e3-4b7e-8763-af4a4bbd0999"},"vehicle_type_id":"4","last_reported":1751444119,"current_range_meters":14000,"station_id":"ce4bhgp2rcd13ifvqfc0","pricing_plan_id":"cebpf4jnsgd1na2vs0mg"},{"bike_id":"6bfe02e3-3199-43e6-ac38-ac744da5dbb0","system_id":"levelo_inurba_marseille","lat":43.26934,"lon":5.38912,"is_reserved":false,"is_disabled":false,"rental_uris":{"android":"levelo://app?vid=6bfe02e3-3199-43e6-ac38-ac744da5dbb0","ios":"levelo://app?vid=6bfe02e3-3199-43e6-ac38-ac744da5dbb0"},"vehicle_type_id":"4","last_reported":1751444119,"current_range_meters":14000,"station_id":"ce4bhhh2rcd13ifvqfl0","pricing_plan_id":"cebpf4jnsgd1na2vs0mg"},{"bike_id":"c899bdeb-e8c8-487d-a5a5-00dc09ddabfe","system_id":"levelo_inurba_marseille","lat":43.34141,"lon":5.40905,"is_reserved":false,"is_disabled":false,"rental_uris":{"android":"levelo://app?vid=c899bdeb-e8c8-487d-a5a5-00dc09ddabfe","ios":"levelo://app?vid=c899bdeb-e8c8-487d-a5a5-00dc09ddabfe"},"vehicle_type_id":"4","last_reported":1751444119,"current_range_meters":14000,"station_id":"ce4bhqh2rcd13ifvqhlg","pricing_plan_id":"cebpf4jnsgd1na2vs0mg"},{"bike_id":"ee0317a9-0b3d-4631-9294-b4dddc155611","system_id":"levelo_inurba_marseille","lat":43.32364,"lon":5.36749,"is_reserved":false,"is_disabled":false,"rental_uris":{"android":"levelo://app?vid=ee0317a9-0b3d-4631-9294-b4dddc155611","ios":"levelo://app?vid=ee0317a9-0b3d-4631-9294-b4dddc155611"},"vehicle_type_id":"4","last_reported":1751444119,"current_range_meters":14000,"station_id":"ce4bhsh2rcd13ifvqi2g","pricing_plan_id":"cebpf4jnsgd1na2vs0mg"},{"bike_id":"1667a74f-5d7e-4407-93f3-9df9045700be","system_id":"levelo_inurba_marseille","lat":43.30461,"lon":5.37901,"is_reserved":false,"is_disabled":false,"rental_uris":{"android":"levelo://app?vid=1667a74f-5d7e-4407-93f3-9df9045700be","ios":"levelo://app?vid=1667a74f-5d7e-4407-93f3-9df9045700be"},"vehicle_type_id":"4","last_reported":1751444119,"current_range_meters":14400,"station_id":"ce4bgup2rcd13ifvqcn0","pricing_plan_id":"cebpf4jnsgd1na2vs0mg"},{"bike_id":"6ca4e9a0-f238-4827-ab90-37a874cbe48b","system_id":"levelo_inurba_marseille","lat":43.29231,"lon":5.36076,"is_reserved":false,"is_disabled":false,"rental_uris":{"android":"levelo://app?vid=6ca4e9a0-f238-4827-ab90-37a874cbe48b","ios":"levelo://app?vid=6ca4e9a0-f238-4827-ab90-37a874cbe48b"},"vehicle_type_id":"4","last_reported":1751444119,"current_range_meters":14400,"station_id":"ce4bhbh2rcd13ifvqeqg","pricing_plan_id":"cebpf4jnsgd1na2vs0mg"},{"bike_id":"f00e3044-9bd1-48b5-b342-151af21b34fa","system_id":"levelo_inurba_marseille","lat":43.29978,"lon":5.37392,"is_reserved":false,"is_disabled":false,"rental_uris":{"android":"levelo://app?vid=f00e3044-9bd1-48b5-b342-151af21b34fa","ios":"levelo://app?vid=f00e3044-9bd1-48b5-b342-151af21b34fa"},"vehicle_type_id":"4","last_reported":1751444119,"current_range_meters":14800,"station_id":"","pricing_plan_id":"cebpf4jnsgd1na2vs0mg"},{"bike_id":"90deedad-5729-44ac-95e8-3f24aa141e8f","system_id":"levelo_inurba_marseille","lat":43.30963,"lon":5.39036,"is_reserved":false,"is_disabled":false,"rental_uris":{"android":"levelo://app?vid=90deedad-5729-44ac-95e8-3f24aa141e8f","ios":"levelo://app?vid=90deedad-5729-44ac-95e8-3f24aa141e8f"},"vehicle_type_id":"4","last_reported":1751444119,"current_range_meters":14800,"station_id":"ce4bgup2rcd13ifvqco0","pricing_plan_id":"cebpf4jnsgd1na2vs0mg"},{"bike_id":"2e7b5554-f2d3-487d-aab3-d24c9f5991e0","system_id":"levelo_inurba_marseille","lat":43.24539,"lon":5.39531,"is_reserved":false,"is_disabled":false,"rental_uris":{"android":"levelo://app?vid=2e7b5554-f2d3-487d-aab3-d24c9f5991e0","ios":"levelo://app?vid=2e7b5554-f2d3-487d-aab3-d24c9f5991e0"},"vehicle_type_id":"4","last_reported":1751444119,"current_range_meters":14800,"station_id":"ce4bhlp2rcd13ifvqgjg","pricing_plan_id":"cebpf4jnsgd1na2vs0mg"},{"bike_id":"d0f90c24-dd03-411b-9731-55305f76b7c8","system_id":"levelo_inurba_marseille","lat":43.211911,"lon":5.350722,"is_reserved":false,"is_disabled":false,"rental_uris":{"android":"levelo://app?vid=d0f90c24-dd03-411b-9731-55305f76b7c8","ios":"levelo://app?vid=d0f90c24-dd03-411b-9731-55305f76b7c8"},"vehicle_type_id":"4","last_reported":1751444119,"current_range_meters":14800,"station_id":"st_cvj6sg6p6f1abm77japg","pricing_plan_id":"cebpf4jnsgd1na2vs0mg"},{"bike_id":"8e868cc4-faed-48eb-b836-3b1c261fdddc","system_id":"levelo_inurba_marseille","lat":43.31227,"lon":5.36871,"is_reserved":false,"is_disabled":false,"rental_uris":{"android":"levelo://app?vid=8e868cc4-faed-48eb-b836-3b1c261fdddc","ios":"levelo://app?vid=8e868cc4-faed-48eb-b836-3b1c261fdddc"},"vehicle_type_id":"4","last_reported":1751444119,"current_range_meters":15200,"station_id":"ce4bgl92rcd13ifvqbq0","pricing_plan_id":"cebpf4jnsgd1na2vs0mg"},{"bike_id":"aae75ef1-1caa-41ca-95d6-8bf412c95a0a","system_id":"levelo_inurba_marseille","lat":43.33607,"lon":5.4103,"is_reserved":false,"is_disabled":false,"rental_uris":{"android":"levelo://app?vid=aae75ef1-1caa-41ca-95d6-8bf412c95a0a","ios":"levelo://app?vid=aae75ef1-1caa-41ca-95d6-8bf412c95a0a"},"vehicle_type_id":"4","last_reported":1751444119,"current_range_meters":15200,"station_id":"ce4bhqh2rcd13ifvqhmg","pricing_plan_id":"cebpf4jnsgd1na2vs0mg"},{"bike_id":"dbe6a7d8-6edc-4015-8658-f68eeb46a661","system_id":"levelo_inurba_marseille","lat":43.33571,"lon":5.39871,"is_reserved":false,"is_disabled":false,"rental_uris":{"android":"levelo://app?vid=dbe6a7d8-6edc-4015-8658-f68eeb46a661","ios":"levelo://app?vid=dbe6a7d8-6edc-4015-8658-f68eeb46a661"},"vehicle_type_id":"4","last_reported":1751444119,"current_range_meters":16000,"station_id":"","pricing_plan_id":"cebpf4jnsgd1na2vs0mg"},{"bike_id":"fdcc33b3-b27b-4fd9-90cb-c9421efe9db6","system_id":"levelo_inurba_marseille","lat":43.27834,"lon":5.41403,"is_reserved":false,"is_disabled":false,"rental_uris":{"android":"levelo://app?vid=fdcc33b3-b27b-4fd9-90cb-c9421efe9db6","ios":"levelo://app?vid=fdcc33b3-b27b-4fd9-90cb-c9421efe9db6"},"vehicle_type_id":"4","last_reported":1751444119,"current_range_meters":16000,"station_id":"","pricing_plan_id":"cebpf4jnsgd1na2vs0mg"},{"bike_id":"b6530d49-bdd1-4077-9dd5-293328581a17","system_id":"levelo_inurba_marseille","lat":43.28265,"lon":5.35058,"is_reserved":false,"is_disabled":false,"rental_uris":{"android":"levelo://app?vid=b6530d49-bdd1-4077-9dd5-293328581a17","ios":"levelo://app?vid=b6530d49-bdd1-4077-9dd5-293328581a17"},"vehicle_type_id":"4","last_reported":1751444119,"current_range_meters":16000,"station_id":"ce4bhbp2rcd13ifvqerg","pricing_plan_id":"cebpf4jnsgd1na2vs0mg"},{"bike_id":"4fd602b9-b9fc-471c-b938-5990c9f13902","system_id":"levelo_inurba_marseille","lat":43.323683,"lon":5.388821,"is_reserved":false,"is_disabled":false,"rental_uris":{"android":"levelo://app?vid=4fd602b9-b9fc-471c-b938-5990c9f13902","ios":"levelo://app?vid=4fd602b9-b9fc-471c-b938-5990c9f13902"},"vehicle_type_id":"4","last_reported":1751444119,"current_range_meters":16000,"station_id":"ce4bhqp2rcd13ifvqhog","pricing_plan_id":"cebpf4jnsgd1na2vs0mg"},{"bike_id":"cfc0aa67-590a-4038-b894-cb7b8f074cc7","system_id":"levelo_inurba_marseille","lat":43.217597,"lon":5.345963,"is_reserved":false,"is_disabled":false,"rental_uris":{"android":"levelo://app?vid=cfc0aa67-590a-4038-b894-cb7b8f074cc7","ios":"levelo://app?vid=cfc0aa67-590a-4038-b894-cb7b8f074cc7"},"vehicle_type_id":"4","last_reported":1751444119,"current_range_meters":16000,"station_id":"st_cvj6r9ubvosntc0bgbag","pricing_plan_id":"cebpf4jnsgd1na2vs0mg"},{"bike_id":"7e62b058-a7ed-4634-80f1-04d3de596de7","system_id":"levelo_inurba_marseille","lat":43.298478,"lon":5.368086,"is_reserved":false,"is_disabled":false,"rental_uris":{"android":"levelo://app?vid=7e62b058-a7ed-4634-80f1-04d3de596de7","ios":"levelo://app?vid=7e62b058-a7ed-4634-80f1-04d3de596de7"},"vehicle_type_id":"4","last_reported":1751444119,"current_range_meters":16400,"station_id":"","pricing_plan_id":"cebpf4jnsgd1na2vs0mg"},{"bike_id":"257e4546-e2f3-4ef4-aaa8-b10cc16d9c21","system_id":"levelo_inurba_marseille","lat":43.30132,"lon":5.38775,"is_reserved":false,"is_disabled":false,"rental_uris":{"android":"levelo://app?vid=257e4546-e2f3-4ef4-aaa8-b10cc16d9c21","ios":"levelo://app?vid=257e4546-e2f3-4ef4-aaa8-b10cc16d9c21"},"vehicle_type_id":"4","last_reported":1751444119,"current_range_meters":16400,"station_id":"ce4bghh2rcd13ifvqb60","pricing_plan_id":"cebpf4jnsgd1na2vs0mg"},{"bike_id":"1c450dea-ee23-4edd-9938-762b07be9340","system_id":"levelo_inurba_marseille","lat":43.26501,"lon":5.39537,"is_reserved":false,"is_disabled":false,"rental_uris":{"android":"levelo://app?vid=1c450dea-ee23-4edd-9938-762b07be9340","ios":"levelo://app?vid=1c450dea-ee23-4edd-9938-762b07be9340"},"vehicle_type_id":"4","last_reported":1751444119,"current_range_meters":16400,"station_id":"ce4bhi12rcd13ifvqfq0","pricing_plan_id":"cebpf4jnsgd1na2vs0mg"},{"bike_id":"d68dacc3-2ebb-4596-94df-9035662fd853","system_id":"levelo_inurba_marseille","lat":43.25721,"lon":5.41107,"is_reserved":false,"is_disabled":false,"rental_uris":{"android":"levelo://app?vid=d68dacc3-2ebb-4596-94df-9035662fd853","ios":"levelo://app?vid=d68dacc3-2ebb-4596-94df-9035662fd853"},"vehicle_type_id":"4","last_reported":1751444119,"current_range_meters":16400,"station_id":"ce4bhkp2rcd13ifvqgd0","pricing_plan_id":"cebpf4jnsgd1na2vs0mg"},{"bike_id":"8433bf94-a287-463f-bc6d-4c8bc510dc0a","system_id":"levelo_inurba_marseille","lat":43.299173,"lon":5.37467,"is_reserved":false,"is_disabled":false,"rental_uris":{"android":"levelo://app?vid=8433bf94-a287-463f-bc6d-4c8bc510dc0a","ios":"levelo://app?vid=8433bf94-a287-463f-bc6d-4c8bc510dc0a"},"vehicle_type_id":"4","last_reported":1751444119,"current_range_meters":16800,"station_id":"ce4bgjh2rcd13ifvqbg0","pricing_plan_id":"cebpf4jnsgd1na2vs0mg"},{"bike_id":"c2f01fb1-132d-45a4-a7bc-c28f7a300f91","system_id":"levelo_inurba_marseille","lat":43.28452,"lon":5.34989,"is_reserved":false,"is_disabled":false,"rental_uris":{"android":"levelo://app?vid=c2f01fb1-132d-45a4-a7bc-c28f7a300f91","ios":"levelo://app?vid=c2f01fb1-132d-45a4-a7bc-c28f7a300f91"},"vehicle_type_id":"4","last_reported":1751444119,"current_range_meters":16800,"station_id":"ce4bhbh2rcd13ifvqepg","pricing_plan_id":"cebpf4jnsgd1na2vs0mg"},{"bike_id":"1d6e7452-a4be-4fd0-a8f3-ece6fa1059a6","system_id":"levelo_inurba_marseille","lat":43.26684,"lon":5.3827,"is_reserved":false,"is_disabled":false,"rental_uris":{"android":"levelo://app?vid=1d6e7452-a4be-4fd0-a8f3-ece6fa1059a6","ios":"levelo://app?vid=1d6e7452-a4be-4fd0-a8f3-ece6fa1059a6"},"vehicle_type_id":"4","last_reported":1751444119,"current_range_meters":16800,"station_id":"ce4bhg92rcd13ifvqf90","pricing_plan_id":"cebpf4jnsgd1na2vs0mg"},{"bike_id":"4904f86e-36bc-461c-972b-8fa19fa5c329","system_id":"levelo_inurba_marseille","lat":43.25728,"lon":5.41106,"is_reserved":false,"is_disabled":false,"rental_uris":{"android":"levelo://app?vid=4904f86e-36bc-461c-972b-8fa19fa5c329","ios":"levelo://app?vid=4904f86e-36bc-461c-972b-8fa19fa5c329"},"vehicle_type_id":"4","last_reported":1751444119,"current_range_meters":16800,"station_id":"ce4bhkp2rcd13ifvqgd0","pricing_plan_id":"cebpf4jnsgd1na2vs0mg"},{"bike_id":"b696af2c-41b3-423f-a4b0-447ccba26af2","system_id":"levelo_inurba_marseille","lat":43.24175,"lon":5.39719,"is_reserved":false,"is_disabled":false,"rental_uris":{"android":"levelo://app?vid=b696af2c-41b3-423f-a4b0-447ccba26af2","ios":"levelo://app?vid=b696af2c-41b3-423f-a4b0-447ccba26af2"},"vehicle_type_id":"4","last_reported":1751444119,"current_range_meters":16800,"station_id":"ce4bhn12rcd13ifvqgpg","pricing_plan_id":"cebpf4jnsgd1na2vs0mg"},{"bike_id":"7440a83d-d2eb-4aec-843d-e9a2bc12e9e7","system_id":"levelo_inurba_marseille","lat":43.24182,"lon":5.39721,"is_reserved":false,"is_disabled":false,"rental_uris":{"android":"levelo://app?vid=7440a83d-d2eb-4aec-843d-e9a2bc12e9e7","ios":"levelo://app?vid=7440a83d-d2eb-4aec-843d-e9a2bc12e9e7"},"vehicle_type_id":"4","last_reported":1751444119,"current_range_meters":16800,"station_id":"ce4bhn12rcd13ifvqgpg","pricing_plan_id":"cebpf4jnsgd1na2vs0mg"},{"bike_id":"b012d461-6d4d-496c-9187-d0151883ac2d","system_id":"levelo_inurba_marseille","lat":43.24191,"lon":5.39683,"is_reserved":false,"is_disabled":false,"rental_uris":{"android":"levelo://app?vid=b012d461-6d4d-496c-9187-d0151883ac2d","ios":"levelo://app?vid=b012d461-6d4d-496c-9187-d0151883ac2d"},"vehicle_type_id":"4","last_reported":1751444119,"current_range_meters":16800,"station_id":"ce4bhn12rcd13ifvqgpg","pricing_plan_id":"cebpf4jnsgd1na2vs0mg"},{"bike_id":"fcbc011c-6e76-43d0-b794-85c54e6bf231","system_id":"levelo_inurba_marseille","lat":43.24181,"lon":5.39733,"is_reserved":false,"is_disabled":false,"rental_uris":{"android":"levelo://app?vid=fcbc011c-6e76-43d0-b794-85c54e6bf231","ios":"levelo://app?vid=fcbc011c-6e76-43d0-b794-85c54e6bf231"},"vehicle_type_id":"4","last_reported":1751444119,"current_range_meters":16800,"station_id":"ce4bhn12rcd13ifvqgpg","pricing_plan_id":"cebpf4jnsgd1na2vs0mg"},{"bike_id":"16a8afe6-e43e-4d1b-a7bd-ed83d113735a","system_id":"levelo_inurba_marseille","lat":43.32436,"lon":5.41185,"is_reserved":false,"is_disabled":false,"rental_uris":{"android":"levelo://app?vid=16a8afe6-e43e-4d1b-a7bd-ed83d113735a","ios":"levelo://app?vid=16a8afe6-e43e-4d1b-a7bd-ed83d113735a"},"vehicle_type_id":"4","last_reported":1751444119,"current_range_meters":17200,"station_id":"","pricing_plan_id":"cebpf4jnsgd1na2vs0mg"},{"bike_id":"ef9699b6-98c4-4ae4-9b01-e94529b048c1","system_id":"levelo_inurba_marseille","lat":43.30965,"lon":5.39034,"is_reserved":false,"is_disabled":false,"rental_uris":{"android":"levelo://app?vid=ef9699b6-98c4-4ae4-9b01-e94529b048c1","ios":"levelo://app?vid=ef9699b6-98c4-4ae4-9b01-e94529b048c1"},"vehicle_type_id":"4","last_reported":1751444119,"current_range_meters":17200,"station_id":"ce4bgup2rcd13ifvqco0","pricing_plan_id":"cebpf4jnsgd1na2vs0mg"},{"bike_id":"0e030323-4386-4e72-9a0d-0f6a2ff539de","system_id":"levelo_inurba_marseille","lat":43.29621,"lon":5.40546,"is_reserved":false,"is_disabled":false,"rental_uris":{"android":"levelo://app?vid=0e030323-4386-4e72-9a0d-0f6a2ff539de","ios":"levelo://app?vid=0e030323-4386-4e72-9a0d-0f6a2ff539de"},"vehicle_type_id":"4","last_reported":1751444119,"current_range_meters":17200,"station_id":"ce4bh0h2rcd13ifvqd60","pricing_plan_id":"cebpf4jnsgd1na2vs0mg"},{"bike_id":"110be0f7-19b6-4419-935c-8afdb1f29359","system_id":"levelo_inurba_marseille","lat":43.21212,"lon":5.35086,"is_reserved":false,"is_disabled":false,"rental_uris":{"android":"levelo://app?vid=110be0f7-19b6-4419-935c-8afdb1f29359","ios":"levelo://app?vid=110be0f7-19b6-4419-935c-8afdb1f29359"},"vehicle_type_id":"4","last_reported":1751444119,"current_range_meters":17200,"station_id":"st_cvj6sg6p6f1abm77japg","pricing_plan_id":"cebpf4jnsgd1na2vs0mg"},{"bike_id":"bcfd0eda-b9ab-4bec-9ca3-3f2b86617415","system_id":"levelo_inurba_marseille","lat":43.21183,"lon":5.35072,"is_reserved":false,"is_disabled":false,"rental_uris":{"android":"levelo://app?vid=bcfd0eda-b9ab-4bec-9ca3-3f2b86617415","ios":"levelo://app?vid=bcfd0eda-b9ab-4bec-9ca3-3f2b86617415"},"vehicle_type_id":"4","last_reported":1751444119,"current_range_meters":17200,"station_id":"st_cvj6sg6p6f1abm77japg","pricing_plan_id":"cebpf4jnsgd1na2vs0mg"},{"bike_id":"959e6f20-8ed0-4d36-bc1d-3efb82d6190b","system_id":"levelo_inurba_marseille","lat":43.21201,"lon":5.35069,"is_reserved":false,"is_disabled":false,"rental_uris":{"android":"levelo://app?vid=959e6f20-8ed0-4d36-bc1d-3efb82d6190b","ios":"levelo://app?vid=959e6f20-8ed0-4d36-bc1d-3efb82d6190b"},"vehicle_type_id":"4","last_reported":1751444119,"current_range_meters":17200,"station_id":"st_cvj6sg6p6f1abm77japg","pricing_plan_id":"cebpf4jnsgd1na2vs0mg"},{"bike_id":"a0cef316-ad95-4855-8f78-a31341a2b90e","system_id":"levelo_inurba_marseille","lat":43.31281,"lon":5.37753,"is_reserved":false,"is_disabled":false,"rental_uris":{"android":"levelo://app?vid=a0cef316-ad95-4855-8f78-a31341a2b90e","ios":"levelo://app?vid=a0cef316-ad95-4855-8f78-a31341a2b90e"},"vehicle_type_id":"4","last_reported":1751444119,"current_range_meters":17600,"station_id":"","pricing_plan_id":"cebpf4jnsgd1na2vs0mg"},{"bike_id":"c2ff02d1-7cd4-474e-a334-256f6b973591","system_id":"levelo_inurba_marseille","lat":43.29,"lon":5.35606,"is_reserved":false,"is_disabled":false,"rental_uris":{"android":"levelo://app?vid=c2ff02d1-7cd4-474e-a334-256f6b973591","ios":"levelo://app?vid=c2ff02d1-7cd4-474e-a334-256f6b973591"},"vehicle_type_id":"4","last_reported":1751444119,"current_range_meters":17600,"station_id":"ce4bhb92rcd13ifvqen0","pricing_plan_id":"cebpf4jnsgd1na2vs0mg"},{"bike_id":"09a94feb-8911-4d3d-9f22-a7f611710ea1","system_id":"levelo_inurba_marseille","lat":43.211899,"lon":5.350736,"is_reserved":false,"is_disabled":false,"rental_uris":{"android":"levelo://app?vid=09a94feb-8911-4d3d-9f22-a7f611710ea1","ios":"levelo://app?vid=09a94feb-8911-4d3d-9f22-a7f611710ea1"},"vehicle_type_id":"4","last_reported":1751444119,"current_range_meters":17600,"station_id":"st_cvj6sg6p6f1abm77japg","pricing_plan_id":"cebpf4jnsgd1na2vs0mg"},{"bike_id":"ac7a218b-78ac-4d6d-bad8-8d4964286243","system_id":"levelo_inurba_marseille","lat":43.31422,"lon":5.36658,"is_reserved":false,"is_disabled":false,"rental_uris":{"android":"levelo://app?vid=ac7a218b-78ac-4d6d-bad8-8d4964286243","ios":"levelo://app?vid=ac7a218b-78ac-4d6d-bad8-8d4964286243"},"vehicle_type_id":"4","last_reported":1751444119,"current_range_meters":18000,"station_id":"","pricing_plan_id":"cebpf4jnsgd1na2vs0mg"},{"bike_id":"4548c4c7-6772-4dc8-ab50-15000725b517","system_id":"levelo_inurba_marseille","lat":43.30136,"lon":5.37424,"is_reserved":false,"is_disabled":false,"rental_uris":{"android":"levelo://app?vid=4548c4c7-6772-4dc8-ab50-15000725b517","ios":"levelo://app?vid=4548c4c7-6772-4dc8-ab50-15000725b517"},"vehicle_type_id":"4","last_reported":1751444119,"current_range_meters":18000,"station_id":"ce4bgs92rcd13ifvqcc0","pricing_plan_id":"cebpf4jnsgd1na2vs0mg"},{"bike_id":"1459db28-f784-4bd4-aae8-61799288bd8e","system_id":"levelo_inurba_marseille","lat":43.31693,"lon":5.40464,"is_reserved":false,"is_disabled":false,"rental_uris":{"android":"levelo://app?vid=1459db28-f784-4bd4-aae8-61799288bd8e","ios":"levelo://app?vid=1459db28-f784-4bd4-aae8-61799288bd8e"},"vehicle_type_id":"4","last_reported":1751444119,"current_range_meters":18000,"station_id":"ce4bh012rcd13ifvqd00","pricing_plan_id":"cebpf4jnsgd1na2vs0mg"},{"bike_id":"8bf0d992-d2a0-428e-940a-091ee9b7c2a4","system_id":"levelo_inurba_marseille","lat":43.21193,"lon":5.35072,"is_reserved":false,"is_disabled":false,"rental_uris":{"android":"levelo://app?vid=8bf0d992-d2a0-428e-940a-091ee9b7c2a4","ios":"levelo://app?vid=8bf0d992-d2a0-428e-940a-091ee9b7c2a4"},"vehicle_type_id":"4","last_reported":1751444119,"current_range_meters":18000,"station_id":"st_cvj6sg6p6f1abm77japg","pricing_plan_id":"cebpf4jnsgd1na2vs0mg"},{"bike_id":"c10a4283-320d-4e64-8d75-ff83e94026ba","system_id":"levelo_inurba_marseille","lat":43.21228,"lon":5.35048,"is_reserved":false,"is_disabled":false,"rental_uris":{"android":"levelo://app?vid=c10a4283-320d-4e64-8d75-ff83e94026ba","ios":"levelo://app?vid=c10a4283-320d-4e64-8d75-ff83e94026ba"},"vehicle_type_id":"4","last_reported":1751444119,"current_range_meters":18800,"station_id":"","pricing_plan_id":"cebpf4jnsgd1na2vs0mg"},{"bike_id":"ec136466-41c1-4167-b09c-796f32880620","system_id":"levelo_inurba_marseille","lat":43.30535,"lon":5.36702,"is_reserved":false,"is_disabled":false,"rental_uris":{"android":"levelo://app?vid=ec136466-41c1-4167-b09c-796f32880620","ios":"levelo://app?vid=ec136466-41c1-4167-b09c-796f32880620"},"vehicle_type_id":"4","last_reported":1751444119,"current_range_meters":18800,"station_id":"ce4bgrp2rcd13ifvqc9g","pricing_plan_id":"cebpf4jnsgd1na2vs0mg"},{"bike_id":"145aa8bf-de65-4236-b017-63c83f1e3931","system_id":"levelo_inurba_marseille","lat":43.30944,"lon":5.39024,"is_reserved":false,"is_disabled":false,"rental_uris":{"android":"levelo://app?vid=145aa8bf-de65-4236-b017-63c83f1e3931","ios":"levelo://app?vid=145aa8bf-de65-4236-b017-63c83f1e3931"},"vehicle_type_id":"4","last_reported":1751444119,"current_range_meters":18800,"station_id":"ce4bgup2rcd13ifvqco0","pricing_plan_id":"cebpf4jnsgd1na2vs0mg"},{"bike_id":"c37ea1d2-e116-4a5e-b3db-a06cc699c41d","system_id":"levelo_inurba_marseille","lat":43.3096,"lon":5.39043,"is_reserved":false,"is_disabled":false,"rental_uris":{"android":"levelo://app?vid=c37ea1d2-e116-4a5e-b3db-a06cc699c41d","ios":"levelo://app?vid=c37ea1d2-e116-4a5e-b3db-a06cc699c41d"},"vehicle_type_id":"4","last_reported":1751444119,"current_range_meters":18800,"station_id":"ce4bgup2rcd13ifvqco0","pricing_plan_id":"cebpf4jnsgd1na2vs0mg"},{"bike_id":"40dca022-4b5e-4fc0-b087-b5b80c1d2556","system_id":"levelo_inurba_marseille","lat":43.29227,"lon":5.36056,"is_reserved":false,"is_disabled":false,"rental_uris":{"android":"levelo://app?vid=40dca022-4b5e-4fc0-b087-b5b80c1d2556","ios":"levelo://app?vid=40dca022-4b5e-4fc0-b087-b5b80c1d2556"},"vehicle_type_id":"4","last_reported":1751444119,"current_range_meters":18800,"station_id":"ce4bhbh2rcd13ifvqeqg","pricing_plan_id":"cebpf4jnsgd1na2vs0mg"},{"bike_id":"6d2da863-a742-45db-855b-55a94467cfa4","system_id":"levelo_inurba_marseille","lat":43.325979,"lon":5.427374,"is_reserved":false,"is_disabled":false,"rental_uris":{"android":"levelo://app?vid=6d2da863-a742-45db-855b-55a94467cfa4","ios":"levelo://app?vid=6d2da863-a742-45db-855b-55a94467cfa4"},"vehicle_type_id":"4","last_reported":1751444119,"current_range_meters":19200,"station_id":"","pricing_plan_id":"cebpf4jnsgd1na2vs0mg"},{"bike_id":"8c9371b2-692d-48da-b841-7893055c2b2f","system_id":"levelo_inurba_marseille","lat":43.3059,"lon":5.36591,"is_reserved":false,"is_disabled":false,"rental_uris":{"android":"levelo://app?vid=8c9371b2-692d-48da-b841-7893055c2b2f","ios":"levelo://app?vid=8c9371b2-692d-48da-b841-7893055c2b2f"},"vehicle_type_id":"4","last_reported":1751444119,"current_range_meters":19200,"station_id":"ce4bgs12rcd13ifvqcag","pricing_plan_id":"cebpf4jnsgd1na2vs0mg"},{"bike_id":"0b52d53f-0bd6-47f1-b5e3-7fc98dc501bd","system_id":"levelo_inurba_marseille","lat":43.30551,"lon":5.36558,"is_reserved":false,"is_disabled":false,"rental_uris":{"android":"levelo://app?vid=0b52d53f-0bd6-47f1-b5e3-7fc98dc501bd","ios":"levelo://app?vid=0b52d53f-0bd6-47f1-b5e3-7fc98dc501bd"},"vehicle_type_id":"4","last_reported":1751444119,"current_range_meters":19200,"station_id":"ce4bgs12rcd13ifvqcag","pricing_plan_id":"cebpf4jnsgd1na2vs0mg"},{"bike_id":"2e3c8cb6-bd23-4aa3-a7ca-2222dbf2c37e","system_id":"levelo_inurba_marseille","lat":43.30244,"lon":5.40066,"is_reserved":false,"is_disabled":false,"rental_uris":{"android":"levelo://app?vid=2e3c8cb6-bd23-4aa3-a7ca-2222dbf2c37e","ios":"levelo://app?vid=2e3c8cb6-bd23-4aa3-a7ca-2222dbf2c37e"},"vehicle_type_id":"4","last_reported":1751444119,"current_range_meters":19200,"station_id":"ce4bgvh2rcd13ifvqcs0","pricing_plan_id":"cebpf4jnsgd1na2vs0mg"},{"bike_id":"69438241-1522-428e-a938-b52649d2675f","system_id":"levelo_inurba_marseille","lat":43.27308,"lon":5.39082,"is_reserved":false,"is_disabled":false,"rental_uris":{"android":"levelo://app?vid=69438241-1522-428e-a938-b52649d2675f","ios":"levelo://app?vid=69438241-1522-428e-a938-b52649d2675f"},"vehicle_type_id":"4","last_reported":1751444119,"current_range_meters":19200,"station_id":"ce4bhgp2rcd13ifvqfe0","pricing_plan_id":"cebpf4jnsgd1na2vs0mg"},{"bike_id":"d393009a-4549-46b8-9394-75871ff606d4","system_id":"levelo_inurba_marseille","lat":43.32354,"lon":5.36745,"is_reserved":false,"is_disabled":false,"rental_uris":{"android":"levelo://app?vid=d393009a-4549-46b8-9394-75871ff606d4","ios":"levelo://app?vid=d393009a-4549-46b8-9394-75871ff606d4"},"vehicle_type_id":"4","last_reported":1751444119,"current_range_meters":19200,"station_id":"ce4bhsh2rcd13ifvqi2g","pricing_plan_id":"cebpf4jnsgd1na2vs0mg"},{"bike_id":"78811adb-f50c-4bb7-82e3-1b69d586dfc1","system_id":"levelo_inurba_marseille","lat":43.293111,"lon":5.374691,"is_reserved":false,"is_disabled":false,"rental_uris":{"android":"levelo://app?vid=78811adb-f50c-4bb7-82e3-1b69d586dfc1","ios":"levelo://app?vid=78811adb-f50c-4bb7-82e3-1b69d586dfc1"},"vehicle_type_id":"4","last_reported":1751444119,"current_range_meters":19600,"station_id":"","pricing_plan_id":"cebpf4jnsgd1na2vs0mg"},{"bike_id":"bf0025eb-fc53-4492-99f0-1745fef4c3f3","system_id":"levelo_inurba_marseille","lat":43.30134,"lon":5.37428,"is_reserved":false,"is_disabled":false,"rental_uris":{"android":"levelo://app?vid=bf0025eb-fc53-4492-99f0-1745fef4c3f3","ios":"levelo://app?vid=bf0025eb-fc53-4492-99f0-1745fef4c3f3"},"vehicle_type_id":"4","last_reported":1751444119,"current_range_meters":19600,"station_id":"ce4bgs92rcd13ifvqcc0","pricing_plan_id":"cebpf4jnsgd1na2vs0mg"},{"bike_id":"c9c30181-4881-48d3-bc17-651a9fa45a9f","system_id":"levelo_inurba_marseille","lat":43.292705,"lon":5.384354,"is_reserved":false,"is_disabled":false,"rental_uris":{"android":"levelo://app?vid=c9c30181-4881-48d3-bc17-651a9fa45a9f","ios":"levelo://app?vid=c9c30181-4881-48d3-bc17-651a9fa45a9f"},"vehicle_type_id":"4","last_reported":1751444119,"current_range_meters":19600,"station_id":"ce4bh692rcd13ifvqea0","pricing_plan_id":"cebpf4jnsgd1na2vs0mg"},{"bike_id":"a5dd1495-37bd-4d52-bdbd-ac33ef851954","system_id":"levelo_inurba_marseille","lat":43.23152,"lon":5.43716,"is_reserved":false,"is_disabled":false,"rental_uris":{"android":"levelo://app?vid=a5dd1495-37bd-4d52-bdbd-ac33ef851954","ios":"levelo://app?vid=a5dd1495-37bd-4d52-bdbd-ac33ef851954"},"vehicle_type_id":"4","last_reported":1751444119,"current_range_meters":19600,"station_id":"ce4bhmp2rcd13ifvqgog","pricing_plan_id":"cebpf4jnsgd1na2vs0mg"},{"bike_id":"ec178f71-d312-4b49-8e26-ecd07a72ecea","system_id":"levelo_inurba_marseille","lat":43.3414,"lon":5.40901,"is_reserved":false,"is_disabled":false,"rental_uris":{"android":"levelo://app?vid=ec178f71-d312-4b49-8e26-ecd07a72ecea","ios":"levelo://app?vid=ec178f71-d312-4b49-8e26-ecd07a72ecea"},"vehicle_type_id":"4","last_reported":1751444119,"current_range_meters":19600,"station_id":"ce4bhqh2rcd13ifvqhlg","pricing_plan_id":"cebpf4jnsgd1na2vs0mg"},{"bike_id":"bfa88f67-5f5b-49db-81cc-e4921c6889b1","system_id":"levelo_inurba_marseille","lat":43.3212,"lon":5.36754,"is_reserved":false,"is_disabled":false,"rental_uris":{"android":"levelo://app?vid=bfa88f67-5f5b-49db-81cc-e4921c6889b1","ios":"levelo://app?vid=bfa88f67-5f5b-49db-81cc-e4921c6889b1"},"vehicle_type_id":"4","last_reported":1751444119,"current_range_meters":19600,"station_id":"ce4bhrh2rcd13ifvqhug","pricing_plan_id":"cebpf4jnsgd1na2vs0mg"},{"bike_id":"0f590c2a-c81e-469d-a7d1-2741de3642a2","system_id":"levelo_inurba_marseille","lat":43.211968,"lon":5.35069,"is_reserved":false,"is_disabled":false,"rental_uris":{"android":"levelo://app?vid=0f590c2a-c81e-469d-a7d1-2741de3642a2","ios":"levelo://app?vid=0f590c2a-c81e-469d-a7d1-2741de3642a2"},"vehicle_type_id":"4","last_reported":1751444119,"current_range_meters":19600,"station_id":"st_cvj6sg6p6f1abm77japg","pricing_plan_id":"cebpf4jnsgd1na2vs0mg"},{"bike_id":"8e6b1b16-9441-4638-85f2-01f0b5b74629","system_id":"levelo_inurba_marseille","lat":43.28035,"lon":5.36943,"is_reserved":false,"is_disabled":false,"rental_uris":{"android":"levelo://app?vid=8e6b1b16-9441-4638-85f2-01f0b5b74629","ios":"levelo://app?vid=8e6b1b16-9441-4638-85f2-01f0b5b74629"},"vehicle_type_id":"4","last_reported":1751444119,"current_range_meters":20000,"station_id":"ce4bha12rcd13ifvqef0","pricing_plan_id":"cebpf4jnsgd1na2vs0mg"},{"bike_id":"f3ec6263-4fe2-4924-acdb-1daa3d7bc2fc","system_id":"levelo_inurba_marseille","lat":43.26682,"lon":5.38268,"is_reserved":false,"is_disabled":false,"rental_uris":{"android":"levelo://app?vid=f3ec6263-4fe2-4924-acdb-1daa3d7bc2fc","ios":"levelo://app?vid=f3ec6263-4fe2-4924-acdb-1daa3d7bc2fc"},"vehicle_type_id":"4","last_reported":1751444119,"current_range_meters":20000,"station_id":"ce4bhg92rcd13ifvqf90","pricing_plan_id":"cebpf4jnsgd1na2vs0mg"},{"bike_id":"6eaa8801-d43b-466e-9513-16a62495cc00","system_id":"levelo_inurba_marseille","lat":43.24175,"lon":5.39737,"is_reserved":false,"is_disabled":false,"rental_uris":{"android":"levelo://app?vid=6eaa8801-d43b-466e-9513-16a62495cc00","ios":"levelo://app?vid=6eaa8801-d43b-466e-9513-16a62495cc00"},"vehicle_type_id":"4","last_reported":1751444119,"current_range_meters":20000,"station_id":"ce4bhn12rcd13ifvqgpg","pricing_plan_id":"cebpf4jnsgd1na2vs0mg"},{"bike_id":"ba6e6b2d-31bf-4249-a44a-b455ed4ef971","system_id":"levelo_inurba_marseille","lat":43.24167,"lon":5.3972,"is_reserved":false,"is_disabled":false,"rental_uris":{"android":"levelo://app?vid=ba6e6b2d-31bf-4249-a44a-b455ed4ef971","ios":"levelo://app?vid=ba6e6b2d-31bf-4249-a44a-b455ed4ef971"},"vehicle_type_id":"4","last_reported":1751444119,"current_range_meters":20000,"station_id":"ce4bhn12rcd13ifvqgpg","pricing_plan_id":"cebpf4jnsgd1na2vs0mg"},{"bike_id":"b7c4f4e7-ddbb-4243-982d-1ca4f75e59a6","system_id":"levelo_inurba_marseille","lat":43.323669,"lon":5.367583,"is_reserved":false,"is_disabled":false,"rental_uris":{"android":"levelo://app?vid=b7c4f4e7-ddbb-4243-982d-1ca4f75e59a6","ios":"levelo://app?vid=b7c4f4e7-ddbb-4243-982d-1ca4f75e59a6"},"vehicle_type_id":"4","last_reported":1751444119,"current_range_meters":20000,"station_id":"ce4bhsh2rcd13ifvqi2g","pricing_plan_id":"cebpf4jnsgd1na2vs0mg"},{"bike_id":"fe84177e-dc24-423c-bc2b-77abf3163fe9","system_id":"levelo_inurba_marseille","lat":43.302202,"lon":5.382326,"is_reserved":false,"is_disabled":false,"rental_uris":{"android":"levelo://app?vid=fe84177e-dc24-423c-bc2b-77abf3163fe9","ios":"levelo://app?vid=fe84177e-dc24-423c-bc2b-77abf3163fe9"},"vehicle_type_id":"4","last_reported":1751444119,"current_range_meters":20400,"station_id":"","pricing_plan_id":"cebpf4jnsgd1na2vs0mg"},{"bike_id":"b2325bea-9a74-459a-a713-509c2ba84f3e","system_id":"levelo_inurba_marseille","lat":43.283184,"lon":5.41289,"is_reserved":false,"is_disabled":false,"rental_uris":{"android":"levelo://app?vid=b2325bea-9a74-459a-a713-509c2ba84f3e","ios":"levelo://app?vid=b2325bea-9a74-459a-a713-509c2ba84f3e"},"vehicle_type_id":"4","last_reported":1751444119,"current_range_meters":20400,"station_id":"","pricing_plan_id":"cebpf4jnsgd1na2vs0mg"},{"bike_id":"c3582640-a2d5-405b-bc4b-f2d3d636f793","system_id":"levelo_inurba_marseille","lat":43.28347,"lon":5.38108,"is_reserved":false,"is_disabled":false,"rental_uris":{"android":"levelo://app?vid=c3582640-a2d5-405b-bc4b-f2d3d636f793","ios":"levelo://app?vid=c3582640-a2d5-405b-bc4b-f2d3d636f793"},"vehicle_type_id":"4","last_reported":1751444119,"current_range_meters":20400,"station_id":"ce4bh412rcd13ifvqdr0","pricing_plan_id":"cebpf4jnsgd1na2vs0mg"},{"bike_id":"9df2c538-ff65-4fc9-b504-87c87f04b757","system_id":"levelo_inurba_marseille","lat":43.3248,"lon":5.36533,"is_reserved":false,"is_disabled":false,"rental_uris":{"android":"levelo://app?vid=9df2c538-ff65-4fc9-b504-87c87f04b757","ios":"levelo://app?vid=9df2c538-ff65-4fc9-b504-87c87f04b757"},"vehicle_type_id":"4","last_reported":1751444119,"current_range_meters":20400,"station_id":"ce4bhs12rcd13ifvqhvg","pricing_plan_id":"cebpf4jnsgd1na2vs0mg"},{"bike_id":"48a8b866-9a64-4b58-8b3a-d988de0d4af0","system_id":"levelo_inurba_marseille","lat":43.24175,"lon":5.36384,"is_reserved":false,"is_disabled":false,"rental_uris":{"android":"levelo://app?vid=48a8b866-9a64-4b58-8b3a-d988de0d4af0","ios":"levelo://app?vid=48a8b866-9a64-4b58-8b3a-d988de0d4af0"},"vehicle_type_id":"4","last_reported":1751444119,"current_range_meters":20400,"station_id":"cpo36qri1sfpv3e86is0","pricing_plan_id":"cebpf4jnsgd1na2vs0mg"},{"bike_id":"515ec3ca-f5c6-46fa-a700-b09851f49068","system_id":"levelo_inurba_marseille","lat":43.21187,"lon":5.35068,"is_reserved":false,"is_disabled":false,"rental_uris":{"android":"levelo://app?vid=515ec3ca-f5c6-46fa-a700-b09851f49068","ios":"levelo://app?vid=515ec3ca-f5c6-46fa-a700-b09851f49068"},"vehicle_type_id":"4","last_reported":1751444119,"current_range_meters":20400,"station_id":"st_cvj6sg6p6f1abm77japg","pricing_plan_id":"cebpf4jnsgd1na2vs0mg"},{"bike_id":"37b84a38-055a-4a6e-a56a-8ff3d0c1b2ec","system_id":"levelo_inurba_marseille","lat":43.21192,"lon":5.3507,"is_reserved":false,"is_disabled":false,"rental_uris":{"android":"levelo://app?vid=37b84a38-055a-4a6e-a56a-8ff3d0c1b2ec","ios":"levelo://app?vid=37b84a38-055a-4a6e-a56a-8ff3d0c1b2ec"},"vehicle_type_id":"4","last_reported":1751444119,"current_range_meters":20400,"station_id":"st_cvj6sg6p6f1abm77japg","pricing_plan_id":"cebpf4jnsgd1na2vs0mg"},{"bike_id":"ab45b811-765d-42ec-8576-450879ffcd53","system_id":"levelo_inurba_marseille","lat":43.29609,"lon":5.37723,"is_reserved":false,"is_disabled":false,"rental_uris":{"android":"levelo://app?vid=ab45b811-765d-42ec-8576-450879ffcd53","ios":"levelo://app?vid=ab45b811-765d-42ec-8576-450879ffcd53"},"vehicle_type_id":"4","last_reported":1751444119,"current_range_meters":20800,"station_id":"ce4bgi92rcd13ifvqb90","pricing_plan_id":"cebpf4jnsgd1na2vs0mg"},{"bike_id":"f3ead9f6-f96b-4d4d-b28a-a7505f819181","system_id":"levelo_inurba_marseille","lat":43.27602,"lon":5.36121,"is_reserved":false,"is_disabled":false,"rental_uris":{"android":"levelo://app?vid=f3ead9f6-f96b-4d4d-b28a-a7505f819181","ios":"levelo://app?vid=f3ead9f6-f96b-4d4d-b28a-a7505f819181"},"vehicle_type_id":"4","last_reported":1751444119,"current_range_meters":20800,"station_id":"ce4bgj92rcd13ifvqbe0","pricing_plan_id":"cebpf4jnsgd1na2vs0mg"},{"bike_id":"79a3aeb2-a2b2-4cad-9b86-ba6ca4824427","system_id":"levelo_inurba_marseille","lat":43.301499,"lon":5.381071,"is_reserved":false,"is_disabled":false,"rental_uris":{"android":"levelo://app?vid=79a3aeb2-a2b2-4cad-9b86-ba6ca4824427","ios":"levelo://app?vid=79a3aeb2-a2b2-4cad-9b86-ba6ca4824427"},"vehicle_type_id":"4","last_reported":1751444119,"current_range_meters":20800,"station_id":"ce4bgjp2rcd13ifvqbh0","pricing_plan_id":"cebpf4jnsgd1na2vs0mg"},{"bike_id":"2c7bb3c6-a47d-4d9a-acbe-a4eb483d1069","system_id":"levelo_inurba_marseille","lat":43.30896,"lon":5.36941,"is_reserved":false,"is_disabled":false,"rental_uris":{"android":"levelo://app?vid=2c7bb3c6-a47d-4d9a-acbe-a4eb483d1069","ios":"levelo://app?vid=2c7bb3c6-a47d-4d9a-acbe-a4eb483d1069"},"vehicle_type_id":"4","last_reported":1751444119,"current_range_meters":20800,"station_id":"ce4bgn92rcd13ifvqbvg","pricing_plan_id":"cebpf4jnsgd1na2vs0mg"},{"bike_id":"0d90bd42-80f6-481f-b1de-91270327c5d3","system_id":"levelo_inurba_marseille","lat":43.31341,"lon":5.36716,"is_reserved":false,"is_disabled":false,"rental_uris":{"android":"levelo://app?vid=0d90bd42-80f6-481f-b1de-91270327c5d3","ios":"levelo://app?vid=0d90bd42-80f6-481f-b1de-91270327c5d3"},"vehicle_type_id":"4","last_reported":1751444119,"current_range_meters":20800,"station_id":"ce4bgr92rcd13ifvqc6g","pricing_plan_id":"cebpf4jnsgd1na2vs0mg"},{"bike_id":"4db1c9ea-af74-412e-ad52-c0a6679cf054","system_id":"levelo_inurba_marseille","lat":43.30081,"lon":5.3907,"is_reserved":false,"is_disabled":false,"rental_uris":{"android":"levelo://app?vid=4db1c9ea-af74-412e-ad52-c0a6679cf054","ios":"levelo://app?vid=4db1c9ea-af74-412e-ad52-c0a6679cf054"},"vehicle_type_id":"4","last_reported":1751444119,"current_range_meters":20800,"station_id":"ce4bh192rcd13ifvqdb0","pricing_plan_id":"cebpf4jnsgd1na2vs0mg"},{"bike_id":"8a78d100-7ed4-41cb-af57-9083977a3c3f","system_id":"levelo_inurba_marseille","lat":43.28414,"lon":5.37505,"is_reserved":false,"is_disabled":false,"rental_uris":{"android":"levelo://app?vid=8a78d100-7ed4-41cb-af57-9083977a3c3f","ios":"levelo://app?vid=8a78d100-7ed4-41cb-af57-9083977a3c3f"},"vehicle_type_id":"4","last_reported":1751444119,"current_range_meters":20800,"station_id":"ce4bh412rcd13ifvqds0","pricing_plan_id":"cebpf4jnsgd1na2vs0mg"},{"bike_id":"f551ebb8-fc08-42af-8076-8dfa81390fa8","system_id":"levelo_inurba_marseille","lat":43.273168,"lon":5.390833,"is_reserved":false,"is_disabled":false,"rental_uris":{"android":"levelo://app?vid=f551ebb8-fc08-42af-8076-8dfa81390fa8","ios":"levelo://app?vid=f551ebb8-fc08-42af-8076-8dfa81390fa8"},"vehicle_type_id":"4","last_reported":1751444119,"current_range_meters":20800,"station_id":"ce4bhgp2rcd13ifvqfe0","pricing_plan_id":"cebpf4jnsgd1na2vs0mg"},{"bike_id":"2d7ab8c9-ccb6-4168-91f8-ffbbd54cc09d","system_id":"levelo_inurba_marseille","lat":43.29746,"lon":5.36981,"is_reserved":false,"is_disabled":false,"rental_uris":{"android":"levelo://app?vid=2d7ab8c9-ccb6-4168-91f8-ffbbd54cc09d","ios":"levelo://app?vid=2d7ab8c9-ccb6-4168-91f8-ffbbd54cc09d"},"vehicle_type_id":"4","last_reported":1751444119,"current_range_meters":21600,"station_id":"","pricing_plan_id":"cebpf4jnsgd1na2vs0mg"},{"bike_id":"e18e94ab-0f57-4709-a8e0-594be1c2822b","system_id":"levelo_inurba_marseille","lat":43.31357,"lon":5.36684,"is_reserved":false,"is_disabled":false,"rental_uris":{"android":"levelo://app?vid=e18e94ab-0f57-4709-a8e0-594be1c2822b","ios":"levelo://app?vid=e18e94ab-0f57-4709-a8e0-594be1c2822b"},"vehicle_type_id":"4","last_reported":1751444119,"current_range_meters":21600,"station_id":"ce4bgr92rcd13ifvqc6g","pricing_plan_id":"cebpf4jnsgd1na2vs0mg"},{"bike_id":"4d4995e7-0bba-4ac2-a238-afd84a5e99b5","system_id":"levelo_inurba_marseille","lat":43.304848,"lon":5.398345,"is_reserved":false,"is_disabled":false,"rental_uris":{"android":"levelo://app?vid=4d4995e7-0bba-4ac2-a238-afd84a5e99b5","ios":"levelo://app?vid=4d4995e7-0bba-4ac2-a238-afd84a5e99b5"},"vehicle_type_id":"4","last_reported":1751444119,"current_range_meters":22000,"station_id":"","pricing_plan_id":"cebpf4jnsgd1na2vs0mg"},{"bike_id":"50bb0fdb-2cc1-4d8d-af26-b7febba54985","system_id":"levelo_inurba_marseille","lat":43.274139,"lon":5.39007,"is_reserved":false,"is_disabled":false,"rental_uris":{"android":"levelo://app?vid=50bb0fdb-2cc1-4d8d-af26-b7febba54985","ios":"levelo://app?vid=50bb0fdb-2cc1-4d8d-af26-b7febba54985"},"vehicle_type_id":"4","last_reported":1751444119,"current_range_meters":22000,"station_id":"","pricing_plan_id":"cebpf4jnsgd1na2vs0mg"},{"bike_id":"aaae32df-99f5-43e3-813f-c870b5943dc8","system_id":"levelo_inurba_marseille","lat":43.30543,"lon":5.36539,"is_reserved":false,"is_disabled":false,"rental_uris":{"android":"levelo://app?vid=aaae32df-99f5-43e3-813f-c870b5943dc8","ios":"levelo://app?vid=aaae32df-99f5-43e3-813f-c870b5943dc8"},"vehicle_type_id":"4","last_reported":1751444119,"current_range_meters":22000,"station_id":"","pricing_plan_id":"cebpf4jnsgd1na2vs0mg"},{"bike_id":"b0496903-e4e2-480d-b2e6-4fcaae2cd474","system_id":"levelo_inurba_marseille","lat":43.31329,"lon":5.3675,"is_reserved":false,"is_disabled":false,"rental_uris":{"android":"levelo://app?vid=b0496903-e4e2-480d-b2e6-4fcaae2cd474","ios":"levelo://app?vid=b0496903-e4e2-480d-b2e6-4fcaae2cd474"},"vehicle_type_id":"4","last_reported":1751444119,"current_range_meters":22000,"station_id":"ce4bgr92rcd13ifvqc6g","pricing_plan_id":"cebpf4jnsgd1na2vs0mg"},{"bike_id":"a121ef21-dbbf-493a-b0ad-e266fa3042d9","system_id":"levelo_inurba_marseille","lat":43.266816,"lon":5.382738,"is_reserved":false,"is_disabled":false,"rental_uris":{"android":"levelo://app?vid=a121ef21-dbbf-493a-b0ad-e266fa3042d9","ios":"levelo://app?vid=a121ef21-dbbf-493a-b0ad-e266fa3042d9"},"vehicle_type_id":"4","last_reported":1751444119,"current_range_meters":22000,"station_id":"ce4bhg92rcd13ifvqf90","pricing_plan_id":"cebpf4jnsgd1na2vs0mg"},{"bike_id":"26e1cd53-ce80-4f26-8f93-18bdcecac2a5","system_id":"levelo_inurba_marseille","lat":43.30536,"lon":5.3649,"is_reserved":false,"is_disabled":false,"rental_uris":{"android":"levelo://app?vid=26e1cd53-ce80-4f26-8f93-18bdcecac2a5","ios":"levelo://app?vid=26e1cd53-ce80-4f26-8f93-18bdcecac2a5"},"vehicle_type_id":"4","last_reported":1751444119,"current_range_meters":22400,"station_id":"","pricing_plan_id":"cebpf4jnsgd1na2vs0mg"},{"bike_id":"140372ce-170c-4317-ae87-1bc90bac5714","system_id":"levelo_inurba_marseille","lat":43.262,"lon":5.37931,"is_reserved":false,"is_disabled":false,"rental_uris":{"android":"levelo://app?vid=140372ce-170c-4317-ae87-1bc90bac5714","ios":"levelo://app?vid=140372ce-170c-4317-ae87-1bc90bac5714"},"vehicle_type_id":"4","last_reported":1751444119,"current_range_meters":22400,"station_id":"ce4bhjp2rcd13ifvqg90","pricing_plan_id":"cebpf4jnsgd1na2vs0mg"},{"bike_id":"f865c311-655f-48fa-8c8b-ae36728850ec","system_id":"levelo_inurba_marseille","lat":43.24199,"lon":5.39699,"is_reserved":false,"is_disabled":false,"rental_uris":{"android":"levelo://app?vid=f865c311-655f-48fa-8c8b-ae36728850ec","ios":"levelo://app?vid=f865c311-655f-48fa-8c8b-ae36728850ec"},"vehicle_type_id":"4","last_reported":1751444119,"current_range_meters":22400,"station_id":"ce4bhn12rcd13ifvqgpg","pricing_plan_id":"cebpf4jnsgd1na2vs0mg"},{"bike_id":"84fe93f6-d5ae-40c7-b760-d82650982324","system_id":"levelo_inurba_marseille","lat":43.21191,"lon":5.35065,"is_reserved":false,"is_disabled":false,"rental_uris":{"android":"levelo://app?vid=84fe93f6-d5ae-40c7-b760-d82650982324","ios":"levelo://app?vid=84fe93f6-d5ae-40c7-b760-d82650982324"},"vehicle_type_id":"4","last_reported":1751444119,"current_range_meters":22400,"station_id":"st_cvj6sg6p6f1abm77japg","pricing_plan_id":"cebpf4jnsgd1na2vs0mg"},{"bike_id":"83b34858-668e-4e70-9b1e-65a23d701724","system_id":"levelo_inurba_marseille","lat":43.29721,"lon":5.37689,"is_reserved":false,"is_disabled":false,"rental_uris":{"android":"levelo://app?vid=83b34858-668e-4e70-9b1e-65a23d701724","ios":"levelo://app?vid=83b34858-668e-4e70-9b1e-65a23d701724"},"vehicle_type_id":"4","last_reported":1751444119,"current_range_meters":22800,"station_id":"ce4bgkh2rcd13ifvqbl0","pricing_plan_id":"cebpf4jnsgd1na2vs0mg"},{"bike_id":"121b3b35-2c7b-41d6-b742-0f70e3108447","system_id":"levelo_inurba_marseille","lat":43.29201,"lon":5.39317,"is_reserved":false,"is_disabled":false,"rental_uris":{"android":"levelo://app?vid=121b3b35-2c7b-41d6-b742-0f70e3108447","ios":"levelo://app?vid=121b3b35-2c7b-41d6-b742-0f70e3108447"},"vehicle_type_id":"4","last_reported":1751444119,"current_range_meters":22800,"station_id":"ce4bh192rcd13ifvqdd0","pricing_plan_id":"cebpf4jnsgd1na2vs0mg"},{"bike_id":"b89fc3f3-19c2-45b9-aece-b587d5f2a68a","system_id":"levelo_inurba_marseille","lat":43.29433,"lon":5.39756,"is_reserved":false,"is_disabled":false,"rental_uris":{"android":"levelo://app?vid=b89fc3f3-19c2-45b9-aece-b587d5f2a68a","ios":"levelo://app?vid=b89fc3f3-19c2-45b9-aece-b587d5f2a68a"},"vehicle_type_id":"4","last_reported":1751444119,"current_range_meters":22800,"station_id":"ce4bh3h2rcd13ifvqdo0","pricing_plan_id":"cebpf4jnsgd1na2vs0mg"},{"bike_id":"64160b3f-5bf6-4e5f-a87b-bf8427c6976c","system_id":"levelo_inurba_marseille","lat":43.29007,"lon":5.35608,"is_reserved":false,"is_disabled":false,"rental_uris":{"android":"levelo://app?vid=64160b3f-5bf6-4e5f-a87b-bf8427c6976c","ios":"levelo://app?vid=64160b3f-5bf6-4e5f-a87b-bf8427c6976c"},"vehicle_type_id":"4","last_reported":1751444119,"current_range_meters":22800,"station_id":"ce4bhb92rcd13ifvqen0","pricing_plan_id":"cebpf4jnsgd1na2vs0mg"},{"bike_id":"06ff0bd2-2ce6-4b38-aec3-c3ad0fb14979","system_id":"levelo_inurba_marseille","lat":43.30529,"lon":5.36722,"is_reserved":false,"is_disabled":false,"rental_uris":{"android":"levelo://app?vid=06ff0bd2-2ce6-4b38-aec3-c3ad0fb14979","ios":"levelo://app?vid=06ff0bd2-2ce6-4b38-aec3-c3ad0fb14979"},"vehicle_type_id":"4","last_reported":1751444119,"current_range_meters":23200,"station_id":"ce4bgrp2rcd13ifvqc9g","pricing_plan_id":"cebpf4jnsgd1na2vs0mg"},{"bike_id":"14dad34d-851b-4a7f-8458-59cd62f580fe","system_id":"levelo_inurba_marseille","lat":43.30961,"lon":5.39048,"is_reserved":false,"is_disabled":false,"rental_uris":{"android":"levelo://app?vid=14dad34d-851b-4a7f-8458-59cd62f580fe","ios":"levelo://app?vid=14dad34d-851b-4a7f-8458-59cd62f580fe"},"vehicle_type_id":"4","last_reported":1751444119,"current_range_meters":23200,"station_id":"ce4bgup2rcd13ifvqco0","pricing_plan_id":"cebpf4jnsgd1na2vs0mg"},{"bike_id":"43e7450e-231c-41c8-8f28-a8d48c49dc55","system_id":"levelo_inurba_marseille","lat":43.30959,"lon":5.39042,"is_reserved":false,"is_disabled":false,"rental_uris":{"android":"levelo://app?vid=43e7450e-231c-41c8-8f28-a8d48c49dc55","ios":"levelo://app?vid=43e7450e-231c-41c8-8f28-a8d48c49dc55"},"vehicle_type_id":"4","last_reported":1751444119,"current_range_meters":23200,"station_id":"ce4bgup2rcd13ifvqco0","pricing_plan_id":"cebpf4jnsgd1na2vs0mg"},{"bike_id":"39aa99e0-f77c-46af-80cf-cdbab04f8441","system_id":"levelo_inurba_marseille","lat":43.29034,"lon":5.37568,"is_reserved":false,"is_disabled":false,"rental_uris":{"android":"levelo://app?vid=39aa99e0-f77c-46af-80cf-cdbab04f8441","ios":"levelo://app?vid=39aa99e0-f77c-46af-80cf-cdbab04f8441"},"vehicle_type_id":"4","last_reported":1751444119,"current_range_meters":23200,"station_id":"ce4bh692rcd13ifvqe90","pricing_plan_id":"cebpf4jnsgd1na2vs0mg"},{"bike_id":"a0480f1d-3573-45b7-8d76-2022e256c551","system_id":"levelo_inurba_marseille","lat":43.25907,"lon":5.40905,"is_reserved":false,"is_disabled":false,"rental_uris":{"android":"levelo://app?vid=a0480f1d-3573-45b7-8d76-2022e256c551","ios":"levelo://app?vid=a0480f1d-3573-45b7-8d76-2022e256c551"},"vehicle_type_id":"4","last_reported":1751444119,"current_range_meters":23200,"station_id":"ce4bhm92rcd13ifvqglg","pricing_plan_id":"cebpf4jnsgd1na2vs0mg"},{"bike_id":"e6bb336d-ff1d-41cc-ae81-254cfd1d4389","system_id":"levelo_inurba_marseille","lat":43.28073,"lon":5.39653,"is_reserved":false,"is_disabled":false,"rental_uris":{"android":"levelo://app?vid=e6bb336d-ff1d-41cc-ae81-254cfd1d4389","ios":"levelo://app?vid=e6bb336d-ff1d-41cc-ae81-254cfd1d4389"},"vehicle_type_id":"4","last_reported":1751444119,"current_range_meters":23200,"station_id":"ce4bho12rcd13ifvqh2g","pricing_plan_id":"cebpf4jnsgd1na2vs0mg"},{"bike_id":"22c4ae10-5bb2-4e20-b4d7-86aa0287c418","system_id":"levelo_inurba_marseille","lat":43.32333,"lon":5.40625,"is_reserved":false,"is_disabled":false,"rental_uris":{"android":"levelo://app?vid=22c4ae10-5bb2-4e20-b4d7-86aa0287c418","ios":"levelo://app?vid=22c4ae10-5bb2-4e20-b4d7-86aa0287c418"},"vehicle_type_id":"4","last_reported":1751444119,"current_range_meters":23200,"station_id":"ce4bhq92rcd13ifvqhjg","pricing_plan_id":"cebpf4jnsgd1na2vs0mg"},{"bike_id":"bed3e8a6-b151-4512-8ecd-b49dd3969a2c","system_id":"levelo_inurba_marseille","lat":43.32106,"lon":5.36771,"is_reserved":false,"is_disabled":false,"rental_uris":{"android":"levelo://app?vid=bed3e8a6-b151-4512-8ecd-b49dd3969a2c","ios":"levelo://app?vid=bed3e8a6-b151-4512-8ecd-b49dd3969a2c"},"vehicle_type_id":"4","last_reported":1751444119,"current_range_meters":23200,"station_id":"ce4bhrh2rcd13ifvqhug","pricing_plan_id":"cebpf4jnsgd1na2vs0mg"},{"bike_id":"cc04118e-9312-4bf8-9106-d64e829afbaa","system_id":"levelo_inurba_marseille","lat":43.212,"lon":5.3505,"is_reserved":false,"is_disabled":false,"rental_uris":{"android":"levelo://app?vid=cc04118e-9312-4bf8-9106-d64e829afbaa","ios":"levelo://app?vid=cc04118e-9312-4bf8-9106-d64e829afbaa"},"vehicle_type_id":"4","last_reported":1751444119,"current_range_meters":23200,"station_id":"st_cvj6sg6p6f1abm77japg","pricing_plan_id":"cebpf4jnsgd1na2vs0mg"},{"bike_id":"1c8ab180-05fd-405f-9922-b2b2c2d5142f","system_id":"levelo_inurba_marseille","lat":43.33799,"lon":5.38129,"is_reserved":false,"is_disabled":false,"rental_uris":{"android":"levelo://app?vid=1c8ab180-05fd-405f-9922-b2b2c2d5142f","ios":"levelo://app?vid=1c8ab180-05fd-405f-9922-b2b2c2d5142f"},"vehicle_type_id":"4","last_reported":1751444119,"current_range_meters":24000,"station_id":"","pricing_plan_id":"cebpf4jnsgd1na2vs0mg"},{"bike_id":"879367be-d1fe-4d9b-9652-4d4a7987e13f","system_id":"levelo_inurba_marseille","lat":43.30918,"lon":5.36854,"is_reserved":false,"is_disabled":false,"rental_uris":{"android":"levelo://app?vid=879367be-d1fe-4d9b-9652-4d4a7987e13f","ios":"levelo://app?vid=879367be-d1fe-4d9b-9652-4d4a7987e13f"},"vehicle_type_id":"4","last_reported":1751444119,"current_range_meters":24000,"station_id":"ce4bgn92rcd13ifvqbvg","pricing_plan_id":"cebpf4jnsgd1na2vs0mg"},{"bike_id":"c8a46510-4a11-4eaa-b75b-3607284dafdc","system_id":"levelo_inurba_marseille","lat":43.30916,"lon":5.36845,"is_reserved":false,"is_disabled":false,"rental_uris":{"android":"levelo://app?vid=c8a46510-4a11-4eaa-b75b-3607284dafdc","ios":"levelo://app?vid=c8a46510-4a11-4eaa-b75b-3607284dafdc"},"vehicle_type_id":"4","last_reported":1751444119,"current_range_meters":24000,"station_id":"ce4bgn92rcd13ifvqbvg","pricing_plan_id":"cebpf4jnsgd1na2vs0mg"},{"bike_id":"be7162c5-77f4-437c-95e4-5aac296ab2c0","system_id":"levelo_inurba_marseille","lat":43.29784,"lon":5.37109,"is_reserved":false,"is_disabled":false,"rental_uris":{"android":"levelo://app?vid=be7162c5-77f4-437c-95e4-5aac296ab2c0","ios":"levelo://app?vid=be7162c5-77f4-437c-95e4-5aac296ab2c0"},"vehicle_type_id":"4","last_reported":1751444119,"current_range_meters":24000,"station_id":"ce4bgop2rcd13ifvqc1g","pricing_plan_id":"cebpf4jnsgd1na2vs0mg"},{"bike_id":"3b8a94db-0cac-4a11-82a5-145ce2df9de5","system_id":"levelo_inurba_marseille","lat":43.305386,"lon":5.367114,"is_reserved":false,"is_disabled":false,"rental_uris":{"android":"levelo://app?vid=3b8a94db-0cac-4a11-82a5-145ce2df9de5","ios":"levelo://app?vid=3b8a94db-0cac-4a11-82a5-145ce2df9de5"},"vehicle_type_id":"4","last_reported":1751444119,"current_range_meters":24000,"station_id":"ce4bgrp2rcd13ifvqc9g","pricing_plan_id":"cebpf4jnsgd1na2vs0mg"},{"bike_id":"88131bff-4a69-4d44-9625-2e48861d5cdf","system_id":"levelo_inurba_marseille","lat":43.26196,"lon":5.37445,"is_reserved":false,"is_disabled":false,"rental_uris":{"android":"levelo://app?vid=88131bff-4a69-4d44-9625-2e48861d5cdf","ios":"levelo://app?vid=88131bff-4a69-4d44-9625-2e48861d5cdf"},"vehicle_type_id":"4","last_reported":1751444119,"current_range_meters":24000,"station_id":"ce4bhgp2rcd13ifvqfc0","pricing_plan_id":"cebpf4jnsgd1na2vs0mg"},{"bike_id":"12736572-8d35-43c2-96ca-913d18fe0474","system_id":"levelo_inurba_marseille","lat":43.24386,"lon":5.37062,"is_reserved":false,"is_disabled":false,"rental_uris":{"android":"levelo://app?vid=12736572-8d35-43c2-96ca-913d18fe0474","ios":"levelo://app?vid=12736572-8d35-43c2-96ca-913d18fe0474"},"vehicle_type_id":"4","last_reported":1751444119,"current_range_meters":24000,"station_id":"ce4bhhh2rcd13ifvqfk0","pricing_plan_id":"cebpf4jnsgd1na2vs0mg"},{"bike_id":"02e0325b-4923-4994-92cd-cc109d4590ac","system_id":"levelo_inurba_marseille","lat":43.24173,"lon":5.397243,"is_reserved":false,"is_disabled":false,"rental_uris":{"android":"levelo://app?vid=02e0325b-4923-4994-92cd-cc109d4590ac","ios":"levelo://app?vid=02e0325b-4923-4994-92cd-cc109d4590ac"},"vehicle_type_id":"4","last_reported":1751444119,"current_range_meters":24000,"station_id":"ce4bhn12rcd13ifvqgpg","pricing_plan_id":"cebpf4jnsgd1na2vs0mg"},{"bike_id":"24976bf2-1b37-4dfa-a4ce-25f3cdf556d1","system_id":"levelo_inurba_marseille","lat":43.323354,"lon":5.406253,"is_reserved":false,"is_disabled":false,"rental_uris":{"android":"levelo://app?vid=24976bf2-1b37-4dfa-a4ce-25f3cdf556d1","ios":"levelo://app?vid=24976bf2-1b37-4dfa-a4ce-25f3cdf556d1"},"vehicle_type_id":"4","last_reported":1751444119,"current_range_meters":24000,"station_id":"ce4bhq92rcd13ifvqhjg","pricing_plan_id":"cebpf4jnsgd1na2vs0mg"},{"bike_id":"379ef670-edf1-407c-8b70-7fbadd4aecff","system_id":"levelo_inurba_marseille","lat":43.32485,"lon":5.36551,"is_reserved":false,"is_disabled":false,"rental_uris":{"android":"levelo://app?vid=379ef670-edf1-407c-8b70-7fbadd4aecff","ios":"levelo://app?vid=379ef670-edf1-407c-8b70-7fbadd4aecff"},"vehicle_type_id":"4","last_reported":1751444119,"current_range_meters":24000,"station_id":"ce4bhs12rcd13ifvqhvg","pricing_plan_id":"cebpf4jnsgd1na2vs0mg"},{"bike_id":"d3e5df8b-4b67-4af6-800a-9d27b16d9d24","system_id":"levelo_inurba_marseille","lat":43.31365,"lon":5.36697,"is_reserved":false,"is_disabled":false,"rental_uris":{"android":"levelo://app?vid=d3e5df8b-4b67-4af6-800a-9d27b16d9d24","ios":"levelo://app?vid=d3e5df8b-4b67-4af6-800a-9d27b16d9d24"},"vehicle_type_id":"4","last_reported":1751444119,"current_range_meters":24400,"station_id":"ce4bgr92rcd13ifvqc6g","pricing_plan_id":"cebpf4jnsgd1na2vs0mg"},{"bike_id":"8dcbd70c-d9da-48c4-b21d-3510ccca8727","system_id":"levelo_inurba_marseille","lat":43.313507,"lon":5.368244,"is_reserved":false,"is_disabled":false,"rental_uris":{"android":"levelo://app?vid=8dcbd70c-d9da-48c4-b21d-3510ccca8727","ios":"levelo://app?vid=8dcbd70c-d9da-48c4-b21d-3510ccca8727"},"vehicle_type_id":"4","last_reported":1751444119,"current_range_meters":24400,"station_id":"ce4bgr92rcd13ifvqc6g","pricing_plan_id":"cebpf4jnsgd1na2vs0mg"},{"bike_id":"a7b2abb1-b9e4-416d-b0b5-60abc2708f7c","system_id":"levelo_inurba_marseille","lat":43.309,"lon":5.37183,"is_reserved":false,"is_disabled":false,"rental_uris":{"android":"levelo://app?vid=a7b2abb1-b9e4-416d-b0b5-60abc2708f7c","ios":"levelo://app?vid=a7b2abb1-b9e4-416d-b0b5-60abc2708f7c"},"vehicle_type_id":"4","last_reported":1751444119,"current_range_meters":24400,"station_id":"ce4bguh2rcd13ifvqckg","pricing_plan_id":"cebpf4jnsgd1na2vs0mg"},{"bike_id":"940f420c-efa0-48a8-b070-fa76726982dc","system_id":"levelo_inurba_marseille","lat":43.28697,"lon":5.37394,"is_reserved":false,"is_disabled":false,"rental_uris":{"android":"levelo://app?vid=940f420c-efa0-48a8-b070-fa76726982dc","ios":"levelo://app?vid=940f420c-efa0-48a8-b070-fa76726982dc"},"vehicle_type_id":"4","last_reported":1751444119,"current_range_meters":24400,"station_id":"ce4bh3p2rcd13ifvqdq0","pricing_plan_id":"cebpf4jnsgd1na2vs0mg"},{"bike_id":"bf3a7ea3-39df-418d-9fc6-ab3d5bc1a92b","system_id":"levelo_inurba_marseille","lat":43.2572,"lon":5.41109,"is_reserved":false,"is_disabled":false,"rental_uris":{"android":"levelo://app?vid=bf3a7ea3-39df-418d-9fc6-ab3d5bc1a92b","ios":"levelo://app?vid=bf3a7ea3-39df-418d-9fc6-ab3d5bc1a92b"},"vehicle_type_id":"4","last_reported":1751444119,"current_range_meters":24400,"station_id":"ce4bhkp2rcd13ifvqgd0","pricing_plan_id":"cebpf4jnsgd1na2vs0mg"},{"bike_id":"6c7c1d32-0ac9-4a15-af93-f80da591f143","system_id":"levelo_inurba_marseille","lat":43.32482,"lon":5.3656,"is_reserved":false,"is_disabled":false,"rental_uris":{"android":"levelo://app?vid=6c7c1d32-0ac9-4a15-af93-f80da591f143","ios":"levelo://app?vid=6c7c1d32-0ac9-4a15-af93-f80da591f143"},"vehicle_type_id":"4","last_reported":1751444119,"current_range_meters":24400,"station_id":"ce4bhs12rcd13ifvqhvg","pricing_plan_id":"cebpf4jnsgd1na2vs0mg"},{"bike_id":"5f1e5526-9ff8-4075-8194-48a897f058b4","system_id":"levelo_inurba_marseille","lat":43.212055,"lon":5.350603,"is_reserved":false,"is_disabled":false,"rental_uris":{"android":"levelo://app?vid=5f1e5526-9ff8-4075-8194-48a897f058b4","ios":"levelo://app?vid=5f1e5526-9ff8-4075-8194-48a897f058b4"},"vehicle_type_id":"4","last_reported":1751444119,"current_range_meters":24400,"station_id":"st_cvj6sg6p6f1abm77japg","pricing_plan_id":"cebpf4jnsgd1na2vs0mg"},{"bike_id":"7712491c-e18b-4b09-bb79-30880b357c07","system_id":"levelo_inurba_marseille","lat":43.21191,"lon":5.35075,"is_reserved":false,"is_disabled":false,"rental_uris":{"android":"levelo://app?vid=7712491c-e18b-4b09-bb79-30880b357c07","ios":"levelo://app?vid=7712491c-e18b-4b09-bb79-30880b357c07"},"vehicle_type_id":"4","last_reported":1751444119,"current_range_meters":24800,"station_id":"","pricing_plan_id":"cebpf4jnsgd1na2vs0mg"},{"bike_id":"9b2223f8-b86e-473a-b366-d8c36ecf3872","system_id":"levelo_inurba_marseille","lat":43.29713,"lon":5.37692,"is_reserved":false,"is_disabled":false,"rental_uris":{"android":"levelo://app?vid=9b2223f8-b86e-473a-b366-d8c36ecf3872","ios":"levelo://app?vid=9b2223f8-b86e-473a-b366-d8c36ecf3872"},"vehicle_type_id":"4","last_reported":1751444119,"current_range_meters":24800,"station_id":"ce4bgkh2rcd13ifvqbl0","pricing_plan_id":"cebpf4jnsgd1na2vs0mg"},{"bike_id":"e128194c-32de-4adb-8c89-2253d575f111","system_id":"levelo_inurba_marseille","lat":43.29504,"lon":5.37489,"is_reserved":false,"is_disabled":false,"rental_uris":{"android":"levelo://app?vid=e128194c-32de-4adb-8c89-2253d575f111","ios":"levelo://app?vid=e128194c-32de-4adb-8c89-2253d575f111"},"vehicle_type_id":"4","last_reported":1751444119,"current_range_meters":24800,"station_id":"ce4bgkp2rcd13ifvqbmg","pricing_plan_id":"cebpf4jnsgd1na2vs0mg"},{"bike_id":"4d5f7c70-3d92-4fe8-a7f4-225fda9e33ca","system_id":"levelo_inurba_marseille","lat":43.309109,"lon":5.368456,"is_reserved":false,"is_disabled":false,"rental_uris":{"android":"levelo://app?vid=4d5f7c70-3d92-4fe8-a7f4-225fda9e33ca","ios":"levelo://app?vid=4d5f7c70-3d92-4fe8-a7f4-225fda9e33ca"},"vehicle_type_id":"4","last_reported":1751444119,"current_range_meters":24800,"station_id":"ce4bgn92rcd13ifvqbvg","pricing_plan_id":"cebpf4jnsgd1na2vs0mg"},{"bike_id":"4d61690a-9092-4d1a-90f0-21584087ca64","system_id":"levelo_inurba_marseille","lat":43.30134,"lon":5.37421,"is_reserved":false,"is_disabled":false,"rental_uris":{"android":"levelo://app?vid=4d61690a-9092-4d1a-90f0-21584087ca64","ios":"levelo://app?vid=4d61690a-9092-4d1a-90f0-21584087ca64"},"vehicle_type_id":"4","last_reported":1751444119,"current_range_meters":24800,"station_id":"ce4bgs92rcd13ifvqcc0","pricing_plan_id":"cebpf4jnsgd1na2vs0mg"},{"bike_id":"ace8ee1f-f91b-4cc0-bb58-a05dd50bcd0d","system_id":"levelo_inurba_marseille","lat":43.29015,"lon":5.37535,"is_reserved":false,"is_disabled":false,"rental_uris":{"android":"levelo://app?vid=ace8ee1f-f91b-4cc0-bb58-a05dd50bcd0d","ios":"levelo://app?vid=ace8ee1f-f91b-4cc0-bb58-a05dd50bcd0d"},"vehicle_type_id":"4","last_reported":1751444119,"current_range_meters":24800,"station_id":"ce4bh692rcd13ifvqe90","pricing_plan_id":"cebpf4jnsgd1na2vs0mg"},{"bike_id":"0c0241f7-18e7-4877-a3f2-b9c386645043","system_id":"levelo_inurba_marseille","lat":43.29195,"lon":5.35813,"is_reserved":false,"is_disabled":false,"rental_uris":{"android":"levelo://app?vid=0c0241f7-18e7-4877-a3f2-b9c386645043","ios":"levelo://app?vid=0c0241f7-18e7-4877-a3f2-b9c386645043"},"vehicle_type_id":"4","last_reported":1751444119,"current_range_meters":24800,"station_id":"ce4bhb12rcd13ifvqel0","pricing_plan_id":"cebpf4jnsgd1na2vs0mg"},{"bike_id":"ec3db1e6-4e06-4e35-b49c-1cb8dce03e4b","system_id":"levelo_inurba_marseille","lat":43.29283,"lon":5.3684,"is_reserved":false,"is_disabled":false,"rental_uris":{"android":"levelo://app?vid=ec3db1e6-4e06-4e35-b49c-1cb8dce03e4b","ios":"levelo://app?vid=ec3db1e6-4e06-4e35-b49c-1cb8dce03e4b"},"vehicle_type_id":"4","last_reported":1751444119,"current_range_meters":24800,"station_id":"ce4bhbp2rcd13ifvqesg","pricing_plan_id":"cebpf4jnsgd1na2vs0mg"},{"bike_id":"548bd7a4-7265-435a-a032-427131e3cfa2","system_id":"levelo_inurba_marseille","lat":43.24798,"lon":5.37478,"is_reserved":false,"is_disabled":false,"rental_uris":{"android":"levelo://app?vid=548bd7a4-7265-435a-a032-427131e3cfa2","ios":"levelo://app?vid=548bd7a4-7265-435a-a032-427131e3cfa2"},"vehicle_type_id":"4","last_reported":1751444119,"current_range_meters":24800,"station_id":"ce4bhgh2rcd13ifvqfb0","pricing_plan_id":"cebpf4jnsgd1na2vs0mg"},{"bike_id":"31368e19-4dbb-4e11-9c71-f57aa9479fe5","system_id":"levelo_inurba_marseille","lat":43.250053,"lon":5.389292,"is_reserved":false,"is_disabled":false,"rental_uris":{"android":"levelo://app?vid=31368e19-4dbb-4e11-9c71-f57aa9479fe5","ios":"levelo://app?vid=31368e19-4dbb-4e11-9c71-f57aa9479fe5"},"vehicle_type_id":"4","last_reported":1751444119,"current_range_meters":24800,"station_id":"ce4bhgp2rcd13ifvqfd0","pricing_plan_id":"cebpf4jnsgd1na2vs0mg"},