{"last_updated":1736151182,"ttl":60,"version":"2.2","data":{"bikes":[{"bike_id":"dac6d463-fb57-4a19-8c5c-55d8a85c731d","system_id":"levelo_inurba_marseille","lat":43.30542,"lon":5.36546,"is_reserved":false,"is_disabled":false,"rental_uris":{"android":"levelo://app?vid=dac6d463-fb57-4a19-8c5c-55d8a85c731d","ios":"levelo://app?vid=dac6d463-fb57-4a19-8c5c-55d8a85c731d"},"vehicle_type_id":"4","last_reported":1736151182,"current_range_meters":27200,"station_id":"ce4bgs12rcd13ifvqcag","pricing_plan_id":"cebpf4jnsgd1na2vs0mg"},{"bike_id":"8f29603c-5d9a-4bc6-963d-711ada2a168a","system_id":"levelo_inurba_marseille","lat":43.24683,"lon":5.39818,"is_reserved":false,"is_disabled":true,"rental_uris":{"android":"levelo://app?vid=8f29603c-5d9a-4bc6-963d-711ada2a168a","ios":"levelo://app?vid=8f29603c-5d9a-4bc6-963d-711ada2a168a"},"vehicle_type_id":"4","last_reported":1736151182,"current_range_meters":21600,"station_id":"","pricing_plan_id":"cebpf4jnsgd1na2vs0mg"},{"bike_id":"10713e37-afc7-43d1-b51d-2b4416e38ed1","system_id":"levelo_inurba_marseille","lat":43.28732,"lon":5.39998,"is_reserved":false,"is_disabled":true,"rental_uris":{"android":"levelo://app?vid=10713e37-afc7-43d1-b51d-2b4416e38ed1","ios":"levelo://app?vid=10713e37-afc7-43d1-b51d-2b4416e38ed1"},"vehicle_type_id":"4","last_reported":1736151182,"current_range_meters":38800,"station_id":"ce4bho92rcd13ifvqh3g","pricing_plan_id":"cebpf4jnsgd1na2vs0mg"},{"bike_id":"e98989a0-dc89-4989-9e20-edd91030c33c","system_id":"levelo_inurba_marseille","lat":43.30165,"lon":5.38082,"is_reserved":false,"is_disabled":false,"rental_uris":{"android":"levelo://app?vid=e98989a0-dc89-4989-9e20-edd91030c33c","ios":"levelo://app?vid=e98989a0-dc89-4989-9e20-edd91030c33c"},"vehicle_type_id":"4","last_reported":1736151182,"current_range_meters":39200,"station_id":"ce4bgjp2rcd13ifvqbh0","pricing_plan_id":"cebpf4jnsgd1na2vs0mg"},{"bike_id":"e6e04223-7392-4eda-8306-7771efe8f77c","system_id":"levelo_inurba_marseille","lat":43.31356,"lon":5.3673,"is_reserved":false,"is_disabled":false,"rental_uris":{"android":"levelo://app?vid=e6e04223-7392-4eda-8306-7771efe8f77c","ios":"levelo://app?vid=e6e04223-7392-4eda-8306-7771efe8f77c"},"vehicle_type_id":"4","last_reported":1736151182,"current_range_meters":38800,"station_id":"ce4bgr92rcd13ifvqc6g","pricing_plan_id":"cebpf4jnsgd1na2vs0mg"},{"bike_id":"8fd2427c-8d9e-4874-8f77-3247b92de40b","system_id":"levelo_inurba_marseille","lat":43.28936,"lon":5.36635,"is_reserved":false,"is_disabled":false,"rental_uris":{"android":"levelo://app?vid=8fd2427c-8d9e-4874-8f77-3247b92de40b","ios":"levelo://app?vid=8fd2427c-8d9e-4874-8f77-3247b92de40b"},"vehicle_type_id":"4","last_reported":1736151182,"current_range_meters":7200,"station_id":"ce4bhap2rcd13ifvqek0","pricing_plan_id":"cebpf4jnsgd1na2vs0mg"},{"bike_id":"5dc11390-059b-4136-9f1a-189200cf304c","system_id":"levelo_inurba_marseille","lat":43.299386,"lon":5.365302,"is_reserved":false,"is_disabled":true,"rental_uris":{"android":"levelo://app?vid=5dc11390-059b-4136-9f1a-189200cf304c","ios":"levelo://app?vid=5dc11390-059b-4136-9f1a-189200cf304c"},"vehicle_type_id":"4","last_reported":1736151182,"current_range_meters":38400,"station_id":"ce4bgm92rcd13ifvqbr0","pricing_plan_id":"cebpf4jnsgd1na2vs0mg"},{"bike_id":"0153ae28-9422-4039-87f8-952c80b8c9cc","system_id":"levelo_inurba_marseille","lat":43.27334,"lon":5.39111,"is_reserved":false,"is_disabled":true,"rental_uris":{"android":"levelo://app?vid=0153ae28-9422-4039-87f8-952c80b8c9cc","ios":"levelo://app?vid=0153ae28-9422-4039-87f8-952c80b8c9cc"},"vehicle_type_id":"4","last_reported":1736151182,"current_range_meters":36800,"station_id":"ce4bhgp2rcd13ifvqfe0","pricing_plan_id":"cebpf4jnsgd1na2vs0mg"},{"bike_id":"cee840b5-ff12-484c-baab-acbc211b8ae4","system_id":"levelo_inurba_marseille","lat":43.27979,"lon":5.41673,"is_reserved":false,"is_disabled":true,"rental_uris":{"android":"levelo://app?vid=cee840b5-ff12-484c-baab-acbc211b8ae4","ios":"levelo://app?vid=cee840b5-ff12-484c-baab-acbc211b8ae4"},"vehicle_type_id":"4","last_reported":1736151182,"current_range_meters":27600,"station_id":"ce4bho12rcd13ifvqh1g","pricing_plan_id":"cebpf4jnsgd1na2vs0mg"},{"bike_id":"4fa975ef-0579-4613-b66e-2488813c480b","system_id":"levelo_inurba_marseille","lat":43.29622,"lon":5.37738,"is_reserved":false,"is_disabled":false,"rental_uris":{"android":"levelo://app?vid=4fa975ef-0579-4613-b66e-2488813c480b","ios":"levelo://app?vid=4fa975ef-0579-4613-b66e-2488813c480b"},"vehicle_type_id":"4","last_reported":1736151182,"current_range_meters":32800,"station_id":"ce4bgi92rcd13ifvqb90","pricing_plan_id":"cebpf4jnsgd1na2vs0mg"},{"bike_id":"09a66620-b8a2-4939-adb9-b311fa009ecb","system_id":"levelo_inurba_marseille","lat":43.28029,"lon":5.36957,"is_reserved":false,"is_disabled":false,"rental_uris":{"android":"levelo://app?vid=09a66620-b8a2-4939-adb9-b311fa009ecb","ios":"levelo://app?vid=09a66620-b8a2-4939-adb9-b311fa009ecb"},"vehicle_type_id":"4","last_reported":1736151182,"current_range_meters":38800,"station_id":"ce4bha12rcd13ifvqef0","pricing_plan_id":"cebpf4jnsgd1na2vs0mg"},{"bike_id":"d28b7e58-5cbc-4859-8aba-5ee9714e1ce7","system_id":"levelo_inurba_marseille","lat":43.29912,"lon":5.38137,"is_reserved":false,"is_disabled":false,"rental_uris":{"android":"levelo://app?vid=d28b7e58-5cbc-4859-8aba-5ee9714e1ce7","ios":"levelo://app?vid=d28b7e58-5cbc-4859-8aba-5ee9714e1ce7"},"vehicle_type_id":"4","last_reported":1736151182,"current_range_meters":31200,"station_id":"ce4bgj12rcd13ifvqbc0","pricing_plan_id":"cebpf4jnsgd1na2vs0mg"},{"bike_id":"a38d7913-e298-4f70-b767-22c33dd66ed4","system_id":"levelo_inurba_marseille","lat":43.29894,"lon":5.43652,"is_reserved":false,"is_disabled":false,"rental_uris":{"android":"levelo://app?vid=a38d7913-e298-4f70-b767-22c33dd66ed4","ios":"levelo://app?vid=a38d7913-e298-4f70-b767-22c33dd66ed4"},"vehicle_type_id":"4","last_reported":1736151182,"current_range_meters":38800,"station_id":"ce4bhpp2rcd13ifvqhfg","pricing_plan_id":"cebpf4jnsgd1na2vs0mg"},{"bike_id":"7cbf6f5f-84c0-4c69-9c7d-9902b00c6686","system_id":"levelo_inurba_marseille","lat":43.30471,"lon":5.37903,"is_reserved":false,"is_disabled":false,"rental_uris":{"android":"levelo://app?vid=7cbf6f5f-84c0-4c69-9c7d-9902b00c6686","ios":"levelo://app?vid=7cbf6f5f-84c0-4c69-9c7d-9902b00c6686"},"vehicle_type_id":"4","last_reported":1736151182,"current_range_meters":30400,"station_id":"ce4bgup2rcd13ifvqcn0","pricing_plan_id":"cebpf4jnsgd1na2vs0mg"},{"bike_id":"bcf0bc77-feb4-4e25-93da-4721812265a5","system_id":"levelo_inurba_marseille","lat":43.29842,"lon":5.36281,"is_reserved":false,"is_disabled":false,"rental_uris":{"android":"levelo://app?vid=bcf0bc77-feb4-4e25-93da-4721812265a5","ios":"levelo://app?vid=bcf0bc77-feb4-4e25-93da-4721812265a5"},"vehicle_type_id":"4","last_reported":1736151182,"current_range_meters":38000,"station_id":"ce4bgpp2rcd13ifvqc3g","pricing_plan_id":"cebpf4jnsgd1na2vs0mg"},{"bike_id":"aa3d4a6d-1203-4d0c-85b4-452c0e9a57b3","system_id":"levelo_inurba_marseille","lat":43.27938,"lon":5.41035,"is_reserved":false,"is_disabled":false,"rental_uris":{"android":"levelo://app?vid=aa3d4a6d-1203-4d0c-85b4-452c0e9a57b3","ios":"levelo://app?vid=aa3d4a6d-1203-4d0c-85b4-452c0e9a57b3"},"vehicle_type_id":"4","last_reported":1736151182,"current_range_meters":8400,"station_id":"ce4bhnp2rcd13ifvqh0g","pricing_plan_id":"cebpf4jnsgd1na2vs0mg"},{"bike_id":"730144be-fcee-4065-ac38-325ca1d5cbf7","system_id":"levelo_inurba_marseille","lat":43.25711,"lon":5.41134,"is_reserved":false,"is_disabled":false,"rental_uris":{"android":"levelo://app?vid=730144be-fcee-4065-ac38-325ca1d5cbf7","ios":"levelo://app?vid=730144be-fcee-4065-ac38-325ca1d5cbf7"},"vehicle_type_id":"4","last_reported":1736151182,"current_range_meters":28000,"station_id":"ce4bhkp2rcd13ifvqgd0","pricing_plan_id":"cebpf4jnsgd1na2vs0mg"},{"bike_id":"cfa9ca20-27d4-44a2-a7d9-d2b75ed2f4ac","system_id":"levelo_inurba_marseille","lat":43.31069,"lon":5.3834,"is_reserved":false,"is_disabled":true,"rental_uris":{"android":"levelo://app?vid=cfa9ca20-27d4-44a2-a7d9-d2b75ed2f4ac","ios":"levelo://app?vid=cfa9ca20-27d4-44a2-a7d9-d2b75ed2f4ac"},"vehicle_type_id":"4","last_reported":1736151182,"current_range_meters":4000,"station_id":"ce4bgv92rcd13ifvqcr0","pricing_plan_id":"cebpf4jnsgd1na2vs0mg"},{"bike_id":"2e3020fc-739e-484f-aff1-968aa18f2ac1","system_id":"levelo_inurba_marseille","lat":43.27964,"lon":5.41672,"is_reserved":false,"is_disabled":true,"rental_uris":{"android":"levelo://app?vid=2e3020fc-739e-484f-aff1-968aa18f2ac1","ios":"levelo://app?vid=2e3020fc-739e-484f-aff1-968aa18f2ac1"},"vehicle_type_id":"4","last_reported":1736151182,"current_range_meters":0,"station_id":"ce4bho12rcd13ifvqh1g","pricing_plan_id":"cebpf4jnsgd1na2vs0mg"},{"bike_id":"71dd2f5b-102e-4770-9024-a06bbe2347d6","system_id":"levelo_inurba_marseille","lat":43.29713,"lon":5.36581,"is_reserved":false,"is_disabled":false,"rental_uris":{"android":"levelo://app?vid=71dd2f5b-102e-4770-9024-a06bbe2347d6","ios":"levelo://app?vid=71dd2f5b-102e-4770-9024-a06bbe2347d6"},"vehicle_type_id":"4","last_reported":1736151182,"current_range_meters":26000,"station_id":"ce4bgn12rcd13ifvqbt0","pricing_plan_id":"cebpf4jnsgd1na2vs0mg"},{"bike_id":"ce0e460b-fbf5-4f76-a294-ee5f28a95ad0","system_id":"levelo_inurba_marseille","lat":43.2708,"lon":5.42252,"is_reserved":false,"is_disabled":false,"rental_uris":{"android":"levelo://app?vid=ce0e460b-fbf5-4f76-a294-ee5f28a95ad0","ios":"levelo://app?vid=ce0e460b-fbf5-4f76-a294-ee5f28a95ad0"},"vehicle_type_id":"4","last_reported":1736151182,"current_range_meters":39200,"station_id":"ce4bhk92rcd13ifvqgb0","pricing_plan_id":"cebpf4jnsgd1na2vs0mg"},{"bike_id":"a0adb3c4-caf9-464d-8f3e-6b5be1eb9699","system_id":"levelo_inurba_marseille","lat":43.25112,"lon":5.40333,"is_reserved":false,"is_disabled":false,"rental_uris":{"android":"levelo://app?vid=a0adb3c4-caf9-464d-8f3e-6b5be1eb9699","ios":"levelo://app?vid=a0adb3c4-caf9-464d-8f3e-6b5be1eb9699"},"vehicle_type_id":"4","last_reported":1736151182,"current_range_meters":39200,"station_id":"ce4bhlh2rcd13ifvqgig","pricing_plan_id":"cebpf4jnsgd1na2vs0mg"},{"bike_id":"593d8424-f565-422e-8480-e0f50e2c043e","system_id":"levelo_inurba_marseille","lat":43.27972,"lon":5.38726,"is_reserved":false,"is_disabled":true,"rental_uris":{"android":"levelo://app?vid=593d8424-f565-422e-8480-e0f50e2c043e","ios":"levelo://app?vid=593d8424-f565-422e-8480-e0f50e2c043e"},"vehicle_type_id":"4","last_reported":1736151182,"current_range_meters":30000,"station_id":"ce4bhg12rcd13ifvqf80","pricing_plan_id":"cebpf4jnsgd1na2vs0mg"},{"bike_id":"a944f865-f260-4d6e-8bfb-34b22d4c0ecd","system_id":"levelo_inurba_marseille","lat":43.30198,"lon":5.366,"is_reserved":false,"is_disabled":true,"rental_uris":{"android":"levelo://app?vid=a944f865-f260-4d6e-8bfb-34b22d4c0ecd","ios":"levelo://app?vid=a944f865-f260-4d6e-8bfb-34b22d4c0ecd"},"vehicle_type_id":"4","last_reported":1736151182,"current_range_meters":24000,"station_id":"ce4bgrh2rcd13ifvqc8g","pricing_plan_id":"cebpf4jnsgd1na2vs0mg"},{"bike_id":"de416ca7-0769-4766-a5b5-80a4211b7833","system_id":"levelo_inurba_marseille","lat":43.25935,"lon":5.40902,"is_reserved":false,"is_disabled":false,"rental_uris":{"android":"levelo://app?vid=de416ca7-0769-4766-a5b5-80a4211b7833","ios":"levelo://app?vid=de416ca7-0769-4766-a5b5-80a4211b7833"},"vehicle_type_id":"4","last_reported":1736151182,"current_range_meters":25600,"station_id":"ce4bhm92rcd13ifvqglg","pricing_plan_id":"cebpf4jnsgd1na2vs0mg"},{"bike_id":"f2bc83fe-5082-4189-990a-d4bcacaae584","system_id":"levelo_inurba_marseille","lat":43.24078,"lon":5.37749,"is_reserved":false,"is_disabled":false,"rental_uris":{"android":"levelo://app?vid=f2bc83fe-5082-4189-990a-d4bcacaae584","ios":"levelo://app?vid=f2bc83fe-5082-4189-990a-d4bcacaae584"},"vehicle_type_id":"4","last_reported":1736151182,"current_range_meters":7200,"station_id":"ce4bhnp2rcd13ifvqgvg","pricing_plan_id":"cebpf4jnsgd1na2vs0mg"},{"bike_id":"20ffeea9-73bd-4164-837b-d84bb167a778","system_id":"levelo_inurba_marseille","lat":43.29201,"lon":5.39339,"is_reserved":false,"is_disabled":true,"rental_uris":{"android":"levelo://app?vid=20ffeea9-73bd-4164-837b-d84bb167a778","ios":"levelo://app?vid=20ffeea9-73bd-4164-837b-d84bb167a778"},"vehicle_type_id":"4","last_reported":1736151182,"current_range_meters":32800,"station_id":"ce4bh192rcd13ifvqdd0","pricing_plan_id":"cebpf4jnsgd1na2vs0mg"},{"bike_id":"39c1aba0-68d4-42aa-a945-062c95ab4940","system_id":"levelo_inurba_marseille","lat":43.24078,"lon":5.37743,"is_reserved":false,"is_disabled":false,"rental_uris":{"android":"levelo://app?vid=39c1aba0-68d4-42aa-a945-062c95ab4940","ios":"levelo://app?vid=39c1aba0-68d4-42aa-a945-062c95ab4940"},"vehicle_type_id":"4","last_reported":1736151182,"current_range_meters":38000,"station_id":"ce4bhnp2rcd13ifvqgvg","pricing_plan_id":"cebpf4jnsgd1na2vs0mg"},{"bike_id":"7785ab47-fc21-464f-82e3-4fad2439c0ee","system_id":"levelo_inurba_marseille","lat":43.29828,"lon":5.43718,"is_reserved":false,"is_disabled":false,"rental_uris":{"android":"levelo://app?vid=7785ab47-fc21-464f-82e3-4fad2439c0ee","ios":"levelo://app?vid=7785ab47-fc21-464f-82e3-4fad2439c0ee"},"vehicle_type_id":"4","last_reported":1736151182,"current_range_meters":22400,"station_id":"","pricing_plan_id":"cebpf4jnsgd1na2vs0mg"},{"bike_id":"31ea36d6-4f83-4713-a7ad-b1924a5168ee","system_id":"levelo_inurba_marseille","lat":43.30183,"lon":5.38062,"is_reserved":false,"is_disabled":false,"rental_uris":{"android":"levelo://app?vid=31ea36d6-4f83-4713-a7ad-b1924a5168ee","ios":"levelo://app?vid=31ea36d6-4f83-4713-a7ad-b1924a5168ee"},"vehicle_type_id":"4","last_reported":1736151182,"current_range_meters":8800,"station_id":"ce4bgjp2rcd13ifvqbh0","pricing_plan_id":"cebpf4jnsgd1na2vs0mg"},{"bike_id":"9bd04c4d-bba3-44a3-88b7-e0bf363fe6b8","system_id":"levelo_inurba_marseille","lat":43.24676,"lon":5.38167,"is_reserved":false,"is_disabled":false,"rental_uris":{"android":"levelo://app?vid=9bd04c4d-bba3-44a3-88b7-e0bf363fe6b8","ios":"levelo://app?vid=9bd04c4d-bba3-44a3-88b7-e0bf363fe6b8"},"vehicle_type_id":"4","last_reported":1736151182,"current_range_meters":29600,"station_id":"ce4bhih2rcd13ifvqfr0","pricing_plan_id":"cebpf4jnsgd1na2vs0mg"},{"bike_id":"ab68ed21-148d-4a0e-ae51-a2dd92014de0","system_id":"levelo_inurba_marseille","lat":43.24984,"lon":5.38957,"is_reserved":false,"is_disabled":false,"rental_uris":{"android":"levelo://app?vid=ab68ed21-148d-4a0e-ae51-a2dd92014de0","ios":"levelo://app?vid=ab68ed21-148d-4a0e-ae51-a2dd92014de0"},"vehicle_type_id":"4","last_reported":1736151182,"current_range_meters":36800,"station_id":"ce4bhgp2rcd13ifvqfd0","pricing_plan_id":"cebpf4jnsgd1na2vs0mg"},{"bike_id":"75539ff0-fe32-4da7-83df-96fa72019050","system_id":"levelo_inurba_marseille","lat":43.310781,"lon":5.424261,"is_reserved":false,"is_disabled":false,"rental_uris":{"android":"levelo://app?vid=75539ff0-fe32-4da7-83df-96fa72019050","ios":"levelo://app?vid=75539ff0-fe32-4da7-83df-96fa72019050"},"vehicle_type_id":"4","last_reported":1736151182,"current_range_meters":38800,"station_id":"ce4bhp92rcd13ifvqhag","pricing_plan_id":"cebpf4jnsgd1na2vs0mg"},{"bike_id":"c023aed8-c4af-47de-bf55-7ec6cfb1c879","system_id":"levelo_inurba_marseille","lat":43.261881,"lon":5.37457,"is_reserved":false,"is_disabled":true,"rental_uris":{"android":"levelo://app?vid=c023aed8-c4af-47de-bf55-7ec6cfb1c879","ios":"levelo://app?vid=c023aed8-c4af-47de-bf55-7ec6cfb1c879"},"vehicle_type_id":"4","last_reported":1736151182,"current_range_meters":32800,"station_id":"ce4bhgp2rcd13ifvqfc0","pricing_plan_id":"cebpf4jnsgd1na2vs0mg"},{"bike_id":"0145acbc-e5bd-4687-b4c4-62fd25f1107c","system_id":"levelo_inurba_marseille","lat":43.299744,"lon":5.371571,"is_reserved":false,"is_disabled":false,"rental_uris":{"android":"levelo://app?vid=0145acbc-e5bd-4687-b4c4-62fd25f1107c","ios":"levelo://app?vid=0145acbc-e5bd-4687-b4c4-62fd25f1107c"},"vehicle_type_id":"4","last_reported":1736151182,"current_range_meters":38000,"station_id":"ce4bgr92rcd13ifvqc7g","pricing_plan_id":"cebpf4jnsgd1na2vs0mg"},{"bike_id":"1134651d-acce-4d49-8c85-7d62909bf8cb","system_id":"levelo_inurba_marseille","lat":43.33608,"lon":5.41003,"is_reserved":false,"is_disabled":true,"rental_uris":{"android":"levelo://app?vid=1134651d-acce-4d49-8c85-7d62909bf8cb","ios":"levelo://app?vid=1134651d-acce-4d49-8c85-7d62909bf8cb"},"vehicle_type_id":"4","last_reported":1736151182,"current_range_meters":28800,"station_id":"ce4bhqh2rcd13ifvqhmg","pricing_plan_id":"cebpf4jnsgd1na2vs0mg"},{"bike_id":"0b39108f-e981-4ecb-af14-abc54a91d142","system_id":"levelo_inurba_marseille","lat":43.29805,"lon":5.38122,"is_reserved":false,"is_disabled":false,"rental_uris":{"android":"levelo://app?vid=0b39108f-e981-4ecb-af14-abc54a91d142","ios":"levelo://app?vid=0b39108f-e981-4ecb-af14-abc54a91d142"},"vehicle_type_id":"4","last_reported":1736151182,"current_range_meters":28000,"station_id":"ce4bgip2rcd13ifvqbb0","pricing_plan_id":"cebpf4jnsgd1na2vs0mg"},{"bike_id":"ad036647-e9f4-4246-953d-37ee6601db50","system_id":"levelo_inurba_marseille","lat":43.24664,"lon":5.38171,"is_reserved":false,"is_disabled":false,"rental_uris":{"android":"levelo://app?vid=ad036647-e9f4-4246-953d-37ee6601db50","ios":"levelo://app?vid=ad036647-e9f4-4246-953d-37ee6601db50"},"vehicle_type_id":"4","last_reported":1736151182,"current_range_meters":22800,"station_id":"ce4bhih2rcd13ifvqfr0","pricing_plan_id":"cebpf4jnsgd1na2vs0mg"},{"bike_id":"c3496726-b8ea-47ac-a44b-66bc69a8d7e9","system_id":"levelo_inurba_marseille","lat":43.29854,"lon":5.36282,"is_reserved":false,"is_disabled":false,"rental_uris":{"android":"levelo://app?vid=c3496726-b8ea-47ac-a44b-66bc69a8d7e9","ios":"levelo://app?vid=c3496726-b8ea-47ac-a44b-66bc69a8d7e9"},"vehicle_type_id":"4","last_reported":1736151182,"current_range_meters":30000,"station_id":"ce4bgpp2rcd13ifvqc3g","pricing_plan_id":"cebpf4jnsgd1na2vs0mg"},{"bike_id":"9a997ea1-496e-48ad-96d6-4a5b654a27b2","system_id":"levelo_inurba_marseille","lat":43.30457,"lon":5.379,"is_reserved":false,"is_disabled":false,"rental_uris":{"android":"levelo://app?vid=9a997ea1-496e-48ad-96d6-4a5b654a27b2","ios":"levelo://app?vid=9a997ea1-496e-48ad-96d6-4a5b654a27b2"},"vehicle_type_id":"4","last_reported":1736151182,"current_range_meters":22000,"station_id":"ce4bgup2rcd13ifvqcn0","pricing_plan_id":"cebpf4jnsgd1na2vs0mg"},{"bike_id":"09a28680-34f3-48a3-bb4d-74506aeed1ee","system_id":"levelo_inurba_marseille","lat":43.29031,"lon":5.39981,"is_reserved":false,"is_disabled":false,"rental_uris":{"android":"levelo://app?vid=09a28680-34f3-48a3-bb4d-74506aeed1ee","ios":"levelo://app?vid=09a28680-34f3-48a3-bb4d-74506aeed1ee"},"vehicle_type_id":"4","last_reported":1736151182,"current_range_meters":39200,"station_id":"ce4bh392rcd13ifvqdm0","pricing_plan_id":"cebpf4jnsgd1na2vs0mg"},{"bike_id":"28bcc49e-ca6d-4a43-90c5-8bf91b9ea245","system_id":"levelo_inurba_marseille","lat":43.31485,"lon":5.37304,"is_reserved":false,"is_disabled":false,"rental_uris":{"android":"levelo://app?vid=28bcc49e-ca6d-4a43-90c5-8bf91b9ea245","ios":"levelo://app?vid=28bcc49e-ca6d-4a43-90c5-8bf91b9ea245"},"vehicle_type_id":"4","last_reported":1736151182,"current_range_meters":27600,"station_id":"ce4bgt12rcd13ifvqcd0","pricing_plan_id":"cebpf4jnsgd1na2vs0mg"},{"bike_id":"d7dbdf36-936d-430c-80aa-e7d44f7ca2fe","system_id":"levelo_inurba_marseille","lat":43.25054,"lon":5.38915,"is_reserved":false,"is_disabled":false,"rental_uris":{"android":"levelo://app?vid=d7dbdf36-936d-430c-80aa-e7d44f7ca2fe","ios":"levelo://app?vid=d7dbdf36-936d-430c-80aa-e7d44f7ca2fe"},"vehicle_type_id":"4","last_reported":1736151182,"current_range_meters":9600,"station_id":"ce4bhgp2rcd13ifvqfd0","pricing_plan_id":"cebpf4jnsgd1na2vs0mg"},{"bike_id":"74098fc6-7328-47e4-8d2d-8ae77bdb4aea","system_id":"levelo_inurba_marseille","lat":43.299332,"lon":5.365294,"is_reserved":false,"is_disabled":false,"rental_uris":{"android":"levelo://app?vid=74098fc6-7328-47e4-8d2d-8ae77bdb4aea","ios":"levelo://app?vid=74098fc6-7328-47e4-8d2d-8ae77bdb4aea"},"vehicle_type_id":"4","last_reported":1736151182,"current_range_meters":30000,"station_id":"ce4bgm92rcd13ifvqbr0","pricing_plan_id":"cebpf4jnsgd1na2vs0mg"},{"bike_id":"66d3e1ef-7727-44f9-b619-eeddb54c1fba","system_id":"levelo_inurba_marseille","lat":43.30443,"lon":5.38894,"is_reserved":false,"is_disabled":true,"rental_uris":{"android":"levelo://app?vid=66d3e1ef-7727-44f9-b619-eeddb54c1fba","ios":"levelo://app?vid=66d3e1ef-7727-44f9-b619-eeddb54c1fba"},"vehicle_type_id":"4","last_reported":1736151182,"current_range_meters":6800,"station_id":"ce4bgk12rcd13ifvqbi0","pricing_plan_id":"cebpf4jnsgd1na2vs0mg"},{"bike_id":"f628b1a5-abb3-4332-96ca-9f06ac130aab","system_id":"levelo_inurba_marseille","lat":43.2993,"lon":5.36541,"is_reserved":false,"is_disabled":false,"rental_uris":{"android":"levelo://app?vid=f628b1a5-abb3-4332-96ca-9f06ac130aab","ios":"levelo://app?vid=f628b1a5-abb3-4332-96ca-9f06ac130aab"},"vehicle_type_id":"4","last_reported":1736151182,"current_range_meters":32800,"station_id":"ce4bgm92rcd13ifvqbr0","pricing_plan_id":"cebpf4jnsgd1na2vs0mg"},{"bike_id":"53f0838a-ffca-45dc-96ad-e12807afa175","system_id":"levelo_inurba_marseille","lat":43.232,"lon":5.39952,"is_reserved":false,"is_disabled":false,"rental_uris":{"android":"levelo://app?vid=53f0838a-ffca-45dc-96ad-e12807afa175","ios":"levelo://app?vid=53f0838a-ffca-45dc-96ad-e12807afa175"},"vehicle_type_id":"4","last_reported":1736151182,"current_range_meters":23200,"station_id":"ce4bhn12rcd13ifvqgqg","pricing_plan_id":"cebpf4jnsgd1na2vs0mg"},{"bike_id":"f2107d97-861e-478f-aae7-bc0c7527ce03","system_id":"levelo_inurba_marseille","lat":43.31489,"lon":5.373,"is_reserved":false,"is_disabled":false,"rental_uris":{"android":"levelo://app?vid=f2107d97-861e-478f-aae7-bc0c7527ce03","ios":"levelo://app?vid=f2107d97-861e-478f-aae7-bc0c7527ce03"},"vehicle_type_id":"4","last_reported":1736151182,"current_range_meters":30800,"station_id":"ce4bgt12rcd13ifvqcd0","pricing_plan_id":"cebpf4jnsgd1na2vs0mg"},{"bike_id":"683c3a18-2fe8-4db2-829b-d8065bc8adc1","system_id":"levelo_inurba_marseille","lat":43.24068,"lon":5.37761,"is_reserved":false,"is_disabled":false,"rental_uris":{"android":"levelo://app?vid=683c3a18-2fe8-4db2-829b-d8065bc8adc1","ios":"levelo://app?vid=683c3a18-2fe8-4db2-829b-d8065bc8adc1"},"vehicle_type_id":"4","last_reported":1736151182,"current_range_meters":38800,"station_id":"ce4bhnp2rcd13ifvqgvg","pricing_plan_id":"cebpf4jnsgd1na2vs0mg"},{"bike_id":"98458725-ccb3-4087-b312-f4d043f8061c","system_id":"levelo_inurba_marseille","lat":43.24168,"lon":5.39743,"is_reserved":false,"is_disabled":false,"rental_uris":{"android":"levelo://app?vid=98458725-ccb3-4087-b312-f4d043f8061c","ios":"levelo://app?vid=98458725-ccb3-4087-b312-f4d043f8061c"},"vehicle_type_id":"4","last_reported":1736151182,"current_range_meters":24000,"station_id":"ce4bhn12rcd13ifvqgpg","pricing_plan_id":"cebpf4jnsgd1na2vs0mg"},{"bike_id":"84555394-9565-4ae2-9597-fe536c54fe4a","system_id":"levelo_inurba_marseille","lat":43.32451,"lon":5.36537,"is_reserved":false,"is_disabled":false,"rental_uris":{"android":"levelo://app?vid=84555394-9565-4ae2-9597-fe536c54fe4a","ios":"levelo://app?vid=84555394-9565-4ae2-9597-fe536c54fe4a"},"vehicle_type_id":"4","last_reported":1736151182,"current_range_meters":22000,"station_id":"ce4bhs12rcd13ifvqhvg","pricing_plan_id":"cebpf4jnsgd1na2vs0mg"},{"bike_id":"f77f28e7-dc0e-440d-960f-08a32fae1e07","system_id":"levelo_inurba_marseille","lat":43.29971,"lon":5.38487,"is_reserved":false,"is_disabled":false,"rental_uris":{"android":"levelo://app?vid=f77f28e7-dc0e-440d-960f-08a32fae1e07","ios":"levelo://app?vid=f77f28e7-dc0e-440d-960f-08a32fae1e07"},"vehicle_type_id":"4","last_reported":1736151182,"current_range_meters":22400,"station_id":"ce4bgj92rcd13ifvqbd0","pricing_plan_id":"cebpf4jnsgd1na2vs0mg"},{"bike_id":"e7322205-0263-4fc6-ac61-c0ff19201698","system_id":"levelo_inurba_marseille","lat":43.30464,"lon":5.37901,"is_reserved":false,"is_disabled":false,"rental_uris":{"android":"levelo://app?vid=e7322205-0263-4fc6-ac61-c0ff19201698","ios":"levelo://app?vid=e7322205-0263-4fc6-ac61-c0ff19201698"},"vehicle_type_id":"4","last_reported":1736151182,"current_range_meters":38800,"station_id":"ce4bgup2rcd13ifvqcn0","pricing_plan_id":"cebpf4jnsgd1na2vs0mg"},{"bike_id":"551f514d-f98d-4bc9-a418-784f879e01aa","system_id":"levelo_inurba_marseille","lat":43.3089,"lon":5.37182,"is_reserved":false,"is_disabled":false,"rental_uris":{"android":"levelo://app?vid=551f514d-f98d-4bc9-a418-784f879e01aa","ios":"levelo://app?vid=551f514d-f98d-4bc9-a418-784f879e01aa"},"vehicle_type_id":"4","last_reported":1736151182,"current_range_meters":26000,"station_id":"ce4bguh2rcd13ifvqckg","pricing_plan_id":"cebpf4jnsgd1na2vs0mg"},{"bike_id":"2332862a-3884-4317-af82-ee9793e9b62c","system_id":"levelo_inurba_marseille","lat":43.24083,"lon":5.37757,"is_reserved":false,"is_disabled":true,"rental_uris":{"android":"levelo://app?vid=2332862a-3884-4317-af82-ee9793e9b62c","ios":"levelo://app?vid=2332862a-3884-4317-af82-ee9793e9b62c"},"vehicle_type_id":"4","last_reported":1736151182,"current_range_meters":8000,"station_id":"ce4bhnp2rcd13ifvqgvg","pricing_plan_id":"cebpf4jnsgd1na2vs0mg"},{"bike_id":"9a69e954-f575-483f-852c-2f23c9797df8","system_id":"levelo_inurba_marseille","lat":43.30162,"lon":5.38075,"is_reserved":false,"is_disabled":false,"rental_uris":{"android":"levelo://app?vid=9a69e954-f575-483f-852c-2f23c9797df8","ios":"levelo://app?vid=9a69e954-f575-483f-852c-2f23c9797df8"},"vehicle_type_id":"4","last_reported":1736151182,"current_range_meters":18000,"station_id":"ce4bgjp2rcd13ifvqbh0","pricing_plan_id":"cebpf4jnsgd1na2vs0mg"},{"bike_id":"6df4001c-2cbd-460a-8a1a-91496e0a14d1","system_id":"levelo_inurba_marseille","lat":43.25823,"lon":5.39433,"is_reserved":false,"is_disabled":false,"rental_uris":{"android":"levelo://app?vid=6df4001c-2cbd-460a-8a1a-91496e0a14d1","ios":"levelo://app?vid=6df4001c-2cbd-460a-8a1a-91496e0a14d1"},"vehicle_type_id":"4","last_reported":1736151182,"current_range_meters":28800,"station_id":"ce4bhip2rcd13ifvqft0","pricing_plan_id":"cebpf4jnsgd1na2vs0mg"},{"bike_id":"ba2b0799-90e5-436b-a8ac-d2a80ff5da69","system_id":"levelo_inurba_marseille","lat":43.24808,"lon":5.37474,"is_reserved":false,"is_disabled":false,"rental_uris":{"android":"levelo://app?vid=ba2b0799-90e5-436b-a8ac-d2a80ff5da69","ios":"levelo://app?vid=ba2b0799-90e5-436b-a8ac-d2a80ff5da69"},"vehicle_type_id":"4","last_reported":1736151182,"current_range_meters":38800,"station_id":"ce4bhgh2rcd13ifvqfb0","pricing_plan_id":"cebpf4jnsgd1na2vs0mg"},{"bike_id":"5b49bc9e-0372-4642-ba4e-6768062fc93f","system_id":"levelo_inurba_marseille","lat":43.30926,"lon":5.36855,"is_reserved":false,"is_disabled":false,"rental_uris":{"android":"levelo://app?vid=5b49bc9e-0372-4642-ba4e-6768062fc93f","ios":"levelo://app?vid=5b49bc9e-0372-4642-ba4e-6768062fc93f"},"vehicle_type_id":"4","last_reported":1736151182,"current_range_meters":38800,"station_id":"ce4bgn92rcd13ifvqbvg","pricing_plan_id":"cebpf4jnsgd1na2vs0mg"},{"bike_id":"dd34045c-9351-468b-86f7-2a551094493e","system_id":"levelo_inurba_marseille","lat":43.31271,"lon":5.40166,"is_reserved":false,"is_disabled":false,"rental_uris":{"android":"levelo://app?vid=dd34045c-9351-468b-86f7-2a551094493e","ios":"levelo://app?vid=dd34045c-9351-468b-86f7-2a551094493e"},"vehicle_type_id":"4","last_reported":1736151182,"current_range_meters":16800,"station_id":"ce4bh092rcd13ifvqd30","pricing_plan_id":"cebpf4jnsgd1na2vs0mg"},{"bike_id":"2d231d0c-2353-46f2-bc6b-28dcf8f04d06","system_id":"levelo_inurba_marseille","lat":43.30907,"lon":5.36885,"is_reserved":false,"is_disabled":false,"rental_uris":{"android":"levelo://app?vid=2d231d0c-2353-46f2-bc6b-28dcf8f04d06","ios":"levelo://app?vid=2d231d0c-2353-46f2-bc6b-28dcf8f04d06"},"vehicle_type_id":"4","last_reported":1736151182,"current_range_meters":19200,"station_id":"ce4bgn92rcd13ifvqbvg","pricing_plan_id":"cebpf4jnsgd1na2vs0mg"},{"bike_id":"e95bb54d-583b-4328-8deb-2f42d6df9b6c","system_id":"levelo_inurba_marseille","lat":43.29029,"lon":5.39989,"is_reserved":false,"is_disabled":false,"rental_uris":{"android":"levelo://app?vid=e95bb54d-583b-4328-8deb-2f42d6df9b6c","ios":"levelo://app?vid=e95bb54d-583b-4328-8deb-2f42d6df9b6c"},"vehicle_type_id":"4","last_reported":1736151182,"current_range_meters":34800,"station_id":"ce4bh392rcd13ifvqdm0","pricing_plan_id":"cebpf4jnsgd1na2vs0mg"},{"bike_id":"5d14871f-6090-4e01-b500-d52e9b299199","system_id":"levelo_inurba_marseille","lat":43.30949,"lon":5.39026,"is_reserved":false,"is_disabled":false,"rental_uris":{"android":"levelo://app?vid=5d14871f-6090-4e01-b500-d52e9b299199","ios":"levelo://app?vid=5d14871f-6090-4e01-b500-d52e9b299199"},"vehicle_type_id":"4","last_reported":1736151182,"current_range_meters":35600,"station_id":"ce4bgup2rcd13ifvqco0","pricing_plan_id":"cebpf4jnsgd1na2vs0mg"},{"bike_id":"cbc638ef-e540-4f9c-ac5d-e16032597628","system_id":"levelo_inurba_marseille","lat":43.29594,"lon":5.38092,"is_reserved":false,"is_disabled":true,"rental_uris":{"android":"levelo://app?vid=cbc638ef-e540-4f9c-ac5d-e16032597628","ios":"levelo://app?vid=cbc638ef-e540-4f9c-ac5d-e16032597628"},"vehicle_type_id":"4","last_reported":1736151182,"current_range_meters":34000,"station_id":"ce4bgl12rcd13ifvqbo0","pricing_plan_id":"cebpf4jnsgd1na2vs0mg"},{"bike_id":"83ed5566-50cc-4609-bfbd-9db921d7b546","system_id":"levelo_inurba_marseille","lat":43.306776,"lon":5.380543,"is_reserved":false,"is_disabled":false,"rental_uris":{"android":"levelo://app?vid=83ed5566-50cc-4609-bfbd-9db921d7b546","ios":"levelo://app?vid=83ed5566-50cc-4609-bfbd-9db921d7b546"},"vehicle_type_id":"4","last_reported":1736151182,"current_range_meters":32000,"station_id":"ce4bhnh2rcd13ifvqgtg","pricing_plan_id":"cebpf4jnsgd1na2vs0mg"},{"bike_id":"d52148ec-0461-4b23-80a1-1ab7d7c28dec","system_id":"levelo_inurba_marseille","lat":43.29273,"lon":5.40118,"is_reserved":false,"is_disabled":false,"rental_uris":{"android":"levelo://app?vid=d52148ec-0461-4b23-80a1-1ab7d7c28dec","ios":"levelo://app?vid=d52148ec-0461-4b23-80a1-1ab7d7c28dec"},"vehicle_type_id":"4","last_reported":1736151182,"current_range_meters":5600,"station_id":"ce4bh312rcd13ifvqdk0","pricing_plan_id":"cebpf4jnsgd1na2vs0mg"},{"bike_id":"5c15eb5a-5fab-488e-9813-35848fe95eb0","system_id":"levelo_inurba_marseille","lat":43.27067,"lon":5.42276,"is_reserved":false,"is_disabled":false,"rental_uris":{"android":"levelo://app?vid=5c15eb5a-5fab-488e-9813-35848fe95eb0","ios":"levelo://app?vid=5c15eb5a-5fab-488e-9813-35848fe95eb0"},"vehicle_type_id":"4","last_reported":1736151182,"current_range_meters":24800,"station_id":"ce4bhk92rcd13ifvqgb0","pricing_plan_id":"cebpf4jnsgd1na2vs0mg"},{"bike_id":"7f1ce4ed-0cd0-4d23-b89e-099e0df8c108","system_id":"levelo_inurba_marseille","lat":43.25717,"lon":5.41122,"is_reserved":false,"is_disabled":false,"rental_uris":{"android":"levelo://app?vid=7f1ce4ed-0cd0-4d23-b89e-099e0df8c108","ios":"levelo://app?vid=7f1ce4ed-0cd0-4d23-b89e-099e0df8c108"},"vehicle_type_id":"4","last_reported":1736151182,"current_range_meters":38000,"station_id":"ce4bhkp2rcd13ifvqgd0","pricing_plan_id":"cebpf4jnsgd1na2vs0mg"},{"bike_id":"97c194ad-bc0a-4c57-887e-dfdfccf5588d","system_id":"levelo_inurba_marseille","lat":43.30593,"lon":5.39352,"is_reserved":false,"is_disabled":false,"rental_uris":{"android":"levelo://app?vid=97c194ad-bc0a-4c57-887e-dfdfccf5588d","ios":"levelo://app?vid=97c194ad-bc0a-4c57-887e-dfdfccf5588d"},"vehicle_type_id":"4","last_reported":1736151182,"current_range_meters":38800,"station_id":"ce4bh0p2rcd13ifvqd80","pricing_plan_id":"cebpf4jnsgd1na2vs0mg"},{"bike_id":"f8142e8a-f886-4c5e-b399-88d8fa1c1d32","system_id":"levelo_inurba_marseille","lat":43.24799,"lon":5.38211,"is_reserved":false,"is_disabled":false,"rental_uris":{"android":"levelo://app?vid=f8142e8a-f886-4c5e-b399-88d8fa1c1d32","ios":"levelo://app?vid=f8142e8a-f886-4c5e-b399-88d8fa1c1d32"},"vehicle_type_id":"4","last_reported":1736151182,"current_range_meters":23200,"station_id":"ce4bhih2rcd13ifvqfr0","pricing_plan_id":"cebpf4jnsgd1na2vs0mg"},{"bike_id":"9642c178-7e48-4daf-882c-7261f72cc43a","system_id":"levelo_inurba_marseille","lat":43.30874,"lon":5.3966,"is_reserved":false,"is_disabled":false,"rental_uris":{"android":"levelo://app?vid=9642c178-7e48-4daf-882c-7261f72cc43a","ios":"levelo://app?vid=9642c178-7e48-4daf-882c-7261f72cc43a"},"vehicle_type_id":"4","last_reported":1736151182,"current_range_meters":17200,"station_id":"ce4bh012rcd13ifvqcv0","pricing_plan_id":"cebpf4jnsgd1na2vs0mg"},{"bike_id":"5acd51ab-33ae-465f-9994-b539f1713987","system_id":"levelo_inurba_marseille","lat":43.33751,"lon":5.39189,"is_reserved":false,"is_disabled":true,"rental_uris":{"android":"levelo://app?vid=5acd51ab-33ae-465f-9994-b539f1713987","ios":"levelo://app?vid=5acd51ab-33ae-465f-9994-b539f1713987"},"vehicle_type_id":"4","last_reported":1736151182,"current_range_meters":34000,"station_id":"ce4bhr92rcd13ifvqhsg","pricing_plan_id":"cebpf4jnsgd1na2vs0mg"},{"bike_id":"f3d41f41-839d-41a5-aa6d-f2ba87ff18f0","system_id":"levelo_inurba_marseille","lat":43.24086,"lon":5.37743,"is_reserved":false,"is_disabled":true,"rental_uris":{"android":"levelo://app?vid=f3d41f41-839d-41a5-aa6d-f2ba87ff18f0","ios":"levelo://app?vid=f3d41f41-839d-41a5-aa6d-f2ba87ff18f0"},"vehicle_type_id":"4","last_reported":1736151182,"current_range_meters":36400,"station_id":"ce4bhnp2rcd13ifvqgvg","pricing_plan_id":"cebpf4jnsgd1na2vs0mg"},{"bike_id":"7a642d60-3ea7-4aa8-9bb5-5f10b3beea02","system_id":"levelo_inurba_marseille","lat":43.32259,"lon":5.38291,"is_reserved":false,"is_disabled":false,"rental_uris":{"android":"levelo://app?vid=7a642d60-3ea7-4aa8-9bb5-5f10b3beea02","ios":"levelo://app?vid=7a642d60-3ea7-4aa8-9bb5-5f10b3beea02"},"vehicle_type_id":"4","last_reported":1736151182,"current_range_meters":38800,"station_id":"ce4bhr12rcd13ifvqhqg","pricing_plan_id":"cebpf4jnsgd1na2vs0mg"},{"bike_id":"5a231d4e-1469-4389-a9bc-0d65fec09d5f","system_id":"levelo_inurba_marseille","lat":43.283,"lon":5.43319,"is_reserved":false,"is_disabled":false,"rental_uris":{"android":"levelo://app?vid=5a231d4e-1469-4389-a9bc-0d65fec09d5f","ios":"levelo://app?vid=5a231d4e-1469-4389-a9bc-0d65fec09d5f"},"vehicle_type_id":"4","last_reported":1736151182,"current_range_meters":10000,"station_id":"","pricing_plan_id":"cebpf4jnsgd1na2vs0mg"},{"bike_id":"ae6d41e5-4b94-4495-98dc-268a5104df03","system_id":"levelo_inurba_marseille","lat":43.31494,"lon":5.37309,"is_reserved":false,"is_disabled":false,"rental_uris":{"android":"levelo://app?vid=ae6d41e5-4b94-4495-98dc-268a5104df03","ios":"levelo://app?vid=ae6d41e5-4b94-4495-98dc-268a5104df03"},"vehicle_type_id":"4","last_reported":1736151182,"current_range_meters":36400,"station_id":"ce4bgt12rcd13ifvqcd0","pricing_plan_id":"cebpf4jnsgd1na2vs0mg"},{"bike_id":"bab376a2-3ba0-43a3-a60d-b5a59c40e0bc","system_id":"levelo_inurba_marseille","lat":43.29272,"lon":5.40912,"is_reserved":false,"is_disabled":true,"rental_uris":{"android":"levelo://app?vid=bab376a2-3ba0-43a3-a60d-b5a59c40e0bc","ios":"levelo://app?vid=bab376a2-3ba0-43a3-a60d-b5a59c40e0bc"},"vehicle_type_id":"4","last_reported":1736151182,"current_range_meters":22800,"station_id":"ce4bh192rcd13ifvqdc0","pricing_plan_id":"cebpf4jnsgd1na2vs0mg"},{"bike_id":"7b78d5e2-5142-402d-a4f8-0f3037a6c533","system_id":"levelo_inurba_marseille","lat":43.2694,"lon":5.38631,"is_reserved":false,"is_disabled":true,"rental_uris":{"android":"levelo://app?vid=7b78d5e2-5142-402d-a4f8-0f3037a6c533","ios":"levelo://app?vid=7b78d5e2-5142-402d-a4f8-0f3037a6c533"},"vehicle_type_id":"4","last_reported":1736151182,"current_range_meters":37600,"station_id":"ce4bhh92rcd13ifvqfh0","pricing_plan_id":"cebpf4jnsgd1na2vs0mg"},{"bike_id":"2f33d4dd-c94f-41e6-bce5-42d4c6341eb0","system_id":"levelo_inurba_marseille","lat":43.29892,"lon":5.43676,"is_reserved":false,"is_disabled":false,"rental_uris":{"android":"levelo://app?vid=2f33d4dd-c94f-41e6-bce5-42d4c6341eb0","ios":"levelo://app?vid=2f33d4dd-c94f-41e6-bce5-42d4c6341eb0"},"vehicle_type_id":"4","last_reported":1736151182,"current_range_meters":30000,"station_id":"ce4bhpp2rcd13ifvqhfg","pricing_plan_id":"cebpf4jnsgd1na2vs0mg"},{"bike_id":"d0d21930-fe1d-478b-8251-bcf89564599d","system_id":"levelo_inurba_marseille","lat":43.29551,"lon":5.42277,"is_reserved":false,"is_disabled":false,"rental_uris":{"android":"levelo://app?vid=d0d21930-fe1d-478b-8251-bcf89564599d","ios":"levelo://app?vid=d0d21930-fe1d-478b-8251-bcf89564599d"},"vehicle_type_id":"4","last_reported":1736151182,"current_range_meters":24800,"station_id":"ce4bhph2rcd13ifvqhdg","pricing_plan_id":"cebpf4jnsgd1na2vs0mg"},{"bike_id":"793e61cf-3f17-4ddb-a802-7a02054d1a95","system_id":"levelo_inurba_marseille","lat":43.2314,"lon":5.43719,"is_reserved":false,"is_disabled":false,"rental_uris":{"android":"levelo://app?vid=793e61cf-3f17-4ddb-a802-7a02054d1a95","ios":"levelo://app?vid=793e61cf-3f17-4ddb-a802-7a02054d1a95"},"vehicle_type_id":"4","last_reported":1736151182,"current_range_meters":39200,"station_id":"ce4bhmp2rcd13ifvqgog","pricing_plan_id":"cebpf4jnsgd1na2vs0mg"},{"bike_id":"7280ad2a-98b8-469f-88a2-0cc12e42033e","system_id":"levelo_inurba_marseille","lat":43.2837,"lon":5.38645,"is_reserved":false,"is_disabled":false,"rental_uris":{"android":"levelo://app?vid=7280ad2a-98b8-469f-88a2-0cc12e42033e","ios":"levelo://app?vid=7280ad2a-98b8-469f-88a2-0cc12e42033e"},"vehicle_type_id":"4","last_reported":1736151182,"current_range_meters":35600,"station_id":"ce4bh492rcd13ifvqdvg","pricing_plan_id":"cebpf4jnsgd1na2vs0mg"},{"bike_id":"0ca9f1ed-7278-4491-949d-86ca3eae7e1c","system_id":"levelo_inurba_marseille","lat":43.28967,"lon":5.37827,"is_reserved":false,"is_disabled":false,"rental_uris":{"android":"levelo://app?vid=0ca9f1ed-7278-4491-949d-86ca3eae7e1c","ios":"levelo://app?vid=0ca9f1ed-7278-4491-949d-86ca3eae7e1c"},"vehicle_type_id":"4","last_reported":1736151182,"current_range_meters":23200,"station_id":"ce4bh9p2rcd13ifvqed0","pricing_plan_id":"cebpf4jnsgd1na2vs0mg"},{"bike_id":"41362472-f79e-4cfa-aad7-dd33310824b0","system_id":"levelo_inurba_marseille","lat":43.33792,"lon":5.3917,"is_reserved":false,"is_disabled":false,"rental_uris":{"android":"levelo://app?vid=41362472-f79e-4cfa-aad7-dd33310824b0","ios":"levelo://app?vid=41362472-f79e-4cfa-aad7-dd33310824b0"},"vehicle_type_id":"4","last_reported":1736151182,"current_range_meters":38400,"station_id":"ce4bhr92rcd13ifvqhsg","pricing_plan_id":"cebpf4jnsgd1na2vs0mg"},{"bike_id":"379ee87b-9546-4b9b-bc88-fb82b4e4ce0d","system_id":"levelo_inurba_marseille","lat":43.31379,"lon":5.38515,"is_reserved":false,"is_disabled":false,"rental_uris":{"android":"levelo://app?vid=379ee87b-9546-4b9b-bc88-fb82b4e4ce0d","ios":"levelo://app?vid=379ee87b-9546-4b9b-bc88-fb82b4e4ce0d"},"vehicle_type_id":"4","last_reported":1736151182,"current_range_meters":22800,"station_id":"ce4bgt92rcd13ifvqcf0","pricing_plan_id":"cebpf4jnsgd1na2vs0mg"},{"bike_id":"569c0e07-1419-4914-b870-00b0f2f58196","system_id":"levelo_inurba_marseille","lat":43.29587,"lon":5.38105,"is_reserved":false,"is_disabled":false,"rental_uris":{"android":"levelo://app?vid=569c0e07-1419-4914-b870-00b0f2f58196","ios":"levelo://app?vid=569c0e07-1419-4914-b870-00b0f2f58196"},"vehicle_type_id":"4","last_reported":1736151182,"current_range_meters":38800,"station_id":"ce4bgl12rcd13ifvqbo0","pricing_plan_id":"cebpf4jnsgd1na2vs0mg"},{"bike_id":"3765ee58-e379-4bd9-814f-ac9fd13b68c9","system_id":"levelo_inurba_marseille","lat":43.30891,"lon":5.37196,"is_reserved":false,"is_disabled":false,"rental_uris":{"android":"levelo://app?vid=3765ee58-e379-4bd9-814f-ac9fd13b68c9","ios":"levelo://app?vid=3765ee58-e379-4bd9-814f-ac9fd13b68c9"},"vehicle_type_id":"4","last_reported":1736151182,"current_range_meters":11200,"station_id":"ce4bguh2rcd13ifvqckg","pricing_plan_id":"cebpf4jnsgd1na2vs0mg"},{"bike_id":"466fb050-ffa0-42b0-b696-6ed2b9dbb6db","system_id":"levelo_inurba_marseille","lat":43.24073,"lon":5.37764,"is_reserved":false,"is_disabled":false,"rental_uris":{"android":"levelo://app?vid=466fb050-ffa0-42b0-b696-6ed2b9dbb6db","ios":"levelo://app?vid=466fb050-ffa0-42b0-b696-6ed2b9dbb6db"},"vehicle_type_id":"4","last_reported":1736151182,"current_range_meters":6400,"station_id":"ce4bhnp2rcd13ifvqgvg","pricing_plan_id":"cebpf4jnsgd1na2vs0mg"},{"bike_id":"014411df-20bd-4572-85be-a67bda909058","system_id":"levelo_inurba_marseille","lat":43.29559,"lon":5.42291,"is_reserved":false,"is_disabled":false,"rental_uris":{"android":"levelo://app?vid=014411df-20bd-4572-85be-a67bda909058","ios":"levelo://app?vid=014411df-20bd-4572-85be-a67bda909058"},"vehicle_type_id":"4","last_reported":1736151182,"current_range_meters":12000,"station_id":"ce4bhph2rcd13ifvqhdg","pricing_plan_id":"cebpf4jnsgd1na2vs0mg"},{"bike_id":"3ea93760-c4b6-4cff-8cc2-3391799ff4b1","system_id":"levelo_inurba_marseille","lat":43.30811,"lon":5.3816,"is_reserved":false,"is_disabled":true,"rental_uris":{"android":"levelo://app?vid=3ea93760-c4b6-4cff-8cc2-3391799ff4b1","ios":"levelo://app?vid=3ea93760-c4b6-4cff-8cc2-3391799ff4b1"},"vehicle_type_id":"4","last_reported":1736151182,"current_range_meters":32800,"station_id":"ce4bgt12rcd13ifvqce0","pricing_plan_id":"cebpf4jnsgd1na2vs0mg"},{"bike_id":"8785ddf2-7225-4c15-a282-1f8baeace2a7","system_id":"levelo_inurba_marseille","lat":43.26061,"lon":5.39396,"is_reserved":false,"is_disabled":false,"rental_uris":{"android":"levelo://app?vid=8785ddf2-7225-4c15-a282-1f8baeace2a7","ios":"levelo://app?vid=8785ddf2-7225-4c15-a282-1f8baeace2a7"},"vehicle_type_id":"4","last_reported":1736151182,"current_range_meters":23200,"station_id":"ce4bhh92rcd13ifvqfj0","pricing_plan_id":"cebpf4jnsgd1na2vs0mg"},{"bike_id":"4d7727df-ac8f-431e-a279-50fc8c6a1628","system_id":"levelo_inurba_marseille","lat":43.31491,"lon":5.37302,"is_reserved":false,"is_disabled":false,"rental_uris":{"android":"levelo://app?vid=4d7727df-ac8f-431e-a279-50fc8c6a1628","ios":"levelo://app?vid=4d7727df-ac8f-431e-a279-50fc8c6a1628"},"vehicle_type_id":"4","last_reported":1736151182,"current_range_meters":30000,"station_id":"ce4bgt12rcd13ifvqcd0","pricing_plan_id":"cebpf4jnsgd1na2vs0mg"},{"bike_id":"3a0c12ee-5efc-45d1-a045-563e5d5f92cb","system_id":"levelo_inurba_marseille","lat":43.2834,"lon":5.38099,"is_reserved":false,"is_disabled":false,"rental_uris":{"android":"levelo://app?vid=3a0c12ee-5efc-45d1-a045-563e5d5f92cb","ios":"levelo://app?vid=3a0c12ee-5efc-45d1-a045-563e5d5f92cb"},"vehicle_type_id":"4","last_reported":1736151182,"current_range_meters":16400,"station_id":"ce4bh412rcd13ifvqdr0","pricing_plan_id":"cebpf4jnsgd1na2vs0mg"},{"bike_id":"ab2f7c8c-3291-47ce-a495-87155f126c92","system_id":"levelo_inurba_marseille","lat":43.30528,"lon":5.36718,"is_reserved":false,"is_disabled":false,"rental_uris":{"android":"levelo://app?vid=ab2f7c8c-3291-47ce-a495-87155f126c92","ios":"levelo://app?vid=ab2f7c8c-3291-47ce-a495-87155f126c92"},"vehicle_type_id":"4","last_reported":1736151182,"current_range_meters":30800,"station_id":"ce4bgrp2rcd13ifvqc9g","pricing_plan_id":"cebpf4jnsgd1na2vs0mg"},{"bike_id":"2e1a7ef8-9957-4629-97f1-5544c29f7c0c","system_id":"levelo_inurba_marseille","lat":43.29921,"lon":5.37492,"is_reserved":false,"is_disabled":false,"rental_uris":{"android":"levelo://app?vid=2e1a7ef8-9957-4629-97f1-5544c29f7c0c","ios":"levelo://app?vid=2e1a7ef8-9957-4629-97f1-5544c29f7c0c"},"vehicle_type_id":"4","last_reported":1736151182,"current_range_meters":35200,"station_id":"ce4bgjh2rcd13ifvqbg0","pricing_plan_id":"cebpf4jnsgd1na2vs0mg"},{"bike_id":"debe4c5f-4743-4cfb-88bd-9bd4502d24d0","system_id":"levelo_inurba_marseille","lat":43.29716,"lon":5.36611,"is_reserved":false,"is_disabled":false,"rental_uris":{"android":"levelo://app?vid=debe4c5f-4743-4cfb-88bd-9bd4502d24d0","ios":"levelo://app?vid=debe4c5f-4743-4cfb-88bd-9bd4502d24d0"},"vehicle_type_id":"4","last_reported":1736151182,"current_range_meters":9200,"station_id":"ce4bgn12rcd13ifvqbt0","pricing_plan_id":"cebpf4jnsgd1na2vs0mg"},{"bike_id":"70b0bf8f-0c23-42c5-ae5d-113172a1825c","system_id":"levelo_inurba_marseille","lat":43.24069,"lon":5.37744,"is_reserved":false,"is_disabled":false,"rental_uris":{"android":"levelo://app?vid=70b0bf8f-0c23-42c5-ae5d-113172a1825c","ios":"levelo://app?vid=70b0bf8f-0c23-42c5-ae5d-113172a1825c"},"vehicle_type_id":"4","last_reported":1736151182,"current_range_meters":31200,"station_id":"ce4bhnp2rcd13ifvqgvg","pricing_plan_id":"cebpf4jnsgd1na2vs0mg"},{"bike_id":"047a6822-5a3d-450a-bfd4-f1d5de8bc030","system_id":"levelo_inurba_marseille","lat":43.24068,"lon":5.37757,"is_reserved":false,"is_disabled":false,"rental_uris":{"android":"levelo://app?vid=047a6822-5a3d-450a-bfd4-f1d5de8bc030","ios":"levelo://app?vid=047a6822-5a3d-450a-bfd4-f1d5de8bc030"},"vehicle_type_id":"4","last_reported":1736151182,"current_range_meters":6400,"station_id":"ce4bhnp2rcd13ifvqgvg","pricing_plan_id":"cebpf4jnsgd1na2vs0mg"},{"bike_id":"df7eb6fa-4209-4d04-be84-91f6dd7239e4","system_id":"levelo_inurba_marseille","lat":43.28941,"lon":5.39628,"is_reserved":false,"is_disabled":false,"rental_uris":{"android":"levelo://app?vid=df7eb6fa-4209-4d04-be84-91f6dd7239e4","ios":"levelo://app?vid=df7eb6fa-4209-4d04-be84-91f6dd7239e4"},"vehicle_type_id":"4","last_reported":1736151182,"current_range_meters":34800,"station_id":"ce4bh3h2rcd13ifvqdn0","pricing_plan_id":"cebpf4jnsgd1na2vs0mg"},{"bike_id":"f1f9d610-76bc-4701-a5c1-9ea29702f650","system_id":"levelo_inurba_marseille","lat":43.30907,"lon":5.36845,"is_reserved":false,"is_disabled":false,"rental_uris":{"android":"levelo://app?vid=f1f9d610-76bc-4701-a5c1-9ea29702f650","ios":"levelo://app?vid=f1f9d610-76bc-4701-a5c1-9ea29702f650"},"vehicle_type_id":"4","last_reported":1736151182,"current_range_meters":24800,"station_id":"ce4bgn92rcd13ifvqbvg","pricing_plan_id":"cebpf4jnsgd1na2vs0mg"},{"bike_id":"6a595de3-0911-46a9-bdbf-4cca5437105e","system_id":"levelo_inurba_marseille","lat":43.231949,"lon":5.355452,"is_reserved":false,"is_disabled":false,"rental_uris":{"android":"levelo://app?vid=6a595de3-0911-46a9-bdbf-4cca5437105e","ios":"levelo://app?vid=6a595de3-0911-46a9-bdbf-4cca5437105e"},"vehicle_type_id":"4","last_reported":1736151182,"current_range_meters":22400,"station_id":"ce4bhu92rcd13ifvqi70","pricing_plan_id":"cebpf4jnsgd1na2vs0mg"},{"bike_id":"641d8acc-50b2-4173-ab23-c70f2a11d28e","system_id":"levelo_inurba_marseille","lat":43.28148,"lon":5.42646,"is_reserved":false,"is_disabled":true,"rental_uris":{"android":"levelo://app?vid=641d8acc-50b2-4173-ab23-c70f2a11d28e","ios":"levelo://app?vid=641d8acc-50b2-4173-ab23-c70f2a11d28e"},"vehicle_type_id":"4","last_reported":1736151182,"current_range_meters":28400,"station_id":"ce4bhnh2rcd13ifvqgug","pricing_plan_id":"cebpf4jnsgd1na2vs0mg"},{"bike_id":"5e1410a8-2898-4c41-8f96-f8d8591cd1e8","system_id":"levelo_inurba_marseille","lat":43.28455,"lon":5.39203,"is_reserved":false,"is_disabled":true,"rental_uris":{"android":"levelo://app?vid=5e1410a8-2898-4c41-8f96-f8d8591cd1e8","ios":"levelo://app?vid=5e1410a8-2898-4c41-8f96-f8d8591cd1e8"},"vehicle_type_id":"4","last_reported":1736151182,"current_range_meters":33600,"station_id":"ce4bhoh2rcd13ifvqh5g","pricing_plan_id":"cebpf4jnsgd1na2vs0mg"},{"bike_id":"15e503f5-1d52-42d6-a98f-33a61fd8b554","system_id":"levelo_inurba_marseille","lat":43.28458,"lon":5.35895,"is_reserved":false,"is_disabled":true,"rental_uris":{"android":"levelo://app?vid=15e503f5-1d52-42d6-a98f-33a61fd8b554","ios":"levelo://app?vid=15e503f5-1d52-42d6-a98f-33a61fd8b554"},"vehicle_type_id":"4","last_reported":1736151182,"current_range_meters":23200,"station_id":"ce4bhah2rcd13ifvqei0","pricing_plan_id":"cebpf4jnsgd1na2vs0mg"},{"bike_id":"6a6cde56-543d-4320-b530-a8d4d4944794","system_id":"levelo_inurba_marseille","lat":43.29901,"lon":5.43662,"is_reserved":false,"is_disabled":false,"rental_uris":{"android":"levelo://app?vid=6a6cde56-543d-4320-b530-a8d4d4944794","ios":"levelo://app?vid=6a6cde56-543d-4320-b530-a8d4d4944794"},"vehicle_type_id":"4","last_reported":1736151182,"current_range_meters":25200,"station_id":"ce4bhpp2rcd13ifvqhfg","pricing_plan_id":"cebpf4jnsgd1na2vs0mg"},{"bike_id":"73592c3a-584f-4d66-b4b1-5f9363f590c2","system_id":"levelo_inurba_marseille","lat":43.30887,"lon":5.3688,"is_reserved":false,"is_disabled":false,"rental_uris":{"android":"levelo://app?vid=73592c3a-584f-4d66-b4b1-5f9363f590c2","ios":"levelo://app?vid=73592c3a-584f-4d66-b4b1-5f9363f590c2"},"vehicle_type_id":"4","last_reported":1736151182,"current_range_meters":36000,"station_id":"ce4bgn92rcd13ifvqbvg","pricing_plan_id":"cebpf4jnsgd1na2vs0mg"},{"bike_id":"88fbd2f9-edba-4674-927d-ce8a9c56a0e7","system_id":"levelo_inurba_marseille","lat":43.28151,"lon":5.42638,"is_reserved":false,"is_disabled":false,"rental_uris":{"android":"levelo://app?vid=88fbd2f9-edba-4674-927d-ce8a9c56a0e7","ios":"levelo://app?vid=88fbd2f9-edba-4674-927d-ce8a9c56a0e7"},"vehicle_type_id":"4","last_reported":1736151182,"current_range_meters":28400,"station_id":"ce4bhnh2rcd13ifvqgug","pricing_plan_id":"cebpf4jnsgd1na2vs0mg"},{"bike_id":"7a600684-eb0b-45d7-9636-59a3e2e6490c","system_id":"levelo_inurba_marseille","lat":43.279545,"lon":5.38718,"is_reserved":false,"is_disabled":true,"rental_uris":{"android":"levelo://app?vid=7a600684-eb0b-45d7-9636-59a3e2e6490c","ios":"levelo://app?vid=7a600684-eb0b-45d7-9636-59a3e2e6490c"},"vehicle_type_id":"4","last_reported":1736151182,"current_range_meters":30400,"station_id":"ce4bhg12rcd13ifvqf80","pricing_plan_id":"cebpf4jnsgd1na2vs0mg"},{"bike_id":"1d0bbe0f-f700-4582-ac8d-9f2887749fbf","system_id":"levelo_inurba_marseille","lat":43.28467,"lon":5.38442,"is_reserved":false,"is_disabled":true,"rental_uris":{"android":"levelo://app?vid=1d0bbe0f-f700-4582-ac8d-9f2887749fbf","ios":"levelo://app?vid=1d0bbe0f-f700-4582-ac8d-9f2887749fbf"},"vehicle_type_id":"4","last_reported":1736151182,"current_range_meters":38000,"station_id":"ce4bh512rcd13ifvqe3g","pricing_plan_id":"cebpf4jnsgd1na2vs0mg"},{"bike_id":"4c80bb1a-a897-4d0c-bf1e-4fea0e939916","system_id":"levelo_inurba_marseille","lat":43.25933,"lon":5.40913,"is_reserved":false,"is_disabled":false,"rental_uris":{"android":"levelo://app?vid=4c80bb1a-a897-4d0c-bf1e-4fea0e939916","ios":"levelo://app?vid=4c80bb1a-a897-4d0c-bf1e-4fea0e939916"},"vehicle_type_id":"4","last_reported":1736151182,"current_range_meters":35200,"station_id":"ce4bhm92rcd13ifvqglg","pricing_plan_id":"cebpf4jnsgd1na2vs0mg"},{"bike_id":"cc2efdd1-beaf-4fd4-918b-092fd4e8fead","system_id":"levelo_inurba_marseille","lat":43.2415,"lon":5.39748,"is_reserved":false,"is_disabled":false,"rental_uris":{"android":"levelo://app?vid=cc2efdd1-beaf-4fd4-918b-092fd4e8fead","ios":"levelo://app?vid=cc2efdd1-beaf-4fd4-918b-092fd4e8fead"},"vehicle_type_id":"4","last_reported":1736151182,"current_range_meters":16800,"station_id":"ce4bhn12rcd13ifvqgpg","pricing_plan_id":"cebpf4jnsgd1na2vs0mg"},{"bike_id":"c0430a3e-098b-4436-8736-05aa34a70f80","system_id":"levelo_inurba_marseille","lat":43.31336,"lon":5.36755,"is_reserved":false,"is_disabled":false,"rental_uris":{"android":"levelo://app?vid=c0430a3e-098b-4436-8736-05aa34a70f80","ios":"levelo://app?vid=c0430a3e-098b-4436-8736-05aa34a70f80"},"vehicle_type_id":"4","last_reported":1736151182,"current_range_meters":30800,"station_id":"ce4bgr92rcd13ifvqc6g","pricing_plan_id":"cebpf4jnsgd1na2vs0mg"},{"bike_id":"c80cec36-d313-41ad-bf5e-908a22a7fd56","system_id":"levelo_inurba_marseille","lat":43.24066,"lon":5.37757,"is_reserved":false,"is_disabled":false,"rental_uris":{"android":"levelo://app?vid=c80cec36-d313-41ad-bf5e-908a22a7fd56","ios":"levelo://app?vid=c80cec36-d313-41ad-bf5e-908a22a7fd56"},"vehicle_type_id":"4","last_reported":1736151182,"current_range_meters":14000,"station_id":"ce4bhnp2rcd13ifvqgvg","pricing_plan_id":"cebpf4jnsgd1na2vs0mg"},{"bike_id":"237eb7a7-7331-4631-9377-6cdbdc6e4e98","system_id":"levelo_inurba_marseille","lat":43.26564,"lon":5.38998,"is_reserved":false,"is_disabled":true,"rental_uris":{"android":"levelo://app?vid=237eb7a7-7331-4631-9377-6cdbdc6e4e98","ios":"levelo://app?vid=237eb7a7-7331-4631-9377-6cdbdc6e4e98"},"vehicle_type_id":"4","last_reported":1736151182,"current_range_meters":36400,"station_id":"ce4bhe12rcd13ifvqf30","pricing_plan_id":"cebpf4jnsgd1na2vs0mg"},{"bike_id":"6a7cb538-922f-4c04-bf28-40b02fe3e5a8","system_id":"levelo_inurba_marseille","lat":43.2961,"lon":5.38105,"is_reserved":false,"is_disabled":false,"rental_uris":{"android":"levelo://app?vid=6a7cb538-922f-4c04-bf28-40b02fe3e5a8","ios":"levelo://app?vid=6a7cb538-922f-4c04-bf28-40b02fe3e5a8"},"vehicle_type_id":"4","last_reported":1736151182,"current_range_meters":34000,"station_id":"ce4bgl12rcd13ifvqbo0","pricing_plan_id":"cebpf4jnsgd1na2vs0mg"},{"bike_id":"2a8f187b-57d8-4299-8fc9-c77b04f1e8d6","system_id":"levelo_inurba_marseille","lat":43.30953,"lon":5.39028,"is_reserved":false,"is_disabled":false,"rental_uris":{"android":"levelo://app?vid=2a8f187b-57d8-4299-8fc9-c77b04f1e8d6","ios":"levelo://app?vid=2a8f187b-57d8-4299-8fc9-c77b04f1e8d6"},"vehicle_type_id":"4","last_reported":1736151182,"current_range_meters":33200,"station_id":"ce4bgup2rcd13ifvqco0","pricing_plan_id":"cebpf4jnsgd1na2vs0mg"},{"bike_id":"fbc601f7-14c3-4af3-aa81-d6625e5cbef9","system_id":"levelo_inurba_marseille","lat":43.30616,"lon":5.39331,"is_reserved":false,"is_disabled":false,"rental_uris":{"android":"levelo://app?vid=fbc601f7-14c3-4af3-aa81-d6625e5cbef9","ios":"levelo://app?vid=fbc601f7-14c3-4af3-aa81-d6625e5cbef9"},"vehicle_type_id":"4","last_reported":1736151182,"current_range_meters":38000,"station_id":"ce4bh0p2rcd13ifvqd80","pricing_plan_id":"cebpf4jnsgd1na2vs0mg"},{"bike_id":"983a939f-0c90-4b41-8e07-1ba37a328643","system_id":"levelo_inurba_marseille","lat":43.24162,"lon":5.36407,"is_reserved":false,"is_disabled":false,"rental_uris":{"android":"levelo://app?vid=983a939f-0c90-4b41-8e07-1ba37a328643","ios":"levelo://app?vid=983a939f-0c90-4b41-8e07-1ba37a328643"},"vehicle_type_id":"4","last_reported":1736151182,"current_range_meters":16800,"station_id":"cpo36qri1sfpv3e86is0","pricing_plan_id":"cebpf4jnsgd1na2vs0mg"},{"bike_id":"e92918ec-92c9-453f-8a2f-aeaed83ac5fd","system_id":"levelo_inurba_marseille","lat":43.24088,"lon":5.37739,"is_reserved":false,"is_disabled":true,"rental_uris":{"android":"levelo://app?vid=e92918ec-92c9-453f-8a2f-aeaed83ac5fd","ios":"levelo://app?vid=e92918ec-92c9-453f-8a2f-aeaed83ac5fd"},"vehicle_type_id":"4","last_reported":1736151182,"current_range_meters":38000,"station_id":"ce4bhnp2rcd13ifvqgvg","pricing_plan_id":"cebpf4jnsgd1na2vs0mg"},{"bike_id":"5d29420c-b1c8-45b0-9ee6-06a4b77d99e1","system_id":"levelo_inurba_marseille","lat":43.31171,"lon":5.38714,"is_reserved":false,"is_disabled":false,"rental_uris":{"android":"levelo://app?vid=5d29420c-b1c8-45b0-9ee6-06a4b77d99e1","ios":"levelo://app?vid=5d29420c-b1c8-45b0-9ee6-06a4b77d99e1"},"vehicle_type_id":"4","last_reported":1736151182,"current_range_meters":31200,"station_id":"ce4bgv12rcd13ifvqcp0","pricing_plan_id":"cebpf4jnsgd1na2vs0mg"},{"bike_id":"975f2b5c-b033-470a-bec5-d0b14bdf9744","system_id":"levelo_inurba_marseille","lat":43.28728,"lon":5.37914,"is_reserved":false,"is_disabled":false,"rental_uris":{"android":"levelo://app?vid=975f2b5c-b033-470a-bec5-d0b14bdf9744","ios":"levelo://app?vid=975f2b5c-b033-470a-bec5-d0b14bdf9744"},"vehicle_type_id":"4","last_reported":1736151182,"current_range_meters":32400,"station_id":"ce4bh9p2rcd13ifvqec0","pricing_plan_id":"cebpf4jnsgd1na2vs0mg"},{"bike_id":"794820a8-3ae3-4e47-b94b-63ea56986ff5","system_id":"levelo_inurba_marseille","lat":43.29559,"lon":5.42271,"is_reserved":false,"is_disabled":false,"rental_uris":{"android":"levelo://app?vid=794820a8-3ae3-4e47-b94b-63ea56986ff5","ios":"levelo://app?vid=794820a8-3ae3-4e47-b94b-63ea56986ff5"},"vehicle_type_id":"4","last_reported":1736151182,"current_range_meters":18000,"station_id":"ce4bhph2rcd13ifvqhdg","pricing_plan_id":"cebpf4jnsgd1na2vs0mg"},{"bike_id":"a3684cb1-04c8-4ef2-bc67-1ac0cdd44f1d","system_id":"levelo_inurba_marseille","lat":43.31488,"lon":5.37308,"is_reserved":false,"is_disabled":false,"rental_uris":{"android":"levelo://app?vid=a3684cb1-04c8-4ef2-bc67-1ac0cdd44f1d","ios":"levelo://app?vid=a3684cb1-04c8-4ef2-bc67-1ac0cdd44f1d"},"vehicle_type_id":"4","last_reported":1736151182,"current_range_meters":35600,"station_id":"ce4bgt12rcd13ifvqcd0","pricing_plan_id":"cebpf4jnsgd1na2vs0mg"},{"bike_id":"cca2f7c7-45e7-4f8a-80d9-cffca2b70c93","system_id":"levelo_inurba_marseille","lat":43.26686,"lon":5.38259,"is_reserved":false,"is_disabled":true,"rental_uris":{"android":"levelo://app?vid=cca2f7c7-45e7-4f8a-80d9-cffca2b70c93","ios":"levelo://app?vid=cca2f7c7-45e7-4f8a-80d9-cffca2b70c93"},"vehicle_type_id":"4","last_reported":1736151182,"current_range_meters":36800,"station_id":"ce4bhg92rcd13ifvqf90","pricing_plan_id":"cebpf4jnsgd1na2vs0mg"},{"bike_id":"f2428d1a-3fb9-49d2-834e-96d8c7d32e18","system_id":"levelo_inurba_marseille","lat":43.29296,"lon":5.3746,"is_reserved":false,"is_disabled":false,"rental_uris":{"android":"levelo://app?vid=f2428d1a-3fb9-49d2-834e-96d8c7d32e18","ios":"levelo://app?vid=f2428d1a-3fb9-49d2-834e-96d8c7d32e18"},"vehicle_type_id":"4","last_reported":1736151182,"current_range_meters":34000,"station_id":"ce4bgi12rcd13ifvqb70","pricing_plan_id":"cebpf4jnsgd1na2vs0mg"},{"bike_id":"60225017-b8f2-4296-95f0-16d8b3d31e65","system_id":"levelo_inurba_marseille","lat":43.30925,"lon":5.40136,"is_reserved":false,"is_disabled":false,"rental_uris":{"android":"levelo://app?vid=60225017-b8f2-4296-95f0-16d8b3d31e65","ios":"levelo://app?vid=60225017-b8f2-4296-95f0-16d8b3d31e65"},"vehicle_type_id":"4","last_reported":1736151182,"current_range_meters":30400,"station_id":"ce4bgvp2rcd13ifvqct0","pricing_plan_id":"cebpf4jnsgd1na2vs0mg"},{"bike_id":"de61784b-9926-4849-b558-4384f26dad49","system_id":"levelo_inurba_marseille","lat":43.28476,"lon":5.38436,"is_reserved":false,"is_disabled":true,"rental_uris":{"android":"levelo://app?vid=de61784b-9926-4849-b558-4384f26dad49","ios":"levelo://app?vid=de61784b-9926-4849-b558-4384f26dad49"},"vehicle_type_id":"4","last_reported":1736151182,"current_range_meters":38000,"station_id":"ce4bh512rcd13ifvqe3g","pricing_plan_id":"cebpf4jnsgd1na2vs0mg"},{"bike_id":"ddf01219-50df-41a7-915e-92bf35ba3207","system_id":"levelo_inurba_marseille","lat":43.24075,"lon":5.37752,"is_reserved":false,"is_disabled":false,"rental_uris":{"android":"levelo://app?vid=ddf01219-50df-41a7-915e-92bf35ba3207","ios":"levelo://app?vid=ddf01219-50df-41a7-915e-92bf35ba3207"},"vehicle_type_id":"4","last_reported":1736151182,"current_range_meters":28400,"station_id":"ce4bhnp2rcd13ifvqgvg","pricing_plan_id":"cebpf4jnsgd1na2vs0mg"},{"bike_id":"182c8827-ad8b-4aa6-9862-5b2da55309dc","system_id":"levelo_inurba_marseille","lat":43.2922,"lon":5.36053,"is_reserved":false,"is_disabled":true,"rental_uris":{"android":"levelo://app?vid=182c8827-ad8b-4aa6-9862-5b2da55309dc","ios":"levelo://app?vid=182c8827-ad8b-4aa6-9862-5b2da55309dc"},"vehicle_type_id":"4","last_reported":1736151182,"current_range_meters":36400,"station_id":"ce4bhbh2rcd13ifvqeqg","pricing_plan_id":"cebpf4jnsgd1na2vs0mg"},{"bike_id":"398a13b0-ef49-454b-83a9-2e7882108f18","system_id":"levelo_inurba_marseille","lat":43.28106,"lon":5.37836,"is_reserved":false,"is_disabled":false,"rental_uris":{"android":"levelo://app?vid=398a13b0-ef49-454b-83a9-2e7882108f18","ios":"levelo://app?vid=398a13b0-ef49-454b-83a9-2e7882108f18"},"vehicle_type_id":"4","last_reported":1736151182,"current_range_meters":25600,"station_id":"ce4bha12rcd13ifvqee0","pricing_plan_id":"cebpf4jnsgd1na2vs0mg"},{"bike_id":"d4a9d3db-0cbc-4e84-8afc-afe48b86587f","system_id":"levelo_inurba_marseille","lat":43.24073,"lon":5.37757,"is_reserved":false,"is_disabled":false,"rental_uris":{"android":"levelo://app?vid=d4a9d3db-0cbc-4e84-8afc-afe48b86587f","ios":"levelo://app?vid=d4a9d3db-0cbc-4e84-8afc-afe48b86587f"},"vehicle_type_id":"4","last_reported":1736151182,"current_range_meters":9600,"station_id":"ce4bhnp2rcd13ifvqgvg","pricing_plan_id":"cebpf4jnsgd1na2vs0mg"},{"bike_id":"ec67ff91-8e71-40a9-93e3-1ecd0aaa21f7","system_id":"levelo_inurba_marseille","lat":43.27986,"lon":5.41671,"is_reserved":false,"is_disabled":false,"rental_uris":{"android":"levelo://app?vid=ec67ff91-8e71-40a9-93e3-1ecd0aaa21f7","ios":"levelo://app?vid=ec67ff91-8e71-40a9-93e3-1ecd0aaa21f7"},"vehicle_type_id":"4","last_reported":1736151182,"current_range_meters":23200,"station_id":"ce4bho12rcd13ifvqh1g","pricing_plan_id":"cebpf4jnsgd1na2vs0mg"},{"bike_id":"2a3fd9f0-e99b-44d7-8c1f-74262d16d6a4","system_id":"levelo_inurba_marseille","lat":43.30488,"lon":5.37909,"is_reserved":false,"is_disabled":false,"rental_uris":{"android":"levelo://app?vid=2a3fd9f0-e99b-44d7-8c1f-74262d16d6a4","ios":"levelo://app?vid=2a3fd9f0-e99b-44d7-8c1f-74262d16d6a4"},"vehicle_type_id":"4","last_reported":1736151182,"current_range_meters":32800,"station_id":"ce4bgup2rcd13ifvqcn0","pricing_plan_id":"cebpf4jnsgd1na2vs0mg"},{"bike_id":"8bacdaca-b499-4837-9d6b-73ff9ef5b0d7","system_id":"levelo_inurba_marseille","lat":43.30504,"lon":5.38096,"is_reserved":false,"is_disabled":false,"rental_uris":{"android":"levelo://app?vid=8bacdaca-b499-4837-9d6b-73ff9ef5b0d7","ios":"levelo://app?vid=8bacdaca-b499-4837-9d6b-73ff9ef5b0d7"},"vehicle_type_id":"4","last_reported":1736151182,"current_range_meters":28800,"station_id":"","pricing_plan_id":"cebpf4jnsgd1na2vs0mg"},{"bike_id":"b5774028-44a2-4939-9107-a0da99c4b5a2","system_id":"levelo_inurba_marseille","lat":43.30205,"lon":5.39454,"is_reserved":false,"is_disabled":false,"rental_uris":{"android":"levelo://app?vid=b5774028-44a2-4939-9107-a0da99c4b5a2","ios":"levelo://app?vid=b5774028-44a2-4939-9107-a0da99c4b5a2"},"vehicle_type_id":"4","last_reported":1736151182,"current_range_meters":25600,"station_id":"ce4bh0p2rcd13ifvqd70","pricing_plan_id":"cebpf4jnsgd1na2vs0mg"},{"bike_id":"3615c4a8-839e-424d-971f-0ec5edfc8084","system_id":"levelo_inurba_marseille","lat":43.25124,"lon":5.40336,"is_reserved":false,"is_disabled":false,"rental_uris":{"android":"levelo://app?vid=3615c4a8-839e-424d-971f-0ec5edfc8084","ios":"levelo://app?vid=3615c4a8-839e-424d-971f-0ec5edfc8084"},"vehicle_type_id":"4","last_reported":1736151182,"current_range_meters":12800,"station_id":"ce4bhlh2rcd13ifvqgig","pricing_plan_id":"cebpf4jnsgd1na2vs0mg"},{"bike_id":"bacd7571-be15-43c7-8506-8086a631a213","system_id":"levelo_inurba_marseille","lat":43.25117,"lon":5.40313,"is_reserved":false,"is_disabled":false,"rental_uris":{"android":"levelo://app?vid=bacd7571-be15-43c7-8506-8086a631a213","ios":"levelo://app?vid=bacd7571-be15-43c7-8506-8086a631a213"},"vehicle_type_id":"4","last_reported":1736151182,"current_range_meters":38800,"station_id":"ce4bhlh2rcd13ifvqgig","pricing_plan_id":"cebpf4jnsgd1na2vs0mg"},{"bike_id":"76d1f3ad-7922-4f8a-8405-15108b9500fb","system_id":"levelo_inurba_marseille","lat":43.29684,"lon":5.36583,"is_reserved":false,"is_disabled":false,"rental_uris":{"android":"levelo://app?vid=76d1f3ad-7922-4f8a-8405-15108b9500fb","ios":"levelo://app?vid=76d1f3ad-7922-4f8a-8405-15108b9500fb"},"vehicle_type_id":"4","last_reported":1736151182,"current_range_meters":38800,"station_id":"ce4bgn12rcd13ifvqbt0","pricing_plan_id":"cebpf4jnsgd1na2vs0mg"},{"bike_id":"80d7bda1-c9c6-4c3c-a54a-6974c1ab7fce","system_id":"levelo_inurba_marseille","lat":43.29274,"lon":5.36841,"is_reserved":false,"is_disabled":false,"rental_uris":{"android":"levelo://app?vid=80d7bda1-c9c6-4c3c-a54a-6974c1ab7fce","ios":"levelo://app?vid=80d7bda1-c9c6-4c3c-a54a-6974c1ab7fce"},"vehicle_type_id":"4","last_reported":1736151182,"current_range_meters":36400,"station_id":"ce4bhbp2rcd13ifvqesg","pricing_plan_id":"cebpf4jnsgd1na2vs0mg"},{"bike_id":"ea0bf760-5ebe-42ea-9b3d-1899441dca38","system_id":"levelo_inurba_marseille","lat":43.288561,"lon":5.39325,"is_reserved":false,"is_disabled":false,"rental_uris":{"android":"levelo://app?vid=ea0bf760-5ebe-42ea-9b3d-1899441dca38","ios":"levelo://app?vid=ea0bf760-5ebe-42ea-9b3d-1899441dca38"},"vehicle_type_id":"4","last_reported":1736151182,"current_range_meters":36400,"station_id":"ce4bh2p2rcd13ifvqdi0","pricing_plan_id":"cebpf4jnsgd1na2vs0mg"},{"bike_id":"24bccac7-1e4b-45e8-bc23-0feeff5509f0","system_id":"levelo_inurba_marseille","lat":43.26514,"lon":5.39546,"is_reserved":false,"is_disabled":true,"rental_uris":{"android":"levelo://app?vid=24bccac7-1e4b-45e8-bc23-0feeff5509f0","ios":"levelo://app?vid=24bccac7-1e4b-45e8-bc23-0feeff5509f0"},"vehicle_type_id":"4","last_reported":1736151182,"current_range_meters":0,"station_id":"ce4bhi12rcd13ifvqfq0","pricing_plan_id":"cebpf4jnsgd1na2vs0mg"},{"bike_id":"aa1d9872-4000-480c-8a01-15f190168f75","system_id":"levelo_inurba_marseille","lat":43.29168,"lon":5.37157,"is_reserved":false,"is_disabled":false,"rental_uris":{"android":"levelo://app?vid=aa1d9872-4000-480c-8a01-15f190168f75","ios":"levelo://app?vid=aa1d9872-4000-480c-8a01-15f190168f75"},"vehicle_type_id":"4","last_reported":1736151182,"current_range_meters":32400,"station_id":"ce4bha92rcd13ifvqeh0","pricing_plan_id":"cebpf4jnsgd1na2vs0mg"},{"bike_id":"a5cf8e40-6726-4c4e-8206-4d503c5c86a7","system_id":"levelo_inurba_marseille","lat":43.30406,"lon":5.36857,"is_reserved":false,"is_disabled":false,"rental_uris":{"android":"levelo://app?vid=a5cf8e40-6726-4c4e-8206-4d503c5c86a7","ios":"levelo://app?vid=a5cf8e40-6726-4c4e-8206-4d503c5c86a7"},"vehicle_type_id":"4","last_reported":1736151182,"current_range_meters":32400,"station_id":"","pricing_plan_id":"cebpf4jnsgd1na2vs0mg"},{"bike_id":"d400eb61-16e5-4772-875c-c1ea2e3b188d","system_id":"levelo_inurba_marseille","lat":43.27663,"lon":5.38873,"is_reserved":false,"is_disabled":false,"rental_uris":{"android":"levelo://app?vid=d400eb61-16e5-4772-875c-c1ea2e3b188d","ios":"levelo://app?vid=d400eb61-16e5-4772-875c-c1ea2e3b188d"},"vehicle_type_id":"4","last_reported":1736151182,"current_range_meters":38400,"station_id":"ce4bhi12rcd13ifvqfo0","pricing_plan_id":"cebpf4jnsgd1na2vs0mg"},{"bike_id":"cffd017d-8541-4adb-92a2-b3ad33d37f2a","system_id":"levelo_inurba_marseille","lat":43.29279,"lon":5.40133,"is_reserved":false,"is_disabled":true,"rental_uris":{"android":"levelo://app?vid=cffd017d-8541-4adb-92a2-b3ad33d37f2a","ios":"levelo://app?vid=cffd017d-8541-4adb-92a2-b3ad33d37f2a"},"vehicle_type_id":"4","last_reported":1736151182,"current_range_meters":38400,"station_id":"ce4bh312rcd13ifvqdk0","pricing_plan_id":"cebpf4jnsgd1na2vs0mg"},{"bike_id":"55eb4f9e-055d-45a9-a404-9e0d3a07a877","system_id":"levelo_inurba_marseille","lat":43.29283,"lon":5.4011,"is_reserved":false,"is_disabled":true,"rental_uris":{"android":"levelo://app?vid=55eb4f9e-055d-45a9-a404-9e0d3a07a877","ios":"levelo://app?vid=55eb4f9e-055d-45a9-a404-9e0d3a07a877"},"vehicle_type_id":"4","last_reported":1736151182,"current_range_meters":0,"station_id":"ce4bh312rcd13ifvqdk0","pricing_plan_id":"cebpf4jnsgd1na2vs0mg"},{"bike_id":"4853b275-e1d9-4234-b4ad-235b8daf0b79","system_id":"levelo_inurba_marseille","lat":43.24074,"lon":5.37749,"is_reserved":false,"is_disabled":false,"rental_uris":{"android":"levelo://app?vid=4853b275-e1d9-4234-b4ad-235b8daf0b79","ios":"levelo://app?vid=4853b275-e1d9-4234-b4ad-235b8daf0b79"},"vehicle_type_id":"4","last_reported":1736151182,"current_range_meters":15200,"station_id":"ce4bhnp2rcd13ifvqgvg","pricing_plan_id":"cebpf4jnsgd1na2vs0mg"},{"bike_id":"177c1e4d-2fcb-4b52-a3bf-88a2132c12b4","system_id":"levelo_inurba_marseille","lat":43.28715,"lon":5.37393,"is_reserved":false,"is_disabled":true,"rental_uris":{"android":"levelo://app?vid=177c1e4d-2fcb-4b52-a3bf-88a2132c12b4","ios":"levelo://app?vid=177c1e4d-2fcb-4b52-a3bf-88a2132c12b4"},"vehicle_type_id":"4","last_reported":1736151182,"current_range_meters":0,"station_id":"ce4bh3p2rcd13ifvqdq0","pricing_plan_id":"cebpf4jnsgd1na2vs0mg"},{"bike_id":"d45d0089-5e8c-41ac-a04c-9866c8dc94cc","system_id":"levelo_inurba_marseille","lat":43.23189,"lon":5.35567,"is_reserved":false,"is_disabled":false,"rental_uris":{"android":"levelo://app?vid=d45d0089-5e8c-41ac-a04c-9866c8dc94cc","ios":"levelo://app?vid=d45d0089-5e8c-41ac-a04c-9866c8dc94cc"},"vehicle_type_id":"4","last_reported":1736151182,"current_range_meters":8800,"station_id":"ce4bhu92rcd13ifvqi70","pricing_plan_id":"cebpf4jnsgd1na2vs0mg"},{"bike_id":"780e8796-b286-40bb-966d-adf874d2f85e","system_id":"levelo_inurba_marseille","lat":43.28937,"lon":5.39633,"is_reserved":false,"is_disabled":false,"rental_uris":{"android":"levelo://app?vid=780e8796-b286-40bb-966d-adf874d2f85e","ios":"levelo://app?vid=780e8796-b286-40bb-966d-adf874d2f85e"},"vehicle_type_id":"4","last_reported":1736151182,"current_range_meters":33200,"station_id":"ce4bh3h2rcd13ifvqdn0","pricing_plan_id":"cebpf4jnsgd1na2vs0mg"},{"bike_id":"b5de95e0-8f34-41aa-a5fc-c4e76e03a994","system_id":"levelo_inurba_marseille","lat":43.28108,"lon":5.39645,"is_reserved":false,"is_disabled":true,"rental_uris":{"android":"levelo://app?vid=b5de95e0-8f34-41aa-a5fc-c4e76e03a994","ios":"levelo://app?vid=b5de95e0-8f34-41aa-a5fc-c4e76e03a994"},"vehicle_type_id":"4","last_reported":1736151182,"current_range_meters":28000,"station_id":"ce4bho12rcd13ifvqh2g","pricing_plan_id":"cebpf4jnsgd1na2vs0mg"},{"bike_id":"aa33a53e-f806-43a8-ad7e-8e2bd9644426","system_id":"levelo_inurba_marseille","lat":43.32345,"lon":5.40629,"is_reserved":false,"is_disabled":true,"rental_uris":{"android":"levelo://app?vid=aa33a53e-f806-43a8-ad7e-8e2bd9644426","ios":"levelo://app?vid=aa33a53e-f806-43a8-ad7e-8e2bd9644426"},"vehicle_type_id":"4","last_reported":1736151182,"current_range_meters":0,"station_id":"ce4bhq92rcd13ifvqhjg","pricing_plan_id":"cebpf4jnsgd1na2vs0mg"},{"bike_id":"fecb2c49-834e-4ca9-a9a5-70487d7eb3f5","system_id":"levelo_inurba_marseille","lat":43.29588,"lon":5.381,"is_reserved":false,"is_disabled":false,"rental_uris":{"android":"levelo://app?vid=fecb2c49-834e-4ca9-a9a5-70487d7eb3f5","ios":"levelo://app?vid=fecb2c49-834e-4ca9-a9a5-70487d7eb3f5"},"vehicle_type_id":"4","last_reported":1736151182,"current_range_meters":38800,"station_id":"ce4bgl12rcd13ifvqbo0","pricing_plan_id":"cebpf4jnsgd1na2vs0mg"},{"bike_id":"fada6ddb-cd54-4568-ab0c-a47b8c821cae","system_id":"levelo_inurba_marseille","lat":43.31186,"lon":5.38706,"is_reserved":false,"is_disabled":false,"rental_uris":{"android":"levelo://app?vid=fada6ddb-cd54-4568-ab0c-a47b8c821cae","ios":"levelo://app?vid=fada6ddb-cd54-4568-ab0c-a47b8c821cae"},"vehicle_type_id":"4","last_reported":1736151182,"current_range_meters":25200,"station_id":"ce4bgv12rcd13ifvqcp0","pricing_plan_id":"cebpf4jnsgd1na2vs0mg"},{"bike_id":"bb896405-905f-4110-a07e-defff063aef8","system_id":"levelo_inurba_marseille","lat":43.29324,"lon":5.37437,"is_reserved":false,"is_disabled":true,"rental_uris":{"android":"levelo://app?vid=bb896405-905f-4110-a07e-defff063aef8","ios":"levelo://app?vid=bb896405-905f-4110-a07e-defff063aef8"},"vehicle_type_id":"4","last_reported":1736151182,"current_range_meters":34000,"station_id":"ce4bgi12rcd13ifvqb70","pricing_plan_id":"cebpf4jnsgd1na2vs0mg"},{"bike_id":"6b455687-bb82-4d97-b8eb-de58185ea05e","system_id":"levelo_inurba_marseille","lat":43.28277,"lon":5.38056,"is_reserved":false,"is_disabled":false,"rental_uris":{"android":"levelo://app?vid=6b455687-bb82-4d97-b8eb-de58185ea05e","ios":"levelo://app?vid=6b455687-bb82-4d97-b8eb-de58185ea05e"},"vehicle_type_id":"4","last_reported":1736151182,"current_range_meters":12800,"station_id":"","pricing_plan_id":"cebpf4jnsgd1na2vs0mg"},{"bike_id":"8df41abf-ed14-4589-9867-b5613d43a037","system_id":"levelo_inurba_marseille","lat":43.32456,"lon":5.36579,"is_reserved":false,"is_disabled":false,"rental_uris":{"android":"levelo://app?vid=8df41abf-ed14-4589-9867-b5613d43a037","ios":"levelo://app?vid=8df41abf-ed14-4589-9867-b5613d43a037"},"vehicle_type_id":"4","last_reported":1736151182,"current_range_meters":38400,"station_id":"ce4bhs12rcd13ifvqhvg","pricing_plan_id":"cebpf4jnsgd1na2vs0mg"},{"bike_id":"45744d07-eb73-453c-b6ee-d9a256b9901b","system_id":"levelo_inurba_marseille","lat":43.30947,"lon":5.39055,"is_reserved":false,"is_disabled":true,"rental_uris":{"android":"levelo://app?vid=45744d07-eb73-453c-b6ee-d9a256b9901b","ios":"levelo://app?vid=45744d07-eb73-453c-b6ee-d9a256b9901b"},"vehicle_type_id":"4","last_reported":1736151182,"current_range_meters":9600,"station_id":"ce4bgup2rcd13ifvqco0","pricing_plan_id":"cebpf4jnsgd1na2vs0mg"},{"bike_id":"eba9155c-90eb-48cd-813d-cd11473e142f","system_id":"levelo_inurba_marseille","lat":43.29041,"lon":5.39988,"is_reserved":false,"is_disabled":false,"rental_uris":{"android":"levelo://app?vid=eba9155c-90eb-48cd-813d-cd11473e142f","ios":"levelo://app?vid=eba9155c-90eb-48cd-813d-cd11473e142f"},"vehicle_type_id":"4","last_reported":1736151182,"current_range_meters":28400,"station_id":"ce4bh392rcd13ifvqdm0","pricing_plan_id":"cebpf4jnsgd1na2vs0mg"},{"bike_id":"eb4b8e8c-b442-42b6-b87b-478f1dd82cdc","system_id":"levelo_inurba_marseille","lat":43.29041,"lon":5.39967,"is_reserved":false,"is_disabled":false,"rental_uris":{"android":"levelo://app?vid=eb4b8e8c-b442-42b6-b87b-478f1dd82cdc","ios":"levelo://app?vid=eb4b8e8c-b442-42b6-b87b-478f1dd82cdc"},"vehicle_type_id":"4","last_reported":1736151182,"current_range_meters":29600,"station_id":"ce4bh392rcd13ifvqdm0","pricing_plan_id":"cebpf4jnsgd1na2vs0mg"},{"bike_id":"e14fc727-e110-4847-a3c5-e82ea6a6fcb8","system_id":"levelo_inurba_marseille","lat":43.28944,"lon":5.39639,"is_reserved":false,"is_disabled":true,"rental_uris":{"android":"levelo://app?vid=e14fc727-e110-4847-a3c5-e82ea6a6fcb8","ios":"levelo://app?vid=e14fc727-e110-4847-a3c5-e82ea6a6fcb8"},"vehicle_type_id":"4","last_reported":1736151182,"current_range_meters":32400,"station_id":"ce4bh3h2rcd13ifvqdn0","pricing_plan_id":"cebpf4jnsgd1na2vs0mg"},{"bike_id":"ad61caab-ed76-48fb-b594-4605be6c3c4b","system_id":"levelo_inurba_marseille","lat":43.29303,"lon":5.37175,"is_reserved":false,"is_disabled":true,"rental_uris":{"android":"levelo://app?vid=ad61caab-ed76-48fb-b594-4605be6c3c4b","ios":"levelo://app?vid=ad61caab-ed76-48fb-b594-4605be6c3c4b"},"vehicle_type_id":"4","last_reported":1736151182,"current_range_meters":33200,"station_id":"ce4bgh92rcd13ifvqb40","pricing_plan_id":"cebpf4jnsgd1na2vs0mg"},{"bike_id":"d0541b38-8e7e-4e1e-8666-5868b43eb4cc","system_id":"levelo_inurba_marseille","lat":43.25109,"lon":5.403215,"is_reserved":false,"is_disabled":false,"rental_uris":{"android":"levelo://app?vid=d0541b38-8e7e-4e1e-8666-5868b43eb4cc","ios":"levelo://app?vid=d0541b38-8e7e-4e1e-8666-5868b43eb4cc"},"vehicle_type_id":"4","last_reported":1736151182,"current_range_meters":38800,"station_id":"ce4bhlh2rcd13ifvqgig","pricing_plan_id":"cebpf4jnsgd1na2vs0mg"},{"bike_id":"b0f6aca8-3f91-4c48-a9ce-fc71c17d1788","system_id":"levelo_inurba_marseille","lat":43.29816,"lon":5.38082,"is_reserved":false,"is_disabled":false,"rental_uris":{"android":"levelo://app?vid=b0f6aca8-3f91-4c48-a9ce-fc71c17d1788","ios":"levelo://app?vid=b0f6aca8-3f91-4c48-a9ce-fc71c17d1788"},"vehicle_type_id":"4","last_reported":1736151182,"current_range_meters":38800,"station_id":"ce4bgip2rcd13ifvqbb0","pricing_plan_id":"cebpf4jnsgd1na2vs0mg"},{"bike_id":"e6a1844a-411d-4e2e-827d-f13a0839a281","system_id":"levelo_inurba_marseille","lat":43.25721,"lon":5.41109,"is_reserved":false,"is_disabled":false,"rental_uris":{"android":"levelo://app?vid=e6a1844a-411d-4e2e-827d-f13a0839a281","ios":"levelo://app?vid=e6a1844a-411d-4e2e-827d-f13a0839a281"},"vehicle_type_id":"4","last_reported":1736151182,"current_range_meters":24000,"station_id":"ce4bhkp2rcd13ifvqgd0","pricing_plan_id":"cebpf4jnsgd1na2vs0mg"},{"bike_id":"ad539604-9e59-421d-a71a-49da59bdd974","system_id":"levelo_inurba_marseille","lat":43.2903,"lon":5.38607,"is_reserved":false,"is_disabled":true,"rental_uris":{"android":"levelo://app?vid=ad539604-9e59-421d-a71a-49da59bdd974","ios":"levelo://app?vid=ad539604-9e59-421d-a71a-49da59bdd974"},"vehicle_type_id":"4","last_reported":1736151182,"current_range_meters":25600,"station_id":"ce4bh4p2rcd13ifvqe0g","pricing_plan_id":"cebpf4jnsgd1na2vs0mg"},{"bike_id":"dc8dceb5-ba1c-449e-9fc2-cec36b891020","system_id":"levelo_inurba_marseille","lat":43.30911,"lon":5.368438,"is_reserved":false,"is_disabled":false,"rental_uris":{"android":"levelo://app?vid=dc8dceb5-ba1c-449e-9fc2-cec36b891020","ios":"levelo://app?vid=dc8dceb5-ba1c-449e-9fc2-cec36b891020"},"vehicle_type_id":"4","last_reported":1736151182,"current_range_meters":39200,"station_id":"ce4bgn92rcd13ifvqbvg","pricing_plan_id":"cebpf4jnsgd1na2vs0mg"},{"bike_id":"d554e8a0-a628-457a-9334-ab5a6e471fc4","system_id":"levelo_inurba_marseille","lat":43.31358,"lon":5.36709,"is_reserved":false,"is_disabled":false,"rental_uris":{"android":"levelo://app?vid=d554e8a0-a628-457a-9334-ab5a6e471fc4","ios":"levelo://app?vid=d554e8a0-a628-457a-9334-ab5a6e471fc4"},"vehicle_type_id":"4","last_reported":1736151182,"current_range_meters":32000,"station_id":"ce4bgr92rcd13ifvqc6g","pricing_plan_id":"cebpf4jnsgd1na2vs0mg"},{"bike_id":"8a474426-cd46-4cf8-9edc-ef843a0ca02e","system_id":"levelo_inurba_marseille","lat":43.26531,"lon":5.39065,"is_reserved":false,"is_disabled":true,"rental_uris":{"android":"levelo://app?vid=8a474426-cd46-4cf8-9edc-ef843a0ca02e","ios":"levelo://app?vid=8a474426-cd46-4cf8-9edc-ef843a0ca02e"},"vehicle_type_id":"4","last_reported":1736151182,"current_range_meters":35200,"station_id":"","pricing_plan_id":"cebpf4jnsgd1na2vs0mg"},{"bike_id":"d0234cf8-3190-48a6-bab2-6c84efe1b44c","system_id":"levelo_inurba_marseille","lat":43.248095,"lon":5.374554,"is_reserved":false,"is_disabled":false,"rental_uris":{"android":"levelo://app?vid=d0234cf8-3190-48a6-bab2-6c84efe1b44c","ios":"levelo://app?vid=d0234cf8-3190-48a6-bab2-6c84efe1b44c"},"vehicle_type_id":"4","last_reported":1736151182,"current_range_meters":38800,"station_id":"ce4bhgh2rcd13ifvqfb0","pricing_plan_id":"cebpf4jnsgd1na2vs0mg"},{"bike_id":"bbf998ea-d252-4590-8711-16d78ff4b07c","system_id":"levelo_inurba_marseille","lat":43.246443,"lon":5.388936,"is_reserved":false,"is_disabled":false,"rental_uris":{"android":"levelo://app?vid=bbf998ea-d252-4590-8711-16d78ff4b07c","ios":"levelo://app?vid=bbf998ea-d252-4590-8711-16d78ff4b07c"},"vehicle_type_id":"4","last_reported":1736151182,"current_range_meters":30800,"station_id":"ce4bhg12rcd13ifvqf60","pricing_plan_id":"cebpf4jnsgd1na2vs0mg"},{"bike_id":"a861ccdd-8435-498a-bc42-68be058873a7","system_id":"levelo_inurba_marseille","lat":43.24802,"lon":5.37455,"is_reserved":false,"is_disabled":false,"rental_uris":{"android":"levelo://app?vid=a861ccdd-8435-498a-bc42-68be058873a7","ios":"levelo://app?vid=a861ccdd-8435-498a-bc42-68be058873a7"},"vehicle_type_id":"4","last_reported":1736151182,"current_range_meters":20400,"station_id":"ce4bhgh2rcd13ifvqfb0","pricing_plan_id":"cebpf4jnsgd1na2vs0mg"},{"bike_id":"d455a1f2-fb7f-480c-b03e-1cf1cbe15c4a","system_id":"levelo_inurba_marseille","lat":43.314914,"lon":5.372975,"is_reserved":false,"is_disabled":false,"rental_uris":{"android":"levelo://app?vid=d455a1f2-fb7f-480c-b03e-1cf1cbe15c4a","ios":"levelo://app?vid=d455a1f2-fb7f-480c-b03e-1cf1cbe15c4a"},"vehicle_type_id":"4","last_reported":1736151182,"current_range_meters":23200,"station_id":"ce4bgt12rcd13ifvqcd0","pricing_plan_id":"cebpf4jnsgd1na2vs0mg"},{"bike_id":"f5a4a49b-f269-4ec2-b80a-e579bf67a966","system_id":"levelo_inurba_marseille","lat":43.29523,"lon":5.361468,"is_reserved":false,"is_disabled":true,"rental_uris":{"android":"levelo://app?vid=f5a4a49b-f269-4ec2-b80a-e579bf67a966","ios":"levelo://app?vid=f5a4a49b-f269-4ec2-b80a-e579bf67a966"},"vehicle_type_id":"4","last_reported":1736151182,"current_range_meters":32400,"station_id":"","pricing_plan_id":"cebpf4jnsgd1na2vs0mg"},{"bike_id":"6f21fba1-6f8e-47c4-a476-286cca5f9cc6","system_id":"levelo_inurba_marseille","lat":43.28273,"lon":5.35078,"is_reserved":false,"is_disabled":true,"rental_uris":{"android":"levelo://app?vid=6f21fba1-6f8e-47c4-a476-286cca5f9cc6","ios":"levelo://app?vid=6f21fba1-6f8e-47c4-a476-286cca5f9cc6"},"vehicle_type_id":"4","last_reported":1736151182,"current_range_meters":0,"station_id":"ce4bhbp2rcd13ifvqerg","pricing_plan_id":"cebpf4jnsgd1na2vs0mg"},{"bike_id":"2e98c7ba-b99f-4046-9eb6-c104b12c7644","system_id":"levelo_inurba_marseille","lat":43.28449,"lon":5.39175,"is_reserved":false,"is_disabled":false,"rental_uris":{"android":"levelo://app?vid=2e98c7ba-b99f-4046-9eb6-c104b12c7644","ios":"levelo://app?vid=2e98c7ba-b99f-4046-9eb6-c104b12c7644"},"vehicle_type_id":"4","last_reported":1736151182,"current_range_meters":35200,"station_id":"ce4bhoh2rcd13ifvqh5g","pricing_plan_id":"cebpf4jnsgd1na2vs0mg"},{"bike_id":"5c333e4e-ea50-49e6-b469-da9fc9c01bed","system_id":"levelo_inurba_marseille","lat":43.29526,"lon":5.37492,"is_reserved":false,"is_disabled":true,"rental_uris":{"android":"levelo://app?vid=5c333e4e-ea50-49e6-b469-da9fc9c01bed","ios":"levelo://app?vid=5c333e4e-ea50-49e6-b469-da9fc9c01bed"},"vehicle_type_id":"4","last_reported":1736151182,"current_range_meters":38800,"station_id":"ce4bgkp2rcd13ifvqbmg","pricing_plan_id":"cebpf4jnsgd1na2vs0mg"},{"bike_id":"714738de-0c80-47dd-b7c3-d3bd0c0bbb4b","system_id":"levelo_inurba_marseille","lat":43.32538,"lon":5.41422,"is_reserved":false,"is_disabled":false,"rental_uris":{"android":"levelo://app?vid=714738de-0c80-47dd-b7c3-d3bd0c0bbb4b","ios":"levelo://app?vid=714738de-0c80-47dd-b7c3-d3bd0c0bbb4b"},"vehicle_type_id":"4","last_reported":1736151182,"current_range_meters":32800,"station_id":"ce4bhq12rcd13ifvqhhg","pricing_plan_id":"cebpf4jnsgd1na2vs0mg"},{"bike_id":"22be6a65-747a-4b4c-8841-974b07e60f8e","system_id":"levelo_inurba_marseille","lat":43.26945,"lon":5.38632,"is_reserved":false,"is_disabled":false,"rental_uris":{"android":"levelo://app?vid=22be6a65-747a-4b4c-8841-974b07e60f8e","ios":"levelo://app?vid=22be6a65-747a-4b4c-8841-974b07e60f8e"},"vehicle_type_id":"4","last_reported":1736151182,"current_range_meters":37600,"station_id":"ce4bhh92rcd13ifvqfh0","pricing_plan_id":"cebpf4jnsgd1na2vs0mg"},{"bike_id":"fe1d3f22-428d-4c0c-8fa7-4ff0e501540c","system_id":"levelo_inurba_marseille","lat":43.31343,"lon":5.36723,"is_reserved":false,"is_disabled":false,"rental_uris":{"android":"levelo://app?vid=fe1d3f22-428d-4c0c-8fa7-4ff0e501540c","ios":"levelo://app?vid=fe1d3f22-428d-4c0c-8fa7-4ff0e501540c"},"vehicle_type_id":"4","last_reported":1736151182,"current_range_meters":30400,"station_id":"ce4bgr92rcd13ifvqc6g","pricing_plan_id":"cebpf4jnsgd1na2vs0mg"},{"bike_id":"c237a75d-41bd-4e88-911b-631b6a308e6f","system_id":"levelo_inurba_marseille","lat":43.3153,"lon":5.38039,"is_reserved":false,"is_disabled":false,"rental_uris":{"android":"levelo://app?vid=c237a75d-41bd-4e88-911b-631b6a308e6f","ios":"levelo://app?vid=c237a75d-41bd-4e88-911b-631b6a308e6f"},"vehicle_type_id":"4","last_reported":1736151182,"current_range_meters":27200,"station_id":"ce4bhsp2rcd13ifvqi50","pricing_plan_id":"cebpf4jnsgd1na2vs0mg"},{"bike_id":"0bcfea18-61ca-412d-bded-b63f59943884","system_id":"levelo_inurba_marseille","lat":43.2861,"lon":5.35107,"is_reserved":false,"is_disabled":true,"rental_uris":{"android":"levelo://app?vid=0bcfea18-61ca-412d-bded-b63f59943884","ios":"levelo://app?vid=0bcfea18-61ca-412d-bded-b63f59943884"},"vehicle_type_id":"4","last_reported":1736151182,"current_range_meters":34800,"station_id":"ce4bhch2rcd13ifvqeug","pricing_plan_id":"cebpf4jnsgd1na2vs0mg"},{"bike_id":"5befd006-a601-4f1d-8fbe-6e419c854ac0","system_id":"levelo_inurba_marseille","lat":43.240701,"lon":5.377599,"is_reserved":false,"is_disabled":false,"rental_uris":{"android":"levelo://app?vid=5befd006-a601-4f1d-8fbe-6e419c854ac0","ios":"levelo://app?vid=5befd006-a601-4f1d-8fbe-6e419c854ac0"},"vehicle_type_id":"4","last_reported":1736151182,"current_range_meters":38800,"station_id":"ce4bhnp2rcd13ifvqgvg","pricing_plan_id":"cebpf4jnsgd1na2vs0mg"},{"bike_id":"ccedd857-09cd-44c5-b6fb-4559763177cf","system_id":"levelo_inurba_marseille","lat":43.251148,"lon":5.403275,"is_reserved":false,"is_disabled":true,"rental_uris":{"android":"levelo://app?vid=ccedd857-09cd-44c5-b6fb-4559763177cf","ios":"levelo://app?vid=ccedd857-09cd-44c5-b6fb-4559763177cf"},"vehicle_type_id":"4","last_reported":1736151182,"current_range_meters":33600,"station_id":"ce4bhlh2rcd13ifvqgig","pricing_plan_id":"cebpf4jnsgd1na2vs0mg"},{"bike_id":"96b16fe9-3911-44a3-8a8b-8e1e8036d081","system_id":"levelo_inurba_marseille","lat":43.29731,"lon":5.37695,"is_reserved":false,"is_disabled":false,"rental_uris":{"android":"levelo://app?vid=96b16fe9-3911-44a3-8a8b-8e1e8036d081","ios":"levelo://app?vid=96b16fe9-3911-44a3-8a8b-8e1e8036d081"},"vehicle_type_id":"4","last_reported":1736151182,"current_range_meters":27200,"station_id":"ce4bgkh2rcd13ifvqbl0","pricing_plan_id":"cebpf4jnsgd1na2vs0mg"},{"bike_id":"057a78d9-4838-4cec-9960-b2b57e04db07","system_id":"levelo_inurba_marseille","lat":43.31256,"lon":5.36844,"is_reserved":false,"is_disabled":true,"rental_uris":{"android":"levelo://app?vid=057a78d9-4838-4cec-9960-b2b57e04db07","ios":"levelo://app?vid=057a78d9-4838-4cec-9960-b2b57e04db07"},"vehicle_type_id":"4","last_reported":1736151182,"current_range_meters":34000,"station_id":"ce4bgl92rcd13ifvqbq0","pricing_plan_id":"cebpf4jnsgd1na2vs0mg"},{"bike_id":"85cba0a3-d6ec-4723-83bf-95316674cece","system_id":"levelo_inurba_marseille","lat":43.275602,"lon":5.384226,"is_reserved":false,"is_disabled":true,"rental_uris":{"android":"levelo://app?vid=85cba0a3-d6ec-4723-83bf-95316674cece","ios":"levelo://app?vid=85cba0a3-d6ec-4723-83bf-95316674cece"},"vehicle_type_id":"4","last_reported":1736151182,"current_range_meters":0,"station_id":"ce4bhh92rcd13ifvqfi0","pricing_plan_id":"cebpf4jnsgd1na2vs0mg"},{"bike_id":"5ff8deea-9282-4f04-abf3-2861394a0ca9","system_id":"levelo_inurba_marseille","lat":43.29017,"lon":5.38145,"is_reserved":false,"is_disabled":true,"rental_uris":{"android":"levelo://app?vid=5ff8deea-9282-4f04-abf3-2861394a0ca9","ios":"levelo://app?vid=5ff8deea-9282-4f04-abf3-2861394a0ca9"},"vehicle_type_id":"4","last_reported":1736151182,"current_range_meters":38800,"station_id":"ce4bh4p2rcd13ifvqe1g","pricing_plan_id":"cebpf4jnsgd1na2vs0mg"},{"bike_id":"848571f8-713d-43b7-8532-226899c73429","system_id":"levelo_inurba_marseille","lat":43.24165,"lon":5.39734,"is_reserved":false,"is_disabled":false,"rental_uris":{"android":"levelo://app?vid=848571f8-713d-43b7-8532-226899c73429","ios":"levelo://app?vid=848571f8-713d-43b7-8532-226899c73429"},"vehicle_type_id":"4","last_reported":1736151182,"current_range_meters":38800,"station_id":"ce4bhn12rcd13ifvqgpg","pricing_plan_id":"cebpf4jnsgd1na2vs0mg"},{"bike_id":"266d97a0-8b6a-4815-8e1e-a29e516886ab","system_id":"levelo_inurba_marseille","lat":43.32369,"lon":5.36776,"is_reserved":false,"is_disabled":false,"rental_uris":{"android":"levelo://app?vid=266d97a0-8b6a-4815-8e1e-a29e516886ab","ios":"levelo://app?vid=266d97a0-8b6a-4815-8e1e-a29e516886ab"},"vehicle_type_id":"4","last_reported":1736151182,"current_range_meters":28000,"station_id":"ce4bhsh2rcd13ifvqi2g","pricing_plan_id":"cebpf4jnsgd1na2vs0mg"},{"bike_id":"bc5b5855-1cf6-4cdc-af1a-e3906d45046d","system_id":"levelo_inurba_marseille","lat":43.25001,"lon":5.38929,"is_reserved":false,"is_disabled":false,"rental_uris":{"android":"levelo://app?vid=bc5b5855-1cf6-4cdc-af1a-e3906d45046d","ios":"levelo://app?vid=bc5b5855-1cf6-4cdc-af1a-e3906d45046d"},"vehicle_type_id":"4","last_reported":1736151182,"current_range_meters":28400,"station_id":"ce4bhgp2rcd13ifvqfd0","pricing_plan_id":"cebpf4jnsgd1na2vs0mg"},{"bike_id":"26f45ece-53d4-4c67-aa30-c38419fc1849","system_id":"levelo_inurba_marseille","lat":43.26953,"lon":5.38633,"is_reserved":false,"is_disabled":false,"rental_uris":{"android":"levelo://app?vid=26f45ece-53d4-4c67-aa30-c38419fc1849","ios":"levelo://app?vid=26f45ece-53d4-4c67-aa30-c38419fc1849"},"vehicle_type_id":"4","last_reported":1736151182,"current_range_meters":20000,"station_id":"ce4bhh92rcd13ifvqfh0","pricing_plan_id":"cebpf4jnsgd1na2vs0mg"},{"bike_id":"d473f3b4-0f35-41e8-a757-cef6a791d6d9","system_id":"levelo_inurba_marseille","lat":43.28943,"lon":5.39622,"is_reserved":false,"is_disabled":false,"rental_uris":{"android":"levelo://app?vid=d473f3b4-0f35-41e8-a757-cef6a791d6d9","ios":"levelo://app?vid=d473f3b4-0f35-41e8-a757-cef6a791d6d9"},"vehicle_type_id":"4","last_reported":1736151182,"current_range_meters":38800,"station_id":"ce4bh3h2rcd13ifvqdn0","pricing_plan_id":"cebpf4jnsgd1na2vs0mg"},{"bike_id":"2937c8f0-6f06-4c7f-8240-41ad44bc55fa","system_id":"levelo_inurba_marseille","lat":43.23195,"lon":5.40002,"is_reserved":false,"is_disabled":false,"rental_uris":{"android":"levelo://app?vid=2937c8f0-6f06-4c7f-8240-41ad44bc55fa","ios":"levelo://app?vid=2937c8f0-6f06-4c7f-8240-41ad44bc55fa"},"vehicle_type_id":"4","last_reported":1736151182,"current_range_meters":16800,"station_id":"ce4bhn12rcd13ifvqgqg","pricing_plan_id":"cebpf4jnsgd1na2vs0mg"},{"bike_id":"8f8a32e7-2dd9-4c4c-82fd-75d68f2db40f","system_id":"levelo_inurba_marseille","lat":43.2594,"lon":5.40903,"is_reserved":false,"is_disabled":false,"rental_uris":{"android":"levelo://app?vid=8f8a32e7-2dd9-4c4c-82fd-75d68f2db40f","ios":"levelo://app?vid=8f8a32e7-2dd9-4c4c-82fd-75d68f2db40f"},"vehicle_type_id":"4","last_reported":1736151182,"current_range_meters":11600,"station_id":"ce4bhm92rcd13ifvqglg","pricing_plan_id":"cebpf4jnsgd1na2vs0mg"},{"bike_id":"f4c69f63-d451-4584-95df-44d1488057ff","system_id":"levelo_inurba_marseille","lat":43.23149,"lon":5.43714,"is_reserved":false,"is_disabled":false,"rental_uris":{"android":"levelo://app?vid=f4c69f63-d451-4584-95df-44d1488057ff","ios":"levelo://app?vid=f4c69f63-d451-4584-95df-44d1488057ff"},"vehicle_type_id":"4","last_reported":1736151182,"current_range_meters":14000,"station_id":"ce4bhmp2rcd13ifvqgog","pricing_plan_id":"cebpf4jnsgd1na2vs0mg"},{"bike_id":"5743c5b6-57b5-4b82-8b21-a86b6013be39","system_id":"levelo_inurba_marseille","lat":43.325436,"lon":5.41429,"is_reserved":false,"is_disabled":false,"rental_uris":{"android":"levelo://app?vid=5743c5b6-57b5-4b82-8b21-a86b6013be39","ios":"levelo://app?vid=5743c5b6-57b5-4b82-8b21-a86b6013be39"},"vehicle_type_id":"4","last_reported":1736151182,"current_range_meters":38800,"station_id":"ce4bhq12rcd13ifvqhhg","pricing_plan_id":"cebpf4jnsgd1na2vs0mg"},{"bike_id":"a08bb803-2e43-4c2e-835c-80814db6204b","system_id":"levelo_inurba_marseille","lat":43.24082,"lon":5.37753,"is_reserved":false,"is_disabled":false,"rental_uris":{"android":"levelo://app?vid=a08bb803-2e43-4c2e-835c-80814db6204b","ios":"levelo://app?vid=a08bb803-2e43-4c2e-835c-80814db6204b"},"vehicle_type_id":"4","last_reported":1736151182,"current_range_meters":36800,"station_id":"ce4bhnp2rcd13ifvqgvg","pricing_plan_id":"cebpf4jnsgd1na2vs0mg"},{"bike_id":"f49298c6-b208-404d-bb0c-160ccbda2eed","system_id":"levelo_inurba_marseille","lat":43.27987,"lon":5.40015,"is_reserved":false,"is_disabled":true,"rental_uris":{"android":"levelo://app?vid=f49298c6-b208-404d-bb0c-160ccbda2eed","ios":"levelo://app?vid=f49298c6-b208-404d-bb0c-160ccbda2eed"},"vehicle_type_id":"4","last_reported":1736151182,"current_range_meters":36800,"station_id":"ce4bho92rcd13ifvqh4g","pricing_plan_id":"cebpf4jnsgd1na2vs0mg"},{"bike_id":"2c354e5f-37ab-453c-814e-0e1e1d3051e2","system_id":"levelo_inurba_marseille","lat":43.313609,"lon":5.385061,"is_reserved":false,"is_disabled":true,"rental_uris":{"android":"levelo://app?vid=2c354e5f-37ab-453c-814e-0e1e1d3051e2","ios":"levelo://app?vid=2c354e5f-37ab-453c-814e-0e1e1d3051e2"},"vehicle_type_id":"4","last_reported":1736151182,"current_range_meters":17200,"station_id":"ce4bgt92rcd13ifvqcf0","pricing_plan_id":"cebpf4jnsgd1na2vs0mg"},{"bike_id":"d014f699-d84d-436b-b3bf-8c059d18ea89","system_id":"levelo_inurba_marseille","lat":43.22921,"lon":5.35384,"is_reserved":false,"is_disabled":false,"rental_uris":{"android":"levelo://app?vid=d014f699-d84d-436b-b3bf-8c059d18ea89","ios":"levelo://app?vid=d014f699-d84d-436b-b3bf-8c059d18ea89"},"vehicle_type_id":"4","last_reported":1736151182,"current_range_meters":12800,"station_id":"cpo3532slgdg3j2ikp40","pricing_plan_id":"cebpf4jnsgd1na2vs0mg"},{"bike_id":"681f35ea-4c84-4bd1-b29c-7d6d36709dd3","system_id":"levelo_inurba_marseille","lat":43.26938,"lon":5.38656,"is_reserved":false,"is_disabled":false,"rental_uris":{"android":"levelo://app?vid=681f35ea-4c84-4bd1-b29c-7d6d36709dd3","ios":"levelo://app?vid=681f35ea-4c84-4bd1-b29c-7d6d36709dd3"},"vehicle_type_id":"4","last_reported":1736151182,"current_range_meters":9600,"station_id":"ce4bhh92rcd13ifvqfh0","pricing_plan_id":"cebpf4jnsgd1na2vs0mg"},{"bike_id":"3093b4f6-32f4-4dec-aab8-9d4da00d0520","system_id":"levelo_inurba_marseille","lat":43.231926,"lon":5.355579,"is_reserved":false,"is_disabled":false,"rental_uris":{"android":"levelo://app?vid=3093b4f6-32f4-4dec-aab8-9d4da00d0520","ios":"levelo://app?vid=3093b4f6-32f4-4dec-aab8-9d4da00d0520"},"vehicle_type_id":"4","last_reported":1736151182,"current_range_meters":38400,"station_id":"ce4bhu92rcd13ifvqi70","pricing_plan_id":"cebpf4jnsgd1na2vs0mg"},{"bike_id":"849e3ff6-f484-448d-83ee-8f3e3c549c35","system_id":"levelo_inurba_marseille","lat":43.29273,"lon":5.40105,"is_reserved":false,"is_disabled":false,"rental_uris":{"android":"levelo://app?vid=849e3ff6-f484-448d-83ee-8f3e3c549c35","ios":"levelo://app?vid=849e3ff6-f484-448d-83ee-8f3e3c549c35"},"vehicle_type_id":"4","last_reported":1736151182,"current_range_meters":38800,"station_id":"ce4bh312rcd13ifvqdk0","pricing_plan_id":"cebpf4jnsgd1na2vs0mg"},{"bike_id":"c420422e-e5ff-46aa-9ade-56c25e82f06d","system_id":"levelo_inurba_marseille","lat":43.2318,"lon":5.35549,"is_reserved":false,"is_disabled":false,"rental_uris":{"android":"levelo://app?vid=c420422e-e5ff-46aa-9ade-56c25e82f06d","ios":"levelo://app?vid=c420422e-e5ff-46aa-9ade-56c25e82f06d"},"vehicle_type_id":"4","last_reported":1736151182,"current_range_meters":38800,"station_id":"ce4bhu92rcd13ifvqi70","pricing_plan_id":"cebpf4jnsgd1na2vs0mg"},{"bike_id":"ef72cdb4-465d-4178-b952-49906f159c48","system_id":"levelo_inurba_marseille","lat":43.28145,"lon":5.42643,"is_reserved":false,"is_disabled":false,"rental_uris":{"android":"levelo://app?vid=ef72cdb4-465d-4178-b952-49906f159c48","ios":"levelo://app?vid=ef72cdb4-465d-4178-b952-49906f159c48"},"vehicle_type_id":"4","last_reported":1736151182,"current_range_meters":6800,"station_id":"ce4bhnh2rcd13ifvqgug","pricing_plan_id":"cebpf4jnsgd1na2vs0mg"},{"bike_id":"6d6a8ac7-c60b-4eb2-9c89-cb745503e482","system_id":"levelo_inurba_marseille","lat":43.337444,"lon":5.374475,"is_reserved":false,"is_disabled":false,"rental_uris":{"android":"levelo://app?vid=6d6a8ac7-c60b-4eb2-9c89-cb745503e482","ios":"levelo://app?vid=6d6a8ac7-c60b-4eb2-9c89-cb745503e482"},"vehicle_type_id":"4","last_reported":1736151182,"current_range_meters":25200,"station_id":"","pricing_plan_id":"cebpf4jnsgd1na2vs0mg"},{"bike_id":"044c60f5-2aea-40e7-b246-944df04cc67b","system_id":"levelo_inurba_marseille","lat":43.30146,"lon":5.37426,"is_reserved":false,"is_disabled":false,"rental_uris":{"android":"levelo://app?vid=044c60f5-2aea-40e7-b246-944df04cc67b","ios":"levelo://app?vid=044c60f5-2aea-40e7-b246-944df04cc67b"},"vehicle_type_id":"4","last_reported":1736151182,"current_range_meters":19200,"station_id":"ce4bgs92rcd13ifvqcc0","pricing_plan_id":"cebpf4jnsgd1na2vs0mg"},{"bike_id":"f949af9a-2683-4ec9-b4bf-168b31b3bcb2","system_id":"levelo_inurba_marseille","lat":43.24651,"lon":5.38897,"is_reserved":false,"is_disabled":false,"rental_uris":{"android":"levelo://app?vid=f949af9a-2683-4ec9-b4bf-168b31b3bcb2","ios":"levelo://app?vid=f949af9a-2683-4ec9-b4bf-168b31b3bcb2"},"vehicle_type_id":"4","last_reported":1736151182,"current_range_meters":22800,"station_id":"ce4bhg12rcd13ifvqf60","pricing_plan_id":"cebpf4jnsgd1na2vs0mg"},{"bike_id":"48438f0a-62d6-43d4-b032-64378692b345","system_id":"levelo_inurba_marseille","lat":43.2594,"lon":5.40901,"is_reserved":false,"is_disabled":false,"rental_uris":{"android":"levelo://app?vid=48438f0a-62d6-43d4-b032-64378692b345","ios":"levelo://app?vid=48438f0a-62d6-43d4-b032-64378692b345"},"vehicle_type_id":"4","last_reported":1736151182,"current_range_meters":6000,"station_id":"ce4bhm92rcd13ifvqglg","pricing_plan_id":"cebpf4jnsgd1na2vs0mg"},{"bike_id":"baace2ec-3cd9-4824-8855-4d8f73a429f0","system_id":"levelo_inurba_marseille","lat":43.295613,"lon":5.375313,"is_reserved":false,"is_disabled":false,"rental_uris":{"android":"levelo://app?vid=baace2ec-3cd9-4824-8855-4d8f73a429f0","ios":"levelo://app?vid=baace2ec-3cd9-4824-8855-4d8f73a429f0"},"vehicle_type_id":"4","last_reported":1736151182,"current_range_meters":28400,"station_id":"ce4bgh92rcd13ifvqb50","pricing_plan_id":"cebpf4jnsgd1na2vs0mg"},{"bike_id":"ee1831a5-ecd0-46f1-9c32-8fb8cd9a18ed","system_id":"levelo_inurba_marseille","lat":43.28973,"lon":5.37837,"is_reserved":false,"is_disabled":false,"rental_uris":{"android":"levelo://app?vid=ee1831a5-ecd0-46f1-9c32-8fb8cd9a18ed","ios":"levelo://app?vid=ee1831a5-ecd0-46f1-9c32-8fb8cd9a18ed"},"vehicle_type_id":"4","last_reported":1736151182,"current_range_meters":38800,"station_id":"ce4bh9p2rcd13ifvqed0","pricing_plan_id":"cebpf4jnsgd1na2vs0mg"},{"bike_id":"550a8867-4153-4d94-a9dc-e69a462cbff8","system_id":"levelo_inurba_marseille","lat":43.27909,"lon":5.41225,"is_reserved":false,"is_disabled":false,"rental_uris":{"android":"levelo://app?vid=550a8867-4153-4d94-a9dc-e69a462cbff8","ios":"levelo://app?vid=550a8867-4153-4d94-a9dc-e69a462cbff8"},"vehicle_type_id":"4","last_reported":1736151182,"current_range_meters":23200,"station_id":"","pricing_plan_id":"cebpf4jnsgd1na2vs0mg"},{"bike_id":"e9c200db-965f-4b2c-bd5a-0dc123dcc0e0","system_id":"levelo_inurba_marseille","lat":43.24671,"lon":5.38155,"is_reserved":false,"is_disabled":false,"rental_uris":{"android":"levelo://app?vid=e9c200db-965f-4b2c-bd5a-0dc123dcc0e0","ios":"levelo://app?vid=e9c200db-965f-4b2c-bd5a-0dc123dcc0e0"},"vehicle_type_id":"4","last_reported":1736151182,"current_range_meters":14800,"station_id":"ce4bhih2rcd13ifvqfr0","pricing_plan_id":"cebpf4jnsgd1na2vs0mg"},{"bike_id":"614a7d28-d88c-4c5b-b293-4ed73f5b36ca","system_id":"levelo_inurba_marseille","lat":43.28724,"lon":5.37931,"is_reserved":false,"is_disabled":false,"rental_uris":{"android":"levelo://app?vid=614a7d28-d88c-4c5b-b293-4ed73f5b36ca","ios":"levelo://app?vid=614a7d28-d88c-4c5b-b293-4ed73f5b36ca"},"vehicle_type_id":"4","last_reported":1736151182,"current_range_meters":20800,"station_id":"ce4bh9p2rcd13ifvqec0","pricing_plan_id":"cebpf4jnsgd1na2vs0mg"},{"bike_id":"a47320d9-8bf2-4ad3-b911-cc4c52ced5aa","system_id":"levelo_inurba_marseille","lat":43.29963,"lon":5.37212,"is_reserved":false,"is_disabled":false,"rental_uris":{"android":"levelo://app?vid=a47320d9-8bf2-4ad3-b911-cc4c52ced5aa","ios":"levelo://app?vid=a47320d9-8bf2-4ad3-b911-cc4c52ced5aa"},"vehicle_type_id":"4","last_reported":1736151182,"current_range_meters":39200,"station_id":"ce4bgr92rcd13ifvqc7g","pricing_plan_id":"cebpf4jnsgd1na2vs0mg"},{"bike_id":"4b39a0f2-a76c-458f-8c31-faad8c4bb6b5","system_id":"levelo_inurba_marseille","lat":43.30918,"lon":5.36852,"is_reserved":false,"is_disabled":false,"rental_uris":{"android":"levelo://app?vid=4b39a0f2-a76c-458f-8c31-faad8c4bb6b5","ios":"levelo://app?vid=4b39a0f2-a76c-458f-8c31-faad8c4bb6b5"},"vehicle_type_id":"4","last_reported":1736151182,"current_range_meters":16400,"station_id":"ce4bgn92rcd13ifvqbvg","pricing_plan_id":"cebpf4jnsgd1na2vs0mg"},{"bike_id":"f025592f-7811-43fc-afd7-9c5c8acd7ef9","system_id":"levelo_inurba_marseille","lat":43.318864,"lon":5.407299,"is_reserved":false,"is_disabled":false,"rental_uris":{"android":"levelo://app?vid=f025592f-7811-43fc-afd7-9c5c8acd7ef9","ios":"levelo://app?vid=f025592f-7811-43fc-afd7-9c5c8acd7ef9"},"vehicle_type_id":"4","last_reported":1736151182,"current_range_meters":38800,"station_id":"ce4bhq12rcd13ifvqhig","pricing_plan_id":"cebpf4jnsgd1na2vs0mg"},{"bike_id":"e4fb0db6-c070-4f7c-b34e-a54f29d45562","system_id":"levelo_inurba_marseille","lat":43.27993,"lon":5.4164,"is_reserved":false,"is_disabled":false,"rental_uris":{"android":"levelo://app?vid=e4fb0db6-c070-4f7c-b34e-a54f29d45562","ios":"levelo://app?vid=e4fb0db6-c070-4f7c-b34e-a54f29d45562"},"vehicle_type_id":"4","last_reported":1736151182,"current_range_meters":11200,"station_id":"ce4bho12rcd13ifvqh1g","pricing_plan_id":"cebpf4jnsgd1na2vs0mg"},