{"last_updated":1735823705,"ttl":60,"version":"2.2","data":{"bikes":[{"bike_id":"5ee06d1f-f474-4883-9d52-622f82f42531","system_id":"levelo_inurba_marseille","lat":43.32556,"lon":5.41455,"is_reserved":false,"is_disabled":false,"rental_uris":{"android":"levelo://app?vid=5ee06d1f-f474-4883-9d52-622f82f42531","ios":"levelo://app?vid=5ee06d1f-f474-4883-9d52-622f82f42531"},"vehicle_type_id":"4","last_reported":1735823705,"current_range_meters":38800,"station_id":"ce4bhq12rcd13ifvqhhg","pricing_plan_id":"cebpf4jnsgd1na2vs0mg"},{"bike_id":"172ccd61-d49f-41ee-9d70-c90aa70835fe","system_id":"levelo_inurba_marseille","lat":43.27428,"lon":5.39417,"is_reserved":false,"is_disabled":false,"rental_uris":{"android":"levelo://app?vid=172ccd61-d49f-41ee-9d70-c90aa70835fe","ios":"levelo://app?vid=172ccd61-d49f-41ee-9d70-c90aa70835fe"},"vehicle_type_id":"4","last_reported":1735823705,"current_range_meters":34800,"station_id":"ce4bhdp2rcd13ifvqf20","pricing_plan_id":"cebpf4jnsgd1na2vs0mg"},{"bike_id":"9f53e4dc-a826-426b-9ca9-adccc5d43e1f","system_id":"levelo_inurba_marseille","lat":43.25935,"lon":5.40908,"is_reserved":false,"is_disabled":false,"rental_uris":{"android":"levelo://app?vid=9f53e4dc-a826-426b-9ca9-adccc5d43e1f","ios":"levelo://app?vid=9f53e4dc-a826-426b-9ca9-adccc5d43e1f"},"vehicle_type_id":"4","last_reported":1735823705,"current_range_meters":26000,"station_id":"ce4bhm92rcd13ifvqglg","pricing_plan_id":"cebpf4jnsgd1na2vs0mg"},{"bike_id":"bc774450-9e82-4b77-bec0-9757df77a13c","system_id":"levelo_inurba_marseille","lat":43.26495,"lon":5.39551,"is_reserved":false,"is_disabled":false,"rental_uris":{"android":"levelo://app?vid=bc774450-9e82-4b77-bec0-9757df77a13c","ios":"levelo://app?vid=bc774450-9e82-4b77-bec0-9757df77a13c"},"vehicle_type_id":"4","last_reported":1735823705,"current_range_meters":39200,"station_id":"ce4bhi12rcd13ifvqfq0","pricing_plan_id":"cebpf4jnsgd1na2vs0mg"},{"bike_id":"68d26862-48dc-4628-a124-c110753ddadd","system_id":"levelo_inurba_marseille","lat":43.24392,"lon":5.37061,"is_reserved":false,"is_disabled":false,"rental_uris":{"android":"levelo://app?vid=68d26862-48dc-4628-a124-c110753ddadd","ios":"levelo://app?vid=68d26862-48dc-4628-a124-c110753ddadd"},"vehicle_type_id":"4","last_reported":1735823705,"current_range_meters":16400,"station_id":"ce4bhhh2rcd13ifvqfk0","pricing_plan_id":"cebpf4jnsgd1na2vs0mg"},{"bike_id":"259412ae-a9bb-43fa-89b0-91ce274ab21d","system_id":"levelo_inurba_marseille","lat":43.25723,"lon":5.41114,"is_reserved":false,"is_disabled":false,"rental_uris":{"android":"levelo://app?vid=259412ae-a9bb-43fa-89b0-91ce274ab21d","ios":"levelo://app?vid=259412ae-a9bb-43fa-89b0-91ce274ab21d"},"vehicle_type_id":"4","last_reported":1735823705,"current_range_meters":38800,"station_id":"ce4bhkp2rcd13ifvqgd0","pricing_plan_id":"cebpf4jnsgd1na2vs0mg"},{"bike_id":"8d302db1-84c6-4ba1-857b-c92f49a1207e","system_id":"levelo_inurba_marseille","lat":43.29824,"lon":5.36261,"is_reserved":false,"is_disabled":false,"rental_uris":{"android":"levelo://app?vid=8d302db1-84c6-4ba1-857b-c92f49a1207e","ios":"levelo://app?vid=8d302db1-84c6-4ba1-857b-c92f49a1207e"},"vehicle_type_id":"4","last_reported":1735823705,"current_range_meters":38800,"station_id":"ce4bgpp2rcd13ifvqc3g","pricing_plan_id":"cebpf4jnsgd1na2vs0mg"},{"bike_id":"ad1ca926-88de-4a90-b8d7-2ce0b01e3fc0","system_id":"levelo_inurba_marseille","lat":43.29273,"lon":5.40139,"is_reserved":false,"is_disabled":false,"rental_uris":{"android":"levelo://app?vid=ad1ca926-88de-4a90-b8d7-2ce0b01e3fc0","ios":"levelo://app?vid=ad1ca926-88de-4a90-b8d7-2ce0b01e3fc0"},"vehicle_type_id":"4","last_reported":1735823705,"current_range_meters":36800,"station_id":"ce4bh312rcd13ifvqdk0","pricing_plan_id":"cebpf4jnsgd1na2vs0mg"},{"bike_id":"a48467b9-5597-41dc-87b2-5ef3c85c2656","system_id":"levelo_inurba_marseille","lat":43.27613,"lon":5.36119,"is_reserved":false,"is_disabled":false,"rental_uris":{"android":"levelo://app?vid=a48467b9-5597-41dc-87b2-5ef3c85c2656","ios":"levelo://app?vid=a48467b9-5597-41dc-87b2-5ef3c85c2656"},"vehicle_type_id":"4","last_reported":1735823705,"current_range_meters":12800,"station_id":"ce4bgj92rcd13ifvqbe0","pricing_plan_id":"cebpf4jnsgd1na2vs0mg"},{"bike_id":"0ee7dbed-7540-4de9-94e5-dcf46398860b","system_id":"levelo_inurba_marseille","lat":43.26209,"lon":5.37443,"is_reserved":false,"is_disabled":false,"rental_uris":{"android":"levelo://app?vid=0ee7dbed-7540-4de9-94e5-dcf46398860b","ios":"levelo://app?vid=0ee7dbed-7540-4de9-94e5-dcf46398860b"},"vehicle_type_id":"4","last_reported":1735823705,"current_range_meters":27200,"station_id":"ce4bhgp2rcd13ifvqfc0","pricing_plan_id":"cebpf4jnsgd1na2vs0mg"},{"bike_id":"116f92ae-65b4-4f7c-a23b-1117c0a69b33","system_id":"levelo_inurba_marseille","lat":43.28621,"lon":5.35166,"is_reserved":false,"is_disabled":false,"rental_uris":{"android":"levelo://app?vid=116f92ae-65b4-4f7c-a23b-1117c0a69b33","ios":"levelo://app?vid=116f92ae-65b4-4f7c-a23b-1117c0a69b33"},"vehicle_type_id":"4","last_reported":1735823705,"current_range_meters":30800,"station_id":"ce4bhch2rcd13ifvqeug","pricing_plan_id":"cebpf4jnsgd1na2vs0mg"},{"bike_id":"e423629e-caf1-4427-8702-b30357fe9b81","system_id":"levelo_inurba_marseille","lat":43.25008,"lon":5.38904,"is_reserved":false,"is_disabled":false,"rental_uris":{"android":"levelo://app?vid=e423629e-caf1-4427-8702-b30357fe9b81","ios":"levelo://app?vid=e423629e-caf1-4427-8702-b30357fe9b81"},"vehicle_type_id":"4","last_reported":1735823705,"current_range_meters":14400,"station_id":"ce4bhgp2rcd13ifvqfd0","pricing_plan_id":"cebpf4jnsgd1na2vs0mg"},{"bike_id":"f8a56d52-b34c-43a2-b38b-916cb11b999a","system_id":"levelo_inurba_marseille","lat":43.30209,"lon":5.39461,"is_reserved":false,"is_disabled":false,"rental_uris":{"android":"levelo://app?vid=f8a56d52-b34c-43a2-b38b-916cb11b999a","ios":"levelo://app?vid=f8a56d52-b34c-43a2-b38b-916cb11b999a"},"vehicle_type_id":"4","last_reported":1735823705,"current_range_meters":33600,"station_id":"ce4bh0p2rcd13ifvqd70","pricing_plan_id":"cebpf4jnsgd1na2vs0mg"},{"bike_id":"5430a545-a0f1-45ad-a500-b4193006fdcf","system_id":"levelo_inurba_marseille","lat":43.232,"lon":5.35595,"is_reserved":false,"is_disabled":false,"rental_uris":{"android":"levelo://app?vid=5430a545-a0f1-45ad-a500-b4193006fdcf","ios":"levelo://app?vid=5430a545-a0f1-45ad-a500-b4193006fdcf"},"vehicle_type_id":"4","last_reported":1735823705,"current_range_meters":20000,"station_id":"ce4bhu92rcd13ifvqi70","pricing_plan_id":"cebpf4jnsgd1na2vs0mg"},{"bike_id":"e32d7aa6-4586-4a07-a65b-f19ace97ad67","system_id":"levelo_inurba_marseille","lat":43.26943,"lon":5.3866,"is_reserved":false,"is_disabled":false,"rental_uris":{"android":"levelo://app?vid=e32d7aa6-4586-4a07-a65b-f19ace97ad67","ios":"levelo://app?vid=e32d7aa6-4586-4a07-a65b-f19ace97ad67"},"vehicle_type_id":"4","last_reported":1735823705,"current_range_meters":38800,"station_id":"ce4bhh92rcd13ifvqfh0","pricing_plan_id":"cebpf4jnsgd1na2vs0mg"},{"bike_id":"76d392c8-6dd4-4fbf-b626-27c2990c047b","system_id":"levelo_inurba_marseille","lat":43.28162,"lon":5.42839,"is_reserved":false,"is_disabled":false,"rental_uris":{"android":"levelo://app?vid=76d392c8-6dd4-4fbf-b626-27c2990c047b","ios":"levelo://app?vid=76d392c8-6dd4-4fbf-b626-27c2990c047b"},"vehicle_type_id":"4","last_reported":1735823705,"current_range_meters":25200,"station_id":"","pricing_plan_id":"cebpf4jnsgd1na2vs0mg"},{"bike_id":"ebb56956-e2e2-4f51-8f7a-80ccc26c078c","system_id":"levelo_inurba_marseille","lat":43.28137,"lon":5.42653,"is_reserved":false,"is_disabled":false,"rental_uris":{"android":"levelo://app?vid=ebb56956-e2e2-4f51-8f7a-80ccc26c078c","ios":"levelo://app?vid=ebb56956-e2e2-4f51-8f7a-80ccc26c078c"},"vehicle_type_id":"4","last_reported":1735823705,"current_range_meters":35600,"station_id":"ce4bhnh2rcd13ifvqgug","pricing_plan_id":"cebpf4jnsgd1na2vs0mg"},{"bike_id":"4d35de00-49e2-4cfb-95b6-43a72479fc1c","system_id":"levelo_inurba_marseille","lat":43.29896,"lon":5.38142,"is_reserved":false,"is_disabled":false,"rental_uris":{"android":"levelo://app?vid=4d35de00-49e2-4cfb-95b6-43a72479fc1c","ios":"levelo://app?vid=4d35de00-49e2-4cfb-95b6-43a72479fc1c"},"vehicle_type_id":"4","last_reported":1735823705,"current_range_meters":38800,"station_id":"ce4bgj12rcd13ifvqbc0","pricing_plan_id":"cebpf4jnsgd1na2vs0mg"},{"bike_id":"22c20b9f-9f58-48d4-a208-0d02ff4eaea6","system_id":"levelo_inurba_marseille","lat":43.30898,"lon":5.36843,"is_reserved":false,"is_disabled":false,"rental_uris":{"android":"levelo://app?vid=22c20b9f-9f58-48d4-a208-0d02ff4eaea6","ios":"levelo://app?vid=22c20b9f-9f58-48d4-a208-0d02ff4eaea6"},"vehicle_type_id":"4","last_reported":1735823705,"current_range_meters":36800,"station_id":"ce4bgn92rcd13ifvqbvg","pricing_plan_id":"cebpf4jnsgd1na2vs0mg"},{"bike_id":"da921914-e6e1-41c9-848b-cf65281b504c","system_id":"levelo_inurba_marseille","lat":43.28109,"lon":5.37841,"is_reserved":false,"is_disabled":false,"rental_uris":{"android":"levelo://app?vid=da921914-e6e1-41c9-848b-cf65281b504c","ios":"levelo://app?vid=da921914-e6e1-41c9-848b-cf65281b504c"},"vehicle_type_id":"4","last_reported":1735823705,"current_range_meters":18000,"station_id":"ce4bha12rcd13ifvqee0","pricing_plan_id":"cebpf4jnsgd1na2vs0mg"},{"bike_id":"439818dc-86f0-4179-8c0e-05632c3a5134","system_id":"levelo_inurba_marseille","lat":43.23191,"lon":5.3556,"is_reserved":false,"is_disabled":false,"rental_uris":{"android":"levelo://app?vid=439818dc-86f0-4179-8c0e-05632c3a5134","ios":"levelo://app?vid=439818dc-86f0-4179-8c0e-05632c3a5134"},"vehicle_type_id":"4","last_reported":1735823705,"current_range_meters":39200,"station_id":"ce4bhu92rcd13ifvqi70","pricing_plan_id":"cebpf4jnsgd1na2vs0mg"},{"bike_id":"97717a3a-5240-48fe-b29e-9e7f0d2b5fba","system_id":"levelo_inurba_marseille","lat":43.31715,"lon":5.43709,"is_reserved":false,"is_disabled":false,"rental_uris":{"android":"levelo://app?vid=97717a3a-5240-48fe-b29e-9e7f0d2b5fba","ios":"levelo://app?vid=97717a3a-5240-48fe-b29e-9e7f0d2b5fba"},"vehicle_type_id":"4","last_reported":1735823705,"current_range_meters":24800,"station_id":"ce4bhp92rcd13ifvqhcg","pricing_plan_id":"cebpf4jnsgd1na2vs0mg"},{"bike_id":"1d672422-bf59-476f-9d9f-f13a17ee8399","system_id":"levelo_inurba_marseille","lat":43.28495,"lon":5.38431,"is_reserved":false,"is_disabled":false,"rental_uris":{"android":"levelo://app?vid=1d672422-bf59-476f-9d9f-f13a17ee8399","ios":"levelo://app?vid=1d672422-bf59-476f-9d9f-f13a17ee8399"},"vehicle_type_id":"4","last_reported":1735823705,"current_range_meters":27200,"station_id":"ce4bh512rcd13ifvqe3g","pricing_plan_id":"cebpf4jnsgd1na2vs0mg"},{"bike_id":"a3517146-3a38-485e-9b65-46f28f14e1c6","system_id":"levelo_inurba_marseille","lat":43.26953,"lon":5.38928,"is_reserved":false,"is_disabled":false,"rental_uris":{"android":"levelo://app?vid=a3517146-3a38-485e-9b65-46f28f14e1c6","ios":"levelo://app?vid=a3517146-3a38-485e-9b65-46f28f14e1c6"},"vehicle_type_id":"4","last_reported":1735823705,"current_range_meters":26800,"station_id":"ce4bhhh2rcd13ifvqfl0","pricing_plan_id":"cebpf4jnsgd1na2vs0mg"},{"bike_id":"6d3379aa-0f1b-4ef6-a7dc-b0f6d379d543","system_id":"levelo_inurba_marseille","lat":43.25877,"lon":5.399,"is_reserved":false,"is_disabled":false,"rental_uris":{"android":"levelo://app?vid=6d3379aa-0f1b-4ef6-a7dc-b0f6d379d543","ios":"levelo://app?vid=6d3379aa-0f1b-4ef6-a7dc-b0f6d379d543"},"vehicle_type_id":"4","last_reported":1735823705,"current_range_meters":36800,"station_id":"ce4bhl92rcd13ifvqghg","pricing_plan_id":"cebpf4jnsgd1na2vs0mg"},{"bike_id":"0414a468-1219-4f8e-a750-d9badae394df","system_id":"levelo_inurba_marseille","lat":43.28081,"lon":5.3966,"is_reserved":false,"is_disabled":false,"rental_uris":{"android":"levelo://app?vid=0414a468-1219-4f8e-a750-d9badae394df","ios":"levelo://app?vid=0414a468-1219-4f8e-a750-d9badae394df"},"vehicle_type_id":"4","last_reported":1735823705,"current_range_meters":38800,"station_id":"ce4bho12rcd13ifvqh2g","pricing_plan_id":"cebpf4jnsgd1na2vs0mg"},{"bike_id":"c26911b3-55be-4a19-bd79-fe324cf9f80d","system_id":"levelo_inurba_marseille","lat":43.3088,"lon":5.3965,"is_reserved":false,"is_disabled":false,"rental_uris":{"android":"levelo://app?vid=c26911b3-55be-4a19-bd79-fe324cf9f80d","ios":"levelo://app?vid=c26911b3-55be-4a19-bd79-fe324cf9f80d"},"vehicle_type_id":"4","last_reported":1735823705,"current_range_meters":18800,"station_id":"ce4bh012rcd13ifvqcv0","pricing_plan_id":"cebpf4jnsgd1na2vs0mg"},{"bike_id":"1efb6e70-f243-4ee4-8c73-08ef2a2c6772","system_id":"levelo_inurba_marseille","lat":43.25826,"lon":5.39435,"is_reserved":false,"is_disabled":false,"rental_uris":{"android":"levelo://app?vid=1efb6e70-f243-4ee4-8c73-08ef2a2c6772","ios":"levelo://app?vid=1efb6e70-f243-4ee4-8c73-08ef2a2c6772"},"vehicle_type_id":"4","last_reported":1735823705,"current_range_meters":39200,"station_id":"ce4bhip2rcd13ifvqft0","pricing_plan_id":"cebpf4jnsgd1na2vs0mg"},{"bike_id":"df844190-b792-4bd6-97c8-eedd3e5d7d59","system_id":"levelo_inurba_marseille","lat":43.23962,"lon":5.36637,"is_reserved":false,"is_disabled":false,"rental_uris":{"android":"levelo://app?vid=df844190-b792-4bd6-97c8-eedd3e5d7d59","ios":"levelo://app?vid=df844190-b792-4bd6-97c8-eedd3e5d7d59"},"vehicle_type_id":"4","last_reported":1735823705,"current_range_meters":28400,"station_id":"ce4bhi12rcd13ifvqfp0","pricing_plan_id":"cebpf4jnsgd1na2vs0mg"},{"bike_id":"bcc47b98-405a-4d86-8e5f-bbe262abbd0d","system_id":"levelo_inurba_marseille","lat":43.32098,"lon":5.36783,"is_reserved":false,"is_disabled":false,"rental_uris":{"android":"levelo://app?vid=bcc47b98-405a-4d86-8e5f-bbe262abbd0d","ios":"levelo://app?vid=bcc47b98-405a-4d86-8e5f-bbe262abbd0d"},"vehicle_type_id":"4","last_reported":1735823705,"current_range_meters":29600,"station_id":"ce4bhrh2rcd13ifvqhug","pricing_plan_id":"cebpf4jnsgd1na2vs0mg"},{"bike_id":"22142c57-2f2e-4366-937e-5d68bf39a239","system_id":"levelo_inurba_marseille","lat":43.2587,"lon":5.39897,"is_reserved":false,"is_disabled":false,"rental_uris":{"android":"levelo://app?vid=22142c57-2f2e-4366-937e-5d68bf39a239","ios":"levelo://app?vid=22142c57-2f2e-4366-937e-5d68bf39a239"},"vehicle_type_id":"4","last_reported":1735823705,"current_range_meters":25600,"station_id":"ce4bhl92rcd13ifvqghg","pricing_plan_id":"cebpf4jnsgd1na2vs0mg"},{"bike_id":"0c16cdcd-f841-4761-811e-4eaf0ad8cae7","system_id":"levelo_inurba_marseille","lat":43.24178,"lon":5.39748,"is_reserved":false,"is_disabled":false,"rental_uris":{"android":"levelo://app?vid=0c16cdcd-f841-4761-811e-4eaf0ad8cae7","ios":"levelo://app?vid=0c16cdcd-f841-4761-811e-4eaf0ad8cae7"},"vehicle_type_id":"4","last_reported":1735823705,"current_range_meters":12000,"station_id":"ce4bhn12rcd13ifvqgpg","pricing_plan_id":"cebpf4jnsgd1na2vs0mg"},{"bike_id":"027085de-3c06-4c90-8099-b9537f78e863","system_id":"levelo_inurba_marseille","lat":43.2317,"lon":5.43673,"is_reserved":false,"is_disabled":false,"rental_uris":{"android":"levelo://app?vid=027085de-3c06-4c90-8099-b9537f78e863","ios":"levelo://app?vid=027085de-3c06-4c90-8099-b9537f78e863"},"vehicle_type_id":"4","last_reported":1735823705,"current_range_meters":30400,"station_id":"ce4bhmp2rcd13ifvqgog","pricing_plan_id":"cebpf4jnsgd1na2vs0mg"},{"bike_id":"7e6326d8-0475-4259-9437-f3937534dc0f","system_id":"levelo_inurba_marseille","lat":43.28396,"lon":5.37513,"is_reserved":false,"is_disabled":false,"rental_uris":{"android":"levelo://app?vid=7e6326d8-0475-4259-9437-f3937534dc0f","ios":"levelo://app?vid=7e6326d8-0475-4259-9437-f3937534dc0f"},"vehicle_type_id":"4","last_reported":1735823705,"current_range_meters":38800,"station_id":"ce4bh412rcd13ifvqds0","pricing_plan_id":"cebpf4jnsgd1na2vs0mg"},{"bike_id":"1bd6c3a5-0868-4df6-8ba3-9908e873dbdc","system_id":"levelo_inurba_marseille","lat":43.30234,"lon":5.40063,"is_reserved":false,"is_disabled":false,"rental_uris":{"android":"levelo://app?vid=1bd6c3a5-0868-4df6-8ba3-9908e873dbdc","ios":"levelo://app?vid=1bd6c3a5-0868-4df6-8ba3-9908e873dbdc"},"vehicle_type_id":"4","last_reported":1735823705,"current_range_meters":26800,"station_id":"ce4bgvh2rcd13ifvqcs0","pricing_plan_id":"cebpf4jnsgd1na2vs0mg"},{"bike_id":"747cdc20-1e87-471e-9182-016e75c83978","system_id":"levelo_inurba_marseille","lat":43.24646,"lon":5.38893,"is_reserved":false,"is_disabled":false,"rental_uris":{"android":"levelo://app?vid=747cdc20-1e87-471e-9182-016e75c83978","ios":"levelo://app?vid=747cdc20-1e87-471e-9182-016e75c83978"},"vehicle_type_id":"4","last_reported":1735823705,"current_range_meters":38800,"station_id":"ce4bhg12rcd13ifvqf60","pricing_plan_id":"cebpf4jnsgd1na2vs0mg"},{"bike_id":"7a63d77d-b3e4-4713-9060-b918ad8247d2","system_id":"levelo_inurba_marseille","lat":43.22931,"lon":5.3538,"is_reserved":false,"is_disabled":false,"rental_uris":{"android":"levelo://app?vid=7a63d77d-b3e4-4713-9060-b918ad8247d2","ios":"levelo://app?vid=7a63d77d-b3e4-4713-9060-b918ad8247d2"},"vehicle_type_id":"4","last_reported":1735823705,"current_range_meters":20400,"station_id":"cpo3532slgdg3j2ikp40","pricing_plan_id":"cebpf4jnsgd1na2vs0mg"},{"bike_id":"9b5916a1-20b4-45b5-ae28-a04ea7106c34","system_id":"levelo_inurba_marseille","lat":43.27559,"lon":5.3845,"is_reserved":false,"is_disabled":false,"rental_uris":{"android":"levelo://app?vid=9b5916a1-20b4-45b5-ae28-a04ea7106c34","ios":"levelo://app?vid=9b5916a1-20b4-45b5-ae28-a04ea7106c34"},"vehicle_type_id":"4","last_reported":1735823705,"current_range_meters":26800,"station_id":"ce4bhh92rcd13ifvqfi0","pricing_plan_id":"cebpf4jnsgd1na2vs0mg"},{"bike_id":"6903f890-7fc4-46b4-bda9-d6177c9b8416","system_id":"levelo_inurba_marseille","lat":43.299305,"lon":5.37461,"is_reserved":false,"is_disabled":false,"rental_uris":{"android":"levelo://app?vid=6903f890-7fc4-46b4-bda9-d6177c9b8416","ios":"levelo://app?vid=6903f890-7fc4-46b4-bda9-d6177c9b8416"},"vehicle_type_id":"4","last_reported":1735823705,"current_range_meters":33200,"station_id":"ce4bgjh2rcd13ifvqbg0","pricing_plan_id":"cebpf4jnsgd1na2vs0mg"},{"bike_id":"7c208806-9597-4bef-aac1-40a7c22ec1a9","system_id":"levelo_inurba_marseille","lat":43.29565,"lon":5.37527,"is_reserved":false,"is_disabled":false,"rental_uris":{"android":"levelo://app?vid=7c208806-9597-4bef-aac1-40a7c22ec1a9","ios":"levelo://app?vid=7c208806-9597-4bef-aac1-40a7c22ec1a9"},"vehicle_type_id":"4","last_reported":1735823705,"current_range_meters":32000,"station_id":"ce4bgh92rcd13ifvqb50","pricing_plan_id":"cebpf4jnsgd1na2vs0mg"},{"bike_id":"3c7472a4-a45c-4f46-a692-aa44ebf92f21","system_id":"levelo_inurba_marseille","lat":43.27425,"lon":5.39404,"is_reserved":false,"is_disabled":false,"rental_uris":{"android":"levelo://app?vid=3c7472a4-a45c-4f46-a692-aa44ebf92f21","ios":"levelo://app?vid=3c7472a4-a45c-4f46-a692-aa44ebf92f21"},"vehicle_type_id":"4","last_reported":1735823705,"current_range_meters":36400,"station_id":"ce4bhdp2rcd13ifvqf20","pricing_plan_id":"cebpf4jnsgd1na2vs0mg"},{"bike_id":"e7f418a5-86c5-4de0-9591-919713e68bae","system_id":"levelo_inurba_marseille","lat":43.29898,"lon":5.38151,"is_reserved":false,"is_disabled":false,"rental_uris":{"android":"levelo://app?vid=e7f418a5-86c5-4de0-9591-919713e68bae","ios":"levelo://app?vid=e7f418a5-86c5-4de0-9591-919713e68bae"},"vehicle_type_id":"4","last_reported":1735823705,"current_range_meters":39200,"station_id":"ce4bgj12rcd13ifvqbc0","pricing_plan_id":"cebpf4jnsgd1na2vs0mg"},{"bike_id":"60aa8768-465e-4e59-8359-ab05b91a90a1","system_id":"levelo_inurba_marseille","lat":43.28947,"lon":5.36405,"is_reserved":false,"is_disabled":false,"rental_uris":{"android":"levelo://app?vid=60aa8768-465e-4e59-8359-ab05b91a90a1","ios":"levelo://app?vid=60aa8768-465e-4e59-8359-ab05b91a90a1"},"vehicle_type_id":"4","last_reported":1735823705,"current_range_meters":6400,"station_id":"ce4bhc92rcd13ifvqetg","pricing_plan_id":"cebpf4jnsgd1na2vs0mg"},{"bike_id":"8e45db5b-1dbf-46fe-8bf4-f34b766e496e","system_id":"levelo_inurba_marseille","lat":43.2971,"lon":5.37701,"is_reserved":false,"is_disabled":false,"rental_uris":{"android":"levelo://app?vid=8e45db5b-1dbf-46fe-8bf4-f34b766e496e","ios":"levelo://app?vid=8e45db5b-1dbf-46fe-8bf4-f34b766e496e"},"vehicle_type_id":"4","last_reported":1735823705,"current_range_meters":24000,"station_id":"ce4bgkh2rcd13ifvqbl0","pricing_plan_id":"cebpf4jnsgd1na2vs0mg"},{"bike_id":"4b9b3c02-7773-410b-a74d-2537aad0fdc1","system_id":"levelo_inurba_marseille","lat":43.2839,"lon":5.37543,"is_reserved":false,"is_disabled":false,"rental_uris":{"android":"levelo://app?vid=4b9b3c02-7773-410b-a74d-2537aad0fdc1","ios":"levelo://app?vid=4b9b3c02-7773-410b-a74d-2537aad0fdc1"},"vehicle_type_id":"4","last_reported":1735823705,"current_range_meters":26800,"station_id":"ce4bh412rcd13ifvqds0","pricing_plan_id":"cebpf4jnsgd1na2vs0mg"},{"bike_id":"fbbbe958-d841-4632-81a5-42a7e4241a90","system_id":"levelo_inurba_marseille","lat":43.30211,"lon":5.39469,"is_reserved":false,"is_disabled":false,"rental_uris":{"android":"levelo://app?vid=fbbbe958-d841-4632-81a5-42a7e4241a90","ios":"levelo://app?vid=fbbbe958-d841-4632-81a5-42a7e4241a90"},"vehicle_type_id":"4","last_reported":1735823705,"current_range_meters":35600,"station_id":"ce4bh0p2rcd13ifvqd70","pricing_plan_id":"cebpf4jnsgd1na2vs0mg"},{"bike_id":"f7d355f4-06b0-4fd6-9913-0cb19bd689db","system_id":"levelo_inurba_marseille","lat":43.25816,"lon":5.39418,"is_reserved":false,"is_disabled":false,"rental_uris":{"android":"levelo://app?vid=f7d355f4-06b0-4fd6-9913-0cb19bd689db","ios":"levelo://app?vid=f7d355f4-06b0-4fd6-9913-0cb19bd689db"},"vehicle_type_id":"4","last_reported":1735823705,"current_range_meters":38400,"station_id":"ce4bhip2rcd13ifvqft0","pricing_plan_id":"cebpf4jnsgd1na2vs0mg"},{"bike_id":"da3075ee-8070-42f9-8350-58e475a60c82","system_id":"levelo_inurba_marseille","lat":43.27557,"lon":5.38413,"is_reserved":false,"is_disabled":false,"rental_uris":{"android":"levelo://app?vid=da3075ee-8070-42f9-8350-58e475a60c82","ios":"levelo://app?vid=da3075ee-8070-42f9-8350-58e475a60c82"},"vehicle_type_id":"4","last_reported":1735823705,"current_range_meters":38800,"station_id":"ce4bhh92rcd13ifvqfi0","pricing_plan_id":"cebpf4jnsgd1na2vs0mg"},{"bike_id":"f4e21194-bae0-47dd-9943-53bf3035cc9f","system_id":"levelo_inurba_marseille","lat":43.24649,"lon":5.38883,"is_reserved":false,"is_disabled":false,"rental_uris":{"android":"levelo://app?vid=f4e21194-bae0-47dd-9943-53bf3035cc9f","ios":"levelo://app?vid=f4e21194-bae0-47dd-9943-53bf3035cc9f"},"vehicle_type_id":"4","last_reported":1735823705,"current_range_meters":39200,"station_id":"ce4bhg12rcd13ifvqf60","pricing_plan_id":"cebpf4jnsgd1na2vs0mg"},{"bike_id":"edef67d7-5c40-4f54-afb7-0b1514203358","system_id":"levelo_inurba_marseille","lat":43.28695,"lon":5.39985,"is_reserved":false,"is_disabled":false,"rental_uris":{"android":"levelo://app?vid=edef67d7-5c40-4f54-afb7-0b1514203358","ios":"levelo://app?vid=edef67d7-5c40-4f54-afb7-0b1514203358"},"vehicle_type_id":"4","last_reported":1735823705,"current_range_meters":38800,"station_id":"ce4bho92rcd13ifvqh3g","pricing_plan_id":"cebpf4jnsgd1na2vs0mg"},{"bike_id":"4d915748-ad4f-4d96-8355-1be47204284a","system_id":"levelo_inurba_marseille","lat":43.24999,"lon":5.38933,"is_reserved":false,"is_disabled":false,"rental_uris":{"android":"levelo://app?vid=4d915748-ad4f-4d96-8355-1be47204284a","ios":"levelo://app?vid=4d915748-ad4f-4d96-8355-1be47204284a"},"vehicle_type_id":"4","last_reported":1735823705,"current_range_meters":38000,"station_id":"ce4bhgp2rcd13ifvqfd0","pricing_plan_id":"cebpf4jnsgd1na2vs0mg"},{"bike_id":"e5fc90b8-f4d7-48fe-9b1b-e04042412667","system_id":"levelo_inurba_marseille","lat":43.31989,"lon":5.38171,"is_reserved":false,"is_disabled":false,"rental_uris":{"android":"levelo://app?vid=e5fc90b8-f4d7-48fe-9b1b-e04042412667","ios":"levelo://app?vid=e5fc90b8-f4d7-48fe-9b1b-e04042412667"},"vehicle_type_id":"4","last_reported":1735823705,"current_range_meters":38800,"station_id":"ce4bhr12rcd13ifvqhpg","pricing_plan_id":"cebpf4jnsgd1na2vs0mg"},{"bike_id":"e62be8ed-c268-492c-aa2c-0f49000a195a","system_id":"levelo_inurba_marseille","lat":43.30518,"lon":5.36531,"is_reserved":false,"is_disabled":false,"rental_uris":{"android":"levelo://app?vid=e62be8ed-c268-492c-aa2c-0f49000a195a","ios":"levelo://app?vid=e62be8ed-c268-492c-aa2c-0f49000a195a"},"vehicle_type_id":"4","last_reported":1735823705,"current_range_meters":38800,"station_id":"ce4bgs12rcd13ifvqcag","pricing_plan_id":"cebpf4jnsgd1na2vs0mg"},{"bike_id":"203337c5-d83b-45eb-b9f8-60cc8f9bda19","system_id":"levelo_inurba_marseille","lat":43.28113,"lon":5.37841,"is_reserved":false,"is_disabled":false,"rental_uris":{"android":"levelo://app?vid=203337c5-d83b-45eb-b9f8-60cc8f9bda19","ios":"levelo://app?vid=203337c5-d83b-45eb-b9f8-60cc8f9bda19"},"vehicle_type_id":"4","last_reported":1735823705,"current_range_meters":24800,"station_id":"ce4bha12rcd13ifvqee0","pricing_plan_id":"cebpf4jnsgd1na2vs0mg"},{"bike_id":"4978c861-7169-4939-9627-52270c6c5ae7","system_id":"levelo_inurba_marseille","lat":43.28092,"lon":5.37866,"is_reserved":false,"is_disabled":false,"rental_uris":{"android":"levelo://app?vid=4978c861-7169-4939-9627-52270c6c5ae7","ios":"levelo://app?vid=4978c861-7169-4939-9627-52270c6c5ae7"},"vehicle_type_id":"4","last_reported":1735823705,"current_range_meters":37600,"station_id":"ce4bha12rcd13ifvqee0","pricing_plan_id":"cebpf4jnsgd1na2vs0mg"},{"bike_id":"9d003aa7-b20b-4593-a135-d561f0efef5c","system_id":"levelo_inurba_marseille","lat":43.29718,"lon":5.37695,"is_reserved":false,"is_disabled":false,"rental_uris":{"android":"levelo://app?vid=9d003aa7-b20b-4593-a135-d561f0efef5c","ios":"levelo://app?vid=9d003aa7-b20b-4593-a135-d561f0efef5c"},"vehicle_type_id":"4","last_reported":1735823705,"current_range_meters":35600,"station_id":"ce4bgkh2rcd13ifvqbl0","pricing_plan_id":"cebpf4jnsgd1na2vs0mg"},{"bike_id":"9ec22bb6-ddde-4544-bfca-bd222a10c5d4","system_id":"levelo_inurba_marseille","lat":43.28637,"lon":5.35211,"is_reserved":false,"is_disabled":false,"rental_uris":{"android":"levelo://app?vid=9ec22bb6-ddde-4544-bfca-bd222a10c5d4","ios":"levelo://app?vid=9ec22bb6-ddde-4544-bfca-bd222a10c5d4"},"vehicle_type_id":"4","last_reported":1735823705,"current_range_meters":13600,"station_id":"ce4bhch2rcd13ifvqeug","pricing_plan_id":"cebpf4jnsgd1na2vs0mg"},{"bike_id":"1c062351-f698-4ee4-87ae-fce7281bfbb0","system_id":"levelo_inurba_marseille","lat":43.2954,"lon":5.38552,"is_reserved":false,"is_disabled":true,"rental_uris":{"android":"levelo://app?vid=1c062351-f698-4ee4-87ae-fce7281bfbb0","ios":"levelo://app?vid=1c062351-f698-4ee4-87ae-fce7281bfbb0"},"vehicle_type_id":"4","last_reported":1735823705,"current_range_meters":9200,"station_id":"ce4bgih2rcd13ifvqba0","pricing_plan_id":"cebpf4jnsgd1na2vs0mg"},{"bike_id":"f0fa7015-b079-44ca-ab07-ac23b7b1b9ac","system_id":"levelo_inurba_marseille","lat":43.25111,"lon":5.40327,"is_reserved":false,"is_disabled":false,"rental_uris":{"android":"levelo://app?vid=f0fa7015-b079-44ca-ab07-ac23b7b1b9ac","ios":"levelo://app?vid=f0fa7015-b079-44ca-ab07-ac23b7b1b9ac"},"vehicle_type_id":"4","last_reported":1735823705,"current_range_meters":28400,"station_id":"ce4bhlh2rcd13ifvqgig","pricing_plan_id":"cebpf4jnsgd1na2vs0mg"},{"bike_id":"436152c4-2e78-4b76-9c55-1a2d326df1d2","system_id":"levelo_inurba_marseille","lat":43.26685,"lon":5.38277,"is_reserved":false,"is_disabled":false,"rental_uris":{"android":"levelo://app?vid=436152c4-2e78-4b76-9c55-1a2d326df1d2","ios":"levelo://app?vid=436152c4-2e78-4b76-9c55-1a2d326df1d2"},"vehicle_type_id":"4","last_reported":1735823705,"current_range_meters":38800,"station_id":"ce4bhg92rcd13ifvqf90","pricing_plan_id":"cebpf4jnsgd1na2vs0mg"},{"bike_id":"36c57643-026a-42de-b691-14a896d65458","system_id":"levelo_inurba_marseille","lat":43.29413,"lon":5.39413,"is_reserved":false,"is_disabled":false,"rental_uris":{"android":"levelo://app?vid=36c57643-026a-42de-b691-14a896d65458","ios":"levelo://app?vid=36c57643-026a-42de-b691-14a896d65458"},"vehicle_type_id":"4","last_reported":1735823705,"current_range_meters":38800,"station_id":"chh1huq6cuj3fo74tm60","pricing_plan_id":"cebpf4jnsgd1na2vs0mg"},{"bike_id":"a1c87532-6196-402b-916e-8ad945b95f72","system_id":"levelo_inurba_marseille","lat":43.25102,"lon":5.40343,"is_reserved":false,"is_disabled":false,"rental_uris":{"android":"levelo://app?vid=a1c87532-6196-402b-916e-8ad945b95f72","ios":"levelo://app?vid=a1c87532-6196-402b-916e-8ad945b95f72"},"vehicle_type_id":"4","last_reported":1735823705,"current_range_meters":14000,"station_id":"ce4bhlh2rcd13ifvqgig","pricing_plan_id":"cebpf4jnsgd1na2vs0mg"},{"bike_id":"4ce38f45-b3ef-4ce1-84b1-8cf7c7ee4592","system_id":"levelo_inurba_marseille","lat":43.27923,"lon":5.41047,"is_reserved":false,"is_disabled":false,"rental_uris":{"android":"levelo://app?vid=4ce38f45-b3ef-4ce1-84b1-8cf7c7ee4592","ios":"levelo://app?vid=4ce38f45-b3ef-4ce1-84b1-8cf7c7ee4592"},"vehicle_type_id":"4","last_reported":1735823705,"current_range_meters":33200,"station_id":"ce4bhnp2rcd13ifvqh0g","pricing_plan_id":"cebpf4jnsgd1na2vs0mg"},{"bike_id":"ee66b3b3-9d27-4863-a3a4-25566d8946cc","system_id":"levelo_inurba_marseille","lat":43.29964,"lon":5.38495,"is_reserved":false,"is_disabled":false,"rental_uris":{"android":"levelo://app?vid=ee66b3b3-9d27-4863-a3a4-25566d8946cc","ios":"levelo://app?vid=ee66b3b3-9d27-4863-a3a4-25566d8946cc"},"vehicle_type_id":"4","last_reported":1735823705,"current_range_meters":18000,"station_id":"ce4bgj92rcd13ifvqbd0","pricing_plan_id":"cebpf4jnsgd1na2vs0mg"},{"bike_id":"2585ba0c-a53b-4534-a4d1-06bca0cf6b30","system_id":"levelo_inurba_marseille","lat":43.30197,"lon":5.36612,"is_reserved":false,"is_disabled":false,"rental_uris":{"android":"levelo://app?vid=2585ba0c-a53b-4534-a4d1-06bca0cf6b30","ios":"levelo://app?vid=2585ba0c-a53b-4534-a4d1-06bca0cf6b30"},"vehicle_type_id":"4","last_reported":1735823705,"current_range_meters":34000,"station_id":"ce4bgrh2rcd13ifvqc8g","pricing_plan_id":"cebpf4jnsgd1na2vs0mg"},{"bike_id":"b6b20695-a312-4168-af64-70ee72bf8ce8","system_id":"levelo_inurba_marseille","lat":43.33803,"lon":5.37438,"is_reserved":false,"is_disabled":true,"rental_uris":{"android":"levelo://app?vid=b6b20695-a312-4168-af64-70ee72bf8ce8","ios":"levelo://app?vid=b6b20695-a312-4168-af64-70ee72bf8ce8"},"vehicle_type_id":"4","last_reported":1735823705,"current_range_meters":25200,"station_id":"","pricing_plan_id":"cebpf4jnsgd1na2vs0mg"},{"bike_id":"c603e222-bb85-4f15-b14c-68b3dacea069","system_id":"levelo_inurba_marseille","lat":43.30205,"lon":5.39461,"is_reserved":false,"is_disabled":false,"rental_uris":{"android":"levelo://app?vid=c603e222-bb85-4f15-b14c-68b3dacea069","ios":"levelo://app?vid=c603e222-bb85-4f15-b14c-68b3dacea069"},"vehicle_type_id":"4","last_reported":1735823705,"current_range_meters":12800,"station_id":"ce4bh0p2rcd13ifvqd70","pricing_plan_id":"cebpf4jnsgd1na2vs0mg"},{"bike_id":"e6d2bc5c-3622-4d21-9318-8913a0d78f99","system_id":"levelo_inurba_marseille","lat":43.30797,"lon":5.3816,"is_reserved":false,"is_disabled":false,"rental_uris":{"android":"levelo://app?vid=e6d2bc5c-3622-4d21-9318-8913a0d78f99","ios":"levelo://app?vid=e6d2bc5c-3622-4d21-9318-8913a0d78f99"},"vehicle_type_id":"4","last_reported":1735823705,"current_range_meters":23200,"station_id":"ce4bgt12rcd13ifvqce0","pricing_plan_id":"cebpf4jnsgd1na2vs0mg"},{"bike_id":"c2f52897-290d-4e21-9183-2beb52ef49f6","system_id":"levelo_inurba_marseille","lat":43.31488,"lon":5.37308,"is_reserved":false,"is_disabled":false,"rental_uris":{"android":"levelo://app?vid=c2f52897-290d-4e21-9183-2beb52ef49f6","ios":"levelo://app?vid=c2f52897-290d-4e21-9183-2beb52ef49f6"},"vehicle_type_id":"4","last_reported":1735823705,"current_range_meters":32400,"station_id":"ce4bgt12rcd13ifvqcd0","pricing_plan_id":"cebpf4jnsgd1na2vs0mg"},{"bike_id":"56f0126c-45fb-44b3-97b0-52859230b9db","system_id":"levelo_inurba_marseille","lat":43.26554,"lon":5.37286,"is_reserved":false,"is_disabled":false,"rental_uris":{"android":"levelo://app?vid=56f0126c-45fb-44b3-97b0-52859230b9db","ios":"levelo://app?vid=56f0126c-45fb-44b3-97b0-52859230b9db"},"vehicle_type_id":"4","last_reported":1735823705,"current_range_meters":28000,"station_id":"ce4bhg12rcd13ifvqf70","pricing_plan_id":"cebpf4jnsgd1na2vs0mg"},{"bike_id":"c08da6f1-55cc-4abb-b728-6576bd6b59e5","system_id":"levelo_inurba_marseille","lat":43.28417,"lon":5.37534,"is_reserved":false,"is_disabled":false,"rental_uris":{"android":"levelo://app?vid=c08da6f1-55cc-4abb-b728-6576bd6b59e5","ios":"levelo://app?vid=c08da6f1-55cc-4abb-b728-6576bd6b59e5"},"vehicle_type_id":"4","last_reported":1735823705,"current_range_meters":27600,"station_id":"ce4bh412rcd13ifvqds0","pricing_plan_id":"cebpf4jnsgd1na2vs0mg"},{"bike_id":"9d74cd0d-1085-4fb3-bb94-9e11e4165971","system_id":"levelo_inurba_marseille","lat":43.2694,"lon":5.38639,"is_reserved":false,"is_disabled":false,"rental_uris":{"android":"levelo://app?vid=9d74cd0d-1085-4fb3-bb94-9e11e4165971","ios":"levelo://app?vid=9d74cd0d-1085-4fb3-bb94-9e11e4165971"},"vehicle_type_id":"4","last_reported":1735823705,"current_range_meters":21600,"station_id":"ce4bhh92rcd13ifvqfh0","pricing_plan_id":"cebpf4jnsgd1na2vs0mg"},{"bike_id":"0f970ab2-f998-41b0-80ff-00401e442924","system_id":"levelo_inurba_marseille","lat":43.26222,"lon":5.3748,"is_reserved":false,"is_disabled":false,"rental_uris":{"android":"levelo://app?vid=0f970ab2-f998-41b0-80ff-00401e442924","ios":"levelo://app?vid=0f970ab2-f998-41b0-80ff-00401e442924"},"vehicle_type_id":"4","last_reported":1735823705,"current_range_meters":30800,"station_id":"","pricing_plan_id":"cebpf4jnsgd1na2vs0mg"},{"bike_id":"26d8ac4d-4b63-44fb-97f4-f059e5b0a309","system_id":"levelo_inurba_marseille","lat":43.29939,"lon":5.36555,"is_reserved":false,"is_disabled":false,"rental_uris":{"android":"levelo://app?vid=26d8ac4d-4b63-44fb-97f4-f059e5b0a309","ios":"levelo://app?vid=26d8ac4d-4b63-44fb-97f4-f059e5b0a309"},"vehicle_type_id":"4","last_reported":1735823705,"current_range_meters":27200,"station_id":"ce4bgm92rcd13ifvqbr0","pricing_plan_id":"cebpf4jnsgd1na2vs0mg"},{"bike_id":"a77cb61b-7bf4-4634-bc34-29d17b6073d0","system_id":"levelo_inurba_marseille","lat":43.2439,"lon":5.37064,"is_reserved":false,"is_disabled":false,"rental_uris":{"android":"levelo://app?vid=a77cb61b-7bf4-4634-bc34-29d17b6073d0","ios":"levelo://app?vid=a77cb61b-7bf4-4634-bc34-29d17b6073d0"},"vehicle_type_id":"4","last_reported":1735823705,"current_range_meters":39200,"station_id":"ce4bhhh2rcd13ifvqfk0","pricing_plan_id":"cebpf4jnsgd1na2vs0mg"},{"bike_id":"24768f7d-abd3-4e60-8def-4262e3e855a6","system_id":"levelo_inurba_marseille","lat":43.30152,"lon":5.37416,"is_reserved":false,"is_disabled":false,"rental_uris":{"android":"levelo://app?vid=24768f7d-abd3-4e60-8def-4262e3e855a6","ios":"levelo://app?vid=24768f7d-abd3-4e60-8def-4262e3e855a6"},"vehicle_type_id":"4","last_reported":1735823705,"current_range_meters":29600,"station_id":"ce4bgs92rcd13ifvqcc0","pricing_plan_id":"cebpf4jnsgd1na2vs0mg"},{"bike_id":"880314f7-3ab4-4c14-b61d-79d2a58fdbc6","system_id":"levelo_inurba_marseille","lat":43.27314,"lon":5.39099,"is_reserved":false,"is_disabled":false,"rental_uris":{"android":"levelo://app?vid=880314f7-3ab4-4c14-b61d-79d2a58fdbc6","ios":"levelo://app?vid=880314f7-3ab4-4c14-b61d-79d2a58fdbc6"},"vehicle_type_id":"4","last_reported":1735823705,"current_range_meters":33200,"station_id":"ce4bhgp2rcd13ifvqfe0","pricing_plan_id":"cebpf4jnsgd1na2vs0mg"},{"bike_id":"a3832046-6898-424d-9b6f-6bb2ac6c6f0a","system_id":"levelo_inurba_marseille","lat":43.26792,"lon":5.39409,"is_reserved":false,"is_disabled":false,"rental_uris":{"android":"levelo://app?vid=a3832046-6898-424d-9b6f-6bb2ac6c6f0a","ios":"levelo://app?vid=a3832046-6898-424d-9b6f-6bb2ac6c6f0a"},"vehicle_type_id":"4","last_reported":1735823705,"current_range_meters":30000,"station_id":"ce4bhh12rcd13ifvqfg0","pricing_plan_id":"cebpf4jnsgd1na2vs0mg"},{"bike_id":"32367301-c7ff-429a-a361-be031e7869b9","system_id":"levelo_inurba_marseille","lat":43.29725,"lon":5.3771,"is_reserved":false,"is_disabled":false,"rental_uris":{"android":"levelo://app?vid=32367301-c7ff-429a-a361-be031e7869b9","ios":"levelo://app?vid=32367301-c7ff-429a-a361-be031e7869b9"},"vehicle_type_id":"4","last_reported":1735823705,"current_range_meters":35600,"station_id":"ce4bgkh2rcd13ifvqbl0","pricing_plan_id":"cebpf4jnsgd1na2vs0mg"},{"bike_id":"6ed3fdbb-b150-4868-b3fe-dcf7dbba80db","system_id":"levelo_inurba_marseille","lat":43.27335,"lon":5.39096,"is_reserved":false,"is_disabled":false,"rental_uris":{"android":"levelo://app?vid=6ed3fdbb-b150-4868-b3fe-dcf7dbba80db","ios":"levelo://app?vid=6ed3fdbb-b150-4868-b3fe-dcf7dbba80db"},"vehicle_type_id":"4","last_reported":1735823705,"current_range_meters":28400,"station_id":"ce4bhgp2rcd13ifvqfe0","pricing_plan_id":"cebpf4jnsgd1na2vs0mg"},{"bike_id":"971bd521-576b-4c26-b482-75bc329316be","system_id":"levelo_inurba_marseille","lat":43.30581,"lon":5.36521,"is_reserved":false,"is_disabled":false,"rental_uris":{"android":"levelo://app?vid=971bd521-576b-4c26-b482-75bc329316be","ios":"levelo://app?vid=971bd521-576b-4c26-b482-75bc329316be"},"vehicle_type_id":"4","last_reported":1735823705,"current_range_meters":38800,"station_id":"ce4bgs12rcd13ifvqcag","pricing_plan_id":"cebpf4jnsgd1na2vs0mg"},{"bike_id":"49cd29d8-0082-4760-b848-8de96d0af34c","system_id":"levelo_inurba_marseille","lat":43.28473,"lon":5.35893,"is_reserved":false,"is_disabled":false,"rental_uris":{"android":"levelo://app?vid=49cd29d8-0082-4760-b848-8de96d0af34c","ios":"levelo://app?vid=49cd29d8-0082-4760-b848-8de96d0af34c"},"vehicle_type_id":"4","last_reported":1735823705,"current_range_meters":20800,"station_id":"ce4bhah2rcd13ifvqei0","pricing_plan_id":"cebpf4jnsgd1na2vs0mg"},{"bike_id":"3ef5ee40-dafc-4c27-8dbc-f24b53b4bafa","system_id":"levelo_inurba_marseille","lat":43.29979,"lon":5.37192,"is_reserved":false,"is_disabled":true,"rental_uris":{"android":"levelo://app?vid=3ef5ee40-dafc-4c27-8dbc-f24b53b4bafa","ios":"levelo://app?vid=3ef5ee40-dafc-4c27-8dbc-f24b53b4bafa"},"vehicle_type_id":"4","last_reported":1735823705,"current_range_meters":1600,"station_id":"ce4bgr92rcd13ifvqc7g","pricing_plan_id":"cebpf4jnsgd1na2vs0mg"},{"bike_id":"0dcc397f-0139-460e-a7d4-e9d2532aabb3","system_id":"levelo_inurba_marseille","lat":43.24814,"lon":5.37485,"is_reserved":false,"is_disabled":false,"rental_uris":{"android":"levelo://app?vid=0dcc397f-0139-460e-a7d4-e9d2532aabb3","ios":"levelo://app?vid=0dcc397f-0139-460e-a7d4-e9d2532aabb3"},"vehicle_type_id":"4","last_reported":1735823705,"current_range_meters":38800,"station_id":"ce4bhgh2rcd13ifvqfb0","pricing_plan_id":"cebpf4jnsgd1na2vs0mg"},{"bike_id":"b9483ae2-c489-4c3a-b4d3-949223301e70","system_id":"levelo_inurba_marseille","lat":43.26774,"lon":5.39396,"is_reserved":false,"is_disabled":false,"rental_uris":{"android":"levelo://app?vid=b9483ae2-c489-4c3a-b4d3-949223301e70","ios":"levelo://app?vid=b9483ae2-c489-4c3a-b4d3-949223301e70"},"vehicle_type_id":"4","last_reported":1735823705,"current_range_meters":38800,"station_id":"ce4bhh12rcd13ifvqfg0","pricing_plan_id":"cebpf4jnsgd1na2vs0mg"},{"bike_id":"9296373e-a8da-4ff9-a488-98089ece75a4","system_id":"levelo_inurba_marseille","lat":43.28435,"lon":5.34969,"is_reserved":false,"is_disabled":false,"rental_uris":{"android":"levelo://app?vid=9296373e-a8da-4ff9-a488-98089ece75a4","ios":"levelo://app?vid=9296373e-a8da-4ff9-a488-98089ece75a4"},"vehicle_type_id":"4","last_reported":1735823705,"current_range_meters":32400,"station_id":"ce4bhbh2rcd13ifvqepg","pricing_plan_id":"cebpf4jnsgd1na2vs0mg"},{"bike_id":"6d0fe542-389e-4a84-9bdd-004f297b4077","system_id":"levelo_inurba_marseille","lat":43.30546,"lon":5.36552,"is_reserved":false,"is_disabled":false,"rental_uris":{"android":"levelo://app?vid=6d0fe542-389e-4a84-9bdd-004f297b4077","ios":"levelo://app?vid=6d0fe542-389e-4a84-9bdd-004f297b4077"},"vehicle_type_id":"4","last_reported":1735823705,"current_range_meters":35600,"station_id":"ce4bgs12rcd13ifvqcag","pricing_plan_id":"cebpf4jnsgd1na2vs0mg"},{"bike_id":"a97886b1-3b7b-49ea-bd03-54e928caae4a","system_id":"levelo_inurba_marseille","lat":43.30552,"lon":5.36531,"is_reserved":false,"is_disabled":false,"rental_uris":{"android":"levelo://app?vid=a97886b1-3b7b-49ea-bd03-54e928caae4a","ios":"levelo://app?vid=a97886b1-3b7b-49ea-bd03-54e928caae4a"},"vehicle_type_id":"4","last_reported":1735823705,"current_range_meters":36800,"station_id":"ce4bgs12rcd13ifvqcag","pricing_plan_id":"cebpf4jnsgd1na2vs0mg"},{"bike_id":"f75fe293-e314-4772-8712-30cfadcd3832","system_id":"levelo_inurba_marseille","lat":43.30213,"lon":5.39465,"is_reserved":false,"is_disabled":false,"rental_uris":{"android":"levelo://app?vid=f75fe293-e314-4772-8712-30cfadcd3832","ios":"levelo://app?vid=f75fe293-e314-4772-8712-30cfadcd3832"},"vehicle_type_id":"4","last_reported":1735823705,"current_range_meters":36800,"station_id":"ce4bh0p2rcd13ifvqd70","pricing_plan_id":"cebpf4jnsgd1na2vs0mg"},{"bike_id":"5becd014-2ea4-4e6e-af75-6157a5a38862","system_id":"levelo_inurba_marseille","lat":43.29893,"lon":5.37476,"is_reserved":false,"is_disabled":false,"rental_uris":{"android":"levelo://app?vid=5becd014-2ea4-4e6e-af75-6157a5a38862","ios":"levelo://app?vid=5becd014-2ea4-4e6e-af75-6157a5a38862"},"vehicle_type_id":"4","last_reported":1735823705,"current_range_meters":38800,"station_id":"ce4bgjh2rcd13ifvqbg0","pricing_plan_id":"cebpf4jnsgd1na2vs0mg"},{"bike_id":"07d330b4-7716-466c-9290-de1d6c68907d","system_id":"levelo_inurba_marseille","lat":43.30533,"lon":5.3675,"is_reserved":false,"is_disabled":false,"rental_uris":{"android":"levelo://app?vid=07d330b4-7716-466c-9290-de1d6c68907d","ios":"levelo://app?vid=07d330b4-7716-466c-9290-de1d6c68907d"},"vehicle_type_id":"4","last_reported":1735823705,"current_range_meters":33200,"station_id":"ce4bgrp2rcd13ifvqc9g","pricing_plan_id":"cebpf4jnsgd1na2vs0mg"},{"bike_id":"0d22c007-f5b2-4481-9b21-08f35f061702","system_id":"levelo_inurba_marseille","lat":43.29646,"lon":5.37155,"is_reserved":false,"is_disabled":true,"rental_uris":{"android":"levelo://app?vid=0d22c007-f5b2-4481-9b21-08f35f061702","ios":"levelo://app?vid=0d22c007-f5b2-4481-9b21-08f35f061702"},"vehicle_type_id":"4","last_reported":1735823705,"current_range_meters":0,"station_id":"ce4bgnh2rcd13ifvqc0g","pricing_plan_id":"cebpf4jnsgd1na2vs0mg"},{"bike_id":"b73c3d58-60c7-401c-89d2-ec82db626270","system_id":"levelo_inurba_marseille","lat":43.2971,"lon":5.37692,"is_reserved":false,"is_disabled":false,"rental_uris":{"android":"levelo://app?vid=b73c3d58-60c7-401c-89d2-ec82db626270","ios":"levelo://app?vid=b73c3d58-60c7-401c-89d2-ec82db626270"},"vehicle_type_id":"4","last_reported":1735823705,"current_range_meters":17200,"station_id":"ce4bgkh2rcd13ifvqbl0","pricing_plan_id":"cebpf4jnsgd1na2vs0mg"},{"bike_id":"b65446bf-e8cd-42c0-a605-66d7275adaf9","system_id":"levelo_inurba_marseille","lat":43.2406,"lon":5.3775,"is_reserved":false,"is_disabled":false,"rental_uris":{"android":"levelo://app?vid=b65446bf-e8cd-42c0-a605-66d7275adaf9","ios":"levelo://app?vid=b65446bf-e8cd-42c0-a605-66d7275adaf9"},"vehicle_type_id":"4","last_reported":1735823705,"current_range_meters":22000,"station_id":"ce4bhnp2rcd13ifvqgvg","pricing_plan_id":"cebpf4jnsgd1na2vs0mg"},{"bike_id":"420f49bd-12f9-4ac8-894f-d25e2366a168","system_id":"levelo_inurba_marseille","lat":43.29856,"lon":5.36276,"is_reserved":false,"is_disabled":false,"rental_uris":{"android":"levelo://app?vid=420f49bd-12f9-4ac8-894f-d25e2366a168","ios":"levelo://app?vid=420f49bd-12f9-4ac8-894f-d25e2366a168"},"vehicle_type_id":"4","last_reported":1735823705,"current_range_meters":12000,"station_id":"ce4bgpp2rcd13ifvqc3g","pricing_plan_id":"cebpf4jnsgd1na2vs0mg"},{"bike_id":"2b76f89d-a2e0-45c6-9a1f-2d4166d6cfc1","system_id":"levelo_inurba_marseille","lat":43.29259,"lon":5.38438,"is_reserved":false,"is_disabled":true,"rental_uris":{"android":"levelo://app?vid=2b76f89d-a2e0-45c6-9a1f-2d4166d6cfc1","ios":"levelo://app?vid=2b76f89d-a2e0-45c6-9a1f-2d4166d6cfc1"},"vehicle_type_id":"4","last_reported":1735823705,"current_range_meters":38800,"station_id":"ce4bh692rcd13ifvqea0","pricing_plan_id":"cebpf4jnsgd1na2vs0mg"},{"bike_id":"58122467-6eff-4418-a990-e155b8f5b206","system_id":"levelo_inurba_marseille","lat":43.28964,"lon":5.37834,"is_reserved":false,"is_disabled":false,"rental_uris":{"android":"levelo://app?vid=58122467-6eff-4418-a990-e155b8f5b206","ios":"levelo://app?vid=58122467-6eff-4418-a990-e155b8f5b206"},"vehicle_type_id":"4","last_reported":1735823705,"current_range_meters":37600,"station_id":"ce4bh9p2rcd13ifvqed0","pricing_plan_id":"cebpf4jnsgd1na2vs0mg"},{"bike_id":"8f236aa0-69d9-4777-af98-8397a0b1ff94","system_id":"levelo_inurba_marseille","lat":43.28152,"lon":5.42641,"is_reserved":false,"is_disabled":true,"rental_uris":{"android":"levelo://app?vid=8f236aa0-69d9-4777-af98-8397a0b1ff94","ios":"levelo://app?vid=8f236aa0-69d9-4777-af98-8397a0b1ff94"},"vehicle_type_id":"4","last_reported":1735823705,"current_range_meters":9600,"station_id":"ce4bhnh2rcd13ifvqgug","pricing_plan_id":"cebpf4jnsgd1na2vs0mg"},{"bike_id":"6ef39cf2-9335-427d-88a0-a018f070fb57","system_id":"levelo_inurba_marseille","lat":43.31776,"lon":5.39096,"is_reserved":false,"is_disabled":false,"rental_uris":{"android":"levelo://app?vid=6ef39cf2-9335-427d-88a0-a018f070fb57","ios":"levelo://app?vid=6ef39cf2-9335-427d-88a0-a018f070fb57"},"vehicle_type_id":"4","last_reported":1735823705,"current_range_meters":22400,"station_id":"","pricing_plan_id":"cebpf4jnsgd1na2vs0mg"},{"bike_id":"92fa521d-39bd-47c2-9510-966a14e1a6ee","system_id":"levelo_inurba_marseille","lat":43.28463,"lon":5.35888,"is_reserved":false,"is_disabled":false,"rental_uris":{"android":"levelo://app?vid=92fa521d-39bd-47c2-9510-966a14e1a6ee","ios":"levelo://app?vid=92fa521d-39bd-47c2-9510-966a14e1a6ee"},"vehicle_type_id":"4","last_reported":1735823705,"current_range_meters":38800,"station_id":"ce4bhah2rcd13ifvqei0","pricing_plan_id":"cebpf4jnsgd1na2vs0mg"},{"bike_id":"01de914a-72cd-4732-981a-40c6fffcb3c3","system_id":"levelo_inurba_marseille","lat":43.25926,"lon":5.40901,"is_reserved":false,"is_disabled":false,"rental_uris":{"android":"levelo://app?vid=01de914a-72cd-4732-981a-40c6fffcb3c3","ios":"levelo://app?vid=01de914a-72cd-4732-981a-40c6fffcb3c3"},"vehicle_type_id":"4","last_reported":1735823705,"current_range_meters":35600,"station_id":"ce4bhm92rcd13ifvqglg","pricing_plan_id":"cebpf4jnsgd1na2vs0mg"},{"bike_id":"d9039fb6-1526-43a5-ab47-bf6c74051347","system_id":"levelo_inurba_marseille","lat":43.28164,"lon":5.42638,"is_reserved":false,"is_disabled":true,"rental_uris":{"android":"levelo://app?vid=d9039fb6-1526-43a5-ab47-bf6c74051347","ios":"levelo://app?vid=d9039fb6-1526-43a5-ab47-bf6c74051347"},"vehicle_type_id":"4","last_reported":1735823705,"current_range_meters":1600,"station_id":"ce4bhnh2rcd13ifvqgug","pricing_plan_id":"cebpf4jnsgd1na2vs0mg"},{"bike_id":"b5e3865b-10bc-4c4f-ad14-18834fa7a270","system_id":"levelo_inurba_marseille","lat":43.30316,"lon":5.36917,"is_reserved":false,"is_disabled":false,"rental_uris":{"android":"levelo://app?vid=b5e3865b-10bc-4c4f-ad14-18834fa7a270","ios":"levelo://app?vid=b5e3865b-10bc-4c4f-ad14-18834fa7a270"},"vehicle_type_id":"4","last_reported":1735823705,"current_range_meters":39200,"station_id":"ce4bgqh2rcd13ifvqc5g","pricing_plan_id":"cebpf4jnsgd1na2vs0mg"},{"bike_id":"628a5455-080f-4414-969d-c062a978390e","system_id":"levelo_inurba_marseille","lat":43.28461,"lon":5.38539,"is_reserved":false,"is_disabled":false,"rental_uris":{"android":"levelo://app?vid=628a5455-080f-4414-969d-c062a978390e","ios":"levelo://app?vid=628a5455-080f-4414-969d-c062a978390e"},"vehicle_type_id":"4","last_reported":1735823705,"current_range_meters":38800,"station_id":"ce4bh8p2rcd13ifvqeb0","pricing_plan_id":"cebpf4jnsgd1na2vs0mg"},{"bike_id":"37cfe836-3adc-4335-b170-6d998d4b6d2f","system_id":"levelo_inurba_marseille","lat":43.28606,"lon":5.35114,"is_reserved":false,"is_disabled":false,"rental_uris":{"android":"levelo://app?vid=37cfe836-3adc-4335-b170-6d998d4b6d2f","ios":"levelo://app?vid=37cfe836-3adc-4335-b170-6d998d4b6d2f"},"vehicle_type_id":"4","last_reported":1735823705,"current_range_meters":11200,"station_id":"ce4bhch2rcd13ifvqeug","pricing_plan_id":"cebpf4jnsgd1na2vs0mg"},{"bike_id":"022d826a-d31d-48ef-b07e-f8dd0ceaa746","system_id":"levelo_inurba_marseille","lat":43.24996,"lon":5.38935,"is_reserved":false,"is_disabled":false,"rental_uris":{"android":"levelo://app?vid=022d826a-d31d-48ef-b07e-f8dd0ceaa746","ios":"levelo://app?vid=022d826a-d31d-48ef-b07e-f8dd0ceaa746"},"vehicle_type_id":"4","last_reported":1735823705,"current_range_meters":28000,"station_id":"ce4bhgp2rcd13ifvqfd0","pricing_plan_id":"cebpf4jnsgd1na2vs0mg"},{"bike_id":"eacf956a-efeb-494a-8998-d628ea6f9fd4","system_id":"levelo_inurba_marseille","lat":43.337444,"lon":5.374475,"is_reserved":false,"is_disabled":false,"rental_uris":{"android":"levelo://app?vid=eacf956a-efeb-494a-8998-d628ea6f9fd4","ios":"levelo://app?vid=eacf956a-efeb-494a-8998-d628ea6f9fd4"},"vehicle_type_id":"4","last_reported":1735823705,"current_range_meters":17200,"station_id":"","pricing_plan_id":"cebpf4jnsgd1na2vs0mg"},{"bike_id":"e5bb4a6c-dc1b-473c-941d-102c4ae9a6a7","system_id":"levelo_inurba_marseille","lat":43.29296,"lon":5.40154,"is_reserved":false,"is_disabled":false,"rental_uris":{"android":"levelo://app?vid=e5bb4a6c-dc1b-473c-941d-102c4ae9a6a7","ios":"levelo://app?vid=e5bb4a6c-dc1b-473c-941d-102c4ae9a6a7"},"vehicle_type_id":"4","last_reported":1735823705,"current_range_meters":38800,"station_id":"ce4bh312rcd13ifvqdk0","pricing_plan_id":"cebpf4jnsgd1na2vs0mg"},{"bike_id":"141d6291-f03f-4009-a1b9-6464d0dd1fc4","system_id":"levelo_inurba_marseille","lat":43.29731,"lon":5.37738,"is_reserved":false,"is_disabled":false,"rental_uris":{"android":"levelo://app?vid=141d6291-f03f-4009-a1b9-6464d0dd1fc4","ios":"levelo://app?vid=141d6291-f03f-4009-a1b9-6464d0dd1fc4"},"vehicle_type_id":"4","last_reported":1735823705,"current_range_meters":22400,"station_id":"ce4bgi92rcd13ifvqb90","pricing_plan_id":"cebpf4jnsgd1na2vs0mg"},{"bike_id":"2fd6bfc3-a346-41de-9c5f-11d9ae890a02","system_id":"levelo_inurba_marseille","lat":43.30883,"lon":5.37194,"is_reserved":false,"is_disabled":false,"rental_uris":{"android":"levelo://app?vid=2fd6bfc3-a346-41de-9c5f-11d9ae890a02","ios":"levelo://app?vid=2fd6bfc3-a346-41de-9c5f-11d9ae890a02"},"vehicle_type_id":"4","last_reported":1735823705,"current_range_meters":37600,"station_id":"ce4bguh2rcd13ifvqckg","pricing_plan_id":"cebpf4jnsgd1na2vs0mg"},{"bike_id":"55a8a7bb-98e9-461f-923e-fc4eca67cd2f","system_id":"levelo_inurba_marseille","lat":43.27841,"lon":5.39217,"is_reserved":false,"is_disabled":false,"rental_uris":{"android":"levelo://app?vid=55a8a7bb-98e9-461f-923e-fc4eca67cd2f","ios":"levelo://app?vid=55a8a7bb-98e9-461f-923e-fc4eca67cd2f"},"vehicle_type_id":"4","last_reported":1735823705,"current_range_meters":17200,"station_id":"ce4bhjp2rcd13ifvqga0","pricing_plan_id":"cebpf4jnsgd1na2vs0mg"},{"bike_id":"4fddba13-1e7b-4cbb-a7ff-2b7342e1322f","system_id":"levelo_inurba_marseille","lat":43.26219,"lon":5.37433,"is_reserved":false,"is_disabled":false,"rental_uris":{"android":"levelo://app?vid=4fddba13-1e7b-4cbb-a7ff-2b7342e1322f","ios":"levelo://app?vid=4fddba13-1e7b-4cbb-a7ff-2b7342e1322f"},"vehicle_type_id":"4","last_reported":1735823705,"current_range_meters":12800,"station_id":"ce4bhgp2rcd13ifvqfc0","pricing_plan_id":"cebpf4jnsgd1na2vs0mg"},{"bike_id":"44d177c7-eea4-4936-8fb2-f4e78401eb94","system_id":"levelo_inurba_marseille","lat":43.25904,"lon":5.40904,"is_reserved":false,"is_disabled":false,"rental_uris":{"android":"levelo://app?vid=44d177c7-eea4-4936-8fb2-f4e78401eb94","ios":"levelo://app?vid=44d177c7-eea4-4936-8fb2-f4e78401eb94"},"vehicle_type_id":"4","last_reported":1735823705,"current_range_meters":36800,"station_id":"ce4bhm92rcd13ifvqglg","pricing_plan_id":"cebpf4jnsgd1na2vs0mg"},{"bike_id":"189d832f-528f-4b42-a3f9-2aa8c8b4f686","system_id":"levelo_inurba_marseille","lat":43.29889,"lon":5.43656,"is_reserved":false,"is_disabled":false,"rental_uris":{"android":"levelo://app?vid=189d832f-528f-4b42-a3f9-2aa8c8b4f686","ios":"levelo://app?vid=189d832f-528f-4b42-a3f9-2aa8c8b4f686"},"vehicle_type_id":"4","last_reported":1735823705,"current_range_meters":38800,"station_id":"ce4bhpp2rcd13ifvqhfg","pricing_plan_id":"cebpf4jnsgd1na2vs0mg"},{"bike_id":"375263f7-8be8-4e9c-8273-54301f8efcdc","system_id":"levelo_inurba_marseille","lat":43.28144,"lon":5.4265,"is_reserved":false,"is_disabled":false,"rental_uris":{"android":"levelo://app?vid=375263f7-8be8-4e9c-8273-54301f8efcdc","ios":"levelo://app?vid=375263f7-8be8-4e9c-8273-54301f8efcdc"},"vehicle_type_id":"4","last_reported":1735823705,"current_range_meters":9200,"station_id":"ce4bhnh2rcd13ifvqgug","pricing_plan_id":"cebpf4jnsgd1na2vs0mg"},{"bike_id":"daee0f1f-f41a-4547-b28f-fd7b5ec4335f","system_id":"levelo_inurba_marseille","lat":43.284245,"lon":5.3752,"is_reserved":false,"is_disabled":false,"rental_uris":{"android":"levelo://app?vid=daee0f1f-f41a-4547-b28f-fd7b5ec4335f","ios":"levelo://app?vid=daee0f1f-f41a-4547-b28f-fd7b5ec4335f"},"vehicle_type_id":"4","last_reported":1735823705,"current_range_meters":28800,"station_id":"ce4bh412rcd13ifvqds0","pricing_plan_id":"cebpf4jnsgd1na2vs0mg"},{"bike_id":"a6cc3042-dfda-4de8-8ba5-43c81ce3efce","system_id":"levelo_inurba_marseille","lat":43.29866,"lon":5.37474,"is_reserved":false,"is_disabled":false,"rental_uris":{"android":"levelo://app?vid=a6cc3042-dfda-4de8-8ba5-43c81ce3efce","ios":"levelo://app?vid=a6cc3042-dfda-4de8-8ba5-43c81ce3efce"},"vehicle_type_id":"4","last_reported":1735823705,"current_range_meters":36800,"station_id":"","pricing_plan_id":"cebpf4jnsgd1na2vs0mg"},{"bike_id":"c90599a4-f6ae-4f3a-b35c-412d1cb904f4","system_id":"levelo_inurba_marseille","lat":43.29794,"lon":5.3811,"is_reserved":false,"is_disabled":false,"rental_uris":{"android":"levelo://app?vid=c90599a4-f6ae-4f3a-b35c-412d1cb904f4","ios":"levelo://app?vid=c90599a4-f6ae-4f3a-b35c-412d1cb904f4"},"vehicle_type_id":"4","last_reported":1735823705,"current_range_meters":20400,"station_id":"ce4bgip2rcd13ifvqbb0","pricing_plan_id":"cebpf4jnsgd1na2vs0mg"},{"bike_id":"529d56a8-b2ac-446f-a54e-467a117abe09","system_id":"levelo_inurba_marseille","lat":43.29275,"lon":5.40146,"is_reserved":false,"is_disabled":false,"rental_uris":{"android":"levelo://app?vid=529d56a8-b2ac-446f-a54e-467a117abe09","ios":"levelo://app?vid=529d56a8-b2ac-446f-a54e-467a117abe09"},"vehicle_type_id":"4","last_reported":1735823705,"current_range_meters":38800,"station_id":"ce4bh312rcd13ifvqdk0","pricing_plan_id":"cebpf4jnsgd1na2vs0mg"},{"bike_id":"875ddf3d-2cfd-49c8-bd8d-f51a9265e541","system_id":"levelo_inurba_marseille","lat":43.267,"lon":5.38259,"is_reserved":false,"is_disabled":false,"rental_uris":{"android":"levelo://app?vid=875ddf3d-2cfd-49c8-bd8d-f51a9265e541","ios":"levelo://app?vid=875ddf3d-2cfd-49c8-bd8d-f51a9265e541"},"vehicle_type_id":"4","last_reported":1735823705,"current_range_meters":24400,"station_id":"ce4bhg92rcd13ifvqf90","pricing_plan_id":"cebpf4jnsgd1na2vs0mg"},{"bike_id":"e7f232e6-9751-45f4-a24f-005b95d10947","system_id":"levelo_inurba_marseille","lat":43.29565,"lon":5.37718,"is_reserved":false,"is_disabled":true,"rental_uris":{"android":"levelo://app?vid=e7f232e6-9751-45f4-a24f-005b95d10947","ios":"levelo://app?vid=e7f232e6-9751-45f4-a24f-005b95d10947"},"vehicle_type_id":"4","last_reported":1735823705,"current_range_meters":2800,"station_id":"","pricing_plan_id":"cebpf4jnsgd1na2vs0mg"},{"bike_id":"20bcfc0e-ce4b-4a55-a910-2c3c546797cb","system_id":"levelo_inurba_marseille","lat":43.29916,"lon":5.37482,"is_reserved":false,"is_disabled":false,"rental_uris":{"android":"levelo://app?vid=20bcfc0e-ce4b-4a55-a910-2c3c546797cb","ios":"levelo://app?vid=20bcfc0e-ce4b-4a55-a910-2c3c546797cb"},"vehicle_type_id":"4","last_reported":1735823705,"current_range_meters":35200,"station_id":"ce4bgjh2rcd13ifvqbg0","pricing_plan_id":"cebpf4jnsgd1na2vs0mg"},{"bike_id":"f3998a04-3b93-4948-8eb7-aa16047370fd","system_id":"levelo_inurba_marseille","lat":43.279589,"lon":5.410484,"is_reserved":false,"is_disabled":false,"rental_uris":{"android":"levelo://app?vid=f3998a04-3b93-4948-8eb7-aa16047370fd","ios":"levelo://app?vid=f3998a04-3b93-4948-8eb7-aa16047370fd"},"vehicle_type_id":"4","last_reported":1735823705,"current_range_meters":23200,"station_id":"ce4bhnp2rcd13ifvqh0g","pricing_plan_id":"cebpf4jnsgd1na2vs0mg"},{"bike_id":"1c5434c6-81cf-4ea8-9bf2-abfb41c12665","system_id":"levelo_inurba_marseille","lat":43.30896,"lon":5.37211,"is_reserved":false,"is_disabled":true,"rental_uris":{"android":"levelo://app?vid=1c5434c6-81cf-4ea8-9bf2-abfb41c12665","ios":"levelo://app?vid=1c5434c6-81cf-4ea8-9bf2-abfb41c12665"},"vehicle_type_id":"4","last_reported":1735823705,"current_range_meters":38400,"station_id":"ce4bguh2rcd13ifvqckg","pricing_plan_id":"cebpf4jnsgd1na2vs0mg"},{"bike_id":"0a1e66a5-cb08-41b4-894f-5709e4180435","system_id":"levelo_inurba_marseille","lat":43.31713,"lon":5.43708,"is_reserved":false,"is_disabled":false,"rental_uris":{"android":"levelo://app?vid=0a1e66a5-cb08-41b4-894f-5709e4180435","ios":"levelo://app?vid=0a1e66a5-cb08-41b4-894f-5709e4180435"},"vehicle_type_id":"4","last_reported":1735823705,"current_range_meters":36000,"station_id":"ce4bhp92rcd13ifvqhcg","pricing_plan_id":"cebpf4jnsgd1na2vs0mg"},{"bike_id":"6496d7ee-341e-4614-8cad-04436805cb4f","system_id":"levelo_inurba_marseille","lat":43.308028,"lon":5.400198,"is_reserved":false,"is_disabled":false,"rental_uris":{"android":"levelo://app?vid=6496d7ee-341e-4614-8cad-04436805cb4f","ios":"levelo://app?vid=6496d7ee-341e-4614-8cad-04436805cb4f"},"vehicle_type_id":"4","last_reported":1735823705,"current_range_meters":30800,"station_id":"ce4bh192rcd13ifvqdb0","pricing_plan_id":"cebpf4jnsgd1na2vs0mg"},{"bike_id":"8ead7e35-2ddd-4db1-b525-2dbe32578065","system_id":"levelo_inurba_marseille","lat":43.303,"lon":5.36916,"is_reserved":false,"is_disabled":true,"rental_uris":{"android":"levelo://app?vid=8ead7e35-2ddd-4db1-b525-2dbe32578065","ios":"levelo://app?vid=8ead7e35-2ddd-4db1-b525-2dbe32578065"},"vehicle_type_id":"4","last_reported":1735823705,"current_range_meters":30000,"station_id":"ce4bgqh2rcd13ifvqc5g","pricing_plan_id":"cebpf4jnsgd1na2vs0mg"},{"bike_id":"e157af35-862f-4ff3-a971-0cec14143385","system_id":"levelo_inurba_marseille","lat":43.27936,"lon":5.41071,"is_reserved":false,"is_disabled":false,"rental_uris":{"android":"levelo://app?vid=e157af35-862f-4ff3-a971-0cec14143385","ios":"levelo://app?vid=e157af35-862f-4ff3-a971-0cec14143385"},"vehicle_type_id":"4","last_reported":1735823705,"current_range_meters":28000,"station_id":"ce4bhnp2rcd13ifvqh0g","pricing_plan_id":"cebpf4jnsgd1na2vs0mg"},{"bike_id":"05fa99bf-6a64-43d6-8abb-7e948884f93a","system_id":"levelo_inurba_marseille","lat":43.27173,"lon":5.40986,"is_reserved":false,"is_disabled":false,"rental_uris":{"android":"levelo://app?vid=05fa99bf-6a64-43d6-8abb-7e948884f93a","ios":"levelo://app?vid=05fa99bf-6a64-43d6-8abb-7e948884f93a"},"vehicle_type_id":"4","last_reported":1735823705,"current_range_meters":38800,"station_id":"ce4bhl12rcd13ifvqgf0","pricing_plan_id":"cebpf4jnsgd1na2vs0mg"},{"bike_id":"f5997a88-606e-48c9-933e-041b10894cea","system_id":"levelo_inurba_marseille","lat":43.27085,"lon":5.4232,"is_reserved":false,"is_disabled":false,"rental_uris":{"android":"levelo://app?vid=f5997a88-606e-48c9-933e-041b10894cea","ios":"levelo://app?vid=f5997a88-606e-48c9-933e-041b10894cea"},"vehicle_type_id":"4","last_reported":1735823705,"current_range_meters":13600,"station_id":"ce4bhk92rcd13ifvqgb0","pricing_plan_id":"cebpf4jnsgd1na2vs0mg"},{"bike_id":"f220877a-b57e-44b0-bc17-60476a285c86","system_id":"levelo_inurba_marseille","lat":43.3054,"lon":5.36559,"is_reserved":false,"is_disabled":false,"rental_uris":{"android":"levelo://app?vid=f220877a-b57e-44b0-bc17-60476a285c86","ios":"levelo://app?vid=f220877a-b57e-44b0-bc17-60476a285c86"},"vehicle_type_id":"4","last_reported":1735823705,"current_range_meters":38800,"station_id":"ce4bgs12rcd13ifvqcag","pricing_plan_id":"cebpf4jnsgd1na2vs0mg"},{"bike_id":"02b9e2b7-c456-4117-99f8-a5a1cc0170b4","system_id":"levelo_inurba_marseille","lat":43.31753,"lon":5.39015,"is_reserved":false,"is_disabled":false,"rental_uris":{"android":"levelo://app?vid=02b9e2b7-c456-4117-99f8-a5a1cc0170b4","ios":"levelo://app?vid=02b9e2b7-c456-4117-99f8-a5a1cc0170b4"},"vehicle_type_id":"4","last_reported":1735823705,"current_range_meters":32400,"station_id":"ce4bhqp2rcd13ifvqhng","pricing_plan_id":"cebpf4jnsgd1na2vs0mg"},{"bike_id":"e78c5abe-64a4-4422-a037-82a4cc7a01cc","system_id":"levelo_inurba_marseille","lat":43.26946,"lon":5.40279,"is_reserved":false,"is_disabled":false,"rental_uris":{"android":"levelo://app?vid=e78c5abe-64a4-4422-a037-82a4cc7a01cc","ios":"levelo://app?vid=e78c5abe-64a4-4422-a037-82a4cc7a01cc"},"vehicle_type_id":"4","last_reported":1735823705,"current_range_meters":30400,"station_id":"cjm6bp8fraef2m0cb0m0","pricing_plan_id":"cebpf4jnsgd1na2vs0mg"},{"bike_id":"f013027c-1300-4279-8130-6fad518de600","system_id":"levelo_inurba_marseille","lat":43.30309,"lon":5.39215,"is_reserved":false,"is_disabled":false,"rental_uris":{"android":"levelo://app?vid=f013027c-1300-4279-8130-6fad518de600","ios":"levelo://app?vid=f013027c-1300-4279-8130-6fad518de600"},"vehicle_type_id":"4","last_reported":1735823705,"current_range_meters":25200,"station_id":"ce4bgkh2rcd13ifvqbk0","pricing_plan_id":"cebpf4jnsgd1na2vs0mg"},{"bike_id":"1758e404-548a-4b20-87fe-a9470e99ef0f","system_id":"levelo_inurba_marseille","lat":43.28339,"lon":5.38626,"is_reserved":false,"is_disabled":false,"rental_uris":{"android":"levelo://app?vid=1758e404-548a-4b20-87fe-a9470e99ef0f","ios":"levelo://app?vid=1758e404-548a-4b20-87fe-a9470e99ef0f"},"vehicle_type_id":"4","last_reported":1735823705,"current_range_meters":39200,"station_id":"ce4bh492rcd13ifvqdvg","pricing_plan_id":"cebpf4jnsgd1na2vs0mg"},{"bike_id":"ab6c0071-1c6d-4cf2-a546-c1406e180da8","system_id":"levelo_inurba_marseille","lat":43.29603,"lon":5.37715,"is_reserved":false,"is_disabled":false,"rental_uris":{"android":"levelo://app?vid=ab6c0071-1c6d-4cf2-a546-c1406e180da8","ios":"levelo://app?vid=ab6c0071-1c6d-4cf2-a546-c1406e180da8"},"vehicle_type_id":"4","last_reported":1735823705,"current_range_meters":18000,"station_id":"ce4bgi92rcd13ifvqb90","pricing_plan_id":"cebpf4jnsgd1na2vs0mg"},{"bike_id":"bcd20683-a7d2-4d73-b9c6-b696fde50e59","system_id":"levelo_inurba_marseille","lat":43.27064,"lon":5.42278,"is_reserved":false,"is_disabled":false,"rental_uris":{"android":"levelo://app?vid=bcd20683-a7d2-4d73-b9c6-b696fde50e59","ios":"levelo://app?vid=bcd20683-a7d2-4d73-b9c6-b696fde50e59"},"vehicle_type_id":"4","last_reported":1735823705,"current_range_meters":12400,"station_id":"ce4bhk92rcd13ifvqgb0","pricing_plan_id":"cebpf4jnsgd1na2vs0mg"},{"bike_id":"313a9a0d-cbde-465d-8a65-140655419224","system_id":"levelo_inurba_marseille","lat":43.25493,"lon":5.3769,"is_reserved":false,"is_disabled":false,"rental_uris":{"android":"levelo://app?vid=313a9a0d-cbde-465d-8a65-140655419224","ios":"levelo://app?vid=313a9a0d-cbde-465d-8a65-140655419224"},"vehicle_type_id":"4","last_reported":1735823705,"current_range_meters":38800,"station_id":"ce4bhh12rcd13ifvqff0","pricing_plan_id":"cebpf4jnsgd1na2vs0mg"},{"bike_id":"660aed1d-cdeb-4a3c-a6d4-d19ef9a2563b","system_id":"levelo_inurba_marseille","lat":43.29861,"lon":5.43656,"is_reserved":false,"is_disabled":false,"rental_uris":{"android":"levelo://app?vid=660aed1d-cdeb-4a3c-a6d4-d19ef9a2563b","ios":"levelo://app?vid=660aed1d-cdeb-4a3c-a6d4-d19ef9a2563b"},"vehicle_type_id":"4","last_reported":1735823705,"current_range_meters":18800,"station_id":"ce4bhpp2rcd13ifvqhfg","pricing_plan_id":"cebpf4jnsgd1na2vs0mg"},{"bike_id":"7d44431e-ed83-438c-86a7-892d7e053d01","system_id":"levelo_inurba_marseille","lat":43.32114,"lon":5.41535,"is_reserved":false,"is_disabled":false,"rental_uris":{"android":"levelo://app?vid=7d44431e-ed83-438c-86a7-892d7e053d01","ios":"levelo://app?vid=7d44431e-ed83-438c-86a7-892d7e053d01"},"vehicle_type_id":"4","last_reported":1735823705,"current_range_meters":38800,"station_id":"ce4bhq92rcd13ifvqhkg","pricing_plan_id":"cebpf4jnsgd1na2vs0mg"},{"bike_id":"84ff672c-254b-42d1-ad81-4f7d674dca47","system_id":"levelo_inurba_marseille","lat":43.24383,"lon":5.370624,"is_reserved":false,"is_disabled":false,"rental_uris":{"android":"levelo://app?vid=84ff672c-254b-42d1-ad81-4f7d674dca47","ios":"levelo://app?vid=84ff672c-254b-42d1-ad81-4f7d674dca47"},"vehicle_type_id":"4","last_reported":1735823705,"current_range_meters":39200,"station_id":"ce4bhhh2rcd13ifvqfk0","pricing_plan_id":"cebpf4jnsgd1na2vs0mg"},{"bike_id":"4f35fdf1-1843-4f9c-8099-7e929e223220","system_id":"levelo_inurba_marseille","lat":43.30186,"lon":5.3663,"is_reserved":false,"is_disabled":false,"rental_uris":{"android":"levelo://app?vid=4f35fdf1-1843-4f9c-8099-7e929e223220","ios":"levelo://app?vid=4f35fdf1-1843-4f9c-8099-7e929e223220"},"vehicle_type_id":"4","last_reported":1735823705,"current_range_meters":30000,"station_id":"ce4bgrh2rcd13ifvqc8g","pricing_plan_id":"cebpf4jnsgd1na2vs0mg"},{"bike_id":"84574380-5e63-4a67-bbf0-475b0a817486","system_id":"levelo_inurba_marseille","lat":43.27669,"lon":5.38918,"is_reserved":false,"is_disabled":false,"rental_uris":{"android":"levelo://app?vid=84574380-5e63-4a67-bbf0-475b0a817486","ios":"levelo://app?vid=84574380-5e63-4a67-bbf0-475b0a817486"},"vehicle_type_id":"4","last_reported":1735823705,"current_range_meters":38800,"station_id":"ce4bhi12rcd13ifvqfo0","pricing_plan_id":"cebpf4jnsgd1na2vs0mg"},{"bike_id":"ef3e69f6-d173-4f39-b0ef-0c41154648b9","system_id":"levelo_inurba_marseille","lat":43.27992,"lon":5.40013,"is_reserved":false,"is_disabled":false,"rental_uris":{"android":"levelo://app?vid=ef3e69f6-d173-4f39-b0ef-0c41154648b9","ios":"levelo://app?vid=ef3e69f6-d173-4f39-b0ef-0c41154648b9"},"vehicle_type_id":"4","last_reported":1735823705,"current_range_meters":38000,"station_id":"ce4bho92rcd13ifvqh4g","pricing_plan_id":"cebpf4jnsgd1na2vs0mg"},{"bike_id":"cf71aac8-1e52-435d-bf91-cac39ef804d5","system_id":"levelo_inurba_marseille","lat":43.34139,"lon":5.40919,"is_reserved":false,"is_disabled":false,"rental_uris":{"android":"levelo://app?vid=cf71aac8-1e52-435d-bf91-cac39ef804d5","ios":"levelo://app?vid=cf71aac8-1e52-435d-bf91-cac39ef804d5"},"vehicle_type_id":"4","last_reported":1735823705,"current_range_meters":34800,"station_id":"ce4bhqh2rcd13ifvqhlg","pricing_plan_id":"cebpf4jnsgd1na2vs0mg"},{"bike_id":"c6d92bc5-dca9-45fe-9473-4ea5e9cb8d02","system_id":"levelo_inurba_marseille","lat":43.29899,"lon":5.38165,"is_reserved":false,"is_disabled":false,"rental_uris":{"android":"levelo://app?vid=c6d92bc5-dca9-45fe-9473-4ea5e9cb8d02","ios":"levelo://app?vid=c6d92bc5-dca9-45fe-9473-4ea5e9cb8d02"},"vehicle_type_id":"4","last_reported":1735823705,"current_range_meters":38800,"station_id":"ce4bgj12rcd13ifvqbc0","pricing_plan_id":"cebpf4jnsgd1na2vs0mg"},{"bike_id":"85f66c35-cf00-496f-866f-ed1cc2019cfb","system_id":"levelo_inurba_marseille","lat":43.28112,"lon":5.37852,"is_reserved":false,"is_disabled":false,"rental_uris":{"android":"levelo://app?vid=85f66c35-cf00-496f-866f-ed1cc2019cfb","ios":"levelo://app?vid=85f66c35-cf00-496f-866f-ed1cc2019cfb"},"vehicle_type_id":"4","last_reported":1735823705,"current_range_meters":37600,"station_id":"ce4bha12rcd13ifvqee0","pricing_plan_id":"cebpf4jnsgd1na2vs0mg"},{"bike_id":"bd85e2ac-70b1-41cd-9ae5-add8fe199386","system_id":"levelo_inurba_marseille","lat":43.29096,"lon":5.38129,"is_reserved":false,"is_disabled":false,"rental_uris":{"android":"levelo://app?vid=bd85e2ac-70b1-41cd-9ae5-add8fe199386","ios":"levelo://app?vid=bd85e2ac-70b1-41cd-9ae5-add8fe199386"},"vehicle_type_id":"4","last_reported":1735823705,"current_range_meters":27200,"station_id":"ce4bh512rcd13ifvqe2g","pricing_plan_id":"cebpf4jnsgd1na2vs0mg"},{"bike_id":"80918c45-89b7-4fd7-996f-c047d892f254","system_id":"levelo_inurba_marseille","lat":43.28405,"lon":5.34996,"is_reserved":false,"is_disabled":false,"rental_uris":{"android":"levelo://app?vid=80918c45-89b7-4fd7-996f-c047d892f254","ios":"levelo://app?vid=80918c45-89b7-4fd7-996f-c047d892f254"},"vehicle_type_id":"4","last_reported":1735823705,"current_range_meters":24400,"station_id":"ce4bhbh2rcd13ifvqepg","pricing_plan_id":"cebpf4jnsgd1na2vs0mg"},{"bike_id":"d502592a-d2f4-462b-a981-e532ff6a3185","system_id":"levelo_inurba_marseille","lat":43.28942,"lon":5.39631,"is_reserved":false,"is_disabled":false,"rental_uris":{"android":"levelo://app?vid=d502592a-d2f4-462b-a981-e532ff6a3185","ios":"levelo://app?vid=d502592a-d2f4-462b-a981-e532ff6a3185"},"vehicle_type_id":"4","last_reported":1735823705,"current_range_meters":38800,"station_id":"ce4bh3h2rcd13ifvqdn0","pricing_plan_id":"cebpf4jnsgd1na2vs0mg"},{"bike_id":"2ebfa7ff-0f46-4bce-89af-6c399ee6ea0e","system_id":"levelo_inurba_marseille","lat":43.29623,"lon":5.37719,"is_reserved":false,"is_disabled":false,"rental_uris":{"android":"levelo://app?vid=2ebfa7ff-0f46-4bce-89af-6c399ee6ea0e","ios":"levelo://app?vid=2ebfa7ff-0f46-4bce-89af-6c399ee6ea0e"},"vehicle_type_id":"4","last_reported":1735823705,"current_range_meters":22400,"station_id":"ce4bgi92rcd13ifvqb90","pricing_plan_id":"cebpf4jnsgd1na2vs0mg"},{"bike_id":"2a3ee495-54a6-4f06-9833-38f47b15ce57","system_id":"levelo_inurba_marseille","lat":43.33734,"lon":5.37459,"is_reserved":false,"is_disabled":true,"rental_uris":{"android":"levelo://app?vid=2a3ee495-54a6-4f06-9833-38f47b15ce57","ios":"levelo://app?vid=2a3ee495-54a6-4f06-9833-38f47b15ce57"},"vehicle_type_id":"4","last_reported":1735823705,"current_range_meters":36800,"station_id":"","pricing_plan_id":"cebpf4jnsgd1na2vs0mg"},{"bike_id":"4e2e926a-cc62-4529-8b24-3abbcf0f0be2","system_id":"levelo_inurba_marseille","lat":43.23188,"lon":5.35552,"is_reserved":false,"is_disabled":false,"rental_uris":{"android":"levelo://app?vid=4e2e926a-cc62-4529-8b24-3abbcf0f0be2","ios":"levelo://app?vid=4e2e926a-cc62-4529-8b24-3abbcf0f0be2"},"vehicle_type_id":"4","last_reported":1735823705,"current_range_meters":36400,"station_id":"ce4bhu92rcd13ifvqi70","pricing_plan_id":"cebpf4jnsgd1na2vs0mg"},{"bike_id":"576c3c6b-bcf6-433f-9d79-5f33ae917960","system_id":"levelo_inurba_marseille","lat":43.29554,"lon":5.42273,"is_reserved":false,"is_disabled":false,"rental_uris":{"android":"levelo://app?vid=576c3c6b-bcf6-433f-9d79-5f33ae917960","ios":"levelo://app?vid=576c3c6b-bcf6-433f-9d79-5f33ae917960"},"vehicle_type_id":"4","last_reported":1735823705,"current_range_meters":38800,"station_id":"ce4bhph2rcd13ifvqhdg","pricing_plan_id":"cebpf4jnsgd1na2vs0mg"},{"bike_id":"ee7da7e1-0487-4a7b-838f-676e9c820e80","system_id":"levelo_inurba_marseille","lat":43.30415,"lon":5.39745,"is_reserved":false,"is_disabled":true,"rental_uris":{"android":"levelo://app?vid=ee7da7e1-0487-4a7b-838f-676e9c820e80","ios":"levelo://app?vid=ee7da7e1-0487-4a7b-838f-676e9c820e80"},"vehicle_type_id":"4","last_reported":1735823705,"current_range_meters":37600,"station_id":"ce4bh092rcd13ifvqd20","pricing_plan_id":"cebpf4jnsgd1na2vs0mg"},{"bike_id":"7ab036cf-df33-4ea0-afca-939ac3f77aec","system_id":"levelo_inurba_marseille","lat":43.29925,"lon":5.36542,"is_reserved":false,"is_disabled":false,"rental_uris":{"android":"levelo://app?vid=7ab036cf-df33-4ea0-afca-939ac3f77aec","ios":"levelo://app?vid=7ab036cf-df33-4ea0-afca-939ac3f77aec"},"vehicle_type_id":"4","last_reported":1735823705,"current_range_meters":26000,"station_id":"ce4bgm92rcd13ifvqbr0","pricing_plan_id":"cebpf4jnsgd1na2vs0mg"},{"bike_id":"e2e2264f-1ed6-45cc-ab5d-c5501d33ac04","system_id":"levelo_inurba_marseille","lat":43.26956,"lon":5.38642,"is_reserved":false,"is_disabled":false,"rental_uris":{"android":"levelo://app?vid=e2e2264f-1ed6-45cc-ab5d-c5501d33ac04","ios":"levelo://app?vid=e2e2264f-1ed6-45cc-ab5d-c5501d33ac04"},"vehicle_type_id":"4","last_reported":1735823705,"current_range_meters":16000,"station_id":"ce4bhh92rcd13ifvqfh0","pricing_plan_id":"cebpf4jnsgd1na2vs0mg"},{"bike_id":"390742b5-66dc-4ce2-86d4-3b0a0aa039ba","system_id":"levelo_inurba_marseille","lat":43.25868,"lon":5.39915,"is_reserved":false,"is_disabled":false,"rental_uris":{"android":"levelo://app?vid=390742b5-66dc-4ce2-86d4-3b0a0aa039ba","ios":"levelo://app?vid=390742b5-66dc-4ce2-86d4-3b0a0aa039ba"},"vehicle_type_id":"4","last_reported":1735823705,"current_range_meters":38800,"station_id":"ce4bhl92rcd13ifvqghg","pricing_plan_id":"cebpf4jnsgd1na2vs0mg"},{"bike_id":"f46bd378-e30f-485c-b539-9d29fba578aa","system_id":"levelo_inurba_marseille","lat":43.34139,"lon":5.40909,"is_reserved":false,"is_disabled":false,"rental_uris":{"android":"levelo://app?vid=f46bd378-e30f-485c-b539-9d29fba578aa","ios":"levelo://app?vid=f46bd378-e30f-485c-b539-9d29fba578aa"},"vehicle_type_id":"4","last_reported":1735823705,"current_range_meters":38400,"station_id":"ce4bhqh2rcd13ifvqhlg","pricing_plan_id":"cebpf4jnsgd1na2vs0mg"},{"bike_id":"583adf00-139d-403f-8366-744378ddbd7e","system_id":"levelo_inurba_marseille","lat":43.28363,"lon":5.38627,"is_reserved":false,"is_disabled":false,"rental_uris":{"android":"levelo://app?vid=583adf00-139d-403f-8366-744378ddbd7e","ios":"levelo://app?vid=583adf00-139d-403f-8366-744378ddbd7e"},"vehicle_type_id":"4","last_reported":1735823705,"current_range_meters":37600,"station_id":"ce4bh492rcd13ifvqdvg","pricing_plan_id":"cebpf4jnsgd1na2vs0mg"},{"bike_id":"bf74f451-112d-425a-a196-c988ca0cd039","system_id":"levelo_inurba_marseille","lat":43.30214,"lon":5.39475,"is_reserved":false,"is_disabled":false,"rental_uris":{"android":"levelo://app?vid=bf74f451-112d-425a-a196-c988ca0cd039","ios":"levelo://app?vid=bf74f451-112d-425a-a196-c988ca0cd039"},"vehicle_type_id":"4","last_reported":1735823705,"current_range_meters":30400,"station_id":"ce4bh0p2rcd13ifvqd70","pricing_plan_id":"cebpf4jnsgd1na2vs0mg"},{"bike_id":"fb3a310b-0a46-4010-bf1c-6478fe2b0f7e","system_id":"levelo_inurba_marseille","lat":43.29981,"lon":5.38493,"is_reserved":false,"is_disabled":false,"rental_uris":{"android":"levelo://app?vid=fb3a310b-0a46-4010-bf1c-6478fe2b0f7e","ios":"levelo://app?vid=fb3a310b-0a46-4010-bf1c-6478fe2b0f7e"},"vehicle_type_id":"4","last_reported":1735823705,"current_range_meters":18000,"station_id":"ce4bgj92rcd13ifvqbd0","pricing_plan_id":"cebpf4jnsgd1na2vs0mg"},{"bike_id":"a10cb38b-c0a9-46c5-81e3-8b36eafcdd96","system_id":"levelo_inurba_marseille","lat":43.28976,"lon":5.37837,"is_reserved":false,"is_disabled":true,"rental_uris":{"android":"levelo://app?vid=a10cb38b-c0a9-46c5-81e3-8b36eafcdd96","ios":"levelo://app?vid=a10cb38b-c0a9-46c5-81e3-8b36eafcdd96"},"vehicle_type_id":"4","last_reported":1735823705,"current_range_meters":36800,"station_id":"ce4bh9p2rcd13ifvqed0","pricing_plan_id":"cebpf4jnsgd1na2vs0mg"},{"bike_id":"df334d50-4421-42a5-a762-fb7f39807cc1","system_id":"levelo_inurba_marseille","lat":43.337676,"lon":5.374526,"is_reserved":false,"is_disabled":true,"rental_uris":{"android":"levelo://app?vid=df334d50-4421-42a5-a762-fb7f39807cc1","ios":"levelo://app?vid=df334d50-4421-42a5-a762-fb7f39807cc1"},"vehicle_type_id":"4","last_reported":1735823705,"current_range_meters":32000,"station_id":"","pricing_plan_id":"cebpf4jnsgd1na2vs0mg"},{"bike_id":"87b9a921-e93d-4ee9-818f-18845bfae0db","system_id":"levelo_inurba_marseille","lat":43.28112,"lon":5.37847,"is_reserved":false,"is_disabled":false,"rental_uris":{"android":"levelo://app?vid=87b9a921-e93d-4ee9-818f-18845bfae0db","ios":"levelo://app?vid=87b9a921-e93d-4ee9-818f-18845bfae0db"},"vehicle_type_id":"4","last_reported":1735823705,"current_range_meters":17600,"station_id":"ce4bha12rcd13ifvqee0","pricing_plan_id":"cebpf4jnsgd1na2vs0mg"},{"bike_id":"35d7b981-f2f8-4e1f-bf58-6f3547d4e1f6","system_id":"levelo_inurba_marseille","lat":43.303181,"lon":5.369058,"is_reserved":false,"is_disabled":true,"rental_uris":{"android":"levelo://app?vid=35d7b981-f2f8-4e1f-bf58-6f3547d4e1f6","ios":"levelo://app?vid=35d7b981-f2f8-4e1f-bf58-6f3547d4e1f6"},"vehicle_type_id":"4","last_reported":1735823705,"current_range_meters":18000,"station_id":"ce4bgqh2rcd13ifvqc5g","pricing_plan_id":"cebpf4jnsgd1na2vs0mg"},{"bike_id":"176dc94c-6fa3-4dff-84cb-4c4762966efe","system_id":"levelo_inurba_marseille","lat":43.27444,"lon":5.39417,"is_reserved":false,"is_disabled":false,"rental_uris":{"android":"levelo://app?vid=176dc94c-6fa3-4dff-84cb-4c4762966efe","ios":"levelo://app?vid=176dc94c-6fa3-4dff-84cb-4c4762966efe"},"vehicle_type_id":"4","last_reported":1735823705,"current_range_meters":32400,"station_id":"ce4bhdp2rcd13ifvqf20","pricing_plan_id":"cebpf4jnsgd1na2vs0mg"},{"bike_id":"d6b7bffe-8f80-427e-946d-3914bf2c39b8","system_id":"levelo_inurba_marseille","lat":43.27924,"lon":5.39583,"is_reserved":false,"is_disabled":false,"rental_uris":{"android":"levelo://app?vid=d6b7bffe-8f80-427e-946d-3914bf2c39b8","ios":"levelo://app?vid=d6b7bffe-8f80-427e-946d-3914bf2c39b8"},"vehicle_type_id":"4","last_reported":1735823705,"current_range_meters":35200,"station_id":"ce4bhf92rcd13ifvqf40","pricing_plan_id":"cebpf4jnsgd1na2vs0mg"},{"bike_id":"c25dfa90-8357-4c06-945d-14c7820c2818","system_id":"levelo_inurba_marseille","lat":43.3092,"lon":5.36845,"is_reserved":false,"is_disabled":false,"rental_uris":{"android":"levelo://app?vid=c25dfa90-8357-4c06-945d-14c7820c2818","ios":"levelo://app?vid=c25dfa90-8357-4c06-945d-14c7820c2818"},"vehicle_type_id":"4","last_reported":1735823705,"current_range_meters":24400,"station_id":"ce4bgn92rcd13ifvqbvg","pricing_plan_id":"cebpf4jnsgd1na2vs0mg"},{"bike_id":"5367a292-5564-4681-91cd-97babb89fc00","system_id":"levelo_inurba_marseille","lat":43.22915,"lon":5.35388,"is_reserved":false,"is_disabled":false,"rental_uris":{"android":"levelo://app?vid=5367a292-5564-4681-91cd-97babb89fc00","ios":"levelo://app?vid=5367a292-5564-4681-91cd-97babb89fc00"},"vehicle_type_id":"4","last_reported":1735823705,"current_range_meters":18000,"station_id":"cpo3532slgdg3j2ikp40","pricing_plan_id":"cebpf4jnsgd1na2vs0mg"},{"bike_id":"1d5543c4-1c87-4447-ad2e-0cc64903ea75","system_id":"levelo_inurba_marseille","lat":43.25873,"lon":5.39906,"is_reserved":false,"is_disabled":false,"rental_uris":{"android":"levelo://app?vid=1d5543c4-1c87-4447-ad2e-0cc64903ea75","ios":"levelo://app?vid=1d5543c4-1c87-4447-ad2e-0cc64903ea75"},"vehicle_type_id":"4","last_reported":1735823705,"current_range_meters":39200,"station_id":"ce4bhl92rcd13ifvqghg","pricing_plan_id":"cebpf4jnsgd1na2vs0mg"},{"bike_id":"7bf77f91-1561-48ae-83bb-da639c8736d8","system_id":"levelo_inurba_marseille","lat":43.26682,"lon":5.38276,"is_reserved":false,"is_disabled":false,"rental_uris":{"android":"levelo://app?vid=7bf77f91-1561-48ae-83bb-da639c8736d8","ios":"levelo://app?vid=7bf77f91-1561-48ae-83bb-da639c8736d8"},"vehicle_type_id":"4","last_reported":1735823705,"current_range_meters":37600,"station_id":"ce4bhg92rcd13ifvqf90","pricing_plan_id":"cebpf4jnsgd1na2vs0mg"},{"bike_id":"a831900e-ab39-486a-bc2c-940ffa3bf209","system_id":"levelo_inurba_marseille","lat":43.29609,"lon":5.37708,"is_reserved":false,"is_disabled":false,"rental_uris":{"android":"levelo://app?vid=a831900e-ab39-486a-bc2c-940ffa3bf209","ios":"levelo://app?vid=a831900e-ab39-486a-bc2c-940ffa3bf209"},"vehicle_type_id":"4","last_reported":1735823705,"current_range_meters":36800,"station_id":"ce4bgi92rcd13ifvqb90","pricing_plan_id":"cebpf4jnsgd1na2vs0mg"},{"bike_id":"f98fde69-1f61-4a82-80ea-97f37f2d8cf7","system_id":"levelo_inurba_marseille","lat":43.30168,"lon":5.36621,"is_reserved":false,"is_disabled":false,"rental_uris":{"android":"levelo://app?vid=f98fde69-1f61-4a82-80ea-97f37f2d8cf7","ios":"levelo://app?vid=f98fde69-1f61-4a82-80ea-97f37f2d8cf7"},"vehicle_type_id":"4","last_reported":1735823705,"current_range_meters":36400,"station_id":"ce4bgrh2rcd13ifvqc8g","pricing_plan_id":"cebpf4jnsgd1na2vs0mg"},{"bike_id":"4f6eb785-4e78-49b6-b11f-a23ee17ad301","system_id":"levelo_inurba_marseille","lat":43.294262,"lon":5.397485,"is_reserved":false,"is_disabled":false,"rental_uris":{"android":"levelo://app?vid=4f6eb785-4e78-49b6-b11f-a23ee17ad301","ios":"levelo://app?vid=4f6eb785-4e78-49b6-b11f-a23ee17ad301"},"vehicle_type_id":"4","last_reported":1735823705,"current_range_meters":38800,"station_id":"ce4bh3h2rcd13ifvqdo0","pricing_plan_id":"cebpf4jnsgd1na2vs0mg"},{"bike_id":"dcf8b25b-48a4-440d-a7c9-0a7687c20344","system_id":"levelo_inurba_marseille","lat":43.22932,"lon":5.35377,"is_reserved":false,"is_disabled":false,"rental_uris":{"android":"levelo://app?vid=dcf8b25b-48a4-440d-a7c9-0a7687c20344","ios":"levelo://app?vid=dcf8b25b-48a4-440d-a7c9-0a7687c20344"},"vehicle_type_id":"4","last_reported":1735823705,"current_range_meters":20800,"station_id":"cpo3532slgdg3j2ikp40","pricing_plan_id":"cebpf4jnsgd1na2vs0mg"},{"bike_id":"921c161c-81a9-4f62-88c9-fa7031ed1ea4","system_id":"levelo_inurba_marseille","lat":43.30187,"lon":5.36619,"is_reserved":false,"is_disabled":false,"rental_uris":{"android":"levelo://app?vid=921c161c-81a9-4f62-88c9-fa7031ed1ea4","ios":"levelo://app?vid=921c161c-81a9-4f62-88c9-fa7031ed1ea4"},"vehicle_type_id":"4","last_reported":1735823705,"current_range_meters":39200,"station_id":"ce4bgrh2rcd13ifvqc8g","pricing_plan_id":"cebpf4jnsgd1na2vs0mg"},{"bike_id":"337c71c9-4ec3-45b1-936a-31d8bdf83077","system_id":"levelo_inurba_marseille","lat":43.30126,"lon":5.37445,"is_reserved":false,"is_disabled":false,"rental_uris":{"android":"levelo://app?vid=337c71c9-4ec3-45b1-936a-31d8bdf83077","ios":"levelo://app?vid=337c71c9-4ec3-45b1-936a-31d8bdf83077"},"vehicle_type_id":"4","last_reported":1735823705,"current_range_meters":29600,"station_id":"ce4bgs92rcd13ifvqcc0","pricing_plan_id":"cebpf4jnsgd1na2vs0mg"},{"bike_id":"b3afc75c-abdc-4e55-84d0-a16da508bd99","system_id":"levelo_inurba_marseille","lat":43.28109,"lon":5.37867,"is_reserved":false,"is_disabled":false,"rental_uris":{"android":"levelo://app?vid=b3afc75c-abdc-4e55-84d0-a16da508bd99","ios":"levelo://app?vid=b3afc75c-abdc-4e55-84d0-a16da508bd99"},"vehicle_type_id":"4","last_reported":1735823705,"current_range_meters":39200,"station_id":"ce4bha12rcd13ifvqee0","pricing_plan_id":"cebpf4jnsgd1na2vs0mg"},{"bike_id":"1c02ae40-e43c-4632-b75b-2df9308dc3fe","system_id":"levelo_inurba_marseille","lat":43.33775,"lon":5.37464,"is_reserved":false,"is_disabled":false,"rental_uris":{"android":"levelo://app?vid=1c02ae40-e43c-4632-b75b-2df9308dc3fe","ios":"levelo://app?vid=1c02ae40-e43c-4632-b75b-2df9308dc3fe"},"vehicle_type_id":"4","last_reported":1735823705,"current_range_meters":25600,"station_id":"","pricing_plan_id":"cebpf4jnsgd1na2vs0mg"},{"bike_id":"02804dab-354f-4c64-b2ce-2c40d8b2c128","system_id":"levelo_inurba_marseille","lat":43.28862,"lon":5.39308,"is_reserved":false,"is_disabled":false,"rental_uris":{"android":"levelo://app?vid=02804dab-354f-4c64-b2ce-2c40d8b2c128","ios":"levelo://app?vid=02804dab-354f-4c64-b2ce-2c40d8b2c128"},"vehicle_type_id":"4","last_reported":1735823705,"current_range_meters":39200,"station_id":"ce4bh2p2rcd13ifvqdi0","pricing_plan_id":"cebpf4jnsgd1na2vs0mg"},{"bike_id":"e9be51a1-ef71-4ae5-8ab2-1ac8e1634659","system_id":"levelo_inurba_marseille","lat":43.30109,"lon":5.38091,"is_reserved":false,"is_disabled":false,"rental_uris":{"android":"levelo://app?vid=e9be51a1-ef71-4ae5-8ab2-1ac8e1634659","ios":"levelo://app?vid=e9be51a1-ef71-4ae5-8ab2-1ac8e1634659"},"vehicle_type_id":"4","last_reported":1735823705,"current_range_meters":38800,"station_id":"ce4bgjp2rcd13ifvqbh0","pricing_plan_id":"cebpf4jnsgd1na2vs0mg"},{"bike_id":"828a347e-32af-469c-9123-36cbd141c0bb","system_id":"levelo_inurba_marseille","lat":43.32375,"lon":5.38928,"is_reserved":false,"is_disabled":true,"rental_uris":{"android":"levelo://app?vid=828a347e-32af-469c-9123-36cbd141c0bb","ios":"levelo://app?vid=828a347e-32af-469c-9123-36cbd141c0bb"},"vehicle_type_id":"4","last_reported":1735823705,"current_range_meters":0,"station_id":"","pricing_plan_id":"cebpf4jnsgd1na2vs0mg"},{"bike_id":"a3597e2d-fb98-407b-9432-8b4a2b613bde","system_id":"levelo_inurba_marseille","lat":43.30355,"lon":5.41876,"is_reserved":false,"is_disabled":false,"rental_uris":{"android":"levelo://app?vid=a3597e2d-fb98-407b-9432-8b4a2b613bde","ios":"levelo://app?vid=a3597e2d-fb98-407b-9432-8b4a2b613bde"},"vehicle_type_id":"4","last_reported":1735823705,"current_range_meters":38800,"station_id":"ce4bhop2rcd13ifvqh7g","pricing_plan_id":"cebpf4jnsgd1na2vs0mg"},{"bike_id":"9fc11948-a0d1-4b39-8d46-5ede6d39db06","system_id":"levelo_inurba_marseille","lat":43.2698,"lon":5.36601,"is_reserved":false,"is_disabled":false,"rental_uris":{"android":"levelo://app?vid=9fc11948-a0d1-4b39-8d46-5ede6d39db06","ios":"levelo://app?vid=9fc11948-a0d1-4b39-8d46-5ede6d39db06"},"vehicle_type_id":"4","last_reported":1735823705,"current_range_meters":4000,"station_id":"","pricing_plan_id":"cebpf4jnsgd1na2vs0mg"},{"bike_id":"dac94ecf-3203-4c89-acc0-21c14e979588","system_id":"levelo_inurba_marseille","lat":43.26694,"lon":5.38273,"is_reserved":false,"is_disabled":false,"rental_uris":{"android":"levelo://app?vid=dac94ecf-3203-4c89-acc0-21c14e979588","ios":"levelo://app?vid=dac94ecf-3203-4c89-acc0-21c14e979588"},"vehicle_type_id":"4","last_reported":1735823705,"current_range_meters":4800,"station_id":"ce4bhg92rcd13ifvqf90","pricing_plan_id":"cebpf4jnsgd1na2vs0mg"},{"bike_id":"de45fc42-35ce-420f-9ae9-481651f5b7a8","system_id":"levelo_inurba_marseille","lat":43.27228,"lon":5.39171,"is_reserved":false,"is_disabled":false,"rental_uris":{"android":"levelo://app?vid=de45fc42-35ce-420f-9ae9-481651f5b7a8","ios":"levelo://app?vid=de45fc42-35ce-420f-9ae9-481651f5b7a8"},"vehicle_type_id":"4","last_reported":1735823705,"current_range_meters":39200,"station_id":"ce4bhhp2rcd13ifvqfm0","pricing_plan_id":"cebpf4jnsgd1na2vs0mg"},{"bike_id":"4802f4cf-bdb4-4c46-ab2a-8cf4b2f0b54e","system_id":"levelo_inurba_marseille","lat":43.32354,"lon":5.38922,"is_reserved":false,"is_disabled":false,"rental_uris":{"android":"levelo://app?vid=4802f4cf-bdb4-4c46-ab2a-8cf4b2f0b54e","ios":"levelo://app?vid=4802f4cf-bdb4-4c46-ab2a-8cf4b2f0b54e"},"vehicle_type_id":"4","last_reported":1735823705,"current_range_meters":13600,"station_id":"ce4bhqp2rcd13ifvqhog","pricing_plan_id":"cebpf4jnsgd1na2vs0mg"},{"bike_id":"9c42c59a-a990-48ee-91ac-32ebebcaabf5","system_id":"levelo_inurba_marseille","lat":43.27566,"lon":5.38415,"is_reserved":false,"is_disabled":false,"rental_uris":{"android":"levelo://app?vid=9c42c59a-a990-48ee-91ac-32ebebcaabf5","ios":"levelo://app?vid=9c42c59a-a990-48ee-91ac-32ebebcaabf5"},"vehicle_type_id":"4","last_reported":1735823705,"current_range_meters":38800,"station_id":"ce4bhh92rcd13ifvqfi0","pricing_plan_id":"cebpf4jnsgd1na2vs0mg"},{"bike_id":"8718220a-6a37-41be-b92a-7cc1a59fedb2","system_id":"levelo_inurba_marseille","lat":43.27579,"lon":5.38432,"is_reserved":false,"is_disabled":false,"rental_uris":{"android":"levelo://app?vid=8718220a-6a37-41be-b92a-7cc1a59fedb2","ios":"levelo://app?vid=8718220a-6a37-41be-b92a-7cc1a59fedb2"},"vehicle_type_id":"4","last_reported":1735823705,"current_range_meters":7200,"station_id":"ce4bhh92rcd13ifvqfi0","pricing_plan_id":"cebpf4jnsgd1na2vs0mg"},{"bike_id":"a4dbce69-9906-4587-85ab-874b3da4c1e0","system_id":"levelo_inurba_marseille","lat":43.28419,"lon":5.37522,"is_reserved":false,"is_disabled":false,"rental_uris":{"android":"levelo://app?vid=a4dbce69-9906-4587-85ab-874b3da4c1e0","ios":"levelo://app?vid=a4dbce69-9906-4587-85ab-874b3da4c1e0"},"vehicle_type_id":"4","last_reported":1735823705,"current_range_meters":32400,"station_id":"ce4bh412rcd13ifvqds0","pricing_plan_id":"cebpf4jnsgd1na2vs0mg"},{"bike_id":"e8e59ead-bcdd-445d-9724-6b7c3208f3ec","system_id":"levelo_inurba_marseille","lat":43.30949,"lon":5.39034,"is_reserved":false,"is_disabled":false,"rental_uris":{"android":"levelo://app?vid=e8e59ead-bcdd-445d-9724-6b7c3208f3ec","ios":"levelo://app?vid=e8e59ead-bcdd-445d-9724-6b7c3208f3ec"},"vehicle_type_id":"4","last_reported":1735823705,"current_range_meters":26800,"station_id":"ce4bgup2rcd13ifvqco0","pricing_plan_id":"cebpf4jnsgd1na2vs0mg"},{"bike_id":"94ba241b-44db-451b-ae0d-9a08bd63cb70","system_id":"levelo_inurba_marseille","lat":43.27307,"lon":5.39082,"is_reserved":false,"is_disabled":true,"rental_uris":{"android":"levelo://app?vid=94ba241b-44db-451b-ae0d-9a08bd63cb70","ios":"levelo://app?vid=94ba241b-44db-451b-ae0d-9a08bd63cb70"},"vehicle_type_id":"4","last_reported":1735823705,"current_range_meters":800,"station_id":"ce4bhgp2rcd13ifvqfe0","pricing_plan_id":"cebpf4jnsgd1na2vs0mg"},{"bike_id":"adf2c3a9-04c5-4986-9b64-8e0eada33caa","system_id":"levelo_inurba_marseille","lat":43.29547,"lon":5.42279,"is_reserved":false,"is_disabled":false,"rental_uris":{"android":"levelo://app?vid=adf2c3a9-04c5-4986-9b64-8e0eada33caa","ios":"levelo://app?vid=adf2c3a9-04c5-4986-9b64-8e0eada33caa"},"vehicle_type_id":"4","last_reported":1735823705,"current_range_meters":10000,"station_id":"ce4bhph2rcd13ifvqhdg","pricing_plan_id":"cebpf4jnsgd1na2vs0mg"},{"bike_id":"d1836b5c-fa31-4b30-8fd1-fd0af370928b","system_id":"levelo_inurba_marseille","lat":43.29722,"lon":5.37684,"is_reserved":false,"is_disabled":false,"rental_uris":{"android":"levelo://app?vid=d1836b5c-fa31-4b30-8fd1-fd0af370928b","ios":"levelo://app?vid=d1836b5c-fa31-4b30-8fd1-fd0af370928b"},"vehicle_type_id":"4","last_reported":1735823705,"current_range_meters":28400,"station_id":"ce4bgkh2rcd13ifvqbl0","pricing_plan_id":"cebpf4jnsgd1na2vs0mg"},{"bike_id":"4d0ae856-c5e6-42be-9155-23af1e9c86fc","system_id":"levelo_inurba_marseille","lat":43.28143,"lon":5.40562,"is_reserved":false,"is_disabled":false,"rental_uris":{"android":"levelo://app?vid=4d0ae856-c5e6-42be-9155-23af1e9c86fc","ios":"levelo://app?vid=4d0ae856-c5e6-42be-9155-23af1e9c86fc"},"vehicle_type_id":"4","last_reported":1735823705,"current_range_meters":32400,"station_id":"","pricing_plan_id":"cebpf4jnsgd1na2vs0mg"},{"bike_id":"9bf2c934-e80a-4b69-9369-b6399c81de01","system_id":"levelo_inurba_marseille","lat":43.2511,"lon":5.40307,"is_reserved":false,"is_disabled":false,"rental_uris":{"android":"levelo://app?vid=9bf2c934-e80a-4b69-9369-b6399c81de01","ios":"levelo://app?vid=9bf2c934-e80a-4b69-9369-b6399c81de01"},"vehicle_type_id":"4","last_reported":1735823705,"current_range_meters":37600,"station_id":"ce4bhlh2rcd13ifvqgig","pricing_plan_id":"cebpf4jnsgd1na2vs0mg"},{"bike_id":"4c7ccce5-b48f-4253-9e45-16dbdb1e0cc3","system_id":"levelo_inurba_marseille","lat":43.29907,"lon":5.39752,"is_reserved":false,"is_disabled":false,"rental_uris":{"android":"levelo://app?vid=4c7ccce5-b48f-4253-9e45-16dbdb1e0cc3","ios":"levelo://app?vid=4c7ccce5-b48f-4253-9e45-16dbdb1e0cc3"},"vehicle_type_id":"4","last_reported":1735823705,"current_range_meters":22400,"station_id":"ce4bh0h2rcd13ifvqd50","pricing_plan_id":"cebpf4jnsgd1na2vs0mg"},{"bike_id":"69b33cbb-9be2-47a5-99a7-37cd66776baf","system_id":"levelo_inurba_marseille","lat":43.29193,"lon":5.40033,"is_reserved":false,"is_disabled":false,"rental_uris":{"android":"levelo://app?vid=69b33cbb-9be2-47a5-99a7-37cd66776baf","ios":"levelo://app?vid=69b33cbb-9be2-47a5-99a7-37cd66776baf"},"vehicle_type_id":"4","last_reported":1735823705,"current_range_meters":36400,"station_id":"","pricing_plan_id":"cebpf4jnsgd1na2vs0mg"},{"bike_id":"9a359eb1-d7de-4d5f-a325-39e22e69049f","system_id":"levelo_inurba_marseille","lat":43.28276,"lon":5.35083,"is_reserved":false,"is_disabled":false,"rental_uris":{"android":"levelo://app?vid=9a359eb1-d7de-4d5f-a325-39e22e69049f","ios":"levelo://app?vid=9a359eb1-d7de-4d5f-a325-39e22e69049f"},"vehicle_type_id":"4","last_reported":1735823705,"current_range_meters":16000,"station_id":"ce4bhbp2rcd13ifvqerg","pricing_plan_id":"cebpf4jnsgd1na2vs0mg"},{"bike_id":"9c23194b-edc8-4913-abc5-3db87f1bd370","system_id":"levelo_inurba_marseille","lat":43.28168,"lon":5.42646,"is_reserved":false,"is_disabled":false,"rental_uris":{"android":"levelo://app?vid=9c23194b-edc8-4913-abc5-3db87f1bd370","ios":"levelo://app?vid=9c23194b-edc8-4913-abc5-3db87f1bd370"},"vehicle_type_id":"4","last_reported":1735823705,"current_range_meters":19200,"station_id":"ce4bhnh2rcd13ifvqgug","pricing_plan_id":"cebpf4jnsgd1na2vs0mg"},{"bike_id":"c14d1989-a72f-4241-a582-39661d0bcfcf","system_id":"levelo_inurba_marseille","lat":43.23198,"lon":5.35562,"is_reserved":false,"is_disabled":false,"rental_uris":{"android":"levelo://app?vid=c14d1989-a72f-4241-a582-39661d0bcfcf","ios":"levelo://app?vid=c14d1989-a72f-4241-a582-39661d0bcfcf"},"vehicle_type_id":"4","last_reported":1735823705,"current_range_meters":38800,"station_id":"ce4bhu92rcd13ifvqi70","pricing_plan_id":"cebpf4jnsgd1na2vs0mg"},{"bike_id":"ef72cdb4-465d-4178-b952-49906f159c48","system_id":"levelo_inurba_marseille","lat":43.28157,"lon":5.4263,"is_reserved":false,"is_disabled":false,"rental_uris":{"android":"levelo://app?vid=ef72cdb4-465d-4178-b952-49906f159c48","ios":"levelo://app?vid=ef72cdb4-465d-4178-b952-49906f159c48"},"vehicle_type_id":"4","last_reported":1735823705,"current_range_meters":26800,"station_id":"ce4bhnh2rcd13ifvqgug","pricing_plan_id":"cebpf4jnsgd1na2vs0mg"},{"bike_id":"11a2c895-12fd-42f9-96c6-24892dc7f066","system_id":"levelo_inurba_marseille","lat":43.297189,"lon":5.376934,"is_reserved":false,"is_disabled":false,"rental_uris":{"android":"levelo://app?vid=11a2c895-12fd-42f9-96c6-24892dc7f066","ios":"levelo://app?vid=11a2c895-12fd-42f9-96c6-24892dc7f066"},"vehicle_type_id":"4","last_reported":1735823705,"current_range_meters":38800,"station_id":"ce4bgkh2rcd13ifvqbl0","pricing_plan_id":"cebpf4jnsgd1na2vs0mg"},{"bike_id":"98d15aaa-6ceb-4650-ba87-4227af482fa2","system_id":"levelo_inurba_marseille","lat":43.31531,"lon":5.38024,"is_reserved":false,"is_disabled":false,"rental_uris":{"android":"levelo://app?vid=98d15aaa-6ceb-4650-ba87-4227af482fa2","ios":"levelo://app?vid=98d15aaa-6ceb-4650-ba87-4227af482fa2"},"vehicle_type_id":"4","last_reported":1735823705,"current_range_meters":34000,"station_id":"ce4bhsp2rcd13ifvqi50","pricing_plan_id":"cebpf4jnsgd1na2vs0mg"},{"bike_id":"be15fe30-306d-452d-98a8-39d4012d6dd9","system_id":"levelo_inurba_marseille","lat":43.31121,"lon":5.37763,"is_reserved":false,"is_disabled":false,"rental_uris":{"android":"levelo://app?vid=be15fe30-306d-452d-98a8-39d4012d6dd9","ios":"levelo://app?vid=be15fe30-306d-452d-98a8-39d4012d6dd9"},"vehicle_type_id":"4","last_reported":1735823705,"current_range_meters":14800,"station_id":"ce4bgt92rcd13ifvqcg0","pricing_plan_id":"cebpf4jnsgd1na2vs0mg"},{"bike_id":"bd2f2f62-04fe-427a-8687-f0fab61ae7e2","system_id":"levelo_inurba_marseille","lat":43.30909,"lon":5.36847,"is_reserved":false,"is_disabled":false,"rental_uris":{"android":"levelo://app?vid=bd2f2f62-04fe-427a-8687-f0fab61ae7e2","ios":"levelo://app?vid=bd2f2f62-04fe-427a-8687-f0fab61ae7e2"},"vehicle_type_id":"4","last_reported":1735823705,"current_range_meters":9600,"station_id":"ce4bgn92rcd13ifvqbvg","pricing_plan_id":"cebpf4jnsgd1na2vs0mg"},{"bike_id":"bb1456c3-905a-4166-afeb-abbb20ced929","system_id":"levelo_inurba_marseille","lat":43.29705,"lon":5.37696,"is_reserved":false,"is_disabled":false,"rental_uris":{"android":"levelo://app?vid=bb1456c3-905a-4166-afeb-abbb20ced929","ios":"levelo://app?vid=bb1456c3-905a-4166-afeb-abbb20ced929"},"vehicle_type_id":"4","last_reported":1735823705,"current_range_meters":31200,"station_id":"ce4bgkh2rcd13ifvqbl0","pricing_plan_id":"cebpf4jnsgd1na2vs0mg"},{"bike_id":"3a40591d-900b-4d7f-952b-f556f174a72a","system_id":"levelo_inurba_marseille","lat":43.27808,"lon":5.4072,"is_reserved":false,"is_disabled":false,"rental_uris":{"android":"levelo://app?vid=3a40591d-900b-4d7f-952b-f556f174a72a","ios":"levelo://app?vid=3a40591d-900b-4d7f-952b-f556f174a72a"},"vehicle_type_id":"4","last_reported":1735823705,"current_range_meters":16000,"station_id":"ce4bhnh2rcd13ifvqgtg","pricing_plan_id":"cebpf4jnsgd1na2vs0mg"},{"bike_id":"44377e14-c431-47f9-879d-d27236127509","system_id":"levelo_inurba_marseille","lat":43.25811,"lon":5.39439,"is_reserved":false,"is_disabled":false,"rental_uris":{"android":"levelo://app?vid=44377e14-c431-47f9-879d-d27236127509","ios":"levelo://app?vid=44377e14-c431-47f9-879d-d27236127509"},"vehicle_type_id":"4","last_reported":1735823705,"current_range_meters":18800,"station_id":"ce4bhip2rcd13ifvqft0","pricing_plan_id":"cebpf4jnsgd1na2vs0mg"},{"bike_id":"d1adadd0-7c87-44a2-90dd-d7efa9d56566","system_id":"levelo_inurba_marseille","lat":43.23186,"lon":5.39988,"is_reserved":false,"is_disabled":false,"rental_uris":{"android":"levelo://app?vid=d1adadd0-7c87-44a2-90dd-d7efa9d56566","ios":"levelo://app?vid=d1adadd0-7c87-44a2-90dd-d7efa9d56566"},"vehicle_type_id":"4","last_reported":1735823705,"current_range_meters":27200,"station_id":"ce4bhn12rcd13ifvqgqg","pricing_plan_id":"cebpf4jnsgd1na2vs0mg"},{"bike_id":"34535594-ceb9-4842-97f7-a9b9fbaa6b25","system_id":"levelo_inurba_marseille","lat":43.29568,"lon":5.37494,"is_reserved":false,"is_disabled":true,"rental_uris":{"android":"levelo://app?vid=34535594-ceb9-4842-97f7-a9b9fbaa6b25","ios":"levelo://app?vid=34535594-ceb9-4842-97f7-a9b9fbaa6b25"},"vehicle_type_id":"4","last_reported":1735823705,"current_range_meters":0,"station_id":"ce4bgh92rcd13ifvqb50","pricing_plan_id":"cebpf4jnsgd1na2vs0mg"},{"bike_id":"5c3f7035-2fc5-489a-84e8-810afe085446","system_id":"levelo_inurba_marseille","lat":43.31711,"lon":5.37797,"is_reserved":false,"is_disabled":false,"rental_uris":{"android":"levelo://app?vid=5c3f7035-2fc5-489a-84e8-810afe085446","ios":"levelo://app?vid=5c3f7035-2fc5-489a-84e8-810afe085446"},"vehicle_type_id":"4","last_reported":1735823705,"current_range_meters":39200,"station_id":"ce4bgth2rcd13ifvqch0","pricing_plan_id":"cebpf4jnsgd1na2vs0mg"},{"bike_id":"919b650f-cda7-40c3-a1ab-6c5901cdc987","system_id":"levelo_inurba_marseille","lat":43.25858,"lon":5.39902,"is_reserved":false,"is_disabled":false,"rental_uris":{"android":"levelo://app?vid=919b650f-cda7-40c3-a1ab-6c5901cdc987","ios":"levelo://app?vid=919b650f-cda7-40c3-a1ab-6c5901cdc987"},"vehicle_type_id":"4","last_reported":1735823705,"current_range_meters":39200,"station_id":"ce4bhl92rcd13ifvqghg","pricing_plan_id":"cebpf4jnsgd1na2vs0mg"},{"bike_id":"b56366ea-626a-4378-b8bc-87adcc862e86","system_id":"levelo_inurba_marseille","lat":43.31546,"lon":5.38004,"is_reserved":false,"is_disabled":false,"rental_uris":{"android":"levelo://app?vid=b56366ea-626a-4378-b8bc-87adcc862e86","ios":"levelo://app?vid=b56366ea-626a-4378-b8bc-87adcc862e86"},"vehicle_type_id":"4","last_reported":1735823705,"current_range_meters":38000,"station_id":"ce4bhsp2rcd13ifvqi50","pricing_plan_id":"cebpf4jnsgd1na2vs0mg"},{"bike_id":"9c4e54b8-f888-4261-bfaf-4260c27aa610","system_id":"levelo_inurba_marseille","lat":43.29521,"lon":5.39049,"is_reserved":false,"is_disabled":false,"rental_uris":{"android":"levelo://app?vid=9c4e54b8-f888-4261-bfaf-4260c27aa610","ios":"levelo://app?vid=9c4e54b8-f888-4261-bfaf-4260c27aa610"},"vehicle_type_id":"4","last_reported":1735823705,"current_range_meters":36800,"station_id":"ce4bh3p2rcd13ifvqdp0","pricing_plan_id":"cebpf4jnsgd1na2vs0mg"},{"bike_id":"ffafa3ee-52dc-40b9-ad12-7f89cbac4b6a","system_id":"levelo_inurba_marseille","lat":43.25132,"lon":5.40363,"is_reserved":false,"is_disabled":false,"rental_uris":{"android":"levelo://app?vid=ffafa3ee-52dc-40b9-ad12-7f89cbac4b6a","ios":"levelo://app?vid=ffafa3ee-52dc-40b9-ad12-7f89cbac4b6a"},"vehicle_type_id":"4","last_reported":1735823705,"current_range_meters":30000,"station_id":"ce4bhlh2rcd13ifvqgig","pricing_plan_id":"cebpf4jnsgd1na2vs0mg"},{"bike_id":"13a9cb8a-0f28-4655-9171-9a226e701240","system_id":"levelo_inurba_marseille","lat":43.3256,"lon":5.41448,"is_reserved":false,"is_disabled":false,"rental_uris":{"android":"levelo://app?vid=13a9cb8a-0f28-4655-9171-9a226e701240","ios":"levelo://app?vid=13a9cb8a-0f28-4655-9171-9a226e701240"},"vehicle_type_id":"4","last_reported":1735823705,"current_range_meters":38800,"station_id":"ce4bhq12rcd13ifvqhhg","pricing_plan_id":"cebpf4jnsgd1na2vs0mg"},{"bike_id":"d154997f-b603-4fcb-bd08-5830818e5c30","system_id":"levelo_inurba_marseille","lat":43.26789,"lon":5.39412,"is_reserved":false,"is_disabled":false,"rental_uris":{"android":"levelo://app?vid=d154997f-b603-4fcb-bd08-5830818e5c30","ios":"levelo://app?vid=d154997f-b603-4fcb-bd08-5830818e5c30"},"vehicle_type_id":"4","last_reported":1735823705,"current_range_meters":12400,"station_id":"ce4bhh12rcd13ifvqfg0","pricing_plan_id":"cebpf4jnsgd1na2vs0mg"},