{"last_updated":1761053186,"ttl":60,"version":"2.2","data":{"bikes":[{"bike_id":"d8a0f4f8-3964-402e-924c-3470748785aa","system_id":"levelo_inurba_marseille","lat":43.337444,"lon":5.374475,"is_reserved":false,"is_disabled":false,"rental_uris":{"android":"levelo://app?vid=d8a0f4f8-3964-402e-924c-3470748785aa","ios":"levelo://app?vid=d8a0f4f8-3964-402e-924c-3470748785aa"},"vehicle_type_id":"4","last_reported":1761053186,"current_range_meters":0,"station_id":"","pricing_plan_id":"cebpf4jnsgd1na2vs0mg"},{"bike_id":"b76adba1-4cbf-4eac-8f8f-f105c0809b93","system_id":"levelo_inurba_marseille","lat":43.272,"lon":5.39184,"is_reserved":false,"is_disabled":false,"rental_uris":{"android":"levelo://app?vid=b76adba1-4cbf-4eac-8f8f-f105c0809b93","ios":"levelo://app?vid=b76adba1-4cbf-4eac-8f8f-f105c0809b93"},"vehicle_type_id":"4","last_reported":1761053186,"current_range_meters":2800,"station_id":"ce4bhhp2rcd13ifvqfm0","pricing_plan_id":"cebpf4jnsgd1na2vs0mg"},{"bike_id":"3fa54b7c-1224-4ddb-aefd-035b8d9eca78","system_id":"levelo_inurba_marseille","lat":43.25571,"lon":5.38231,"is_reserved":false,"is_disabled":false,"rental_uris":{"android":"levelo://app?vid=3fa54b7c-1224-4ddb-aefd-035b8d9eca78","ios":"levelo://app?vid=3fa54b7c-1224-4ddb-aefd-035b8d9eca78"},"vehicle_type_id":"4","last_reported":1761053186,"current_range_meters":3200,"station_id":"ce4bhih2rcd13ifvqfs0","pricing_plan_id":"cebpf4jnsgd1na2vs0mg"},{"bike_id":"5892774f-aa04-47eb-aec0-d01015a01d81","system_id":"levelo_inurba_marseille","lat":43.291969,"lon":5.357968,"is_reserved":false,"is_disabled":false,"rental_uris":{"android":"levelo://app?vid=5892774f-aa04-47eb-aec0-d01015a01d81","ios":"levelo://app?vid=5892774f-aa04-47eb-aec0-d01015a01d81"},"vehicle_type_id":"4","last_reported":1761053186,"current_range_meters":3200,"station_id":"ce4bhb12rcd13ifvqel0","pricing_plan_id":"cebpf4jnsgd1na2vs0mg"},{"bike_id":"17ce879f-e94c-4aba-8286-4b925458b3ff","system_id":"levelo_inurba_marseille","lat":43.302031,"lon":5.397443,"is_reserved":false,"is_disabled":false,"rental_uris":{"android":"levelo://app?vid=17ce879f-e94c-4aba-8286-4b925458b3ff","ios":"levelo://app?vid=17ce879f-e94c-4aba-8286-4b925458b3ff"},"vehicle_type_id":"4","last_reported":1761053186,"current_range_meters":3200,"station_id":"ce4bh0h2rcd13ifvqd40","pricing_plan_id":"cebpf4jnsgd1na2vs0mg"},{"bike_id":"72b660f0-f340-4154-9e4a-dbad111e713d","system_id":"levelo_inurba_marseille","lat":43.3014,"lon":5.37422,"is_reserved":false,"is_disabled":false,"rental_uris":{"android":"levelo://app?vid=72b660f0-f340-4154-9e4a-dbad111e713d","ios":"levelo://app?vid=72b660f0-f340-4154-9e4a-dbad111e713d"},"vehicle_type_id":"4","last_reported":1761053186,"current_range_meters":3600,"station_id":"ce4bgs92rcd13ifvqcc0","pricing_plan_id":"cebpf4jnsgd1na2vs0mg"},{"bike_id":"8fafa82b-e9ce-458f-a725-043a771970a7","system_id":"levelo_inurba_marseille","lat":43.2953,"lon":5.38546,"is_reserved":false,"is_disabled":false,"rental_uris":{"android":"levelo://app?vid=8fafa82b-e9ce-458f-a725-043a771970a7","ios":"levelo://app?vid=8fafa82b-e9ce-458f-a725-043a771970a7"},"vehicle_type_id":"4","last_reported":1761053186,"current_range_meters":3600,"station_id":"ce4bgih2rcd13ifvqba0","pricing_plan_id":"cebpf4jnsgd1na2vs0mg"},{"bike_id":"fbd7f20a-1cd0-4d53-bc63-e18a79fbb4c1","system_id":"levelo_inurba_marseille","lat":43.27908,"lon":5.40963,"is_reserved":false,"is_disabled":false,"rental_uris":{"android":"levelo://app?vid=fbd7f20a-1cd0-4d53-bc63-e18a79fbb4c1","ios":"levelo://app?vid=fbd7f20a-1cd0-4d53-bc63-e18a79fbb4c1"},"vehicle_type_id":"4","last_reported":1761053186,"current_range_meters":4000,"station_id":"","pricing_plan_id":"cebpf4jnsgd1na2vs0mg"},{"bike_id":"bc4c717f-37d1-4a02-998b-6d479b69a00c","system_id":"levelo_inurba_marseille","lat":43.28267,"lon":5.35061,"is_reserved":false,"is_disabled":false,"rental_uris":{"android":"levelo://app?vid=bc4c717f-37d1-4a02-998b-6d479b69a00c","ios":"levelo://app?vid=bc4c717f-37d1-4a02-998b-6d479b69a00c"},"vehicle_type_id":"4","last_reported":1761053186,"current_range_meters":4000,"station_id":"ce4bhbp2rcd13ifvqerg","pricing_plan_id":"cebpf4jnsgd1na2vs0mg"},{"bike_id":"782dcdf3-a9ba-4150-8299-00fb0a6dec0c","system_id":"levelo_inurba_marseille","lat":43.28864,"lon":5.38291,"is_reserved":false,"is_disabled":false,"rental_uris":{"android":"levelo://app?vid=782dcdf3-a9ba-4150-8299-00fb0a6dec0c","ios":"levelo://app?vid=782dcdf3-a9ba-4150-8299-00fb0a6dec0c"},"vehicle_type_id":"4","last_reported":1761053186,"current_range_meters":4400,"station_id":"","pricing_plan_id":"cebpf4jnsgd1na2vs0mg"},{"bike_id":"739dcfe6-45e0-4cc4-a74a-7eecdedbda82","system_id":"levelo_inurba_marseille","lat":43.30952,"lon":5.39041,"is_reserved":false,"is_disabled":false,"rental_uris":{"android":"levelo://app?vid=739dcfe6-45e0-4cc4-a74a-7eecdedbda82","ios":"levelo://app?vid=739dcfe6-45e0-4cc4-a74a-7eecdedbda82"},"vehicle_type_id":"4","last_reported":1761053186,"current_range_meters":4400,"station_id":"ce4bgup2rcd13ifvqco0","pricing_plan_id":"cebpf4jnsgd1na2vs0mg"},{"bike_id":"78a0dc8b-3b9d-41f7-a3a3-18ec054e3617","system_id":"levelo_inurba_marseille","lat":43.30968,"lon":5.3812,"is_reserved":false,"is_disabled":false,"rental_uris":{"android":"levelo://app?vid=78a0dc8b-3b9d-41f7-a3a3-18ec054e3617","ios":"levelo://app?vid=78a0dc8b-3b9d-41f7-a3a3-18ec054e3617"},"vehicle_type_id":"4","last_reported":1761053186,"current_range_meters":4400,"station_id":"","pricing_plan_id":"cebpf4jnsgd1na2vs0mg"},{"bike_id":"91f69060-3543-4e34-b988-d49287b314e8","system_id":"levelo_inurba_marseille","lat":43.28855,"lon":5.42522,"is_reserved":false,"is_disabled":false,"rental_uris":{"android":"levelo://app?vid=91f69060-3543-4e34-b988-d49287b314e8","ios":"levelo://app?vid=91f69060-3543-4e34-b988-d49287b314e8"},"vehicle_type_id":"4","last_reported":1761053186,"current_range_meters":4400,"station_id":"st_d3b462108ojc7389ooeg","pricing_plan_id":"cebpf4jnsgd1na2vs0mg"},{"bike_id":"540bc1d7-09a2-4444-8906-19d7fbc378fe","system_id":"levelo_inurba_marseille","lat":43.30888,"lon":5.39658,"is_reserved":false,"is_disabled":false,"rental_uris":{"android":"levelo://app?vid=540bc1d7-09a2-4444-8906-19d7fbc378fe","ios":"levelo://app?vid=540bc1d7-09a2-4444-8906-19d7fbc378fe"},"vehicle_type_id":"4","last_reported":1761053186,"current_range_meters":4400,"station_id":"ce4bh012rcd13ifvqcv0","pricing_plan_id":"cebpf4jnsgd1na2vs0mg"},{"bike_id":"fbb75000-48f5-4dbe-aa37-aa4a8d769d08","system_id":"levelo_inurba_marseille","lat":43.21171,"lon":5.35089,"is_reserved":false,"is_disabled":false,"rental_uris":{"android":"levelo://app?vid=fbb75000-48f5-4dbe-aa37-aa4a8d769d08","ios":"levelo://app?vid=fbb75000-48f5-4dbe-aa37-aa4a8d769d08"},"vehicle_type_id":"4","last_reported":1761053186,"current_range_meters":4800,"station_id":"st_cvj6sg6p6f1abm77japg","pricing_plan_id":"cebpf4jnsgd1na2vs0mg"},{"bike_id":"6aef7dfd-7ebe-4dde-8361-eb921f6fbc0d","system_id":"levelo_inurba_marseille","lat":43.21742,"lon":5.34607,"is_reserved":false,"is_disabled":false,"rental_uris":{"android":"levelo://app?vid=6aef7dfd-7ebe-4dde-8361-eb921f6fbc0d","ios":"levelo://app?vid=6aef7dfd-7ebe-4dde-8361-eb921f6fbc0d"},"vehicle_type_id":"4","last_reported":1761053186,"current_range_meters":4800,"station_id":"st_cvj6r9ubvosntc0bgbag","pricing_plan_id":"cebpf4jnsgd1na2vs0mg"},{"bike_id":"433c1107-933a-455c-a117-8e4d84ed353c","system_id":"levelo_inurba_marseille","lat":43.286115,"lon":5.351033,"is_reserved":false,"is_disabled":false,"rental_uris":{"android":"levelo://app?vid=433c1107-933a-455c-a117-8e4d84ed353c","ios":"levelo://app?vid=433c1107-933a-455c-a117-8e4d84ed353c"},"vehicle_type_id":"4","last_reported":1761053186,"current_range_meters":5600,"station_id":"","pricing_plan_id":"cebpf4jnsgd1na2vs0mg"},{"bike_id":"df232322-534c-43cc-99de-f18e2f9f7788","system_id":"levelo_inurba_marseille","lat":43.22522,"lon":5.348315,"is_reserved":false,"is_disabled":false,"rental_uris":{"android":"levelo://app?vid=df232322-534c-43cc-99de-f18e2f9f7788","ios":"levelo://app?vid=df232322-534c-43cc-99de-f18e2f9f7788"},"vehicle_type_id":"4","last_reported":1761053186,"current_range_meters":5600,"station_id":"","pricing_plan_id":"cebpf4jnsgd1na2vs0mg"},{"bike_id":"1f843209-c72d-47e1-9369-b60faf6a260b","system_id":"levelo_inurba_marseille","lat":43.2997,"lon":5.38488,"is_reserved":false,"is_disabled":false,"rental_uris":{"android":"levelo://app?vid=1f843209-c72d-47e1-9369-b60faf6a260b","ios":"levelo://app?vid=1f843209-c72d-47e1-9369-b60faf6a260b"},"vehicle_type_id":"4","last_reported":1761053186,"current_range_meters":5600,"station_id":"ce4bgj92rcd13ifvqbd0","pricing_plan_id":"cebpf4jnsgd1na2vs0mg"},{"bike_id":"1714f72c-4de8-45b8-8f8f-3a5eca075b6d","system_id":"levelo_inurba_marseille","lat":43.273109,"lon":5.390826,"is_reserved":false,"is_disabled":false,"rental_uris":{"android":"levelo://app?vid=1714f72c-4de8-45b8-8f8f-3a5eca075b6d","ios":"levelo://app?vid=1714f72c-4de8-45b8-8f8f-3a5eca075b6d"},"vehicle_type_id":"4","last_reported":1761053186,"current_range_meters":5600,"station_id":"","pricing_plan_id":"cebpf4jnsgd1na2vs0mg"},{"bike_id":"4f1a5f93-ef2d-430c-af69-36b85813a3ec","system_id":"levelo_inurba_marseille","lat":43.28612,"lon":5.35103,"is_reserved":false,"is_disabled":false,"rental_uris":{"android":"levelo://app?vid=4f1a5f93-ef2d-430c-af69-36b85813a3ec","ios":"levelo://app?vid=4f1a5f93-ef2d-430c-af69-36b85813a3ec"},"vehicle_type_id":"4","last_reported":1761053186,"current_range_meters":5600,"station_id":"ce4bhch2rcd13ifvqeug","pricing_plan_id":"cebpf4jnsgd1na2vs0mg"},{"bike_id":"35e242ba-2dde-4870-aac9-b14d79c1d669","system_id":"levelo_inurba_marseille","lat":43.28713,"lon":5.37931,"is_reserved":false,"is_disabled":false,"rental_uris":{"android":"levelo://app?vid=35e242ba-2dde-4870-aac9-b14d79c1d669","ios":"levelo://app?vid=35e242ba-2dde-4870-aac9-b14d79c1d669"},"vehicle_type_id":"4","last_reported":1761053186,"current_range_meters":6000,"station_id":"ce4bh9p2rcd13ifvqec0","pricing_plan_id":"cebpf4jnsgd1na2vs0mg"},{"bike_id":"fe998b17-9d85-477f-b92c-87f6ebb6e1b3","system_id":"levelo_inurba_marseille","lat":43.244767,"lon":5.369317,"is_reserved":false,"is_disabled":false,"rental_uris":{"android":"levelo://app?vid=fe998b17-9d85-477f-b92c-87f6ebb6e1b3","ios":"levelo://app?vid=fe998b17-9d85-477f-b92c-87f6ebb6e1b3"},"vehicle_type_id":"4","last_reported":1761053186,"current_range_meters":6000,"station_id":"","pricing_plan_id":"cebpf4jnsgd1na2vs0mg"},{"bike_id":"8b042003-c67e-4e06-bd01-ea32fba1d473","system_id":"levelo_inurba_marseille","lat":43.26136,"lon":5.38841,"is_reserved":false,"is_disabled":false,"rental_uris":{"android":"levelo://app?vid=8b042003-c67e-4e06-bd01-ea32fba1d473","ios":"levelo://app?vid=8b042003-c67e-4e06-bd01-ea32fba1d473"},"vehicle_type_id":"4","last_reported":1761053186,"current_range_meters":6000,"station_id":"","pricing_plan_id":"cebpf4jnsgd1na2vs0mg"},{"bike_id":"46263b40-63a9-4d72-b38a-7c4bb7167858","system_id":"levelo_inurba_marseille","lat":43.2655,"lon":5.37274,"is_reserved":false,"is_disabled":false,"rental_uris":{"android":"levelo://app?vid=46263b40-63a9-4d72-b38a-7c4bb7167858","ios":"levelo://app?vid=46263b40-63a9-4d72-b38a-7c4bb7167858"},"vehicle_type_id":"4","last_reported":1761053186,"current_range_meters":6000,"station_id":"ce4bhg12rcd13ifvqf70","pricing_plan_id":"cebpf4jnsgd1na2vs0mg"},{"bike_id":"0adb8007-b38a-4c8f-9f32-ba61862af0dd","system_id":"levelo_inurba_marseille","lat":43.31174,"lon":5.36842,"is_reserved":false,"is_disabled":false,"rental_uris":{"android":"levelo://app?vid=0adb8007-b38a-4c8f-9f32-ba61862af0dd","ios":"levelo://app?vid=0adb8007-b38a-4c8f-9f32-ba61862af0dd"},"vehicle_type_id":"4","last_reported":1761053186,"current_range_meters":6000,"station_id":"","pricing_plan_id":"cebpf4jnsgd1na2vs0mg"},{"bike_id":"e1057639-b22a-4917-9d38-f58047a72e5c","system_id":"levelo_inurba_marseille","lat":43.3043,"lon":5.38893,"is_reserved":false,"is_disabled":false,"rental_uris":{"android":"levelo://app?vid=e1057639-b22a-4917-9d38-f58047a72e5c","ios":"levelo://app?vid=e1057639-b22a-4917-9d38-f58047a72e5c"},"vehicle_type_id":"4","last_reported":1761053186,"current_range_meters":6000,"station_id":"ce4bgk12rcd13ifvqbi0","pricing_plan_id":"cebpf4jnsgd1na2vs0mg"},{"bike_id":"249b6622-9f5a-4b31-947e-0817699a5c6e","system_id":"levelo_inurba_marseille","lat":43.314941,"lon":5.373105,"is_reserved":false,"is_disabled":false,"rental_uris":{"android":"levelo://app?vid=249b6622-9f5a-4b31-947e-0817699a5c6e","ios":"levelo://app?vid=249b6622-9f5a-4b31-947e-0817699a5c6e"},"vehicle_type_id":"4","last_reported":1761053186,"current_range_meters":6400,"station_id":"ce4bhgp2rcd13ifvqfe0","pricing_plan_id":"cebpf4jnsgd1na2vs0mg"},{"bike_id":"212a9329-66c4-44b3-8186-4a3357c4630e","system_id":"levelo_inurba_marseille","lat":43.29222,"lon":5.38085,"is_reserved":false,"is_disabled":false,"rental_uris":{"android":"levelo://app?vid=212a9329-66c4-44b3-8186-4a3357c4630e","ios":"levelo://app?vid=212a9329-66c4-44b3-8186-4a3357c4630e"},"vehicle_type_id":"4","last_reported":1761053186,"current_range_meters":6400,"station_id":"","pricing_plan_id":"cebpf4jnsgd1na2vs0mg"},{"bike_id":"8d488240-7398-4dad-a86d-dd4528a02a83","system_id":"levelo_inurba_marseille","lat":43.29058,"lon":5.40543,"is_reserved":false,"is_disabled":false,"rental_uris":{"android":"levelo://app?vid=8d488240-7398-4dad-a86d-dd4528a02a83","ios":"levelo://app?vid=8d488240-7398-4dad-a86d-dd4528a02a83"},"vehicle_type_id":"4","last_reported":1761053186,"current_range_meters":6400,"station_id":"","pricing_plan_id":"cebpf4jnsgd1na2vs0mg"},{"bike_id":"ada1219e-2344-4ed4-9a8b-26e07d491253","system_id":"levelo_inurba_marseille","lat":43.32478,"lon":5.36572,"is_reserved":false,"is_disabled":false,"rental_uris":{"android":"levelo://app?vid=ada1219e-2344-4ed4-9a8b-26e07d491253","ios":"levelo://app?vid=ada1219e-2344-4ed4-9a8b-26e07d491253"},"vehicle_type_id":"4","last_reported":1761053186,"current_range_meters":6400,"station_id":"ce4bhs12rcd13ifvqhvg","pricing_plan_id":"cebpf4jnsgd1na2vs0mg"},{"bike_id":"69ce9701-5adc-4a95-a8a1-2732192145f7","system_id":"levelo_inurba_marseille","lat":43.30139,"lon":5.37411,"is_reserved":false,"is_disabled":false,"rental_uris":{"android":"levelo://app?vid=69ce9701-5adc-4a95-a8a1-2732192145f7","ios":"levelo://app?vid=69ce9701-5adc-4a95-a8a1-2732192145f7"},"vehicle_type_id":"4","last_reported":1761053186,"current_range_meters":6800,"station_id":"ce4bgs92rcd13ifvqcc0","pricing_plan_id":"cebpf4jnsgd1na2vs0mg"},{"bike_id":"128082ba-5dec-4c04-8e09-725aeb0de151","system_id":"levelo_inurba_marseille","lat":43.2997,"lon":5.37184,"is_reserved":false,"is_disabled":false,"rental_uris":{"android":"levelo://app?vid=128082ba-5dec-4c04-8e09-725aeb0de151","ios":"levelo://app?vid=128082ba-5dec-4c04-8e09-725aeb0de151"},"vehicle_type_id":"4","last_reported":1761053186,"current_range_meters":6800,"station_id":"ce4bgr92rcd13ifvqc7g","pricing_plan_id":"cebpf4jnsgd1na2vs0mg"},{"bike_id":"98490d11-db71-4361-ab96-f0addd49d050","system_id":"levelo_inurba_marseille","lat":43.30001,"lon":5.37343,"is_reserved":false,"is_disabled":false,"rental_uris":{"android":"levelo://app?vid=98490d11-db71-4361-ab96-f0addd49d050","ios":"levelo://app?vid=98490d11-db71-4361-ab96-f0addd49d050"},"vehicle_type_id":"4","last_reported":1761053186,"current_range_meters":6800,"station_id":"","pricing_plan_id":"cebpf4jnsgd1na2vs0mg"},{"bike_id":"9bf3ed3c-518b-4b0c-8353-9432b289c8f7","system_id":"levelo_inurba_marseille","lat":43.29568,"lon":5.37507,"is_reserved":false,"is_disabled":false,"rental_uris":{"android":"levelo://app?vid=9bf3ed3c-518b-4b0c-8353-9432b289c8f7","ios":"levelo://app?vid=9bf3ed3c-518b-4b0c-8353-9432b289c8f7"},"vehicle_type_id":"4","last_reported":1761053186,"current_range_meters":7200,"station_id":"ce4bgh92rcd13ifvqb50","pricing_plan_id":"cebpf4jnsgd1na2vs0mg"},{"bike_id":"c037874f-e454-4d1e-9f03-b485b4dbd4f2","system_id":"levelo_inurba_marseille","lat":43.2919,"lon":5.37057,"is_reserved":false,"is_disabled":false,"rental_uris":{"android":"levelo://app?vid=c037874f-e454-4d1e-9f03-b485b4dbd4f2","ios":"levelo://app?vid=c037874f-e454-4d1e-9f03-b485b4dbd4f2"},"vehicle_type_id":"4","last_reported":1761053186,"current_range_meters":7200,"station_id":"","pricing_plan_id":"cebpf4jnsgd1na2vs0mg"},{"bike_id":"23d2e327-9a1c-43f9-a1d7-2fca27e96f84","system_id":"levelo_inurba_marseille","lat":43.27354,"lon":5.41491,"is_reserved":false,"is_disabled":false,"rental_uris":{"android":"levelo://app?vid=23d2e327-9a1c-43f9-a1d7-2fca27e96f84","ios":"levelo://app?vid=23d2e327-9a1c-43f9-a1d7-2fca27e96f84"},"vehicle_type_id":"4","last_reported":1761053186,"current_range_meters":7200,"station_id":"","pricing_plan_id":"cebpf4jnsgd1na2vs0mg"},{"bike_id":"6575e3c0-b5e7-440a-84a1-4f5787adad29","system_id":"levelo_inurba_marseille","lat":43.29545,"lon":5.37521,"is_reserved":false,"is_disabled":false,"rental_uris":{"android":"levelo://app?vid=6575e3c0-b5e7-440a-84a1-4f5787adad29","ios":"levelo://app?vid=6575e3c0-b5e7-440a-84a1-4f5787adad29"},"vehicle_type_id":"4","last_reported":1761053186,"current_range_meters":7200,"station_id":"ce4bgkp2rcd13ifvqbmg","pricing_plan_id":"cebpf4jnsgd1na2vs0mg"},{"bike_id":"bd7d3875-a077-4ef6-b24d-b1879b0467d4","system_id":"levelo_inurba_marseille","lat":43.29793,"lon":5.381,"is_reserved":false,"is_disabled":false,"rental_uris":{"android":"levelo://app?vid=bd7d3875-a077-4ef6-b24d-b1879b0467d4","ios":"levelo://app?vid=bd7d3875-a077-4ef6-b24d-b1879b0467d4"},"vehicle_type_id":"4","last_reported":1761053186,"current_range_meters":7200,"station_id":"ce4bgip2rcd13ifvqbb0","pricing_plan_id":"cebpf4jnsgd1na2vs0mg"},{"bike_id":"64a775c8-c121-4102-b7d5-2bb2159444df","system_id":"levelo_inurba_marseille","lat":43.2174,"lon":5.34596,"is_reserved":false,"is_disabled":false,"rental_uris":{"android":"levelo://app?vid=64a775c8-c121-4102-b7d5-2bb2159444df","ios":"levelo://app?vid=64a775c8-c121-4102-b7d5-2bb2159444df"},"vehicle_type_id":"4","last_reported":1761053186,"current_range_meters":7200,"station_id":"st_cvj6r9ubvosntc0bgbag","pricing_plan_id":"cebpf4jnsgd1na2vs0mg"},{"bike_id":"b6fecb74-6812-4eb4-bd36-e0a327018700","system_id":"levelo_inurba_marseille","lat":43.29574,"lon":5.36742,"is_reserved":false,"is_disabled":false,"rental_uris":{"android":"levelo://app?vid=b6fecb74-6812-4eb4-bd36-e0a327018700","ios":"levelo://app?vid=b6fecb74-6812-4eb4-bd36-e0a327018700"},"vehicle_type_id":"4","last_reported":1761053186,"current_range_meters":8000,"station_id":"ce4bgph2rcd13ifvqc2g","pricing_plan_id":"cebpf4jnsgd1na2vs0mg"},{"bike_id":"8a830d4f-ddab-46b9-9d0f-77194401daa1","system_id":"levelo_inurba_marseille","lat":43.3472,"lon":5.36604,"is_reserved":false,"is_disabled":false,"rental_uris":{"android":"levelo://app?vid=8a830d4f-ddab-46b9-9d0f-77194401daa1","ios":"levelo://app?vid=8a830d4f-ddab-46b9-9d0f-77194401daa1"},"vehicle_type_id":"4","last_reported":1761053186,"current_range_meters":8000,"station_id":"","pricing_plan_id":"cebpf4jnsgd1na2vs0mg"},{"bike_id":"6d8da19b-0143-43ba-a2b6-b774a32597d4","system_id":"levelo_inurba_marseille","lat":43.28157,"lon":5.34764,"is_reserved":false,"is_disabled":false,"rental_uris":{"android":"levelo://app?vid=6d8da19b-0143-43ba-a2b6-b774a32597d4","ios":"levelo://app?vid=6d8da19b-0143-43ba-a2b6-b774a32597d4"},"vehicle_type_id":"4","last_reported":1761053186,"current_range_meters":8000,"station_id":"","pricing_plan_id":"cebpf4jnsgd1na2vs0mg"},{"bike_id":"16d74289-c59c-42bc-b181-1121d04b97e9","system_id":"levelo_inurba_marseille","lat":43.29901,"lon":5.38146,"is_reserved":false,"is_disabled":false,"rental_uris":{"android":"levelo://app?vid=16d74289-c59c-42bc-b181-1121d04b97e9","ios":"levelo://app?vid=16d74289-c59c-42bc-b181-1121d04b97e9"},"vehicle_type_id":"4","last_reported":1761053186,"current_range_meters":8000,"station_id":"ce4bgj12rcd13ifvqbc0","pricing_plan_id":"cebpf4jnsgd1na2vs0mg"},{"bike_id":"bf6f945e-1d89-4884-b25c-f9034db8230e","system_id":"levelo_inurba_marseille","lat":43.33138,"lon":5.39141,"is_reserved":false,"is_disabled":false,"rental_uris":{"android":"levelo://app?vid=bf6f945e-1d89-4884-b25c-f9034db8230e","ios":"levelo://app?vid=bf6f945e-1d89-4884-b25c-f9034db8230e"},"vehicle_type_id":"4","last_reported":1761053186,"current_range_meters":8000,"station_id":"","pricing_plan_id":"cebpf4jnsgd1na2vs0mg"},{"bike_id":"14c595d7-5cb0-49d2-843c-56c367b7152f","system_id":"levelo_inurba_marseille","lat":43.29632,"lon":5.40595,"is_reserved":false,"is_disabled":false,"rental_uris":{"android":"levelo://app?vid=14c595d7-5cb0-49d2-843c-56c367b7152f","ios":"levelo://app?vid=14c595d7-5cb0-49d2-843c-56c367b7152f"},"vehicle_type_id":"4","last_reported":1761053186,"current_range_meters":8000,"station_id":"ce4bh0h2rcd13ifvqd60","pricing_plan_id":"cebpf4jnsgd1na2vs0mg"},{"bike_id":"40c6c0f4-82e3-440b-b1f4-d32df5afed56","system_id":"levelo_inurba_marseille","lat":43.283632,"lon":5.38626,"is_reserved":false,"is_disabled":false,"rental_uris":{"android":"levelo://app?vid=40c6c0f4-82e3-440b-b1f4-d32df5afed56","ios":"levelo://app?vid=40c6c0f4-82e3-440b-b1f4-d32df5afed56"},"vehicle_type_id":"4","last_reported":1761053186,"current_range_meters":8000,"station_id":"ce4bh492rcd13ifvqdvg","pricing_plan_id":"cebpf4jnsgd1na2vs0mg"},{"bike_id":"3ea16c49-dd15-43b8-ab67-c33a68019a8c","system_id":"levelo_inurba_marseille","lat":43.289412,"lon":5.366437,"is_reserved":false,"is_disabled":false,"rental_uris":{"android":"levelo://app?vid=3ea16c49-dd15-43b8-ab67-c33a68019a8c","ios":"levelo://app?vid=3ea16c49-dd15-43b8-ab67-c33a68019a8c"},"vehicle_type_id":"4","last_reported":1761053186,"current_range_meters":8000,"station_id":"ce4bgvp2rcd13ifvqcu0","pricing_plan_id":"cebpf4jnsgd1na2vs0mg"},{"bike_id":"c398a23e-2c59-4ed3-98d3-664710ce12ec","system_id":"levelo_inurba_marseille","lat":43.30139,"lon":5.37412,"is_reserved":false,"is_disabled":false,"rental_uris":{"android":"levelo://app?vid=c398a23e-2c59-4ed3-98d3-664710ce12ec","ios":"levelo://app?vid=c398a23e-2c59-4ed3-98d3-664710ce12ec"},"vehicle_type_id":"4","last_reported":1761053186,"current_range_meters":8400,"station_id":"ce4bgs92rcd13ifvqcc0","pricing_plan_id":"cebpf4jnsgd1na2vs0mg"},{"bike_id":"1a7bc8d3-2d59-4974-9c73-4984a98fdbcd","system_id":"levelo_inurba_marseille","lat":43.24801,"lon":5.37453,"is_reserved":false,"is_disabled":false,"rental_uris":{"android":"levelo://app?vid=1a7bc8d3-2d59-4974-9c73-4984a98fdbcd","ios":"levelo://app?vid=1a7bc8d3-2d59-4974-9c73-4984a98fdbcd"},"vehicle_type_id":"4","last_reported":1761053186,"current_range_meters":8400,"station_id":"ce4bhgh2rcd13ifvqfb0","pricing_plan_id":"cebpf4jnsgd1na2vs0mg"},{"bike_id":"bf8ec125-d0e1-4669-93ef-7d5ad0ddea3a","system_id":"levelo_inurba_marseille","lat":43.27231,"lon":5.400553,"is_reserved":false,"is_disabled":false,"rental_uris":{"android":"levelo://app?vid=bf8ec125-d0e1-4669-93ef-7d5ad0ddea3a","ios":"levelo://app?vid=bf8ec125-d0e1-4669-93ef-7d5ad0ddea3a"},"vehicle_type_id":"4","last_reported":1761053186,"current_range_meters":8800,"station_id":"","pricing_plan_id":"cebpf4jnsgd1na2vs0mg"},{"bike_id":"7fd8dba8-4a2e-4d0b-a45f-5e6598b525af","system_id":"levelo_inurba_marseille","lat":43.237796,"lon":5.366352,"is_reserved":false,"is_disabled":false,"rental_uris":{"android":"levelo://app?vid=7fd8dba8-4a2e-4d0b-a45f-5e6598b525af","ios":"levelo://app?vid=7fd8dba8-4a2e-4d0b-a45f-5e6598b525af"},"vehicle_type_id":"4","last_reported":1761053186,"current_range_meters":8800,"station_id":"st_d3nk18o9ro0c73en2l3g","pricing_plan_id":"cebpf4jnsgd1na2vs0mg"},{"bike_id":"e7cb61d9-84d9-41c0-8427-00fc6a9e436b","system_id":"levelo_inurba_marseille","lat":43.31069,"lon":5.37557,"is_reserved":false,"is_disabled":false,"rental_uris":{"android":"levelo://app?vid=e7cb61d9-84d9-41c0-8427-00fc6a9e436b","ios":"levelo://app?vid=e7cb61d9-84d9-41c0-8427-00fc6a9e436b"},"vehicle_type_id":"4","last_reported":1761053186,"current_range_meters":8800,"station_id":"","pricing_plan_id":"cebpf4jnsgd1na2vs0mg"},{"bike_id":"b1c9cb01-42df-4b8e-89a2-c81e1e9f20cc","system_id":"levelo_inurba_marseille","lat":43.2116,"lon":5.35083,"is_reserved":false,"is_disabled":false,"rental_uris":{"android":"levelo://app?vid=b1c9cb01-42df-4b8e-89a2-c81e1e9f20cc","ios":"levelo://app?vid=b1c9cb01-42df-4b8e-89a2-c81e1e9f20cc"},"vehicle_type_id":"4","last_reported":1761053186,"current_range_meters":8800,"station_id":"ce4bhhh2rcd13ifvqfk0","pricing_plan_id":"cebpf4jnsgd1na2vs0mg"},{"bike_id":"c068c946-d4c6-4f24-acf7-03bb41b90039","system_id":"levelo_inurba_marseille","lat":43.33022,"lon":5.39036,"is_reserved":false,"is_disabled":false,"rental_uris":{"android":"levelo://app?vid=c068c946-d4c6-4f24-acf7-03bb41b90039","ios":"levelo://app?vid=c068c946-d4c6-4f24-acf7-03bb41b90039"},"vehicle_type_id":"4","last_reported":1761053186,"current_range_meters":8800,"station_id":"ce4bhr92rcd13ifvqhrg","pricing_plan_id":"cebpf4jnsgd1na2vs0mg"},{"bike_id":"faafaab3-2765-4e63-92f5-e8aca18c08f2","system_id":"levelo_inurba_marseille","lat":43.32091,"lon":5.36759,"is_reserved":false,"is_disabled":true,"rental_uris":{"android":"levelo://app?vid=faafaab3-2765-4e63-92f5-e8aca18c08f2","ios":"levelo://app?vid=faafaab3-2765-4e63-92f5-e8aca18c08f2"},"vehicle_type_id":"4","last_reported":1761053186,"current_range_meters":9200,"station_id":"ce4bhrh2rcd13ifvqhug","pricing_plan_id":"cebpf4jnsgd1na2vs0mg"},{"bike_id":"cdccb71a-c1e9-47de-b13c-744a661646df","system_id":"levelo_inurba_marseille","lat":43.2906,"lon":5.35902,"is_reserved":false,"is_disabled":false,"rental_uris":{"android":"levelo://app?vid=cdccb71a-c1e9-47de-b13c-744a661646df","ios":"levelo://app?vid=cdccb71a-c1e9-47de-b13c-744a661646df"},"vehicle_type_id":"4","last_reported":1761053186,"current_range_meters":9200,"station_id":"ce4bha92rcd13ifvqeg0","pricing_plan_id":"cebpf4jnsgd1na2vs0mg"},{"bike_id":"19840955-f9d6-49c1-86e8-b7616b7da32c","system_id":"levelo_inurba_marseille","lat":43.33169,"lon":5.39059,"is_reserved":false,"is_disabled":false,"rental_uris":{"android":"levelo://app?vid=19840955-f9d6-49c1-86e8-b7616b7da32c","ios":"levelo://app?vid=19840955-f9d6-49c1-86e8-b7616b7da32c"},"vehicle_type_id":"4","last_reported":1761053186,"current_range_meters":9200,"station_id":"","pricing_plan_id":"cebpf4jnsgd1na2vs0mg"},{"bike_id":"a2e131f8-3c9f-478a-b394-6a9db5f46a7a","system_id":"levelo_inurba_marseille","lat":43.30131,"lon":5.37428,"is_reserved":false,"is_disabled":true,"rental_uris":{"android":"levelo://app?vid=a2e131f8-3c9f-478a-b394-6a9db5f46a7a","ios":"levelo://app?vid=a2e131f8-3c9f-478a-b394-6a9db5f46a7a"},"vehicle_type_id":"4","last_reported":1761053186,"current_range_meters":9600,"station_id":"ce4bgs92rcd13ifvqcc0","pricing_plan_id":"cebpf4jnsgd1na2vs0mg"},{"bike_id":"f2ff0ade-5361-46d8-ab78-69bd403c3483","system_id":"levelo_inurba_marseille","lat":43.28215,"lon":5.34993,"is_reserved":false,"is_disabled":false,"rental_uris":{"android":"levelo://app?vid=f2ff0ade-5361-46d8-ab78-69bd403c3483","ios":"levelo://app?vid=f2ff0ade-5361-46d8-ab78-69bd403c3483"},"vehicle_type_id":"4","last_reported":1761053186,"current_range_meters":9600,"station_id":"","pricing_plan_id":"cebpf4jnsgd1na2vs0mg"},{"bike_id":"cf9a3999-ab20-47cf-80be-07c88b6d9cb0","system_id":"levelo_inurba_marseille","lat":43.28861,"lon":5.42534,"is_reserved":false,"is_disabled":false,"rental_uris":{"android":"levelo://app?vid=cf9a3999-ab20-47cf-80be-07c88b6d9cb0","ios":"levelo://app?vid=cf9a3999-ab20-47cf-80be-07c88b6d9cb0"},"vehicle_type_id":"4","last_reported":1761053186,"current_range_meters":9600,"station_id":"st_d3b462108ojc7389ooeg","pricing_plan_id":"cebpf4jnsgd1na2vs0mg"},{"bike_id":"9b818b8e-2e7e-4bd6-9c2e-e64e692535b9","system_id":"levelo_inurba_marseille","lat":43.24639,"lon":5.38897,"is_reserved":false,"is_disabled":false,"rental_uris":{"android":"levelo://app?vid=9b818b8e-2e7e-4bd6-9c2e-e64e692535b9","ios":"levelo://app?vid=9b818b8e-2e7e-4bd6-9c2e-e64e692535b9"},"vehicle_type_id":"4","last_reported":1761053186,"current_range_meters":9600,"station_id":"ce4bhg12rcd13ifvqf60","pricing_plan_id":"cebpf4jnsgd1na2vs0mg"},{"bike_id":"d686c1a2-237c-44aa-8a7c-83bc5b32cf7b","system_id":"levelo_inurba_marseille","lat":43.29777,"lon":5.37124,"is_reserved":false,"is_disabled":false,"rental_uris":{"android":"levelo://app?vid=d686c1a2-237c-44aa-8a7c-83bc5b32cf7b","ios":"levelo://app?vid=d686c1a2-237c-44aa-8a7c-83bc5b32cf7b"},"vehicle_type_id":"4","last_reported":1761053186,"current_range_meters":10000,"station_id":"ce4bgop2rcd13ifvqc1g","pricing_plan_id":"cebpf4jnsgd1na2vs0mg"},{"bike_id":"58447ac8-7eb8-4391-ae31-a44d1ed4d3d7","system_id":"levelo_inurba_marseille","lat":43.2927,"lon":5.38465,"is_reserved":false,"is_disabled":false,"rental_uris":{"android":"levelo://app?vid=58447ac8-7eb8-4391-ae31-a44d1ed4d3d7","ios":"levelo://app?vid=58447ac8-7eb8-4391-ae31-a44d1ed4d3d7"},"vehicle_type_id":"4","last_reported":1761053186,"current_range_meters":10000,"station_id":"ce4bh692rcd13ifvqea0","pricing_plan_id":"cebpf4jnsgd1na2vs0mg"},{"bike_id":"037f360b-1302-4658-997d-42254636b523","system_id":"levelo_inurba_marseille","lat":43.23147,"lon":5.43716,"is_reserved":false,"is_disabled":false,"rental_uris":{"android":"levelo://app?vid=037f360b-1302-4658-997d-42254636b523","ios":"levelo://app?vid=037f360b-1302-4658-997d-42254636b523"},"vehicle_type_id":"4","last_reported":1761053186,"current_range_meters":10000,"station_id":"ce4bhmp2rcd13ifvqgog","pricing_plan_id":"cebpf4jnsgd1na2vs0mg"},{"bike_id":"af89308b-13fb-4251-95aa-12d9ed0f2c43","system_id":"levelo_inurba_marseille","lat":43.31702,"lon":5.43707,"is_reserved":false,"is_disabled":false,"rental_uris":{"android":"levelo://app?vid=af89308b-13fb-4251-95aa-12d9ed0f2c43","ios":"levelo://app?vid=af89308b-13fb-4251-95aa-12d9ed0f2c43"},"vehicle_type_id":"4","last_reported":1761053186,"current_range_meters":10000,"station_id":"ce4bhp92rcd13ifvqhcg","pricing_plan_id":"cebpf4jnsgd1na2vs0mg"},{"bike_id":"e1d6c971-891c-4ec9-82bb-ae133ab0ab87","system_id":"levelo_inurba_marseille","lat":43.28151,"lon":5.42637,"is_reserved":false,"is_disabled":false,"rental_uris":{"android":"levelo://app?vid=e1d6c971-891c-4ec9-82bb-ae133ab0ab87","ios":"levelo://app?vid=e1d6c971-891c-4ec9-82bb-ae133ab0ab87"},"vehicle_type_id":"4","last_reported":1761053186,"current_range_meters":10000,"station_id":"ce4bhnh2rcd13ifvqgug","pricing_plan_id":"cebpf4jnsgd1na2vs0mg"},{"bike_id":"034babe5-fa3d-47e9-ab38-1ec1871a4072","system_id":"levelo_inurba_marseille","lat":43.29525,"lon":5.38542,"is_reserved":false,"is_disabled":true,"rental_uris":{"android":"levelo://app?vid=034babe5-fa3d-47e9-ab38-1ec1871a4072","ios":"levelo://app?vid=034babe5-fa3d-47e9-ab38-1ec1871a4072"},"vehicle_type_id":"4","last_reported":1761053186,"current_range_meters":10000,"station_id":"ce4bgih2rcd13ifvqba0","pricing_plan_id":"cebpf4jnsgd1na2vs0mg"},{"bike_id":"397b3153-bd5b-4a18-b6c0-84fbc6b765c6","system_id":"levelo_inurba_marseille","lat":43.302193,"lon":5.394745,"is_reserved":false,"is_disabled":false,"rental_uris":{"android":"levelo://app?vid=397b3153-bd5b-4a18-b6c0-84fbc6b765c6","ios":"levelo://app?vid=397b3153-bd5b-4a18-b6c0-84fbc6b765c6"},"vehicle_type_id":"4","last_reported":1761053186,"current_range_meters":10000,"station_id":"ce4bh0p2rcd13ifvqd70","pricing_plan_id":"cebpf4jnsgd1na2vs0mg"},{"bike_id":"98dad89e-b1c7-4bfa-a30a-bf24eb72e7aa","system_id":"levelo_inurba_marseille","lat":43.26563,"lon":5.40328,"is_reserved":false,"is_disabled":false,"rental_uris":{"android":"levelo://app?vid=98dad89e-b1c7-4bfa-a30a-bf24eb72e7aa","ios":"levelo://app?vid=98dad89e-b1c7-4bfa-a30a-bf24eb72e7aa"},"vehicle_type_id":"4","last_reported":1761053186,"current_range_meters":10000,"station_id":"ce4bhmp2rcd13ifvqgng","pricing_plan_id":"cebpf4jnsgd1na2vs0mg"},{"bike_id":"adb6da43-a790-4bbe-8cdb-8fa1e5d17796","system_id":"levelo_inurba_marseille","lat":43.3175,"lon":5.38585,"is_reserved":false,"is_disabled":false,"rental_uris":{"android":"levelo://app?vid=adb6da43-a790-4bbe-8cdb-8fa1e5d17796","ios":"levelo://app?vid=adb6da43-a790-4bbe-8cdb-8fa1e5d17796"},"vehicle_type_id":"4","last_reported":1761053186,"current_range_meters":10000,"station_id":"","pricing_plan_id":"cebpf4jnsgd1na2vs0mg"},{"bike_id":"7a35955c-fc9b-47ab-b836-acc7017aac88","system_id":"levelo_inurba_marseille","lat":43.29533,"lon":5.38538,"is_reserved":false,"is_disabled":true,"rental_uris":{"android":"levelo://app?vid=7a35955c-fc9b-47ab-b836-acc7017aac88","ios":"levelo://app?vid=7a35955c-fc9b-47ab-b836-acc7017aac88"},"vehicle_type_id":"4","last_reported":1761053186,"current_range_meters":10000,"station_id":"ce4bgih2rcd13ifvqba0","pricing_plan_id":"cebpf4jnsgd1na2vs0mg"},{"bike_id":"e31fefd7-019d-4293-a003-27736cab78d4","system_id":"levelo_inurba_marseille","lat":43.31978,"lon":5.38152,"is_reserved":false,"is_disabled":false,"rental_uris":{"android":"levelo://app?vid=e31fefd7-019d-4293-a003-27736cab78d4","ios":"levelo://app?vid=e31fefd7-019d-4293-a003-27736cab78d4"},"vehicle_type_id":"4","last_reported":1761053186,"current_range_meters":10000,"station_id":"ce4bhr12rcd13ifvqhpg","pricing_plan_id":"cebpf4jnsgd1na2vs0mg"},{"bike_id":"4154d683-e72a-4592-9e60-2a3872848698","system_id":"levelo_inurba_marseille","lat":43.28481,"lon":5.48397,"is_reserved":false,"is_disabled":false,"rental_uris":{"android":"levelo://app?vid=4154d683-e72a-4592-9e60-2a3872848698","ios":"levelo://app?vid=4154d683-e72a-4592-9e60-2a3872848698"},"vehicle_type_id":"4","last_reported":1761053186,"current_range_meters":10800,"station_id":"st_d3jp68qikq2c7381ktn0","pricing_plan_id":"cebpf4jnsgd1na2vs0mg"},{"bike_id":"2f2cd53b-bf8d-472a-8c70-97638c6ae795","system_id":"levelo_inurba_marseille","lat":43.31877,"lon":5.39984,"is_reserved":false,"is_disabled":false,"rental_uris":{"android":"levelo://app?vid=2f2cd53b-bf8d-472a-8c70-97638c6ae795","ios":"levelo://app?vid=2f2cd53b-bf8d-472a-8c70-97638c6ae795"},"vehicle_type_id":"4","last_reported":1761053186,"current_range_meters":10800,"station_id":"","pricing_plan_id":"cebpf4jnsgd1na2vs0mg"},{"bike_id":"1e9bfffa-fe46-4cca-8d70-a5ba74081670","system_id":"levelo_inurba_marseille","lat":43.31233,"lon":5.36865,"is_reserved":false,"is_disabled":true,"rental_uris":{"android":"levelo://app?vid=1e9bfffa-fe46-4cca-8d70-a5ba74081670","ios":"levelo://app?vid=1e9bfffa-fe46-4cca-8d70-a5ba74081670"},"vehicle_type_id":"4","last_reported":1761053186,"current_range_meters":10800,"station_id":"ce4bgl92rcd13ifvqbq0","pricing_plan_id":"cebpf4jnsgd1na2vs0mg"},{"bike_id":"b9489beb-b4db-4283-ad3d-073016e7d276","system_id":"levelo_inurba_marseille","lat":43.30421,"lon":5.39744,"is_reserved":false,"is_disabled":false,"rental_uris":{"android":"levelo://app?vid=b9489beb-b4db-4283-ad3d-073016e7d276","ios":"levelo://app?vid=b9489beb-b4db-4283-ad3d-073016e7d276"},"vehicle_type_id":"4","last_reported":1761053186,"current_range_meters":10800,"station_id":"ce4bh092rcd13ifvqd20","pricing_plan_id":"cebpf4jnsgd1na2vs0mg"},{"bike_id":"5d823415-4901-46a6-8d50-3886f3d86745","system_id":"levelo_inurba_marseille","lat":43.211933,"lon":5.350695,"is_reserved":false,"is_disabled":false,"rental_uris":{"android":"levelo://app?vid=5d823415-4901-46a6-8d50-3886f3d86745","ios":"levelo://app?vid=5d823415-4901-46a6-8d50-3886f3d86745"},"vehicle_type_id":"4","last_reported":1761053186,"current_range_meters":10800,"station_id":"st_cvj6sg6p6f1abm77japg","pricing_plan_id":"cebpf4jnsgd1na2vs0mg"},{"bike_id":"d1e958a2-777f-4c61-b754-9dd09f7aaa9c","system_id":"levelo_inurba_marseille","lat":43.27989,"lon":5.40023,"is_reserved":false,"is_disabled":false,"rental_uris":{"android":"levelo://app?vid=d1e958a2-777f-4c61-b754-9dd09f7aaa9c","ios":"levelo://app?vid=d1e958a2-777f-4c61-b754-9dd09f7aaa9c"},"vehicle_type_id":"4","last_reported":1761053186,"current_range_meters":10800,"station_id":"ce4bho92rcd13ifvqh4g","pricing_plan_id":"cebpf4jnsgd1na2vs0mg"},{"bike_id":"3d068a7d-8c2c-4f97-8d7d-54140fa95800","system_id":"levelo_inurba_marseille","lat":43.273533,"lon":5.398815,"is_reserved":false,"is_disabled":false,"rental_uris":{"android":"levelo://app?vid=3d068a7d-8c2c-4f97-8d7d-54140fa95800","ios":"levelo://app?vid=3d068a7d-8c2c-4f97-8d7d-54140fa95800"},"vehicle_type_id":"4","last_reported":1761053186,"current_range_meters":10800,"station_id":"","pricing_plan_id":"cebpf4jnsgd1na2vs0mg"},{"bike_id":"b3368da1-faef-43a4-ada4-73d0de7687c7","system_id":"levelo_inurba_marseille","lat":43.31571,"lon":5.38755,"is_reserved":false,"is_disabled":false,"rental_uris":{"android":"levelo://app?vid=b3368da1-faef-43a4-ada4-73d0de7687c7","ios":"levelo://app?vid=b3368da1-faef-43a4-ada4-73d0de7687c7"},"vehicle_type_id":"4","last_reported":1761053186,"current_range_meters":10800,"station_id":"","pricing_plan_id":"cebpf4jnsgd1na2vs0mg"},{"bike_id":"dcdac892-904b-4815-8acf-2d1a94637ba7","system_id":"levelo_inurba_marseille","lat":43.225569,"lon":5.416302,"is_reserved":false,"is_disabled":false,"rental_uris":{"android":"levelo://app?vid=dcdac892-904b-4815-8acf-2d1a94637ba7","ios":"levelo://app?vid=dcdac892-904b-4815-8acf-2d1a94637ba7"},"vehicle_type_id":"4","last_reported":1761053186,"current_range_meters":10800,"station_id":"st_d2o4gvlbi1j2169b742g","pricing_plan_id":"cebpf4jnsgd1na2vs0mg"},{"bike_id":"2dd6b58b-d5b0-4f16-bfae-e8068c61174e","system_id":"levelo_inurba_marseille","lat":43.211886,"lon":5.350715,"is_reserved":false,"is_disabled":false,"rental_uris":{"android":"levelo://app?vid=2dd6b58b-d5b0-4f16-bfae-e8068c61174e","ios":"levelo://app?vid=2dd6b58b-d5b0-4f16-bfae-e8068c61174e"},"vehicle_type_id":"4","last_reported":1761053186,"current_range_meters":10800,"station_id":"st_cvj6sg6p6f1abm77japg","pricing_plan_id":"cebpf4jnsgd1na2vs0mg"},{"bike_id":"e0b2a497-9bd4-4c0a-8fab-d2739f808190","system_id":"levelo_inurba_marseille","lat":43.23963,"lon":5.36626,"is_reserved":false,"is_disabled":false,"rental_uris":{"android":"levelo://app?vid=e0b2a497-9bd4-4c0a-8fab-d2739f808190","ios":"levelo://app?vid=e0b2a497-9bd4-4c0a-8fab-d2739f808190"},"vehicle_type_id":"4","last_reported":1761053186,"current_range_meters":11200,"station_id":"ce4bhi12rcd13ifvqfp0","pricing_plan_id":"cebpf4jnsgd1na2vs0mg"},{"bike_id":"b7e41c34-cad5-468c-aadc-3ef8a1845b5a","system_id":"levelo_inurba_marseille","lat":43.28161,"lon":5.361186,"is_reserved":false,"is_disabled":false,"rental_uris":{"android":"levelo://app?vid=b7e41c34-cad5-468c-aadc-3ef8a1845b5a","ios":"levelo://app?vid=b7e41c34-cad5-468c-aadc-3ef8a1845b5a"},"vehicle_type_id":"4","last_reported":1761053186,"current_range_meters":11200,"station_id":"","pricing_plan_id":"cebpf4jnsgd1na2vs0mg"},{"bike_id":"c2ed663f-ff32-4a6e-8763-b50d2ad89062","system_id":"levelo_inurba_marseille","lat":43.23152,"lon":5.43705,"is_reserved":false,"is_disabled":false,"rental_uris":{"android":"levelo://app?vid=c2ed663f-ff32-4a6e-8763-b50d2ad89062","ios":"levelo://app?vid=c2ed663f-ff32-4a6e-8763-b50d2ad89062"},"vehicle_type_id":"4","last_reported":1761053186,"current_range_meters":11200,"station_id":"ce4bhmp2rcd13ifvqgog","pricing_plan_id":"cebpf4jnsgd1na2vs0mg"},{"bike_id":"6d96028a-c588-49c5-9536-110c333b3363","system_id":"levelo_inurba_marseille","lat":43.29249,"lon":5.37621,"is_reserved":false,"is_disabled":false,"rental_uris":{"android":"levelo://app?vid=6d96028a-c588-49c5-9536-110c333b3363","ios":"levelo://app?vid=6d96028a-c588-49c5-9536-110c333b3363"},"vehicle_type_id":"4","last_reported":1761053186,"current_range_meters":11600,"station_id":"ce4bgi12rcd13ifvqb80","pricing_plan_id":"cebpf4jnsgd1na2vs0mg"},{"bike_id":"0c108776-3031-420f-90ed-6211d3572418","system_id":"levelo_inurba_marseille","lat":43.27614,"lon":5.36108,"is_reserved":false,"is_disabled":false,"rental_uris":{"android":"levelo://app?vid=0c108776-3031-420f-90ed-6211d3572418","ios":"levelo://app?vid=0c108776-3031-420f-90ed-6211d3572418"},"vehicle_type_id":"4","last_reported":1761053186,"current_range_meters":11600,"station_id":"ce4bgj92rcd13ifvqbe0","pricing_plan_id":"cebpf4jnsgd1na2vs0mg"},{"bike_id":"f15d7f50-08ad-4958-9c43-af91c972b19c","system_id":"levelo_inurba_marseille","lat":43.30326,"lon":5.40433,"is_reserved":false,"is_disabled":false,"rental_uris":{"android":"levelo://app?vid=f15d7f50-08ad-4958-9c43-af91c972b19c","ios":"levelo://app?vid=f15d7f50-08ad-4958-9c43-af91c972b19c"},"vehicle_type_id":"4","last_reported":1761053186,"current_range_meters":11600,"station_id":"ce4bh012rcd13ifvqd10","pricing_plan_id":"cebpf4jnsgd1na2vs0mg"},{"bike_id":"3d900732-f44d-4bd2-97ca-cfed3d790f85","system_id":"levelo_inurba_marseille","lat":43.260605,"lon":5.393924,"is_reserved":false,"is_disabled":false,"rental_uris":{"android":"levelo://app?vid=3d900732-f44d-4bd2-97ca-cfed3d790f85","ios":"levelo://app?vid=3d900732-f44d-4bd2-97ca-cfed3d790f85"},"vehicle_type_id":"4","last_reported":1761053186,"current_range_meters":11600,"station_id":"ce4bhh92rcd13ifvqfj0","pricing_plan_id":"cebpf4jnsgd1na2vs0mg"},{"bike_id":"54a7471e-8675-4b3b-a7a5-316aa76bbcbc","system_id":"levelo_inurba_marseille","lat":43.27907,"lon":5.40426,"is_reserved":false,"is_disabled":false,"rental_uris":{"android":"levelo://app?vid=54a7471e-8675-4b3b-a7a5-316aa76bbcbc","ios":"levelo://app?vid=54a7471e-8675-4b3b-a7a5-316aa76bbcbc"},"vehicle_type_id":"4","last_reported":1761053186,"current_range_meters":11600,"station_id":"","pricing_plan_id":"cebpf4jnsgd1na2vs0mg"},{"bike_id":"66bec76d-d7e9-4a1e-a715-39e56334bf96","system_id":"levelo_inurba_marseille","lat":43.28287,"lon":5.3968,"is_reserved":false,"is_disabled":false,"rental_uris":{"android":"levelo://app?vid=66bec76d-d7e9-4a1e-a715-39e56334bf96","ios":"levelo://app?vid=66bec76d-d7e9-4a1e-a715-39e56334bf96"},"vehicle_type_id":"4","last_reported":1761053186,"current_range_meters":12000,"station_id":"","pricing_plan_id":"cebpf4jnsgd1na2vs0mg"},{"bike_id":"609e8845-7ae3-4c4f-97f5-856dd3a8b490","system_id":"levelo_inurba_marseille","lat":43.28868,"lon":5.42517,"is_reserved":false,"is_disabled":false,"rental_uris":{"android":"levelo://app?vid=609e8845-7ae3-4c4f-97f5-856dd3a8b490","ios":"levelo://app?vid=609e8845-7ae3-4c4f-97f5-856dd3a8b490"},"vehicle_type_id":"4","last_reported":1761053186,"current_range_meters":12000,"station_id":"st_d3b462108ojc7389ooeg","pricing_plan_id":"cebpf4jnsgd1na2vs0mg"},{"bike_id":"7fc7957f-d174-47f2-8e6f-9988d341f27d","system_id":"levelo_inurba_marseille","lat":43.24385,"lon":5.37051,"is_reserved":false,"is_disabled":false,"rental_uris":{"android":"levelo://app?vid=7fc7957f-d174-47f2-8e6f-9988d341f27d","ios":"levelo://app?vid=7fc7957f-d174-47f2-8e6f-9988d341f27d"},"vehicle_type_id":"4","last_reported":1761053186,"current_range_meters":12000,"station_id":"ce4bhhh2rcd13ifvqfk0","pricing_plan_id":"cebpf4jnsgd1na2vs0mg"},{"bike_id":"bedab86a-a42b-4d3b-a255-7e555fb6da4b","system_id":"levelo_inurba_marseille","lat":43.28817,"lon":5.45163,"is_reserved":false,"is_disabled":false,"rental_uris":{"android":"levelo://app?vid=bedab86a-a42b-4d3b-a255-7e555fb6da4b","ios":"levelo://app?vid=bedab86a-a42b-4d3b-a255-7e555fb6da4b"},"vehicle_type_id":"4","last_reported":1761053186,"current_range_meters":12000,"station_id":"","pricing_plan_id":"cebpf4jnsgd1na2vs0mg"},{"bike_id":"1604878d-6d54-4611-a416-f6c03f37cf7a","system_id":"levelo_inurba_marseille","lat":43.3056,"lon":5.36696,"is_reserved":false,"is_disabled":false,"rental_uris":{"android":"levelo://app?vid=1604878d-6d54-4611-a416-f6c03f37cf7a","ios":"levelo://app?vid=1604878d-6d54-4611-a416-f6c03f37cf7a"},"vehicle_type_id":"4","last_reported":1761053186,"current_range_meters":12000,"station_id":"ce4bgrp2rcd13ifvqc9g","pricing_plan_id":"cebpf4jnsgd1na2vs0mg"},{"bike_id":"da3c5d5d-639d-4a11-88e1-f7b9c2ad220a","system_id":"levelo_inurba_marseille","lat":43.31742,"lon":5.37771,"is_reserved":false,"is_disabled":true,"rental_uris":{"android":"levelo://app?vid=da3c5d5d-639d-4a11-88e1-f7b9c2ad220a","ios":"levelo://app?vid=da3c5d5d-639d-4a11-88e1-f7b9c2ad220a"},"vehicle_type_id":"4","last_reported":1761053186,"current_range_meters":12000,"station_id":"ce4bgth2rcd13ifvqch0","pricing_plan_id":"cebpf4jnsgd1na2vs0mg"},{"bike_id":"f434a13c-41b9-41a3-8212-055ca998b49b","system_id":"levelo_inurba_marseille","lat":43.28639,"lon":5.40736,"is_reserved":false,"is_disabled":false,"rental_uris":{"android":"levelo://app?vid=f434a13c-41b9-41a3-8212-055ca998b49b","ios":"levelo://app?vid=f434a13c-41b9-41a3-8212-055ca998b49b"},"vehicle_type_id":"4","last_reported":1761053186,"current_range_meters":12000,"station_id":"","pricing_plan_id":"cebpf4jnsgd1na2vs0mg"},{"bike_id":"a2cd3c17-bac0-4585-b436-1f44f84d3b85","system_id":"levelo_inurba_marseille","lat":43.30128,"lon":5.39867,"is_reserved":false,"is_disabled":false,"rental_uris":{"android":"levelo://app?vid=a2cd3c17-bac0-4585-b436-1f44f84d3b85","ios":"levelo://app?vid=a2cd3c17-bac0-4585-b436-1f44f84d3b85"},"vehicle_type_id":"4","last_reported":1761053186,"current_range_meters":12000,"station_id":"ce4bh0h2rcd13ifvqd40","pricing_plan_id":"cebpf4jnsgd1na2vs0mg"},{"bike_id":"2a1ffee8-d6e4-495f-9f79-bdbf75323370","system_id":"levelo_inurba_marseille","lat":43.2848,"lon":5.38416,"is_reserved":false,"is_disabled":false,"rental_uris":{"android":"levelo://app?vid=2a1ffee8-d6e4-495f-9f79-bdbf75323370","ios":"levelo://app?vid=2a1ffee8-d6e4-495f-9f79-bdbf75323370"},"vehicle_type_id":"4","last_reported":1761053186,"current_range_meters":12400,"station_id":"ce4bh512rcd13ifvqe3g","pricing_plan_id":"cebpf4jnsgd1na2vs0mg"},{"bike_id":"65c20af1-ea86-41cd-b7b7-fc7005586849","system_id":"levelo_inurba_marseille","lat":43.32101,"lon":5.36766,"is_reserved":false,"is_disabled":false,"rental_uris":{"android":"levelo://app?vid=65c20af1-ea86-41cd-b7b7-fc7005586849","ios":"levelo://app?vid=65c20af1-ea86-41cd-b7b7-fc7005586849"},"vehicle_type_id":"4","last_reported":1761053186,"current_range_meters":12400,"station_id":"ce4bhrh2rcd13ifvqhug","pricing_plan_id":"cebpf4jnsgd1na2vs0mg"},{"bike_id":"2e02b7a3-3996-4ec3-ac5d-d33004f0b891","system_id":"levelo_inurba_marseille","lat":43.29012,"lon":5.38133,"is_reserved":false,"is_disabled":false,"rental_uris":{"android":"levelo://app?vid=2e02b7a3-3996-4ec3-ac5d-d33004f0b891","ios":"levelo://app?vid=2e02b7a3-3996-4ec3-ac5d-d33004f0b891"},"vehicle_type_id":"4","last_reported":1761053186,"current_range_meters":12400,"station_id":"ce4bh4p2rcd13ifvqe1g","pricing_plan_id":"cebpf4jnsgd1na2vs0mg"},{"bike_id":"a4255e71-88f6-4a6a-9261-3758b056f52f","system_id":"levelo_inurba_marseille","lat":43.25578,"lon":5.38227,"is_reserved":false,"is_disabled":false,"rental_uris":{"android":"levelo://app?vid=a4255e71-88f6-4a6a-9261-3758b056f52f","ios":"levelo://app?vid=a4255e71-88f6-4a6a-9261-3758b056f52f"},"vehicle_type_id":"4","last_reported":1761053186,"current_range_meters":12400,"station_id":"ce4bhih2rcd13ifvqfs0","pricing_plan_id":"cebpf4jnsgd1na2vs0mg"},{"bike_id":"074cdb1c-a664-4c43-95e5-b89e11d25311","system_id":"levelo_inurba_marseille","lat":43.29531,"lon":5.39399,"is_reserved":false,"is_disabled":false,"rental_uris":{"android":"levelo://app?vid=074cdb1c-a664-4c43-95e5-b89e11d25311","ios":"levelo://app?vid=074cdb1c-a664-4c43-95e5-b89e11d25311"},"vehicle_type_id":"4","last_reported":1761053186,"current_range_meters":12400,"station_id":"ce4bh292rcd13ifvqdf0","pricing_plan_id":"cebpf4jnsgd1na2vs0mg"},{"bike_id":"c4d17d81-19cf-4697-a9b1-d780d189ed78","system_id":"levelo_inurba_marseille","lat":43.25119,"lon":5.40332,"is_reserved":false,"is_disabled":true,"rental_uris":{"android":"levelo://app?vid=c4d17d81-19cf-4697-a9b1-d780d189ed78","ios":"levelo://app?vid=c4d17d81-19cf-4697-a9b1-d780d189ed78"},"vehicle_type_id":"4","last_reported":1761053186,"current_range_meters":12800,"station_id":"ce4bhlh2rcd13ifvqgig","pricing_plan_id":"cebpf4jnsgd1na2vs0mg"},{"bike_id":"c9c6b545-2dfb-4d64-9f04-12360de976df","system_id":"levelo_inurba_marseille","lat":43.30148,"lon":5.37403,"is_reserved":false,"is_disabled":false,"rental_uris":{"android":"levelo://app?vid=c9c6b545-2dfb-4d64-9f04-12360de976df","ios":"levelo://app?vid=c9c6b545-2dfb-4d64-9f04-12360de976df"},"vehicle_type_id":"4","last_reported":1761053186,"current_range_meters":12800,"station_id":"ce4bgs92rcd13ifvqcc0","pricing_plan_id":"cebpf4jnsgd1na2vs0mg"},{"bike_id":"c4b5030a-8253-4034-82fa-6d028f6592cc","system_id":"levelo_inurba_marseille","lat":43.2954,"lon":5.37503,"is_reserved":false,"is_disabled":false,"rental_uris":{"android":"levelo://app?vid=c4b5030a-8253-4034-82fa-6d028f6592cc","ios":"levelo://app?vid=c4b5030a-8253-4034-82fa-6d028f6592cc"},"vehicle_type_id":"4","last_reported":1761053186,"current_range_meters":12800,"station_id":"ce4bgkp2rcd13ifvqbmg","pricing_plan_id":"cebpf4jnsgd1na2vs0mg"},{"bike_id":"c47cc5e0-0dce-4331-a854-4b73bcb1f9c2","system_id":"levelo_inurba_marseille","lat":43.29973,"lon":5.3849,"is_reserved":false,"is_disabled":false,"rental_uris":{"android":"levelo://app?vid=c47cc5e0-0dce-4331-a854-4b73bcb1f9c2","ios":"levelo://app?vid=c47cc5e0-0dce-4331-a854-4b73bcb1f9c2"},"vehicle_type_id":"4","last_reported":1761053186,"current_range_meters":12800,"station_id":"ce4bgj92rcd13ifvqbd0","pricing_plan_id":"cebpf4jnsgd1na2vs0mg"},{"bike_id":"2f09c01d-689c-4521-97af-b4ef07cad168","system_id":"levelo_inurba_marseille","lat":43.22567,"lon":5.41618,"is_reserved":false,"is_disabled":false,"rental_uris":{"android":"levelo://app?vid=2f09c01d-689c-4521-97af-b4ef07cad168","ios":"levelo://app?vid=2f09c01d-689c-4521-97af-b4ef07cad168"},"vehicle_type_id":"4","last_reported":1761053186,"current_range_meters":12800,"station_id":"st_d2o4gvlbi1j2169b742g","pricing_plan_id":"cebpf4jnsgd1na2vs0mg"},{"bike_id":"fdc2da91-4364-4dab-b9ce-e117791184ec","system_id":"levelo_inurba_marseille","lat":43.29625,"lon":5.40596,"is_reserved":false,"is_disabled":false,"rental_uris":{"android":"levelo://app?vid=fdc2da91-4364-4dab-b9ce-e117791184ec","ios":"levelo://app?vid=fdc2da91-4364-4dab-b9ce-e117791184ec"},"vehicle_type_id":"4","last_reported":1761053186,"current_range_meters":13600,"station_id":"ce4bh0h2rcd13ifvqd60","pricing_plan_id":"cebpf4jnsgd1na2vs0mg"},{"bike_id":"45dd9bf0-6215-4db9-8574-210b3071c49e","system_id":"levelo_inurba_marseille","lat":43.3149,"lon":5.37313,"is_reserved":false,"is_disabled":false,"rental_uris":{"android":"levelo://app?vid=45dd9bf0-6215-4db9-8574-210b3071c49e","ios":"levelo://app?vid=45dd9bf0-6215-4db9-8574-210b3071c49e"},"vehicle_type_id":"4","last_reported":1761053186,"current_range_meters":13600,"station_id":"ce4bgt12rcd13ifvqcd0","pricing_plan_id":"cebpf4jnsgd1na2vs0mg"},{"bike_id":"7a49521f-83ec-4610-a9e0-cc1ab58ce0b2","system_id":"levelo_inurba_marseille","lat":43.25076,"lon":5.39508,"is_reserved":false,"is_disabled":false,"rental_uris":{"android":"levelo://app?vid=7a49521f-83ec-4610-a9e0-cc1ab58ce0b2","ios":"levelo://app?vid=7a49521f-83ec-4610-a9e0-cc1ab58ce0b2"},"vehicle_type_id":"4","last_reported":1761053186,"current_range_meters":13600,"station_id":"ce4bhm12rcd13ifvqgkg","pricing_plan_id":"cebpf4jnsgd1na2vs0mg"},{"bike_id":"866f15d2-6d57-4679-8cf6-ebfc697fcac3","system_id":"levelo_inurba_marseille","lat":43.3014,"lon":5.38779,"is_reserved":false,"is_disabled":false,"rental_uris":{"android":"levelo://app?vid=866f15d2-6d57-4679-8cf6-ebfc697fcac3","ios":"levelo://app?vid=866f15d2-6d57-4679-8cf6-ebfc697fcac3"},"vehicle_type_id":"4","last_reported":1761053186,"current_range_meters":13600,"station_id":"ce4bghh2rcd13ifvqb60","pricing_plan_id":"cebpf4jnsgd1na2vs0mg"},{"bike_id":"e6f107ef-554f-4a02-9907-6d80b8b4c7ee","system_id":"levelo_inurba_marseille","lat":43.32594,"lon":5.42408,"is_reserved":false,"is_disabled":false,"rental_uris":{"android":"levelo://app?vid=e6f107ef-554f-4a02-9907-6d80b8b4c7ee","ios":"levelo://app?vid=e6f107ef-554f-4a02-9907-6d80b8b4c7ee"},"vehicle_type_id":"4","last_reported":1761053186,"current_range_meters":13600,"station_id":"","pricing_plan_id":"cebpf4jnsgd1na2vs0mg"},{"bike_id":"73cdef3f-b7aa-485a-87c2-e7aa8f9a2cb9","system_id":"levelo_inurba_marseille","lat":43.32479,"lon":5.3657,"is_reserved":false,"is_disabled":false,"rental_uris":{"android":"levelo://app?vid=73cdef3f-b7aa-485a-87c2-e7aa8f9a2cb9","ios":"levelo://app?vid=73cdef3f-b7aa-485a-87c2-e7aa8f9a2cb9"},"vehicle_type_id":"4","last_reported":1761053186,"current_range_meters":13600,"station_id":"ce4bhs12rcd13ifvqhvg","pricing_plan_id":"cebpf4jnsgd1na2vs0mg"},{"bike_id":"53143c9e-e5c9-4956-b244-c0802477f8bc","system_id":"levelo_inurba_marseille","lat":43.309998,"lon":5.389321,"is_reserved":false,"is_disabled":false,"rental_uris":{"android":"levelo://app?vid=53143c9e-e5c9-4956-b244-c0802477f8bc","ios":"levelo://app?vid=53143c9e-e5c9-4956-b244-c0802477f8bc"},"vehicle_type_id":"4","last_reported":1761053186,"current_range_meters":14000,"station_id":"ce4bgup2rcd13ifvqco0","pricing_plan_id":"cebpf4jnsgd1na2vs0mg"},{"bike_id":"418324a5-5086-43a8-aa4f-3ed5d8782205","system_id":"levelo_inurba_marseille","lat":43.300114,"lon":5.38588,"is_reserved":false,"is_disabled":false,"rental_uris":{"android":"levelo://app?vid=418324a5-5086-43a8-aa4f-3ed5d8782205","ios":"levelo://app?vid=418324a5-5086-43a8-aa4f-3ed5d8782205"},"vehicle_type_id":"4","last_reported":1761053186,"current_range_meters":14000,"station_id":"ce4bgj92rcd13ifvqbd0","pricing_plan_id":"cebpf4jnsgd1na2vs0mg"},{"bike_id":"b8457e49-45d1-4539-8d31-1eb0283df508","system_id":"levelo_inurba_marseille","lat":43.331599,"lon":5.354942,"is_reserved":false,"is_disabled":false,"rental_uris":{"android":"levelo://app?vid=b8457e49-45d1-4539-8d31-1eb0283df508","ios":"levelo://app?vid=b8457e49-45d1-4539-8d31-1eb0283df508"},"vehicle_type_id":"4","last_reported":1761053186,"current_range_meters":14000,"station_id":"","pricing_plan_id":"cebpf4jnsgd1na2vs0mg"},{"bike_id":"b8d6ebcb-80f1-4744-90ad-aa0dbb9abe8f","system_id":"levelo_inurba_marseille","lat":43.27486,"lon":5.42455,"is_reserved":false,"is_disabled":false,"rental_uris":{"android":"levelo://app?vid=b8d6ebcb-80f1-4744-90ad-aa0dbb9abe8f","ios":"levelo://app?vid=b8d6ebcb-80f1-4744-90ad-aa0dbb9abe8f"},"vehicle_type_id":"4","last_reported":1761053186,"current_range_meters":14000,"station_id":"ce4bhn92rcd13ifvqgrg","pricing_plan_id":"cebpf4jnsgd1na2vs0mg"},{"bike_id":"4c0a5d73-60b7-4822-a290-6e489f4a946f","system_id":"levelo_inurba_marseille","lat":43.28466,"lon":5.38557,"is_reserved":false,"is_disabled":true,"rental_uris":{"android":"levelo://app?vid=4c0a5d73-60b7-4822-a290-6e489f4a946f","ios":"levelo://app?vid=4c0a5d73-60b7-4822-a290-6e489f4a946f"},"vehicle_type_id":"4","last_reported":1761053186,"current_range_meters":14400,"station_id":"ce4bh8p2rcd13ifvqeb0","pricing_plan_id":"cebpf4jnsgd1na2vs0mg"},{"bike_id":"3f3c3310-a815-4a04-b1a3-1d358b0a3cae","system_id":"levelo_inurba_marseille","lat":43.30134,"lon":5.38779,"is_reserved":false,"is_disabled":false,"rental_uris":{"android":"levelo://app?vid=3f3c3310-a815-4a04-b1a3-1d358b0a3cae","ios":"levelo://app?vid=3f3c3310-a815-4a04-b1a3-1d358b0a3cae"},"vehicle_type_id":"4","last_reported":1761053186,"current_range_meters":14400,"station_id":"ce4bghh2rcd13ifvqb60","pricing_plan_id":"cebpf4jnsgd1na2vs0mg"},{"bike_id":"1a33adb3-5d05-4c33-a124-c4bcfebaee63","system_id":"levelo_inurba_marseille","lat":43.30532,"lon":5.38425,"is_reserved":false,"is_disabled":false,"rental_uris":{"android":"levelo://app?vid=1a33adb3-5d05-4c33-a124-c4bcfebaee63","ios":"levelo://app?vid=1a33adb3-5d05-4c33-a124-c4bcfebaee63"},"vehicle_type_id":"4","last_reported":1761053186,"current_range_meters":14400,"station_id":"ce4bgg92rcd13ifvqb30","pricing_plan_id":"cebpf4jnsgd1na2vs0mg"},{"bike_id":"4a64f407-0e62-4d26-89c0-d151ca418bb4","system_id":"levelo_inurba_marseille","lat":43.28343,"lon":5.38094,"is_reserved":false,"is_disabled":false,"rental_uris":{"android":"levelo://app?vid=4a64f407-0e62-4d26-89c0-d151ca418bb4","ios":"levelo://app?vid=4a64f407-0e62-4d26-89c0-d151ca418bb4"},"vehicle_type_id":"4","last_reported":1761053186,"current_range_meters":14800,"station_id":"ce4bh412rcd13ifvqdr0","pricing_plan_id":"cebpf4jnsgd1na2vs0mg"},{"bike_id":"f8ede6b7-fbcf-4a6f-8164-6dbaaecf0048","system_id":"levelo_inurba_marseille","lat":43.21194,"lon":5.350681,"is_reserved":false,"is_disabled":false,"rental_uris":{"android":"levelo://app?vid=f8ede6b7-fbcf-4a6f-8164-6dbaaecf0048","ios":"levelo://app?vid=f8ede6b7-fbcf-4a6f-8164-6dbaaecf0048"},"vehicle_type_id":"4","last_reported":1761053186,"current_range_meters":15200,"station_id":"st_cvj6sg6p6f1abm77japg","pricing_plan_id":"cebpf4jnsgd1na2vs0mg"},{"bike_id":"e5791511-4e73-4517-a80a-d311ec8eb99b","system_id":"levelo_inurba_marseille","lat":43.28348,"lon":5.38616,"is_reserved":false,"is_disabled":false,"rental_uris":{"android":"levelo://app?vid=e5791511-4e73-4517-a80a-d311ec8eb99b","ios":"levelo://app?vid=e5791511-4e73-4517-a80a-d311ec8eb99b"},"vehicle_type_id":"4","last_reported":1761053186,"current_range_meters":15200,"station_id":"ce4bh492rcd13ifvqdvg","pricing_plan_id":"cebpf4jnsgd1na2vs0mg"},{"bike_id":"22c660ad-ddf4-4958-a393-4acd861a2ace","system_id":"levelo_inurba_marseille","lat":43.280933,"lon":5.377937,"is_reserved":false,"is_disabled":false,"rental_uris":{"android":"levelo://app?vid=22c660ad-ddf4-4958-a393-4acd861a2ace","ios":"levelo://app?vid=22c660ad-ddf4-4958-a393-4acd861a2ace"},"vehicle_type_id":"4","last_reported":1761053186,"current_range_meters":15200,"station_id":"ce4bha12rcd13ifvqee0","pricing_plan_id":"cebpf4jnsgd1na2vs0mg"},{"bike_id":"acf3006a-1f2e-472b-a3ec-690e0b97587d","system_id":"levelo_inurba_marseille","lat":43.24636,"lon":5.38897,"is_reserved":false,"is_disabled":false,"rental_uris":{"android":"levelo://app?vid=acf3006a-1f2e-472b-a3ec-690e0b97587d","ios":"levelo://app?vid=acf3006a-1f2e-472b-a3ec-690e0b97587d"},"vehicle_type_id":"4","last_reported":1761053186,"current_range_meters":15200,"station_id":"ce4bhg12rcd13ifvqf60","pricing_plan_id":"cebpf4jnsgd1na2vs0mg"},{"bike_id":"3201e625-69d5-420e-838c-f4c3f44666ef","system_id":"levelo_inurba_marseille","lat":43.33796,"lon":5.37434,"is_reserved":false,"is_disabled":false,"rental_uris":{"android":"levelo://app?vid=3201e625-69d5-420e-838c-f4c3f44666ef","ios":"levelo://app?vid=3201e625-69d5-420e-838c-f4c3f44666ef"},"vehicle_type_id":"4","last_reported":1761053186,"current_range_meters":15200,"station_id":"","pricing_plan_id":"cebpf4jnsgd1na2vs0mg"},{"bike_id":"02f7835e-8895-43db-bc46-dc0659a292d5","system_id":"levelo_inurba_marseille","lat":43.29331,"lon":5.3707,"is_reserved":false,"is_disabled":false,"rental_uris":{"android":"levelo://app?vid=02f7835e-8895-43db-bc46-dc0659a292d5","ios":"levelo://app?vid=02f7835e-8895-43db-bc46-dc0659a292d5"},"vehicle_type_id":"4","last_reported":1761053186,"current_range_meters":15200,"station_id":"","pricing_plan_id":"cebpf4jnsgd1na2vs0mg"},{"bike_id":"d38bb17a-4ac6-4da6-829b-fc2ffe260364","system_id":"levelo_inurba_marseille","lat":43.318933,"lon":5.40741,"is_reserved":false,"is_disabled":true,"rental_uris":{"android":"levelo://app?vid=d38bb17a-4ac6-4da6-829b-fc2ffe260364","ios":"levelo://app?vid=d38bb17a-4ac6-4da6-829b-fc2ffe260364"},"vehicle_type_id":"4","last_reported":1761053186,"current_range_meters":16000,"station_id":"ce4bhq12rcd13ifvqhig","pricing_plan_id":"cebpf4jnsgd1na2vs0mg"},{"bike_id":"2e227533-c99f-4c6e-afb9-62ce0c89ec30","system_id":"levelo_inurba_marseille","lat":43.3248,"lon":5.36577,"is_reserved":false,"is_disabled":false,"rental_uris":{"android":"levelo://app?vid=2e227533-c99f-4c6e-afb9-62ce0c89ec30","ios":"levelo://app?vid=2e227533-c99f-4c6e-afb9-62ce0c89ec30"},"vehicle_type_id":"4","last_reported":1761053186,"current_range_meters":16000,"station_id":"ce4bhs12rcd13ifvqhvg","pricing_plan_id":"cebpf4jnsgd1na2vs0mg"},{"bike_id":"d83ba3b5-f05f-4b3f-995a-05ad1a505367","system_id":"levelo_inurba_marseille","lat":43.31714,"lon":5.42399,"is_reserved":false,"is_disabled":false,"rental_uris":{"android":"levelo://app?vid=d83ba3b5-f05f-4b3f-995a-05ad1a505367","ios":"levelo://app?vid=d83ba3b5-f05f-4b3f-995a-05ad1a505367"},"vehicle_type_id":"4","last_reported":1761053186,"current_range_meters":16400,"station_id":"ce4bhp92rcd13ifvqhbg","pricing_plan_id":"cebpf4jnsgd1na2vs0mg"},{"bike_id":"89dd87c4-c8d0-4de7-8902-2b0447e67475","system_id":"levelo_inurba_marseille","lat":43.31232,"lon":5.36877,"is_reserved":false,"is_disabled":false,"rental_uris":{"android":"levelo://app?vid=89dd87c4-c8d0-4de7-8902-2b0447e67475","ios":"levelo://app?vid=89dd87c4-c8d0-4de7-8902-2b0447e67475"},"vehicle_type_id":"4","last_reported":1761053186,"current_range_meters":16400,"station_id":"","pricing_plan_id":"cebpf4jnsgd1na2vs0mg"},{"bike_id":"68977d15-8fdc-4929-b55d-0a37d3deb4e4","system_id":"levelo_inurba_marseille","lat":43.31115,"lon":5.37761,"is_reserved":false,"is_disabled":false,"rental_uris":{"android":"levelo://app?vid=68977d15-8fdc-4929-b55d-0a37d3deb4e4","ios":"levelo://app?vid=68977d15-8fdc-4929-b55d-0a37d3deb4e4"},"vehicle_type_id":"4","last_reported":1761053186,"current_range_meters":16400,"station_id":"ce4bgt92rcd13ifvqcg0","pricing_plan_id":"cebpf4jnsgd1na2vs0mg"},{"bike_id":"514d8b05-fac3-4aa0-9ab9-6ec2d30a2aa2","system_id":"levelo_inurba_marseille","lat":43.28479,"lon":5.38558,"is_reserved":false,"is_disabled":false,"rental_uris":{"android":"levelo://app?vid=514d8b05-fac3-4aa0-9ab9-6ec2d30a2aa2","ios":"levelo://app?vid=514d8b05-fac3-4aa0-9ab9-6ec2d30a2aa2"},"vehicle_type_id":"4","last_reported":1761053186,"current_range_meters":16400,"station_id":"ce4bh8p2rcd13ifvqeb0","pricing_plan_id":"cebpf4jnsgd1na2vs0mg"},{"bike_id":"54d3b2e9-09db-476a-a4be-18c00ec0a96e","system_id":"levelo_inurba_marseille","lat":43.26676,"lon":5.38268,"is_reserved":false,"is_disabled":false,"rental_uris":{"android":"levelo://app?vid=54d3b2e9-09db-476a-a4be-18c00ec0a96e","ios":"levelo://app?vid=54d3b2e9-09db-476a-a4be-18c00ec0a96e"},"vehicle_type_id":"4","last_reported":1761053186,"current_range_meters":16400,"station_id":"ce4bhg92rcd13ifvqf90","pricing_plan_id":"cebpf4jnsgd1na2vs0mg"},{"bike_id":"b2ea9ed2-43da-4ff5-8659-98abd858b94b","system_id":"levelo_inurba_marseille","lat":43.30321,"lon":5.40443,"is_reserved":false,"is_disabled":false,"rental_uris":{"android":"levelo://app?vid=b2ea9ed2-43da-4ff5-8659-98abd858b94b","ios":"levelo://app?vid=b2ea9ed2-43da-4ff5-8659-98abd858b94b"},"vehicle_type_id":"4","last_reported":1761053186,"current_range_meters":16400,"station_id":"ce4bh012rcd13ifvqd10","pricing_plan_id":"cebpf4jnsgd1na2vs0mg"},{"bike_id":"77f5ad24-7524-46db-9764-bb8f0cf09ab2","system_id":"levelo_inurba_marseille","lat":43.278363,"lon":5.392019,"is_reserved":false,"is_disabled":false,"rental_uris":{"android":"levelo://app?vid=77f5ad24-7524-46db-9764-bb8f0cf09ab2","ios":"levelo://app?vid=77f5ad24-7524-46db-9764-bb8f0cf09ab2"},"vehicle_type_id":"4","last_reported":1761053186,"current_range_meters":16400,"station_id":"ce4bhjp2rcd13ifvqga0","pricing_plan_id":"cebpf4jnsgd1na2vs0mg"},{"bike_id":"bfb49ac8-7cd7-4abf-87fe-e5eac64a56b2","system_id":"levelo_inurba_marseille","lat":43.239642,"lon":5.366346,"is_reserved":false,"is_disabled":false,"rental_uris":{"android":"levelo://app?vid=bfb49ac8-7cd7-4abf-87fe-e5eac64a56b2","ios":"levelo://app?vid=bfb49ac8-7cd7-4abf-87fe-e5eac64a56b2"},"vehicle_type_id":"4","last_reported":1761053186,"current_range_meters":16400,"station_id":"ce4bhi12rcd13ifvqfp0","pricing_plan_id":"cebpf4jnsgd1na2vs0mg"},{"bike_id":"8af54f17-6082-4d14-99b8-7d7d3ed40663","system_id":"levelo_inurba_marseille","lat":43.27848,"lon":5.39224,"is_reserved":false,"is_disabled":false,"rental_uris":{"android":"levelo://app?vid=8af54f17-6082-4d14-99b8-7d7d3ed40663","ios":"levelo://app?vid=8af54f17-6082-4d14-99b8-7d7d3ed40663"},"vehicle_type_id":"4","last_reported":1761053186,"current_range_meters":16400,"station_id":"","pricing_plan_id":"cebpf4jnsgd1na2vs0mg"},{"bike_id":"a5ada5b0-6951-43c0-8a27-0355beabaee2","system_id":"levelo_inurba_marseille","lat":43.26786,"lon":5.39411,"is_reserved":false,"is_disabled":false,"rental_uris":{"android":"levelo://app?vid=a5ada5b0-6951-43c0-8a27-0355beabaee2","ios":"levelo://app?vid=a5ada5b0-6951-43c0-8a27-0355beabaee2"},"vehicle_type_id":"4","last_reported":1761053186,"current_range_meters":16400,"station_id":"ce4bhh12rcd13ifvqfg0","pricing_plan_id":"cebpf4jnsgd1na2vs0mg"},{"bike_id":"64d9e813-4fd3-4955-9199-a35ddf1a26f6","system_id":"levelo_inurba_marseille","lat":43.241485,"lon":5.364158,"is_reserved":false,"is_disabled":false,"rental_uris":{"android":"levelo://app?vid=64d9e813-4fd3-4955-9199-a35ddf1a26f6","ios":"levelo://app?vid=64d9e813-4fd3-4955-9199-a35ddf1a26f6"},"vehicle_type_id":"4","last_reported":1761053186,"current_range_meters":16800,"station_id":"cpo36qri1sfpv3e86is0","pricing_plan_id":"cebpf4jnsgd1na2vs0mg"},{"bike_id":"47bc30b9-1c6d-43a9-b5bc-aa1f18d8570f","system_id":"levelo_inurba_marseille","lat":43.253308,"lon":5.421704,"is_reserved":false,"is_disabled":false,"rental_uris":{"android":"levelo://app?vid=47bc30b9-1c6d-43a9-b5bc-aa1f18d8570f","ios":"levelo://app?vid=47bc30b9-1c6d-43a9-b5bc-aa1f18d8570f"},"vehicle_type_id":"4","last_reported":1761053186,"current_range_meters":16800,"station_id":"st_d2m65c5bi1j21697t3ng","pricing_plan_id":"cebpf4jnsgd1na2vs0mg"},{"bike_id":"07f4d7de-6048-464c-a94b-374b0692376e","system_id":"levelo_inurba_marseille","lat":43.29875,"lon":5.43661,"is_reserved":false,"is_disabled":false,"rental_uris":{"android":"levelo://app?vid=07f4d7de-6048-464c-a94b-374b0692376e","ios":"levelo://app?vid=07f4d7de-6048-464c-a94b-374b0692376e"},"vehicle_type_id":"4","last_reported":1761053186,"current_range_meters":16800,"station_id":"ce4bhpp2rcd13ifvqhfg","pricing_plan_id":"cebpf4jnsgd1na2vs0mg"},{"bike_id":"27366d83-b4b4-4f80-ad67-f1d2bd889b8c","system_id":"levelo_inurba_marseille","lat":43.280642,"lon":5.352788,"is_reserved":false,"is_disabled":false,"rental_uris":{"android":"levelo://app?vid=27366d83-b4b4-4f80-ad67-f1d2bd889b8c","ios":"levelo://app?vid=27366d83-b4b4-4f80-ad67-f1d2bd889b8c"},"vehicle_type_id":"4","last_reported":1761053186,"current_range_meters":17200,"station_id":"","pricing_plan_id":"cebpf4jnsgd1na2vs0mg"},{"bike_id":"a630ed88-3f05-4926-bbab-8387ab6b6a28","system_id":"levelo_inurba_marseille","lat":43.2315,"lon":5.43702,"is_reserved":false,"is_disabled":true,"rental_uris":{"android":"levelo://app?vid=a630ed88-3f05-4926-bbab-8387ab6b6a28","ios":"levelo://app?vid=a630ed88-3f05-4926-bbab-8387ab6b6a28"},"vehicle_type_id":"4","last_reported":1761053186,"current_range_meters":17200,"station_id":"ce4bhmp2rcd13ifvqgog","pricing_plan_id":"cebpf4jnsgd1na2vs0mg"},{"bike_id":"4e7e8f57-06ea-4923-b3c1-ea91802d5920","system_id":"levelo_inurba_marseille","lat":43.27984,"lon":5.41642,"is_reserved":false,"is_disabled":false,"rental_uris":{"android":"levelo://app?vid=4e7e8f57-06ea-4923-b3c1-ea91802d5920","ios":"levelo://app?vid=4e7e8f57-06ea-4923-b3c1-ea91802d5920"},"vehicle_type_id":"4","last_reported":1761053186,"current_range_meters":17200,"station_id":"ce4bho12rcd13ifvqh1g","pricing_plan_id":"cebpf4jnsgd1na2vs0mg"},{"bike_id":"4cd5868b-2cbb-496b-aa78-f9f5086f79af","system_id":"levelo_inurba_marseille","lat":43.250028,"lon":5.389439,"is_reserved":false,"is_disabled":false,"rental_uris":{"android":"levelo://app?vid=4cd5868b-2cbb-496b-aa78-f9f5086f79af","ios":"levelo://app?vid=4cd5868b-2cbb-496b-aa78-f9f5086f79af"},"vehicle_type_id":"4","last_reported":1761053186,"current_range_meters":17600,"station_id":"ce4bhgp2rcd13ifvqfd0","pricing_plan_id":"cebpf4jnsgd1na2vs0mg"},{"bike_id":"97e9fe35-d634-4789-8304-9fa72363e833","system_id":"levelo_inurba_marseille","lat":43.28485,"lon":5.38417,"is_reserved":false,"is_disabled":false,"rental_uris":{"android":"levelo://app?vid=97e9fe35-d634-4789-8304-9fa72363e833","ios":"levelo://app?vid=97e9fe35-d634-4789-8304-9fa72363e833"},"vehicle_type_id":"4","last_reported":1761053186,"current_range_meters":17600,"station_id":"ce4bh512rcd13ifvqe3g","pricing_plan_id":"cebpf4jnsgd1na2vs0mg"},{"bike_id":"6692e090-9792-45dd-b639-89e41212fa24","system_id":"levelo_inurba_marseille","lat":43.31331,"lon":5.39702,"is_reserved":false,"is_disabled":true,"rental_uris":{"android":"levelo://app?vid=6692e090-9792-45dd-b639-89e41212fa24","ios":"levelo://app?vid=6692e090-9792-45dd-b639-89e41212fa24"},"vehicle_type_id":"4","last_reported":1761053186,"current_range_meters":17600,"station_id":"ce4bgvp2rcd13ifvqcu0","pricing_plan_id":"cebpf4jnsgd1na2vs0mg"},{"bike_id":"3c3c351d-9e57-428b-8899-707a1bc0ef3f","system_id":"levelo_inurba_marseille","lat":43.26493,"lon":5.39544,"is_reserved":false,"is_disabled":false,"rental_uris":{"android":"levelo://app?vid=3c3c351d-9e57-428b-8899-707a1bc0ef3f","ios":"levelo://app?vid=3c3c351d-9e57-428b-8899-707a1bc0ef3f"},"vehicle_type_id":"4","last_reported":1761053186,"current_range_meters":17600,"station_id":"ce4bhi12rcd13ifvqfq0","pricing_plan_id":"cebpf4jnsgd1na2vs0mg"},{"bike_id":"37d01fc8-4b4d-4652-a489-1254eb9d4c80","system_id":"levelo_inurba_marseille","lat":43.34076,"lon":5.40411,"is_reserved":false,"is_disabled":false,"rental_uris":{"android":"levelo://app?vid=37d01fc8-4b4d-4652-a489-1254eb9d4c80","ios":"levelo://app?vid=37d01fc8-4b4d-4652-a489-1254eb9d4c80"},"vehicle_type_id":"4","last_reported":1761053186,"current_range_meters":17600,"station_id":"","pricing_plan_id":"cebpf4jnsgd1na2vs0mg"},{"bike_id":"a934e059-47eb-4b8a-ab8d-3b338a15930b","system_id":"levelo_inurba_marseille","lat":43.31159,"lon":5.38723,"is_reserved":false,"is_disabled":false,"rental_uris":{"android":"levelo://app?vid=a934e059-47eb-4b8a-ab8d-3b338a15930b","ios":"levelo://app?vid=a934e059-47eb-4b8a-ab8d-3b338a15930b"},"vehicle_type_id":"4","last_reported":1761053186,"current_range_meters":17600,"station_id":"ce4bgv12rcd13ifvqcp0","pricing_plan_id":"cebpf4jnsgd1na2vs0mg"},{"bike_id":"5f5bd4cf-7638-49d9-9751-0944b59d5e30","system_id":"levelo_inurba_marseille","lat":43.231444,"lon":5.437235,"is_reserved":false,"is_disabled":false,"rental_uris":{"android":"levelo://app?vid=5f5bd4cf-7638-49d9-9751-0944b59d5e30","ios":"levelo://app?vid=5f5bd4cf-7638-49d9-9751-0944b59d5e30"},"vehicle_type_id":"4","last_reported":1761053186,"current_range_meters":18000,"station_id":"ce4bhmp2rcd13ifvqgog","pricing_plan_id":"cebpf4jnsgd1na2vs0mg"},{"bike_id":"9bfd0283-2ebc-49db-91d0-80f9899c027d","system_id":"levelo_inurba_marseille","lat":43.23147,"lon":5.43707,"is_reserved":false,"is_disabled":false,"rental_uris":{"android":"levelo://app?vid=9bfd0283-2ebc-49db-91d0-80f9899c027d","ios":"levelo://app?vid=9bfd0283-2ebc-49db-91d0-80f9899c027d"},"vehicle_type_id":"4","last_reported":1761053186,"current_range_meters":18000,"station_id":"ce4bhmp2rcd13ifvqgog","pricing_plan_id":"cebpf4jnsgd1na2vs0mg"},{"bike_id":"08fdf15f-e503-46bb-a1a3-292cfe3a6fa6","system_id":"levelo_inurba_marseille","lat":43.28483,"lon":5.38418,"is_reserved":false,"is_disabled":false,"rental_uris":{"android":"levelo://app?vid=08fdf15f-e503-46bb-a1a3-292cfe3a6fa6","ios":"levelo://app?vid=08fdf15f-e503-46bb-a1a3-292cfe3a6fa6"},"vehicle_type_id":"4","last_reported":1761053186,"current_range_meters":18000,"station_id":"ce4bh512rcd13ifvqe3g","pricing_plan_id":"cebpf4jnsgd1na2vs0mg"},{"bike_id":"9efbd052-f1c2-4a17-8a84-756631a2c218","system_id":"levelo_inurba_marseille","lat":43.27382,"lon":5.3626,"is_reserved":false,"is_disabled":false,"rental_uris":{"android":"levelo://app?vid=9efbd052-f1c2-4a17-8a84-756631a2c218","ios":"levelo://app?vid=9efbd052-f1c2-4a17-8a84-756631a2c218"},"vehicle_type_id":"4","last_reported":1761053186,"current_range_meters":18000,"station_id":"ce4bhbh2rcd13ifvqeo0","pricing_plan_id":"cebpf4jnsgd1na2vs0mg"},{"bike_id":"c0bdefe0-fd92-4ef3-b40e-db72ef022c71","system_id":"levelo_inurba_marseille","lat":43.25934,"lon":5.40905,"is_reserved":false,"is_disabled":false,"rental_uris":{"android":"levelo://app?vid=c0bdefe0-fd92-4ef3-b40e-db72ef022c71","ios":"levelo://app?vid=c0bdefe0-fd92-4ef3-b40e-db72ef022c71"},"vehicle_type_id":"4","last_reported":1761053186,"current_range_meters":18000,"station_id":"ce4bhm92rcd13ifvqglg","pricing_plan_id":"cebpf4jnsgd1na2vs0mg"},{"bike_id":"e5803269-986c-418e-bdec-92660c8d4068","system_id":"levelo_inurba_marseille","lat":43.25094,"lon":5.39515,"is_reserved":false,"is_disabled":false,"rental_uris":{"android":"levelo://app?vid=e5803269-986c-418e-bdec-92660c8d4068","ios":"levelo://app?vid=e5803269-986c-418e-bdec-92660c8d4068"},"vehicle_type_id":"4","last_reported":1761053186,"current_range_meters":18000,"station_id":"ce4bhm12rcd13ifvqgkg","pricing_plan_id":"cebpf4jnsgd1na2vs0mg"},{"bike_id":"8ecfa06a-ea34-454a-afec-fe4fb59d7f21","system_id":"levelo_inurba_marseille","lat":43.30925,"lon":5.40142,"is_reserved":false,"is_disabled":false,"rental_uris":{"android":"levelo://app?vid=8ecfa06a-ea34-454a-afec-fe4fb59d7f21","ios":"levelo://app?vid=8ecfa06a-ea34-454a-afec-fe4fb59d7f21"},"vehicle_type_id":"4","last_reported":1761053186,"current_range_meters":18000,"station_id":"ce4bgvp2rcd13ifvqct0","pricing_plan_id":"cebpf4jnsgd1na2vs0mg"},{"bike_id":"b303f3e6-f1bb-4b0b-934a-0c586b667b65","system_id":"levelo_inurba_marseille","lat":43.24624,"lon":5.4315,"is_reserved":false,"is_disabled":false,"rental_uris":{"android":"levelo://app?vid=b303f3e6-f1bb-4b0b-934a-0c586b667b65","ios":"levelo://app?vid=b303f3e6-f1bb-4b0b-934a-0c586b667b65"},"vehicle_type_id":"4","last_reported":1761053186,"current_range_meters":18000,"station_id":"st_d2m6c4gdas8pm72e190g","pricing_plan_id":"cebpf4jnsgd1na2vs0mg"},{"bike_id":"705456d2-086c-468d-8ff0-725c6adc454c","system_id":"levelo_inurba_marseille","lat":43.312188,"lon":5.368628,"is_reserved":false,"is_disabled":false,"rental_uris":{"android":"levelo://app?vid=705456d2-086c-468d-8ff0-725c6adc454c","ios":"levelo://app?vid=705456d2-086c-468d-8ff0-725c6adc454c"},"vehicle_type_id":"4","last_reported":1761053186,"current_range_meters":18800,"station_id":"ce4bgl92rcd13ifvqbq0","pricing_plan_id":"cebpf4jnsgd1na2vs0mg"},{"bike_id":"464bd8a3-6573-4884-b980-774e68ad4ab1","system_id":"levelo_inurba_marseille","lat":43.27185,"lon":5.40983,"is_reserved":false,"is_disabled":false,"rental_uris":{"android":"levelo://app?vid=464bd8a3-6573-4884-b980-774e68ad4ab1","ios":"levelo://app?vid=464bd8a3-6573-4884-b980-774e68ad4ab1"},"vehicle_type_id":"4","last_reported":1761053186,"current_range_meters":18800,"station_id":"ce4bhl12rcd13ifvqgf0","pricing_plan_id":"cebpf4jnsgd1na2vs0mg"},{"bike_id":"5d80d25c-89eb-4572-ad64-1d3debc59612","system_id":"levelo_inurba_marseille","lat":43.29303,"lon":5.40286,"is_reserved":false,"is_disabled":false,"rental_uris":{"android":"levelo://app?vid=5d80d25c-89eb-4572-ad64-1d3debc59612","ios":"levelo://app?vid=5d80d25c-89eb-4572-ad64-1d3debc59612"},"vehicle_type_id":"4","last_reported":1761053186,"current_range_meters":18800,"station_id":"","pricing_plan_id":"cebpf4jnsgd1na2vs0mg"},{"bike_id":"59bad314-7ebe-49ff-8e2c-889b50f6eed3","system_id":"levelo_inurba_marseille","lat":43.29224,"lon":5.36069,"is_reserved":false,"is_disabled":false,"rental_uris":{"android":"levelo://app?vid=59bad314-7ebe-49ff-8e2c-889b50f6eed3","ios":"levelo://app?vid=59bad314-7ebe-49ff-8e2c-889b50f6eed3"},"vehicle_type_id":"4","last_reported":1761053186,"current_range_meters":18800,"station_id":"ce4bhbh2rcd13ifvqeqg","pricing_plan_id":"cebpf4jnsgd1na2vs0mg"},{"bike_id":"a79e275b-d2ec-4c46-8c1d-0dfc1b288567","system_id":"levelo_inurba_marseille","lat":43.211959,"lon":5.350715,"is_reserved":false,"is_disabled":false,"rental_uris":{"android":"levelo://app?vid=a79e275b-d2ec-4c46-8c1d-0dfc1b288567","ios":"levelo://app?vid=a79e275b-d2ec-4c46-8c1d-0dfc1b288567"},"vehicle_type_id":"4","last_reported":1761053186,"current_range_meters":19200,"station_id":"","pricing_plan_id":"cebpf4jnsgd1na2vs0mg"},{"bike_id":"5a3122a9-cb1d-4f43-9fe9-63d5f4735cf1","system_id":"levelo_inurba_marseille","lat":43.26546,"lon":5.373,"is_reserved":false,"is_disabled":false,"rental_uris":{"android":"levelo://app?vid=5a3122a9-cb1d-4f43-9fe9-63d5f4735cf1","ios":"levelo://app?vid=5a3122a9-cb1d-4f43-9fe9-63d5f4735cf1"},"vehicle_type_id":"4","last_reported":1761053186,"current_range_meters":19200,"station_id":"ce4bhg12rcd13ifvqf70","pricing_plan_id":"cebpf4jnsgd1na2vs0mg"},{"bike_id":"e688d3ec-75ce-4e81-a282-7cb0249261a0","system_id":"levelo_inurba_marseille","lat":43.30124,"lon":5.3743,"is_reserved":false,"is_disabled":false,"rental_uris":{"android":"levelo://app?vid=e688d3ec-75ce-4e81-a282-7cb0249261a0","ios":"levelo://app?vid=e688d3ec-75ce-4e81-a282-7cb0249261a0"},"vehicle_type_id":"4","last_reported":1761053186,"current_range_meters":19200,"station_id":"ce4bgs92rcd13ifvqcc0","pricing_plan_id":"cebpf4jnsgd1na2vs0mg"},{"bike_id":"c213f3a4-7331-4eba-b9d9-d77d00a1552c","system_id":"levelo_inurba_marseille","lat":43.32545,"lon":5.41485,"is_reserved":false,"is_disabled":false,"rental_uris":{"android":"levelo://app?vid=c213f3a4-7331-4eba-b9d9-d77d00a1552c","ios":"levelo://app?vid=c213f3a4-7331-4eba-b9d9-d77d00a1552c"},"vehicle_type_id":"4","last_reported":1761053186,"current_range_meters":19200,"station_id":"ce4bhq12rcd13ifvqhhg","pricing_plan_id":"cebpf4jnsgd1na2vs0mg"},{"bike_id":"836f9bab-3e0d-4104-87dd-05d6dbef63f0","system_id":"levelo_inurba_marseille","lat":43.240822,"lon":5.377519,"is_reserved":false,"is_disabled":false,"rental_uris":{"android":"levelo://app?vid=836f9bab-3e0d-4104-87dd-05d6dbef63f0","ios":"levelo://app?vid=836f9bab-3e0d-4104-87dd-05d6dbef63f0"},"vehicle_type_id":"4","last_reported":1761053186,"current_range_meters":19200,"station_id":"ce4bhnp2rcd13ifvqgvg","pricing_plan_id":"cebpf4jnsgd1na2vs0mg"},{"bike_id":"a89e38a8-8680-46ea-ae3a-521cb2ea64e1","system_id":"levelo_inurba_marseille","lat":43.27054,"lon":5.42285,"is_reserved":false,"is_disabled":false,"rental_uris":{"android":"levelo://app?vid=a89e38a8-8680-46ea-ae3a-521cb2ea64e1","ios":"levelo://app?vid=a89e38a8-8680-46ea-ae3a-521cb2ea64e1"},"vehicle_type_id":"4","last_reported":1761053186,"current_range_meters":19200,"station_id":"ce4bhk92rcd13ifvqgb0","pricing_plan_id":"cebpf4jnsgd1na2vs0mg"},{"bike_id":"14d95d4a-0547-4b3c-82cb-2abf78278e99","system_id":"levelo_inurba_marseille","lat":43.26779,"lon":5.39414,"is_reserved":false,"is_disabled":false,"rental_uris":{"android":"levelo://app?vid=14d95d4a-0547-4b3c-82cb-2abf78278e99","ios":"levelo://app?vid=14d95d4a-0547-4b3c-82cb-2abf78278e99"},"vehicle_type_id":"4","last_reported":1761053186,"current_range_meters":19200,"station_id":"ce4bhh12rcd13ifvqfg0","pricing_plan_id":"cebpf4jnsgd1na2vs0mg"},{"bike_id":"07e992db-48e1-481b-a50e-3b491cfc1455","system_id":"levelo_inurba_marseille","lat":43.31991,"lon":5.41291,"is_reserved":false,"is_disabled":false,"rental_uris":{"android":"levelo://app?vid=07e992db-48e1-481b-a50e-3b491cfc1455","ios":"levelo://app?vid=07e992db-48e1-481b-a50e-3b491cfc1455"},"vehicle_type_id":"4","last_reported":1761053186,"current_range_meters":19200,"station_id":"","pricing_plan_id":"cebpf4jnsgd1na2vs0mg"},{"bike_id":"6b2833d4-1846-45cd-9539-547af19ebf0a","system_id":"levelo_inurba_marseille","lat":43.21195,"lon":5.35077,"is_reserved":false,"is_disabled":false,"rental_uris":{"android":"levelo://app?vid=6b2833d4-1846-45cd-9539-547af19ebf0a","ios":"levelo://app?vid=6b2833d4-1846-45cd-9539-547af19ebf0a"},"vehicle_type_id":"4","last_reported":1761053186,"current_range_meters":19200,"station_id":"st_cvj6sg6p6f1abm77japg","pricing_plan_id":"cebpf4jnsgd1na2vs0mg"},{"bike_id":"2f56865c-e80f-4ae6-8b0e-40890cca3383","system_id":"levelo_inurba_marseille","lat":43.29599,"lon":5.3809,"is_reserved":false,"is_disabled":false,"rental_uris":{"android":"levelo://app?vid=2f56865c-e80f-4ae6-8b0e-40890cca3383","ios":"levelo://app?vid=2f56865c-e80f-4ae6-8b0e-40890cca3383"},"vehicle_type_id":"4","last_reported":1761053186,"current_range_meters":19600,"station_id":"ce4bgl12rcd13ifvqbo0","pricing_plan_id":"cebpf4jnsgd1na2vs0mg"},{"bike_id":"8c7181f4-326b-4d87-9eb7-1b4edab52280","system_id":"levelo_inurba_marseille","lat":43.3021,"lon":5.39478,"is_reserved":false,"is_disabled":false,"rental_uris":{"android":"levelo://app?vid=8c7181f4-326b-4d87-9eb7-1b4edab52280","ios":"levelo://app?vid=8c7181f4-326b-4d87-9eb7-1b4edab52280"},"vehicle_type_id":"4","last_reported":1761053186,"current_range_meters":19600,"station_id":"ce4bh0p2rcd13ifvqd70","pricing_plan_id":"cebpf4jnsgd1na2vs0mg"},{"bike_id":"32a33d2e-9d70-43b5-82bb-d901dc6532f3","system_id":"levelo_inurba_marseille","lat":43.281192,"lon":5.377964,"is_reserved":false,"is_disabled":false,"rental_uris":{"android":"levelo://app?vid=32a33d2e-9d70-43b5-82bb-d901dc6532f3","ios":"levelo://app?vid=32a33d2e-9d70-43b5-82bb-d901dc6532f3"},"vehicle_type_id":"4","last_reported":1761053186,"current_range_meters":19600,"station_id":"ce4bha12rcd13ifvqee0","pricing_plan_id":"cebpf4jnsgd1na2vs0mg"},{"bike_id":"fe7fb2a9-3fda-4a0c-91c9-7fbe69f012a3","system_id":"levelo_inurba_marseille","lat":43.24172,"lon":5.39724,"is_reserved":false,"is_disabled":false,"rental_uris":{"android":"levelo://app?vid=fe7fb2a9-3fda-4a0c-91c9-7fbe69f012a3","ios":"levelo://app?vid=fe7fb2a9-3fda-4a0c-91c9-7fbe69f012a3"},"vehicle_type_id":"4","last_reported":1761053186,"current_range_meters":19600,"station_id":"ce4bhn12rcd13ifvqgpg","pricing_plan_id":"cebpf4jnsgd1na2vs0mg"},{"bike_id":"21cb6ea2-a1dc-4002-af89-bb9a19c4155b","system_id":"levelo_inurba_marseille","lat":43.26778,"lon":5.3942,"is_reserved":false,"is_disabled":false,"rental_uris":{"android":"levelo://app?vid=21cb6ea2-a1dc-4002-af89-bb9a19c4155b","ios":"levelo://app?vid=21cb6ea2-a1dc-4002-af89-bb9a19c4155b"},"vehicle_type_id":"4","last_reported":1761053186,"current_range_meters":19600,"station_id":"ce4bhh12rcd13ifvqfg0","pricing_plan_id":"cebpf4jnsgd1na2vs0mg"},{"bike_id":"6276b2cc-559e-4604-985d-f5ebfc67eb63","system_id":"levelo_inurba_marseille","lat":43.29694,"lon":5.3765,"is_reserved":false,"is_disabled":false,"rental_uris":{"android":"levelo://app?vid=6276b2cc-559e-4604-985d-f5ebfc67eb63","ios":"levelo://app?vid=6276b2cc-559e-4604-985d-f5ebfc67eb63"},"vehicle_type_id":"4","last_reported":1761053186,"current_range_meters":20000,"station_id":"ce4bgkh2rcd13ifvqbl0","pricing_plan_id":"cebpf4jnsgd1na2vs0mg"},{"bike_id":"bbd08cf4-31da-4d68-b46e-697f80190f23","system_id":"levelo_inurba_marseille","lat":43.2718,"lon":5.40994,"is_reserved":false,"is_disabled":false,"rental_uris":{"android":"levelo://app?vid=bbd08cf4-31da-4d68-b46e-697f80190f23","ios":"levelo://app?vid=bbd08cf4-31da-4d68-b46e-697f80190f23"},"vehicle_type_id":"4","last_reported":1761053186,"current_range_meters":20000,"station_id":"ce4bhl12rcd13ifvqgf0","pricing_plan_id":"cebpf4jnsgd1na2vs0mg"},{"bike_id":"2ab2090c-37d7-43d3-8b97-a3d61c2e018c","system_id":"levelo_inurba_marseille","lat":43.32082,"lon":5.36775,"is_reserved":false,"is_disabled":false,"rental_uris":{"android":"levelo://app?vid=2ab2090c-37d7-43d3-8b97-a3d61c2e018c","ios":"levelo://app?vid=2ab2090c-37d7-43d3-8b97-a3d61c2e018c"},"vehicle_type_id":"4","last_reported":1761053186,"current_range_meters":20000,"station_id":"ce4bhrh2rcd13ifvqhug","pricing_plan_id":"cebpf4jnsgd1na2vs0mg"},{"bike_id":"c6b88aee-8093-4560-a663-3fd4e02d7e2b","system_id":"levelo_inurba_marseille","lat":43.25135,"lon":5.4035,"is_reserved":false,"is_disabled":false,"rental_uris":{"android":"levelo://app?vid=c6b88aee-8093-4560-a663-3fd4e02d7e2b","ios":"levelo://app?vid=c6b88aee-8093-4560-a663-3fd4e02d7e2b"},"vehicle_type_id":"4","last_reported":1761053186,"current_range_meters":20000,"station_id":"ce4bhlh2rcd13ifvqgig","pricing_plan_id":"cebpf4jnsgd1na2vs0mg"},{"bike_id":"85706af5-0426-4c20-9921-fcc5b4adbc49","system_id":"levelo_inurba_marseille","lat":43.293725,"lon":5.37856,"is_reserved":false,"is_disabled":false,"rental_uris":{"android":"levelo://app?vid=85706af5-0426-4c20-9921-fcc5b4adbc49","ios":"levelo://app?vid=85706af5-0426-4c20-9921-fcc5b4adbc49"},"vehicle_type_id":"4","last_reported":1761053186,"current_range_meters":20000,"station_id":"ce4bgi12rcd13ifvqb70","pricing_plan_id":"cebpf4jnsgd1na2vs0mg"},{"bike_id":"a2466fd1-71a5-44a7-9780-9d4576e19d89","system_id":"levelo_inurba_marseille","lat":43.21744,"lon":5.34611,"is_reserved":false,"is_disabled":false,"rental_uris":{"android":"levelo://app?vid=a2466fd1-71a5-44a7-9780-9d4576e19d89","ios":"levelo://app?vid=a2466fd1-71a5-44a7-9780-9d4576e19d89"},"vehicle_type_id":"4","last_reported":1761053186,"current_range_meters":20000,"station_id":"st_cvj6r9ubvosntc0bgbag","pricing_plan_id":"cebpf4jnsgd1na2vs0mg"},{"bike_id":"9870a68d-ae62-4bec-82c3-a7443a850bdc","system_id":"levelo_inurba_marseille","lat":43.312758,"lon":5.377955,"is_reserved":false,"is_disabled":false,"rental_uris":{"android":"levelo://app?vid=9870a68d-ae62-4bec-82c3-a7443a850bdc","ios":"levelo://app?vid=9870a68d-ae62-4bec-82c3-a7443a850bdc"},"vehicle_type_id":"4","last_reported":1761053186,"current_range_meters":20400,"station_id":"","pricing_plan_id":"cebpf4jnsgd1na2vs0mg"},{"bike_id":"21836c3e-3bfc-4bbf-ac30-d9cc83ed406f","system_id":"levelo_inurba_marseille","lat":43.25703,"lon":5.41052,"is_reserved":false,"is_disabled":false,"rental_uris":{"android":"levelo://app?vid=21836c3e-3bfc-4bbf-ac30-d9cc83ed406f","ios":"levelo://app?vid=21836c3e-3bfc-4bbf-ac30-d9cc83ed406f"},"vehicle_type_id":"4","last_reported":1761053186,"current_range_meters":20400,"station_id":"ce4bhkp2rcd13ifvqgd0","pricing_plan_id":"cebpf4jnsgd1na2vs0mg"},{"bike_id":"a75b269e-ba8b-47ed-8fef-ca1084f4a6c5","system_id":"levelo_inurba_marseille","lat":43.29529,"lon":5.38542,"is_reserved":false,"is_disabled":false,"rental_uris":{"android":"levelo://app?vid=a75b269e-ba8b-47ed-8fef-ca1084f4a6c5","ios":"levelo://app?vid=a75b269e-ba8b-47ed-8fef-ca1084f4a6c5"},"vehicle_type_id":"4","last_reported":1761053186,"current_range_meters":20400,"station_id":"ce4bgih2rcd13ifvqba0","pricing_plan_id":"cebpf4jnsgd1na2vs0mg"},{"bike_id":"d93b853c-4faa-40d0-869a-62691dcf542a","system_id":"levelo_inurba_marseille","lat":43.26565,"lon":5.39011,"is_reserved":false,"is_disabled":false,"rental_uris":{"android":"levelo://app?vid=d93b853c-4faa-40d0-869a-62691dcf542a","ios":"levelo://app?vid=d93b853c-4faa-40d0-869a-62691dcf542a"},"vehicle_type_id":"4","last_reported":1761053186,"current_range_meters":20400,"station_id":"ce4bhe12rcd13ifvqf30","pricing_plan_id":"cebpf4jnsgd1na2vs0mg"},{"bike_id":"618a9c44-e479-45b6-b144-58d3228e3132","system_id":"levelo_inurba_marseille","lat":43.24651,"lon":5.38877,"is_reserved":false,"is_disabled":false,"rental_uris":{"android":"levelo://app?vid=618a9c44-e479-45b6-b144-58d3228e3132","ios":"levelo://app?vid=618a9c44-e479-45b6-b144-58d3228e3132"},"vehicle_type_id":"4","last_reported":1761053186,"current_range_meters":20400,"station_id":"ce4bhg12rcd13ifvqf60","pricing_plan_id":"cebpf4jnsgd1na2vs0mg"},{"bike_id":"940579ed-c441-47ee-8b38-3efad9bbbaa7","system_id":"levelo_inurba_marseille","lat":43.258719,"lon":5.409302,"is_reserved":false,"is_disabled":false,"rental_uris":{"android":"levelo://app?vid=940579ed-c441-47ee-8b38-3efad9bbbaa7","ios":"levelo://app?vid=940579ed-c441-47ee-8b38-3efad9bbbaa7"},"vehicle_type_id":"4","last_reported":1761053186,"current_range_meters":20400,"station_id":"ce4bhm92rcd13ifvqglg","pricing_plan_id":"cebpf4jnsgd1na2vs0mg"},{"bike_id":"38d57943-0e0d-47ce-a718-f5a3a2e7b701","system_id":"levelo_inurba_marseille","lat":43.27977,"lon":5.38737,"is_reserved":false,"is_disabled":false,"rental_uris":{"android":"levelo://app?vid=38d57943-0e0d-47ce-a718-f5a3a2e7b701","ios":"levelo://app?vid=38d57943-0e0d-47ce-a718-f5a3a2e7b701"},"vehicle_type_id":"4","last_reported":1761053186,"current_range_meters":20400,"station_id":"ce4bhg12rcd13ifvqf80","pricing_plan_id":"cebpf4jnsgd1na2vs0mg"},{"bike_id":"9d8bcd8e-8ecf-425f-98ef-b7c9398172e2","system_id":"levelo_inurba_marseille","lat":43.32348,"lon":5.36757,"is_reserved":false,"is_disabled":false,"rental_uris":{"android":"levelo://app?vid=9d8bcd8e-8ecf-425f-98ef-b7c9398172e2","ios":"levelo://app?vid=9d8bcd8e-8ecf-425f-98ef-b7c9398172e2"},"vehicle_type_id":"4","last_reported":1761053186,"current_range_meters":20400,"station_id":"ce4bhsh2rcd13ifvqi2g","pricing_plan_id":"cebpf4jnsgd1na2vs0mg"},{"bike_id":"6050e5e8-98db-4d1f-81ab-ca08b8b6dd19","system_id":"levelo_inurba_marseille","lat":43.241627,"lon":5.364036,"is_reserved":false,"is_disabled":false,"rental_uris":{"android":"levelo://app?vid=6050e5e8-98db-4d1f-81ab-ca08b8b6dd19","ios":"levelo://app?vid=6050e5e8-98db-4d1f-81ab-ca08b8b6dd19"},"vehicle_type_id":"4","last_reported":1761053186,"current_range_meters":20800,"station_id":"cpo36qri1sfpv3e86is0","pricing_plan_id":"cebpf4jnsgd1na2vs0mg"},{"bike_id":"748ba0cc-3531-49fa-a1e1-26df36ffc05d","system_id":"levelo_inurba_marseille","lat":43.30354,"lon":5.41882,"is_reserved":false,"is_disabled":false,"rental_uris":{"android":"levelo://app?vid=748ba0cc-3531-49fa-a1e1-26df36ffc05d","ios":"levelo://app?vid=748ba0cc-3531-49fa-a1e1-26df36ffc05d"},"vehicle_type_id":"4","last_reported":1761053186,"current_range_meters":20800,"station_id":"ce4bhop2rcd13ifvqh7g","pricing_plan_id":"cebpf4jnsgd1na2vs0mg"},{"bike_id":"615d5408-527f-4b95-b0c2-643f83d40cc9","system_id":"levelo_inurba_marseille","lat":43.31115,"lon":5.37801,"is_reserved":false,"is_disabled":false,"rental_uris":{"android":"levelo://app?vid=615d5408-527f-4b95-b0c2-643f83d40cc9","ios":"levelo://app?vid=615d5408-527f-4b95-b0c2-643f83d40cc9"},"vehicle_type_id":"4","last_reported":1761053186,"current_range_meters":20800,"station_id":"ce4bgt92rcd13ifvqcg0","pricing_plan_id":"cebpf4jnsgd1na2vs0mg"},{"bike_id":"e01c0407-9fea-4afc-844a-8e1d738fcda5","system_id":"levelo_inurba_marseille","lat":43.24163,"lon":5.36401,"is_reserved":false,"is_disabled":false,"rental_uris":{"android":"levelo://app?vid=e01c0407-9fea-4afc-844a-8e1d738fcda5","ios":"levelo://app?vid=e01c0407-9fea-4afc-844a-8e1d738fcda5"},"vehicle_type_id":"4","last_reported":1761053186,"current_range_meters":20800,"station_id":"cpo36qri1sfpv3e86is0","pricing_plan_id":"cebpf4jnsgd1na2vs0mg"},{"bike_id":"975373d7-a1af-4344-b121-b9659a305416","system_id":"levelo_inurba_marseille","lat":43.28614,"lon":5.35107,"is_reserved":false,"is_disabled":false,"rental_uris":{"android":"levelo://app?vid=975373d7-a1af-4344-b121-b9659a305416","ios":"levelo://app?vid=975373d7-a1af-4344-b121-b9659a305416"},"vehicle_type_id":"4","last_reported":1761053186,"current_range_meters":20800,"station_id":"ce4bhch2rcd13ifvqeug","pricing_plan_id":"cebpf4jnsgd1na2vs0mg"},{"bike_id":"5d183738-6d41-4bcf-9dc9-3b4faa0a4dcd","system_id":"levelo_inurba_marseille","lat":43.28936,"lon":5.36639,"is_reserved":false,"is_disabled":false,"rental_uris":{"android":"levelo://app?vid=5d183738-6d41-4bcf-9dc9-3b4faa0a4dcd","ios":"levelo://app?vid=5d183738-6d41-4bcf-9dc9-3b4faa0a4dcd"},"vehicle_type_id":"4","last_reported":1761053186,"current_range_meters":20800,"station_id":"ce4bhap2rcd13ifvqek0","pricing_plan_id":"cebpf4jnsgd1na2vs0mg"},{"bike_id":"d51a3a33-a25a-4523-a017-ee80e4a64b09","system_id":"levelo_inurba_marseille","lat":43.33606,"lon":5.40984,"is_reserved":false,"is_disabled":false,"rental_uris":{"android":"levelo://app?vid=d51a3a33-a25a-4523-a017-ee80e4a64b09","ios":"levelo://app?vid=d51a3a33-a25a-4523-a017-ee80e4a64b09"},"vehicle_type_id":"4","last_reported":1761053186,"current_range_meters":21600,"station_id":"ce4bhqh2rcd13ifvqhmg","pricing_plan_id":"cebpf4jnsgd1na2vs0mg"},{"bike_id":"facf3fce-7ff8-4cab-9915-d28188ead805","system_id":"levelo_inurba_marseille","lat":43.330042,"lon":5.389353,"is_reserved":false,"is_disabled":false,"rental_uris":{"android":"levelo://app?vid=facf3fce-7ff8-4cab-9915-d28188ead805","ios":"levelo://app?vid=facf3fce-7ff8-4cab-9915-d28188ead805"},"vehicle_type_id":"4","last_reported":1761053186,"current_range_meters":21600,"station_id":"ce4bhr92rcd13ifvqhrg","pricing_plan_id":"cebpf4jnsgd1na2vs0mg"},{"bike_id":"56a0cc6f-39bd-41de-944c-6195e3a2e12f","system_id":"levelo_inurba_marseille","lat":43.32348,"lon":5.36744,"is_reserved":false,"is_disabled":false,"rental_uris":{"android":"levelo://app?vid=56a0cc6f-39bd-41de-944c-6195e3a2e12f","ios":"levelo://app?vid=56a0cc6f-39bd-41de-944c-6195e3a2e12f"},"vehicle_type_id":"4","last_reported":1761053186,"current_range_meters":21600,"station_id":"ce4bhsh2rcd13ifvqi2g","pricing_plan_id":"cebpf4jnsgd1na2vs0mg"},{"bike_id":"75eebb0f-2447-4bf8-b846-45b5b359059b","system_id":"levelo_inurba_marseille","lat":43.337574,"lon":5.374957,"is_reserved":false,"is_disabled":false,"rental_uris":{"android":"levelo://app?vid=75eebb0f-2447-4bf8-b846-45b5b359059b","ios":"levelo://app?vid=75eebb0f-2447-4bf8-b846-45b5b359059b"},"vehicle_type_id":"4","last_reported":1761053186,"current_range_meters":21600,"station_id":"","pricing_plan_id":"cebpf4jnsgd1na2vs0mg"},{"bike_id":"91665b46-9e02-4372-a825-1cdd69f0fa75","system_id":"levelo_inurba_marseille","lat":43.29032,"lon":5.39958,"is_reserved":false,"is_disabled":false,"rental_uris":{"android":"levelo://app?vid=91665b46-9e02-4372-a825-1cdd69f0fa75","ios":"levelo://app?vid=91665b46-9e02-4372-a825-1cdd69f0fa75"},"vehicle_type_id":"4","last_reported":1761053186,"current_range_meters":21600,"station_id":"ce4bh392rcd13ifvqdm0","pricing_plan_id":"cebpf4jnsgd1na2vs0mg"},{"bike_id":"39abce3e-186f-4ce7-9817-0fae51bde020","system_id":"levelo_inurba_marseille","lat":43.29527,"lon":5.3854,"is_reserved":false,"is_disabled":false,"rental_uris":{"android":"levelo://app?vid=39abce3e-186f-4ce7-9817-0fae51bde020","ios":"levelo://app?vid=39abce3e-186f-4ce7-9817-0fae51bde020"},"vehicle_type_id":"4","last_reported":1761053186,"current_range_meters":22000,"station_id":"ce4bgih2rcd13ifvqba0","pricing_plan_id":"cebpf4jnsgd1na2vs0mg"},{"bike_id":"fe85efad-0339-439d-abf3-ed2dc2a4defa","system_id":"levelo_inurba_marseille","lat":43.298023,"lon":5.381016,"is_reserved":false,"is_disabled":false,"rental_uris":{"android":"levelo://app?vid=fe85efad-0339-439d-abf3-ed2dc2a4defa","ios":"levelo://app?vid=fe85efad-0339-439d-abf3-ed2dc2a4defa"},"vehicle_type_id":"4","last_reported":1761053186,"current_range_meters":22000,"station_id":"ce4bgip2rcd13ifvqbb0","pricing_plan_id":"cebpf4jnsgd1na2vs0mg"},{"bike_id":"3d7013be-dfe4-430a-97e8-197a834810ee","system_id":"levelo_inurba_marseille","lat":43.24645,"lon":5.389,"is_reserved":false,"is_disabled":false,"rental_uris":{"android":"levelo://app?vid=3d7013be-dfe4-430a-97e8-197a834810ee","ios":"levelo://app?vid=3d7013be-dfe4-430a-97e8-197a834810ee"},"vehicle_type_id":"4","last_reported":1761053186,"current_range_meters":22000,"station_id":"ce4bhg12rcd13ifvqf60","pricing_plan_id":"cebpf4jnsgd1na2vs0mg"},{"bike_id":"c8c0fa58-a519-4343-9887-b0c694f93aef","system_id":"levelo_inurba_marseille","lat":43.288582,"lon":5.425222,"is_reserved":false,"is_disabled":false,"rental_uris":{"android":"levelo://app?vid=c8c0fa58-a519-4343-9887-b0c694f93aef","ios":"levelo://app?vid=c8c0fa58-a519-4343-9887-b0c694f93aef"},"vehicle_type_id":"4","last_reported":1761053186,"current_range_meters":22000,"station_id":"st_d3b462108ojc7389ooeg","pricing_plan_id":"cebpf4jnsgd1na2vs0mg"},{"bike_id":"da5dbb93-4190-4197-bb61-9f443c581e49","system_id":"levelo_inurba_marseille","lat":43.29726,"lon":5.3769,"is_reserved":false,"is_disabled":false,"rental_uris":{"android":"levelo://app?vid=da5dbb93-4190-4197-bb61-9f443c581e49","ios":"levelo://app?vid=da5dbb93-4190-4197-bb61-9f443c581e49"},"vehicle_type_id":"4","last_reported":1761053186,"current_range_meters":22000,"station_id":"ce4bgkh2rcd13ifvqbl0","pricing_plan_id":"cebpf4jnsgd1na2vs0mg"},{"bike_id":"62f0a2f8-d352-4580-a096-e8ce56ffccdb","system_id":"levelo_inurba_marseille","lat":43.321062,"lon":5.367882,"is_reserved":false,"is_disabled":false,"rental_uris":{"android":"levelo://app?vid=62f0a2f8-d352-4580-a096-e8ce56ffccdb","ios":"levelo://app?vid=62f0a2f8-d352-4580-a096-e8ce56ffccdb"},"vehicle_type_id":"4","last_reported":1761053186,"current_range_meters":22000,"station_id":"ce4bhrh2rcd13ifvqhug","pricing_plan_id":"cebpf4jnsgd1na2vs0mg"},{"bike_id":"a35aa410-b01e-4838-975c-9236e68e1c57","system_id":"levelo_inurba_marseille","lat":43.306492,"lon":5.401008,"is_reserved":false,"is_disabled":false,"rental_uris":{"android":"levelo://app?vid=a35aa410-b01e-4838-975c-9236e68e1c57","ios":"levelo://app?vid=a35aa410-b01e-4838-975c-9236e68e1c57"},"vehicle_type_id":"4","last_reported":1761053186,"current_range_meters":22000,"station_id":"ce4bh112rcd13ifvqda0","pricing_plan_id":"cebpf4jnsgd1na2vs0mg"},{"bike_id":"f943f823-d9e2-4f69-9794-8ee1bed89cda","system_id":"levelo_inurba_marseille","lat":43.24162,"lon":5.36393,"is_reserved":false,"is_disabled":false,"rental_uris":{"android":"levelo://app?vid=f943f823-d9e2-4f69-9794-8ee1bed89cda","ios":"levelo://app?vid=f943f823-d9e2-4f69-9794-8ee1bed89cda"},"vehicle_type_id":"4","last_reported":1761053186,"current_range_meters":22000,"station_id":"cpo36qri1sfpv3e86is0","pricing_plan_id":"cebpf4jnsgd1na2vs0mg"},{"bike_id":"b3b13e92-d401-45af-ad84-a41c7bbeb5fe","system_id":"levelo_inurba_marseille","lat":43.30966,"lon":5.37508,"is_reserved":false,"is_disabled":false,"rental_uris":{"android":"levelo://app?vid=b3b13e92-d401-45af-ad84-a41c7bbeb5fe","ios":"levelo://app?vid=b3b13e92-d401-45af-ad84-a41c7bbeb5fe"},"vehicle_type_id":"4","last_reported":1761053186,"current_range_meters":22000,"station_id":"","pricing_plan_id":"cebpf4jnsgd1na2vs0mg"},{"bike_id":"0e134fcd-37be-40e0-aaa8-5a33f2db6cb8","system_id":"levelo_inurba_marseille","lat":43.3361,"lon":5.40986,"is_reserved":false,"is_disabled":false,"rental_uris":{"android":"levelo://app?vid=0e134fcd-37be-40e0-aaa8-5a33f2db6cb8","ios":"levelo://app?vid=0e134fcd-37be-40e0-aaa8-5a33f2db6cb8"},"vehicle_type_id":"4","last_reported":1761053186,"current_range_meters":22000,"station_id":"ce4bhqh2rcd13ifvqhmg","pricing_plan_id":"cebpf4jnsgd1na2vs0mg"},{"bike_id":"4a7e6937-6aba-4720-8b40-75e5ef8aba48","system_id":"levelo_inurba_marseille","lat":43.30527,"lon":5.36558,"is_reserved":false,"is_disabled":false,"rental_uris":{"android":"levelo://app?vid=4a7e6937-6aba-4720-8b40-75e5ef8aba48","ios":"levelo://app?vid=4a7e6937-6aba-4720-8b40-75e5ef8aba48"},"vehicle_type_id":"4","last_reported":1761053186,"current_range_meters":22000,"station_id":"","pricing_plan_id":"cebpf4jnsgd1na2vs0mg"},{"bike_id":"4e47c393-d5b9-4417-8750-b0d116ee2812","system_id":"levelo_inurba_marseille","lat":43.30301,"lon":5.36908,"is_reserved":false,"is_disabled":false,"rental_uris":{"android":"levelo://app?vid=4e47c393-d5b9-4417-8750-b0d116ee2812","ios":"levelo://app?vid=4e47c393-d5b9-4417-8750-b0d116ee2812"},"vehicle_type_id":"4","last_reported":1761053186,"current_range_meters":22000,"station_id":"ce4bgqh2rcd13ifvqc5g","pricing_plan_id":"cebpf4jnsgd1na2vs0mg"},{"bike_id":"7232bb60-2fbd-40fd-9d41-97ab2f0d9f37","system_id":"levelo_inurba_marseille","lat":43.24109,"lon":5.41351,"is_reserved":false,"is_disabled":false,"rental_uris":{"android":"levelo://app?vid=7232bb60-2fbd-40fd-9d41-97ab2f0d9f37","ios":"levelo://app?vid=7232bb60-2fbd-40fd-9d41-97ab2f0d9f37"},"vehicle_type_id":"4","last_reported":1761053186,"current_range_meters":22400,"station_id":"","pricing_plan_id":"cebpf4jnsgd1na2vs0mg"},{"bike_id":"f04e3ab5-ced7-4af8-b997-19eceefb150c","system_id":"levelo_inurba_marseille","lat":43.296143,"lon":5.37154,"is_reserved":false,"is_disabled":false,"rental_uris":{"android":"levelo://app?vid=f04e3ab5-ced7-4af8-b997-19eceefb150c","ios":"levelo://app?vid=f04e3ab5-ced7-4af8-b997-19eceefb150c"},"vehicle_type_id":"4","last_reported":1761053186,"current_range_meters":22400,"station_id":"ce4bgnh2rcd13ifvqc0g","pricing_plan_id":"cebpf4jnsgd1na2vs0mg"},{"bike_id":"69b5869c-af70-4416-93dd-d3186361e937","system_id":"levelo_inurba_marseille","lat":43.29264,"lon":5.36839,"is_reserved":false,"is_disabled":false,"rental_uris":{"android":"levelo://app?vid=69b5869c-af70-4416-93dd-d3186361e937","ios":"levelo://app?vid=69b5869c-af70-4416-93dd-d3186361e937"},"vehicle_type_id":"4","last_reported":1761053186,"current_range_meters":22400,"station_id":"ce4bhbp2rcd13ifvqesg","pricing_plan_id":"cebpf4jnsgd1na2vs0mg"},{"bike_id":"4318bf8f-f959-4ddb-8afe-a9faea104b11","system_id":"levelo_inurba_marseille","lat":43.296089,"lon":5.377147,"is_reserved":false,"is_disabled":false,"rental_uris":{"android":"levelo://app?vid=4318bf8f-f959-4ddb-8afe-a9faea104b11","ios":"levelo://app?vid=4318bf8f-f959-4ddb-8afe-a9faea104b11"},"vehicle_type_id":"4","last_reported":1761053186,"current_range_meters":22400,"station_id":"ce4bgi92rcd13ifvqb90","pricing_plan_id":"cebpf4jnsgd1na2vs0mg"},{"bike_id":"61525fe3-26d4-4c5c-a075-e59599c296c4","system_id":"levelo_inurba_marseille","lat":43.314397,"lon":5.392975,"is_reserved":false,"is_disabled":false,"rental_uris":{"android":"levelo://app?vid=61525fe3-26d4-4c5c-a075-e59599c296c4","ios":"levelo://app?vid=61525fe3-26d4-4c5c-a075-e59599c296c4"},