{"last_updated":1745086348,"ttl":60,"version":"2.2","data":{"bikes":[{"bike_id":"35f0a6e1-f9a9-47ee-bab6-2641cdd8ae57","system_id":"levelo_inurba_marseille","lat":43.27311,"lon":5.39112,"is_reserved":false,"is_disabled":false,"rental_uris":{"android":"levelo://app?vid=35f0a6e1-f9a9-47ee-bab6-2641cdd8ae57","ios":"levelo://app?vid=35f0a6e1-f9a9-47ee-bab6-2641cdd8ae57"},"vehicle_type_id":"4","last_reported":1745086348,"current_range_meters":2800,"station_id":"ce4bhgp2rcd13ifvqfe0","pricing_plan_id":"cebpf4jnsgd1na2vs0mg"},{"bike_id":"aa7f1c1c-9fb8-4b38-b17e-b90f6b6ecd8a","system_id":"levelo_inurba_marseille","lat":43.27814,"lon":5.40715,"is_reserved":false,"is_disabled":false,"rental_uris":{"android":"levelo://app?vid=aa7f1c1c-9fb8-4b38-b17e-b90f6b6ecd8a","ios":"levelo://app?vid=aa7f1c1c-9fb8-4b38-b17e-b90f6b6ecd8a"},"vehicle_type_id":"4","last_reported":1745086348,"current_range_meters":2800,"station_id":"ce4bhnh2rcd13ifvqgtg","pricing_plan_id":"cebpf4jnsgd1na2vs0mg"},{"bike_id":"b487f715-625f-4f57-b177-1127c76bbb3a","system_id":"levelo_inurba_marseille","lat":43.26557,"lon":5.39111,"is_reserved":false,"is_disabled":false,"rental_uris":{"android":"levelo://app?vid=b487f715-625f-4f57-b177-1127c76bbb3a","ios":"levelo://app?vid=b487f715-625f-4f57-b177-1127c76bbb3a"},"vehicle_type_id":"4","last_reported":1745086348,"current_range_meters":2800,"station_id":"ce4bhe12rcd13ifvqf30","pricing_plan_id":"cebpf4jnsgd1na2vs0mg"},{"bike_id":"6c9e263c-82e2-454a-8bca-3b9d9db4fe7d","system_id":"levelo_inurba_marseille","lat":43.31111,"lon":5.37767,"is_reserved":false,"is_disabled":false,"rental_uris":{"android":"levelo://app?vid=6c9e263c-82e2-454a-8bca-3b9d9db4fe7d","ios":"levelo://app?vid=6c9e263c-82e2-454a-8bca-3b9d9db4fe7d"},"vehicle_type_id":"4","last_reported":1745086348,"current_range_meters":2800,"station_id":"ce4bgt92rcd13ifvqcg0","pricing_plan_id":"cebpf4jnsgd1na2vs0mg"},{"bike_id":"27693e70-e0d2-49c5-87c0-7650b9bf5df5","system_id":"levelo_inurba_marseille","lat":43.29258,"lon":5.40907,"is_reserved":false,"is_disabled":false,"rental_uris":{"android":"levelo://app?vid=27693e70-e0d2-49c5-87c0-7650b9bf5df5","ios":"levelo://app?vid=27693e70-e0d2-49c5-87c0-7650b9bf5df5"},"vehicle_type_id":"4","last_reported":1745086348,"current_range_meters":2800,"station_id":"ce4bh192rcd13ifvqdc0","pricing_plan_id":"cebpf4jnsgd1na2vs0mg"},{"bike_id":"4893e6c4-22a9-4a95-a325-6524ce14877a","system_id":"levelo_inurba_marseille","lat":43.29579,"lon":5.367467,"is_reserved":false,"is_disabled":false,"rental_uris":{"android":"levelo://app?vid=4893e6c4-22a9-4a95-a325-6524ce14877a","ios":"levelo://app?vid=4893e6c4-22a9-4a95-a325-6524ce14877a"},"vehicle_type_id":"4","last_reported":1745086348,"current_range_meters":2800,"station_id":"ce4bgph2rcd13ifvqc2g","pricing_plan_id":"cebpf4jnsgd1na2vs0mg"},{"bike_id":"71cc9a5c-bdef-42ca-8ce4-5e77fe2c683a","system_id":"levelo_inurba_marseille","lat":43.29585,"lon":5.42284,"is_reserved":false,"is_disabled":false,"rental_uris":{"android":"levelo://app?vid=71cc9a5c-bdef-42ca-8ce4-5e77fe2c683a","ios":"levelo://app?vid=71cc9a5c-bdef-42ca-8ce4-5e77fe2c683a"},"vehicle_type_id":"4","last_reported":1745086348,"current_range_meters":2800,"station_id":"ce4bhph2rcd13ifvqhdg","pricing_plan_id":"cebpf4jnsgd1na2vs0mg"},{"bike_id":"ca00da78-0749-4f74-8e7a-6d722f18d5ad","system_id":"levelo_inurba_marseille","lat":43.29292,"lon":5.37412,"is_reserved":false,"is_disabled":true,"rental_uris":{"android":"levelo://app?vid=ca00da78-0749-4f74-8e7a-6d722f18d5ad","ios":"levelo://app?vid=ca00da78-0749-4f74-8e7a-6d722f18d5ad"},"vehicle_type_id":"4","last_reported":1745086348,"current_range_meters":3200,"station_id":"ce4bgi12rcd13ifvqb70","pricing_plan_id":"cebpf4jnsgd1na2vs0mg"},{"bike_id":"b0e7cb3c-f1df-4862-818a-3641546df0c4","system_id":"levelo_inurba_marseille","lat":43.279449,"lon":5.410513,"is_reserved":false,"is_disabled":false,"rental_uris":{"android":"levelo://app?vid=b0e7cb3c-f1df-4862-818a-3641546df0c4","ios":"levelo://app?vid=b0e7cb3c-f1df-4862-818a-3641546df0c4"},"vehicle_type_id":"4","last_reported":1745086348,"current_range_meters":3200,"station_id":"ce4bhk92rcd13ifvqgb0","pricing_plan_id":"cebpf4jnsgd1na2vs0mg"},{"bike_id":"c309aca7-69bb-46e2-811b-b08eec9a8d32","system_id":"levelo_inurba_marseille","lat":43.32108,"lon":5.36765,"is_reserved":false,"is_disabled":false,"rental_uris":{"android":"levelo://app?vid=c309aca7-69bb-46e2-811b-b08eec9a8d32","ios":"levelo://app?vid=c309aca7-69bb-46e2-811b-b08eec9a8d32"},"vehicle_type_id":"4","last_reported":1745086348,"current_range_meters":3200,"station_id":"ce4bhrh2rcd13ifvqhug","pricing_plan_id":"cebpf4jnsgd1na2vs0mg"},{"bike_id":"3da9a143-6523-4f53-b9eb-b0d0a629e19a","system_id":"levelo_inurba_marseille","lat":43.279,"lon":5.38023,"is_reserved":false,"is_disabled":false,"rental_uris":{"android":"levelo://app?vid=3da9a143-6523-4f53-b9eb-b0d0a629e19a","ios":"levelo://app?vid=3da9a143-6523-4f53-b9eb-b0d0a629e19a"},"vehicle_type_id":"4","last_reported":1745086348,"current_range_meters":3200,"station_id":"ce4bhf92rcd13ifvqf50","pricing_plan_id":"cebpf4jnsgd1na2vs0mg"},{"bike_id":"f744700a-9635-44ca-8549-59ded4c7ddd9","system_id":"levelo_inurba_marseille","lat":43.293976,"lon":5.396958,"is_reserved":false,"is_disabled":false,"rental_uris":{"android":"levelo://app?vid=f744700a-9635-44ca-8549-59ded4c7ddd9","ios":"levelo://app?vid=f744700a-9635-44ca-8549-59ded4c7ddd9"},"vehicle_type_id":"4","last_reported":1745086348,"current_range_meters":3600,"station_id":"ce4bh3h2rcd13ifvqdo0","pricing_plan_id":"cebpf4jnsgd1na2vs0mg"},{"bike_id":"4456c0ba-6937-4fe4-946b-0f440136a957","system_id":"levelo_inurba_marseille","lat":43.2738,"lon":5.36253,"is_reserved":false,"is_disabled":false,"rental_uris":{"android":"levelo://app?vid=4456c0ba-6937-4fe4-946b-0f440136a957","ios":"levelo://app?vid=4456c0ba-6937-4fe4-946b-0f440136a957"},"vehicle_type_id":"4","last_reported":1745086348,"current_range_meters":3600,"station_id":"ce4bhbh2rcd13ifvqeo0","pricing_plan_id":"cebpf4jnsgd1na2vs0mg"},{"bike_id":"d7f80469-59cd-468a-90bf-1f32f6756b86","system_id":"levelo_inurba_marseille","lat":43.29269,"lon":5.38432,"is_reserved":false,"is_disabled":false,"rental_uris":{"android":"levelo://app?vid=d7f80469-59cd-468a-90bf-1f32f6756b86","ios":"levelo://app?vid=d7f80469-59cd-468a-90bf-1f32f6756b86"},"vehicle_type_id":"4","last_reported":1745086348,"current_range_meters":3600,"station_id":"ce4bh692rcd13ifvqea0","pricing_plan_id":"cebpf4jnsgd1na2vs0mg"},{"bike_id":"9d756262-5189-4be6-acfb-d6a7fc963096","system_id":"levelo_inurba_marseille","lat":43.27385,"lon":5.36257,"is_reserved":false,"is_disabled":false,"rental_uris":{"android":"levelo://app?vid=9d756262-5189-4be6-acfb-d6a7fc963096","ios":"levelo://app?vid=9d756262-5189-4be6-acfb-d6a7fc963096"},"vehicle_type_id":"4","last_reported":1745086348,"current_range_meters":3600,"station_id":"ce4bhbh2rcd13ifvqeo0","pricing_plan_id":"cebpf4jnsgd1na2vs0mg"},{"bike_id":"5405fe14-b91b-408c-b87e-2c7b0c52ec5f","system_id":"levelo_inurba_marseille","lat":43.27669,"lon":5.3891,"is_reserved":false,"is_disabled":false,"rental_uris":{"android":"levelo://app?vid=5405fe14-b91b-408c-b87e-2c7b0c52ec5f","ios":"levelo://app?vid=5405fe14-b91b-408c-b87e-2c7b0c52ec5f"},"vehicle_type_id":"4","last_reported":1745086348,"current_range_meters":3600,"station_id":"ce4bhi12rcd13ifvqfo0","pricing_plan_id":"cebpf4jnsgd1na2vs0mg"},{"bike_id":"9d23dfd0-1ba2-499f-b646-d8d4c16eb1e0","system_id":"levelo_inurba_marseille","lat":43.29611,"lon":5.38092,"is_reserved":false,"is_disabled":false,"rental_uris":{"android":"levelo://app?vid=9d23dfd0-1ba2-499f-b646-d8d4c16eb1e0","ios":"levelo://app?vid=9d23dfd0-1ba2-499f-b646-d8d4c16eb1e0"},"vehicle_type_id":"4","last_reported":1745086348,"current_range_meters":3600,"station_id":"ce4bgl12rcd13ifvqbo0","pricing_plan_id":"cebpf4jnsgd1na2vs0mg"},{"bike_id":"90d0ff02-9404-4266-8419-08948c934051","system_id":"levelo_inurba_marseille","lat":43.27978,"lon":5.40073,"is_reserved":false,"is_disabled":false,"rental_uris":{"android":"levelo://app?vid=90d0ff02-9404-4266-8419-08948c934051","ios":"levelo://app?vid=90d0ff02-9404-4266-8419-08948c934051"},"vehicle_type_id":"4","last_reported":1745086348,"current_range_meters":3600,"station_id":"","pricing_plan_id":"cebpf4jnsgd1na2vs0mg"},{"bike_id":"e70e4ca9-9e48-4e88-a79f-cb9fbf7f3d71","system_id":"levelo_inurba_marseille","lat":43.31756,"lon":5.39027,"is_reserved":false,"is_disabled":false,"rental_uris":{"android":"levelo://app?vid=e70e4ca9-9e48-4e88-a79f-cb9fbf7f3d71","ios":"levelo://app?vid=e70e4ca9-9e48-4e88-a79f-cb9fbf7f3d71"},"vehicle_type_id":"4","last_reported":1745086348,"current_range_meters":3600,"station_id":"ce4bhqp2rcd13ifvqhng","pricing_plan_id":"cebpf4jnsgd1na2vs0mg"},{"bike_id":"613a352f-e21e-411f-bca1-4a1d61d7df7a","system_id":"levelo_inurba_marseille","lat":43.32364,"lon":5.38886,"is_reserved":false,"is_disabled":false,"rental_uris":{"android":"levelo://app?vid=613a352f-e21e-411f-bca1-4a1d61d7df7a","ios":"levelo://app?vid=613a352f-e21e-411f-bca1-4a1d61d7df7a"},"vehicle_type_id":"4","last_reported":1745086348,"current_range_meters":4000,"station_id":"ce4bhqp2rcd13ifvqhog","pricing_plan_id":"cebpf4jnsgd1na2vs0mg"},{"bike_id":"a3d2e46e-af92-4250-8ada-db0593f58390","system_id":"levelo_inurba_marseille","lat":43.28442,"lon":5.39206,"is_reserved":false,"is_disabled":false,"rental_uris":{"android":"levelo://app?vid=a3d2e46e-af92-4250-8ada-db0593f58390","ios":"levelo://app?vid=a3d2e46e-af92-4250-8ada-db0593f58390"},"vehicle_type_id":"4","last_reported":1745086348,"current_range_meters":4000,"station_id":"ce4bhoh2rcd13ifvqh5g","pricing_plan_id":"cebpf4jnsgd1na2vs0mg"},{"bike_id":"8ff3876f-4e58-4cb7-b3a3-e264a04fd0b6","system_id":"levelo_inurba_marseille","lat":43.26712,"lon":5.38248,"is_reserved":false,"is_disabled":true,"rental_uris":{"android":"levelo://app?vid=8ff3876f-4e58-4cb7-b3a3-e264a04fd0b6","ios":"levelo://app?vid=8ff3876f-4e58-4cb7-b3a3-e264a04fd0b6"},"vehicle_type_id":"4","last_reported":1745086348,"current_range_meters":4000,"station_id":"ce4bhg92rcd13ifvqf90","pricing_plan_id":"cebpf4jnsgd1na2vs0mg"},{"bike_id":"6c84c8b4-6b5a-469c-a40b-6a838ada3332","system_id":"levelo_inurba_marseille","lat":43.25116,"lon":5.40323,"is_reserved":false,"is_disabled":false,"rental_uris":{"android":"levelo://app?vid=6c84c8b4-6b5a-469c-a40b-6a838ada3332","ios":"levelo://app?vid=6c84c8b4-6b5a-469c-a40b-6a838ada3332"},"vehicle_type_id":"4","last_reported":1745086348,"current_range_meters":3600,"station_id":"ce4bhlh2rcd13ifvqgig","pricing_plan_id":"cebpf4jnsgd1na2vs0mg"},{"bike_id":"9372300d-8f7f-4a7f-94a4-16c1667ed430","system_id":"levelo_inurba_marseille","lat":43.297734,"lon":5.380743,"is_reserved":false,"is_disabled":false,"rental_uris":{"android":"levelo://app?vid=9372300d-8f7f-4a7f-94a4-16c1667ed430","ios":"levelo://app?vid=9372300d-8f7f-4a7f-94a4-16c1667ed430"},"vehicle_type_id":"4","last_reported":1745086348,"current_range_meters":4000,"station_id":"ce4bgip2rcd13ifvqbb0","pricing_plan_id":"cebpf4jnsgd1na2vs0mg"},{"bike_id":"35453998-ea3b-4639-b89a-5fbfba63ec42","system_id":"levelo_inurba_marseille","lat":43.29916,"lon":5.37469,"is_reserved":false,"is_disabled":false,"rental_uris":{"android":"levelo://app?vid=35453998-ea3b-4639-b89a-5fbfba63ec42","ios":"levelo://app?vid=35453998-ea3b-4639-b89a-5fbfba63ec42"},"vehicle_type_id":"4","last_reported":1745086348,"current_range_meters":4000,"station_id":"ce4bgjh2rcd13ifvqbg0","pricing_plan_id":"cebpf4jnsgd1na2vs0mg"},{"bike_id":"54d62f4c-0eb5-4881-b6dd-9d8dc04d5f71","system_id":"levelo_inurba_marseille","lat":43.26062,"lon":5.39396,"is_reserved":false,"is_disabled":false,"rental_uris":{"android":"levelo://app?vid=54d62f4c-0eb5-4881-b6dd-9d8dc04d5f71","ios":"levelo://app?vid=54d62f4c-0eb5-4881-b6dd-9d8dc04d5f71"},"vehicle_type_id":"4","last_reported":1745086348,"current_range_meters":4000,"station_id":"ce4bhh92rcd13ifvqfj0","pricing_plan_id":"cebpf4jnsgd1na2vs0mg"},{"bike_id":"76c22343-0427-49a9-af15-93ad842af5ef","system_id":"levelo_inurba_marseille","lat":43.28568,"lon":5.39494,"is_reserved":false,"is_disabled":false,"rental_uris":{"android":"levelo://app?vid=76c22343-0427-49a9-af15-93ad842af5ef","ios":"levelo://app?vid=76c22343-0427-49a9-af15-93ad842af5ef"},"vehicle_type_id":"4","last_reported":1745086348,"current_range_meters":4000,"station_id":"ce4bh292rcd13ifvqdg0","pricing_plan_id":"cebpf4jnsgd1na2vs0mg"},{"bike_id":"2e4f3887-db97-47e9-ab6e-eeacefef1da0","system_id":"levelo_inurba_marseille","lat":43.30143,"lon":5.38119,"is_reserved":false,"is_disabled":true,"rental_uris":{"android":"levelo://app?vid=2e4f3887-db97-47e9-ab6e-eeacefef1da0","ios":"levelo://app?vid=2e4f3887-db97-47e9-ab6e-eeacefef1da0"},"vehicle_type_id":"4","last_reported":1745086348,"current_range_meters":4000,"station_id":"ce4bgjp2rcd13ifvqbh0","pricing_plan_id":"cebpf4jnsgd1na2vs0mg"},{"bike_id":"5d70fa57-a154-4795-a783-ebcafce0d872","system_id":"levelo_inurba_marseille","lat":43.30258,"lon":5.40086,"is_reserved":false,"is_disabled":false,"rental_uris":{"android":"levelo://app?vid=5d70fa57-a154-4795-a783-ebcafce0d872","ios":"levelo://app?vid=5d70fa57-a154-4795-a783-ebcafce0d872"},"vehicle_type_id":"4","last_reported":1745086348,"current_range_meters":3600,"station_id":"ce4bgvh2rcd13ifvqcs0","pricing_plan_id":"cebpf4jnsgd1na2vs0mg"},{"bike_id":"6987c513-b50c-45b1-80e3-356055d982d5","system_id":"levelo_inurba_marseille","lat":43.29964,"lon":5.37748,"is_reserved":false,"is_disabled":true,"rental_uris":{"android":"levelo://app?vid=6987c513-b50c-45b1-80e3-356055d982d5","ios":"levelo://app?vid=6987c513-b50c-45b1-80e3-356055d982d5"},"vehicle_type_id":"4","last_reported":1745086348,"current_range_meters":4400,"station_id":"","pricing_plan_id":"cebpf4jnsgd1na2vs0mg"},{"bike_id":"53b65ac4-639f-42ae-bcd2-5d7f9b6c1d28","system_id":"levelo_inurba_marseille","lat":43.27321,"lon":5.39079,"is_reserved":false,"is_disabled":false,"rental_uris":{"android":"levelo://app?vid=53b65ac4-639f-42ae-bcd2-5d7f9b6c1d28","ios":"levelo://app?vid=53b65ac4-639f-42ae-bcd2-5d7f9b6c1d28"},"vehicle_type_id":"4","last_reported":1745086348,"current_range_meters":4400,"station_id":"ce4bhgp2rcd13ifvqfe0","pricing_plan_id":"cebpf4jnsgd1na2vs0mg"},{"bike_id":"f20b0bd4-6663-468b-9add-9c1f60837cc7","system_id":"levelo_inurba_marseille","lat":43.28854,"lon":5.39329,"is_reserved":false,"is_disabled":false,"rental_uris":{"android":"levelo://app?vid=f20b0bd4-6663-468b-9add-9c1f60837cc7","ios":"levelo://app?vid=f20b0bd4-6663-468b-9add-9c1f60837cc7"},"vehicle_type_id":"4","last_reported":1745086348,"current_range_meters":4400,"station_id":"ce4bh2p2rcd13ifvqdi0","pricing_plan_id":"cebpf4jnsgd1na2vs0mg"},{"bike_id":"9c65ac09-2d1b-4e35-8c7e-3e8d5c47e416","system_id":"levelo_inurba_marseille","lat":43.26224,"lon":5.37895,"is_reserved":false,"is_disabled":false,"rental_uris":{"android":"levelo://app?vid=9c65ac09-2d1b-4e35-8c7e-3e8d5c47e416","ios":"levelo://app?vid=9c65ac09-2d1b-4e35-8c7e-3e8d5c47e416"},"vehicle_type_id":"4","last_reported":1745086348,"current_range_meters":4800,"station_id":"ce4bhjp2rcd13ifvqg90","pricing_plan_id":"cebpf4jnsgd1na2vs0mg"},{"bike_id":"cc940a18-1a64-491c-ad6f-f607624c2339","system_id":"levelo_inurba_marseille","lat":43.28405,"lon":5.37526,"is_reserved":false,"is_disabled":false,"rental_uris":{"android":"levelo://app?vid=cc940a18-1a64-491c-ad6f-f607624c2339","ios":"levelo://app?vid=cc940a18-1a64-491c-ad6f-f607624c2339"},"vehicle_type_id":"4","last_reported":1745086348,"current_range_meters":4400,"station_id":"ce4bh412rcd13ifvqds0","pricing_plan_id":"cebpf4jnsgd1na2vs0mg"},{"bike_id":"e9ed3b50-ecc7-4319-8dde-b458fe8b46a9","system_id":"levelo_inurba_marseille","lat":43.28716,"lon":5.37937,"is_reserved":false,"is_disabled":false,"rental_uris":{"android":"levelo://app?vid=e9ed3b50-ecc7-4319-8dde-b458fe8b46a9","ios":"levelo://app?vid=e9ed3b50-ecc7-4319-8dde-b458fe8b46a9"},"vehicle_type_id":"4","last_reported":1745086348,"current_range_meters":4400,"station_id":"ce4bh9p2rcd13ifvqec0","pricing_plan_id":"cebpf4jnsgd1na2vs0mg"},{"bike_id":"3328883e-d668-45b7-822f-9c370a4ab21e","system_id":"levelo_inurba_marseille","lat":43.26946,"lon":5.40256,"is_reserved":false,"is_disabled":false,"rental_uris":{"android":"levelo://app?vid=3328883e-d668-45b7-822f-9c370a4ab21e","ios":"levelo://app?vid=3328883e-d668-45b7-822f-9c370a4ab21e"},"vehicle_type_id":"4","last_reported":1745086348,"current_range_meters":4400,"station_id":"cjm6bp8fraef2m0cb0m0","pricing_plan_id":"cebpf4jnsgd1na2vs0mg"},{"bike_id":"3f37c0cd-bd0d-4556-b99d-d4ae4a9b3bb3","system_id":"levelo_inurba_marseille","lat":43.29524,"lon":5.39402,"is_reserved":false,"is_disabled":false,"rental_uris":{"android":"levelo://app?vid=3f37c0cd-bd0d-4556-b99d-d4ae4a9b3bb3","ios":"levelo://app?vid=3f37c0cd-bd0d-4556-b99d-d4ae4a9b3bb3"},"vehicle_type_id":"4","last_reported":1745086348,"current_range_meters":4800,"station_id":"ce4bh292rcd13ifvqdf0","pricing_plan_id":"cebpf4jnsgd1na2vs0mg"},{"bike_id":"fc69a2e0-2958-429d-83cc-bece6a75bc2d","system_id":"levelo_inurba_marseille","lat":43.26785,"lon":5.39418,"is_reserved":false,"is_disabled":false,"rental_uris":{"android":"levelo://app?vid=fc69a2e0-2958-429d-83cc-bece6a75bc2d","ios":"levelo://app?vid=fc69a2e0-2958-429d-83cc-bece6a75bc2d"},"vehicle_type_id":"4","last_reported":1745086348,"current_range_meters":4800,"station_id":"ce4bhh12rcd13ifvqfg0","pricing_plan_id":"cebpf4jnsgd1na2vs0mg"},{"bike_id":"5dd5baf8-ad1a-4a14-ab43-79f0d01bf4d5","system_id":"levelo_inurba_marseille","lat":43.276554,"lon":5.388661,"is_reserved":false,"is_disabled":false,"rental_uris":{"android":"levelo://app?vid=5dd5baf8-ad1a-4a14-ab43-79f0d01bf4d5","ios":"levelo://app?vid=5dd5baf8-ad1a-4a14-ab43-79f0d01bf4d5"},"vehicle_type_id":"4","last_reported":1745086348,"current_range_meters":4800,"station_id":"ce4bhi12rcd13ifvqfo0","pricing_plan_id":"cebpf4jnsgd1na2vs0mg"},{"bike_id":"a7791da2-3ec7-4424-86d8-edac74aa99f8","system_id":"levelo_inurba_marseille","lat":43.29897,"lon":5.43672,"is_reserved":false,"is_disabled":false,"rental_uris":{"android":"levelo://app?vid=a7791da2-3ec7-4424-86d8-edac74aa99f8","ios":"levelo://app?vid=a7791da2-3ec7-4424-86d8-edac74aa99f8"},"vehicle_type_id":"4","last_reported":1745086348,"current_range_meters":4800,"station_id":"ce4bhpp2rcd13ifvqhfg","pricing_plan_id":"cebpf4jnsgd1na2vs0mg"},{"bike_id":"a968bc14-c848-422a-b8e8-61f50cb7032f","system_id":"levelo_inurba_marseille","lat":43.30804,"lon":5.4349,"is_reserved":false,"is_disabled":false,"rental_uris":{"android":"levelo://app?vid=a968bc14-c848-422a-b8e8-61f50cb7032f","ios":"levelo://app?vid=a968bc14-c848-422a-b8e8-61f50cb7032f"},"vehicle_type_id":"4","last_reported":1745086348,"current_range_meters":4800,"station_id":"ce4bhph2rcd13ifvqheg","pricing_plan_id":"cebpf4jnsgd1na2vs0mg"},{"bike_id":"d45586c1-ecd3-46ae-b90f-7169f4ccd4e3","system_id":"levelo_inurba_marseille","lat":43.27991,"lon":5.40027,"is_reserved":false,"is_disabled":false,"rental_uris":{"android":"levelo://app?vid=d45586c1-ecd3-46ae-b90f-7169f4ccd4e3","ios":"levelo://app?vid=d45586c1-ecd3-46ae-b90f-7169f4ccd4e3"},"vehicle_type_id":"4","last_reported":1745086348,"current_range_meters":4800,"station_id":"ce4bho92rcd13ifvqh4g","pricing_plan_id":"cebpf4jnsgd1na2vs0mg"},{"bike_id":"a4ee9808-c56f-429a-bd9e-2837e81985cb","system_id":"levelo_inurba_marseille","lat":43.27993,"lon":5.41657,"is_reserved":false,"is_disabled":true,"rental_uris":{"android":"levelo://app?vid=a4ee9808-c56f-429a-bd9e-2837e81985cb","ios":"levelo://app?vid=a4ee9808-c56f-429a-bd9e-2837e81985cb"},"vehicle_type_id":"4","last_reported":1745086348,"current_range_meters":5600,"station_id":"ce4bho12rcd13ifvqh1g","pricing_plan_id":"cebpf4jnsgd1na2vs0mg"},{"bike_id":"9fe85b7c-ca63-4adc-82e6-3627a297bf8e","system_id":"levelo_inurba_marseille","lat":43.28,"lon":5.40006,"is_reserved":false,"is_disabled":false,"rental_uris":{"android":"levelo://app?vid=9fe85b7c-ca63-4adc-82e6-3627a297bf8e","ios":"levelo://app?vid=9fe85b7c-ca63-4adc-82e6-3627a297bf8e"},"vehicle_type_id":"4","last_reported":1745086348,"current_range_meters":5600,"station_id":"ce4bho92rcd13ifvqh4g","pricing_plan_id":"cebpf4jnsgd1na2vs0mg"},{"bike_id":"d455b6c3-f55f-43ef-8ffe-267a5269ea71","system_id":"levelo_inurba_marseille","lat":43.26946,"lon":5.40253,"is_reserved":false,"is_disabled":false,"rental_uris":{"android":"levelo://app?vid=d455b6c3-f55f-43ef-8ffe-267a5269ea71","ios":"levelo://app?vid=d455b6c3-f55f-43ef-8ffe-267a5269ea71"},"vehicle_type_id":"4","last_reported":1745086348,"current_range_meters":5600,"station_id":"cjm6bp8fraef2m0cb0m0","pricing_plan_id":"cebpf4jnsgd1na2vs0mg"},{"bike_id":"5e87f29e-2e11-4a6b-b50c-6f24e9278fc8","system_id":"levelo_inurba_marseille","lat":43.3079,"lon":5.3764,"is_reserved":false,"is_disabled":false,"rental_uris":{"android":"levelo://app?vid=5e87f29e-2e11-4a6b-b50c-6f24e9278fc8","ios":"levelo://app?vid=5e87f29e-2e11-4a6b-b50c-6f24e9278fc8"},"vehicle_type_id":"4","last_reported":1745086348,"current_range_meters":4800,"station_id":"ce4bgv92rcd13ifvqcq0","pricing_plan_id":"cebpf4jnsgd1na2vs0mg"},{"bike_id":"b05cbe98-d2b2-4bcd-958f-847aacd1abc9","system_id":"levelo_inurba_marseille","lat":43.29796,"lon":5.40406,"is_reserved":false,"is_disabled":false,"rental_uris":{"android":"levelo://app?vid=b05cbe98-d2b2-4bcd-958f-847aacd1abc9","ios":"levelo://app?vid=b05cbe98-d2b2-4bcd-958f-847aacd1abc9"},"vehicle_type_id":"4","last_reported":1745086348,"current_range_meters":5600,"station_id":"ce4bh112rcd13ifvqd90","pricing_plan_id":"cebpf4jnsgd1na2vs0mg"},{"bike_id":"5f1c1fe8-82cc-4dcf-a09d-aba89fb26283","system_id":"levelo_inurba_marseille","lat":43.27316,"lon":5.39113,"is_reserved":false,"is_disabled":false,"rental_uris":{"android":"levelo://app?vid=5f1c1fe8-82cc-4dcf-a09d-aba89fb26283","ios":"levelo://app?vid=5f1c1fe8-82cc-4dcf-a09d-aba89fb26283"},"vehicle_type_id":"4","last_reported":1745086348,"current_range_meters":5600,"station_id":"ce4bhgp2rcd13ifvqfe0","pricing_plan_id":"cebpf4jnsgd1na2vs0mg"},{"bike_id":"bbcbf55a-5484-40db-a874-f81e0300c4d9","system_id":"levelo_inurba_marseille","lat":43.25943,"lon":5.40907,"is_reserved":false,"is_disabled":false,"rental_uris":{"android":"levelo://app?vid=bbcbf55a-5484-40db-a874-f81e0300c4d9","ios":"levelo://app?vid=bbcbf55a-5484-40db-a874-f81e0300c4d9"},"vehicle_type_id":"4","last_reported":1745086348,"current_range_meters":6000,"station_id":"ce4bhm92rcd13ifvqglg","pricing_plan_id":"cebpf4jnsgd1na2vs0mg"},{"bike_id":"5062498e-fe9c-4287-952f-054b70a64b33","system_id":"levelo_inurba_marseille","lat":43.26787,"lon":5.3943,"is_reserved":false,"is_disabled":false,"rental_uris":{"android":"levelo://app?vid=5062498e-fe9c-4287-952f-054b70a64b33","ios":"levelo://app?vid=5062498e-fe9c-4287-952f-054b70a64b33"},"vehicle_type_id":"4","last_reported":1745086348,"current_range_meters":6000,"station_id":"ce4bhh12rcd13ifvqfg0","pricing_plan_id":"cebpf4jnsgd1na2vs0mg"},{"bike_id":"1210dc72-37b8-49f7-b249-6faa54daba28","system_id":"levelo_inurba_marseille","lat":43.32363,"lon":5.36766,"is_reserved":false,"is_disabled":false,"rental_uris":{"android":"levelo://app?vid=1210dc72-37b8-49f7-b249-6faa54daba28","ios":"levelo://app?vid=1210dc72-37b8-49f7-b249-6faa54daba28"},"vehicle_type_id":"4","last_reported":1745086348,"current_range_meters":6000,"station_id":"ce4bhsh2rcd13ifvqi2g","pricing_plan_id":"cebpf4jnsgd1na2vs0mg"},{"bike_id":"8a6702f5-2603-4da1-b2e2-5f0cb260c889","system_id":"levelo_inurba_marseille","lat":43.2738,"lon":5.36251,"is_reserved":false,"is_disabled":false,"rental_uris":{"android":"levelo://app?vid=8a6702f5-2603-4da1-b2e2-5f0cb260c889","ios":"levelo://app?vid=8a6702f5-2603-4da1-b2e2-5f0cb260c889"},"vehicle_type_id":"4","last_reported":1745086348,"current_range_meters":6000,"station_id":"ce4bhbh2rcd13ifvqeo0","pricing_plan_id":"cebpf4jnsgd1na2vs0mg"},{"bike_id":"d118f982-184d-48fd-834c-932c8f8b218d","system_id":"levelo_inurba_marseille","lat":43.26569,"lon":5.39011,"is_reserved":false,"is_disabled":false,"rental_uris":{"android":"levelo://app?vid=d118f982-184d-48fd-834c-932c8f8b218d","ios":"levelo://app?vid=d118f982-184d-48fd-834c-932c8f8b218d"},"vehicle_type_id":"4","last_reported":1745086348,"current_range_meters":6000,"station_id":"ce4bhe12rcd13ifvqf30","pricing_plan_id":"cebpf4jnsgd1na2vs0mg"},{"bike_id":"d19f3870-d2d7-4aa9-808a-3203bc7b26fc","system_id":"levelo_inurba_marseille","lat":43.26935,"lon":5.4026,"is_reserved":false,"is_disabled":false,"rental_uris":{"android":"levelo://app?vid=d19f3870-d2d7-4aa9-808a-3203bc7b26fc","ios":"levelo://app?vid=d19f3870-d2d7-4aa9-808a-3203bc7b26fc"},"vehicle_type_id":"4","last_reported":1745086348,"current_range_meters":6000,"station_id":"cjm6bp8fraef2m0cb0m0","pricing_plan_id":"cebpf4jnsgd1na2vs0mg"},{"bike_id":"ee2c42d9-062e-486d-94e5-a8bebc2f1c3b","system_id":"levelo_inurba_marseille","lat":43.252011,"lon":5.375814,"is_reserved":false,"is_disabled":true,"rental_uris":{"android":"levelo://app?vid=ee2c42d9-062e-486d-94e5-a8bebc2f1c3b","ios":"levelo://app?vid=ee2c42d9-062e-486d-94e5-a8bebc2f1c3b"},"vehicle_type_id":"4","last_reported":1745086348,"current_range_meters":6000,"station_id":"","pricing_plan_id":"cebpf4jnsgd1na2vs0mg"},{"bike_id":"709c5515-4e73-41f4-a094-b1cb2d9405da","system_id":"levelo_inurba_marseille","lat":43.241705,"lon":5.36392,"is_reserved":false,"is_disabled":false,"rental_uris":{"android":"levelo://app?vid=709c5515-4e73-41f4-a094-b1cb2d9405da","ios":"levelo://app?vid=709c5515-4e73-41f4-a094-b1cb2d9405da"},"vehicle_type_id":"4","last_reported":1745086348,"current_range_meters":6000,"station_id":"cpo36qri1sfpv3e86is0","pricing_plan_id":"cebpf4jnsgd1na2vs0mg"},{"bike_id":"51627a96-1252-490c-a837-f7dd334ce8e1","system_id":"levelo_inurba_marseille","lat":43.30798,"lon":5.38177,"is_reserved":false,"is_disabled":false,"rental_uris":{"android":"levelo://app?vid=51627a96-1252-490c-a837-f7dd334ce8e1","ios":"levelo://app?vid=51627a96-1252-490c-a837-f7dd334ce8e1"},"vehicle_type_id":"4","last_reported":1745086348,"current_range_meters":6000,"station_id":"ce4bgt12rcd13ifvqce0","pricing_plan_id":"cebpf4jnsgd1na2vs0mg"},{"bike_id":"38d71541-39fa-44bc-b9fa-dad7cbdc7434","system_id":"levelo_inurba_marseille","lat":43.28754,"lon":5.38645,"is_reserved":false,"is_disabled":false,"rental_uris":{"android":"levelo://app?vid=38d71541-39fa-44bc-b9fa-dad7cbdc7434","ios":"levelo://app?vid=38d71541-39fa-44bc-b9fa-dad7cbdc7434"},"vehicle_type_id":"4","last_reported":1745086348,"current_range_meters":6000,"station_id":"","pricing_plan_id":"cebpf4jnsgd1na2vs0mg"},{"bike_id":"5e050082-7596-40a7-93dc-676d550708f3","system_id":"levelo_inurba_marseille","lat":43.28414,"lon":5.37529,"is_reserved":false,"is_disabled":false,"rental_uris":{"android":"levelo://app?vid=5e050082-7596-40a7-93dc-676d550708f3","ios":"levelo://app?vid=5e050082-7596-40a7-93dc-676d550708f3"},"vehicle_type_id":"4","last_reported":1745086348,"current_range_meters":6000,"station_id":"ce4bh412rcd13ifvqds0","pricing_plan_id":"cebpf4jnsgd1na2vs0mg"},{"bike_id":"4e578901-dce2-455a-825a-c46ca20b25f7","system_id":"levelo_inurba_marseille","lat":43.29376,"lon":5.37837,"is_reserved":false,"is_disabled":false,"rental_uris":{"android":"levelo://app?vid=4e578901-dce2-455a-825a-c46ca20b25f7","ios":"levelo://app?vid=4e578901-dce2-455a-825a-c46ca20b25f7"},"vehicle_type_id":"4","last_reported":1745086348,"current_range_meters":6000,"station_id":"ce4bgjh2rcd13ifvqbf0","pricing_plan_id":"cebpf4jnsgd1na2vs0mg"},{"bike_id":"5f0df569-dc5a-4fba-b5d4-0ffa0dad9376","system_id":"levelo_inurba_marseille","lat":43.295233,"lon":5.390414,"is_reserved":false,"is_disabled":false,"rental_uris":{"android":"levelo://app?vid=5f0df569-dc5a-4fba-b5d4-0ffa0dad9376","ios":"levelo://app?vid=5f0df569-dc5a-4fba-b5d4-0ffa0dad9376"},"vehicle_type_id":"4","last_reported":1745086348,"current_range_meters":6400,"station_id":"ce4bhc92rcd13ifvqetg","pricing_plan_id":"cebpf4jnsgd1na2vs0mg"},{"bike_id":"b3e55980-3a70-4bb7-afcb-dbae17838a2b","system_id":"levelo_inurba_marseille","lat":43.30795,"lon":5.37655,"is_reserved":false,"is_disabled":false,"rental_uris":{"android":"levelo://app?vid=b3e55980-3a70-4bb7-afcb-dbae17838a2b","ios":"levelo://app?vid=b3e55980-3a70-4bb7-afcb-dbae17838a2b"},"vehicle_type_id":"4","last_reported":1745086348,"current_range_meters":6400,"station_id":"ce4bgv92rcd13ifvqcq0","pricing_plan_id":"cebpf4jnsgd1na2vs0mg"},{"bike_id":"9aa2b643-a856-46ed-98f1-c04de5734df3","system_id":"levelo_inurba_marseille","lat":43.28958,"lon":5.378395,"is_reserved":false,"is_disabled":false,"rental_uris":{"android":"levelo://app?vid=9aa2b643-a856-46ed-98f1-c04de5734df3","ios":"levelo://app?vid=9aa2b643-a856-46ed-98f1-c04de5734df3"},"vehicle_type_id":"4","last_reported":1745086348,"current_range_meters":6400,"station_id":"ce4bh9p2rcd13ifvqed0","pricing_plan_id":"cebpf4jnsgd1na2vs0mg"},{"bike_id":"3929f013-1857-4686-bd2c-ed50c07da060","system_id":"levelo_inurba_marseille","lat":43.29259,"lon":5.409,"is_reserved":false,"is_disabled":false,"rental_uris":{"android":"levelo://app?vid=3929f013-1857-4686-bd2c-ed50c07da060","ios":"levelo://app?vid=3929f013-1857-4686-bd2c-ed50c07da060"},"vehicle_type_id":"4","last_reported":1745086348,"current_range_meters":6400,"station_id":"ce4bh192rcd13ifvqdc0","pricing_plan_id":"cebpf4jnsgd1na2vs0mg"},{"bike_id":"9f7b4d9f-d60d-4e90-adef-da55fb205698","system_id":"levelo_inurba_marseille","lat":43.27991,"lon":5.40038,"is_reserved":false,"is_disabled":false,"rental_uris":{"android":"levelo://app?vid=9f7b4d9f-d60d-4e90-adef-da55fb205698","ios":"levelo://app?vid=9f7b4d9f-d60d-4e90-adef-da55fb205698"},"vehicle_type_id":"4","last_reported":1745086348,"current_range_meters":6400,"station_id":"ce4bho92rcd13ifvqh4g","pricing_plan_id":"cebpf4jnsgd1na2vs0mg"},{"bike_id":"290580ef-d059-4a18-a7c8-f3836c5efe67","system_id":"levelo_inurba_marseille","lat":43.28001,"lon":5.39997,"is_reserved":false,"is_disabled":false,"rental_uris":{"android":"levelo://app?vid=290580ef-d059-4a18-a7c8-f3836c5efe67","ios":"levelo://app?vid=290580ef-d059-4a18-a7c8-f3836c5efe67"},"vehicle_type_id":"4","last_reported":1745086348,"current_range_meters":6400,"station_id":"ce4bho92rcd13ifvqh4g","pricing_plan_id":"cebpf4jnsgd1na2vs0mg"},{"bike_id":"33544a48-0ca4-46e4-ab48-0c98eb662b45","system_id":"levelo_inurba_marseille","lat":43.26202,"lon":5.37436,"is_reserved":false,"is_disabled":false,"rental_uris":{"android":"levelo://app?vid=33544a48-0ca4-46e4-ab48-0c98eb662b45","ios":"levelo://app?vid=33544a48-0ca4-46e4-ab48-0c98eb662b45"},"vehicle_type_id":"4","last_reported":1745086348,"current_range_meters":6400,"station_id":"ce4bhgp2rcd13ifvqfc0","pricing_plan_id":"cebpf4jnsgd1na2vs0mg"},{"bike_id":"6a245d38-a700-46d8-8797-10eb8a94be27","system_id":"levelo_inurba_marseille","lat":43.29169,"lon":5.37159,"is_reserved":false,"is_disabled":false,"rental_uris":{"android":"levelo://app?vid=6a245d38-a700-46d8-8797-10eb8a94be27","ios":"levelo://app?vid=6a245d38-a700-46d8-8797-10eb8a94be27"},"vehicle_type_id":"4","last_reported":1745086348,"current_range_meters":6400,"station_id":"ce4bha92rcd13ifvqeh0","pricing_plan_id":"cebpf4jnsgd1na2vs0mg"},{"bike_id":"db6dcc5a-3417-4561-ac6e-e6177dccabc5","system_id":"levelo_inurba_marseille","lat":43.30142,"lon":5.38779,"is_reserved":false,"is_disabled":false,"rental_uris":{"android":"levelo://app?vid=db6dcc5a-3417-4561-ac6e-e6177dccabc5","ios":"levelo://app?vid=db6dcc5a-3417-4561-ac6e-e6177dccabc5"},"vehicle_type_id":"4","last_reported":1745086348,"current_range_meters":6400,"station_id":"ce4bghh2rcd13ifvqb60","pricing_plan_id":"cebpf4jnsgd1na2vs0mg"},{"bike_id":"97f18444-000b-4a53-8704-9b4e5af9c747","system_id":"levelo_inurba_marseille","lat":43.27308,"lon":5.39089,"is_reserved":false,"is_disabled":false,"rental_uris":{"android":"levelo://app?vid=97f18444-000b-4a53-8704-9b4e5af9c747","ios":"levelo://app?vid=97f18444-000b-4a53-8704-9b4e5af9c747"},"vehicle_type_id":"4","last_reported":1745086348,"current_range_meters":6400,"station_id":"ce4bhgp2rcd13ifvqfe0","pricing_plan_id":"cebpf4jnsgd1na2vs0mg"},{"bike_id":"aaafad92-d28a-4d17-a0fb-3ff3c58bebc6","system_id":"levelo_inurba_marseille","lat":43.28146,"lon":5.42648,"is_reserved":false,"is_disabled":false,"rental_uris":{"android":"levelo://app?vid=aaafad92-d28a-4d17-a0fb-3ff3c58bebc6","ios":"levelo://app?vid=aaafad92-d28a-4d17-a0fb-3ff3c58bebc6"},"vehicle_type_id":"4","last_reported":1745086348,"current_range_meters":6800,"station_id":"ce4bhnh2rcd13ifvqgug","pricing_plan_id":"cebpf4jnsgd1na2vs0mg"},{"bike_id":"5296b48a-8d84-4e67-a077-63fc9ebae354","system_id":"levelo_inurba_marseille","lat":43.27996,"lon":5.40011,"is_reserved":false,"is_disabled":false,"rental_uris":{"android":"levelo://app?vid=5296b48a-8d84-4e67-a077-63fc9ebae354","ios":"levelo://app?vid=5296b48a-8d84-4e67-a077-63fc9ebae354"},"vehicle_type_id":"4","last_reported":1745086348,"current_range_meters":6800,"station_id":"ce4bho92rcd13ifvqh4g","pricing_plan_id":"cebpf4jnsgd1na2vs0mg"},{"bike_id":"df982341-d3f1-47bb-bcdf-1054fc116c62","system_id":"levelo_inurba_marseille","lat":43.29767,"lon":5.38132,"is_reserved":false,"is_disabled":true,"rental_uris":{"android":"levelo://app?vid=df982341-d3f1-47bb-bcdf-1054fc116c62","ios":"levelo://app?vid=df982341-d3f1-47bb-bcdf-1054fc116c62"},"vehicle_type_id":"4","last_reported":1745086348,"current_range_meters":6800,"station_id":"ce4bgip2rcd13ifvqbb0","pricing_plan_id":"cebpf4jnsgd1na2vs0mg"},{"bike_id":"8ff9f10e-8733-4a3a-8b8c-71b67317cfa0","system_id":"levelo_inurba_marseille","lat":43.2416,"lon":5.36404,"is_reserved":false,"is_disabled":false,"rental_uris":{"android":"levelo://app?vid=8ff9f10e-8733-4a3a-8b8c-71b67317cfa0","ios":"levelo://app?vid=8ff9f10e-8733-4a3a-8b8c-71b67317cfa0"},"vehicle_type_id":"4","last_reported":1745086348,"current_range_meters":6800,"station_id":"cpo36qri1sfpv3e86is0","pricing_plan_id":"cebpf4jnsgd1na2vs0mg"},{"bike_id":"276d94a9-b91a-47b5-b4e8-19ed1fdcca68","system_id":"levelo_inurba_marseille","lat":43.29567,"lon":5.42294,"is_reserved":false,"is_disabled":true,"rental_uris":{"android":"levelo://app?vid=276d94a9-b91a-47b5-b4e8-19ed1fdcca68","ios":"levelo://app?vid=276d94a9-b91a-47b5-b4e8-19ed1fdcca68"},"vehicle_type_id":"4","last_reported":1745086348,"current_range_meters":6800,"station_id":"ce4bhph2rcd13ifvqhdg","pricing_plan_id":"cebpf4jnsgd1na2vs0mg"},{"bike_id":"52b1dea8-2c51-45f5-9d28-97227fe516fa","system_id":"levelo_inurba_marseille","lat":43.29261,"lon":5.40906,"is_reserved":false,"is_disabled":false,"rental_uris":{"android":"levelo://app?vid=52b1dea8-2c51-45f5-9d28-97227fe516fa","ios":"levelo://app?vid=52b1dea8-2c51-45f5-9d28-97227fe516fa"},"vehicle_type_id":"4","last_reported":1745086348,"current_range_meters":6400,"station_id":"ce4bh192rcd13ifvqdc0","pricing_plan_id":"cebpf4jnsgd1na2vs0mg"},{"bike_id":"9f9ad906-4d59-4b0e-9072-3e796805ec66","system_id":"levelo_inurba_marseille","lat":43.29265,"lon":5.38439,"is_reserved":false,"is_disabled":false,"rental_uris":{"android":"levelo://app?vid=9f9ad906-4d59-4b0e-9072-3e796805ec66","ios":"levelo://app?vid=9f9ad906-4d59-4b0e-9072-3e796805ec66"},"vehicle_type_id":"4","last_reported":1745086348,"current_range_meters":6800,"station_id":"ce4bh692rcd13ifvqea0","pricing_plan_id":"cebpf4jnsgd1na2vs0mg"},{"bike_id":"b816830b-832f-4b28-9a5a-e8e5238beb63","system_id":"levelo_inurba_marseille","lat":43.29528,"lon":5.39035,"is_reserved":false,"is_disabled":false,"rental_uris":{"android":"levelo://app?vid=b816830b-832f-4b28-9a5a-e8e5238beb63","ios":"levelo://app?vid=b816830b-832f-4b28-9a5a-e8e5238beb63"},"vehicle_type_id":"4","last_reported":1745086348,"current_range_meters":6800,"station_id":"ce4bh3p2rcd13ifvqdp0","pricing_plan_id":"cebpf4jnsgd1na2vs0mg"},{"bike_id":"b3064abd-5d3c-4210-b487-03ee31d9d023","system_id":"levelo_inurba_marseille","lat":43.30426,"lon":5.39745,"is_reserved":false,"is_disabled":false,"rental_uris":{"android":"levelo://app?vid=b3064abd-5d3c-4210-b487-03ee31d9d023","ios":"levelo://app?vid=b3064abd-5d3c-4210-b487-03ee31d9d023"},"vehicle_type_id":"4","last_reported":1745086348,"current_range_meters":6400,"station_id":"ce4bh092rcd13ifvqd20","pricing_plan_id":"cebpf4jnsgd1na2vs0mg"},{"bike_id":"df1df40f-fd9c-4585-bc36-bdce6918b7d5","system_id":"levelo_inurba_marseille","lat":43.23225,"lon":5.3553,"is_reserved":false,"is_disabled":false,"rental_uris":{"android":"levelo://app?vid=df1df40f-fd9c-4585-bc36-bdce6918b7d5","ios":"levelo://app?vid=df1df40f-fd9c-4585-bc36-bdce6918b7d5"},"vehicle_type_id":"4","last_reported":1745086348,"current_range_meters":6800,"station_id":"ce4bhu92rcd13ifvqi70","pricing_plan_id":"cebpf4jnsgd1na2vs0mg"},{"bike_id":"06a4005b-b24a-4a6d-b0ac-dcf0e9ac719f","system_id":"levelo_inurba_marseille","lat":43.26202,"lon":5.37931,"is_reserved":false,"is_disabled":false,"rental_uris":{"android":"levelo://app?vid=06a4005b-b24a-4a6d-b0ac-dcf0e9ac719f","ios":"levelo://app?vid=06a4005b-b24a-4a6d-b0ac-dcf0e9ac719f"},"vehicle_type_id":"4","last_reported":1745086348,"current_range_meters":6800,"station_id":"ce4bhjp2rcd13ifvqg90","pricing_plan_id":"cebpf4jnsgd1na2vs0mg"},{"bike_id":"153ccbfd-a064-4344-b84c-2c14b1055954","system_id":"levelo_inurba_marseille","lat":43.29306,"lon":5.37471,"is_reserved":false,"is_disabled":false,"rental_uris":{"android":"levelo://app?vid=153ccbfd-a064-4344-b84c-2c14b1055954","ios":"levelo://app?vid=153ccbfd-a064-4344-b84c-2c14b1055954"},"vehicle_type_id":"4","last_reported":1745086348,"current_range_meters":6400,"station_id":"ce4bgi12rcd13ifvqb70","pricing_plan_id":"cebpf4jnsgd1na2vs0mg"},{"bike_id":"92102005-428b-40b1-a0c4-88f729bba403","system_id":"levelo_inurba_marseille","lat":43.27994,"lon":5.40011,"is_reserved":false,"is_disabled":false,"rental_uris":{"android":"levelo://app?vid=92102005-428b-40b1-a0c4-88f729bba403","ios":"levelo://app?vid=92102005-428b-40b1-a0c4-88f729bba403"},"vehicle_type_id":"4","last_reported":1745086348,"current_range_meters":7200,"station_id":"ce4bho92rcd13ifvqh4g","pricing_plan_id":"cebpf4jnsgd1na2vs0mg"},{"bike_id":"bd86a6ea-e8c3-49a0-8c40-22916cda9fa9","system_id":"levelo_inurba_marseille","lat":43.29614,"lon":5.38099,"is_reserved":false,"is_disabled":false,"rental_uris":{"android":"levelo://app?vid=bd86a6ea-e8c3-49a0-8c40-22916cda9fa9","ios":"levelo://app?vid=bd86a6ea-e8c3-49a0-8c40-22916cda9fa9"},"vehicle_type_id":"4","last_reported":1745086348,"current_range_meters":7200,"station_id":"ce4bgl12rcd13ifvqbo0","pricing_plan_id":"cebpf4jnsgd1na2vs0mg"},{"bike_id":"f9ac1a16-681d-4d54-a446-e2d2e8e7a106","system_id":"levelo_inurba_marseille","lat":43.27208,"lon":5.39178,"is_reserved":false,"is_disabled":false,"rental_uris":{"android":"levelo://app?vid=f9ac1a16-681d-4d54-a446-e2d2e8e7a106","ios":"levelo://app?vid=f9ac1a16-681d-4d54-a446-e2d2e8e7a106"},"vehicle_type_id":"4","last_reported":1745086348,"current_range_meters":7200,"station_id":"ce4bhhp2rcd13ifvqfm0","pricing_plan_id":"cebpf4jnsgd1na2vs0mg"},{"bike_id":"c42c97dc-851b-476d-ba23-67d0582febc0","system_id":"levelo_inurba_marseille","lat":43.30323,"lon":5.40449,"is_reserved":false,"is_disabled":true,"rental_uris":{"android":"levelo://app?vid=c42c97dc-851b-476d-ba23-67d0582febc0","ios":"levelo://app?vid=c42c97dc-851b-476d-ba23-67d0582febc0"},"vehicle_type_id":"4","last_reported":1745086348,"current_range_meters":7200,"station_id":"ce4bh012rcd13ifvqd10","pricing_plan_id":"cebpf4jnsgd1na2vs0mg"},{"bike_id":"0b2072bd-063b-48fc-b431-33499e254e08","system_id":"levelo_inurba_marseille","lat":43.27625,"lon":5.36096,"is_reserved":false,"is_disabled":false,"rental_uris":{"android":"levelo://app?vid=0b2072bd-063b-48fc-b431-33499e254e08","ios":"levelo://app?vid=0b2072bd-063b-48fc-b431-33499e254e08"},"vehicle_type_id":"4","last_reported":1745086348,"current_range_meters":7200,"station_id":"ce4bgj92rcd13ifvqbe0","pricing_plan_id":"cebpf4jnsgd1na2vs0mg"},{"bike_id":"91632b06-efe7-425e-987d-1d738f86ae14","system_id":"levelo_inurba_marseille","lat":43.27052,"lon":5.40259,"is_reserved":false,"is_disabled":false,"rental_uris":{"android":"levelo://app?vid=91632b06-efe7-425e-987d-1d738f86ae14","ios":"levelo://app?vid=91632b06-efe7-425e-987d-1d738f86ae14"},"vehicle_type_id":"4","last_reported":1745086348,"current_range_meters":7200,"station_id":"ce4bhk92rcd13ifvqgc0","pricing_plan_id":"cebpf4jnsgd1na2vs0mg"},{"bike_id":"74f67f90-7499-412e-841b-bd7ef49cf506","system_id":"levelo_inurba_marseille","lat":43.29631,"lon":5.40593,"is_reserved":false,"is_disabled":false,"rental_uris":{"android":"levelo://app?vid=74f67f90-7499-412e-841b-bd7ef49cf506","ios":"levelo://app?vid=74f67f90-7499-412e-841b-bd7ef49cf506"},"vehicle_type_id":"4","last_reported":1745086348,"current_range_meters":16000,"station_id":"ce4bh0h2rcd13ifvqd60","pricing_plan_id":"cebpf4jnsgd1na2vs0mg"},{"bike_id":"7edbb314-f279-43ee-bda9-53d9b3b7e02b","system_id":"levelo_inurba_marseille","lat":43.28977,"lon":5.37831,"is_reserved":false,"is_disabled":false,"rental_uris":{"android":"levelo://app?vid=7edbb314-f279-43ee-bda9-53d9b3b7e02b","ios":"levelo://app?vid=7edbb314-f279-43ee-bda9-53d9b3b7e02b"},"vehicle_type_id":"4","last_reported":1745086348,"current_range_meters":7200,"station_id":"ce4bh9p2rcd13ifvqed0","pricing_plan_id":"cebpf4jnsgd1na2vs0mg"},{"bike_id":"8b83ceab-4ae0-4481-bc7e-cbe202abed26","system_id":"levelo_inurba_marseille","lat":43.2549,"lon":5.37642,"is_reserved":false,"is_disabled":false,"rental_uris":{"android":"levelo://app?vid=8b83ceab-4ae0-4481-bc7e-cbe202abed26","ios":"levelo://app?vid=8b83ceab-4ae0-4481-bc7e-cbe202abed26"},"vehicle_type_id":"4","last_reported":1745086348,"current_range_meters":7200,"station_id":"ce4bhh12rcd13ifvqff0","pricing_plan_id":"cebpf4jnsgd1na2vs0mg"},{"bike_id":"a0ddb0a5-f7f0-4281-aa27-9e82747cc573","system_id":"levelo_inurba_marseille","lat":43.33754,"lon":5.37491,"is_reserved":false,"is_disabled":false,"rental_uris":{"android":"levelo://app?vid=a0ddb0a5-f7f0-4281-aa27-9e82747cc573","ios":"levelo://app?vid=a0ddb0a5-f7f0-4281-aa27-9e82747cc573"},"vehicle_type_id":"4","last_reported":1745086348,"current_range_meters":7200,"station_id":"","pricing_plan_id":"cebpf4jnsgd1na2vs0mg"},{"bike_id":"e224a808-de85-46a7-930e-73619c7bdc15","system_id":"levelo_inurba_marseille","lat":43.28481,"lon":5.38417,"is_reserved":false,"is_disabled":false,"rental_uris":{"android":"levelo://app?vid=e224a808-de85-46a7-930e-73619c7bdc15","ios":"levelo://app?vid=e224a808-de85-46a7-930e-73619c7bdc15"},"vehicle_type_id":"4","last_reported":1745086348,"current_range_meters":7200,"station_id":"ce4bh512rcd13ifvqe3g","pricing_plan_id":"cebpf4jnsgd1na2vs0mg"},{"bike_id":"9fe8c14c-2d24-41b2-9662-956cdf9f075c","system_id":"levelo_inurba_marseille","lat":43.24473,"lon":5.36947,"is_reserved":false,"is_disabled":false,"rental_uris":{"android":"levelo://app?vid=9fe8c14c-2d24-41b2-9662-956cdf9f075c","ios":"levelo://app?vid=9fe8c14c-2d24-41b2-9662-956cdf9f075c"},"vehicle_type_id":"4","last_reported":1745086348,"current_range_meters":8000,"station_id":"","pricing_plan_id":"cebpf4jnsgd1na2vs0mg"},{"bike_id":"c7d5a8bd-19f6-49b1-95d8-0e1110f53400","system_id":"levelo_inurba_marseille","lat":43.27993,"lon":5.4003,"is_reserved":false,"is_disabled":false,"rental_uris":{"android":"levelo://app?vid=c7d5a8bd-19f6-49b1-95d8-0e1110f53400","ios":"levelo://app?vid=c7d5a8bd-19f6-49b1-95d8-0e1110f53400"},"vehicle_type_id":"4","last_reported":1745086348,"current_range_meters":8000,"station_id":"ce4bho92rcd13ifvqh4g","pricing_plan_id":"cebpf4jnsgd1na2vs0mg"},{"bike_id":"5110ee72-c7e7-426a-97f9-d7e0604053e2","system_id":"levelo_inurba_marseille","lat":43.2804,"lon":5.36945,"is_reserved":false,"is_disabled":false,"rental_uris":{"android":"levelo://app?vid=5110ee72-c7e7-426a-97f9-d7e0604053e2","ios":"levelo://app?vid=5110ee72-c7e7-426a-97f9-d7e0604053e2"},"vehicle_type_id":"4","last_reported":1745086348,"current_range_meters":8000,"station_id":"ce4bha12rcd13ifvqef0","pricing_plan_id":"cebpf4jnsgd1na2vs0mg"},{"bike_id":"066f1a3f-2f55-42ac-aa57-b561bb82f13e","system_id":"levelo_inurba_marseille","lat":43.30875,"lon":5.37307,"is_reserved":false,"is_disabled":false,"rental_uris":{"android":"levelo://app?vid=066f1a3f-2f55-42ac-aa57-b561bb82f13e","ios":"levelo://app?vid=066f1a3f-2f55-42ac-aa57-b561bb82f13e"},"vehicle_type_id":"4","last_reported":1745086348,"current_range_meters":8000,"station_id":"","pricing_plan_id":"cebpf4jnsgd1na2vs0mg"},{"bike_id":"4a86d0f8-ff65-4446-9521-1002867a3da0","system_id":"levelo_inurba_marseille","lat":43.24525,"lon":5.39515,"is_reserved":false,"is_disabled":true,"rental_uris":{"android":"levelo://app?vid=4a86d0f8-ff65-4446-9521-1002867a3da0","ios":"levelo://app?vid=4a86d0f8-ff65-4446-9521-1002867a3da0"},"vehicle_type_id":"4","last_reported":1745086348,"current_range_meters":8000,"station_id":"ce4bhlp2rcd13ifvqgjg","pricing_plan_id":"cebpf4jnsgd1na2vs0mg"},{"bike_id":"58e56f2a-2968-4edd-8e98-b740f9cea991","system_id":"levelo_inurba_marseille","lat":43.26194,"lon":5.37443,"is_reserved":false,"is_disabled":false,"rental_uris":{"android":"levelo://app?vid=58e56f2a-2968-4edd-8e98-b740f9cea991","ios":"levelo://app?vid=58e56f2a-2968-4edd-8e98-b740f9cea991"},"vehicle_type_id":"4","last_reported":1745086348,"current_range_meters":8000,"station_id":"ce4bhgp2rcd13ifvqfc0","pricing_plan_id":"cebpf4jnsgd1na2vs0mg"},{"bike_id":"cf0ec0d7-2c97-4d48-ac63-4c74d3009e68","system_id":"levelo_inurba_marseille","lat":43.30888,"lon":5.37198,"is_reserved":false,"is_disabled":false,"rental_uris":{"android":"levelo://app?vid=cf0ec0d7-2c97-4d48-ac63-4c74d3009e68","ios":"levelo://app?vid=cf0ec0d7-2c97-4d48-ac63-4c74d3009e68"},"vehicle_type_id":"4","last_reported":1745086348,"current_range_meters":8000,"station_id":"ce4bguh2rcd13ifvqckg","pricing_plan_id":"cebpf4jnsgd1na2vs0mg"},{"bike_id":"98133c5f-1713-4ff0-94e5-8b169d954486","system_id":"levelo_inurba_marseille","lat":43.29822,"lon":5.38145,"is_reserved":false,"is_disabled":true,"rental_uris":{"android":"levelo://app?vid=98133c5f-1713-4ff0-94e5-8b169d954486","ios":"levelo://app?vid=98133c5f-1713-4ff0-94e5-8b169d954486"},"vehicle_type_id":"4","last_reported":1745086348,"current_range_meters":8000,"station_id":"ce4bgip2rcd13ifvqbb0","pricing_plan_id":"cebpf4jnsgd1na2vs0mg"},{"bike_id":"7aabe16f-e060-41ad-893f-c46960a67b56","system_id":"levelo_inurba_marseille","lat":43.29774,"lon":5.37105,"is_reserved":false,"is_disabled":false,"rental_uris":{"android":"levelo://app?vid=7aabe16f-e060-41ad-893f-c46960a67b56","ios":"levelo://app?vid=7aabe16f-e060-41ad-893f-c46960a67b56"},"vehicle_type_id":"4","last_reported":1745086348,"current_range_meters":8000,"station_id":"ce4bgop2rcd13ifvqc1g","pricing_plan_id":"cebpf4jnsgd1na2vs0mg"},{"bike_id":"24af5ddf-1ac5-414e-ab55-76cdf5e628ef","system_id":"levelo_inurba_marseille","lat":43.27999,"lon":5.40021,"is_reserved":false,"is_disabled":false,"rental_uris":{"android":"levelo://app?vid=24af5ddf-1ac5-414e-ab55-76cdf5e628ef","ios":"levelo://app?vid=24af5ddf-1ac5-414e-ab55-76cdf5e628ef"},"vehicle_type_id":"4","last_reported":1745086348,"current_range_meters":8000,"station_id":"ce4bho92rcd13ifvqh4g","pricing_plan_id":"cebpf4jnsgd1na2vs0mg"},{"bike_id":"7cd54da5-711a-4d34-858d-3668ea493c89","system_id":"levelo_inurba_marseille","lat":43.31756,"lon":5.39013,"is_reserved":false,"is_disabled":false,"rental_uris":{"android":"levelo://app?vid=7cd54da5-711a-4d34-858d-3668ea493c89","ios":"levelo://app?vid=7cd54da5-711a-4d34-858d-3668ea493c89"},"vehicle_type_id":"4","last_reported":1745086348,"current_range_meters":8000,"station_id":"ce4bhqp2rcd13ifvqhng","pricing_plan_id":"cebpf4jnsgd1na2vs0mg"},{"bike_id":"60600b74-308a-4177-ab64-2d7d75ace124","system_id":"levelo_inurba_marseille","lat":43.29547,"lon":5.3749,"is_reserved":false,"is_disabled":false,"rental_uris":{"android":"levelo://app?vid=60600b74-308a-4177-ab64-2d7d75ace124","ios":"levelo://app?vid=60600b74-308a-4177-ab64-2d7d75ace124"},"vehicle_type_id":"4","last_reported":1745086348,"current_range_meters":8000,"station_id":"ce4bgkp2rcd13ifvqbmg","pricing_plan_id":"cebpf4jnsgd1na2vs0mg"},{"bike_id":"e2d293ad-bb06-4e20-8d42-0ce800e2b714","system_id":"levelo_inurba_marseille","lat":43.30463,"lon":5.37907,"is_reserved":false,"is_disabled":false,"rental_uris":{"android":"levelo://app?vid=e2d293ad-bb06-4e20-8d42-0ce800e2b714","ios":"levelo://app?vid=e2d293ad-bb06-4e20-8d42-0ce800e2b714"},"vehicle_type_id":"4","last_reported":1745086348,"current_range_meters":8400,"station_id":"ce4bgup2rcd13ifvqcn0","pricing_plan_id":"cebpf4jnsgd1na2vs0mg"},{"bike_id":"f6ba2129-4c99-433a-9ce5-8a3893340f52","system_id":"levelo_inurba_marseille","lat":43.24175,"lon":5.36399,"is_reserved":false,"is_disabled":false,"rental_uris":{"android":"levelo://app?vid=f6ba2129-4c99-433a-9ce5-8a3893340f52","ios":"levelo://app?vid=f6ba2129-4c99-433a-9ce5-8a3893340f52"},"vehicle_type_id":"4","last_reported":1745086348,"current_range_meters":8400,"station_id":"cpo36qri1sfpv3e86is0","pricing_plan_id":"cebpf4jnsgd1na2vs0mg"},{"bike_id":"82cf97f6-2d10-439b-a6f0-f962bacaaf34","system_id":"levelo_inurba_marseille","lat":43.32362,"lon":5.38883,"is_reserved":false,"is_disabled":false,"rental_uris":{"android":"levelo://app?vid=82cf97f6-2d10-439b-a6f0-f962bacaaf34","ios":"levelo://app?vid=82cf97f6-2d10-439b-a6f0-f962bacaaf34"},"vehicle_type_id":"4","last_reported":1745086348,"current_range_meters":8400,"station_id":"ce4bhqp2rcd13ifvqhog","pricing_plan_id":"cebpf4jnsgd1na2vs0mg"},{"bike_id":"f3db6b84-95ea-47eb-b4cd-d586544348cb","system_id":"levelo_inurba_marseille","lat":43.24173,"lon":5.36411,"is_reserved":false,"is_disabled":false,"rental_uris":{"android":"levelo://app?vid=f3db6b84-95ea-47eb-b4cd-d586544348cb","ios":"levelo://app?vid=f3db6b84-95ea-47eb-b4cd-d586544348cb"},"vehicle_type_id":"4","last_reported":1745086348,"current_range_meters":8400,"station_id":"cpo36qri1sfpv3e86is0","pricing_plan_id":"cebpf4jnsgd1na2vs0mg"},{"bike_id":"049d9cb8-3c15-4190-a88f-f42e807620f6","system_id":"levelo_inurba_marseille","lat":43.268153,"lon":5.39409,"is_reserved":false,"is_disabled":false,"rental_uris":{"android":"levelo://app?vid=049d9cb8-3c15-4190-a88f-f42e807620f6","ios":"levelo://app?vid=049d9cb8-3c15-4190-a88f-f42e807620f6"},"vehicle_type_id":"4","last_reported":1745086348,"current_range_meters":8400,"station_id":"ce4bhh12rcd13ifvqfg0","pricing_plan_id":"cebpf4jnsgd1na2vs0mg"},{"bike_id":"298aeb19-84d3-4289-b53a-cbf2a27fc537","system_id":"levelo_inurba_marseille","lat":43.27343,"lon":5.39115,"is_reserved":false,"is_disabled":false,"rental_uris":{"android":"levelo://app?vid=298aeb19-84d3-4289-b53a-cbf2a27fc537","ios":"levelo://app?vid=298aeb19-84d3-4289-b53a-cbf2a27fc537"},"vehicle_type_id":"4","last_reported":1745086348,"current_range_meters":8400,"station_id":"ce4bhgp2rcd13ifvqfe0","pricing_plan_id":"cebpf4jnsgd1na2vs0mg"},{"bike_id":"e4ae44c0-491f-4b56-990d-4d3ef32ec72e","system_id":"levelo_inurba_marseille","lat":43.26785,"lon":5.39418,"is_reserved":false,"is_disabled":false,"rental_uris":{"android":"levelo://app?vid=e4ae44c0-491f-4b56-990d-4d3ef32ec72e","ios":"levelo://app?vid=e4ae44c0-491f-4b56-990d-4d3ef32ec72e"},"vehicle_type_id":"4","last_reported":1745086348,"current_range_meters":8400,"station_id":"ce4bhh12rcd13ifvqfg0","pricing_plan_id":"cebpf4jnsgd1na2vs0mg"},{"bike_id":"d1b21d6a-bf21-47c9-887d-12da491272d1","system_id":"levelo_inurba_marseille","lat":43.27193,"lon":5.39182,"is_reserved":false,"is_disabled":false,"rental_uris":{"android":"levelo://app?vid=d1b21d6a-bf21-47c9-887d-12da491272d1","ios":"levelo://app?vid=d1b21d6a-bf21-47c9-887d-12da491272d1"},"vehicle_type_id":"4","last_reported":1745086348,"current_range_meters":8400,"station_id":"ce4bhhp2rcd13ifvqfm0","pricing_plan_id":"cebpf4jnsgd1na2vs0mg"},{"bike_id":"506029f3-934b-4b14-bf28-b9c4802540f9","system_id":"levelo_inurba_marseille","lat":43.23219,"lon":5.35546,"is_reserved":false,"is_disabled":false,"rental_uris":{"android":"levelo://app?vid=506029f3-934b-4b14-bf28-b9c4802540f9","ios":"levelo://app?vid=506029f3-934b-4b14-bf28-b9c4802540f9"},"vehicle_type_id":"4","last_reported":1745086348,"current_range_meters":8400,"station_id":"ce4bhu92rcd13ifvqi70","pricing_plan_id":"cebpf4jnsgd1na2vs0mg"},{"bike_id":"55f7d566-d57b-41e6-9d05-4d482a337806","system_id":"levelo_inurba_marseille","lat":43.27909,"lon":5.39587,"is_reserved":false,"is_disabled":false,"rental_uris":{"android":"levelo://app?vid=55f7d566-d57b-41e6-9d05-4d482a337806","ios":"levelo://app?vid=55f7d566-d57b-41e6-9d05-4d482a337806"},"vehicle_type_id":"4","last_reported":1745086348,"current_range_meters":8400,"station_id":"ce4bhf92rcd13ifvqf40","pricing_plan_id":"cebpf4jnsgd1na2vs0mg"},{"bike_id":"0b40943d-b526-41fb-810d-35e7e3139bd0","system_id":"levelo_inurba_marseille","lat":43.30666,"lon":5.39268,"is_reserved":false,"is_disabled":false,"rental_uris":{"android":"levelo://app?vid=0b40943d-b526-41fb-810d-35e7e3139bd0","ios":"levelo://app?vid=0b40943d-b526-41fb-810d-35e7e3139bd0"},"vehicle_type_id":"4","last_reported":1745086348,"current_range_meters":8400,"station_id":"","pricing_plan_id":"cebpf4jnsgd1na2vs0mg"},{"bike_id":"4f5d1623-8b9b-4892-a99f-6a0b0cf5ee5f","system_id":"levelo_inurba_marseille","lat":43.28341,"lon":5.381,"is_reserved":false,"is_disabled":false,"rental_uris":{"android":"levelo://app?vid=4f5d1623-8b9b-4892-a99f-6a0b0cf5ee5f","ios":"levelo://app?vid=4f5d1623-8b9b-4892-a99f-6a0b0cf5ee5f"},"vehicle_type_id":"4","last_reported":1745086348,"current_range_meters":8000,"station_id":"ce4bh412rcd13ifvqdr0","pricing_plan_id":"cebpf4jnsgd1na2vs0mg"},{"bike_id":"7da175f6-3f0e-4fc9-9bed-76b09f10e690","system_id":"levelo_inurba_marseille","lat":43.295763,"lon":5.367393,"is_reserved":false,"is_disabled":false,"rental_uris":{"android":"levelo://app?vid=7da175f6-3f0e-4fc9-9bed-76b09f10e690","ios":"levelo://app?vid=7da175f6-3f0e-4fc9-9bed-76b09f10e690"},"vehicle_type_id":"4","last_reported":1745086348,"current_range_meters":8400,"station_id":"ce4bgph2rcd13ifvqc2g","pricing_plan_id":"cebpf4jnsgd1na2vs0mg"},{"bike_id":"6044c73e-3359-4c8f-8774-16748e5d9acc","system_id":"levelo_inurba_marseille","lat":43.2656,"lon":5.37284,"is_reserved":false,"is_disabled":false,"rental_uris":{"android":"levelo://app?vid=6044c73e-3359-4c8f-8774-16748e5d9acc","ios":"levelo://app?vid=6044c73e-3359-4c8f-8774-16748e5d9acc"},"vehicle_type_id":"4","last_reported":1745086348,"current_range_meters":8800,"station_id":"ce4bhg12rcd13ifvqf70","pricing_plan_id":"cebpf4jnsgd1na2vs0mg"},{"bike_id":"b2444be3-b971-4682-89db-eb7ac791b923","system_id":"levelo_inurba_marseille","lat":43.30159,"lon":5.38081,"is_reserved":false,"is_disabled":false,"rental_uris":{"android":"levelo://app?vid=b2444be3-b971-4682-89db-eb7ac791b923","ios":"levelo://app?vid=b2444be3-b971-4682-89db-eb7ac791b923"},"vehicle_type_id":"4","last_reported":1745086348,"current_range_meters":8400,"station_id":"ce4bgjp2rcd13ifvqbh0","pricing_plan_id":"cebpf4jnsgd1na2vs0mg"},{"bike_id":"19c500fa-3a72-4507-ab55-c46be45aca4c","system_id":"levelo_inurba_marseille","lat":43.29576,"lon":5.36736,"is_reserved":false,"is_disabled":false,"rental_uris":{"android":"levelo://app?vid=19c500fa-3a72-4507-ab55-c46be45aca4c","ios":"levelo://app?vid=19c500fa-3a72-4507-ab55-c46be45aca4c"},"vehicle_type_id":"4","last_reported":1745086348,"current_range_meters":8800,"station_id":"ce4bgph2rcd13ifvqc2g","pricing_plan_id":"cebpf4jnsgd1na2vs0mg"},{"bike_id":"bad151c2-17f8-429b-b15e-e219aa1da86d","system_id":"levelo_inurba_marseille","lat":43.27225,"lon":5.39174,"is_reserved":false,"is_disabled":false,"rental_uris":{"android":"levelo://app?vid=bad151c2-17f8-429b-b15e-e219aa1da86d","ios":"levelo://app?vid=bad151c2-17f8-429b-b15e-e219aa1da86d"},"vehicle_type_id":"4","last_reported":1745086348,"current_range_meters":8800,"station_id":"ce4bhhp2rcd13ifvqfm0","pricing_plan_id":"cebpf4jnsgd1na2vs0mg"},{"bike_id":"629cb732-65d4-4554-81b1-5e32804601e9","system_id":"levelo_inurba_marseille","lat":43.27297,"lon":5.39132,"is_reserved":false,"is_disabled":false,"rental_uris":{"android":"levelo://app?vid=629cb732-65d4-4554-81b1-5e32804601e9","ios":"levelo://app?vid=629cb732-65d4-4554-81b1-5e32804601e9"},"vehicle_type_id":"4","last_reported":1745086348,"current_range_meters":8800,"station_id":"ce4bhgp2rcd13ifvqfe0","pricing_plan_id":"cebpf4jnsgd1na2vs0mg"},{"bike_id":"b9bbc2de-ddd8-4c72-9e5b-862e592bd0a9","system_id":"levelo_inurba_marseille","lat":43.29607,"lon":5.38107,"is_reserved":false,"is_disabled":false,"rental_uris":{"android":"levelo://app?vid=b9bbc2de-ddd8-4c72-9e5b-862e592bd0a9","ios":"levelo://app?vid=b9bbc2de-ddd8-4c72-9e5b-862e592bd0a9"},"vehicle_type_id":"4","last_reported":1745086348,"current_range_meters":8800,"station_id":"ce4bgl12rcd13ifvqbo0","pricing_plan_id":"cebpf4jnsgd1na2vs0mg"},{"bike_id":"32d0376c-7031-4c7f-841e-7570a6189b10","system_id":"levelo_inurba_marseille","lat":43.24398,"lon":5.37056,"is_reserved":false,"is_disabled":false,"rental_uris":{"android":"levelo://app?vid=32d0376c-7031-4c7f-841e-7570a6189b10","ios":"levelo://app?vid=32d0376c-7031-4c7f-841e-7570a6189b10"},"vehicle_type_id":"4","last_reported":1745086348,"current_range_meters":8800,"station_id":"ce4bhhh2rcd13ifvqfk0","pricing_plan_id":"cebpf4jnsgd1na2vs0mg"},{"bike_id":"fa9d64d1-feb9-4499-ab12-2f21df4ca555","system_id":"levelo_inurba_marseille","lat":43.26553,"lon":5.37285,"is_reserved":false,"is_disabled":false,"rental_uris":{"android":"levelo://app?vid=fa9d64d1-feb9-4499-ab12-2f21df4ca555","ios":"levelo://app?vid=fa9d64d1-feb9-4499-ab12-2f21df4ca555"},"vehicle_type_id":"4","last_reported":1745086348,"current_range_meters":8800,"station_id":"ce4bhg12rcd13ifvqf70","pricing_plan_id":"cebpf4jnsgd1na2vs0mg"},{"bike_id":"7202dcd5-9744-4398-8141-20645215646d","system_id":"levelo_inurba_marseille","lat":43.25113,"lon":5.4032,"is_reserved":false,"is_disabled":false,"rental_uris":{"android":"levelo://app?vid=7202dcd5-9744-4398-8141-20645215646d","ios":"levelo://app?vid=7202dcd5-9744-4398-8141-20645215646d"},"vehicle_type_id":"4","last_reported":1745086348,"current_range_meters":8800,"station_id":"ce4bhlh2rcd13ifvqgig","pricing_plan_id":"cebpf4jnsgd1na2vs0mg"},{"bike_id":"4d1ff115-0974-4925-8df6-f27b1890a9af","system_id":"levelo_inurba_marseille","lat":43.269413,"lon":5.402463,"is_reserved":false,"is_disabled":false,"rental_uris":{"android":"levelo://app?vid=4d1ff115-0974-4925-8df6-f27b1890a9af","ios":"levelo://app?vid=4d1ff115-0974-4925-8df6-f27b1890a9af"},"vehicle_type_id":"4","last_reported":1745086348,"current_range_meters":9200,"station_id":"cjm6bp8fraef2m0cb0m0","pricing_plan_id":"cebpf4jnsgd1na2vs0mg"},{"bike_id":"71c41211-a6b8-409a-b4ae-8caa1ca06db4","system_id":"levelo_inurba_marseille","lat":43.29376,"lon":5.37847,"is_reserved":false,"is_disabled":false,"rental_uris":{"android":"levelo://app?vid=71c41211-a6b8-409a-b4ae-8caa1ca06db4","ios":"levelo://app?vid=71c41211-a6b8-409a-b4ae-8caa1ca06db4"},"vehicle_type_id":"4","last_reported":1745086348,"current_range_meters":9200,"station_id":"ce4bgjh2rcd13ifvqbf0","pricing_plan_id":"cebpf4jnsgd1na2vs0mg"},{"bike_id":"452b4124-b798-4a9a-9234-62ea9245389c","system_id":"levelo_inurba_marseille","lat":43.25726,"lon":5.41109,"is_reserved":false,"is_disabled":false,"rental_uris":{"android":"levelo://app?vid=452b4124-b798-4a9a-9234-62ea9245389c","ios":"levelo://app?vid=452b4124-b798-4a9a-9234-62ea9245389c"},"vehicle_type_id":"4","last_reported":1745086348,"current_range_meters":8800,"station_id":"ce4bhkp2rcd13ifvqgd0","pricing_plan_id":"cebpf4jnsgd1na2vs0mg"},{"bike_id":"8b9f1b2c-eae6-4517-890d-d73584b60e6b","system_id":"levelo_inurba_marseille","lat":43.304249,"lon":5.388937,"is_reserved":false,"is_disabled":false,"rental_uris":{"android":"levelo://app?vid=8b9f1b2c-eae6-4517-890d-d73584b60e6b","ios":"levelo://app?vid=8b9f1b2c-eae6-4517-890d-d73584b60e6b"},"vehicle_type_id":"4","last_reported":1745086348,"current_range_meters":8800,"station_id":"ce4bgk12rcd13ifvqbi0","pricing_plan_id":"cebpf4jnsgd1na2vs0mg"},{"bike_id":"82cf3a3d-2e8e-4531-9d06-5b9b88cd8ad9","system_id":"levelo_inurba_marseille","lat":43.3089,"lon":5.37196,"is_reserved":false,"is_disabled":false,"rental_uris":{"android":"levelo://app?vid=82cf3a3d-2e8e-4531-9d06-5b9b88cd8ad9","ios":"levelo://app?vid=82cf3a3d-2e8e-4531-9d06-5b9b88cd8ad9"},"vehicle_type_id":"4","last_reported":1745086348,"current_range_meters":9200,"station_id":"ce4bguh2rcd13ifvqckg","pricing_plan_id":"cebpf4jnsgd1na2vs0mg"},{"bike_id":"d46a5ed6-0ddd-47ee-91f3-dd0d134d6c99","system_id":"levelo_inurba_marseille","lat":43.27915,"lon":5.39594,"is_reserved":false,"is_disabled":false,"rental_uris":{"android":"levelo://app?vid=d46a5ed6-0ddd-47ee-91f3-dd0d134d6c99","ios":"levelo://app?vid=d46a5ed6-0ddd-47ee-91f3-dd0d134d6c99"},"vehicle_type_id":"4","last_reported":1745086348,"current_range_meters":9200,"station_id":"ce4bhf92rcd13ifvqf40","pricing_plan_id":"cebpf4jnsgd1na2vs0mg"},{"bike_id":"ddfec0c8-4c1e-446d-847a-242803b37d09","system_id":"levelo_inurba_marseille","lat":43.27991,"lon":5.40052,"is_reserved":false,"is_disabled":false,"rental_uris":{"android":"levelo://app?vid=ddfec0c8-4c1e-446d-847a-242803b37d09","ios":"levelo://app?vid=ddfec0c8-4c1e-446d-847a-242803b37d09"},"vehicle_type_id":"4","last_reported":1745086348,"current_range_meters":9200,"station_id":"ce4bho92rcd13ifvqh4g","pricing_plan_id":"cebpf4jnsgd1na2vs0mg"},{"bike_id":"f9fb7ca3-f88d-46ec-8f49-da6bc6fd6ad2","system_id":"levelo_inurba_marseille","lat":43.27316,"lon":5.39072,"is_reserved":false,"is_disabled":false,"rental_uris":{"android":"levelo://app?vid=f9fb7ca3-f88d-46ec-8f49-da6bc6fd6ad2","ios":"levelo://app?vid=f9fb7ca3-f88d-46ec-8f49-da6bc6fd6ad2"},"vehicle_type_id":"4","last_reported":1745086348,"current_range_meters":9200,"station_id":"ce4bhgp2rcd13ifvqfe0","pricing_plan_id":"cebpf4jnsgd1na2vs0mg"},{"bike_id":"4c9f03e2-f399-477c-a7ab-acd77eb56d5a","system_id":"levelo_inurba_marseille","lat":43.28699,"lon":5.3739,"is_reserved":false,"is_disabled":false,"rental_uris":{"android":"levelo://app?vid=4c9f03e2-f399-477c-a7ab-acd77eb56d5a","ios":"levelo://app?vid=4c9f03e2-f399-477c-a7ab-acd77eb56d5a"},"vehicle_type_id":"4","last_reported":1745086348,"current_range_meters":9600,"station_id":"ce4bh3p2rcd13ifvqdq0","pricing_plan_id":"cebpf4jnsgd1na2vs0mg"},{"bike_id":"40390ca7-7876-4773-977e-86b7bbaa1e5a","system_id":"levelo_inurba_marseille","lat":43.31753,"lon":5.39022,"is_reserved":false,"is_disabled":false,"rental_uris":{"android":"levelo://app?vid=40390ca7-7876-4773-977e-86b7bbaa1e5a","ios":"levelo://app?vid=40390ca7-7876-4773-977e-86b7bbaa1e5a"},"vehicle_type_id":"4","last_reported":1745086348,"current_range_meters":9200,"station_id":"ce4bhqp2rcd13ifvqhng","pricing_plan_id":"cebpf4jnsgd1na2vs0mg"},{"bike_id":"8fc416ec-704a-4139-92e9-aa10689d87e4","system_id":"levelo_inurba_marseille","lat":43.28701,"lon":5.37396,"is_reserved":false,"is_disabled":false,"rental_uris":{"android":"levelo://app?vid=8fc416ec-704a-4139-92e9-aa10689d87e4","ios":"levelo://app?vid=8fc416ec-704a-4139-92e9-aa10689d87e4"},"vehicle_type_id":"4","last_reported":1745086348,"current_range_meters":9600,"station_id":"ce4bh3p2rcd13ifvqdq0","pricing_plan_id":"cebpf4jnsgd1na2vs0mg"},{"bike_id":"1eaca8f5-0017-418a-9bfc-52185bf67513","system_id":"levelo_inurba_marseille","lat":43.33747,"lon":5.39201,"is_reserved":false,"is_disabled":false,"rental_uris":{"android":"levelo://app?vid=1eaca8f5-0017-418a-9bfc-52185bf67513","ios":"levelo://app?vid=1eaca8f5-0017-418a-9bfc-52185bf67513"},"vehicle_type_id":"4","last_reported":1745086348,"current_range_meters":9600,"station_id":"ce4bhr92rcd13ifvqhsg","pricing_plan_id":"cebpf4jnsgd1na2vs0mg"},{"bike_id":"0ca71759-c6c9-4457-9459-3e0c9d0ee3f1","system_id":"levelo_inurba_marseille","lat":43.27311,"lon":5.39068,"is_reserved":false,"is_disabled":false,"rental_uris":{"android":"levelo://app?vid=0ca71759-c6c9-4457-9459-3e0c9d0ee3f1","ios":"levelo://app?vid=0ca71759-c6c9-4457-9459-3e0c9d0ee3f1"},"vehicle_type_id":"4","last_reported":1745086348,"current_range_meters":9600,"station_id":"ce4bhgp2rcd13ifvqfe0","pricing_plan_id":"cebpf4jnsgd1na2vs0mg"},{"bike_id":"6c5f2ce8-954e-4cb6-bb58-c13fa41801a9","system_id":"levelo_inurba_marseille","lat":43.27997,"lon":5.40046,"is_reserved":false,"is_disabled":false,"rental_uris":{"android":"levelo://app?vid=6c5f2ce8-954e-4cb6-bb58-c13fa41801a9","ios":"levelo://app?vid=6c5f2ce8-954e-4cb6-bb58-c13fa41801a9"},"vehicle_type_id":"4","last_reported":1745086348,"current_range_meters":9600,"station_id":"ce4bho92rcd13ifvqh4g","pricing_plan_id":"cebpf4jnsgd1na2vs0mg"},{"bike_id":"1c0a7485-4086-4d51-afe0-0e8dfe252253","system_id":"levelo_inurba_marseille","lat":43.25085,"lon":5.39523,"is_reserved":false,"is_disabled":false,"rental_uris":{"android":"levelo://app?vid=1c0a7485-4086-4d51-afe0-0e8dfe252253","ios":"levelo://app?vid=1c0a7485-4086-4d51-afe0-0e8dfe252253"},"vehicle_type_id":"4","last_reported":1745086348,"current_range_meters":9600,"station_id":"ce4bhm12rcd13ifvqgkg","pricing_plan_id":"cebpf4jnsgd1na2vs0mg"},{"bike_id":"d0efe335-bd4c-4924-81b9-0027d97b23a4","system_id":"levelo_inurba_marseille","lat":43.28412,"lon":5.37514,"is_reserved":false,"is_disabled":false,"rental_uris":{"android":"levelo://app?vid=d0efe335-bd4c-4924-81b9-0027d97b23a4","ios":"levelo://app?vid=d0efe335-bd4c-4924-81b9-0027d97b23a4"},"vehicle_type_id":"4","last_reported":1745086348,"current_range_meters":9600,"station_id":"ce4bh412rcd13ifvqds0","pricing_plan_id":"cebpf4jnsgd1na2vs0mg"},{"bike_id":"ff5858a1-a107-46d2-a667-0fa125a768b6","system_id":"levelo_inurba_marseille","lat":43.26935,"lon":5.40273,"is_reserved":false,"is_disabled":false,"rental_uris":{"android":"levelo://app?vid=ff5858a1-a107-46d2-a667-0fa125a768b6","ios":"levelo://app?vid=ff5858a1-a107-46d2-a667-0fa125a768b6"},"vehicle_type_id":"4","last_reported":1745086348,"current_range_meters":9600,"station_id":"cjm6bp8fraef2m0cb0m0","pricing_plan_id":"cebpf4jnsgd1na2vs0mg"},{"bike_id":"1965f819-3778-4654-96e5-aaaf9c36cc08","system_id":"levelo_inurba_marseille","lat":43.30399,"lon":5.42488,"is_reserved":false,"is_disabled":false,"rental_uris":{"android":"levelo://app?vid=1965f819-3778-4654-96e5-aaaf9c36cc08","ios":"levelo://app?vid=1965f819-3778-4654-96e5-aaaf9c36cc08"},"vehicle_type_id":"4","last_reported":1745086348,"current_range_meters":9600,"station_id":"ce4bghh2rcd13ifvqb60","pricing_plan_id":"cebpf4jnsgd1na2vs0mg"},{"bike_id":"186380b9-3dab-457b-b648-71d123fa0368","system_id":"levelo_inurba_marseille","lat":43.251118,"lon":5.403312,"is_reserved":false,"is_disabled":true,"rental_uris":{"android":"levelo://app?vid=186380b9-3dab-457b-b648-71d123fa0368","ios":"levelo://app?vid=186380b9-3dab-457b-b648-71d123fa0368"},"vehicle_type_id":"4","last_reported":1745086348,"current_range_meters":9600,"station_id":"ce4bhlh2rcd13ifvqgig","pricing_plan_id":"cebpf4jnsgd1na2vs0mg"},{"bike_id":"d2ba4413-c35f-41b1-8baf-f83e6001a359","system_id":"levelo_inurba_marseille","lat":43.29051,"lon":5.38656,"is_reserved":false,"is_disabled":true,"rental_uris":{"android":"levelo://app?vid=d2ba4413-c35f-41b1-8baf-f83e6001a359","ios":"levelo://app?vid=d2ba4413-c35f-41b1-8baf-f83e6001a359"},"vehicle_type_id":"4","last_reported":1745086348,"current_range_meters":9600,"station_id":"ce4bh4p2rcd13ifvqe0g","pricing_plan_id":"cebpf4jnsgd1na2vs0mg"},{"bike_id":"4cdb0a0f-6366-43af-85c7-3c43d75a4386","system_id":"levelo_inurba_marseille","lat":43.29439,"lon":5.38589,"is_reserved":false,"is_disabled":false,"rental_uris":{"android":"levelo://app?vid=4cdb0a0f-6366-43af-85c7-3c43d75a4386","ios":"levelo://app?vid=4cdb0a0f-6366-43af-85c7-3c43d75a4386"},"vehicle_type_id":"4","last_reported":1745086348,"current_range_meters":9600,"station_id":"","pricing_plan_id":"cebpf4jnsgd1na2vs0mg"},{"bike_id":"ab0c66ce-403b-438e-ab2d-cd2f2dcbe7e6","system_id":"levelo_inurba_marseille","lat":43.284088,"lon":5.349448,"is_reserved":false,"is_disabled":false,"rental_uris":{"android":"levelo://app?vid=ab0c66ce-403b-438e-ab2d-cd2f2dcbe7e6","ios":"levelo://app?vid=ab0c66ce-403b-438e-ab2d-cd2f2dcbe7e6"},"vehicle_type_id":"4","last_reported":1745086348,"current_range_meters":9600,"station_id":"ce4bgt12rcd13ifvqce0","pricing_plan_id":"cebpf4jnsgd1na2vs0mg"},{"bike_id":"5f276bfe-f16b-422a-848d-ada7f2a93c49","system_id":"levelo_inurba_marseille","lat":43.27911,"lon":5.3958,"is_reserved":false,"is_disabled":false,"rental_uris":{"android":"levelo://app?vid=5f276bfe-f16b-422a-848d-ada7f2a93c49","ios":"levelo://app?vid=5f276bfe-f16b-422a-848d-ada7f2a93c49"},"vehicle_type_id":"4","last_reported":1745086348,"current_range_meters":4000,"station_id":"ce4bhf92rcd13ifvqf40","pricing_plan_id":"cebpf4jnsgd1na2vs0mg"},{"bike_id":"653b654c-350e-4662-87dd-669b7a942c83","system_id":"levelo_inurba_marseille","lat":43.27335,"lon":5.39144,"is_reserved":false,"is_disabled":false,"rental_uris":{"android":"levelo://app?vid=653b654c-350e-4662-87dd-669b7a942c83","ios":"levelo://app?vid=653b654c-350e-4662-87dd-669b7a942c83"},"vehicle_type_id":"4","last_reported":1745086348,"current_range_meters":10000,"station_id":"","pricing_plan_id":"cebpf4jnsgd1na2vs0mg"},{"bike_id":"9d46607f-ad0a-4543-b24b-63f26f52d2c3","system_id":"levelo_inurba_marseille","lat":43.27304,"lon":5.39109,"is_reserved":false,"is_disabled":false,"rental_uris":{"android":"levelo://app?vid=9d46607f-ad0a-4543-b24b-63f26f52d2c3","ios":"levelo://app?vid=9d46607f-ad0a-4543-b24b-63f26f52d2c3"},"vehicle_type_id":"4","last_reported":1745086348,"current_range_meters":10000,"station_id":"ce4bhgp2rcd13ifvqfe0","pricing_plan_id":"cebpf4jnsgd1na2vs0mg"},{"bike_id":"483df437-531a-49f2-9b41-9f4bd2c466b0","system_id":"levelo_inurba_marseille","lat":43.299076,"lon":5.381546,"is_reserved":false,"is_disabled":false,"rental_uris":{"android":"levelo://app?vid=483df437-531a-49f2-9b41-9f4bd2c466b0","ios":"levelo://app?vid=483df437-531a-49f2-9b41-9f4bd2c466b0"},"vehicle_type_id":"4","last_reported":1745086348,"current_range_meters":10000,"station_id":"ce4bgj12rcd13ifvqbc0","pricing_plan_id":"cebpf4jnsgd1na2vs0mg"},{"bike_id":"e203af23-3f80-4ee5-9d80-210cf5c5c21b","system_id":"levelo_inurba_marseille","lat":43.31079,"lon":5.38358,"is_reserved":false,"is_disabled":false,"rental_uris":{"android":"levelo://app?vid=e203af23-3f80-4ee5-9d80-210cf5c5c21b","ios":"levelo://app?vid=e203af23-3f80-4ee5-9d80-210cf5c5c21b"},"vehicle_type_id":"4","last_reported":1745086348,"current_range_meters":10000,"station_id":"ce4bgv92rcd13ifvqcr0","pricing_plan_id":"cebpf4jnsgd1na2vs0mg"},{"bike_id":"1c3e85b2-6e33-439d-845b-2bbf0a1296d8","system_id":"levelo_inurba_marseille","lat":43.30426,"lon":5.41294,"is_reserved":false,"is_disabled":false,"rental_uris":{"android":"levelo://app?vid=1c3e85b2-6e33-439d-845b-2bbf0a1296d8","ios":"levelo://app?vid=1c3e85b2-6e33-439d-845b-2bbf0a1296d8"},"vehicle_type_id":"4","last_reported":1745086348,"current_range_meters":9600,"station_id":"ce4bhop2rcd13ifvqh8g","pricing_plan_id":"cebpf4jnsgd1na2vs0mg"},{"bike_id":"fad00337-7ff5-4cde-ae41-7324defc86f2","system_id":"levelo_inurba_marseille","lat":43.32352,"lon":5.36749,"is_reserved":false,"is_disabled":false,"rental_uris":{"android":"levelo://app?vid=fad00337-7ff5-4cde-ae41-7324defc86f2","ios":"levelo://app?vid=fad00337-7ff5-4cde-ae41-7324defc86f2"},"vehicle_type_id":"4","last_reported":1745086348,"current_range_meters":10000,"station_id":"ce4bhsh2rcd13ifvqi2g","pricing_plan_id":"cebpf4jnsgd1na2vs0mg"},{"bike_id":"22583896-a653-48d4-8b37-6cfca0e7be93","system_id":"levelo_inurba_marseille","lat":43.21209,"lon":5.35082,"is_reserved":false,"is_disabled":false,"rental_uris":{"android":"levelo://app?vid=22583896-a653-48d4-8b37-6cfca0e7be93","ios":"levelo://app?vid=22583896-a653-48d4-8b37-6cfca0e7be93"},"vehicle_type_id":"4","last_reported":1745086348,"current_range_meters":10000,"station_id":"st_cvj6sg6p6f1abm77japg","pricing_plan_id":"cebpf4jnsgd1na2vs0mg"},{"bike_id":"106c5265-7c1a-45be-9031-3c55f8880986","system_id":"levelo_inurba_marseille","lat":43.26224,"lon":5.37928,"is_reserved":false,"is_disabled":false,"rental_uris":{"android":"levelo://app?vid=106c5265-7c1a-45be-9031-3c55f8880986","ios":"levelo://app?vid=106c5265-7c1a-45be-9031-3c55f8880986"},"vehicle_type_id":"4","last_reported":1745086348,"current_range_meters":10800,"station_id":"ce4bhjp2rcd13ifvqg90","pricing_plan_id":"cebpf4jnsgd1na2vs0mg"},{"bike_id":"20aab713-b807-4cab-a272-9ffba5cba397","system_id":"levelo_inurba_marseille","lat":43.30286,"lon":5.38964,"is_reserved":false,"is_disabled":false,"rental_uris":{"android":"levelo://app?vid=20aab713-b807-4cab-a272-9ffba5cba397","ios":"levelo://app?vid=20aab713-b807-4cab-a272-9ffba5cba397"},"vehicle_type_id":"4","last_reported":1745086348,"current_range_meters":10800,"station_id":"","pricing_plan_id":"cebpf4jnsgd1na2vs0mg"},{"bike_id":"6b2a2f68-fd74-4a24-a495-23dd8d3467f4","system_id":"levelo_inurba_marseille","lat":43.2119,"lon":5.35074,"is_reserved":false,"is_disabled":false,"rental_uris":{"android":"levelo://app?vid=6b2a2f68-fd74-4a24-a495-23dd8d3467f4","ios":"levelo://app?vid=6b2a2f68-fd74-4a24-a495-23dd8d3467f4"},"vehicle_type_id":"4","last_reported":1745086348,"current_range_meters":10800,"station_id":"st_cvj6sg6p6f1abm77japg","pricing_plan_id":"cebpf4jnsgd1na2vs0mg"},{"bike_id":"36097500-7a80-4fd6-bda7-f4b6994c7b41","system_id":"levelo_inurba_marseille","lat":43.28607,"lon":5.37065,"is_reserved":false,"is_disabled":false,"rental_uris":{"android":"levelo://app?vid=36097500-7a80-4fd6-bda7-f4b6994c7b41","ios":"levelo://app?vid=36097500-7a80-4fd6-bda7-f4b6994c7b41"},"vehicle_type_id":"4","last_reported":1745086348,"current_range_meters":10800,"station_id":"ce4bht12rcd13ifvqi60","pricing_plan_id":"cebpf4jnsgd1na2vs0mg"},{"bike_id":"65659604-06e6-4ec4-bbca-e57398746585","system_id":"levelo_inurba_marseille","lat":43.28036,"lon":5.36941,"is_reserved":false,"is_disabled":false,"rental_uris":{"android":"levelo://app?vid=65659604-06e6-4ec4-bbca-e57398746585","ios":"levelo://app?vid=65659604-06e6-4ec4-bbca-e57398746585"},"vehicle_type_id":"4","last_reported":1745086348,"current_range_meters":10000,"station_id":"ce4bha12rcd13ifvqef0","pricing_plan_id":"cebpf4jnsgd1na2vs0mg"},{"bike_id":"261bafa0-ea85-4e31-a7f0-9c7adb247945","system_id":"levelo_inurba_marseille","lat":43.29295,"lon":5.37463,"is_reserved":false,"is_disabled":false,"rental_uris":{"android":"levelo://app?vid=261bafa0-ea85-4e31-a7f0-9c7adb247945","ios":"levelo://app?vid=261bafa0-ea85-4e31-a7f0-9c7adb247945"},"vehicle_type_id":"4","last_reported":1745086348,"current_range_meters":10000,"station_id":"ce4bgi12rcd13ifvqb70","pricing_plan_id":"cebpf4jnsgd1na2vs0mg"},{"bike_id":"be28d615-3a64-401b-866a-c0a83a3b3115","system_id":"levelo_inurba_marseille","lat":43.28154,"lon":5.42663,"is_reserved":false,"is_disabled":false,"rental_uris":{"android":"levelo://app?vid=be28d615-3a64-401b-866a-c0a83a3b3115","ios":"levelo://app?vid=be28d615-3a64-401b-866a-c0a83a3b3115"},"vehicle_type_id":"4","last_reported":1745086348,"current_range_meters":10800,"station_id":"ce4bhnh2rcd13ifvqgug","pricing_plan_id":"cebpf4jnsgd1na2vs0mg"},{"bike_id":"fa92f580-2327-4ee7-864e-c0cd5fbac1e0","system_id":"levelo_inurba_marseille","lat":43.279937,"lon":5.400237,"is_reserved":false,"is_disabled":false,"rental_uris":{"android":"levelo://app?vid=fa92f580-2327-4ee7-864e-c0cd5fbac1e0","ios":"levelo://app?vid=fa92f580-2327-4ee7-864e-c0cd5fbac1e0"},"vehicle_type_id":"4","last_reported":1745086348,"current_range_meters":10800,"station_id":"ce4bho92rcd13ifvqh4g","pricing_plan_id":"cebpf4jnsgd1na2vs0mg"},{"bike_id":"97e50bb0-9a70-481b-b370-e509345e710a","system_id":"levelo_inurba_marseille","lat":43.2804,"lon":5.36934,"is_reserved":false,"is_disabled":true,"rental_uris":{"android":"levelo://app?vid=97e50bb0-9a70-481b-b370-e509345e710a","ios":"levelo://app?vid=97e50bb0-9a70-481b-b370-e509345e710a"},"vehicle_type_id":"4","last_reported":1745086348,"current_range_meters":11200,"station_id":"ce4bha12rcd13ifvqef0","pricing_plan_id":"cebpf4jnsgd1na2vs0mg"},{"bike_id":"980cb583-5087-4d33-b528-9b56c30d9661","system_id":"levelo_inurba_marseille","lat":43.308,"lon":5.38142,"is_reserved":false,"is_disabled":false,"rental_uris":{"android":"levelo://app?vid=980cb583-5087-4d33-b528-9b56c30d9661","ios":"levelo://app?vid=980cb583-5087-4d33-b528-9b56c30d9661"},"vehicle_type_id":"4","last_reported":1745086348,"current_range_meters":11200,"station_id":"ce4bgt12rcd13ifvqce0","pricing_plan_id":"cebpf4jnsgd1na2vs0mg"},{"bike_id":"fc7807cb-5baf-4f18-a0b8-7d0eacd9d80d","system_id":"levelo_inurba_marseille","lat":43.32287,"lon":5.38272,"is_reserved":false,"is_disabled":false,"rental_uris":{"android":"levelo://app?vid=fc7807cb-5baf-4f18-a0b8-7d0eacd9d80d","ios":"levelo://app?vid=fc7807cb-5baf-4f18-a0b8-7d0eacd9d80d"},"vehicle_type_id":"4","last_reported":1745086348,"current_range_meters":11200,"station_id":"ce4bhr12rcd13ifvqhqg","pricing_plan_id":"cebpf4jnsgd1na2vs0mg"},{"bike_id":"f118ca28-90d9-41ac-8581-036a9abc2176","system_id":"levelo_inurba_marseille","lat":43.28854,"lon":5.39316,"is_reserved":false,"is_disabled":false,"rental_uris":{"android":"levelo://app?vid=f118ca28-90d9-41ac-8581-036a9abc2176","ios":"levelo://app?vid=f118ca28-90d9-41ac-8581-036a9abc2176"},"vehicle_type_id":"4","last_reported":1745086348,"current_range_meters":10800,"station_id":"ce4bh2p2rcd13ifvqdi0","pricing_plan_id":"cebpf4jnsgd1na2vs0mg"},{"bike_id":"f0b6af0d-1cbf-47a3-af07-dab09fabbbf0","system_id":"levelo_inurba_marseille","lat":43.23185,"lon":5.35562,"is_reserved":false,"is_disabled":false,"rental_uris":{"android":"levelo://app?vid=f0b6af0d-1cbf-47a3-af07-dab09fabbbf0","ios":"levelo://app?vid=f0b6af0d-1cbf-47a3-af07-dab09fabbbf0"},"vehicle_type_id":"4","last_reported":1745086348,"current_range_meters":11200,"station_id":"ce4bhu92rcd13ifvqi70","pricing_plan_id":"cebpf4jnsgd1na2vs0mg"},{"bike_id":"c11a9f76-3334-41a7-ae03-9fa13f95d6ec","system_id":"levelo_inurba_marseille","lat":43.26778,"lon":5.39418,"is_reserved":false,"is_disabled":false,"rental_uris":{"android":"levelo://app?vid=c11a9f76-3334-41a7-ae03-9fa13f95d6ec","ios":"levelo://app?vid=c11a9f76-3334-41a7-ae03-9fa13f95d6ec"},"vehicle_type_id":"4","last_reported":1745086348,"current_range_meters":11600,"station_id":"ce4bhh12rcd13ifvqfg0","pricing_plan_id":"cebpf4jnsgd1na2vs0mg"},{"bike_id":"a432f508-9e52-4419-aaba-cc01ee930ad0","system_id":"levelo_inurba_marseille","lat":43.31271,"lon":5.40171,"is_reserved":false,"is_disabled":false,"rental_uris":{"android":"levelo://app?vid=a432f508-9e52-4419-aaba-cc01ee930ad0","ios":"levelo://app?vid=a432f508-9e52-4419-aaba-cc01ee930ad0"},"vehicle_type_id":"4","last_reported":1745086348,"current_range_meters":11600,"station_id":"ce4bh092rcd13ifvqd30","pricing_plan_id":"cebpf4jnsgd1na2vs0mg"},{"bike_id":"94ac444a-53ce-46eb-87e7-658adef160b1","system_id":"levelo_inurba_marseille","lat":43.266832,"lon":5.382759,"is_reserved":false,"is_disabled":false,"rental_uris":{"android":"levelo://app?vid=94ac444a-53ce-46eb-87e7-658adef160b1","ios":"levelo://app?vid=94ac444a-53ce-46eb-87e7-658adef160b1"},"vehicle_type_id":"4","last_reported":1745086348,"current_range_meters":11200,"station_id":"ce4bhh92rcd13ifvqfh0","pricing_plan_id":"cebpf4jnsgd1na2vs0mg"},{"bike_id":"90e72bbc-8b90-4dc8-8f7b-dc9f9e090008","system_id":"levelo_inurba_marseille","lat":43.29198,"lon":5.35806,"is_reserved":false,"is_disabled":false,"rental_uris":{"android":"levelo://app?vid=90e72bbc-8b90-4dc8-8f7b-dc9f9e090008","ios":"levelo://app?vid=90e72bbc-8b90-4dc8-8f7b-dc9f9e090008"},"vehicle_type_id":"4","last_reported":1745086348,"current_range_meters":11200,"station_id":"ce4bhb12rcd13ifvqel0","pricing_plan_id":"cebpf4jnsgd1na2vs0mg"},{"bike_id":"67a502b8-32fc-4cc9-99c9-36c78e5909c4","system_id":"levelo_inurba_marseille","lat":43.27314,"lon":5.39088,"is_reserved":false,"is_disabled":false,"rental_uris":{"android":"levelo://app?vid=67a502b8-32fc-4cc9-99c9-36c78e5909c4","ios":"levelo://app?vid=67a502b8-32fc-4cc9-99c9-36c78e5909c4"},"vehicle_type_id":"4","last_reported":1745086348,"current_range_meters":11600,"station_id":"ce4bhgp2rcd13ifvqfe0","pricing_plan_id":"cebpf4jnsgd1na2vs0mg"},{"bike_id":"d3453b1c-57a4-4b9f-b2cf-b96e890d08ff","system_id":"levelo_inurba_marseille","lat":43.2603,"lon":5.37556,"is_reserved":false,"is_disabled":false,"rental_uris":{"android":"levelo://app?vid=d3453b1c-57a4-4b9f-b2cf-b96e890d08ff","ios":"levelo://app?vid=d3453b1c-57a4-4b9f-b2cf-b96e890d08ff"},"vehicle_type_id":"4","last_reported":1745086348,"current_range_meters":11200,"station_id":"ce4bhgh2rcd13ifvqfa0","pricing_plan_id":"cebpf4jnsgd1na2vs0mg"},{"bike_id":"759807e7-891a-40ba-a1b2-548b43c64540","system_id":"levelo_inurba_marseille","lat":43.29907,"lon":5.38148,"is_reserved":false,"is_disabled":false,"rental_uris":{"android":"levelo://app?vid=759807e7-891a-40ba-a1b2-548b43c64540","ios":"levelo://app?vid=759807e7-891a-40ba-a1b2-548b43c64540"},"vehicle_type_id":"4","last_reported":1745086348,"current_range_meters":11600,"station_id":"ce4bgj12rcd13ifvqbc0","pricing_plan_id":"cebpf4jnsgd1na2vs0mg"},{"bike_id":"83ed55dd-2a9f-43ca-b7a5-b542a62a37ed","system_id":"levelo_inurba_marseille","lat":43.31074,"lon":5.38351,"is_reserved":false,"is_disabled":false,"rental_uris":{"android":"levelo://app?vid=83ed55dd-2a9f-43ca-b7a5-b542a62a37ed","ios":"levelo://app?vid=83ed55dd-2a9f-43ca-b7a5-b542a62a37ed"},"vehicle_type_id":"4","last_reported":1745086348,"current_range_meters":12000,"station_id":"ce4bgv92rcd13ifvqcr0","pricing_plan_id":"cebpf4jnsgd1na2vs0mg"},{"bike_id":"3c5aa8a9-bf98-4673-8d48-f4864da13319","system_id":"levelo_inurba_marseille","lat":43.27318,"lon":5.391,"is_reserved":false,"is_disabled":false,"rental_uris":{"android":"levelo://app?vid=3c5aa8a9-bf98-4673-8d48-f4864da13319","ios":"levelo://app?vid=3c5aa8a9-bf98-4673-8d48-f4864da13319"},"vehicle_type_id":"4","last_reported":1745086348,"current_range_meters":12000,"station_id":"ce4bhgp2rcd13ifvqfe0","pricing_plan_id":"cebpf4jnsgd1na2vs0mg"},{"bike_id":"666c312c-792f-4708-833d-ab7d04e4a464","system_id":"levelo_inurba_marseille","lat":43.29867,"lon":5.39733,"is_reserved":false,"is_disabled":false,"rental_uris":{"android":"levelo://app?vid=666c312c-792f-4708-833d-ab7d04e4a464","ios":"levelo://app?vid=666c312c-792f-4708-833d-ab7d04e4a464"},"vehicle_type_id":"4","last_reported":1745086348,"current_range_meters":12000,"station_id":"ce4bh0h2rcd13ifvqd50","pricing_plan_id":"cebpf4jnsgd1na2vs0mg"},{"bike_id":"94c96acf-d5ce-4ff3-be5e-3577fe19e91c","system_id":"levelo_inurba_marseille","lat":43.29433,"lon":5.3974,"is_reserved":false,"is_disabled":false,"rental_uris":{"android":"levelo://app?vid=94c96acf-d5ce-4ff3-be5e-3577fe19e91c","ios":"levelo://app?vid=94c96acf-d5ce-4ff3-be5e-3577fe19e91c"},"vehicle_type_id":"4","last_reported":1745086348,"current_range_meters":11600,"station_id":"ce4bh3h2rcd13ifvqdo0","pricing_plan_id":"cebpf4jnsgd1na2vs0mg"},{"bike_id":"f97c8d77-52f4-4207-9c9a-f76db31cbf17","system_id":"levelo_inurba_marseille","lat":43.31703,"lon":5.3776,"is_reserved":false,"is_disabled":false,"rental_uris":{"android":"levelo://app?vid=f97c8d77-52f4-4207-9c9a-f76db31cbf17","ios":"levelo://app?vid=f97c8d77-52f4-4207-9c9a-f76db31cbf17"},"vehicle_type_id":"4","last_reported":1745086348,"current_range_meters":11600,"station_id":"ce4bgth2rcd13ifvqch0","pricing_plan_id":"cebpf4jnsgd1na2vs0mg"},{"bike_id":"51be52bd-618f-4a02-b920-180220e3e1ef","system_id":"levelo_inurba_marseille","lat":43.28971,"lon":5.37831,"is_reserved":false,"is_disabled":false,"rental_uris":{"android":"levelo://app?vid=51be52bd-618f-4a02-b920-180220e3e1ef","ios":"levelo://app?vid=51be52bd-618f-4a02-b920-180220e3e1ef"},"vehicle_type_id":"4","last_reported":1745086348,"current_range_meters":12000,"station_id":"ce4bh9p2rcd13ifvqed0","pricing_plan_id":"cebpf4jnsgd1na2vs0mg"},{"bike_id":"740f57d4-48e7-4544-819b-f2c0a05516ba","system_id":"levelo_inurba_marseille","lat":43.29255,"lon":5.38435,"is_reserved":false,"is_disabled":false,"rental_uris":{"android":"levelo://app?vid=740f57d4-48e7-4544-819b-f2c0a05516ba","ios":"levelo://app?vid=740f57d4-48e7-4544-819b-f2c0a05516ba"},"vehicle_type_id":"4","last_reported":1745086348,"current_range_meters":12000,"station_id":"ce4bh692rcd13ifvqea0","pricing_plan_id":"cebpf4jnsgd1na2vs0mg"},{"bike_id":"6565ca44-2e63-4f42-a847-09fa2bdb37f3","system_id":"levelo_inurba_marseille","lat":43.31994,"lon":5.38159,"is_reserved":false,"is_disabled":true,"rental_uris":{"android":"levelo://app?vid=6565ca44-2e63-4f42-a847-09fa2bdb37f3","ios":"levelo://app?vid=6565ca44-2e63-4f42-a847-09fa2bdb37f3"},"vehicle_type_id":"4","last_reported":1745086348,"current_range_meters":12000,"station_id":"ce4bhr12rcd13ifvqhpg","pricing_plan_id":"cebpf4jnsgd1na2vs0mg"},{"bike_id":"31eae2b5-50e4-459b-b66f-bb1bde9ee46e","system_id":"levelo_inurba_marseille","lat":43.28299,"lon":5.37451,"is_reserved":false,"is_disabled":false,"rental_uris":{"android":"levelo://app?vid=31eae2b5-50e4-459b-b66f-bb1bde9ee46e","ios":"levelo://app?vid=31eae2b5-50e4-459b-b66f-bb1bde9ee46e"},"vehicle_type_id":"4","last_reported":1745086348,"current_range_meters":12000,"station_id":"ce4bh3p2rcd13ifvqdq0","pricing_plan_id":"cebpf4jnsgd1na2vs0mg"},{"bike_id":"4500bcf7-bacd-47ce-8256-01f941bfb534","system_id":"levelo_inurba_marseille","lat":43.29526,"lon":5.37493,"is_reserved":false,"is_disabled":true,"rental_uris":{"android":"levelo://app?vid=4500bcf7-bacd-47ce-8256-01f941bfb534","ios":"levelo://app?vid=4500bcf7-bacd-47ce-8256-01f941bfb534"},"vehicle_type_id":"4","last_reported":1745086348,"current_range_meters":12400,"station_id":"ce4bgkp2rcd13ifvqbmg","pricing_plan_id":"cebpf4jnsgd1na2vs0mg"},{"bike_id":"159135a4-70b6-416a-b9c4-fec53147e6f2","system_id":"levelo_inurba_marseille","lat":43.29522,"lon":5.39045,"is_reserved":false,"is_disabled":false,"rental_uris":{"android":"levelo://app?vid=159135a4-70b6-416a-b9c4-fec53147e6f2","ios":"levelo://app?vid=159135a4-70b6-416a-b9c4-fec53147e6f2"},"vehicle_type_id":"4","last_reported":1745086348,"current_range_meters":12400,"station_id":"ce4bh3p2rcd13ifvqdp0","pricing_plan_id":"cebpf4jnsgd1na2vs0mg"},{"bike_id":"24213b37-b766-4d9c-a174-f6bf34920497","system_id":"levelo_inurba_marseille","lat":43.28469,"lon":5.384178,"is_reserved":false,"is_disabled":false,"rental_uris":{"android":"levelo://app?vid=24213b37-b766-4d9c-a174-f6bf34920497","ios":"levelo://app?vid=24213b37-b766-4d9c-a174-f6bf34920497"},"vehicle_type_id":"4","last_reported":1745086348,"current_range_meters":12400,"station_id":"ce4bh512rcd13ifvqe3g","pricing_plan_id":"cebpf4jnsgd1na2vs0mg"},{"bike_id":"11038eae-611e-4a89-a1df-25bf52e00fd7","system_id":"levelo_inurba_marseille","lat":43.30128,"lon":5.38787,"is_reserved":false,"is_disabled":false,"rental_uris":{"android":"levelo://app?vid=11038eae-611e-4a89-a1df-25bf52e00fd7","ios":"levelo://app?vid=11038eae-611e-4a89-a1df-25bf52e00fd7"},"vehicle_type_id":"4","last_reported":1745086348,"current_range_meters":12400,"station_id":"ce4bghh2rcd13ifvqb60","pricing_plan_id":"cebpf4jnsgd1na2vs0mg"},{"bike_id":"7d323065-06fa-4916-b3fc-bddf80757007","system_id":"levelo_inurba_marseille","lat":43.29369,"lon":5.37853,"is_reserved":false,"is_disabled":false,"rental_uris":{"android":"levelo://app?vid=7d323065-06fa-4916-b3fc-bddf80757007","ios":"levelo://app?vid=7d323065-06fa-4916-b3fc-bddf80757007"},"vehicle_type_id":"4","last_reported":1745086348,"current_range_meters":12400,"station_id":"ce4bgjh2rcd13ifvqbf0","pricing_plan_id":"cebpf4jnsgd1na2vs0mg"},{"bike_id":"4e6892ef-dbe3-43e4-bc69-b2da5d802c90","system_id":"levelo_inurba_marseille","lat":43.27397,"lon":5.36267,"is_reserved":false,"is_disabled":true,"rental_uris":{"android":"levelo://app?vid=4e6892ef-dbe3-43e4-bc69-b2da5d802c90","ios":"levelo://app?vid=4e6892ef-dbe3-43e4-bc69-b2da5d802c90"},"vehicle_type_id":"4","last_reported":1745086348,"current_range_meters":12800,"station_id":"ce4bhbh2rcd13ifvqeo0","pricing_plan_id":"cebpf4jnsgd1na2vs0mg"},{"bike_id":"f970c391-3d68-4ffb-91b3-5dbb9dd22fa0","system_id":"levelo_inurba_marseille","lat":43.29607,"lon":5.38098,"is_reserved":false,"is_disabled":false,"rental_uris":{"android":"levelo://app?vid=f970c391-3d68-4ffb-91b3-5dbb9dd22fa0","ios":"levelo://app?vid=f970c391-3d68-4ffb-91b3-5dbb9dd22fa0"},"vehicle_type_id":"4","last_reported":1745086348,"current_range_meters":12800,"station_id":"ce4bgl12rcd13ifvqbo0","pricing_plan_id":"cebpf4jnsgd1na2vs0mg"},{"bike_id":"0ba054a9-723a-4bcc-9f52-cd6be44303ac","system_id":"levelo_inurba_marseille","lat":43.31324,"lon":5.39689,"is_reserved":false,"is_disabled":false,"rental_uris":{"android":"levelo://app?vid=0ba054a9-723a-4bcc-9f52-cd6be44303ac","ios":"levelo://app?vid=0ba054a9-723a-4bcc-9f52-cd6be44303ac"},"vehicle_type_id":"4","last_reported":1745086348,"current_range_meters":12800,"station_id":"ce4bgvp2rcd13ifvqcu0","pricing_plan_id":"cebpf4jnsgd1na2vs0mg"},{"bike_id":"b952d040-cc38-4156-a2c9-f8050ce56d65","system_id":"levelo_inurba_marseille","lat":43.28607,"lon":5.37066,"is_reserved":false,"is_disabled":false,"rental_uris":{"android":"levelo://app?vid=b952d040-cc38-4156-a2c9-f8050ce56d65","ios":"levelo://app?vid=b952d040-cc38-4156-a2c9-f8050ce56d65"},"vehicle_type_id":"4","last_reported":1745086348,"current_range_meters":12800,"station_id":"ce4bht12rcd13ifvqi60","pricing_plan_id":"cebpf4jnsgd1na2vs0mg"},{"bike_id":"49a1d797-b941-4171-af94-57eb3416bda4","system_id":"levelo_inurba_marseille","lat":43.30806,"lon":5.43523,"is_reserved":false,"is_disabled":false,"rental_uris":{"android":"levelo://app?vid=49a1d797-b941-4171-af94-57eb3416bda4","ios":"levelo://app?vid=49a1d797-b941-4171-af94-57eb3416bda4"},"vehicle_type_id":"4","last_reported":1745086348,"current_range_meters":12800,"station_id":"ce4bhph2rcd13ifvqheg","pricing_plan_id":"cebpf4jnsgd1na2vs0mg"},{"bike_id":"57b37f9a-e27e-4a78-8757-3403b83b809e","system_id":"levelo_inurba_marseille","lat":43.2318,"lon":5.39987,"is_reserved":false,"is_disabled":false,"rental_uris":{"android":"levelo://app?vid=57b37f9a-e27e-4a78-8757-3403b83b809e","ios":"levelo://app?vid=57b37f9a-e27e-4a78-8757-3403b83b809e"},"vehicle_type_id":"4","last_reported":1745086348,"current_range_meters":12800,"station_id":"ce4bhn12rcd13ifvqgqg","pricing_plan_id":"cebpf4jnsgd1na2vs0mg"},{"bike_id":"1324d1bb-228a-4d36-af92-b2e026be3edf","system_id":"levelo_inurba_marseille","lat":43.290332,"lon":5.375656,"is_reserved":false,"is_disabled":false,"rental_uris":{"android":"levelo://app?vid=1324d1bb-228a-4d36-af92-b2e026be3edf","ios":"levelo://app?vid=1324d1bb-228a-4d36-af92-b2e026be3edf"},"vehicle_type_id":"4","last_reported":1745086348,"current_range_meters":12800,"station_id":"ce4bh692rcd13ifvqe90","pricing_plan_id":"cebpf4jnsgd1na2vs0mg"},{"bike_id":"97608968-192f-401a-bb03-2f393f53d9a4","system_id":"levelo_inurba_marseille","lat":43.28164,"lon":5.42646,"is_reserved":false,"is_disabled":false,"rental_uris":{"android":"levelo://app?vid=97608968-192f-401a-bb03-2f393f53d9a4","ios":"levelo://app?vid=97608968-192f-401a-bb03-2f393f53d9a4"},"vehicle_type_id":"4","last_reported":1745086348,"current_range_meters":12800,"station_id":"ce4bhnh2rcd13ifvqgug","pricing_plan_id":"cebpf4jnsgd1na2vs0mg"},{"bike_id":"39ea1cb7-703d-4a10-8797-2313f4c86418","system_id":"levelo_inurba_marseille","lat":43.27908,"lon":5.3959,"is_reserved":false,"is_disabled":false,"rental_uris":{"android":"levelo://app?vid=39ea1cb7-703d-4a10-8797-2313f4c86418","ios":"levelo://app?vid=39ea1cb7-703d-4a10-8797-2313f4c86418"},"vehicle_type_id":"4","last_reported":1745086348,"current_range_meters":12800,"station_id":"ce4bhf92rcd13ifvqf40","pricing_plan_id":"cebpf4jnsgd1na2vs0mg"},{"bike_id":"08a6bde6-0e81-4f98-89e2-d5a0a4899802","system_id":"levelo_inurba_marseille","lat":43.33113,"lon":5.38487,"is_reserved":false,"is_disabled":false,"rental_uris":{"android":"levelo://app?vid=08a6bde6-0e81-4f98-89e2-d5a0a4899802","ios":"levelo://app?vid=08a6bde6-0e81-4f98-89e2-d5a0a4899802"},"vehicle_type_id":"4","last_reported":1745086348,"current_range_meters":12800,"station_id":"","pricing_plan_id":"cebpf4jnsgd1na2vs0mg"},{"bike_id":"4b44bcc4-7340-4196-9d80-e6b8c8ef283e","system_id":"levelo_inurba_marseille","lat":43.296053,"lon":5.38105,"is_reserved":false,"is_disabled":false,"rental_uris":{"android":"levelo://app?vid=4b44bcc4-7340-4196-9d80-e6b8c8ef283e","ios":"levelo://app?vid=4b44bcc4-7340-4196-9d80-e6b8c8ef283e"},"vehicle_type_id":"4","last_reported":1745086348,"current_range_meters":12800,"station_id":"ce4bgl12rcd13ifvqbo0","pricing_plan_id":"cebpf4jnsgd1na2vs0mg"},{"bike_id":"02771de0-1903-43f7-8cc2-def7121e4cad","system_id":"levelo_inurba_marseille","lat":43.28035,"lon":5.36938,"is_reserved":false,"is_disabled":false,"rental_uris":{"android":"levelo://app?vid=02771de0-1903-43f7-8cc2-def7121e4cad","ios":"levelo://app?vid=02771de0-1903-43f7-8cc2-def7121e4cad"},"vehicle_type_id":"4","last_reported":1745086348,"current_range_meters":12800,"station_id":"ce4bha12rcd13ifvqef0","pricing_plan_id":"cebpf4jnsgd1na2vs0mg"},{"bike_id":"386c0466-92a0-4b14-84ad-ceae0ada9e40","system_id":"levelo_inurba_marseille","lat":43.3089,"lon":5.36857,"is_reserved":false,"is_disabled":true,"rental_uris":{"android":"levelo://app?vid=386c0466-92a0-4b14-84ad-ceae0ada9e40","ios":"levelo://app?vid=386c0466-92a0-4b14-84ad-ceae0ada9e40"},"vehicle_type_id":"4","last_reported":1745086348,"current_range_meters":13600,"station_id":"ce4bgn92rcd13ifvqbvg","pricing_plan_id":"cebpf4jnsgd1na2vs0mg"},{"bike_id":"527fac75-0783-4b2c-bd4e-07f2f2fee902","system_id":"levelo_inurba_marseille","lat":43.31127,"lon":5.37786,"is_reserved":false,"is_disabled":true,"rental_uris":{"android":"levelo://app?vid=527fac75-0783-4b2c-bd4e-07f2f2fee902","ios":"levelo://app?vid=527fac75-0783-4b2c-bd4e-07f2f2fee902"},"vehicle_type_id":"4","last_reported":1745086348,"current_range_meters":13600,"station_id":"ce4bgt92rcd13ifvqcg0","pricing_plan_id":"cebpf4jnsgd1na2vs0mg"},{"bike_id":"cc380b94-ca88-4574-9044-2a05f0049c9b","system_id":"levelo_inurba_marseille","lat":43.29633,"lon":5.37735,"is_reserved":false,"is_disabled":false,"rental_uris":{"android":"levelo://app?vid=cc380b94-ca88-4574-9044-2a05f0049c9b","ios":"levelo://app?vid=cc380b94-ca88-4574-9044-2a05f0049c9b"},"vehicle_type_id":"4","last_reported":1745086348,"current_range_meters":13600,"station_id":"ce4bgi92rcd13ifvqb90","pricing_plan_id":"cebpf4jnsgd1na2vs0mg"},{"bike_id":"5edd5aff-2ad6-4705-9003-1c59111a63fe","system_id":"levelo_inurba_marseille","lat":43.30935,"lon":5.40144,"is_reserved":false,"is_disabled":false,"rental_uris":{"android":"levelo://app?vid=5edd5aff-2ad6-4705-9003-1c59111a63fe","ios":"levelo://app?vid=5edd5aff-2ad6-4705-9003-1c59111a63fe"},"vehicle_type_id":"4","last_reported":1745086348,"current_range_meters":13600,"station_id":"ce4bgvp2rcd13ifvqct0","pricing_plan_id":"cebpf4jnsgd1na2vs0mg"},{"bike_id":"a7365d94-3c13-45f7-8410-092b80c6163d","system_id":"levelo_inurba_marseille","lat":43.28408,"lon":5.37514,"is_reserved":false,"is_disabled":true,"rental_uris":{"android":"levelo://app?vid=a7365d94-3c13-45f7-8410-092b80c6163d","ios":"levelo://app?vid=a7365d94-3c13-45f7-8410-092b80c6163d"},"vehicle_type_id":"4","last_reported":1745086348,"current_range_meters":13600,"station_id":"ce4bh412rcd13ifvqds0","pricing_plan_id":"cebpf4jnsgd1na2vs0mg"},{"bike_id":"6eb9d6ab-0f5c-4503-a6a4-b463c1c6b0ce","system_id":"levelo_inurba_marseille","lat":43.27323,"lon":5.39072,"is_reserved":false,"is_disabled":false,"rental_uris":{"android":"levelo://app?vid=6eb9d6ab-0f5c-4503-a6a4-b463c1c6b0ce","ios":"levelo://app?vid=6eb9d6ab-0f5c-4503-a6a4-b463c1c6b0ce"},"vehicle_type_id":"4","last_reported":1745086348,"current_range_meters":14000,"station_id":"ce4bhgp2rcd13ifvqfe0","pricing_plan_id":"cebpf4jnsgd1na2vs0mg"},{"bike_id":"c6eb518d-f8e2-4c5c-8098-b5d751548fcd","system_id":"levelo_inurba_marseille","lat":43.2594,"lon":5.40892,"is_reserved":false,"is_disabled":false,"rental_uris":{"android":"levelo://app?vid=c6eb518d-f8e2-4c5c-8098-b5d751548fcd","ios":"levelo://app?vid=c6eb518d-f8e2-4c5c-8098-b5d751548fcd"},"vehicle_type_id":"4","last_reported":1745086348,"current_range_meters":14000,"station_id":"ce4bhm92rcd13ifvqglg","pricing_plan_id":"cebpf4jnsgd1na2vs0mg"},{"bike_id":"dbd1dbb2-58a4-4e20-839d-2a9063da88ef","system_id":"levelo_inurba_marseille","lat":43.32284,"lon":5.38272,"is_reserved":false,"is_disabled":false,"rental_uris":{"android":"levelo://app?vid=dbd1dbb2-58a4-4e20-839d-2a9063da88ef","ios":"levelo://app?vid=dbd1dbb2-58a4-4e20-839d-2a9063da88ef"},"vehicle_type_id":"4","last_reported":1745086348,"current_range_meters":13600,"station_id":"ce4bhr12rcd13ifvqhqg","pricing_plan_id":"cebpf4jnsgd1na2vs0mg"},{"bike_id":"b9f455ab-fc9f-4d4d-b14c-3871018155a9","system_id":"levelo_inurba_marseille","lat":43.29236,"lon":5.36083,"is_reserved":false,"is_disabled":false,"rental_uris":{"android":"levelo://app?vid=b9f455ab-fc9f-4d4d-b14c-3871018155a9","ios":"levelo://app?vid=b9f455ab-fc9f-4d4d-b14c-3871018155a9"},"vehicle_type_id":"4","last_reported":1745086348,"current_range_meters":14000,"station_id":"ce4bhbh2rcd13ifvqeqg","pricing_plan_id":"cebpf4jnsgd1na2vs0mg"},{"bike_id":"00879c1d-a962-4133-ba5d-8de0f524e6f5","system_id":"levelo_inurba_marseille","lat":43.27494,"lon":5.42455,"is_reserved":false,"is_disabled":false,"rental_uris":{"android":"levelo://app?vid=00879c1d-a962-4133-ba5d-8de0f524e6f5","ios":"levelo://app?vid=00879c1d-a962-4133-ba5d-8de0f524e6f5"},"vehicle_type_id":"4","last_reported":1745086348,"current_range_meters":14000,"station_id":"ce4bhn92rcd13ifvqgrg","pricing_plan_id":"cebpf4jnsgd1na2vs0mg"},{"bike_id":"abf419e1-7264-46bb-b826-5dbf52a22483","system_id":"levelo_inurba_marseille","lat":43.26949,"lon":5.38644,"is_reserved":false,"is_disabled":false,"rental_uris":{"android":"levelo://app?vid=abf419e1-7264-46bb-b826-5dbf52a22483","ios":"levelo://app?vid=abf419e1-7264-46bb-b826-5dbf52a22483"},"vehicle_type_id":"4","last_reported":1745086348,"current_range_meters":14400,"station_id":"ce4bhh92rcd13ifvqfh0","pricing_plan_id":"cebpf4jnsgd1na2vs0mg"},{"bike_id":"3cd9c5a8-9c86-4314-951d-926dcb6fbdd8","system_id":"levelo_inurba_marseille","lat":43.30933,"lon":5.40134,"is_reserved":false,"is_disabled":false,"rental_uris":{"android":"levelo://app?vid=3cd9c5a8-9c86-4314-951d-926dcb6fbdd8","ios":"levelo://app?vid=3cd9c5a8-9c86-4314-951d-926dcb6fbdd8"},"vehicle_type_id":"4","last_reported":1745086348,"current_range_meters":14000,"station_id":"ce4bgvp2rcd13ifvqct0","pricing_plan_id":"cebpf4jnsgd1na2vs0mg"},{"bike_id":"8cc3fa1a-fe07-46ae-bd61-fd89e487b1da","system_id":"levelo_inurba_marseille","lat":43.27171,"lon":5.40991,"is_reserved":false,"is_disabled":false,"rental_uris":{"android":"levelo://app?vid=8cc3fa1a-fe07-46ae-bd61-fd89e487b1da","ios":"levelo://app?vid=8cc3fa1a-fe07-46ae-bd61-fd89e487b1da"},"vehicle_type_id":"4","last_reported":1745086348,"current_range_meters":14000,"station_id":"ce4bhl12rcd13ifvqgf0","pricing_plan_id":"cebpf4jnsgd1na2vs0mg"},{"bike_id":"27c942e7-d340-46c1-8cfd-de5ed024e54d","system_id":"levelo_inurba_marseille","lat":43.290371,"lon":5.399654,"is_reserved":false,"is_disabled":false,"rental_uris":{"android":"levelo://app?vid=27c942e7-d340-46c1-8cfd-de5ed024e54d","ios":"levelo://app?vid=27c942e7-d340-46c1-8cfd-de5ed024e54d"},"vehicle_type_id":"4","last_reported":1745086348,"current_range_meters":14000,"station_id":"ce4bhlh2rcd13ifvqgig","pricing_plan_id":"cebpf4jnsgd1na2vs0mg"},{"bike_id":"8bcad795-29e6-4c20-8efc-cff1a990e354","system_id":"levelo_inurba_marseille","lat":43.298013,"lon":5.381061,"is_reserved":false,"is_disabled":false,"rental_uris":{"android":"levelo://app?vid=8bcad795-29e6-4c20-8efc-cff1a990e354","ios":"levelo://app?vid=8bcad795-29e6-4c20-8efc-cff1a990e354"},"vehicle_type_id":"4","last_reported":1745086348,"current_range_meters":14400,"station_id":"ce4bgip2rcd13ifvqbb0","pricing_plan_id":"cebpf4jnsgd1na2vs0mg"},{"bike_id":"1d099a50-c496-4fae-a084-cfdee3af71b7","system_id":"levelo_inurba_marseille","lat":43.28355,"lon":5.38103,"is_reserved":false,"is_disabled":false,"rental_uris":{"android":"levelo://app?vid=1d099a50-c496-4fae-a084-cfdee3af71b7","ios":"levelo://app?vid=1d099a50-c496-4fae-a084-cfdee3af71b7"},"vehicle_type_id":"4","last_reported":1745086348,"current_range_meters":14400,"station_id":"ce4bh412rcd13ifvqdr0","pricing_plan_id":"cebpf4jnsgd1na2vs0mg"},