{"last_updated":1736161645,"ttl":60,"version":"2.2","data":{"bikes":[{"bike_id":"dac6d463-fb57-4a19-8c5c-55d8a85c731d","system_id":"levelo_inurba_marseille","lat":43.3054,"lon":5.36539,"is_reserved":false,"is_disabled":false,"rental_uris":{"android":"levelo://app?vid=dac6d463-fb57-4a19-8c5c-55d8a85c731d","ios":"levelo://app?vid=dac6d463-fb57-4a19-8c5c-55d8a85c731d"},"vehicle_type_id":"4","last_reported":1736161646,"current_range_meters":39200,"station_id":"ce4bgs12rcd13ifvqcag","pricing_plan_id":"cebpf4jnsgd1na2vs0mg"},{"bike_id":"8f29603c-5d9a-4bc6-963d-711ada2a168a","system_id":"levelo_inurba_marseille","lat":43.24711,"lon":5.39862,"is_reserved":false,"is_disabled":true,"rental_uris":{"android":"levelo://app?vid=8f29603c-5d9a-4bc6-963d-711ada2a168a","ios":"levelo://app?vid=8f29603c-5d9a-4bc6-963d-711ada2a168a"},"vehicle_type_id":"4","last_reported":1736161646,"current_range_meters":20800,"station_id":"","pricing_plan_id":"cebpf4jnsgd1na2vs0mg"},{"bike_id":"10713e37-afc7-43d1-b51d-2b4416e38ed1","system_id":"levelo_inurba_marseille","lat":43.28708,"lon":5.40056,"is_reserved":false,"is_disabled":true,"rental_uris":{"android":"levelo://app?vid=10713e37-afc7-43d1-b51d-2b4416e38ed1","ios":"levelo://app?vid=10713e37-afc7-43d1-b51d-2b4416e38ed1"},"vehicle_type_id":"4","last_reported":1736161646,"current_range_meters":38400,"station_id":"ce4bho92rcd13ifvqh3g","pricing_plan_id":"cebpf4jnsgd1na2vs0mg"},{"bike_id":"e98989a0-dc89-4989-9e20-edd91030c33c","system_id":"levelo_inurba_marseille","lat":43.3013,"lon":5.38104,"is_reserved":false,"is_disabled":false,"rental_uris":{"android":"levelo://app?vid=e98989a0-dc89-4989-9e20-edd91030c33c","ios":"levelo://app?vid=e98989a0-dc89-4989-9e20-edd91030c33c"},"vehicle_type_id":"4","last_reported":1736161646,"current_range_meters":39200,"station_id":"ce4bgjp2rcd13ifvqbh0","pricing_plan_id":"cebpf4jnsgd1na2vs0mg"},{"bike_id":"bee3fb50-6c75-451f-87bd-a5472587eeb3","system_id":"levelo_inurba_marseille","lat":43.28708,"lon":5.37949,"is_reserved":false,"is_disabled":false,"rental_uris":{"android":"levelo://app?vid=bee3fb50-6c75-451f-87bd-a5472587eeb3","ios":"levelo://app?vid=bee3fb50-6c75-451f-87bd-a5472587eeb3"},"vehicle_type_id":"4","last_reported":1736161646,"current_range_meters":24800,"station_id":"ce4bh9p2rcd13ifvqec0","pricing_plan_id":"cebpf4jnsgd1na2vs0mg"},{"bike_id":"e6e04223-7392-4eda-8306-7771efe8f77c","system_id":"levelo_inurba_marseille","lat":43.31382,"lon":5.36688,"is_reserved":false,"is_disabled":false,"rental_uris":{"android":"levelo://app?vid=e6e04223-7392-4eda-8306-7771efe8f77c","ios":"levelo://app?vid=e6e04223-7392-4eda-8306-7771efe8f77c"},"vehicle_type_id":"4","last_reported":1736161646,"current_range_meters":38800,"station_id":"ce4bgr92rcd13ifvqc6g","pricing_plan_id":"cebpf4jnsgd1na2vs0mg"},{"bike_id":"82f78cf6-11db-4953-b9c6-e25c1736a532","system_id":"levelo_inurba_marseille","lat":43.30534,"lon":5.36715,"is_reserved":false,"is_disabled":false,"rental_uris":{"android":"levelo://app?vid=82f78cf6-11db-4953-b9c6-e25c1736a532","ios":"levelo://app?vid=82f78cf6-11db-4953-b9c6-e25c1736a532"},"vehicle_type_id":"4","last_reported":1736161646,"current_range_meters":38800,"station_id":"ce4bgrp2rcd13ifvqc9g","pricing_plan_id":"cebpf4jnsgd1na2vs0mg"},{"bike_id":"5dc11390-059b-4136-9f1a-189200cf304c","system_id":"levelo_inurba_marseille","lat":43.29933,"lon":5.36548,"is_reserved":false,"is_disabled":false,"rental_uris":{"android":"levelo://app?vid=5dc11390-059b-4136-9f1a-189200cf304c","ios":"levelo://app?vid=5dc11390-059b-4136-9f1a-189200cf304c"},"vehicle_type_id":"4","last_reported":1736161646,"current_range_meters":38000,"station_id":"ce4bgm92rcd13ifvqbr0","pricing_plan_id":"cebpf4jnsgd1na2vs0mg"},{"bike_id":"0153ae28-9422-4039-87f8-952c80b8c9cc","system_id":"levelo_inurba_marseille","lat":43.27297,"lon":5.39127,"is_reserved":false,"is_disabled":true,"rental_uris":{"android":"levelo://app?vid=0153ae28-9422-4039-87f8-952c80b8c9cc","ios":"levelo://app?vid=0153ae28-9422-4039-87f8-952c80b8c9cc"},"vehicle_type_id":"4","last_reported":1736161646,"current_range_meters":36800,"station_id":"ce4bhgp2rcd13ifvqfe0","pricing_plan_id":"cebpf4jnsgd1na2vs0mg"},{"bike_id":"1194b155-5052-4b8f-8ec1-c2427b415b39","system_id":"levelo_inurba_marseille","lat":43.29574,"lon":5.39983,"is_reserved":false,"is_disabled":false,"rental_uris":{"android":"levelo://app?vid=1194b155-5052-4b8f-8ec1-c2427b415b39","ios":"levelo://app?vid=1194b155-5052-4b8f-8ec1-c2427b415b39"},"vehicle_type_id":"4","last_reported":1736161646,"current_range_meters":26000,"station_id":"ce4bh312rcd13ifvqdj0","pricing_plan_id":"cebpf4jnsgd1na2vs0mg"},{"bike_id":"bcf0bc77-feb4-4e25-93da-4721812265a5","system_id":"levelo_inurba_marseille","lat":43.298424,"lon":5.362799,"is_reserved":false,"is_disabled":false,"rental_uris":{"android":"levelo://app?vid=bcf0bc77-feb4-4e25-93da-4721812265a5","ios":"levelo://app?vid=bcf0bc77-feb4-4e25-93da-4721812265a5"},"vehicle_type_id":"4","last_reported":1736161646,"current_range_meters":38000,"station_id":"ce4bgpp2rcd13ifvqc3g","pricing_plan_id":"cebpf4jnsgd1na2vs0mg"},{"bike_id":"aa3d4a6d-1203-4d0c-85b4-452c0e9a57b3","system_id":"levelo_inurba_marseille","lat":43.27933,"lon":5.41042,"is_reserved":false,"is_disabled":false,"rental_uris":{"android":"levelo://app?vid=aa3d4a6d-1203-4d0c-85b4-452c0e9a57b3","ios":"levelo://app?vid=aa3d4a6d-1203-4d0c-85b4-452c0e9a57b3"},"vehicle_type_id":"4","last_reported":1736161646,"current_range_meters":7200,"station_id":"ce4bhnp2rcd13ifvqh0g","pricing_plan_id":"cebpf4jnsgd1na2vs0mg"},{"bike_id":"730144be-fcee-4065-ac38-325ca1d5cbf7","system_id":"levelo_inurba_marseille","lat":43.25716,"lon":5.41112,"is_reserved":false,"is_disabled":false,"rental_uris":{"android":"levelo://app?vid=730144be-fcee-4065-ac38-325ca1d5cbf7","ios":"levelo://app?vid=730144be-fcee-4065-ac38-325ca1d5cbf7"},"vehicle_type_id":"4","last_reported":1736161646,"current_range_meters":27600,"station_id":"ce4bhkp2rcd13ifvqgd0","pricing_plan_id":"cebpf4jnsgd1na2vs0mg"},{"bike_id":"936a71bb-6b6a-4bd8-9e24-3249bd10572c","system_id":"levelo_inurba_marseille","lat":43.30133,"lon":5.38763,"is_reserved":false,"is_disabled":false,"rental_uris":{"android":"levelo://app?vid=936a71bb-6b6a-4bd8-9e24-3249bd10572c","ios":"levelo://app?vid=936a71bb-6b6a-4bd8-9e24-3249bd10572c"},"vehicle_type_id":"4","last_reported":1736161646,"current_range_meters":39200,"station_id":"ce4bhoh2rcd13ifvqh6g","pricing_plan_id":"cebpf4jnsgd1na2vs0mg"},{"bike_id":"cfa9ca20-27d4-44a2-a7d9-d2b75ed2f4ac","system_id":"levelo_inurba_marseille","lat":43.31068,"lon":5.3835,"is_reserved":false,"is_disabled":true,"rental_uris":{"android":"levelo://app?vid=cfa9ca20-27d4-44a2-a7d9-d2b75ed2f4ac","ios":"levelo://app?vid=cfa9ca20-27d4-44a2-a7d9-d2b75ed2f4ac"},"vehicle_type_id":"4","last_reported":1736161646,"current_range_meters":3600,"station_id":"ce4bgv92rcd13ifvqcr0","pricing_plan_id":"cebpf4jnsgd1na2vs0mg"},{"bike_id":"2e3020fc-739e-484f-aff1-968aa18f2ac1","system_id":"levelo_inurba_marseille","lat":43.27987,"lon":5.41681,"is_reserved":false,"is_disabled":true,"rental_uris":{"android":"levelo://app?vid=2e3020fc-739e-484f-aff1-968aa18f2ac1","ios":"levelo://app?vid=2e3020fc-739e-484f-aff1-968aa18f2ac1"},"vehicle_type_id":"4","last_reported":1736161646,"current_range_meters":0,"station_id":"ce4bho12rcd13ifvqh1g","pricing_plan_id":"cebpf4jnsgd1na2vs0mg"},{"bike_id":"71dd2f5b-102e-4770-9024-a06bbe2347d6","system_id":"levelo_inurba_marseille","lat":43.29677,"lon":5.36622,"is_reserved":false,"is_disabled":false,"rental_uris":{"android":"levelo://app?vid=71dd2f5b-102e-4770-9024-a06bbe2347d6","ios":"levelo://app?vid=71dd2f5b-102e-4770-9024-a06bbe2347d6"},"vehicle_type_id":"4","last_reported":1736161646,"current_range_meters":26000,"station_id":"ce4bgn12rcd13ifvqbt0","pricing_plan_id":"cebpf4jnsgd1na2vs0mg"},{"bike_id":"ce0e460b-fbf5-4f76-a294-ee5f28a95ad0","system_id":"levelo_inurba_marseille","lat":43.27065,"lon":5.42289,"is_reserved":false,"is_disabled":false,"rental_uris":{"android":"levelo://app?vid=ce0e460b-fbf5-4f76-a294-ee5f28a95ad0","ios":"levelo://app?vid=ce0e460b-fbf5-4f76-a294-ee5f28a95ad0"},"vehicle_type_id":"4","last_reported":1736161646,"current_range_meters":38800,"station_id":"ce4bhk92rcd13ifvqgb0","pricing_plan_id":"cebpf4jnsgd1na2vs0mg"},{"bike_id":"a0adb3c4-caf9-464d-8f3e-6b5be1eb9699","system_id":"levelo_inurba_marseille","lat":43.25111,"lon":5.40322,"is_reserved":false,"is_disabled":false,"rental_uris":{"android":"levelo://app?vid=a0adb3c4-caf9-464d-8f3e-6b5be1eb9699","ios":"levelo://app?vid=a0adb3c4-caf9-464d-8f3e-6b5be1eb9699"},"vehicle_type_id":"4","last_reported":1736161646,"current_range_meters":38800,"station_id":"ce4bhlh2rcd13ifvqgig","pricing_plan_id":"cebpf4jnsgd1na2vs0mg"},{"bike_id":"593d8424-f565-422e-8480-e0f50e2c043e","system_id":"levelo_inurba_marseille","lat":43.2794,"lon":5.38743,"is_reserved":false,"is_disabled":true,"rental_uris":{"android":"levelo://app?vid=593d8424-f565-422e-8480-e0f50e2c043e","ios":"levelo://app?vid=593d8424-f565-422e-8480-e0f50e2c043e"},"vehicle_type_id":"4","last_reported":1736161646,"current_range_meters":29600,"station_id":"ce4bhg12rcd13ifvqf80","pricing_plan_id":"cebpf4jnsgd1na2vs0mg"},{"bike_id":"a944f865-f260-4d6e-8bfb-34b22d4c0ecd","system_id":"levelo_inurba_marseille","lat":43.30185,"lon":5.36645,"is_reserved":false,"is_disabled":true,"rental_uris":{"android":"levelo://app?vid=a944f865-f260-4d6e-8bfb-34b22d4c0ecd","ios":"levelo://app?vid=a944f865-f260-4d6e-8bfb-34b22d4c0ecd"},"vehicle_type_id":"4","last_reported":1736161646,"current_range_meters":23200,"station_id":"ce4bgrh2rcd13ifvqc8g","pricing_plan_id":"cebpf4jnsgd1na2vs0mg"},{"bike_id":"f2bc83fe-5082-4189-990a-d4bcacaae584","system_id":"levelo_inurba_marseille","lat":43.24076,"lon":5.377443,"is_reserved":false,"is_disabled":false,"rental_uris":{"android":"levelo://app?vid=f2bc83fe-5082-4189-990a-d4bcacaae584","ios":"levelo://app?vid=f2bc83fe-5082-4189-990a-d4bcacaae584"},"vehicle_type_id":"4","last_reported":1736161646,"current_range_meters":38800,"station_id":"ce4bhnp2rcd13ifvqgvg","pricing_plan_id":"cebpf4jnsgd1na2vs0mg"},{"bike_id":"ddc1cd29-2c72-4cf6-80b2-729ab8dfb3f1","system_id":"levelo_inurba_marseille","lat":43.3019,"lon":5.36633,"is_reserved":false,"is_disabled":false,"rental_uris":{"android":"levelo://app?vid=ddc1cd29-2c72-4cf6-80b2-729ab8dfb3f1","ios":"levelo://app?vid=ddc1cd29-2c72-4cf6-80b2-729ab8dfb3f1"},"vehicle_type_id":"4","last_reported":1736161646,"current_range_meters":25600,"station_id":"ce4bgrh2rcd13ifvqc8g","pricing_plan_id":"cebpf4jnsgd1na2vs0mg"},{"bike_id":"7785ab47-fc21-464f-82e3-4fad2439c0ee","system_id":"levelo_inurba_marseille","lat":43.29819,"lon":5.43751,"is_reserved":false,"is_disabled":false,"rental_uris":{"android":"levelo://app?vid=7785ab47-fc21-464f-82e3-4fad2439c0ee","ios":"levelo://app?vid=7785ab47-fc21-464f-82e3-4fad2439c0ee"},"vehicle_type_id":"4","last_reported":1736161646,"current_range_meters":21600,"station_id":"","pricing_plan_id":"cebpf4jnsgd1na2vs0mg"},{"bike_id":"f091ffe4-6711-47e0-93ad-a423201a8bbd","system_id":"levelo_inurba_marseille","lat":43.31113,"lon":5.37763,"is_reserved":false,"is_disabled":false,"rental_uris":{"android":"levelo://app?vid=f091ffe4-6711-47e0-93ad-a423201a8bbd","ios":"levelo://app?vid=f091ffe4-6711-47e0-93ad-a423201a8bbd"},"vehicle_type_id":"4","last_reported":1736161646,"current_range_meters":22000,"station_id":"ce4bgt92rcd13ifvqcg0","pricing_plan_id":"cebpf4jnsgd1na2vs0mg"},{"bike_id":"3baff8c8-7778-481e-8bec-c5d999b4321d","system_id":"levelo_inurba_marseille","lat":43.29031,"lon":5.39979,"is_reserved":false,"is_disabled":false,"rental_uris":{"android":"levelo://app?vid=3baff8c8-7778-481e-8bec-c5d999b4321d","ios":"levelo://app?vid=3baff8c8-7778-481e-8bec-c5d999b4321d"},"vehicle_type_id":"4","last_reported":1736161646,"current_range_meters":36400,"station_id":"ce4bh392rcd13ifvqdm0","pricing_plan_id":"cebpf4jnsgd1na2vs0mg"},{"bike_id":"465268ab-90aa-4006-9bf9-43f4f7cc1c1e","system_id":"levelo_inurba_marseille","lat":43.303183,"lon":5.369081,"is_reserved":false,"is_disabled":false,"rental_uris":{"android":"levelo://app?vid=465268ab-90aa-4006-9bf9-43f4f7cc1c1e","ios":"levelo://app?vid=465268ab-90aa-4006-9bf9-43f4f7cc1c1e"},"vehicle_type_id":"4","last_reported":1736161646,"current_range_meters":30800,"station_id":"ce4bgqh2rcd13ifvqc5g","pricing_plan_id":"cebpf4jnsgd1na2vs0mg"},{"bike_id":"ca1bd4fa-dc43-48f4-ad2b-1efde1394bb4","system_id":"levelo_inurba_marseille","lat":43.27776,"lon":5.40726,"is_reserved":false,"is_disabled":false,"rental_uris":{"android":"levelo://app?vid=ca1bd4fa-dc43-48f4-ad2b-1efde1394bb4","ios":"levelo://app?vid=ca1bd4fa-dc43-48f4-ad2b-1efde1394bb4"},"vehicle_type_id":"4","last_reported":1736161646,"current_range_meters":28800,"station_id":"ce4bhnh2rcd13ifvqgtg","pricing_plan_id":"cebpf4jnsgd1na2vs0mg"},{"bike_id":"ab68ed21-148d-4a0e-ae51-a2dd92014de0","system_id":"levelo_inurba_marseille","lat":43.24986,"lon":5.3895,"is_reserved":false,"is_disabled":false,"rental_uris":{"android":"levelo://app?vid=ab68ed21-148d-4a0e-ae51-a2dd92014de0","ios":"levelo://app?vid=ab68ed21-148d-4a0e-ae51-a2dd92014de0"},"vehicle_type_id":"4","last_reported":1736161646,"current_range_meters":36800,"station_id":"ce4bhgp2rcd13ifvqfd0","pricing_plan_id":"cebpf4jnsgd1na2vs0mg"},{"bike_id":"75539ff0-fe32-4da7-83df-96fa72019050","system_id":"levelo_inurba_marseille","lat":43.31099,"lon":5.42441,"is_reserved":false,"is_disabled":false,"rental_uris":{"android":"levelo://app?vid=75539ff0-fe32-4da7-83df-96fa72019050","ios":"levelo://app?vid=75539ff0-fe32-4da7-83df-96fa72019050"},"vehicle_type_id":"4","last_reported":1736161646,"current_range_meters":38400,"station_id":"ce4bhp92rcd13ifvqhag","pricing_plan_id":"cebpf4jnsgd1na2vs0mg"},{"bike_id":"c023aed8-c4af-47de-bf55-7ec6cfb1c879","system_id":"levelo_inurba_marseille","lat":43.26191,"lon":5.37458,"is_reserved":false,"is_disabled":true,"rental_uris":{"android":"levelo://app?vid=c023aed8-c4af-47de-bf55-7ec6cfb1c879","ios":"levelo://app?vid=c023aed8-c4af-47de-bf55-7ec6cfb1c879"},"vehicle_type_id":"4","last_reported":1736161646,"current_range_meters":32000,"station_id":"ce4bhgp2rcd13ifvqfc0","pricing_plan_id":"cebpf4jnsgd1na2vs0mg"},{"bike_id":"1134651d-acce-4d49-8c85-7d62909bf8cb","system_id":"levelo_inurba_marseille","lat":43.3361,"lon":5.40992,"is_reserved":false,"is_disabled":true,"rental_uris":{"android":"levelo://app?vid=1134651d-acce-4d49-8c85-7d62909bf8cb","ios":"levelo://app?vid=1134651d-acce-4d49-8c85-7d62909bf8cb"},"vehicle_type_id":"4","last_reported":1736161646,"current_range_meters":3200,"station_id":"ce4bhqh2rcd13ifvqhmg","pricing_plan_id":"cebpf4jnsgd1na2vs0mg"},{"bike_id":"ad036647-e9f4-4246-953d-37ee6601db50","system_id":"levelo_inurba_marseille","lat":43.24684,"lon":5.38168,"is_reserved":false,"is_disabled":false,"rental_uris":{"android":"levelo://app?vid=ad036647-e9f4-4246-953d-37ee6601db50","ios":"levelo://app?vid=ad036647-e9f4-4246-953d-37ee6601db50"},"vehicle_type_id":"4","last_reported":1736161646,"current_range_meters":22400,"station_id":"ce4bhih2rcd13ifvqfr0","pricing_plan_id":"cebpf4jnsgd1na2vs0mg"},{"bike_id":"c3496726-b8ea-47ac-a44b-66bc69a8d7e9","system_id":"levelo_inurba_marseille","lat":43.29834,"lon":5.36293,"is_reserved":false,"is_disabled":false,"rental_uris":{"android":"levelo://app?vid=c3496726-b8ea-47ac-a44b-66bc69a8d7e9","ios":"levelo://app?vid=c3496726-b8ea-47ac-a44b-66bc69a8d7e9"},"vehicle_type_id":"4","last_reported":1736161646,"current_range_meters":29600,"station_id":"ce4bgpp2rcd13ifvqc3g","pricing_plan_id":"cebpf4jnsgd1na2vs0mg"},{"bike_id":"09a28680-34f3-48a3-bb4d-74506aeed1ee","system_id":"levelo_inurba_marseille","lat":43.2903,"lon":5.39985,"is_reserved":false,"is_disabled":false,"rental_uris":{"android":"levelo://app?vid=09a28680-34f3-48a3-bb4d-74506aeed1ee","ios":"levelo://app?vid=09a28680-34f3-48a3-bb4d-74506aeed1ee"},"vehicle_type_id":"4","last_reported":1736161646,"current_range_meters":38800,"station_id":"ce4bh392rcd13ifvqdm0","pricing_plan_id":"cebpf4jnsgd1na2vs0mg"},{"bike_id":"427f5f0f-1078-4838-8256-aa947f1974b5","system_id":"levelo_inurba_marseille","lat":43.31217,"lon":5.36868,"is_reserved":false,"is_disabled":false,"rental_uris":{"android":"levelo://app?vid=427f5f0f-1078-4838-8256-aa947f1974b5","ios":"levelo://app?vid=427f5f0f-1078-4838-8256-aa947f1974b5"},"vehicle_type_id":"4","last_reported":1736161646,"current_range_meters":14000,"station_id":"ce4bgl92rcd13ifvqbq0","pricing_plan_id":"cebpf4jnsgd1na2vs0mg"},{"bike_id":"75d3e57a-b9bf-4f80-9f61-2812f05e5b86","system_id":"levelo_inurba_marseille","lat":43.28155,"lon":5.42641,"is_reserved":false,"is_disabled":false,"rental_uris":{"android":"levelo://app?vid=75d3e57a-b9bf-4f80-9f61-2812f05e5b86","ios":"levelo://app?vid=75d3e57a-b9bf-4f80-9f61-2812f05e5b86"},"vehicle_type_id":"4","last_reported":1736161646,"current_range_meters":16400,"station_id":"ce4bhnh2rcd13ifvqgug","pricing_plan_id":"cebpf4jnsgd1na2vs0mg"},{"bike_id":"0e580742-5ad8-47a0-a9c9-ae4a72f1e10f","system_id":"levelo_inurba_marseille","lat":43.29927,"lon":5.36542,"is_reserved":false,"is_disabled":false,"rental_uris":{"android":"levelo://app?vid=0e580742-5ad8-47a0-a9c9-ae4a72f1e10f","ios":"levelo://app?vid=0e580742-5ad8-47a0-a9c9-ae4a72f1e10f"},"vehicle_type_id":"4","last_reported":1736161646,"current_range_meters":36000,"station_id":"ce4bgm92rcd13ifvqbr0","pricing_plan_id":"cebpf4jnsgd1na2vs0mg"},{"bike_id":"f950f68e-763d-458f-8358-255933d8bbd3","system_id":"levelo_inurba_marseille","lat":43.28091,"lon":5.37838,"is_reserved":false,"is_disabled":false,"rental_uris":{"android":"levelo://app?vid=f950f68e-763d-458f-8358-255933d8bbd3","ios":"levelo://app?vid=f950f68e-763d-458f-8358-255933d8bbd3"},"vehicle_type_id":"4","last_reported":1736161646,"current_range_meters":22400,"station_id":"ce4bha12rcd13ifvqee0","pricing_plan_id":"cebpf4jnsgd1na2vs0mg"},{"bike_id":"f2107d97-861e-478f-aae7-bc0c7527ce03","system_id":"levelo_inurba_marseille","lat":43.31481,"lon":5.37319,"is_reserved":false,"is_disabled":false,"rental_uris":{"android":"levelo://app?vid=f2107d97-861e-478f-aae7-bc0c7527ce03","ios":"levelo://app?vid=f2107d97-861e-478f-aae7-bc0c7527ce03"},"vehicle_type_id":"4","last_reported":1736161646,"current_range_meters":30400,"station_id":"ce4bgt12rcd13ifvqcd0","pricing_plan_id":"cebpf4jnsgd1na2vs0mg"},{"bike_id":"58fe9eb4-832c-4c81-89d1-6fe50c7fa8aa","system_id":"levelo_inurba_marseille","lat":43.24658,"lon":5.38173,"is_reserved":false,"is_disabled":false,"rental_uris":{"android":"levelo://app?vid=58fe9eb4-832c-4c81-89d1-6fe50c7fa8aa","ios":"levelo://app?vid=58fe9eb4-832c-4c81-89d1-6fe50c7fa8aa"},"vehicle_type_id":"4","last_reported":1736161646,"current_range_meters":38400,"station_id":"ce4bhih2rcd13ifvqfr0","pricing_plan_id":"cebpf4jnsgd1na2vs0mg"},{"bike_id":"98458725-ccb3-4087-b312-f4d043f8061c","system_id":"levelo_inurba_marseille","lat":43.24184,"lon":5.39736,"is_reserved":false,"is_disabled":false,"rental_uris":{"android":"levelo://app?vid=98458725-ccb3-4087-b312-f4d043f8061c","ios":"levelo://app?vid=98458725-ccb3-4087-b312-f4d043f8061c"},"vehicle_type_id":"4","last_reported":1736161646,"current_range_meters":24800,"station_id":"ce4bhn12rcd13ifvqgpg","pricing_plan_id":"cebpf4jnsgd1na2vs0mg"},{"bike_id":"84555394-9565-4ae2-9597-fe536c54fe4a","system_id":"levelo_inurba_marseille","lat":43.324546,"lon":5.365408,"is_reserved":false,"is_disabled":false,"rental_uris":{"android":"levelo://app?vid=84555394-9565-4ae2-9597-fe536c54fe4a","ios":"levelo://app?vid=84555394-9565-4ae2-9597-fe536c54fe4a"},"vehicle_type_id":"4","last_reported":1736161646,"current_range_meters":21600,"station_id":"ce4bhs12rcd13ifvqhvg","pricing_plan_id":"cebpf4jnsgd1na2vs0mg"},{"bike_id":"18c2a81d-aa34-41c3-8bd8-6e7508436d80","system_id":"levelo_inurba_marseille","lat":43.281491,"lon":5.42644,"is_reserved":false,"is_disabled":false,"rental_uris":{"android":"levelo://app?vid=18c2a81d-aa34-41c3-8bd8-6e7508436d80","ios":"levelo://app?vid=18c2a81d-aa34-41c3-8bd8-6e7508436d80"},"vehicle_type_id":"4","last_reported":1736161646,"current_range_meters":26800,"station_id":"ce4bhnh2rcd13ifvqgug","pricing_plan_id":"cebpf4jnsgd1na2vs0mg"},{"bike_id":"56e4e1b5-9e13-43a2-864c-71b304a89ef7","system_id":"levelo_inurba_marseille","lat":43.30132,"lon":5.37442,"is_reserved":false,"is_disabled":false,"rental_uris":{"android":"levelo://app?vid=56e4e1b5-9e13-43a2-864c-71b304a89ef7","ios":"levelo://app?vid=56e4e1b5-9e13-43a2-864c-71b304a89ef7"},"vehicle_type_id":"4","last_reported":1736161646,"current_range_meters":18800,"station_id":"ce4bgs92rcd13ifvqcc0","pricing_plan_id":"cebpf4jnsgd1na2vs0mg"},{"bike_id":"ad3cfa00-37f4-43d9-9ffd-7cdc7e2b8792","system_id":"levelo_inurba_marseille","lat":43.25789,"lon":5.39469,"is_reserved":false,"is_disabled":false,"rental_uris":{"android":"levelo://app?vid=ad3cfa00-37f4-43d9-9ffd-7cdc7e2b8792","ios":"levelo://app?vid=ad3cfa00-37f4-43d9-9ffd-7cdc7e2b8792"},"vehicle_type_id":"4","last_reported":1736161646,"current_range_meters":30000,"station_id":"ce4bhip2rcd13ifvqft0","pricing_plan_id":"cebpf4jnsgd1na2vs0mg"},{"bike_id":"6df4001c-2cbd-460a-8a1a-91496e0a14d1","system_id":"levelo_inurba_marseille","lat":43.25808,"lon":5.39432,"is_reserved":false,"is_disabled":false,"rental_uris":{"android":"levelo://app?vid=6df4001c-2cbd-460a-8a1a-91496e0a14d1","ios":"levelo://app?vid=6df4001c-2cbd-460a-8a1a-91496e0a14d1"},"vehicle_type_id":"4","last_reported":1736161646,"current_range_meters":28800,"station_id":"ce4bhip2rcd13ifvqft0","pricing_plan_id":"cebpf4jnsgd1na2vs0mg"},{"bike_id":"ba2b0799-90e5-436b-a8ac-d2a80ff5da69","system_id":"levelo_inurba_marseille","lat":43.24814,"lon":5.37471,"is_reserved":false,"is_disabled":false,"rental_uris":{"android":"levelo://app?vid=ba2b0799-90e5-436b-a8ac-d2a80ff5da69","ios":"levelo://app?vid=ba2b0799-90e5-436b-a8ac-d2a80ff5da69"},"vehicle_type_id":"4","last_reported":1736161646,"current_range_meters":38800,"station_id":"ce4bhgh2rcd13ifvqfb0","pricing_plan_id":"cebpf4jnsgd1na2vs0mg"},{"bike_id":"503a7f35-ffd0-4219-a5d6-3994b583844d","system_id":"levelo_inurba_marseille","lat":43.2731,"lon":5.39083,"is_reserved":false,"is_disabled":false,"rental_uris":{"android":"levelo://app?vid=503a7f35-ffd0-4219-a5d6-3994b583844d","ios":"levelo://app?vid=503a7f35-ffd0-4219-a5d6-3994b583844d"},"vehicle_type_id":"4","last_reported":1736161646,"current_range_meters":7200,"station_id":"ce4bhgp2rcd13ifvqfe0","pricing_plan_id":"cebpf4jnsgd1na2vs0mg"},{"bike_id":"4cf124dd-dcf2-4856-bef1-ad42d48f6a5d","system_id":"levelo_inurba_marseille","lat":43.29255,"lon":5.40902,"is_reserved":false,"is_disabled":false,"rental_uris":{"android":"levelo://app?vid=4cf124dd-dcf2-4856-bef1-ad42d48f6a5d","ios":"levelo://app?vid=4cf124dd-dcf2-4856-bef1-ad42d48f6a5d"},"vehicle_type_id":"4","last_reported":1736161646,"current_range_meters":9200,"station_id":"ce4bh192rcd13ifvqdc0","pricing_plan_id":"cebpf4jnsgd1na2vs0mg"},{"bike_id":"e95bb54d-583b-4328-8deb-2f42d6df9b6c","system_id":"levelo_inurba_marseille","lat":43.29023,"lon":5.40009,"is_reserved":false,"is_disabled":false,"rental_uris":{"android":"levelo://app?vid=e95bb54d-583b-4328-8deb-2f42d6df9b6c","ios":"levelo://app?vid=e95bb54d-583b-4328-8deb-2f42d6df9b6c"},"vehicle_type_id":"4","last_reported":1736161646,"current_range_meters":33600,"station_id":"ce4bh392rcd13ifvqdm0","pricing_plan_id":"cebpf4jnsgd1na2vs0mg"},{"bike_id":"5d14871f-6090-4e01-b500-d52e9b299199","system_id":"levelo_inurba_marseille","lat":43.30953,"lon":5.39055,"is_reserved":false,"is_disabled":false,"rental_uris":{"android":"levelo://app?vid=5d14871f-6090-4e01-b500-d52e9b299199","ios":"levelo://app?vid=5d14871f-6090-4e01-b500-d52e9b299199"},"vehicle_type_id":"4","last_reported":1736161646,"current_range_meters":35200,"station_id":"ce4bgup2rcd13ifvqco0","pricing_plan_id":"cebpf4jnsgd1na2vs0mg"},{"bike_id":"cbc638ef-e540-4f9c-ac5d-e16032597628","system_id":"levelo_inurba_marseille","lat":43.29603,"lon":5.38095,"is_reserved":false,"is_disabled":true,"rental_uris":{"android":"levelo://app?vid=cbc638ef-e540-4f9c-ac5d-e16032597628","ios":"levelo://app?vid=cbc638ef-e540-4f9c-ac5d-e16032597628"},"vehicle_type_id":"4","last_reported":1736161646,"current_range_meters":33600,"station_id":"ce4bgl12rcd13ifvqbo0","pricing_plan_id":"cebpf4jnsgd1na2vs0mg"},{"bike_id":"885720ca-a293-4c83-bd36-3cf036e23d33","system_id":"levelo_inurba_marseille","lat":43.29625,"lon":5.38056,"is_reserved":false,"is_disabled":false,"rental_uris":{"android":"levelo://app?vid=885720ca-a293-4c83-bd36-3cf036e23d33","ios":"levelo://app?vid=885720ca-a293-4c83-bd36-3cf036e23d33"},"vehicle_type_id":"4","last_reported":1736161646,"current_range_meters":38800,"station_id":"ce4bgl12rcd13ifvqbo0","pricing_plan_id":"cebpf4jnsgd1na2vs0mg"},{"bike_id":"e16c1c8f-94b8-492d-9800-16d000a7444d","system_id":"levelo_inurba_marseille","lat":43.25725,"lon":5.41102,"is_reserved":false,"is_disabled":false,"rental_uris":{"android":"levelo://app?vid=e16c1c8f-94b8-492d-9800-16d000a7444d","ios":"levelo://app?vid=e16c1c8f-94b8-492d-9800-16d000a7444d"},"vehicle_type_id":"4","last_reported":1736161646,"current_range_meters":19600,"station_id":"ce4bhkp2rcd13ifvqgd0","pricing_plan_id":"cebpf4jnsgd1na2vs0mg"},{"bike_id":"7f1ce4ed-0cd0-4d23-b89e-099e0df8c108","system_id":"levelo_inurba_marseille","lat":43.2572,"lon":5.41122,"is_reserved":false,"is_disabled":false,"rental_uris":{"android":"levelo://app?vid=7f1ce4ed-0cd0-4d23-b89e-099e0df8c108","ios":"levelo://app?vid=7f1ce4ed-0cd0-4d23-b89e-099e0df8c108"},"vehicle_type_id":"4","last_reported":1736161646,"current_range_meters":37600,"station_id":"ce4bhkp2rcd13ifvqgd0","pricing_plan_id":"cebpf4jnsgd1na2vs0mg"},{"bike_id":"b72b5596-27e3-41ce-b46c-9f1395dcc027","system_id":"levelo_inurba_marseille","lat":43.30155,"lon":5.38096,"is_reserved":false,"is_disabled":false,"rental_uris":{"android":"levelo://app?vid=b72b5596-27e3-41ce-b46c-9f1395dcc027","ios":"levelo://app?vid=b72b5596-27e3-41ce-b46c-9f1395dcc027"},"vehicle_type_id":"4","last_reported":1736161646,"current_range_meters":22400,"station_id":"ce4bgjp2rcd13ifvqbh0","pricing_plan_id":"cebpf4jnsgd1na2vs0mg"},{"bike_id":"3158a10a-8be5-4ea0-a427-2f986a71dd04","system_id":"levelo_inurba_marseille","lat":43.30636,"lon":5.40089,"is_reserved":false,"is_disabled":false,"rental_uris":{"android":"levelo://app?vid=3158a10a-8be5-4ea0-a427-2f986a71dd04","ios":"levelo://app?vid=3158a10a-8be5-4ea0-a427-2f986a71dd04"},"vehicle_type_id":"4","last_reported":1736161646,"current_range_meters":39200,"station_id":"ce4bh112rcd13ifvqda0","pricing_plan_id":"cebpf4jnsgd1na2vs0mg"},{"bike_id":"f8142e8a-f886-4c5e-b399-88d8fa1c1d32","system_id":"levelo_inurba_marseille","lat":43.24668,"lon":5.38167,"is_reserved":false,"is_disabled":false,"rental_uris":{"android":"levelo://app?vid=f8142e8a-f886-4c5e-b399-88d8fa1c1d32","ios":"levelo://app?vid=f8142e8a-f886-4c5e-b399-88d8fa1c1d32"},"vehicle_type_id":"4","last_reported":1736161646,"current_range_meters":22800,"station_id":"ce4bhih2rcd13ifvqfr0","pricing_plan_id":"cebpf4jnsgd1na2vs0mg"},{"bike_id":"79229806-ccc9-4d01-ba86-4a5c4bbd2139","system_id":"levelo_inurba_marseille","lat":43.30597,"lon":5.37255,"is_reserved":false,"is_disabled":false,"rental_uris":{"android":"levelo://app?vid=79229806-ccc9-4d01-ba86-4a5c4bbd2139","ios":"levelo://app?vid=79229806-ccc9-4d01-ba86-4a5c4bbd2139"},"vehicle_type_id":"4","last_reported":1736161646,"current_range_meters":39200,"station_id":"ce4bgqh2rcd13ifvqc4g","pricing_plan_id":"cebpf4jnsgd1na2vs0mg"},{"bike_id":"38179190-6512-4bd2-be05-40d8db0b403b","system_id":"levelo_inurba_marseille","lat":43.29566,"lon":5.3753,"is_reserved":false,"is_disabled":false,"rental_uris":{"android":"levelo://app?vid=38179190-6512-4bd2-be05-40d8db0b403b","ios":"levelo://app?vid=38179190-6512-4bd2-be05-40d8db0b403b"},"vehicle_type_id":"4","last_reported":1736161646,"current_range_meters":12000,"station_id":"ce4bgh92rcd13ifvqb50","pricing_plan_id":"cebpf4jnsgd1na2vs0mg"},{"bike_id":"5acd51ab-33ae-465f-9994-b539f1713987","system_id":"levelo_inurba_marseille","lat":43.33751,"lon":5.39189,"is_reserved":false,"is_disabled":true,"rental_uris":{"android":"levelo://app?vid=5acd51ab-33ae-465f-9994-b539f1713987","ios":"levelo://app?vid=5acd51ab-33ae-465f-9994-b539f1713987"},"vehicle_type_id":"4","last_reported":1736161646,"current_range_meters":33600,"station_id":"ce4bhr92rcd13ifvqhsg","pricing_plan_id":"cebpf4jnsgd1na2vs0mg"},{"bike_id":"f3d41f41-839d-41a5-aa6d-f2ba87ff18f0","system_id":"levelo_inurba_marseille","lat":43.24065,"lon":5.37733,"is_reserved":false,"is_disabled":true,"rental_uris":{"android":"levelo://app?vid=f3d41f41-839d-41a5-aa6d-f2ba87ff18f0","ios":"levelo://app?vid=f3d41f41-839d-41a5-aa6d-f2ba87ff18f0"},"vehicle_type_id":"4","last_reported":1736161646,"current_range_meters":36000,"station_id":"ce4bhnp2rcd13ifvqgvg","pricing_plan_id":"cebpf4jnsgd1na2vs0mg"},{"bike_id":"7a642d60-3ea7-4aa8-9bb5-5f10b3beea02","system_id":"levelo_inurba_marseille","lat":43.32281,"lon":5.38266,"is_reserved":false,"is_disabled":false,"rental_uris":{"android":"levelo://app?vid=7a642d60-3ea7-4aa8-9bb5-5f10b3beea02","ios":"levelo://app?vid=7a642d60-3ea7-4aa8-9bb5-5f10b3beea02"},"vehicle_type_id":"4","last_reported":1736161646,"current_range_meters":38800,"station_id":"ce4bhr12rcd13ifvqhqg","pricing_plan_id":"cebpf4jnsgd1na2vs0mg"},{"bike_id":"5a231d4e-1469-4389-a9bc-0d65fec09d5f","system_id":"levelo_inurba_marseille","lat":43.28287,"lon":5.43317,"is_reserved":false,"is_disabled":false,"rental_uris":{"android":"levelo://app?vid=5a231d4e-1469-4389-a9bc-0d65fec09d5f","ios":"levelo://app?vid=5a231d4e-1469-4389-a9bc-0d65fec09d5f"},"vehicle_type_id":"4","last_reported":1736161646,"current_range_meters":9600,"station_id":"","pricing_plan_id":"cebpf4jnsgd1na2vs0mg"},{"bike_id":"ae6d41e5-4b94-4495-98dc-268a5104df03","system_id":"levelo_inurba_marseille","lat":43.314853,"lon":5.373074,"is_reserved":false,"is_disabled":false,"rental_uris":{"android":"levelo://app?vid=ae6d41e5-4b94-4495-98dc-268a5104df03","ios":"levelo://app?vid=ae6d41e5-4b94-4495-98dc-268a5104df03"},"vehicle_type_id":"4","last_reported":1736161646,"current_range_meters":38800,"station_id":"ce4bgt12rcd13ifvqcd0","pricing_plan_id":"cebpf4jnsgd1na2vs0mg"},{"bike_id":"2aaa5b80-6374-473f-9a1f-b93a059ec4fb","system_id":"levelo_inurba_marseille","lat":43.29896,"lon":5.43674,"is_reserved":false,"is_disabled":false,"rental_uris":{"android":"levelo://app?vid=2aaa5b80-6374-473f-9a1f-b93a059ec4fb","ios":"levelo://app?vid=2aaa5b80-6374-473f-9a1f-b93a059ec4fb"},"vehicle_type_id":"4","last_reported":1736161646,"current_range_meters":6800,"station_id":"ce4bhpp2rcd13ifvqhfg","pricing_plan_id":"cebpf4jnsgd1na2vs0mg"},{"bike_id":"322cb96b-3234-42eb-b612-02042895e99b","system_id":"levelo_inurba_marseille","lat":43.32662,"lon":5.40991,"is_reserved":false,"is_disabled":false,"rental_uris":{"android":"levelo://app?vid=322cb96b-3234-42eb-b612-02042895e99b","ios":"levelo://app?vid=322cb96b-3234-42eb-b612-02042895e99b"},"vehicle_type_id":"4","last_reported":1736161646,"current_range_meters":27600,"station_id":"ce4bhpp2rcd13ifvqhgg","pricing_plan_id":"cebpf4jnsgd1na2vs0mg"},{"bike_id":"7b78d5e2-5142-402d-a4f8-0f3037a6c533","system_id":"levelo_inurba_marseille","lat":43.26953,"lon":5.38612,"is_reserved":false,"is_disabled":true,"rental_uris":{"android":"levelo://app?vid=7b78d5e2-5142-402d-a4f8-0f3037a6c533","ios":"levelo://app?vid=7b78d5e2-5142-402d-a4f8-0f3037a6c533"},"vehicle_type_id":"4","last_reported":1736161646,"current_range_meters":37600,"station_id":"ce4bhh92rcd13ifvqfh0","pricing_plan_id":"cebpf4jnsgd1na2vs0mg"},{"bike_id":"7e46465d-6885-4570-aa72-1a895ebe18b8","system_id":"levelo_inurba_marseille","lat":43.30527,"lon":5.36542,"is_reserved":false,"is_disabled":false,"rental_uris":{"android":"levelo://app?vid=7e46465d-6885-4570-aa72-1a895ebe18b8","ios":"levelo://app?vid=7e46465d-6885-4570-aa72-1a895ebe18b8"},"vehicle_type_id":"4","last_reported":1736161646,"current_range_meters":16400,"station_id":"ce4bgs12rcd13ifvqcag","pricing_plan_id":"cebpf4jnsgd1na2vs0mg"},{"bike_id":"2f33d4dd-c94f-41e6-bce5-42d4c6341eb0","system_id":"levelo_inurba_marseille","lat":43.29892,"lon":5.43662,"is_reserved":false,"is_disabled":false,"rental_uris":{"android":"levelo://app?vid=2f33d4dd-c94f-41e6-bce5-42d4c6341eb0","ios":"levelo://app?vid=2f33d4dd-c94f-41e6-bce5-42d4c6341eb0"},"vehicle_type_id":"4","last_reported":1736161646,"current_range_meters":29600,"station_id":"ce4bhpp2rcd13ifvqhfg","pricing_plan_id":"cebpf4jnsgd1na2vs0mg"},{"bike_id":"d0d21930-fe1d-478b-8251-bcf89564599d","system_id":"levelo_inurba_marseille","lat":43.29516,"lon":5.4228,"is_reserved":false,"is_disabled":false,"rental_uris":{"android":"levelo://app?vid=d0d21930-fe1d-478b-8251-bcf89564599d","ios":"levelo://app?vid=d0d21930-fe1d-478b-8251-bcf89564599d"},"vehicle_type_id":"4","last_reported":1736161646,"current_range_meters":24400,"station_id":"ce4bhph2rcd13ifvqhdg","pricing_plan_id":"cebpf4jnsgd1na2vs0mg"},{"bike_id":"793e61cf-3f17-4ddb-a802-7a02054d1a95","system_id":"levelo_inurba_marseille","lat":43.2314,"lon":5.43715,"is_reserved":false,"is_disabled":false,"rental_uris":{"android":"levelo://app?vid=793e61cf-3f17-4ddb-a802-7a02054d1a95","ios":"levelo://app?vid=793e61cf-3f17-4ddb-a802-7a02054d1a95"},"vehicle_type_id":"4","last_reported":1736161646,"current_range_meters":38800,"station_id":"ce4bhmp2rcd13ifvqgog","pricing_plan_id":"cebpf4jnsgd1na2vs0mg"},{"bike_id":"4e88f38c-0f21-4dcc-88f2-54155acaedce","system_id":"levelo_inurba_marseille","lat":43.31363,"lon":5.38506,"is_reserved":false,"is_disabled":false,"rental_uris":{"android":"levelo://app?vid=4e88f38c-0f21-4dcc-88f2-54155acaedce","ios":"levelo://app?vid=4e88f38c-0f21-4dcc-88f2-54155acaedce"},"vehicle_type_id":"4","last_reported":1736161646,"current_range_meters":22800,"station_id":"ce4bgt92rcd13ifvqcf0","pricing_plan_id":"cebpf4jnsgd1na2vs0mg"},{"bike_id":"0ca9f1ed-7278-4491-949d-86ca3eae7e1c","system_id":"levelo_inurba_marseille","lat":43.2895,"lon":5.37827,"is_reserved":false,"is_disabled":false,"rental_uris":{"android":"levelo://app?vid=0ca9f1ed-7278-4491-949d-86ca3eae7e1c","ios":"levelo://app?vid=0ca9f1ed-7278-4491-949d-86ca3eae7e1c"},"vehicle_type_id":"4","last_reported":1736161646,"current_range_meters":24000,"station_id":"ce4bh9p2rcd13ifvqed0","pricing_plan_id":"cebpf4jnsgd1na2vs0mg"},{"bike_id":"41fe54d0-11c0-4553-a6fb-e68574612562","system_id":"levelo_inurba_marseille","lat":43.30401,"lon":5.41302,"is_reserved":false,"is_disabled":false,"rental_uris":{"android":"levelo://app?vid=41fe54d0-11c0-4553-a6fb-e68574612562","ios":"levelo://app?vid=41fe54d0-11c0-4553-a6fb-e68574612562"},"vehicle_type_id":"4","last_reported":1736161646,"current_range_meters":35200,"station_id":"ce4bhop2rcd13ifvqh8g","pricing_plan_id":"cebpf4jnsgd1na2vs0mg"},{"bike_id":"09a8d888-1bba-47b2-a7e6-229de9127a6b","system_id":"levelo_inurba_marseille","lat":43.28693,"lon":5.37409,"is_reserved":false,"is_disabled":false,"rental_uris":{"android":"levelo://app?vid=09a8d888-1bba-47b2-a7e6-229de9127a6b","ios":"levelo://app?vid=09a8d888-1bba-47b2-a7e6-229de9127a6b"},"vehicle_type_id":"4","last_reported":1736161646,"current_range_meters":13600,"station_id":"ce4bh3p2rcd13ifvqdq0","pricing_plan_id":"cebpf4jnsgd1na2vs0mg"},{"bike_id":"569c0e07-1419-4914-b870-00b0f2f58196","system_id":"levelo_inurba_marseille","lat":43.29607,"lon":5.38086,"is_reserved":false,"is_disabled":false,"rental_uris":{"android":"levelo://app?vid=569c0e07-1419-4914-b870-00b0f2f58196","ios":"levelo://app?vid=569c0e07-1419-4914-b870-00b0f2f58196"},"vehicle_type_id":"4","last_reported":1736161646,"current_range_meters":38800,"station_id":"ce4bgl12rcd13ifvqbo0","pricing_plan_id":"cebpf4jnsgd1na2vs0mg"},{"bike_id":"7d1353c8-62d9-47db-b98f-c0bf72716e29","system_id":"levelo_inurba_marseille","lat":43.30875,"lon":5.37204,"is_reserved":false,"is_disabled":false,"rental_uris":{"android":"levelo://app?vid=7d1353c8-62d9-47db-b98f-c0bf72716e29","ios":"levelo://app?vid=7d1353c8-62d9-47db-b98f-c0bf72716e29"},"vehicle_type_id":"4","last_reported":1736161646,"current_range_meters":10800,"station_id":"ce4bguh2rcd13ifvqckg","pricing_plan_id":"cebpf4jnsgd1na2vs0mg"},{"bike_id":"5cad4397-d7fe-427d-9b9c-8acb185fe024","system_id":"levelo_inurba_marseille","lat":43.250816,"lon":5.395188,"is_reserved":false,"is_disabled":false,"rental_uris":{"android":"levelo://app?vid=5cad4397-d7fe-427d-9b9c-8acb185fe024","ios":"levelo://app?vid=5cad4397-d7fe-427d-9b9c-8acb185fe024"},"vehicle_type_id":"4","last_reported":1736161646,"current_range_meters":6000,"station_id":"ce4bhm12rcd13ifvqgkg","pricing_plan_id":"cebpf4jnsgd1na2vs0mg"},{"bike_id":"23e54c6b-b5cd-4034-80b5-a112b5c645e7","system_id":"levelo_inurba_marseille","lat":43.32657,"lon":5.40994,"is_reserved":false,"is_disabled":false,"rental_uris":{"android":"levelo://app?vid=23e54c6b-b5cd-4034-80b5-a112b5c645e7","ios":"levelo://app?vid=23e54c6b-b5cd-4034-80b5-a112b5c645e7"},"vehicle_type_id":"4","last_reported":1736161646,"current_range_meters":36800,"station_id":"ce4bhpp2rcd13ifvqhgg","pricing_plan_id":"cebpf4jnsgd1na2vs0mg"},{"bike_id":"014411df-20bd-4572-85be-a67bda909058","system_id":"levelo_inurba_marseille","lat":43.29545,"lon":5.4229,"is_reserved":false,"is_disabled":false,"rental_uris":{"android":"levelo://app?vid=014411df-20bd-4572-85be-a67bda909058","ios":"levelo://app?vid=014411df-20bd-4572-85be-a67bda909058"},"vehicle_type_id":"4","last_reported":1736161646,"current_range_meters":11600,"station_id":"ce4bhph2rcd13ifvqhdg","pricing_plan_id":"cebpf4jnsgd1na2vs0mg"},{"bike_id":"8785ddf2-7225-4c15-a282-1f8baeace2a7","system_id":"levelo_inurba_marseille","lat":43.26058,"lon":5.39408,"is_reserved":false,"is_disabled":false,"rental_uris":{"android":"levelo://app?vid=8785ddf2-7225-4c15-a282-1f8baeace2a7","ios":"levelo://app?vid=8785ddf2-7225-4c15-a282-1f8baeace2a7"},"vehicle_type_id":"4","last_reported":1736161646,"current_range_meters":22400,"station_id":"ce4bhh92rcd13ifvqfj0","pricing_plan_id":"cebpf4jnsgd1na2vs0mg"},{"bike_id":"4d7727df-ac8f-431e-a279-50fc8c6a1628","system_id":"levelo_inurba_marseille","lat":43.31494,"lon":5.37299,"is_reserved":false,"is_disabled":false,"rental_uris":{"android":"levelo://app?vid=4d7727df-ac8f-431e-a279-50fc8c6a1628","ios":"levelo://app?vid=4d7727df-ac8f-431e-a279-50fc8c6a1628"},"vehicle_type_id":"4","last_reported":1736161646,"current_range_meters":38000,"station_id":"ce4bgt12rcd13ifvqcd0","pricing_plan_id":"cebpf4jnsgd1na2vs0mg"},{"bike_id":"a6e7c8cf-4a0d-495d-b083-9bc1134271de","system_id":"levelo_inurba_marseille","lat":43.30558,"lon":5.38406,"is_reserved":false,"is_disabled":false,"rental_uris":{"android":"levelo://app?vid=a6e7c8cf-4a0d-495d-b083-9bc1134271de","ios":"levelo://app?vid=a6e7c8cf-4a0d-495d-b083-9bc1134271de"},"vehicle_type_id":"4","last_reported":1736161646,"current_range_meters":23200,"station_id":"ce4bgg92rcd13ifvqb30","pricing_plan_id":"cebpf4jnsgd1na2vs0mg"},{"bike_id":"0f3e57d1-cd2f-4c1b-b098-b2a4def06e2a","system_id":"levelo_inurba_marseille","lat":43.29003,"lon":5.35608,"is_reserved":false,"is_disabled":false,"rental_uris":{"android":"levelo://app?vid=0f3e57d1-cd2f-4c1b-b098-b2a4def06e2a","ios":"levelo://app?vid=0f3e57d1-cd2f-4c1b-b098-b2a4def06e2a"},"vehicle_type_id":"4","last_reported":1736161646,"current_range_meters":39200,"station_id":"ce4bhb92rcd13ifvqen0","pricing_plan_id":"cebpf4jnsgd1na2vs0mg"},{"bike_id":"91a4e789-baa2-47f0-b93b-1e1d7a9213ce","system_id":"levelo_inurba_marseille","lat":43.29783,"lon":5.39342,"is_reserved":false,"is_disabled":false,"rental_uris":{"android":"levelo://app?vid=91a4e789-baa2-47f0-b93b-1e1d7a9213ce","ios":"levelo://app?vid=91a4e789-baa2-47f0-b93b-1e1d7a9213ce"},"vehicle_type_id":"4","last_reported":1736161646,"current_range_meters":16400,"station_id":"chh1huq6cuj3fo74tm60","pricing_plan_id":"cebpf4jnsgd1na2vs0mg"},{"bike_id":"a7fac59e-eb05-4570-a1e9-e4a793c4fb5f","system_id":"levelo_inurba_marseille","lat":43.28728,"lon":5.37941,"is_reserved":false,"is_disabled":false,"rental_uris":{"android":"levelo://app?vid=a7fac59e-eb05-4570-a1e9-e4a793c4fb5f","ios":"levelo://app?vid=a7fac59e-eb05-4570-a1e9-e4a793c4fb5f"},"vehicle_type_id":"4","last_reported":1736161646,"current_range_meters":38000,"station_id":"ce4bh9p2rcd13ifvqec0","pricing_plan_id":"cebpf4jnsgd1na2vs0mg"},{"bike_id":"72a6bce4-9855-46c8-930a-681eb4cca988","system_id":"levelo_inurba_marseille","lat":43.28477,"lon":5.38422,"is_reserved":false,"is_disabled":false,"rental_uris":{"android":"levelo://app?vid=72a6bce4-9855-46c8-930a-681eb4cca988","ios":"levelo://app?vid=72a6bce4-9855-46c8-930a-681eb4cca988"},"vehicle_type_id":"4","last_reported":1736161646,"current_range_meters":14800,"station_id":"ce4bh512rcd13ifvqe3g","pricing_plan_id":"cebpf4jnsgd1na2vs0mg"},{"bike_id":"debe4c5f-4743-4cfb-88bd-9bd4502d24d0","system_id":"levelo_inurba_marseille","lat":43.29703,"lon":5.36599,"is_reserved":false,"is_disabled":false,"rental_uris":{"android":"levelo://app?vid=debe4c5f-4743-4cfb-88bd-9bd4502d24d0","ios":"levelo://app?vid=debe4c5f-4743-4cfb-88bd-9bd4502d24d0"},"vehicle_type_id":"4","last_reported":1736161646,"current_range_meters":38800,"station_id":"ce4bgn12rcd13ifvqbt0","pricing_plan_id":"cebpf4jnsgd1na2vs0mg"},{"bike_id":"a2fad600-bcdc-4fe2-b5cf-418b8c47104e","system_id":"levelo_inurba_marseille","lat":43.24653,"lon":5.38904,"is_reserved":false,"is_disabled":false,"rental_uris":{"android":"levelo://app?vid=a2fad600-bcdc-4fe2-b5cf-418b8c47104e","ios":"levelo://app?vid=a2fad600-bcdc-4fe2-b5cf-418b8c47104e"},"vehicle_type_id":"4","last_reported":1736161646,"current_range_meters":28400,"station_id":"ce4bhg12rcd13ifvqf60","pricing_plan_id":"cebpf4jnsgd1na2vs0mg"},{"bike_id":"92c070a2-822d-4ada-a5ee-9b7bdd0e61f1","system_id":"levelo_inurba_marseille","lat":43.32666,"lon":5.40993,"is_reserved":false,"is_disabled":false,"rental_uris":{"android":"levelo://app?vid=92c070a2-822d-4ada-a5ee-9b7bdd0e61f1","ios":"levelo://app?vid=92c070a2-822d-4ada-a5ee-9b7bdd0e61f1"},"vehicle_type_id":"4","last_reported":1736161646,"current_range_meters":34000,"station_id":"ce4bhpp2rcd13ifvqhgg","pricing_plan_id":"cebpf4jnsgd1na2vs0mg"},{"bike_id":"1832c7c6-2927-4015-8007-961e9af8d336","system_id":"levelo_inurba_marseille","lat":43.29002,"lon":5.35609,"is_reserved":false,"is_disabled":false,"rental_uris":{"android":"levelo://app?vid=1832c7c6-2927-4015-8007-961e9af8d336","ios":"levelo://app?vid=1832c7c6-2927-4015-8007-961e9af8d336"},"vehicle_type_id":"4","last_reported":1736161646,"current_range_meters":19600,"station_id":"ce4bhb92rcd13ifvqen0","pricing_plan_id":"cebpf4jnsgd1na2vs0mg"},{"bike_id":"28d4df31-50ce-4391-8c10-6a3513e978aa","system_id":"levelo_inurba_marseille","lat":43.25065,"lon":5.39543,"is_reserved":false,"is_disabled":false,"rental_uris":{"android":"levelo://app?vid=28d4df31-50ce-4391-8c10-6a3513e978aa","ios":"levelo://app?vid=28d4df31-50ce-4391-8c10-6a3513e978aa"},"vehicle_type_id":"4","last_reported":1736161646,"current_range_meters":5600,"station_id":"ce4bhm12rcd13ifvqgkg","pricing_plan_id":"cebpf4jnsgd1na2vs0mg"},{"bike_id":"df7eb6fa-4209-4d04-be84-91f6dd7239e4","system_id":"levelo_inurba_marseille","lat":43.28931,"lon":5.3967,"is_reserved":false,"is_disabled":false,"rental_uris":{"android":"levelo://app?vid=df7eb6fa-4209-4d04-be84-91f6dd7239e4","ios":"levelo://app?vid=df7eb6fa-4209-4d04-be84-91f6dd7239e4"},"vehicle_type_id":"4","last_reported":1736161646,"current_range_meters":34000,"station_id":"ce4bh3h2rcd13ifvqdn0","pricing_plan_id":"cebpf4jnsgd1na2vs0mg"},{"bike_id":"a35977fb-8d2b-4c3c-b6d2-4d1db19cc00e","system_id":"levelo_inurba_marseille","lat":43.30553,"lon":5.36694,"is_reserved":false,"is_disabled":false,"rental_uris":{"android":"levelo://app?vid=a35977fb-8d2b-4c3c-b6d2-4d1db19cc00e","ios":"levelo://app?vid=a35977fb-8d2b-4c3c-b6d2-4d1db19cc00e"},"vehicle_type_id":"4","last_reported":1736161646,"current_range_meters":25200,"station_id":"ce4bgrp2rcd13ifvqc9g","pricing_plan_id":"cebpf4jnsgd1na2vs0mg"},{"bike_id":"6a595de3-0911-46a9-bdbf-4cca5437105e","system_id":"levelo_inurba_marseille","lat":43.232,"lon":5.35531,"is_reserved":false,"is_disabled":false,"rental_uris":{"android":"levelo://app?vid=6a595de3-0911-46a9-bdbf-4cca5437105e","ios":"levelo://app?vid=6a595de3-0911-46a9-bdbf-4cca5437105e"},"vehicle_type_id":"4","last_reported":1736161646,"current_range_meters":22000,"station_id":"ce4bhu92rcd13ifvqi70","pricing_plan_id":"cebpf4jnsgd1na2vs0mg"},{"bike_id":"641d8acc-50b2-4173-ab23-c70f2a11d28e","system_id":"levelo_inurba_marseille","lat":43.28164,"lon":5.42634,"is_reserved":false,"is_disabled":true,"rental_uris":{"android":"levelo://app?vid=641d8acc-50b2-4173-ab23-c70f2a11d28e","ios":"levelo://app?vid=641d8acc-50b2-4173-ab23-c70f2a11d28e"},"vehicle_type_id":"4","last_reported":1736161646,"current_range_meters":28000,"station_id":"ce4bhnh2rcd13ifvqgug","pricing_plan_id":"cebpf4jnsgd1na2vs0mg"},{"bike_id":"15e503f5-1d52-42d6-a98f-33a61fd8b554","system_id":"levelo_inurba_marseille","lat":43.284594,"lon":5.358961,"is_reserved":false,"is_disabled":true,"rental_uris":{"android":"levelo://app?vid=15e503f5-1d52-42d6-a98f-33a61fd8b554","ios":"levelo://app?vid=15e503f5-1d52-42d6-a98f-33a61fd8b554"},"vehicle_type_id":"4","last_reported":1736161646,"current_range_meters":22800,"station_id":"ce4bhah2rcd13ifvqei0","pricing_plan_id":"cebpf4jnsgd1na2vs0mg"},{"bike_id":"6a6cde56-543d-4320-b530-a8d4d4944794","system_id":"levelo_inurba_marseille","lat":43.29893,"lon":5.43667,"is_reserved":false,"is_disabled":false,"rental_uris":{"android":"levelo://app?vid=6a6cde56-543d-4320-b530-a8d4d4944794","ios":"levelo://app?vid=6a6cde56-543d-4320-b530-a8d4d4944794"},"vehicle_type_id":"4","last_reported":1736161646,"current_range_meters":24800,"station_id":"ce4bhpp2rcd13ifvqhfg","pricing_plan_id":"cebpf4jnsgd1na2vs0mg"},{"bike_id":"73592c3a-584f-4d66-b4b1-5f9363f590c2","system_id":"levelo_inurba_marseille","lat":43.30915,"lon":5.36848,"is_reserved":false,"is_disabled":false,"rental_uris":{"android":"levelo://app?vid=73592c3a-584f-4d66-b4b1-5f9363f590c2","ios":"levelo://app?vid=73592c3a-584f-4d66-b4b1-5f9363f590c2"},"vehicle_type_id":"4","last_reported":1736161646,"current_range_meters":35600,"station_id":"ce4bgn92rcd13ifvqbvg","pricing_plan_id":"cebpf4jnsgd1na2vs0mg"},{"bike_id":"88fbd2f9-edba-4674-927d-ce8a9c56a0e7","system_id":"levelo_inurba_marseille","lat":43.28158,"lon":5.42632,"is_reserved":false,"is_disabled":false,"rental_uris":{"android":"levelo://app?vid=88fbd2f9-edba-4674-927d-ce8a9c56a0e7","ios":"levelo://app?vid=88fbd2f9-edba-4674-927d-ce8a9c56a0e7"},"vehicle_type_id":"4","last_reported":1736161646,"current_range_meters":28000,"station_id":"ce4bhnh2rcd13ifvqgug","pricing_plan_id":"cebpf4jnsgd1na2vs0mg"},{"bike_id":"1d0bbe0f-f700-4582-ac8d-9f2887749fbf","system_id":"levelo_inurba_marseille","lat":43.28464,"lon":5.38462,"is_reserved":false,"is_disabled":true,"rental_uris":{"android":"levelo://app?vid=1d0bbe0f-f700-4582-ac8d-9f2887749fbf","ios":"levelo://app?vid=1d0bbe0f-f700-4582-ac8d-9f2887749fbf"},"vehicle_type_id":"4","last_reported":1736161646,"current_range_meters":37600,"station_id":"ce4bh512rcd13ifvqe3g","pricing_plan_id":"cebpf4jnsgd1na2vs0mg"},{"bike_id":"160344ce-aa76-4a0e-990e-37fda15381c1","system_id":"levelo_inurba_marseille","lat":43.26679,"lon":5.38271,"is_reserved":false,"is_disabled":false,"rental_uris":{"android":"levelo://app?vid=160344ce-aa76-4a0e-990e-37fda15381c1","ios":"levelo://app?vid=160344ce-aa76-4a0e-990e-37fda15381c1"},"vehicle_type_id":"4","last_reported":1736161646,"current_range_meters":38800,"station_id":"ce4bhg92rcd13ifvqf90","pricing_plan_id":"cebpf4jnsgd1na2vs0mg"},{"bike_id":"4c80bb1a-a897-4d0c-bf1e-4fea0e939916","system_id":"levelo_inurba_marseille","lat":43.25935,"lon":5.40934,"is_reserved":false,"is_disabled":false,"rental_uris":{"android":"levelo://app?vid=4c80bb1a-a897-4d0c-bf1e-4fea0e939916","ios":"levelo://app?vid=4c80bb1a-a897-4d0c-bf1e-4fea0e939916"},"vehicle_type_id":"4","last_reported":1736161646,"current_range_meters":34800,"station_id":"ce4bhm92rcd13ifvqglg","pricing_plan_id":"cebpf4jnsgd1na2vs0mg"},{"bike_id":"cc2efdd1-beaf-4fd4-918b-092fd4e8fead","system_id":"levelo_inurba_marseille","lat":43.24178,"lon":5.39723,"is_reserved":false,"is_disabled":false,"rental_uris":{"android":"levelo://app?vid=cc2efdd1-beaf-4fd4-918b-092fd4e8fead","ios":"levelo://app?vid=cc2efdd1-beaf-4fd4-918b-092fd4e8fead"},"vehicle_type_id":"4","last_reported":1736161646,"current_range_meters":16400,"station_id":"ce4bhn12rcd13ifvqgpg","pricing_plan_id":"cebpf4jnsgd1na2vs0mg"},{"bike_id":"e945b5ed-7c2f-49e9-a5ab-87433ef88f1a","system_id":"levelo_inurba_marseille","lat":43.24997,"lon":5.38947,"is_reserved":false,"is_disabled":false,"rental_uris":{"android":"levelo://app?vid=e945b5ed-7c2f-49e9-a5ab-87433ef88f1a","ios":"levelo://app?vid=e945b5ed-7c2f-49e9-a5ab-87433ef88f1a"},"vehicle_type_id":"4","last_reported":1736161646,"current_range_meters":12800,"station_id":"ce4bhgp2rcd13ifvqfd0","pricing_plan_id":"cebpf4jnsgd1na2vs0mg"},{"bike_id":"237eb7a7-7331-4631-9377-6cdbdc6e4e98","system_id":"levelo_inurba_marseille","lat":43.26538,"lon":5.39038,"is_reserved":false,"is_disabled":true,"rental_uris":{"android":"levelo://app?vid=237eb7a7-7331-4631-9377-6cdbdc6e4e98","ios":"levelo://app?vid=237eb7a7-7331-4631-9377-6cdbdc6e4e98"},"vehicle_type_id":"4","last_reported":1736161646,"current_range_meters":36000,"station_id":"ce4bhe12rcd13ifvqf30","pricing_plan_id":"cebpf4jnsgd1na2vs0mg"},{"bike_id":"ea6a2a46-94d6-4448-bca2-ff40b159de76","system_id":"levelo_inurba_marseille","lat":43.23148,"lon":5.43725,"is_reserved":false,"is_disabled":false,"rental_uris":{"android":"levelo://app?vid=ea6a2a46-94d6-4448-bca2-ff40b159de76","ios":"levelo://app?vid=ea6a2a46-94d6-4448-bca2-ff40b159de76"},"vehicle_type_id":"4","last_reported":1736161646,"current_range_meters":10000,"station_id":"ce4bhmp2rcd13ifvqgog","pricing_plan_id":"cebpf4jnsgd1na2vs0mg"},{"bike_id":"f72bc202-65c3-48d4-84be-fd7cacb541fe","system_id":"levelo_inurba_marseille","lat":43.30611,"lon":5.39366,"is_reserved":false,"is_disabled":true,"rental_uris":{"android":"levelo://app?vid=f72bc202-65c3-48d4-84be-fd7cacb541fe","ios":"levelo://app?vid=f72bc202-65c3-48d4-84be-fd7cacb541fe"},"vehicle_type_id":"4","last_reported":1736161646,"current_range_meters":37600,"station_id":"ce4bh0p2rcd13ifvqd80","pricing_plan_id":"cebpf4jnsgd1na2vs0mg"},{"bike_id":"983a939f-0c90-4b41-8e07-1ba37a328643","system_id":"levelo_inurba_marseille","lat":43.24172,"lon":5.36413,"is_reserved":false,"is_disabled":false,"rental_uris":{"android":"levelo://app?vid=983a939f-0c90-4b41-8e07-1ba37a328643","ios":"levelo://app?vid=983a939f-0c90-4b41-8e07-1ba37a328643"},"vehicle_type_id":"4","last_reported":1736161646,"current_range_meters":16400,"station_id":"cpo36qri1sfpv3e86is0","pricing_plan_id":"cebpf4jnsgd1na2vs0mg"},{"bike_id":"00a90d78-1997-499c-9491-16973d059e3f","system_id":"levelo_inurba_marseille","lat":43.24079,"lon":5.37758,"is_reserved":false,"is_disabled":false,"rental_uris":{"android":"levelo://app?vid=00a90d78-1997-499c-9491-16973d059e3f","ios":"levelo://app?vid=00a90d78-1997-499c-9491-16973d059e3f"},"vehicle_type_id":"4","last_reported":1736161646,"current_range_meters":37600,"station_id":"ce4bhnp2rcd13ifvqgvg","pricing_plan_id":"cebpf4jnsgd1na2vs0mg"},{"bike_id":"a1b6d721-c347-4a9e-8f95-533d4cfedc53","system_id":"levelo_inurba_marseille","lat":43.301,"lon":5.39076,"is_reserved":false,"is_disabled":false,"rental_uris":{"android":"levelo://app?vid=a1b6d721-c347-4a9e-8f95-533d4cfedc53","ios":"levelo://app?vid=a1b6d721-c347-4a9e-8f95-533d4cfedc53"},"vehicle_type_id":"4","last_reported":1736161646,"current_range_meters":28400,"station_id":"ce4bh192rcd13ifvqdb0","pricing_plan_id":"cebpf4jnsgd1na2vs0mg"},{"bike_id":"54e4be84-83c8-420e-bef0-7a74d7f5479c","system_id":"levelo_inurba_marseille","lat":43.28072,"lon":5.3965,"is_reserved":false,"is_disabled":false,"rental_uris":{"android":"levelo://app?vid=54e4be84-83c8-420e-bef0-7a74d7f5479c","ios":"levelo://app?vid=54e4be84-83c8-420e-bef0-7a74d7f5479c"},"vehicle_type_id":"4","last_reported":1736161646,"current_range_meters":16000,"station_id":"ce4bho12rcd13ifvqh2g","pricing_plan_id":"cebpf4jnsgd1na2vs0mg"},{"bike_id":"794820a8-3ae3-4e47-b94b-63ea56986ff5","system_id":"levelo_inurba_marseille","lat":43.29546,"lon":5.42305,"is_reserved":false,"is_disabled":false,"rental_uris":{"android":"levelo://app?vid=794820a8-3ae3-4e47-b94b-63ea56986ff5","ios":"levelo://app?vid=794820a8-3ae3-4e47-b94b-63ea56986ff5"},"vehicle_type_id":"4","last_reported":1736161646,"current_range_meters":17200,"station_id":"ce4bhph2rcd13ifvqhdg","pricing_plan_id":"cebpf4jnsgd1na2vs0mg"},{"bike_id":"f4d8c4ef-8386-4f21-ac5a-4d5f45998a58","system_id":"levelo_inurba_marseille","lat":43.32663,"lon":5.40993,"is_reserved":false,"is_disabled":false,"rental_uris":{"android":"levelo://app?vid=f4d8c4ef-8386-4f21-ac5a-4d5f45998a58","ios":"levelo://app?vid=f4d8c4ef-8386-4f21-ac5a-4d5f45998a58"},"vehicle_type_id":"4","last_reported":1736161646,"current_range_meters":27200,"station_id":"ce4bhpp2rcd13ifvqhgg","pricing_plan_id":"cebpf4jnsgd1na2vs0mg"},{"bike_id":"73881a79-d492-4189-92f3-51eb971610eb","system_id":"levelo_inurba_marseille","lat":43.24678,"lon":5.38152,"is_reserved":false,"is_disabled":false,"rental_uris":{"android":"levelo://app?vid=73881a79-d492-4189-92f3-51eb971610eb","ios":"levelo://app?vid=73881a79-d492-4189-92f3-51eb971610eb"},"vehicle_type_id":"4","last_reported":1736161646,"current_range_meters":20800,"station_id":"ce4bhih2rcd13ifvqfr0","pricing_plan_id":"cebpf4jnsgd1na2vs0mg"},{"bike_id":"06532eee-b42e-4f78-9a66-21eddface788","system_id":"levelo_inurba_marseille","lat":43.27064,"lon":5.40271,"is_reserved":false,"is_disabled":false,"rental_uris":{"android":"levelo://app?vid=06532eee-b42e-4f78-9a66-21eddface788","ios":"levelo://app?vid=06532eee-b42e-4f78-9a66-21eddface788"},"vehicle_type_id":"4","last_reported":1736161646,"current_range_meters":36400,"station_id":"ce4bhk92rcd13ifvqgc0","pricing_plan_id":"cebpf4jnsgd1na2vs0mg"},{"bike_id":"cca2f7c7-45e7-4f8a-80d9-cffca2b70c93","system_id":"levelo_inurba_marseille","lat":43.26695,"lon":5.38315,"is_reserved":false,"is_disabled":true,"rental_uris":{"android":"levelo://app?vid=cca2f7c7-45e7-4f8a-80d9-cffca2b70c93","ios":"levelo://app?vid=cca2f7c7-45e7-4f8a-80d9-cffca2b70c93"},"vehicle_type_id":"4","last_reported":1736161646,"current_range_meters":36400,"station_id":"ce4bhg92rcd13ifvqf90","pricing_plan_id":"cebpf4jnsgd1na2vs0mg"},{"bike_id":"126c71b7-4a16-436e-b681-5136670049ce","system_id":"levelo_inurba_marseille","lat":43.29529,"lon":5.37512,"is_reserved":false,"is_disabled":false,"rental_uris":{"android":"levelo://app?vid=126c71b7-4a16-436e-b681-5136670049ce","ios":"levelo://app?vid=126c71b7-4a16-436e-b681-5136670049ce"},"vehicle_type_id":"4","last_reported":1736161646,"current_range_meters":36400,"station_id":"ce4bgkp2rcd13ifvqbmg","pricing_plan_id":"cebpf4jnsgd1na2vs0mg"},{"bike_id":"de61784b-9926-4849-b558-4384f26dad49","system_id":"levelo_inurba_marseille","lat":43.28472,"lon":5.38463,"is_reserved":false,"is_disabled":true,"rental_uris":{"android":"levelo://app?vid=de61784b-9926-4849-b558-4384f26dad49","ios":"levelo://app?vid=de61784b-9926-4849-b558-4384f26dad49"},"vehicle_type_id":"4","last_reported":1736161646,"current_range_meters":37600,"station_id":"ce4bh512rcd13ifvqe3g","pricing_plan_id":"cebpf4jnsgd1na2vs0mg"},{"bike_id":"3a929f06-630d-46d8-9d58-834622c00e05","system_id":"levelo_inurba_marseille","lat":43.29581,"lon":5.36748,"is_reserved":false,"is_disabled":false,"rental_uris":{"android":"levelo://app?vid=3a929f06-630d-46d8-9d58-834622c00e05","ios":"levelo://app?vid=3a929f06-630d-46d8-9d58-834622c00e05"},"vehicle_type_id":"4","last_reported":1736161646,"current_range_meters":32800,"station_id":"ce4bgph2rcd13ifvqc2g","pricing_plan_id":"cebpf4jnsgd1na2vs0mg"},{"bike_id":"130e7941-22e2-4c3a-bfb7-ba61e8cffc8f","system_id":"levelo_inurba_marseille","lat":43.24985,"lon":5.38958,"is_reserved":false,"is_disabled":false,"rental_uris":{"android":"levelo://app?vid=130e7941-22e2-4c3a-bfb7-ba61e8cffc8f","ios":"levelo://app?vid=130e7941-22e2-4c3a-bfb7-ba61e8cffc8f"},"vehicle_type_id":"4","last_reported":1736161646,"current_range_meters":28000,"station_id":"ce4bhgp2rcd13ifvqfd0","pricing_plan_id":"cebpf4jnsgd1na2vs0mg"},{"bike_id":"182c8827-ad8b-4aa6-9862-5b2da55309dc","system_id":"levelo_inurba_marseille","lat":43.2922,"lon":5.36053,"is_reserved":false,"is_disabled":true,"rental_uris":{"android":"levelo://app?vid=182c8827-ad8b-4aa6-9862-5b2da55309dc","ios":"levelo://app?vid=182c8827-ad8b-4aa6-9862-5b2da55309dc"},"vehicle_type_id":"4","last_reported":1736161646,"current_range_meters":35600,"station_id":"ce4bhbh2rcd13ifvqeqg","pricing_plan_id":"cebpf4jnsgd1na2vs0mg"},{"bike_id":"05925c95-d35a-4389-a1c2-1abe457d716c","system_id":"levelo_inurba_marseille","lat":43.2931,"lon":5.37412,"is_reserved":false,"is_disabled":false,"rental_uris":{"android":"levelo://app?vid=05925c95-d35a-4389-a1c2-1abe457d716c","ios":"levelo://app?vid=05925c95-d35a-4389-a1c2-1abe457d716c"},"vehicle_type_id":"4","last_reported":1736161646,"current_range_meters":36000,"station_id":"ce4bgi12rcd13ifvqb70","pricing_plan_id":"cebpf4jnsgd1na2vs0mg"},{"bike_id":"f170f9ff-52ce-45f9-9007-9645ad23bf1c","system_id":"levelo_inurba_marseille","lat":43.2756,"lon":5.38432,"is_reserved":false,"is_disabled":false,"rental_uris":{"android":"levelo://app?vid=f170f9ff-52ce-45f9-9007-9645ad23bf1c","ios":"levelo://app?vid=f170f9ff-52ce-45f9-9007-9645ad23bf1c"},"vehicle_type_id":"4","last_reported":1736161646,"current_range_meters":35200,"station_id":"ce4bhh92rcd13ifvqfi0","pricing_plan_id":"cebpf4jnsgd1na2vs0mg"},{"bike_id":"6a9c4d5a-a70e-4a16-bba0-1cb897acaec8","system_id":"levelo_inurba_marseille","lat":43.30638,"lon":5.40096,"is_reserved":false,"is_disabled":false,"rental_uris":{"android":"levelo://app?vid=6a9c4d5a-a70e-4a16-bba0-1cb897acaec8","ios":"levelo://app?vid=6a9c4d5a-a70e-4a16-bba0-1cb897acaec8"},"vehicle_type_id":"4","last_reported":1736161646,"current_range_meters":36000,"station_id":"ce4bh112rcd13ifvqda0","pricing_plan_id":"cebpf4jnsgd1na2vs0mg"},{"bike_id":"130d9611-6111-436a-a5c2-674328993e60","system_id":"levelo_inurba_marseille","lat":43.2511,"lon":5.4034,"is_reserved":false,"is_disabled":false,"rental_uris":{"android":"levelo://app?vid=130d9611-6111-436a-a5c2-674328993e60","ios":"levelo://app?vid=130d9611-6111-436a-a5c2-674328993e60"},"vehicle_type_id":"4","last_reported":1736161646,"current_range_meters":22400,"station_id":"ce4bhlh2rcd13ifvqgig","pricing_plan_id":"cebpf4jnsgd1na2vs0mg"},{"bike_id":"8bacdaca-b499-4837-9d6b-73ff9ef5b0d7","system_id":"levelo_inurba_marseille","lat":43.30556,"lon":5.38039,"is_reserved":false,"is_disabled":false,"rental_uris":{"android":"levelo://app?vid=8bacdaca-b499-4837-9d6b-73ff9ef5b0d7","ios":"levelo://app?vid=8bacdaca-b499-4837-9d6b-73ff9ef5b0d7"},"vehicle_type_id":"4","last_reported":1736161646,"current_range_meters":28400,"station_id":"","pricing_plan_id":"cebpf4jnsgd1na2vs0mg"},{"bike_id":"fc4f68b8-81e1-4a10-9e36-8d6c423c8c1f","system_id":"levelo_inurba_marseille","lat":43.29197,"lon":5.39304,"is_reserved":false,"is_disabled":false,"rental_uris":{"android":"levelo://app?vid=fc4f68b8-81e1-4a10-9e36-8d6c423c8c1f","ios":"levelo://app?vid=fc4f68b8-81e1-4a10-9e36-8d6c423c8c1f"},"vehicle_type_id":"4","last_reported":1736161646,"current_range_meters":14800,"station_id":"ce4bh192rcd13ifvqdd0","pricing_plan_id":"cebpf4jnsgd1na2vs0mg"},{"bike_id":"bacd7571-be15-43c7-8506-8086a631a213","system_id":"levelo_inurba_marseille","lat":43.25111,"lon":5.40345,"is_reserved":false,"is_disabled":false,"rental_uris":{"android":"levelo://app?vid=bacd7571-be15-43c7-8506-8086a631a213","ios":"levelo://app?vid=bacd7571-be15-43c7-8506-8086a631a213"},"vehicle_type_id":"4","last_reported":1736161646,"current_range_meters":38400,"station_id":"ce4bhlh2rcd13ifvqgig","pricing_plan_id":"cebpf4jnsgd1na2vs0mg"},{"bike_id":"d8f5a2ae-9fda-4dfc-a4d7-764cd3c603c7","system_id":"levelo_inurba_marseille","lat":43.29003,"lon":5.35613,"is_reserved":false,"is_disabled":false,"rental_uris":{"android":"levelo://app?vid=d8f5a2ae-9fda-4dfc-a4d7-764cd3c603c7","ios":"levelo://app?vid=d8f5a2ae-9fda-4dfc-a4d7-764cd3c603c7"},"vehicle_type_id":"4","last_reported":1736161646,"current_range_meters":32000,"station_id":"ce4bhb92rcd13ifvqen0","pricing_plan_id":"cebpf4jnsgd1na2vs0mg"},{"bike_id":"6c15ab7d-af59-4769-b84d-bc2dfca3aa2d","system_id":"levelo_inurba_marseille","lat":43.30147,"lon":5.36657,"is_reserved":false,"is_disabled":false,"rental_uris":{"android":"levelo://app?vid=6c15ab7d-af59-4769-b84d-bc2dfca3aa2d","ios":"levelo://app?vid=6c15ab7d-af59-4769-b84d-bc2dfca3aa2d"},"vehicle_type_id":"4","last_reported":1736161646,"current_range_meters":39200,"station_id":"ce4bgrh2rcd13ifvqc8g","pricing_plan_id":"cebpf4jnsgd1na2vs0mg"},{"bike_id":"583935a9-66ac-4274-8425-07ab27dfb415","system_id":"levelo_inurba_marseille","lat":43.29634,"lon":5.37153,"is_reserved":false,"is_disabled":false,"rental_uris":{"android":"levelo://app?vid=583935a9-66ac-4274-8425-07ab27dfb415","ios":"levelo://app?vid=583935a9-66ac-4274-8425-07ab27dfb415"},"vehicle_type_id":"4","last_reported":1736161646,"current_range_meters":36400,"station_id":"ce4bgnh2rcd13ifvqc0g","pricing_plan_id":"cebpf4jnsgd1na2vs0mg"},{"bike_id":"24bccac7-1e4b-45e8-bc23-0feeff5509f0","system_id":"levelo_inurba_marseille","lat":43.26498,"lon":5.39564,"is_reserved":false,"is_disabled":true,"rental_uris":{"android":"levelo://app?vid=24bccac7-1e4b-45e8-bc23-0feeff5509f0","ios":"levelo://app?vid=24bccac7-1e4b-45e8-bc23-0feeff5509f0"},"vehicle_type_id":"4","last_reported":1736161646,"current_range_meters":0,"station_id":"ce4bhi12rcd13ifvqfq0","pricing_plan_id":"cebpf4jnsgd1na2vs0mg"},{"bike_id":"9486067e-e6c1-4732-ac14-15127e64ca59","system_id":"levelo_inurba_marseille","lat":43.30532,"lon":5.36724,"is_reserved":false,"is_disabled":false,"rental_uris":{"android":"levelo://app?vid=9486067e-e6c1-4732-ac14-15127e64ca59","ios":"levelo://app?vid=9486067e-e6c1-4732-ac14-15127e64ca59"},"vehicle_type_id":"4","last_reported":1736161646,"current_range_meters":33200,"station_id":"ce4bgrp2rcd13ifvqc9g","pricing_plan_id":"cebpf4jnsgd1na2vs0mg"},{"bike_id":"b0810445-4943-4ac1-893d-adbc49f9d502","system_id":"levelo_inurba_marseille","lat":43.3053,"lon":5.36706,"is_reserved":false,"is_disabled":false,"rental_uris":{"android":"levelo://app?vid=b0810445-4943-4ac1-893d-adbc49f9d502","ios":"levelo://app?vid=b0810445-4943-4ac1-893d-adbc49f9d502"},"vehicle_type_id":"4","last_reported":1736161646,"current_range_meters":31200,"station_id":"ce4bgrp2rcd13ifvqc9g","pricing_plan_id":"cebpf4jnsgd1na2vs0mg"},{"bike_id":"d400eb61-16e5-4772-875c-c1ea2e3b188d","system_id":"levelo_inurba_marseille","lat":43.27656,"lon":5.38929,"is_reserved":false,"is_disabled":false,"rental_uris":{"android":"levelo://app?vid=d400eb61-16e5-4772-875c-c1ea2e3b188d","ios":"levelo://app?vid=d400eb61-16e5-4772-875c-c1ea2e3b188d"},"vehicle_type_id":"4","last_reported":1736161646,"current_range_meters":38000,"station_id":"ce4bhi12rcd13ifvqfo0","pricing_plan_id":"cebpf4jnsgd1na2vs0mg"},{"bike_id":"2b653545-7b4a-4ce0-95f1-6f043464b4ab","system_id":"levelo_inurba_marseille","lat":43.28465,"lon":5.3842,"is_reserved":false,"is_disabled":false,"rental_uris":{"android":"levelo://app?vid=2b653545-7b4a-4ce0-95f1-6f043464b4ab","ios":"levelo://app?vid=2b653545-7b4a-4ce0-95f1-6f043464b4ab"},"vehicle_type_id":"4","last_reported":1736161646,"current_range_meters":38400,"station_id":"ce4bh512rcd13ifvqe3g","pricing_plan_id":"cebpf4jnsgd1na2vs0mg"},{"bike_id":"cffd017d-8541-4adb-92a2-b3ad33d37f2a","system_id":"levelo_inurba_marseille","lat":43.29281,"lon":5.40135,"is_reserved":false,"is_disabled":true,"rental_uris":{"android":"levelo://app?vid=cffd017d-8541-4adb-92a2-b3ad33d37f2a","ios":"levelo://app?vid=cffd017d-8541-4adb-92a2-b3ad33d37f2a"},"vehicle_type_id":"4","last_reported":1736161646,"current_range_meters":37600,"station_id":"ce4bh312rcd13ifvqdk0","pricing_plan_id":"cebpf4jnsgd1na2vs0mg"},{"bike_id":"6cae8b4b-cc47-4fb7-91a5-5c144d2857ca","system_id":"levelo_inurba_marseille","lat":43.28568,"lon":5.39504,"is_reserved":false,"is_disabled":false,"rental_uris":{"android":"levelo://app?vid=6cae8b4b-cc47-4fb7-91a5-5c144d2857ca","ios":"levelo://app?vid=6cae8b4b-cc47-4fb7-91a5-5c144d2857ca"},"vehicle_type_id":"4","last_reported":1736161646,"current_range_meters":38000,"station_id":"ce4bh292rcd13ifvqdg0","pricing_plan_id":"cebpf4jnsgd1na2vs0mg"},{"bike_id":"9af40ae0-bbcf-42b6-bd88-11b8b2eb507f","system_id":"levelo_inurba_marseille","lat":43.25078,"lon":5.39515,"is_reserved":false,"is_disabled":false,"rental_uris":{"android":"levelo://app?vid=9af40ae0-bbcf-42b6-bd88-11b8b2eb507f","ios":"levelo://app?vid=9af40ae0-bbcf-42b6-bd88-11b8b2eb507f"},"vehicle_type_id":"4","last_reported":1736161646,"current_range_meters":14000,"station_id":"ce4bhm12rcd13ifvqgkg","pricing_plan_id":"cebpf4jnsgd1na2vs0mg"},{"bike_id":"d45d0089-5e8c-41ac-a04c-9866c8dc94cc","system_id":"levelo_inurba_marseille","lat":43.23223,"lon":5.35558,"is_reserved":false,"is_disabled":false,"rental_uris":{"android":"levelo://app?vid=d45d0089-5e8c-41ac-a04c-9866c8dc94cc","ios":"levelo://app?vid=d45d0089-5e8c-41ac-a04c-9866c8dc94cc"},"vehicle_type_id":"4","last_reported":1736161646,"current_range_meters":8400,"station_id":"ce4bhu92rcd13ifvqi70","pricing_plan_id":"cebpf4jnsgd1na2vs0mg"},{"bike_id":"780e8796-b286-40bb-966d-adf874d2f85e","system_id":"levelo_inurba_marseille","lat":43.28937,"lon":5.39683,"is_reserved":false,"is_disabled":false,"rental_uris":{"android":"levelo://app?vid=780e8796-b286-40bb-966d-adf874d2f85e","ios":"levelo://app?vid=780e8796-b286-40bb-966d-adf874d2f85e"},"vehicle_type_id":"4","last_reported":1736161646,"current_range_meters":32400,"station_id":"ce4bh3h2rcd13ifvqdn0","pricing_plan_id":"cebpf4jnsgd1na2vs0mg"},{"bike_id":"b5de95e0-8f34-41aa-a5fc-c4e76e03a994","system_id":"levelo_inurba_marseille","lat":43.28099,"lon":5.39656,"is_reserved":false,"is_disabled":true,"rental_uris":{"android":"levelo://app?vid=b5de95e0-8f34-41aa-a5fc-c4e76e03a994","ios":"levelo://app?vid=b5de95e0-8f34-41aa-a5fc-c4e76e03a994"},"vehicle_type_id":"4","last_reported":1736161646,"current_range_meters":28000,"station_id":"ce4bho12rcd13ifvqh2g","pricing_plan_id":"cebpf4jnsgd1na2vs0mg"},{"bike_id":"aa33a53e-f806-43a8-ad7e-8e2bd9644426","system_id":"levelo_inurba_marseille","lat":43.32345,"lon":5.40629,"is_reserved":false,"is_disabled":true,"rental_uris":{"android":"levelo://app?vid=aa33a53e-f806-43a8-ad7e-8e2bd9644426","ios":"levelo://app?vid=aa33a53e-f806-43a8-ad7e-8e2bd9644426"},"vehicle_type_id":"4","last_reported":1736161646,"current_range_meters":0,"station_id":"ce4bhq92rcd13ifvqhjg","pricing_plan_id":"cebpf4jnsgd1na2vs0mg"},{"bike_id":"93b93660-5252-451b-9137-5d5b608a6688","system_id":"levelo_inurba_marseille","lat":43.301,"lon":5.39071,"is_reserved":false,"is_disabled":false,"rental_uris":{"android":"levelo://app?vid=93b93660-5252-451b-9137-5d5b608a6688","ios":"levelo://app?vid=93b93660-5252-451b-9137-5d5b608a6688"},"vehicle_type_id":"4","last_reported":1736161646,"current_range_meters":34000,"station_id":"ce4bh192rcd13ifvqdb0","pricing_plan_id":"cebpf4jnsgd1na2vs0mg"},{"bike_id":"6d1d397b-1776-44d9-95c4-b65da798f285","system_id":"levelo_inurba_marseille","lat":43.31991,"lon":5.38164,"is_reserved":false,"is_disabled":false,"rental_uris":{"android":"levelo://app?vid=6d1d397b-1776-44d9-95c4-b65da798f285","ios":"levelo://app?vid=6d1d397b-1776-44d9-95c4-b65da798f285"},"vehicle_type_id":"4","last_reported":1736161646,"current_range_meters":19200,"station_id":"ce4bhr12rcd13ifvqhpg","pricing_plan_id":"cebpf4jnsgd1na2vs0mg"},{"bike_id":"bb896405-905f-4110-a07e-defff063aef8","system_id":"levelo_inurba_marseille","lat":43.292969,"lon":5.374496,"is_reserved":false,"is_disabled":true,"rental_uris":{"android":"levelo://app?vid=bb896405-905f-4110-a07e-defff063aef8","ios":"levelo://app?vid=bb896405-905f-4110-a07e-defff063aef8"},"vehicle_type_id":"4","last_reported":1736161646,"current_range_meters":33600,"station_id":"ce4bgi12rcd13ifvqb70","pricing_plan_id":"cebpf4jnsgd1na2vs0mg"},{"bike_id":"21d339bb-7c1c-4a6c-83d3-ceee585ba7f7","system_id":"levelo_inurba_marseille","lat":43.28998,"lon":5.35607,"is_reserved":false,"is_disabled":false,"rental_uris":{"android":"levelo://app?vid=21d339bb-7c1c-4a6c-83d3-ceee585ba7f7","ios":"levelo://app?vid=21d339bb-7c1c-4a6c-83d3-ceee585ba7f7"},"vehicle_type_id":"4","last_reported":1736161646,"current_range_meters":16000,"station_id":"ce4bhb92rcd13ifvqen0","pricing_plan_id":"cebpf4jnsgd1na2vs0mg"},{"bike_id":"fa875cef-dd06-4157-bdc5-ef1bd0ace9e9","system_id":"levelo_inurba_marseille","lat":43.337444,"lon":5.374475,"is_reserved":false,"is_disabled":false,"rental_uris":{"android":"levelo://app?vid=fa875cef-dd06-4157-bdc5-ef1bd0ace9e9","ios":"levelo://app?vid=fa875cef-dd06-4157-bdc5-ef1bd0ace9e9"},"vehicle_type_id":"4","last_reported":1736161646,"current_range_meters":8000,"station_id":"ce4bgg92rcd13ifvqb30","pricing_plan_id":"cebpf4jnsgd1na2vs0mg"},{"bike_id":"8df41abf-ed14-4589-9867-b5613d43a037","system_id":"levelo_inurba_marseille","lat":43.32478,"lon":5.36566,"is_reserved":false,"is_disabled":false,"rental_uris":{"android":"levelo://app?vid=8df41abf-ed14-4589-9867-b5613d43a037","ios":"levelo://app?vid=8df41abf-ed14-4589-9867-b5613d43a037"},"vehicle_type_id":"4","last_reported":1736161646,"current_range_meters":38000,"station_id":"ce4bhs12rcd13ifvqhvg","pricing_plan_id":"cebpf4jnsgd1na2vs0mg"},{"bike_id":"72aa27b6-580e-44c5-9bd2-168553fdc64a","system_id":"levelo_inurba_marseille","lat":43.29013,"lon":5.37551,"is_reserved":false,"is_disabled":true,"rental_uris":{"android":"levelo://app?vid=72aa27b6-580e-44c5-9bd2-168553fdc64a","ios":"levelo://app?vid=72aa27b6-580e-44c5-9bd2-168553fdc64a"},"vehicle_type_id":"4","last_reported":1736161646,"current_range_meters":1600,"station_id":"ce4bh692rcd13ifvqe90","pricing_plan_id":"cebpf4jnsgd1na2vs0mg"},{"bike_id":"eba9155c-90eb-48cd-813d-cd11473e142f","system_id":"levelo_inurba_marseille","lat":43.29025,"lon":5.40003,"is_reserved":false,"is_disabled":false,"rental_uris":{"android":"levelo://app?vid=eba9155c-90eb-48cd-813d-cd11473e142f","ios":"levelo://app?vid=eba9155c-90eb-48cd-813d-cd11473e142f"},"vehicle_type_id":"4","last_reported":1736161646,"current_range_meters":29600,"station_id":"ce4bh392rcd13ifvqdm0","pricing_plan_id":"cebpf4jnsgd1na2vs0mg"},{"bike_id":"71d48daa-c41c-4371-a864-66e4cdd77445","system_id":"levelo_inurba_marseille","lat":43.30643,"lon":5.40062,"is_reserved":false,"is_disabled":false,"rental_uris":{"android":"levelo://app?vid=71d48daa-c41c-4371-a864-66e4cdd77445","ios":"levelo://app?vid=71d48daa-c41c-4371-a864-66e4cdd77445"},"vehicle_type_id":"4","last_reported":1736161646,"current_range_meters":28400,"station_id":"ce4bh112rcd13ifvqda0","pricing_plan_id":"cebpf4jnsgd1na2vs0mg"},{"bike_id":"e14fc727-e110-4847-a3c5-e82ea6a6fcb8","system_id":"levelo_inurba_marseille","lat":43.28934,"lon":5.39645,"is_reserved":false,"is_disabled":true,"rental_uris":{"android":"levelo://app?vid=e14fc727-e110-4847-a3c5-e82ea6a6fcb8","ios":"levelo://app?vid=e14fc727-e110-4847-a3c5-e82ea6a6fcb8"},"vehicle_type_id":"4","last_reported":1736161646,"current_range_meters":31200,"station_id":"ce4bh3h2rcd13ifvqdn0","pricing_plan_id":"cebpf4jnsgd1na2vs0mg"},{"bike_id":"1fab812a-bd0a-4070-a0a7-ad4c89294c57","system_id":"levelo_inurba_marseille","lat":43.2899,"lon":5.35606,"is_reserved":false,"is_disabled":false,"rental_uris":{"android":"levelo://app?vid=1fab812a-bd0a-4070-a0a7-ad4c89294c57","ios":"levelo://app?vid=1fab812a-bd0a-4070-a0a7-ad4c89294c57"},"vehicle_type_id":"4","last_reported":1736161646,"current_range_meters":27600,"station_id":"ce4bhb92rcd13ifvqen0","pricing_plan_id":"cebpf4jnsgd1na2vs0mg"},{"bike_id":"d0541b38-8e7e-4e1e-8666-5868b43eb4cc","system_id":"levelo_inurba_marseille","lat":43.25086,"lon":5.40366,"is_reserved":false,"is_disabled":false,"rental_uris":{"android":"levelo://app?vid=d0541b38-8e7e-4e1e-8666-5868b43eb4cc","ios":"levelo://app?vid=d0541b38-8e7e-4e1e-8666-5868b43eb4cc"},"vehicle_type_id":"4","last_reported":1736161646,"current_range_meters":38800,"station_id":"ce4bhlh2rcd13ifvqgig","pricing_plan_id":"cebpf4jnsgd1na2vs0mg"},{"bike_id":"b0f6aca8-3f91-4c48-a9ce-fc71c17d1788","system_id":"levelo_inurba_marseille","lat":43.29797,"lon":5.38131,"is_reserved":false,"is_disabled":false,"rental_uris":{"android":"levelo://app?vid=b0f6aca8-3f91-4c48-a9ce-fc71c17d1788","ios":"levelo://app?vid=b0f6aca8-3f91-4c48-a9ce-fc71c17d1788"},"vehicle_type_id":"4","last_reported":1736161646,"current_range_meters":38800,"station_id":"ce4bgip2rcd13ifvqbb0","pricing_plan_id":"cebpf4jnsgd1na2vs0mg"},{"bike_id":"8e323011-876c-4191-b5dc-eaa2383a5437","system_id":"levelo_inurba_marseille","lat":43.27559,"lon":5.38424,"is_reserved":false,"is_disabled":false,"rental_uris":{"android":"levelo://app?vid=8e323011-876c-4191-b5dc-eaa2383a5437","ios":"levelo://app?vid=8e323011-876c-4191-b5dc-eaa2383a5437"},"vehicle_type_id":"4","last_reported":1736161646,"current_range_meters":24000,"station_id":"ce4bhh92rcd13ifvqfi0","pricing_plan_id":"cebpf4jnsgd1na2vs0mg"},{"bike_id":"e6a1844a-411d-4e2e-827d-f13a0839a281","system_id":"levelo_inurba_marseille","lat":43.25691,"lon":5.4114,"is_reserved":false,"is_disabled":false,"rental_uris":{"android":"levelo://app?vid=e6a1844a-411d-4e2e-827d-f13a0839a281","ios":"levelo://app?vid=e6a1844a-411d-4e2e-827d-f13a0839a281"},"vehicle_type_id":"4","last_reported":1736161646,"current_range_meters":23200,"station_id":"ce4bhkp2rcd13ifvqgd0","pricing_plan_id":"cebpf4jnsgd1na2vs0mg"},{"bike_id":"ad539604-9e59-421d-a71a-49da59bdd974","system_id":"levelo_inurba_marseille","lat":43.29027,"lon":5.38671,"is_reserved":false,"is_disabled":true,"rental_uris":{"android":"levelo://app?vid=ad539604-9e59-421d-a71a-49da59bdd974","ios":"levelo://app?vid=ad539604-9e59-421d-a71a-49da59bdd974"},"vehicle_type_id":"4","last_reported":1736161646,"current_range_meters":25200,"station_id":"ce4bh4p2rcd13ifvqe0g","pricing_plan_id":"cebpf4jnsgd1na2vs0mg"},{"bike_id":"c3bafefb-7b46-4cde-9628-e3d15e678d44","system_id":"levelo_inurba_marseille","lat":43.32033,"lon":5.41576,"is_reserved":false,"is_disabled":false,"rental_uris":{"android":"levelo://app?vid=c3bafefb-7b46-4cde-9628-e3d15e678d44","ios":"levelo://app?vid=c3bafefb-7b46-4cde-9628-e3d15e678d44"},"vehicle_type_id":"4","last_reported":1736161646,"current_range_meters":29600,"station_id":"ce4bhq92rcd13ifvqhkg","pricing_plan_id":"cebpf4jnsgd1na2vs0mg"},{"bike_id":"10547a3f-e4f3-479c-aed7-0aa74615ce38","system_id":"levelo_inurba_marseille","lat":43.30103,"lon":5.39872,"is_reserved":false,"is_disabled":false,"rental_uris":{"android":"levelo://app?vid=10547a3f-e4f3-479c-aed7-0aa74615ce38","ios":"levelo://app?vid=10547a3f-e4f3-479c-aed7-0aa74615ce38"},"vehicle_type_id":"4","last_reported":1736161646,"current_range_meters":31200,"station_id":"ce4bh0h2rcd13ifvqd40","pricing_plan_id":"cebpf4jnsgd1na2vs0mg"},{"bike_id":"8a474426-cd46-4cf8-9edc-ef843a0ca02e","system_id":"levelo_inurba_marseille","lat":43.26531,"lon":5.39065,"is_reserved":false,"is_disabled":true,"rental_uris":{"android":"levelo://app?vid=8a474426-cd46-4cf8-9edc-ef843a0ca02e","ios":"levelo://app?vid=8a474426-cd46-4cf8-9edc-ef843a0ca02e"},"vehicle_type_id":"4","last_reported":1736161646,"current_range_meters":34800,"station_id":"","pricing_plan_id":"cebpf4jnsgd1na2vs0mg"},{"bike_id":"d0234cf8-3190-48a6-bab2-6c84efe1b44c","system_id":"levelo_inurba_marseille","lat":43.248,"lon":5.37464,"is_reserved":false,"is_disabled":false,"rental_uris":{"android":"levelo://app?vid=d0234cf8-3190-48a6-bab2-6c84efe1b44c","ios":"levelo://app?vid=d0234cf8-3190-48a6-bab2-6c84efe1b44c"},"vehicle_type_id":"4","last_reported":1736161646,"current_range_meters":38800,"station_id":"ce4bhgh2rcd13ifvqfb0","pricing_plan_id":"cebpf4jnsgd1na2vs0mg"},{"bike_id":"bbf998ea-d252-4590-8711-16d78ff4b07c","system_id":"levelo_inurba_marseille","lat":43.24645,"lon":5.38896,"is_reserved":false,"is_disabled":false,"rental_uris":{"android":"levelo://app?vid=bbf998ea-d252-4590-8711-16d78ff4b07c","ios":"levelo://app?vid=bbf998ea-d252-4590-8711-16d78ff4b07c"},"vehicle_type_id":"4","last_reported":1736161646,"current_range_meters":30400,"station_id":"ce4bhg12rcd13ifvqf60","pricing_plan_id":"cebpf4jnsgd1na2vs0mg"},{"bike_id":"a861ccdd-8435-498a-bc42-68be058873a7","system_id":"levelo_inurba_marseille","lat":43.248021,"lon":5.374528,"is_reserved":false,"is_disabled":false,"rental_uris":{"android":"levelo://app?vid=a861ccdd-8435-498a-bc42-68be058873a7","ios":"levelo://app?vid=a861ccdd-8435-498a-bc42-68be058873a7"},"vehicle_type_id":"4","last_reported":1736161646,"current_range_meters":38400,"station_id":"ce4bhgh2rcd13ifvqfb0","pricing_plan_id":"cebpf4jnsgd1na2vs0mg"},{"bike_id":"d455a1f2-fb7f-480c-b03e-1cf1cbe15c4a","system_id":"levelo_inurba_marseille","lat":43.31482,"lon":5.37311,"is_reserved":false,"is_disabled":false,"rental_uris":{"android":"levelo://app?vid=d455a1f2-fb7f-480c-b03e-1cf1cbe15c4a","ios":"levelo://app?vid=d455a1f2-fb7f-480c-b03e-1cf1cbe15c4a"},"vehicle_type_id":"4","last_reported":1736161646,"current_range_meters":22800,"station_id":"ce4bgt12rcd13ifvqcd0","pricing_plan_id":"cebpf4jnsgd1na2vs0mg"},{"bike_id":"533cb069-ae95-438c-a3bf-365e13b7c35a","system_id":"levelo_inurba_marseille","lat":43.29013,"lon":5.37742,"is_reserved":false,"is_disabled":false,"rental_uris":{"android":"levelo://app?vid=533cb069-ae95-438c-a3bf-365e13b7c35a","ios":"levelo://app?vid=533cb069-ae95-438c-a3bf-365e13b7c35a"},"vehicle_type_id":"4","last_reported":1736161646,"current_range_meters":16000,"station_id":"","pricing_plan_id":"cebpf4jnsgd1na2vs0mg"},{"bike_id":"8930db6a-38b9-4215-8486-1db6c49deed4","system_id":"levelo_inurba_marseille","lat":43.3041,"lon":5.39764,"is_reserved":false,"is_disabled":false,"rental_uris":{"android":"levelo://app?vid=8930db6a-38b9-4215-8486-1db6c49deed4","ios":"levelo://app?vid=8930db6a-38b9-4215-8486-1db6c49deed4"},"vehicle_type_id":"4","last_reported":1736161646,"current_range_meters":38000,"station_id":"ce4bh092rcd13ifvqd20","pricing_plan_id":"cebpf4jnsgd1na2vs0mg"},{"bike_id":"f5a4a49b-f269-4ec2-b80a-e579bf67a966","system_id":"levelo_inurba_marseille","lat":43.295225,"lon":5.361519,"is_reserved":false,"is_disabled":true,"rental_uris":{"android":"levelo://app?vid=f5a4a49b-f269-4ec2-b80a-e579bf67a966","ios":"levelo://app?vid=f5a4a49b-f269-4ec2-b80a-e579bf67a966"},"vehicle_type_id":"4","last_reported":1736161646,"current_range_meters":31200,"station_id":"","pricing_plan_id":"cebpf4jnsgd1na2vs0mg"},{"bike_id":"5b480178-d4a6-409d-bbd9-e2ff5657ece2","system_id":"levelo_inurba_marseille","lat":43.28558,"lon":5.39509,"is_reserved":false,"is_disabled":false,"rental_uris":{"android":"levelo://app?vid=5b480178-d4a6-409d-bbd9-e2ff5657ece2","ios":"levelo://app?vid=5b480178-d4a6-409d-bbd9-e2ff5657ece2"},"vehicle_type_id":"4","last_reported":1736161646,"current_range_meters":38800,"station_id":"ce4bh292rcd13ifvqdg0","pricing_plan_id":"cebpf4jnsgd1na2vs0mg"},{"bike_id":"714738de-0c80-47dd-b7c3-d3bd0c0bbb4b","system_id":"levelo_inurba_marseille","lat":43.32548,"lon":5.41429,"is_reserved":false,"is_disabled":false,"rental_uris":{"android":"levelo://app?vid=714738de-0c80-47dd-b7c3-d3bd0c0bbb4b","ios":"levelo://app?vid=714738de-0c80-47dd-b7c3-d3bd0c0bbb4b"},"vehicle_type_id":"4","last_reported":1736161646,"current_range_meters":36400,"station_id":"ce4bhq12rcd13ifvqhhg","pricing_plan_id":"cebpf4jnsgd1na2vs0mg"},{"bike_id":"22be6a65-747a-4b4c-8841-974b07e60f8e","system_id":"levelo_inurba_marseille","lat":43.26945,"lon":5.38645,"is_reserved":false,"is_disabled":false,"rental_uris":{"android":"levelo://app?vid=22be6a65-747a-4b4c-8841-974b07e60f8e","ios":"levelo://app?vid=22be6a65-747a-4b4c-8841-974b07e60f8e"},"vehicle_type_id":"4","last_reported":1736161646,"current_range_meters":36800,"station_id":"ce4bhh92rcd13ifvqfh0","pricing_plan_id":"cebpf4jnsgd1na2vs0mg"},{"bike_id":"7f575261-e886-46a6-ad27-21dd611a0f60","system_id":"levelo_inurba_marseille","lat":43.26196,"lon":5.37444,"is_reserved":false,"is_disabled":false,"rental_uris":{"android":"levelo://app?vid=7f575261-e886-46a6-ad27-21dd611a0f60","ios":"levelo://app?vid=7f575261-e886-46a6-ad27-21dd611a0f60"},"vehicle_type_id":"4","last_reported":1736161646,"current_range_meters":19200,"station_id":"ce4bhgp2rcd13ifvqfc0","pricing_plan_id":"cebpf4jnsgd1na2vs0mg"},{"bike_id":"5e7a6007-9492-4275-b255-7b669e9d31d0","system_id":"levelo_inurba_marseille","lat":43.30788,"lon":5.37655,"is_reserved":false,"is_disabled":false,"rental_uris":{"android":"levelo://app?vid=5e7a6007-9492-4275-b255-7b669e9d31d0","ios":"levelo://app?vid=5e7a6007-9492-4275-b255-7b669e9d31d0"},"vehicle_type_id":"4","last_reported":1736161646,"current_range_meters":29600,"station_id":"ce4bgv92rcd13ifvqcq0","pricing_plan_id":"cebpf4jnsgd1na2vs0mg"},{"bike_id":"4e8d34de-24a7-4769-9e19-f353e203bcfc","system_id":"levelo_inurba_marseille","lat":43.3117,"lon":5.38719,"is_reserved":false,"is_disabled":false,"rental_uris":{"android":"levelo://app?vid=4e8d34de-24a7-4769-9e19-f353e203bcfc","ios":"levelo://app?vid=4e8d34de-24a7-4769-9e19-f353e203bcfc"},"vehicle_type_id":"4","last_reported":1736161646,"current_range_meters":38000,"station_id":"ce4bgv12rcd13ifvqcp0","pricing_plan_id":"cebpf4jnsgd1na2vs0mg"},{"bike_id":"0bcfea18-61ca-412d-bded-b63f59943884","system_id":"levelo_inurba_marseille","lat":43.28618,"lon":5.35117,"is_reserved":false,"is_disabled":true,"rental_uris":{"android":"levelo://app?vid=0bcfea18-61ca-412d-bded-b63f59943884","ios":"levelo://app?vid=0bcfea18-61ca-412d-bded-b63f59943884"},"vehicle_type_id":"4","last_reported":1736161646,"current_range_meters":33600,"station_id":"ce4bhch2rcd13ifvqeug","pricing_plan_id":"cebpf4jnsgd1na2vs0mg"},{"bike_id":"5befd006-a601-4f1d-8fbe-6e419c854ac0","system_id":"levelo_inurba_marseille","lat":43.24059,"lon":5.37763,"is_reserved":false,"is_disabled":false,"rental_uris":{"android":"levelo://app?vid=5befd006-a601-4f1d-8fbe-6e419c854ac0","ios":"levelo://app?vid=5befd006-a601-4f1d-8fbe-6e419c854ac0"},"vehicle_type_id":"4","last_reported":1736161646,"current_range_meters":38800,"station_id":"ce4bhnp2rcd13ifvqgvg","pricing_plan_id":"cebpf4jnsgd1na2vs0mg"},{"bike_id":"ccedd857-09cd-44c5-b6fb-4559763177cf","system_id":"levelo_inurba_marseille","lat":43.2511,"lon":5.40339,"is_reserved":false,"is_disabled":false,"rental_uris":{"android":"levelo://app?vid=ccedd857-09cd-44c5-b6fb-4559763177cf","ios":"levelo://app?vid=ccedd857-09cd-44c5-b6fb-4559763177cf"},"vehicle_type_id":"4","last_reported":1736161646,"current_range_meters":38000,"station_id":"ce4bhlh2rcd13ifvqgig","pricing_plan_id":"cebpf4jnsgd1na2vs0mg"},{"bike_id":"96b16fe9-3911-44a3-8a8b-8e1e8036d081","system_id":"levelo_inurba_marseille","lat":43.29704,"lon":5.37701,"is_reserved":false,"is_disabled":false,"rental_uris":{"android":"levelo://app?vid=96b16fe9-3911-44a3-8a8b-8e1e8036d081","ios":"levelo://app?vid=96b16fe9-3911-44a3-8a8b-8e1e8036d081"},"vehicle_type_id":"4","last_reported":1736161646,"current_range_meters":26800,"station_id":"ce4bgkh2rcd13ifvqbl0","pricing_plan_id":"cebpf4jnsgd1na2vs0mg"},{"bike_id":"a050707e-2e6b-4d81-bc9b-da54752fec0b","system_id":"levelo_inurba_marseille","lat":43.30545,"lon":5.36544,"is_reserved":false,"is_disabled":false,"rental_uris":{"android":"levelo://app?vid=a050707e-2e6b-4d81-bc9b-da54752fec0b","ios":"levelo://app?vid=a050707e-2e6b-4d81-bc9b-da54752fec0b"},"vehicle_type_id":"4","last_reported":1736161646,"current_range_meters":39200,"station_id":"ce4bgs12rcd13ifvqcag","pricing_plan_id":"cebpf4jnsgd1na2vs0mg"},{"bike_id":"5ff8deea-9282-4f04-abf3-2861394a0ca9","system_id":"levelo_inurba_marseille","lat":43.29,"lon":5.38145,"is_reserved":false,"is_disabled":false,"rental_uris":{"android":"levelo://app?vid=5ff8deea-9282-4f04-abf3-2861394a0ca9","ios":"levelo://app?vid=5ff8deea-9282-4f04-abf3-2861394a0ca9"},"vehicle_type_id":"4","last_reported":1736161646,"current_range_meters":38800,"station_id":"ce4bh4p2rcd13ifvqe1g","pricing_plan_id":"cebpf4jnsgd1na2vs0mg"},{"bike_id":"848571f8-713d-43b7-8532-226899c73429","system_id":"levelo_inurba_marseille","lat":43.24195,"lon":5.39727,"is_reserved":false,"is_disabled":false,"rental_uris":{"android":"levelo://app?vid=848571f8-713d-43b7-8532-226899c73429","ios":"levelo://app?vid=848571f8-713d-43b7-8532-226899c73429"},"vehicle_type_id":"4","last_reported":1736161646,"current_range_meters":38800,"station_id":"ce4bhn12rcd13ifvqgpg","pricing_plan_id":"cebpf4jnsgd1na2vs0mg"},{"bike_id":"266d97a0-8b6a-4815-8e1e-a29e516886ab","system_id":"levelo_inurba_marseille","lat":43.32364,"lon":5.36671,"is_reserved":false,"is_disabled":false,"rental_uris":{"android":"levelo://app?vid=266d97a0-8b6a-4815-8e1e-a29e516886ab","ios":"levelo://app?vid=266d97a0-8b6a-4815-8e1e-a29e516886ab"},"vehicle_type_id":"4","last_reported":1736161646,"current_range_meters":28000,"station_id":"ce4bhsh2rcd13ifvqi2g","pricing_plan_id":"cebpf4jnsgd1na2vs0mg"},{"bike_id":"bc5b5855-1cf6-4cdc-af1a-e3906d45046d","system_id":"levelo_inurba_marseille","lat":43.25018,"lon":5.38905,"is_reserved":false,"is_disabled":false,"rental_uris":{"android":"levelo://app?vid=bc5b5855-1cf6-4cdc-af1a-e3906d45046d","ios":"levelo://app?vid=bc5b5855-1cf6-4cdc-af1a-e3906d45046d"},"vehicle_type_id":"4","last_reported":1736161646,"current_range_meters":28000,"station_id":"ce4bhgp2rcd13ifvqfd0","pricing_plan_id":"cebpf4jnsgd1na2vs0mg"},{"bike_id":"d473f3b4-0f35-41e8-a757-cef6a791d6d9","system_id":"levelo_inurba_marseille","lat":43.28941,"lon":5.39669,"is_reserved":false,"is_disabled":true,"rental_uris":{"android":"levelo://app?vid=d473f3b4-0f35-41e8-a757-cef6a791d6d9","ios":"levelo://app?vid=d473f3b4-0f35-41e8-a757-cef6a791d6d9"},"vehicle_type_id":"4","last_reported":1736161646,"current_range_meters":38400,"station_id":"ce4bh3h2rcd13ifvqdn0","pricing_plan_id":"cebpf4jnsgd1na2vs0mg"},{"bike_id":"2937c8f0-6f06-4c7f-8240-41ad44bc55fa","system_id":"levelo_inurba_marseille","lat":43.23187,"lon":5.399932,"is_reserved":false,"is_disabled":false,"rental_uris":{"android":"levelo://app?vid=2937c8f0-6f06-4c7f-8240-41ad44bc55fa","ios":"levelo://app?vid=2937c8f0-6f06-4c7f-8240-41ad44bc55fa"},"vehicle_type_id":"4","last_reported":1736161646,"current_range_meters":16400,"station_id":"ce4bhn12rcd13ifvqgqg","pricing_plan_id":"cebpf4jnsgd1na2vs0mg"},{"bike_id":"b3751db7-6c74-4812-a64f-4863f7549997","system_id":"levelo_inurba_marseille","lat":43.3083,"lon":5.37343,"is_reserved":false,"is_disabled":false,"rental_uris":{"android":"levelo://app?vid=b3751db7-6c74-4812-a64f-4863f7549997","ios":"levelo://app?vid=b3751db7-6c74-4812-a64f-4863f7549997"},"vehicle_type_id":"4","last_reported":1736161646,"current_range_meters":21600,"station_id":"","pricing_plan_id":"cebpf4jnsgd1na2vs0mg"},{"bike_id":"a08bb803-2e43-4c2e-835c-80814db6204b","system_id":"levelo_inurba_marseille","lat":43.24081,"lon":5.37746,"is_reserved":false,"is_disabled":false,"rental_uris":{"android":"levelo://app?vid=a08bb803-2e43-4c2e-835c-80814db6204b","ios":"levelo://app?vid=a08bb803-2e43-4c2e-835c-80814db6204b"},"vehicle_type_id":"4","last_reported":1736161646,"current_range_meters":36800,"station_id":"ce4bhnp2rcd13ifvqgvg","pricing_plan_id":"cebpf4jnsgd1na2vs0mg"},{"bike_id":"f49298c6-b208-404d-bb0c-160ccbda2eed","system_id":"levelo_inurba_marseille","lat":43.28001,"lon":5.40018,"is_reserved":false,"is_disabled":true,"rental_uris":{"android":"levelo://app?vid=f49298c6-b208-404d-bb0c-160ccbda2eed","ios":"levelo://app?vid=f49298c6-b208-404d-bb0c-160ccbda2eed"},"vehicle_type_id":"4","last_reported":1736161646,"current_range_meters":36400,"station_id":"ce4bho92rcd13ifvqh4g","pricing_plan_id":"cebpf4jnsgd1na2vs0mg"},{"bike_id":"d014f699-d84d-436b-b3bf-8c059d18ea89","system_id":"levelo_inurba_marseille","lat":43.22929,"lon":5.35387,"is_reserved":false,"is_disabled":false,"rental_uris":{"android":"levelo://app?vid=d014f699-d84d-436b-b3bf-8c059d18ea89","ios":"levelo://app?vid=d014f699-d84d-436b-b3bf-8c059d18ea89"},"vehicle_type_id":"4","last_reported":1736161646,"current_range_meters":12000,"station_id":"cpo3532slgdg3j2ikp40","pricing_plan_id":"cebpf4jnsgd1na2vs0mg"},{"bike_id":"43893255-210f-4cda-99f8-af67fb6428e3","system_id":"levelo_inurba_marseille","lat":43.29069,"lon":5.37169,"is_reserved":false,"is_disabled":false,"rental_uris":{"android":"levelo://app?vid=43893255-210f-4cda-99f8-af67fb6428e3","ios":"levelo://app?vid=43893255-210f-4cda-99f8-af67fb6428e3"},"vehicle_type_id":"4","last_reported":1736161646,"current_range_meters":38800,"station_id":"ce4bh5p2rcd13ifvqe4g","pricing_plan_id":"cebpf4jnsgd1na2vs0mg"},{"bike_id":"3093b4f6-32f4-4dec-aab8-9d4da00d0520","system_id":"levelo_inurba_marseille","lat":43.23188,"lon":5.3557,"is_reserved":false,"is_disabled":false,"rental_uris":{"android":"levelo://app?vid=3093b4f6-32f4-4dec-aab8-9d4da00d0520","ios":"levelo://app?vid=3093b4f6-32f4-4dec-aab8-9d4da00d0520"},"vehicle_type_id":"4","last_reported":1736161646,"current_range_meters":38000,"station_id":"ce4bhu92rcd13ifvqi70","pricing_plan_id":"cebpf4jnsgd1na2vs0mg"},{"bike_id":"1890c580-28b2-4ff5-b3a8-be5294155b05","system_id":"levelo_inurba_marseille","lat":43.29247,"lon":5.36867,"is_reserved":false,"is_disabled":false,"rental_uris":{"android":"levelo://app?vid=1890c580-28b2-4ff5-b3a8-be5294155b05","ios":"levelo://app?vid=1890c580-28b2-4ff5-b3a8-be5294155b05"},"vehicle_type_id":"4","last_reported":1736161646,"current_range_meters":38000,"station_id":"ce4bhbp2rcd13ifvqesg","pricing_plan_id":"cebpf4jnsgd1na2vs0mg"},{"bike_id":"c420422e-e5ff-46aa-9ade-56c25e82f06d","system_id":"levelo_inurba_marseille","lat":43.23189,"lon":5.35542,"is_reserved":false,"is_disabled":false,"rental_uris":{"android":"levelo://app?vid=c420422e-e5ff-46aa-9ade-56c25e82f06d","ios":"levelo://app?vid=c420422e-e5ff-46aa-9ade-56c25e82f06d"},"vehicle_type_id":"4","last_reported":1736161646,"current_range_meters":38800,"station_id":"ce4bhu92rcd13ifvqi70","pricing_plan_id":"cebpf4jnsgd1na2vs0mg"},{"bike_id":"ef72cdb4-465d-4178-b952-49906f159c48","system_id":"levelo_inurba_marseille","lat":43.28148,"lon":5.42666,"is_reserved":false,"is_disabled":false,"rental_uris":{"android":"levelo://app?vid=ef72cdb4-465d-4178-b952-49906f159c48","ios":"levelo://app?vid=ef72cdb4-465d-4178-b952-49906f159c48"},"vehicle_type_id":"4","last_reported":1736161646,"current_range_meters":6400,"station_id":"ce4bhnh2rcd13ifvqgug","pricing_plan_id":"cebpf4jnsgd1na2vs0mg"},{"bike_id":"f949af9a-2683-4ec9-b4bf-168b31b3bcb2","system_id":"levelo_inurba_marseille","lat":43.24646,"lon":5.38934,"is_reserved":false,"is_disabled":false,"rental_uris":{"android":"levelo://app?vid=f949af9a-2683-4ec9-b4bf-168b31b3bcb2","ios":"levelo://app?vid=f949af9a-2683-4ec9-b4bf-168b31b3bcb2"},"vehicle_type_id":"4","last_reported":1736161646,"current_range_meters":23200,"station_id":"ce4bhg12rcd13ifvqf60","pricing_plan_id":"cebpf4jnsgd1na2vs0mg"},{"bike_id":"baace2ec-3cd9-4824-8855-4d8f73a429f0","system_id":"levelo_inurba_marseille","lat":43.29555,"lon":5.37529,"is_reserved":false,"is_disabled":false,"rental_uris":{"android":"levelo://app?vid=baace2ec-3cd9-4824-8855-4d8f73a429f0","ios":"levelo://app?vid=baace2ec-3cd9-4824-8855-4d8f73a429f0"},"vehicle_type_id":"4","last_reported":1736161646,"current_range_meters":36000,"station_id":"ce4bgh92rcd13ifvqb50","pricing_plan_id":"cebpf4jnsgd1na2vs0mg"},{"bike_id":"ee1831a5-ecd0-46f1-9c32-8fb8cd9a18ed","system_id":"levelo_inurba_marseille","lat":43.28974,"lon":5.37848,"is_reserved":false,"is_disabled":false,"rental_uris":{"android":"levelo://app?vid=ee1831a5-ecd0-46f1-9c32-8fb8cd9a18ed","ios":"levelo://app?vid=ee1831a5-ecd0-46f1-9c32-8fb8cd9a18ed"},"vehicle_type_id":"4","last_reported":1736161646,"current_range_meters":38800,"station_id":"ce4bh9p2rcd13ifvqed0","pricing_plan_id":"cebpf4jnsgd1na2vs0mg"},{"bike_id":"a0f52a77-2968-414d-8f71-291812cb835e","system_id":"levelo_inurba_marseille","lat":43.25706,"lon":5.41081,"is_reserved":false,"is_disabled":false,"rental_uris":{"android":"levelo://app?vid=a0f52a77-2968-414d-8f71-291812cb835e","ios":"levelo://app?vid=a0f52a77-2968-414d-8f71-291812cb835e"},"vehicle_type_id":"4","last_reported":1736161646,"current_range_meters":28000,"station_id":"ce4bhkp2rcd13ifvqgd0","pricing_plan_id":"cebpf4jnsgd1na2vs0mg"},{"bike_id":"ff06450f-74ec-42bf-8f62-b8c7fe21a606","system_id":"levelo_inurba_marseille","lat":43.29723,"lon":5.36646,"is_reserved":false,"is_disabled":false,"rental_uris":{"android":"levelo://app?vid=ff06450f-74ec-42bf-8f62-b8c7fe21a606","ios":"levelo://app?vid=ff06450f-74ec-42bf-8f62-b8c7fe21a606"},"vehicle_type_id":"4","last_reported":1736161646,"current_range_meters":38800,"station_id":"ce4bgn12rcd13ifvqbt0","pricing_plan_id":"cebpf4jnsgd1na2vs0mg"},{"bike_id":"1307f9da-ff9b-48a7-93be-7ab8cbbfc9be","system_id":"levelo_inurba_marseille","lat":43.25081,"lon":5.39561,"is_reserved":false,"is_disabled":false,"rental_uris":{"android":"levelo://app?vid=1307f9da-ff9b-48a7-93be-7ab8cbbfc9be","ios":"levelo://app?vid=1307f9da-ff9b-48a7-93be-7ab8cbbfc9be"},"vehicle_type_id":"4","last_reported":1736161646,"current_range_meters":39200,"station_id":"ce4bhm12rcd13ifvqgkg","pricing_plan_id":"cebpf4jnsgd1na2vs0mg"},{"bike_id":"363263c8-d60e-4662-a7da-a78eb019f47f","system_id":"levelo_inurba_marseille","lat":43.292,"lon":5.35868,"is_reserved":false,"is_disabled":true,"rental_uris":{"android":"levelo://app?vid=363263c8-d60e-4662-a7da-a78eb019f47f","ios":"levelo://app?vid=363263c8-d60e-4662-a7da-a78eb019f47f"},"vehicle_type_id":"4","last_reported":1736161646,"current_range_meters":0,"station_id":"ce4bhb12rcd13ifvqel0","pricing_plan_id":"cebpf4jnsgd1na2vs0mg"},{"bike_id":"071cb88d-a2b8-4264-9c5f-60b6cbf3f959","system_id":"levelo_inurba_marseille","lat":43.30555,"lon":5.36519,"is_reserved":false,"is_disabled":false,"rental_uris":{"android":"levelo://app?vid=071cb88d-a2b8-4264-9c5f-60b6cbf3f959","ios":"levelo://app?vid=071cb88d-a2b8-4264-9c5f-60b6cbf3f959"},"vehicle_type_id":"4","last_reported":1736161646,"current_range_meters":10800,"station_id":"ce4bgs12rcd13ifvqcag","pricing_plan_id":"cebpf4jnsgd1na2vs0mg"},{"bike_id":"e09ce0e0-3dd9-4080-a03a-cd3d9b33daac","system_id":"levelo_inurba_marseille","lat":43.29524,"lon":5.37511,"is_reserved":false,"is_disabled":false,"rental_uris":{"android":"levelo://app?vid=e09ce0e0-3dd9-4080-a03a-cd3d9b33daac","ios":"levelo://app?vid=e09ce0e0-3dd9-4080-a03a-cd3d9b33daac"},"vehicle_type_id":"4","last_reported":1736161646,"current_range_meters":39200,"station_id":"ce4bgkp2rcd13ifvqbmg","pricing_plan_id":"cebpf4jnsgd1na2vs0mg"},{"bike_id":"e4fb0db6-c070-4f7c-b34e-a54f29d45562","system_id":"levelo_inurba_marseille","lat":43.28001,"lon":5.41657,"is_reserved":false,"is_disabled":false,"rental_uris":{"android":"levelo://app?vid=e4fb0db6-c070-4f7c-b34e-a54f29d45562","ios":"levelo://app?vid=e4fb0db6-c070-4f7c-b34e-a54f29d45562"},"vehicle_type_id":"4","last_reported":1736161646,"current_range_meters":10800,"station_id":"ce4bho12rcd13ifvqh1g","pricing_plan_id":"cebpf4jnsgd1na2vs0mg"},{"bike_id":"910941b5-ac13-46ee-b9eb-054c18e54b63","system_id":"levelo_inurba_marseille","lat":43.25121,"lon":5.39061,"is_reserved":false,"is_disabled":false,"rental_uris":{"android":"levelo://app?vid=910941b5-ac13-46ee-b9eb-054c18e54b63","ios":"levelo://app?vid=910941b5-ac13-46ee-b9eb-054c18e54b63"},"vehicle_type_id":"4","last_reported":1736161646,"current_range_meters":7200,"station_id":"","pricing_plan_id":"cebpf4jnsgd1na2vs0mg"},{"bike_id":"b8eb8935-6c88-48c4-aeb6-64a63940d3b1","system_id":"levelo_inurba_marseille","lat":43.32102,"lon":5.3679,"is_reserved":false,"is_disabled":false,"rental_uris":{"android":"levelo://app?vid=b8eb8935-6c88-48c4-aeb6-64a63940d3b1","ios":"levelo://app?vid=b8eb8935-6c88-48c4-aeb6-64a63940d3b1"},"vehicle_type_id":"4","last_reported":1736161646,"current_range_meters":38000,"station_id":"ce4bhrh2rcd13ifvqhug","pricing_plan_id":"cebpf4jnsgd1na2vs0mg"},{"bike_id":"5ccd9219-bb74-4866-8ab3-e0b8d4a98a85","system_id":"levelo_inurba_marseille","lat":43.24659,"lon":5.38177,"is_reserved":false,"is_disabled":false,"rental_uris":{"android":"levelo://app?vid=5ccd9219-bb74-4866-8ab3-e0b8d4a98a85","ios":"levelo://app?vid=5ccd9219-bb74-4866-8ab3-e0b8d4a98a85"},"vehicle_type_id":"4","last_reported":1736161646,"current_range_meters":37600,"station_id":"ce4bhih2rcd13ifvqfr0","pricing_plan_id":"cebpf4jnsgd1na2vs0mg"},{"bike_id":"70d1fae7-1346-4be5-88c1-c1dd75c31512","system_id":"levelo_inurba_marseille","lat":43.26053,"lon":5.39427,"is_reserved":false,"is_disabled":false,"rental_uris":{"android":"levelo://app?vid=70d1fae7-1346-4be5-88c1-c1dd75c31512","ios":"levelo://app?vid=70d1fae7-1346-4be5-88c1-c1dd75c31512"},"vehicle_type_id":"4","last_reported":1736161646,"current_range_meters":25200,"station_id":"ce4bhh92rcd13ifvqfj0","pricing_plan_id":"cebpf4jnsgd1na2vs0mg"},{"bike_id":"a54b2672-4217-417b-a370-729093c693f9","system_id":"levelo_inurba_marseille","lat":43.29534,"lon":5.39036,"is_reserved":false,"is_disabled":false,"rental_uris":{"android":"levelo://app?vid=a54b2672-4217-417b-a370-729093c693f9","ios":"levelo://app?vid=a54b2672-4217-417b-a370-729093c693f9"},"vehicle_type_id":"4","last_reported":1736161646,"current_range_meters":39200,"station_id":"ce4bh3p2rcd13ifvqdp0","pricing_plan_id":"cebpf4jnsgd1na2vs0mg"},{"bike_id":"e0143047-c6e3-43e6-b879-3a579853374d","system_id":"levelo_inurba_marseille","lat":43.2937,"lon":5.37823,"is_reserved":false,"is_disabled":false,"rental_uris":{"android":"levelo://app?vid=e0143047-c6e3-43e6-b879-3a579853374d","ios":"levelo://app?vid=e0143047-c6e3-43e6-b879-3a579853374d"},"vehicle_type_id":"4","last_reported":1736161646,"current_range_meters":38800,"station_id":"ce4bgjh2rcd13ifvqbf0","pricing_plan_id":"cebpf4jnsgd1na2vs0mg"},{"bike_id":"36fcd030-bc01-47e4-a10e-7f11718e6790","system_id":"levelo_inurba_marseille","lat":43.30134,"lon":5.37437,"is_reserved":false,"is_disabled":false,"rental_uris":{"android":"levelo://app?vid=36fcd030-bc01-47e4-a10e-7f11718e6790","ios":"levelo://app?vid=36fcd030-bc01-47e4-a10e-7f11718e6790"},"vehicle_type_id":"4","last_reported":1736161646,"current_range_meters":37600,"station_id":"ce4bgs92rcd13ifvqcc0","pricing_plan_id":"cebpf4jnsgd1na2vs0mg"},{"bike_id":"a8304853-007a-4c87-bbb4-ac3c77fb92b1","system_id":"levelo_inurba_marseille","lat":43.24738,"lon":5.37392,"is_reserved":false,"is_disabled":false,"rental_uris":{"android":"levelo://app?vid=a8304853-007a-4c87-bbb4-ac3c77fb92b1","ios":"levelo://app?vid=a8304853-007a-4c87-bbb4-ac3c77fb92b1"},"vehicle_type_id":"4","last_reported":1736161646,"current_range_meters":16000,"station_id":"","pricing_plan_id":"cebpf4jnsgd1na2vs0mg"},{"bike_id":"0c19c7d9-f005-4498-be99-e5caf9c11fd3","system_id":"levelo_inurba_marseille","lat":43.24043,"lon":5.37754,"is_reserved":false,"is_disabled":false,"rental_uris":{"android":"levelo://app?vid=0c19c7d9-f005-4498-be99-e5caf9c11fd3","ios":"levelo://app?vid=0c19c7d9-f005-4498-be99-e5caf9c11fd3"},"vehicle_type_id":"4","last_reported":1736161646,"current_range_meters":38800,"station_id":"ce4bhnp2rcd13ifvqgvg","pricing_plan_id":"cebpf4jnsgd1na2vs0mg"},{"bike_id":"a7281c84-0f5e-4046-ad71-02b0ed25003e","system_id":"levelo_inurba_marseille","lat":43.31066,"lon":5.42455,"is_reserved":false,"is_disabled":false,"rental_uris":{"android":"levelo://app?vid=a7281c84-0f5e-4046-ad71-02b0ed25003e","ios":"levelo://app?vid=a7281c84-0f5e-4046-ad71-02b0ed25003e"},"vehicle_type_id":"4","last_reported":1736161646,"current_range_meters":38800,"station_id":"ce4bhp92rcd13ifvqhag","pricing_plan_id":"cebpf4jnsgd1na2vs0mg"},{"bike_id":"b8a2a04a-6d93-42d5-a4c1-f253dcfc4761","system_id":"levelo_inurba_marseille","lat":43.28711,"lon":5.3999,"is_reserved":false,"is_disabled":false,"rental_uris":{"android":"levelo://app?vid=b8a2a04a-6d93-42d5-a4c1-f253dcfc4761","ios":"levelo://app?vid=b8a2a04a-6d93-42d5-a4c1-f253dcfc4761"},"vehicle_type_id":"4","last_reported":1736161646,"current_range_meters":25600,"station_id":"ce4bho92rcd13ifvqh3g","pricing_plan_id":"cebpf4jnsgd1na2vs0mg"},