{"last_updated":1732464641,"ttl":60,"version":"2.2","data":{"bikes":[{"bike_id":"d9df8239-4976-4070-b26b-e224a7ef0fff","system_id":"levelo_inurba_marseille","lat":43.31154,"lon":5.36945,"is_reserved":false,"is_disabled":true,"rental_uris":{"android":"levelo://app?vid=d9df8239-4976-4070-b26b-e224a7ef0fff","ios":"levelo://app?vid=d9df8239-4976-4070-b26b-e224a7ef0fff"},"vehicle_type_id":"4","last_reported":1732464641,"current_range_meters":0,"station_id":"","pricing_plan_id":"cebpf4jnsgd1na2vs0mg"},{"bike_id":"68d8bcf4-0bd1-400b-8e22-113b59bdda85","system_id":"levelo_inurba_marseille","lat":43.29606,"lon":5.37719,"is_reserved":false,"is_disabled":false,"rental_uris":{"android":"levelo://app?vid=68d8bcf4-0bd1-400b-8e22-113b59bdda85","ios":"levelo://app?vid=68d8bcf4-0bd1-400b-8e22-113b59bdda85"},"vehicle_type_id":"4","last_reported":1732464641,"current_range_meters":36800,"station_id":"ce4bgi92rcd13ifvqb90","pricing_plan_id":"cebpf4jnsgd1na2vs0mg"},{"bike_id":"73a9bd72-586d-4bf0-8a69-d3ea945638ac","system_id":"levelo_inurba_marseille","lat":43.30242,"lon":5.40067,"is_reserved":false,"is_disabled":false,"rental_uris":{"android":"levelo://app?vid=73a9bd72-586d-4bf0-8a69-d3ea945638ac","ios":"levelo://app?vid=73a9bd72-586d-4bf0-8a69-d3ea945638ac"},"vehicle_type_id":"4","last_reported":1732464641,"current_range_meters":30000,"station_id":"ce4bgvh2rcd13ifvqcs0","pricing_plan_id":"cebpf4jnsgd1na2vs0mg"},{"bike_id":"3b6befca-671b-4b4c-8c49-9a391a63b005","system_id":"levelo_inurba_marseille","lat":43.254976,"lon":5.376467,"is_reserved":false,"is_disabled":false,"rental_uris":{"android":"levelo://app?vid=3b6befca-671b-4b4c-8c49-9a391a63b005","ios":"levelo://app?vid=3b6befca-671b-4b4c-8c49-9a391a63b005"},"vehicle_type_id":"4","last_reported":1732464641,"current_range_meters":38800,"station_id":"ce4bhh12rcd13ifvqff0","pricing_plan_id":"cebpf4jnsgd1na2vs0mg"},{"bike_id":"6926623e-2fe0-455b-9bee-6506d940ff70","system_id":"levelo_inurba_marseille","lat":43.25573,"lon":5.38237,"is_reserved":false,"is_disabled":false,"rental_uris":{"android":"levelo://app?vid=6926623e-2fe0-455b-9bee-6506d940ff70","ios":"levelo://app?vid=6926623e-2fe0-455b-9bee-6506d940ff70"},"vehicle_type_id":"4","last_reported":1732464641,"current_range_meters":9200,"station_id":"ce4bhih2rcd13ifvqfs0","pricing_plan_id":"cebpf4jnsgd1na2vs0mg"},{"bike_id":"9ae156d4-8f96-43f4-a427-a523242f615c","system_id":"levelo_inurba_marseille","lat":43.29623,"lon":5.37724,"is_reserved":false,"is_disabled":false,"rental_uris":{"android":"levelo://app?vid=9ae156d4-8f96-43f4-a427-a523242f615c","ios":"levelo://app?vid=9ae156d4-8f96-43f4-a427-a523242f615c"},"vehicle_type_id":"4","last_reported":1732464641,"current_range_meters":13600,"station_id":"ce4bgi92rcd13ifvqb90","pricing_plan_id":"cebpf4jnsgd1na2vs0mg"},{"bike_id":"187bd365-d9bd-4fe2-96a5-e40a70ff542d","system_id":"levelo_inurba_marseille","lat":43.28566,"lon":5.39503,"is_reserved":false,"is_disabled":false,"rental_uris":{"android":"levelo://app?vid=187bd365-d9bd-4fe2-96a5-e40a70ff542d","ios":"levelo://app?vid=187bd365-d9bd-4fe2-96a5-e40a70ff542d"},"vehicle_type_id":"4","last_reported":1732464641,"current_range_meters":10800,"station_id":"ce4bh292rcd13ifvqdg0","pricing_plan_id":"cebpf4jnsgd1na2vs0mg"},{"bike_id":"5d5d0f9f-6d04-4277-bcae-0927568487e7","system_id":"levelo_inurba_marseille","lat":43.30801,"lon":5.38131,"is_reserved":false,"is_disabled":true,"rental_uris":{"android":"levelo://app?vid=5d5d0f9f-6d04-4277-bcae-0927568487e7","ios":"levelo://app?vid=5d5d0f9f-6d04-4277-bcae-0927568487e7"},"vehicle_type_id":"4","last_reported":1732464641,"current_range_meters":34800,"station_id":"ce4bgt12rcd13ifvqce0","pricing_plan_id":"cebpf4jnsgd1na2vs0mg"},{"bike_id":"5d0ea24a-74b9-4d52-89c5-fae0adcf911d","system_id":"levelo_inurba_marseille","lat":43.27208,"lon":5.39185,"is_reserved":false,"is_disabled":false,"rental_uris":{"android":"levelo://app?vid=5d0ea24a-74b9-4d52-89c5-fae0adcf911d","ios":"levelo://app?vid=5d0ea24a-74b9-4d52-89c5-fae0adcf911d"},"vehicle_type_id":"4","last_reported":1732464641,"current_range_meters":36400,"station_id":"ce4bhhp2rcd13ifvqfm0","pricing_plan_id":"cebpf4jnsgd1na2vs0mg"},{"bike_id":"9a8694a0-db90-4daf-843f-667a8739352b","system_id":"levelo_inurba_marseille","lat":43.29938,"lon":5.3655,"is_reserved":false,"is_disabled":false,"rental_uris":{"android":"levelo://app?vid=9a8694a0-db90-4daf-843f-667a8739352b","ios":"levelo://app?vid=9a8694a0-db90-4daf-843f-667a8739352b"},"vehicle_type_id":"4","last_reported":1732464641,"current_range_meters":35600,"station_id":"ce4bgm92rcd13ifvqbr0","pricing_plan_id":"cebpf4jnsgd1na2vs0mg"},{"bike_id":"d4a8d056-dde8-45a2-9002-27751ca1259a","system_id":"levelo_inurba_marseille","lat":43.27205,"lon":5.39197,"is_reserved":false,"is_disabled":true,"rental_uris":{"android":"levelo://app?vid=d4a8d056-dde8-45a2-9002-27751ca1259a","ios":"levelo://app?vid=d4a8d056-dde8-45a2-9002-27751ca1259a"},"vehicle_type_id":"4","last_reported":1732464641,"current_range_meters":12400,"station_id":"ce4bhhp2rcd13ifvqfm0","pricing_plan_id":"cebpf4jnsgd1na2vs0mg"},{"bike_id":"98bf960d-f60f-42e2-8f80-4b66b80a9d2e","system_id":"levelo_inurba_marseille","lat":43.266102,"lon":5.373181,"is_reserved":false,"is_disabled":false,"rental_uris":{"android":"levelo://app?vid=98bf960d-f60f-42e2-8f80-4b66b80a9d2e","ios":"levelo://app?vid=98bf960d-f60f-42e2-8f80-4b66b80a9d2e"},"vehicle_type_id":"4","last_reported":1732464641,"current_range_meters":9200,"station_id":"ce4bhg12rcd13ifvqf70","pricing_plan_id":"cebpf4jnsgd1na2vs0mg"},{"bike_id":"1d480d76-bb73-4781-930a-16c68fdce680","system_id":"levelo_inurba_marseille","lat":43.25574,"lon":5.38227,"is_reserved":false,"is_disabled":false,"rental_uris":{"android":"levelo://app?vid=1d480d76-bb73-4781-930a-16c68fdce680","ios":"levelo://app?vid=1d480d76-bb73-4781-930a-16c68fdce680"},"vehicle_type_id":"4","last_reported":1732464641,"current_range_meters":34800,"station_id":"ce4bhih2rcd13ifvqfs0","pricing_plan_id":"cebpf4jnsgd1na2vs0mg"},{"bike_id":"fcf28019-63c5-4387-8d9e-ebdeea067df7","system_id":"levelo_inurba_marseille","lat":43.33022,"lon":5.39043,"is_reserved":false,"is_disabled":false,"rental_uris":{"android":"levelo://app?vid=fcf28019-63c5-4387-8d9e-ebdeea067df7","ios":"levelo://app?vid=fcf28019-63c5-4387-8d9e-ebdeea067df7"},"vehicle_type_id":"4","last_reported":1732464641,"current_range_meters":8000,"station_id":"ce4bhr92rcd13ifvqhrg","pricing_plan_id":"cebpf4jnsgd1na2vs0mg"},{"bike_id":"30585094-ecfe-43ac-ae36-000c4a5ab426","system_id":"levelo_inurba_marseille","lat":43.30959,"lon":5.39025,"is_reserved":false,"is_disabled":true,"rental_uris":{"android":"levelo://app?vid=30585094-ecfe-43ac-ae36-000c4a5ab426","ios":"levelo://app?vid=30585094-ecfe-43ac-ae36-000c4a5ab426"},"vehicle_type_id":"4","last_reported":1732464641,"current_range_meters":22000,"station_id":"ce4bgup2rcd13ifvqco0","pricing_plan_id":"cebpf4jnsgd1na2vs0mg"},{"bike_id":"5f84fccb-6473-45c7-b4bf-9ab64c8af504","system_id":"levelo_inurba_marseille","lat":43.25113,"lon":5.40318,"is_reserved":false,"is_disabled":false,"rental_uris":{"android":"levelo://app?vid=5f84fccb-6473-45c7-b4bf-9ab64c8af504","ios":"levelo://app?vid=5f84fccb-6473-45c7-b4bf-9ab64c8af504"},"vehicle_type_id":"4","last_reported":1732464641,"current_range_meters":32800,"station_id":"ce4bhlh2rcd13ifvqgig","pricing_plan_id":"cebpf4jnsgd1na2vs0mg"},{"bike_id":"633035b4-1bf4-4955-b3eb-8663545a79d9","system_id":"levelo_inurba_marseille","lat":43.29543,"lon":5.39392,"is_reserved":false,"is_disabled":false,"rental_uris":{"android":"levelo://app?vid=633035b4-1bf4-4955-b3eb-8663545a79d9","ios":"levelo://app?vid=633035b4-1bf4-4955-b3eb-8663545a79d9"},"vehicle_type_id":"4","last_reported":1732464641,"current_range_meters":28400,"station_id":"ce4bh292rcd13ifvqdf0","pricing_plan_id":"cebpf4jnsgd1na2vs0mg"},{"bike_id":"2bcb9a5f-3b08-4625-a268-e18f7843936f","system_id":"levelo_inurba_marseille","lat":43.28848,"lon":5.35856,"is_reserved":false,"is_disabled":false,"rental_uris":{"android":"levelo://app?vid=2bcb9a5f-3b08-4625-a268-e18f7843936f","ios":"levelo://app?vid=2bcb9a5f-3b08-4625-a268-e18f7843936f"},"vehicle_type_id":"4","last_reported":1732464641,"current_range_meters":38800,"station_id":"ce4bhb12rcd13ifvqem0","pricing_plan_id":"cebpf4jnsgd1na2vs0mg"},{"bike_id":"e55d71d0-970e-4e17-ba14-4482cf574a53","system_id":"levelo_inurba_marseille","lat":43.29646,"lon":5.36877,"is_reserved":false,"is_disabled":false,"rental_uris":{"android":"levelo://app?vid=e55d71d0-970e-4e17-ba14-4482cf574a53","ios":"levelo://app?vid=e55d71d0-970e-4e17-ba14-4482cf574a53"},"vehicle_type_id":"4","last_reported":1732464641,"current_range_meters":37600,"station_id":"","pricing_plan_id":"cebpf4jnsgd1na2vs0mg"},{"bike_id":"8445853c-1676-4022-ba4c-2e9ff0d3e674","system_id":"levelo_inurba_marseille","lat":43.24661,"lon":5.38176,"is_reserved":false,"is_disabled":false,"rental_uris":{"android":"levelo://app?vid=8445853c-1676-4022-ba4c-2e9ff0d3e674","ios":"levelo://app?vid=8445853c-1676-4022-ba4c-2e9ff0d3e674"},"vehicle_type_id":"4","last_reported":1732464641,"current_range_meters":23200,"station_id":"ce4bhih2rcd13ifvqfr0","pricing_plan_id":"cebpf4jnsgd1na2vs0mg"},{"bike_id":"6c83a91e-c1ac-45d0-bb40-21df64e46322","system_id":"levelo_inurba_marseille","lat":43.29893,"lon":5.38894,"is_reserved":false,"is_disabled":false,"rental_uris":{"android":"levelo://app?vid=6c83a91e-c1ac-45d0-bb40-21df64e46322","ios":"levelo://app?vid=6c83a91e-c1ac-45d0-bb40-21df64e46322"},"vehicle_type_id":"4","last_reported":1732464641,"current_range_meters":8800,"station_id":"ce4bh392rcd13ifvqdl0","pricing_plan_id":"cebpf4jnsgd1na2vs0mg"},{"bike_id":"66e9760c-ff22-4ee2-9a0a-8c372837237e","system_id":"levelo_inurba_marseille","lat":43.290557,"lon":5.399717,"is_reserved":false,"is_disabled":false,"rental_uris":{"android":"levelo://app?vid=66e9760c-ff22-4ee2-9a0a-8c372837237e","ios":"levelo://app?vid=66e9760c-ff22-4ee2-9a0a-8c372837237e"},"vehicle_type_id":"4","last_reported":1732464641,"current_range_meters":25600,"station_id":"ce4bh392rcd13ifvqdm0","pricing_plan_id":"cebpf4jnsgd1na2vs0mg"},{"bike_id":"0a2287c4-240c-4e71-a543-9b64dbc30433","system_id":"levelo_inurba_marseille","lat":43.30894,"lon":5.39668,"is_reserved":false,"is_disabled":false,"rental_uris":{"android":"levelo://app?vid=0a2287c4-240c-4e71-a543-9b64dbc30433","ios":"levelo://app?vid=0a2287c4-240c-4e71-a543-9b64dbc30433"},"vehicle_type_id":"4","last_reported":1732464641,"current_range_meters":8400,"station_id":"ce4bh012rcd13ifvqcv0","pricing_plan_id":"cebpf4jnsgd1na2vs0mg"},{"bike_id":"6a2df70c-4e94-45ba-b67d-45bd465ca49d","system_id":"levelo_inurba_marseille","lat":43.29194,"lon":5.39316,"is_reserved":false,"is_disabled":true,"rental_uris":{"android":"levelo://app?vid=6a2df70c-4e94-45ba-b67d-45bd465ca49d","ios":"levelo://app?vid=6a2df70c-4e94-45ba-b67d-45bd465ca49d"},"vehicle_type_id":"4","last_reported":1732464641,"current_range_meters":29600,"station_id":"ce4bh192rcd13ifvqdd0","pricing_plan_id":"cebpf4jnsgd1na2vs0mg"},{"bike_id":"f0c9b009-6e7d-4316-96af-3036572d9258","system_id":"levelo_inurba_marseille","lat":43.29528,"lon":5.3749,"is_reserved":false,"is_disabled":true,"rental_uris":{"android":"levelo://app?vid=f0c9b009-6e7d-4316-96af-3036572d9258","ios":"levelo://app?vid=f0c9b009-6e7d-4316-96af-3036572d9258"},"vehicle_type_id":"4","last_reported":1732464641,"current_range_meters":29600,"station_id":"ce4bgkp2rcd13ifvqbmg","pricing_plan_id":"cebpf4jnsgd1na2vs0mg"},{"bike_id":"b2b158d0-8028-4675-9f9a-048f08fcfa95","system_id":"levelo_inurba_marseille","lat":43.27905,"lon":5.38012,"is_reserved":false,"is_disabled":false,"rental_uris":{"android":"levelo://app?vid=b2b158d0-8028-4675-9f9a-048f08fcfa95","ios":"levelo://app?vid=b2b158d0-8028-4675-9f9a-048f08fcfa95"},"vehicle_type_id":"4","last_reported":1732464641,"current_range_meters":36400,"station_id":"ce4bhf92rcd13ifvqf50","pricing_plan_id":"cebpf4jnsgd1na2vs0mg"},{"bike_id":"f07dac4a-4faa-467a-89b7-dcce134baa59","system_id":"levelo_inurba_marseille","lat":43.28694,"lon":5.39979,"is_reserved":false,"is_disabled":false,"rental_uris":{"android":"levelo://app?vid=f07dac4a-4faa-467a-89b7-dcce134baa59","ios":"levelo://app?vid=f07dac4a-4faa-467a-89b7-dcce134baa59"},"vehicle_type_id":"4","last_reported":1732464641,"current_range_meters":33600,"station_id":"ce4bho92rcd13ifvqh3g","pricing_plan_id":"cebpf4jnsgd1na2vs0mg"},{"bike_id":"ff3594ee-f948-4832-9680-599cfdacc368","system_id":"levelo_inurba_marseille","lat":43.27187,"lon":5.40995,"is_reserved":false,"is_disabled":false,"rental_uris":{"android":"levelo://app?vid=ff3594ee-f948-4832-9680-599cfdacc368","ios":"levelo://app?vid=ff3594ee-f948-4832-9680-599cfdacc368"},"vehicle_type_id":"4","last_reported":1732464641,"current_range_meters":32400,"station_id":"ce4bhl12rcd13ifvqgf0","pricing_plan_id":"cebpf4jnsgd1na2vs0mg"},{"bike_id":"565a0b0b-afe1-4da1-b2e2-0df8233591e4","system_id":"levelo_inurba_marseille","lat":43.2511,"lon":5.40328,"is_reserved":false,"is_disabled":true,"rental_uris":{"android":"levelo://app?vid=565a0b0b-afe1-4da1-b2e2-0df8233591e4","ios":"levelo://app?vid=565a0b0b-afe1-4da1-b2e2-0df8233591e4"},"vehicle_type_id":"4","last_reported":1732464641,"current_range_meters":14800,"station_id":"ce4bhlh2rcd13ifvqgig","pricing_plan_id":"cebpf4jnsgd1na2vs0mg"},{"bike_id":"c41b4da6-72b9-494c-b0f2-f83ef7231590","system_id":"levelo_inurba_marseille","lat":43.290924,"lon":5.385658,"is_reserved":false,"is_disabled":false,"rental_uris":{"android":"levelo://app?vid=c41b4da6-72b9-494c-b0f2-f83ef7231590","ios":"levelo://app?vid=c41b4da6-72b9-494c-b0f2-f83ef7231590"},"vehicle_type_id":"4","last_reported":1732464641,"current_range_meters":16400,"station_id":"ce4bh4p2rcd13ifvqe0g","pricing_plan_id":"cebpf4jnsgd1na2vs0mg"},{"bike_id":"1e126baa-22b4-4cf7-a05e-1c0611873009","system_id":"levelo_inurba_marseille","lat":43.311192,"lon":5.377708,"is_reserved":false,"is_disabled":false,"rental_uris":{"android":"levelo://app?vid=1e126baa-22b4-4cf7-a05e-1c0611873009","ios":"levelo://app?vid=1e126baa-22b4-4cf7-a05e-1c0611873009"},"vehicle_type_id":"4","last_reported":1732464641,"current_range_meters":2800,"station_id":"","pricing_plan_id":"cebpf4jnsgd1na2vs0mg"},{"bike_id":"856c5296-7fea-42cc-be09-a6b9a37c0b30","system_id":"levelo_inurba_marseille","lat":43.27377,"lon":5.36249,"is_reserved":false,"is_disabled":true,"rental_uris":{"android":"levelo://app?vid=856c5296-7fea-42cc-be09-a6b9a37c0b30","ios":"levelo://app?vid=856c5296-7fea-42cc-be09-a6b9a37c0b30"},"vehicle_type_id":"4","last_reported":1732464641,"current_range_meters":0,"station_id":"ce4bhbh2rcd13ifvqeo0","pricing_plan_id":"cebpf4jnsgd1na2vs0mg"},{"bike_id":"b151b899-42ed-4a26-bc98-b12edbceef5e","system_id":"levelo_inurba_marseille","lat":43.2938,"lon":5.37847,"is_reserved":false,"is_disabled":true,"rental_uris":{"android":"levelo://app?vid=b151b899-42ed-4a26-bc98-b12edbceef5e","ios":"levelo://app?vid=b151b899-42ed-4a26-bc98-b12edbceef5e"},"vehicle_type_id":"4","last_reported":1732464641,"current_range_meters":0,"station_id":"ce4bgjh2rcd13ifvqbf0","pricing_plan_id":"cebpf4jnsgd1na2vs0mg"},{"bike_id":"4acfba0d-0d1b-436f-b509-52e30732ec64","system_id":"levelo_inurba_marseille","lat":43.23195,"lon":5.35558,"is_reserved":false,"is_disabled":true,"rental_uris":{"android":"levelo://app?vid=4acfba0d-0d1b-436f-b509-52e30732ec64","ios":"levelo://app?vid=4acfba0d-0d1b-436f-b509-52e30732ec64"},"vehicle_type_id":"4","last_reported":1732464641,"current_range_meters":0,"station_id":"ce4bhu92rcd13ifvqi70","pricing_plan_id":"cebpf4jnsgd1na2vs0mg"},{"bike_id":"c4a78d93-b0f3-489a-982a-697935955792","system_id":"levelo_inurba_marseille","lat":43.29617,"lon":5.37723,"is_reserved":false,"is_disabled":false,"rental_uris":{"android":"levelo://app?vid=c4a78d93-b0f3-489a-982a-697935955792","ios":"levelo://app?vid=c4a78d93-b0f3-489a-982a-697935955792"},"vehicle_type_id":"4","last_reported":1732464641,"current_range_meters":36800,"station_id":"ce4bgi92rcd13ifvqb90","pricing_plan_id":"cebpf4jnsgd1na2vs0mg"},{"bike_id":"9a122f92-8d1b-4a84-9637-aeed9243668f","system_id":"levelo_inurba_marseille","lat":43.28938,"lon":5.36631,"is_reserved":false,"is_disabled":true,"rental_uris":{"android":"levelo://app?vid=9a122f92-8d1b-4a84-9637-aeed9243668f","ios":"levelo://app?vid=9a122f92-8d1b-4a84-9637-aeed9243668f"},"vehicle_type_id":"4","last_reported":1732464641,"current_range_meters":0,"station_id":"ce4bhap2rcd13ifvqek0","pricing_plan_id":"cebpf4jnsgd1na2vs0mg"},{"bike_id":"2e4fe68f-0e33-41bf-9161-1d8b906f3f6a","system_id":"levelo_inurba_marseille","lat":43.29812,"lon":5.38084,"is_reserved":false,"is_disabled":false,"rental_uris":{"android":"levelo://app?vid=2e4fe68f-0e33-41bf-9161-1d8b906f3f6a","ios":"levelo://app?vid=2e4fe68f-0e33-41bf-9161-1d8b906f3f6a"},"vehicle_type_id":"4","last_reported":1732464641,"current_range_meters":16000,"station_id":"ce4bgip2rcd13ifvqbb0","pricing_plan_id":"cebpf4jnsgd1na2vs0mg"},{"bike_id":"0bff4688-540e-4e2c-808d-c9347a358a4f","system_id":"levelo_inurba_marseille","lat":43.276695,"lon":5.389128,"is_reserved":false,"is_disabled":true,"rental_uris":{"android":"levelo://app?vid=0bff4688-540e-4e2c-808d-c9347a358a4f","ios":"levelo://app?vid=0bff4688-540e-4e2c-808d-c9347a358a4f"},"vehicle_type_id":"4","last_reported":1732464641,"current_range_meters":38800,"station_id":"ce4bhi12rcd13ifvqfo0","pricing_plan_id":"cebpf4jnsgd1na2vs0mg"},{"bike_id":"c937f4eb-f010-4b2a-97d6-d1ef6c00b0d1","system_id":"levelo_inurba_marseille","lat":43.28705,"lon":5.39995,"is_reserved":false,"is_disabled":false,"rental_uris":{"android":"levelo://app?vid=c937f4eb-f010-4b2a-97d6-d1ef6c00b0d1","ios":"levelo://app?vid=c937f4eb-f010-4b2a-97d6-d1ef6c00b0d1"},"vehicle_type_id":"4","last_reported":1732464641,"current_range_meters":18000,"station_id":"ce4bho92rcd13ifvqh3g","pricing_plan_id":"cebpf4jnsgd1na2vs0mg"},{"bike_id":"4401bf9f-c58b-4b30-bcb7-3d69e64aca69","system_id":"levelo_inurba_marseille","lat":43.28462,"lon":5.35883,"is_reserved":false,"is_disabled":false,"rental_uris":{"android":"levelo://app?vid=4401bf9f-c58b-4b30-bcb7-3d69e64aca69","ios":"levelo://app?vid=4401bf9f-c58b-4b30-bcb7-3d69e64aca69"},"vehicle_type_id":"4","last_reported":1732464641,"current_range_meters":29600,"station_id":"ce4bhah2rcd13ifvqei0","pricing_plan_id":"cebpf4jnsgd1na2vs0mg"},{"bike_id":"94508417-6ebd-450f-8c78-7af21209d076","system_id":"levelo_inurba_marseille","lat":43.30783,"lon":5.37647,"is_reserved":false,"is_disabled":true,"rental_uris":{"android":"levelo://app?vid=94508417-6ebd-450f-8c78-7af21209d076","ios":"levelo://app?vid=94508417-6ebd-450f-8c78-7af21209d076"},"vehicle_type_id":"4","last_reported":1732464641,"current_range_meters":0,"station_id":"ce4bgv92rcd13ifvqcq0","pricing_plan_id":"cebpf4jnsgd1na2vs0mg"},{"bike_id":"3b9e7e84-75e3-45cd-bba4-45c30ad2a5ce","system_id":"levelo_inurba_marseille","lat":43.2679,"lon":5.39423,"is_reserved":false,"is_disabled":false,"rental_uris":{"android":"levelo://app?vid=3b9e7e84-75e3-45cd-bba4-45c30ad2a5ce","ios":"levelo://app?vid=3b9e7e84-75e3-45cd-bba4-45c30ad2a5ce"},"vehicle_type_id":"4","last_reported":1732464641,"current_range_meters":17200,"station_id":"ce4bhh12rcd13ifvqfg0","pricing_plan_id":"cebpf4jnsgd1na2vs0mg"},{"bike_id":"585b249f-8d26-4118-821e-ecb19a66d11d","system_id":"levelo_inurba_marseille","lat":43.23963,"lon":5.36635,"is_reserved":false,"is_disabled":false,"rental_uris":{"android":"levelo://app?vid=585b249f-8d26-4118-821e-ecb19a66d11d","ios":"levelo://app?vid=585b249f-8d26-4118-821e-ecb19a66d11d"},"vehicle_type_id":"4","last_reported":1732464641,"current_range_meters":24800,"station_id":"ce4bhi12rcd13ifvqfp0","pricing_plan_id":"cebpf4jnsgd1na2vs0mg"},{"bike_id":"afef8c76-361d-4007-a1ec-0ab8a7d31f65","system_id":"levelo_inurba_marseille","lat":43.262065,"lon":5.374393,"is_reserved":false,"is_disabled":false,"rental_uris":{"android":"levelo://app?vid=afef8c76-361d-4007-a1ec-0ab8a7d31f65","ios":"levelo://app?vid=afef8c76-361d-4007-a1ec-0ab8a7d31f65"},"vehicle_type_id":"4","last_reported":1732464641,"current_range_meters":16000,"station_id":"ce4bhgp2rcd13ifvqfc0","pricing_plan_id":"cebpf4jnsgd1na2vs0mg"},{"bike_id":"c44be2ca-d29c-4055-a595-144cb499e948","system_id":"levelo_inurba_marseille","lat":43.27206,"lon":5.39193,"is_reserved":false,"is_disabled":true,"rental_uris":{"android":"levelo://app?vid=c44be2ca-d29c-4055-a595-144cb499e948","ios":"levelo://app?vid=c44be2ca-d29c-4055-a595-144cb499e948"},"vehicle_type_id":"4","last_reported":1732464641,"current_range_meters":13600,"station_id":"ce4bhhp2rcd13ifvqfm0","pricing_plan_id":"cebpf4jnsgd1na2vs0mg"},{"bike_id":"f5dd0c0d-cf24-4f59-9419-b3bc21e83540","system_id":"levelo_inurba_marseille","lat":43.28952,"lon":5.3641,"is_reserved":false,"is_disabled":false,"rental_uris":{"android":"levelo://app?vid=f5dd0c0d-cf24-4f59-9419-b3bc21e83540","ios":"levelo://app?vid=f5dd0c0d-cf24-4f59-9419-b3bc21e83540"},"vehicle_type_id":"4","last_reported":1732464641,"current_range_meters":38800,"station_id":"ce4bhc92rcd13ifvqetg","pricing_plan_id":"cebpf4jnsgd1na2vs0mg"},{"bike_id":"4614c3ce-fa32-4b49-800d-cf02516d6ab9","system_id":"levelo_inurba_marseille","lat":43.32381,"lon":5.3897,"is_reserved":false,"is_disabled":false,"rental_uris":{"android":"levelo://app?vid=4614c3ce-fa32-4b49-800d-cf02516d6ab9","ios":"levelo://app?vid=4614c3ce-fa32-4b49-800d-cf02516d6ab9"},"vehicle_type_id":"4","last_reported":1732464641,"current_range_meters":19200,"station_id":"","pricing_plan_id":"cebpf4jnsgd1na2vs0mg"},{"bike_id":"835b00c2-64c0-4cbe-82bb-c78dd70919e3","system_id":"levelo_inurba_marseille","lat":43.279606,"lon":5.407962,"is_reserved":false,"is_disabled":false,"rental_uris":{"android":"levelo://app?vid=835b00c2-64c0-4cbe-82bb-c78dd70919e3","ios":"levelo://app?vid=835b00c2-64c0-4cbe-82bb-c78dd70919e3"},"vehicle_type_id":"4","last_reported":1732464641,"current_range_meters":10800,"station_id":"","pricing_plan_id":"cebpf4jnsgd1na2vs0mg"},{"bike_id":"fd0e3340-543f-4c8a-8c34-222130852a29","system_id":"levelo_inurba_marseille","lat":43.27975,"lon":5.3873,"is_reserved":false,"is_disabled":true,"rental_uris":{"android":"levelo://app?vid=fd0e3340-543f-4c8a-8c34-222130852a29","ios":"levelo://app?vid=fd0e3340-543f-4c8a-8c34-222130852a29"},"vehicle_type_id":"4","last_reported":1732464641,"current_range_meters":16000,"station_id":"ce4bhg12rcd13ifvqf80","pricing_plan_id":"cebpf4jnsgd1na2vs0mg"},{"bike_id":"a687b021-0535-4b60-85f3-96bcc8bdb5ee","system_id":"levelo_inurba_marseille","lat":43.27813,"lon":5.40712,"is_reserved":false,"is_disabled":false,"rental_uris":{"android":"levelo://app?vid=a687b021-0535-4b60-85f3-96bcc8bdb5ee","ios":"levelo://app?vid=a687b021-0535-4b60-85f3-96bcc8bdb5ee"},"vehicle_type_id":"4","last_reported":1732464641,"current_range_meters":14000,"station_id":"ce4bhnh2rcd13ifvqgtg","pricing_plan_id":"cebpf4jnsgd1na2vs0mg"},{"bike_id":"e662b885-15c0-4344-8409-692fa14b9dbc","system_id":"levelo_inurba_marseille","lat":43.27498,"lon":5.42448,"is_reserved":false,"is_disabled":false,"rental_uris":{"android":"levelo://app?vid=e662b885-15c0-4344-8409-692fa14b9dbc","ios":"levelo://app?vid=e662b885-15c0-4344-8409-692fa14b9dbc"},"vehicle_type_id":"4","last_reported":1732464641,"current_range_meters":38800,"station_id":"ce4bhn92rcd13ifvqgrg","pricing_plan_id":"cebpf4jnsgd1na2vs0mg"},{"bike_id":"3052f395-47f4-4f6b-af2e-a3967e74787a","system_id":"levelo_inurba_marseille","lat":43.29581,"lon":5.36747,"is_reserved":false,"is_disabled":false,"rental_uris":{"android":"levelo://app?vid=3052f395-47f4-4f6b-af2e-a3967e74787a","ios":"levelo://app?vid=3052f395-47f4-4f6b-af2e-a3967e74787a"},"vehicle_type_id":"4","last_reported":1732464641,"current_range_meters":20000,"station_id":"ce4bgph2rcd13ifvqc2g","pricing_plan_id":"cebpf4jnsgd1na2vs0mg"},{"bike_id":"5c8055e5-a368-4312-8157-243ebc733ac9","system_id":"levelo_inurba_marseille","lat":43.30594,"lon":5.39353,"is_reserved":false,"is_disabled":true,"rental_uris":{"android":"levelo://app?vid=5c8055e5-a368-4312-8157-243ebc733ac9","ios":"levelo://app?vid=5c8055e5-a368-4312-8157-243ebc733ac9"},"vehicle_type_id":"4","last_reported":1732464641,"current_range_meters":22000,"station_id":"ce4bh0p2rcd13ifvqd80","pricing_plan_id":"cebpf4jnsgd1na2vs0mg"},{"bike_id":"a63f026b-964a-429c-9110-87bd719c2c3a","system_id":"levelo_inurba_marseille","lat":43.29305,"lon":5.37446,"is_reserved":false,"is_disabled":true,"rental_uris":{"android":"levelo://app?vid=a63f026b-964a-429c-9110-87bd719c2c3a","ios":"levelo://app?vid=a63f026b-964a-429c-9110-87bd719c2c3a"},"vehicle_type_id":"4","last_reported":1732464641,"current_range_meters":35600,"station_id":"ce4bgi12rcd13ifvqb70","pricing_plan_id":"cebpf4jnsgd1na2vs0mg"},{"bike_id":"743645cd-11f8-4184-95b2-7c26cbeef2bb","system_id":"levelo_inurba_marseille","lat":43.29538,"lon":5.385393,"is_reserved":false,"is_disabled":false,"rental_uris":{"android":"levelo://app?vid=743645cd-11f8-4184-95b2-7c26cbeef2bb","ios":"levelo://app?vid=743645cd-11f8-4184-95b2-7c26cbeef2bb"},"vehicle_type_id":"4","last_reported":1732464641,"current_range_meters":20800,"station_id":"ce4bgih2rcd13ifvqba0","pricing_plan_id":"cebpf4jnsgd1na2vs0mg"},{"bike_id":"600b3470-1dde-43ce-962b-7a6284b20990","system_id":"levelo_inurba_marseille","lat":43.2319,"lon":5.35553,"is_reserved":false,"is_disabled":true,"rental_uris":{"android":"levelo://app?vid=600b3470-1dde-43ce-962b-7a6284b20990","ios":"levelo://app?vid=600b3470-1dde-43ce-962b-7a6284b20990"},"vehicle_type_id":"4","last_reported":1732464641,"current_range_meters":26000,"station_id":"ce4bhu92rcd13ifvqi70","pricing_plan_id":"cebpf4jnsgd1na2vs0mg"},{"bike_id":"658e92e6-8a2b-442e-ade5-662972e24075","system_id":"levelo_inurba_marseille","lat":43.22934,"lon":5.35377,"is_reserved":false,"is_disabled":false,"rental_uris":{"android":"levelo://app?vid=658e92e6-8a2b-442e-ade5-662972e24075","ios":"levelo://app?vid=658e92e6-8a2b-442e-ade5-662972e24075"},"vehicle_type_id":"4","last_reported":1732464641,"current_range_meters":39200,"station_id":"cpo3532slgdg3j2ikp40","pricing_plan_id":"cebpf4jnsgd1na2vs0mg"},{"bike_id":"08117995-990e-4451-96a5-afc9c181642a","system_id":"levelo_inurba_marseille","lat":43.28612,"lon":5.35103,"is_reserved":false,"is_disabled":true,"rental_uris":{"android":"levelo://app?vid=08117995-990e-4451-96a5-afc9c181642a","ios":"levelo://app?vid=08117995-990e-4451-96a5-afc9c181642a"},"vehicle_type_id":"4","last_reported":1732464641,"current_range_meters":27200,"station_id":"ce4bhch2rcd13ifvqeug","pricing_plan_id":"cebpf4jnsgd1na2vs0mg"},{"bike_id":"b06e1c36-318d-4d2f-8b3d-2b81c9e65991","system_id":"levelo_inurba_marseille","lat":43.28465,"lon":5.3589,"is_reserved":false,"is_disabled":false,"rental_uris":{"android":"levelo://app?vid=b06e1c36-318d-4d2f-8b3d-2b81c9e65991","ios":"levelo://app?vid=b06e1c36-318d-4d2f-8b3d-2b81c9e65991"},"vehicle_type_id":"4","last_reported":1732464641,"current_range_meters":37600,"station_id":"ce4bhah2rcd13ifvqei0","pricing_plan_id":"cebpf4jnsgd1na2vs0mg"},{"bike_id":"aff1b21a-bcf0-4eb7-962a-f785632415d2","system_id":"levelo_inurba_marseille","lat":43.25494,"lon":5.37651,"is_reserved":false,"is_disabled":false,"rental_uris":{"android":"levelo://app?vid=aff1b21a-bcf0-4eb7-962a-f785632415d2","ios":"levelo://app?vid=aff1b21a-bcf0-4eb7-962a-f785632415d2"},"vehicle_type_id":"4","last_reported":1732464641,"current_range_meters":9600,"station_id":"ce4bhh12rcd13ifvqff0","pricing_plan_id":"cebpf4jnsgd1na2vs0mg"},{"bike_id":"4cf68192-498e-49a8-b866-19367c604fb3","system_id":"levelo_inurba_marseille","lat":43.2959,"lon":5.39992,"is_reserved":false,"is_disabled":true,"rental_uris":{"android":"levelo://app?vid=4cf68192-498e-49a8-b866-19367c604fb3","ios":"levelo://app?vid=4cf68192-498e-49a8-b866-19367c604fb3"},"vehicle_type_id":"4","last_reported":1732464641,"current_range_meters":34800,"station_id":"ce4bh312rcd13ifvqdj0","pricing_plan_id":"cebpf4jnsgd1na2vs0mg"},{"bike_id":"a896c00f-8589-4a57-8f0a-7b23dc98ab74","system_id":"levelo_inurba_marseille","lat":43.30315,"lon":5.40432,"is_reserved":false,"is_disabled":true,"rental_uris":{"android":"levelo://app?vid=a896c00f-8589-4a57-8f0a-7b23dc98ab74","ios":"levelo://app?vid=a896c00f-8589-4a57-8f0a-7b23dc98ab74"},"vehicle_type_id":"4","last_reported":1732464641,"current_range_meters":0,"station_id":"ce4bh012rcd13ifvqd10","pricing_plan_id":"cebpf4jnsgd1na2vs0mg"},{"bike_id":"5490ab91-05e5-48f9-bb1a-074a5b03f773","system_id":"levelo_inurba_marseille","lat":43.24648,"lon":5.3889,"is_reserved":false,"is_disabled":false,"rental_uris":{"android":"levelo://app?vid=5490ab91-05e5-48f9-bb1a-074a5b03f773","ios":"levelo://app?vid=5490ab91-05e5-48f9-bb1a-074a5b03f773"},"vehicle_type_id":"4","last_reported":1732464641,"current_range_meters":38800,"station_id":"ce4bhg12rcd13ifvqf60","pricing_plan_id":"cebpf4jnsgd1na2vs0mg"},{"bike_id":"e9017d00-f47c-415e-bb3b-3e1ba93e5c6e","system_id":"levelo_inurba_marseille","lat":43.28665,"lon":5.36358,"is_reserved":false,"is_disabled":false,"rental_uris":{"android":"levelo://app?vid=e9017d00-f47c-415e-bb3b-3e1ba93e5c6e","ios":"levelo://app?vid=e9017d00-f47c-415e-bb3b-3e1ba93e5c6e"},"vehicle_type_id":"4","last_reported":1732464641,"current_range_meters":38800,"station_id":"ce4bhah2rcd13ifvqej0","pricing_plan_id":"cebpf4jnsgd1na2vs0mg"},{"bike_id":"c0e12142-bd57-42cd-b3f5-a384eec187e3","system_id":"levelo_inurba_marseille","lat":43.3205,"lon":5.4154,"is_reserved":false,"is_disabled":false,"rental_uris":{"android":"levelo://app?vid=c0e12142-bd57-42cd-b3f5-a384eec187e3","ios":"levelo://app?vid=c0e12142-bd57-42cd-b3f5-a384eec187e3"},"vehicle_type_id":"4","last_reported":1732464641,"current_range_meters":28400,"station_id":"ce4bhq92rcd13ifvqhkg","pricing_plan_id":"cebpf4jnsgd1na2vs0mg"},{"bike_id":"c1cfae9f-3020-4944-b37b-e5405fa71a7b","system_id":"levelo_inurba_marseille","lat":43.25497,"lon":5.37648,"is_reserved":false,"is_disabled":false,"rental_uris":{"android":"levelo://app?vid=c1cfae9f-3020-4944-b37b-e5405fa71a7b","ios":"levelo://app?vid=c1cfae9f-3020-4944-b37b-e5405fa71a7b"},"vehicle_type_id":"4","last_reported":1732464641,"current_range_meters":28800,"station_id":"ce4bhh12rcd13ifvqff0","pricing_plan_id":"cebpf4jnsgd1na2vs0mg"},{"bike_id":"734ff0c4-f245-4197-8036-be5e222d76fd","system_id":"levelo_inurba_marseille","lat":43.28996,"lon":5.42589,"is_reserved":false,"is_disabled":true,"rental_uris":{"android":"levelo://app?vid=734ff0c4-f245-4197-8036-be5e222d76fd","ios":"levelo://app?vid=734ff0c4-f245-4197-8036-be5e222d76fd"},"vehicle_type_id":"4","last_reported":1732464641,"current_range_meters":0,"station_id":"","pricing_plan_id":"cebpf4jnsgd1na2vs0mg"},{"bike_id":"31e8cf73-3755-4d23-8e13-6fb3e4e82277","system_id":"levelo_inurba_marseille","lat":43.2979,"lon":5.38117,"is_reserved":false,"is_disabled":true,"rental_uris":{"android":"levelo://app?vid=31e8cf73-3755-4d23-8e13-6fb3e4e82277","ios":"levelo://app?vid=31e8cf73-3755-4d23-8e13-6fb3e4e82277"},"vehicle_type_id":"4","last_reported":1732464641,"current_range_meters":28400,"station_id":"ce4bgip2rcd13ifvqbb0","pricing_plan_id":"cebpf4jnsgd1na2vs0mg"},{"bike_id":"84a983ca-9921-4ee1-be8c-69eaef04e9c5","system_id":"levelo_inurba_marseille","lat":43.28481,"lon":5.38538,"is_reserved":false,"is_disabled":false,"rental_uris":{"android":"levelo://app?vid=84a983ca-9921-4ee1-be8c-69eaef04e9c5","ios":"levelo://app?vid=84a983ca-9921-4ee1-be8c-69eaef04e9c5"},"vehicle_type_id":"4","last_reported":1732464641,"current_range_meters":18000,"station_id":"ce4bh8p2rcd13ifvqeb0","pricing_plan_id":"cebpf4jnsgd1na2vs0mg"},{"bike_id":"9b017811-4a9c-4be1-97ee-e5ac5ee99fe0","system_id":"levelo_inurba_marseille","lat":43.2969,"lon":5.37313,"is_reserved":false,"is_disabled":false,"rental_uris":{"android":"levelo://app?vid=9b017811-4a9c-4be1-97ee-e5ac5ee99fe0","ios":"levelo://app?vid=9b017811-4a9c-4be1-97ee-e5ac5ee99fe0"},"vehicle_type_id":"4","last_reported":1732464641,"current_range_meters":38800,"station_id":"ce4bgk12rcd13ifvqbj0","pricing_plan_id":"cebpf4jnsgd1na2vs0mg"},{"bike_id":"dacdbb8c-36c3-4436-be99-eacdd17eabef","system_id":"levelo_inurba_marseille","lat":43.26793,"lon":5.39424,"is_reserved":false,"is_disabled":true,"rental_uris":{"android":"levelo://app?vid=dacdbb8c-36c3-4436-be99-eacdd17eabef","ios":"levelo://app?vid=dacdbb8c-36c3-4436-be99-eacdd17eabef"},"vehicle_type_id":"4","last_reported":1732464641,"current_range_meters":400,"station_id":"ce4bhh12rcd13ifvqfg0","pricing_plan_id":"cebpf4jnsgd1na2vs0mg"},{"bike_id":"46542312-5a57-4358-8e82-504d74fb4c60","system_id":"levelo_inurba_marseille","lat":43.28155,"lon":5.42645,"is_reserved":false,"is_disabled":false,"rental_uris":{"android":"levelo://app?vid=46542312-5a57-4358-8e82-504d74fb4c60","ios":"levelo://app?vid=46542312-5a57-4358-8e82-504d74fb4c60"},"vehicle_type_id":"4","last_reported":1732464641,"current_range_meters":38800,"station_id":"ce4bhnh2rcd13ifvqgug","pricing_plan_id":"cebpf4jnsgd1na2vs0mg"},{"bike_id":"294eeb79-af1b-495a-909f-216801ae6b41","system_id":"levelo_inurba_marseille","lat":43.337444,"lon":5.374475,"is_reserved":false,"is_disabled":true,"rental_uris":{"android":"levelo://app?vid=294eeb79-af1b-495a-909f-216801ae6b41","ios":"levelo://app?vid=294eeb79-af1b-495a-909f-216801ae6b41"},"vehicle_type_id":"4","last_reported":1732464641,"current_range_meters":0,"station_id":"","pricing_plan_id":"cebpf4jnsgd1na2vs0mg"},{"bike_id":"90a80f72-2387-4083-a4fe-26f189ca8692","system_id":"levelo_inurba_marseille","lat":43.30333,"lon":5.40442,"is_reserved":false,"is_disabled":false,"rental_uris":{"android":"levelo://app?vid=90a80f72-2387-4083-a4fe-26f189ca8692","ios":"levelo://app?vid=90a80f72-2387-4083-a4fe-26f189ca8692"},"vehicle_type_id":"4","last_reported":1732464641,"current_range_meters":12400,"station_id":"ce4bh012rcd13ifvqd10","pricing_plan_id":"cebpf4jnsgd1na2vs0mg"},{"bike_id":"ae1dd2db-5b19-40fe-a981-fb874abf3912","system_id":"levelo_inurba_marseille","lat":43.24387,"lon":5.3706,"is_reserved":false,"is_disabled":true,"rental_uris":{"android":"levelo://app?vid=ae1dd2db-5b19-40fe-a981-fb874abf3912","ios":"levelo://app?vid=ae1dd2db-5b19-40fe-a981-fb874abf3912"},"vehicle_type_id":"4","last_reported":1732464641,"current_range_meters":0,"station_id":"ce4bhhh2rcd13ifvqfk0","pricing_plan_id":"cebpf4jnsgd1na2vs0mg"},{"bike_id":"50f415fe-e878-4f24-833c-95cde137d543","system_id":"levelo_inurba_marseille","lat":43.28822,"lon":5.35272,"is_reserved":false,"is_disabled":false,"rental_uris":{"android":"levelo://app?vid=50f415fe-e878-4f24-833c-95cde137d543","ios":"levelo://app?vid=50f415fe-e878-4f24-833c-95cde137d543"},"vehicle_type_id":"4","last_reported":1732464641,"current_range_meters":37600,"station_id":"","pricing_plan_id":"cebpf4jnsgd1na2vs0mg"},{"bike_id":"f514514a-bbc8-4d34-b13f-88c29d334c83","system_id":"levelo_inurba_marseille","lat":43.27313,"lon":5.39054,"is_reserved":false,"is_disabled":false,"rental_uris":{"android":"levelo://app?vid=f514514a-bbc8-4d34-b13f-88c29d334c83","ios":"levelo://app?vid=f514514a-bbc8-4d34-b13f-88c29d334c83"},"vehicle_type_id":"4","last_reported":1732464641,"current_range_meters":38800,"station_id":"ce4bhgp2rcd13ifvqfe0","pricing_plan_id":"cebpf4jnsgd1na2vs0mg"},{"bike_id":"6aeff2b9-cd17-4948-9952-f7b991e16719","system_id":"levelo_inurba_marseille","lat":43.25,"lon":5.38939,"is_reserved":false,"is_disabled":false,"rental_uris":{"android":"levelo://app?vid=6aeff2b9-cd17-4948-9952-f7b991e16719","ios":"levelo://app?vid=6aeff2b9-cd17-4948-9952-f7b991e16719"},"vehicle_type_id":"4","last_reported":1732464641,"current_range_meters":36000,"station_id":"ce4bhgp2rcd13ifvqfd0","pricing_plan_id":"cebpf4jnsgd1na2vs0mg"},{"bike_id":"777b7fed-d395-4c97-b504-dee7c3479d4f","system_id":"levelo_inurba_marseille","lat":43.29836,"lon":5.3785,"is_reserved":false,"is_disabled":true,"rental_uris":{"android":"levelo://app?vid=777b7fed-d395-4c97-b504-dee7c3479d4f","ios":"levelo://app?vid=777b7fed-d395-4c97-b504-dee7c3479d4f"},"vehicle_type_id":"4","last_reported":1732464641,"current_range_meters":0,"station_id":"","pricing_plan_id":"cebpf4jnsgd1na2vs0mg"},{"bike_id":"cd78312a-142a-42d0-92e1-dbc654bf8bb4","system_id":"levelo_inurba_marseille","lat":43.24186,"lon":5.39714,"is_reserved":false,"is_disabled":true,"rental_uris":{"android":"levelo://app?vid=cd78312a-142a-42d0-92e1-dbc654bf8bb4","ios":"levelo://app?vid=cd78312a-142a-42d0-92e1-dbc654bf8bb4"},"vehicle_type_id":"4","last_reported":1732464641,"current_range_meters":8800,"station_id":"ce4bhn12rcd13ifvqgpg","pricing_plan_id":"cebpf4jnsgd1na2vs0mg"},{"bike_id":"3dfc06b8-aec2-4388-97ab-ff087bfcc8fc","system_id":"levelo_inurba_marseille","lat":43.29529,"lon":5.38541,"is_reserved":false,"is_disabled":false,"rental_uris":{"android":"levelo://app?vid=3dfc06b8-aec2-4388-97ab-ff087bfcc8fc","ios":"levelo://app?vid=3dfc06b8-aec2-4388-97ab-ff087bfcc8fc"},"vehicle_type_id":"4","last_reported":1732464641,"current_range_meters":9200,"station_id":"ce4bgih2rcd13ifvqba0","pricing_plan_id":"cebpf4jnsgd1na2vs0mg"},{"bike_id":"2b930fbc-d1c5-4e6e-b771-26da81254d66","system_id":"levelo_inurba_marseille","lat":43.27818,"lon":5.40714,"is_reserved":false,"is_disabled":false,"rental_uris":{"android":"levelo://app?vid=2b930fbc-d1c5-4e6e-b771-26da81254d66","ios":"levelo://app?vid=2b930fbc-d1c5-4e6e-b771-26da81254d66"},"vehicle_type_id":"4","last_reported":1732464641,"current_range_meters":8000,"station_id":"ce4bhnh2rcd13ifvqgtg","pricing_plan_id":"cebpf4jnsgd1na2vs0mg"},{"bike_id":"3acf8a97-1cee-4e45-b349-3e5ca607d164","system_id":"levelo_inurba_marseille","lat":43.26041,"lon":5.37549,"is_reserved":false,"is_disabled":false,"rental_uris":{"android":"levelo://app?vid=3acf8a97-1cee-4e45-b349-3e5ca607d164","ios":"levelo://app?vid=3acf8a97-1cee-4e45-b349-3e5ca607d164"},"vehicle_type_id":"4","last_reported":1732464641,"current_range_meters":32800,"station_id":"ce4bhgh2rcd13ifvqfa0","pricing_plan_id":"cebpf4jnsgd1na2vs0mg"},{"bike_id":"43f6da94-5cf1-446e-9b8d-b4c4e86bf027","system_id":"levelo_inurba_marseille","lat":43.26191,"lon":5.37454,"is_reserved":false,"is_disabled":true,"rental_uris":{"android":"levelo://app?vid=43f6da94-5cf1-446e-9b8d-b4c4e86bf027","ios":"levelo://app?vid=43f6da94-5cf1-446e-9b8d-b4c4e86bf027"},"vehicle_type_id":"4","last_reported":1732464641,"current_range_meters":7200,"station_id":"ce4bhgp2rcd13ifvqfc0","pricing_plan_id":"cebpf4jnsgd1na2vs0mg"},{"bike_id":"dd5ab154-647e-4dfa-88f1-0f781c7552f5","system_id":"levelo_inurba_marseille","lat":43.25578,"lon":5.38226,"is_reserved":false,"is_disabled":false,"rental_uris":{"android":"levelo://app?vid=dd5ab154-647e-4dfa-88f1-0f781c7552f5","ios":"levelo://app?vid=dd5ab154-647e-4dfa-88f1-0f781c7552f5"},"vehicle_type_id":"4","last_reported":1732464641,"current_range_meters":25200,"station_id":"ce4bhih2rcd13ifvqfs0","pricing_plan_id":"cebpf4jnsgd1na2vs0mg"},{"bike_id":"ce24ee22-0395-41ec-8966-bae33c4d763a","system_id":"levelo_inurba_marseille","lat":43.25119,"lon":5.40317,"is_reserved":false,"is_disabled":false,"rental_uris":{"android":"levelo://app?vid=ce24ee22-0395-41ec-8966-bae33c4d763a","ios":"levelo://app?vid=ce24ee22-0395-41ec-8966-bae33c4d763a"},"vehicle_type_id":"4","last_reported":1732464641,"current_range_meters":32400,"station_id":"ce4bhlh2rcd13ifvqgig","pricing_plan_id":"cebpf4jnsgd1na2vs0mg"},{"bike_id":"994195f6-b5da-4158-a5b5-8b38baad32b0","system_id":"levelo_inurba_marseille","lat":43.33729,"lon":5.39191,"is_reserved":false,"is_disabled":false,"rental_uris":{"android":"levelo://app?vid=994195f6-b5da-4158-a5b5-8b38baad32b0","ios":"levelo://app?vid=994195f6-b5da-4158-a5b5-8b38baad32b0"},"vehicle_type_id":"4","last_reported":1732464641,"current_range_meters":27200,"station_id":"ce4bhr92rcd13ifvqhsg","pricing_plan_id":"cebpf4jnsgd1na2vs0mg"},{"bike_id":"7c2f19f3-5373-4c2a-87bb-e1fd3ef39822","system_id":"levelo_inurba_marseille","lat":43.26559,"lon":5.39012,"is_reserved":false,"is_disabled":true,"rental_uris":{"android":"levelo://app?vid=7c2f19f3-5373-4c2a-87bb-e1fd3ef39822","ios":"levelo://app?vid=7c2f19f3-5373-4c2a-87bb-e1fd3ef39822"},"vehicle_type_id":"4","last_reported":1732464641,"current_range_meters":18800,"station_id":"ce4bhe12rcd13ifvqf30","pricing_plan_id":"cebpf4jnsgd1na2vs0mg"},{"bike_id":"36ef9a42-f4d8-45f5-adc2-b51fb9b962d0","system_id":"levelo_inurba_marseille","lat":43.34145,"lon":5.40903,"is_reserved":false,"is_disabled":false,"rental_uris":{"android":"levelo://app?vid=36ef9a42-f4d8-45f5-adc2-b51fb9b962d0","ios":"levelo://app?vid=36ef9a42-f4d8-45f5-adc2-b51fb9b962d0"},"vehicle_type_id":"4","last_reported":1732464641,"current_range_meters":37600,"station_id":"ce4bhqh2rcd13ifvqhlg","pricing_plan_id":"cebpf4jnsgd1na2vs0mg"},{"bike_id":"24fc129a-3a98-4f25-9554-234fc3a2dc8d","system_id":"levelo_inurba_marseille","lat":43.30418,"lon":5.41284,"is_reserved":false,"is_disabled":true,"rental_uris":{"android":"levelo://app?vid=24fc129a-3a98-4f25-9554-234fc3a2dc8d","ios":"levelo://app?vid=24fc129a-3a98-4f25-9554-234fc3a2dc8d"},"vehicle_type_id":"4","last_reported":1732464641,"current_range_meters":28800,"station_id":"ce4bhop2rcd13ifvqh8g","pricing_plan_id":"cebpf4jnsgd1na2vs0mg"},{"bike_id":"a3202fc1-85cb-42ee-bead-37756f81ff0f","system_id":"levelo_inurba_marseille","lat":43.30567,"lon":5.38379,"is_reserved":false,"is_disabled":true,"rental_uris":{"android":"levelo://app?vid=a3202fc1-85cb-42ee-bead-37756f81ff0f","ios":"levelo://app?vid=a3202fc1-85cb-42ee-bead-37756f81ff0f"},"vehicle_type_id":"4","last_reported":1732464641,"current_range_meters":24400,"station_id":"ce4bgg92rcd13ifvqb30","pricing_plan_id":"cebpf4jnsgd1na2vs0mg"},{"bike_id":"b524f3ec-c1a0-47fa-b8ab-cb6da0b209d3","system_id":"levelo_inurba_marseille","lat":43.28817,"lon":5.37917,"is_reserved":false,"is_disabled":false,"rental_uris":{"android":"levelo://app?vid=b524f3ec-c1a0-47fa-b8ab-cb6da0b209d3","ios":"levelo://app?vid=b524f3ec-c1a0-47fa-b8ab-cb6da0b209d3"},"vehicle_type_id":"4","last_reported":1732464641,"current_range_meters":25200,"station_id":"","pricing_plan_id":"cebpf4jnsgd1na2vs0mg"},{"bike_id":"67eec873-2e0f-49d2-a011-594652020334","system_id":"levelo_inurba_marseille","lat":43.26206,"lon":5.37928,"is_reserved":false,"is_disabled":false,"rental_uris":{"android":"levelo://app?vid=67eec873-2e0f-49d2-a011-594652020334","ios":"levelo://app?vid=67eec873-2e0f-49d2-a011-594652020334"},"vehicle_type_id":"4","last_reported":1732464641,"current_range_meters":12000,"station_id":"ce4bhjp2rcd13ifvqg90","pricing_plan_id":"cebpf4jnsgd1na2vs0mg"},{"bike_id":"d1290119-d0ca-44a5-89a5-b6f6253cf7d8","system_id":"levelo_inurba_marseille","lat":43.29619,"lon":5.37725,"is_reserved":false,"is_disabled":true,"rental_uris":{"android":"levelo://app?vid=d1290119-d0ca-44a5-89a5-b6f6253cf7d8","ios":"levelo://app?vid=d1290119-d0ca-44a5-89a5-b6f6253cf7d8"},"vehicle_type_id":"4","last_reported":1732464641,"current_range_meters":0,"station_id":"ce4bgi92rcd13ifvqb90","pricing_plan_id":"cebpf4jnsgd1na2vs0mg"},{"bike_id":"d25e8aa0-6a6e-4ce4-b57b-82c1cf70e167","system_id":"levelo_inurba_marseille","lat":43.28162,"lon":5.4266,"is_reserved":false,"is_disabled":false,"rental_uris":{"android":"levelo://app?vid=d25e8aa0-6a6e-4ce4-b57b-82c1cf70e167","ios":"levelo://app?vid=d25e8aa0-6a6e-4ce4-b57b-82c1cf70e167"},"vehicle_type_id":"4","last_reported":1732464641,"current_range_meters":17600,"station_id":"ce4bhnh2rcd13ifvqgug","pricing_plan_id":"cebpf4jnsgd1na2vs0mg"},{"bike_id":"f8b957eb-ac36-4e56-96cf-7474e1d53753","system_id":"levelo_inurba_marseille","lat":43.2466,"lon":5.38166,"is_reserved":false,"is_disabled":false,"rental_uris":{"android":"levelo://app?vid=f8b957eb-ac36-4e56-96cf-7474e1d53753","ios":"levelo://app?vid=f8b957eb-ac36-4e56-96cf-7474e1d53753"},"vehicle_type_id":"4","last_reported":1732464641,"current_range_meters":16000,"station_id":"ce4bhih2rcd13ifvqfr0","pricing_plan_id":"cebpf4jnsgd1na2vs0mg"},{"bike_id":"1adac3ce-1948-4a38-b5da-29a176be048d","system_id":"levelo_inurba_marseille","lat":43.31237,"lon":5.36851,"is_reserved":false,"is_disabled":false,"rental_uris":{"android":"levelo://app?vid=1adac3ce-1948-4a38-b5da-29a176be048d","ios":"levelo://app?vid=1adac3ce-1948-4a38-b5da-29a176be048d"},"vehicle_type_id":"4","last_reported":1732464641,"current_range_meters":11200,"station_id":"ce4bgl92rcd13ifvqbq0","pricing_plan_id":"cebpf4jnsgd1na2vs0mg"},{"bike_id":"cd47aadf-ae7c-4b4b-afd8-5b13847f706e","system_id":"levelo_inurba_marseille","lat":43.24803,"lon":5.37457,"is_reserved":false,"is_disabled":false,"rental_uris":{"android":"levelo://app?vid=cd47aadf-ae7c-4b4b-afd8-5b13847f706e","ios":"levelo://app?vid=cd47aadf-ae7c-4b4b-afd8-5b13847f706e"},"vehicle_type_id":"4","last_reported":1732464641,"current_range_meters":10800,"station_id":"ce4bhgh2rcd13ifvqfb0","pricing_plan_id":"cebpf4jnsgd1na2vs0mg"},{"bike_id":"faddc5bf-9308-4490-a929-f5be12fd1597","system_id":"levelo_inurba_marseille","lat":43.25581,"lon":5.38234,"is_reserved":false,"is_disabled":false,"rental_uris":{"android":"levelo://app?vid=faddc5bf-9308-4490-a929-f5be12fd1597","ios":"levelo://app?vid=faddc5bf-9308-4490-a929-f5be12fd1597"},"vehicle_type_id":"4","last_reported":1732464641,"current_range_meters":18800,"station_id":"ce4bhih2rcd13ifvqfs0","pricing_plan_id":"cebpf4jnsgd1na2vs0mg"},{"bike_id":"36296f5c-0176-4be0-97c8-7930cda9c369","system_id":"levelo_inurba_marseille","lat":43.32107,"lon":5.36773,"is_reserved":false,"is_disabled":false,"rental_uris":{"android":"levelo://app?vid=36296f5c-0176-4be0-97c8-7930cda9c369","ios":"levelo://app?vid=36296f5c-0176-4be0-97c8-7930cda9c369"},"vehicle_type_id":"4","last_reported":1732464641,"current_range_meters":30400,"station_id":"ce4bhrh2rcd13ifvqhug","pricing_plan_id":"cebpf4jnsgd1na2vs0mg"},{"bike_id":"a4c40dcc-7fa9-4968-b648-31a1147076e9","system_id":"levelo_inurba_marseille","lat":43.29102,"lon":5.38131,"is_reserved":false,"is_disabled":false,"rental_uris":{"android":"levelo://app?vid=a4c40dcc-7fa9-4968-b648-31a1147076e9","ios":"levelo://app?vid=a4c40dcc-7fa9-4968-b648-31a1147076e9"},"vehicle_type_id":"4","last_reported":1732464641,"current_range_meters":24400,"station_id":"ce4bh512rcd13ifvqe2g","pricing_plan_id":"cebpf4jnsgd1na2vs0mg"},{"bike_id":"3749f547-26de-49f3-8704-9a5a504b68f5","system_id":"levelo_inurba_marseille","lat":43.25572,"lon":5.38229,"is_reserved":false,"is_disabled":false,"rental_uris":{"android":"levelo://app?vid=3749f547-26de-49f3-8704-9a5a504b68f5","ios":"levelo://app?vid=3749f547-26de-49f3-8704-9a5a504b68f5"},"vehicle_type_id":"4","last_reported":1732464641,"current_range_meters":35200,"station_id":"ce4bhih2rcd13ifvqfs0","pricing_plan_id":"cebpf4jnsgd1na2vs0mg"},{"bike_id":"d2a52b58-fabe-4a57-94ba-464e41b85800","system_id":"levelo_inurba_marseille","lat":43.30071,"lon":5.37412,"is_reserved":false,"is_disabled":true,"rental_uris":{"android":"levelo://app?vid=d2a52b58-fabe-4a57-94ba-464e41b85800","ios":"levelo://app?vid=d2a52b58-fabe-4a57-94ba-464e41b85800"},"vehicle_type_id":"4","last_reported":1732464641,"current_range_meters":25200,"station_id":"","pricing_plan_id":"cebpf4jnsgd1na2vs0mg"},{"bike_id":"82ba39d5-8a53-47d1-8b0a-19d19a9663f1","system_id":"levelo_inurba_marseille","lat":43.31537,"lon":5.38027,"is_reserved":false,"is_disabled":false,"rental_uris":{"android":"levelo://app?vid=82ba39d5-8a53-47d1-8b0a-19d19a9663f1","ios":"levelo://app?vid=82ba39d5-8a53-47d1-8b0a-19d19a9663f1"},"vehicle_type_id":"4","last_reported":1732464641,"current_range_meters":20000,"station_id":"ce4bhsp2rcd13ifvqi50","pricing_plan_id":"cebpf4jnsgd1na2vs0mg"},{"bike_id":"0c489536-9ff4-4fa4-88b1-c243b2cc3613","system_id":"levelo_inurba_marseille","lat":43.30305,"lon":5.36886,"is_reserved":false,"is_disabled":false,"rental_uris":{"android":"levelo://app?vid=0c489536-9ff4-4fa4-88b1-c243b2cc3613","ios":"levelo://app?vid=0c489536-9ff4-4fa4-88b1-c243b2cc3613"},"vehicle_type_id":"4","last_reported":1732464641,"current_range_meters":28000,"station_id":"ce4bgqh2rcd13ifvqc5g","pricing_plan_id":"cebpf4jnsgd1na2vs0mg"},{"bike_id":"830fdb02-e374-4662-9cae-4d4058e1d0c5","system_id":"levelo_inurba_marseille","lat":43.2721,"lon":5.39185,"is_reserved":false,"is_disabled":false,"rental_uris":{"android":"levelo://app?vid=830fdb02-e374-4662-9cae-4d4058e1d0c5","ios":"levelo://app?vid=830fdb02-e374-4662-9cae-4d4058e1d0c5"},"vehicle_type_id":"4","last_reported":1732464641,"current_range_meters":38800,"station_id":"ce4bhhp2rcd13ifvqfm0","pricing_plan_id":"cebpf4jnsgd1na2vs0mg"},{"bike_id":"d06444a9-63dc-43fa-b7f3-5e32d34d6f16","system_id":"levelo_inurba_marseille","lat":43.27055,"lon":5.40258,"is_reserved":false,"is_disabled":false,"rental_uris":{"android":"levelo://app?vid=d06444a9-63dc-43fa-b7f3-5e32d34d6f16","ios":"levelo://app?vid=d06444a9-63dc-43fa-b7f3-5e32d34d6f16"},"vehicle_type_id":"4","last_reported":1732464641,"current_range_meters":11200,"station_id":"ce4bhk92rcd13ifvqgc0","pricing_plan_id":"cebpf4jnsgd1na2vs0mg"},{"bike_id":"845cd7ff-290e-432c-bed8-16e3fe08c47c","system_id":"levelo_inurba_marseille","lat":43.23964,"lon":5.36634,"is_reserved":false,"is_disabled":false,"rental_uris":{"android":"levelo://app?vid=845cd7ff-290e-432c-bed8-16e3fe08c47c","ios":"levelo://app?vid=845cd7ff-290e-432c-bed8-16e3fe08c47c"},"vehicle_type_id":"4","last_reported":1732464641,"current_range_meters":6800,"station_id":"ce4bhi12rcd13ifvqfp0","pricing_plan_id":"cebpf4jnsgd1na2vs0mg"},{"bike_id":"66d70828-b14f-4541-8984-1f382e380cdf","system_id":"levelo_inurba_marseille","lat":43.27324,"lon":5.39077,"is_reserved":false,"is_disabled":true,"rental_uris":{"android":"levelo://app?vid=66d70828-b14f-4541-8984-1f382e380cdf","ios":"levelo://app?vid=66d70828-b14f-4541-8984-1f382e380cdf"},"vehicle_type_id":"4","last_reported":1732464641,"current_range_meters":38800,"station_id":"ce4bhgp2rcd13ifvqfe0","pricing_plan_id":"cebpf4jnsgd1na2vs0mg"},{"bike_id":"dd3b09fe-b71a-401a-b299-a88383f47f1c","system_id":"levelo_inurba_marseille","lat":43.337444,"lon":5.374475,"is_reserved":false,"is_disabled":false,"rental_uris":{"android":"levelo://app?vid=dd3b09fe-b71a-401a-b299-a88383f47f1c","ios":"levelo://app?vid=dd3b09fe-b71a-401a-b299-a88383f47f1c"},"vehicle_type_id":"4","last_reported":1732464641,"current_range_meters":30400,"station_id":"","pricing_plan_id":"cebpf4jnsgd1na2vs0mg"},{"bike_id":"b0f390fe-f074-44e1-82a8-52d6615e9359","system_id":"levelo_inurba_marseille","lat":43.22929,"lon":5.35374,"is_reserved":false,"is_disabled":true,"rental_uris":{"android":"levelo://app?vid=b0f390fe-f074-44e1-82a8-52d6615e9359","ios":"levelo://app?vid=b0f390fe-f074-44e1-82a8-52d6615e9359"},"vehicle_type_id":"4","last_reported":1732464641,"current_range_meters":0,"station_id":"cpo3532slgdg3j2ikp40","pricing_plan_id":"cebpf4jnsgd1na2vs0mg"},{"bike_id":"942d1e42-e091-451d-b985-65ffdb9a287a","system_id":"levelo_inurba_marseille","lat":43.27308,"lon":5.39093,"is_reserved":false,"is_disabled":false,"rental_uris":{"android":"levelo://app?vid=942d1e42-e091-451d-b985-65ffdb9a287a","ios":"levelo://app?vid=942d1e42-e091-451d-b985-65ffdb9a287a"},"vehicle_type_id":"4","last_reported":1732464641,"current_range_meters":16800,"station_id":"ce4bhgp2rcd13ifvqfe0","pricing_plan_id":"cebpf4jnsgd1na2vs0mg"},{"bike_id":"5923a35d-2000-418d-af37-5c9f8b56db63","system_id":"levelo_inurba_marseille","lat":43.29674,"lon":5.37285,"is_reserved":false,"is_disabled":false,"rental_uris":{"android":"levelo://app?vid=5923a35d-2000-418d-af37-5c9f8b56db63","ios":"levelo://app?vid=5923a35d-2000-418d-af37-5c9f8b56db63"},"vehicle_type_id":"4","last_reported":1732464641,"current_range_meters":27200,"station_id":"ce4bgk12rcd13ifvqbj0","pricing_plan_id":"cebpf4jnsgd1na2vs0mg"},{"bike_id":"3c867933-15f7-487e-a98a-93264d20cd11","system_id":"levelo_inurba_marseille","lat":43.30127,"lon":5.39861,"is_reserved":false,"is_disabled":false,"rental_uris":{"android":"levelo://app?vid=3c867933-15f7-487e-a98a-93264d20cd11","ios":"levelo://app?vid=3c867933-15f7-487e-a98a-93264d20cd11"},"vehicle_type_id":"4","last_reported":1732464641,"current_range_meters":21600,"station_id":"ce4bh0h2rcd13ifvqd40","pricing_plan_id":"cebpf4jnsgd1na2vs0mg"},{"bike_id":"17ba6615-9f08-440e-93e9-f8f4f3600fcd","system_id":"levelo_inurba_marseille","lat":43.30535,"lon":5.36532,"is_reserved":false,"is_disabled":true,"rental_uris":{"android":"levelo://app?vid=17ba6615-9f08-440e-93e9-f8f4f3600fcd","ios":"levelo://app?vid=17ba6615-9f08-440e-93e9-f8f4f3600fcd"},"vehicle_type_id":"4","last_reported":1732464641,"current_range_meters":0,"station_id":"ce4bgs12rcd13ifvqcag","pricing_plan_id":"cebpf4jnsgd1na2vs0mg"},{"bike_id":"cbc2167d-639d-4b33-b914-3ad6f36f2868","system_id":"levelo_inurba_marseille","lat":43.22926,"lon":5.35376,"is_reserved":false,"is_disabled":false,"rental_uris":{"android":"levelo://app?vid=cbc2167d-639d-4b33-b914-3ad6f36f2868","ios":"levelo://app?vid=cbc2167d-639d-4b33-b914-3ad6f36f2868"},"vehicle_type_id":"4","last_reported":1732464641,"current_range_meters":35600,"station_id":"cpo3532slgdg3j2ikp40","pricing_plan_id":"cebpf4jnsgd1na2vs0mg"},{"bike_id":"3b76b434-c07f-48ef-bce6-5339bda9953e","system_id":"levelo_inurba_marseille","lat":43.28473,"lon":5.39188,"is_reserved":false,"is_disabled":false,"rental_uris":{"android":"levelo://app?vid=3b76b434-c07f-48ef-bce6-5339bda9953e","ios":"levelo://app?vid=3b76b434-c07f-48ef-bce6-5339bda9953e"},"vehicle_type_id":"4","last_reported":1732464641,"current_range_meters":38400,"station_id":"ce4bhoh2rcd13ifvqh5g","pricing_plan_id":"cebpf4jnsgd1na2vs0mg"},{"bike_id":"733b67b3-1a87-4242-bd87-335df6184478","system_id":"levelo_inurba_marseille","lat":43.29261,"lon":5.40906,"is_reserved":false,"is_disabled":false,"rental_uris":{"android":"levelo://app?vid=733b67b3-1a87-4242-bd87-335df6184478","ios":"levelo://app?vid=733b67b3-1a87-4242-bd87-335df6184478"},"vehicle_type_id":"4","last_reported":1732464641,"current_range_meters":23200,"station_id":"ce4bh192rcd13ifvqdc0","pricing_plan_id":"cebpf4jnsgd1na2vs0mg"},{"bike_id":"9571ab5e-b96b-4203-912e-9bbecb2fc5cb","system_id":"levelo_inurba_marseille","lat":43.30421,"lon":5.41279,"is_reserved":false,"is_disabled":false,"rental_uris":{"android":"levelo://app?vid=9571ab5e-b96b-4203-912e-9bbecb2fc5cb","ios":"levelo://app?vid=9571ab5e-b96b-4203-912e-9bbecb2fc5cb"},"vehicle_type_id":"4","last_reported":1732464641,"current_range_meters":38800,"station_id":"ce4bhop2rcd13ifvqh8g","pricing_plan_id":"cebpf4jnsgd1na2vs0mg"},{"bike_id":"635f2088-37d7-4c7e-b140-3292398be605","system_id":"levelo_inurba_marseille","lat":43.24812,"lon":5.37457,"is_reserved":false,"is_disabled":false,"rental_uris":{"android":"levelo://app?vid=635f2088-37d7-4c7e-b140-3292398be605","ios":"levelo://app?vid=635f2088-37d7-4c7e-b140-3292398be605"},"vehicle_type_id":"4","last_reported":1732464641,"current_range_meters":35200,"station_id":"ce4bhgh2rcd13ifvqfb0","pricing_plan_id":"cebpf4jnsgd1na2vs0mg"},{"bike_id":"ac102e6b-62d6-40d2-bee4-133b1219ee22","system_id":"levelo_inurba_marseille","lat":43.30892,"lon":5.37205,"is_reserved":false,"is_disabled":false,"rental_uris":{"android":"levelo://app?vid=ac102e6b-62d6-40d2-bee4-133b1219ee22","ios":"levelo://app?vid=ac102e6b-62d6-40d2-bee4-133b1219ee22"},"vehicle_type_id":"4","last_reported":1732464641,"current_range_meters":13600,"station_id":"ce4bguh2rcd13ifvqckg","pricing_plan_id":"cebpf4jnsgd1na2vs0mg"},{"bike_id":"d336510b-5ba4-4a68-9f8f-3b5a1f8fcfaa","system_id":"levelo_inurba_marseille","lat":43.27217,"lon":5.392,"is_reserved":false,"is_disabled":false,"rental_uris":{"android":"levelo://app?vid=d336510b-5ba4-4a68-9f8f-3b5a1f8fcfaa","ios":"levelo://app?vid=d336510b-5ba4-4a68-9f8f-3b5a1f8fcfaa"},"vehicle_type_id":"4","last_reported":1732464641,"current_range_meters":32800,"station_id":"ce4bhhp2rcd13ifvqfm0","pricing_plan_id":"cebpf4jnsgd1na2vs0mg"},{"bike_id":"46aecb4d-ca23-4cd2-b4ac-2aedc6d37aaa","system_id":"levelo_inurba_marseille","lat":43.30436,"lon":5.36861,"is_reserved":false,"is_disabled":false,"rental_uris":{"android":"levelo://app?vid=46aecb4d-ca23-4cd2-b4ac-2aedc6d37aaa","ios":"levelo://app?vid=46aecb4d-ca23-4cd2-b4ac-2aedc6d37aaa"},"vehicle_type_id":"4","last_reported":1732464641,"current_range_meters":8800,"station_id":"","pricing_plan_id":"cebpf4jnsgd1na2vs0mg"},{"bike_id":"1a6a5935-b5d1-4cff-91c8-cf62c7a736fd","system_id":"levelo_inurba_marseille","lat":43.29312,"lon":5.37177,"is_reserved":false,"is_disabled":false,"rental_uris":{"android":"levelo://app?vid=1a6a5935-b5d1-4cff-91c8-cf62c7a736fd","ios":"levelo://app?vid=1a6a5935-b5d1-4cff-91c8-cf62c7a736fd"},"vehicle_type_id":"4","last_reported":1732464641,"current_range_meters":38800,"station_id":"ce4bgh92rcd13ifvqb40","pricing_plan_id":"cebpf4jnsgd1na2vs0mg"},{"bike_id":"2671fb8a-3452-46fd-bec4-bd169133378c","system_id":"levelo_inurba_marseille","lat":43.26685,"lon":5.38269,"is_reserved":false,"is_disabled":true,"rental_uris":{"android":"levelo://app?vid=2671fb8a-3452-46fd-bec4-bd169133378c","ios":"levelo://app?vid=2671fb8a-3452-46fd-bec4-bd169133378c"},"vehicle_type_id":"4","last_reported":1732464641,"current_range_meters":38800,"station_id":"ce4bhg92rcd13ifvqf90","pricing_plan_id":"cebpf4jnsgd1na2vs0mg"},{"bike_id":"accce84f-6c27-482c-a5fa-8cd30cde8747","system_id":"levelo_inurba_marseille","lat":43.2848,"lon":5.38538,"is_reserved":false,"is_disabled":false,"rental_uris":{"android":"levelo://app?vid=accce84f-6c27-482c-a5fa-8cd30cde8747","ios":"levelo://app?vid=accce84f-6c27-482c-a5fa-8cd30cde8747"},"vehicle_type_id":"4","last_reported":1732464641,"current_range_meters":25600,"station_id":"ce4bh8p2rcd13ifvqeb0","pricing_plan_id":"cebpf4jnsgd1na2vs0mg"},{"bike_id":"28f8ecf8-a7ae-4a32-aa4f-609e03eada5d","system_id":"levelo_inurba_marseille","lat":43.29531,"lon":5.38543,"is_reserved":false,"is_disabled":true,"rental_uris":{"android":"levelo://app?vid=28f8ecf8-a7ae-4a32-aa4f-609e03eada5d","ios":"levelo://app?vid=28f8ecf8-a7ae-4a32-aa4f-609e03eada5d"},"vehicle_type_id":"4","last_reported":1732464641,"current_range_meters":38400,"station_id":"ce4bgih2rcd13ifvqba0","pricing_plan_id":"cebpf4jnsgd1na2vs0mg"},{"bike_id":"2e8d4c18-b740-4d10-9e14-88d713fc7208","system_id":"levelo_inurba_marseille","lat":43.29578,"lon":5.36743,"is_reserved":false,"is_disabled":false,"rental_uris":{"android":"levelo://app?vid=2e8d4c18-b740-4d10-9e14-88d713fc7208","ios":"levelo://app?vid=2e8d4c18-b740-4d10-9e14-88d713fc7208"},"vehicle_type_id":"4","last_reported":1732464641,"current_range_meters":26800,"station_id":"ce4bgph2rcd13ifvqc2g","pricing_plan_id":"cebpf4jnsgd1na2vs0mg"},{"bike_id":"858b65e1-94fc-4151-a71e-8b168cb19dcb","system_id":"levelo_inurba_marseille","lat":43.32249,"lon":5.39241,"is_reserved":false,"is_disabled":true,"rental_uris":{"android":"levelo://app?vid=858b65e1-94fc-4151-a71e-8b168cb19dcb","ios":"levelo://app?vid=858b65e1-94fc-4151-a71e-8b168cb19dcb"},"vehicle_type_id":"4","last_reported":1732464641,"current_range_meters":6400,"station_id":"","pricing_plan_id":"cebpf4jnsgd1na2vs0mg"},{"bike_id":"50fa51f0-e97e-445c-be1f-abf6b73d62f8","system_id":"levelo_inurba_marseille","lat":43.25111,"lon":5.40331,"is_reserved":false,"is_disabled":false,"rental_uris":{"android":"levelo://app?vid=50fa51f0-e97e-445c-be1f-abf6b73d62f8","ios":"levelo://app?vid=50fa51f0-e97e-445c-be1f-abf6b73d62f8"},"vehicle_type_id":"4","last_reported":1732464641,"current_range_meters":17600,"station_id":"ce4bhlh2rcd13ifvqgig","pricing_plan_id":"cebpf4jnsgd1na2vs0mg"},{"bike_id":"133c0635-6ac4-49a6-b3b8-4ad5dda949c5","system_id":"levelo_inurba_marseille","lat":43.31722,"lon":5.37788,"is_reserved":false,"is_disabled":true,"rental_uris":{"android":"levelo://app?vid=133c0635-6ac4-49a6-b3b8-4ad5dda949c5","ios":"levelo://app?vid=133c0635-6ac4-49a6-b3b8-4ad5dda949c5"},"vehicle_type_id":"4","last_reported":1732464641,"current_range_meters":37600,"station_id":"ce4bgth2rcd13ifvqch0","pricing_plan_id":"cebpf4jnsgd1na2vs0mg"},{"bike_id":"5b1848fc-624c-4c51-aee9-b2940f85a2d8","system_id":"levelo_inurba_marseille","lat":43.31719,"lon":5.37768,"is_reserved":false,"is_disabled":false,"rental_uris":{"android":"levelo://app?vid=5b1848fc-624c-4c51-aee9-b2940f85a2d8","ios":"levelo://app?vid=5b1848fc-624c-4c51-aee9-b2940f85a2d8"},"vehicle_type_id":"4","last_reported":1732464641,"current_range_meters":38800,"station_id":"ce4bgth2rcd13ifvqch0","pricing_plan_id":"cebpf4jnsgd1na2vs0mg"},{"bike_id":"1f7a2424-c270-4472-84c7-0f6ba57bbbb4","system_id":"levelo_inurba_marseille","lat":43.31367,"lon":5.38481,"is_reserved":false,"is_disabled":true,"rental_uris":{"android":"levelo://app?vid=1f7a2424-c270-4472-84c7-0f6ba57bbbb4","ios":"levelo://app?vid=1f7a2424-c270-4472-84c7-0f6ba57bbbb4"},"vehicle_type_id":"4","last_reported":1732464641,"current_range_meters":8000,"station_id":"ce4bgt92rcd13ifvqcf0","pricing_plan_id":"cebpf4jnsgd1na2vs0mg"},{"bike_id":"72bd035c-1ca6-47d6-a90c-e060d6f1f853","system_id":"levelo_inurba_marseille","lat":43.29379,"lon":5.37868,"is_reserved":false,"is_disabled":true,"rental_uris":{"android":"levelo://app?vid=72bd035c-1ca6-47d6-a90c-e060d6f1f853","ios":"levelo://app?vid=72bd035c-1ca6-47d6-a90c-e060d6f1f853"},"vehicle_type_id":"4","last_reported":1732464641,"current_range_meters":3200,"station_id":"ce4bgjh2rcd13ifvqbf0","pricing_plan_id":"cebpf4jnsgd1na2vs0mg"},{"bike_id":"890ceff7-9bd1-4363-9716-427976dbddef","system_id":"levelo_inurba_marseille","lat":43.27207,"lon":5.3919,"is_reserved":false,"is_disabled":true,"rental_uris":{"android":"levelo://app?vid=890ceff7-9bd1-4363-9716-427976dbddef","ios":"levelo://app?vid=890ceff7-9bd1-4363-9716-427976dbddef"},"vehicle_type_id":"4","last_reported":1732464641,"current_range_meters":800,"station_id":"ce4bhhp2rcd13ifvqfm0","pricing_plan_id":"cebpf4jnsgd1na2vs0mg"},{"bike_id":"51dadabf-6c3f-4722-b70f-1952eed7d670","system_id":"levelo_inurba_marseille","lat":43.29172,"lon":5.37147,"is_reserved":false,"is_disabled":false,"rental_uris":{"android":"levelo://app?vid=51dadabf-6c3f-4722-b70f-1952eed7d670","ios":"levelo://app?vid=51dadabf-6c3f-4722-b70f-1952eed7d670"},"vehicle_type_id":"4","last_reported":1732464641,"current_range_meters":27200,"station_id":"ce4bha92rcd13ifvqeh0","pricing_plan_id":"cebpf4jnsgd1na2vs0mg"},{"bike_id":"552ae1f9-34eb-4d70-a19b-3616d3661778","system_id":"levelo_inurba_marseille","lat":43.33719,"lon":5.39182,"is_reserved":false,"is_disabled":false,"rental_uris":{"android":"levelo://app?vid=552ae1f9-34eb-4d70-a19b-3616d3661778","ios":"levelo://app?vid=552ae1f9-34eb-4d70-a19b-3616d3661778"},"vehicle_type_id":"4","last_reported":1732464641,"current_range_meters":14400,"station_id":"ce4bhr92rcd13ifvqhsg","pricing_plan_id":"cebpf4jnsgd1na2vs0mg"},{"bike_id":"f7f3756c-1ec7-4782-9c87-6273f87b6774","system_id":"levelo_inurba_marseille","lat":43.337444,"lon":5.374475,"is_reserved":false,"is_disabled":true,"rental_uris":{"android":"levelo://app?vid=f7f3756c-1ec7-4782-9c87-6273f87b6774","ios":"levelo://app?vid=f7f3756c-1ec7-4782-9c87-6273f87b6774"},"vehicle_type_id":"4","last_reported":1732464641,"current_range_meters":28000,"station_id":"","pricing_plan_id":"cebpf4jnsgd1na2vs0mg"},{"bike_id":"740f162e-a0c7-4af9-899d-283ea1409dc6","system_id":"levelo_inurba_marseille","lat":43.26932,"lon":5.38922,"is_reserved":false,"is_disabled":true,"rental_uris":{"android":"levelo://app?vid=740f162e-a0c7-4af9-899d-283ea1409dc6","ios":"levelo://app?vid=740f162e-a0c7-4af9-899d-283ea1409dc6"},"vehicle_type_id":"4","last_reported":1732464641,"current_range_meters":30000,"station_id":"ce4bhhh2rcd13ifvqfl0","pricing_plan_id":"cebpf4jnsgd1na2vs0mg"},{"bike_id":"d8d94634-4ac1-4f5f-8651-7a99e522961a","system_id":"levelo_inurba_marseille","lat":43.25958,"lon":5.3964,"is_reserved":false,"is_disabled":false,"rental_uris":{"android":"levelo://app?vid=d8d94634-4ac1-4f5f-8651-7a99e522961a","ios":"levelo://app?vid=d8d94634-4ac1-4f5f-8651-7a99e522961a"},"vehicle_type_id":"4","last_reported":1732464641,"current_range_meters":28400,"station_id":"","pricing_plan_id":"cebpf4jnsgd1na2vs0mg"},{"bike_id":"ab04664c-7a4c-47e5-aa32-1c539def39eb","system_id":"levelo_inurba_marseille","lat":43.25109,"lon":5.4032,"is_reserved":false,"is_disabled":false,"rental_uris":{"android":"levelo://app?vid=ab04664c-7a4c-47e5-aa32-1c539def39eb","ios":"levelo://app?vid=ab04664c-7a4c-47e5-aa32-1c539def39eb"},"vehicle_type_id":"4","last_reported":1732464641,"current_range_meters":19600,"station_id":"ce4bhlh2rcd13ifvqgig","pricing_plan_id":"cebpf4jnsgd1na2vs0mg"},{"bike_id":"20305e2f-bbbe-4758-bf66-741c9d1e9109","system_id":"levelo_inurba_marseille","lat":43.28152,"lon":5.42636,"is_reserved":false,"is_disabled":false,"rental_uris":{"android":"levelo://app?vid=20305e2f-bbbe-4758-bf66-741c9d1e9109","ios":"levelo://app?vid=20305e2f-bbbe-4758-bf66-741c9d1e9109"},"vehicle_type_id":"4","last_reported":1732464641,"current_range_meters":2800,"station_id":"ce4bhnh2rcd13ifvqgug","pricing_plan_id":"cebpf4jnsgd1na2vs0mg"},{"bike_id":"6ba02e1a-6b80-438b-b17e-fd4b59d2a27c","system_id":"levelo_inurba_marseille","lat":43.269283,"lon":5.402448,"is_reserved":false,"is_disabled":false,"rental_uris":{"android":"levelo://app?vid=6ba02e1a-6b80-438b-b17e-fd4b59d2a27c","ios":"levelo://app?vid=6ba02e1a-6b80-438b-b17e-fd4b59d2a27c"},"vehicle_type_id":"4","last_reported":1732464641,"current_range_meters":9600,"station_id":"cjm6bp8fraef2m0cb0m0","pricing_plan_id":"cebpf4jnsgd1na2vs0mg"},{"bike_id":"c99f82a6-1e75-4069-adf7-8d3dd61d2d09","system_id":"levelo_inurba_marseille","lat":43.29898,"lon":5.43667,"is_reserved":false,"is_disabled":false,"rental_uris":{"android":"levelo://app?vid=c99f82a6-1e75-4069-adf7-8d3dd61d2d09","ios":"levelo://app?vid=c99f82a6-1e75-4069-adf7-8d3dd61d2d09"},"vehicle_type_id":"4","last_reported":1732464641,"current_range_meters":16000,"station_id":"ce4bhpp2rcd13ifvqhfg","pricing_plan_id":"cebpf4jnsgd1na2vs0mg"},{"bike_id":"96fef04f-f424-4b1e-a003-fc645e04ed3a","system_id":"levelo_inurba_marseille","lat":43.27371,"lon":5.36253,"is_reserved":false,"is_disabled":true,"rental_uris":{"android":"levelo://app?vid=96fef04f-f424-4b1e-a003-fc645e04ed3a","ios":"levelo://app?vid=96fef04f-f424-4b1e-a003-fc645e04ed3a"},"vehicle_type_id":"4","last_reported":1732464641,"current_range_meters":30400,"station_id":"ce4bhbh2rcd13ifvqeo0","pricing_plan_id":"cebpf4jnsgd1na2vs0mg"},{"bike_id":"b7b61d62-d3cf-45c0-ae9e-f05215122577","system_id":"levelo_inurba_marseille","lat":43.30927,"lon":5.40146,"is_reserved":false,"is_disabled":true,"rental_uris":{"android":"levelo://app?vid=b7b61d62-d3cf-45c0-ae9e-f05215122577","ios":"levelo://app?vid=b7b61d62-d3cf-45c0-ae9e-f05215122577"},"vehicle_type_id":"4","last_reported":1732464641,"current_range_meters":0,"station_id":"ce4bgvp2rcd13ifvqct0","pricing_plan_id":"cebpf4jnsgd1na2vs0mg"},{"bike_id":"92aaf2ae-6395-4985-bda4-652f2001ddbe","system_id":"levelo_inurba_marseille","lat":43.27551,"lon":5.38423,"is_reserved":false,"is_disabled":false,"rental_uris":{"android":"levelo://app?vid=92aaf2ae-6395-4985-bda4-652f2001ddbe","ios":"levelo://app?vid=92aaf2ae-6395-4985-bda4-652f2001ddbe"},"vehicle_type_id":"4","last_reported":1732464641,"current_range_meters":36800,"station_id":"ce4bhh92rcd13ifvqfi0","pricing_plan_id":"cebpf4jnsgd1na2vs0mg"},{"bike_id":"57360595-c4fd-4db3-80d3-bb87abd6aa88","system_id":"levelo_inurba_marseille","lat":43.265591,"lon":5.372878,"is_reserved":false,"is_disabled":false,"rental_uris":{"android":"levelo://app?vid=57360595-c4fd-4db3-80d3-bb87abd6aa88","ios":"levelo://app?vid=57360595-c4fd-4db3-80d3-bb87abd6aa88"},"vehicle_type_id":"4","last_reported":1732464641,"current_range_meters":38800,"station_id":"ce4bhg12rcd13ifvqf70","pricing_plan_id":"cebpf4jnsgd1na2vs0mg"},{"bike_id":"eef74caf-b712-46ac-8fc5-c007ce1eecfe","system_id":"levelo_inurba_marseille","lat":43.28151,"lon":5.42645,"is_reserved":false,"is_disabled":false,"rental_uris":{"android":"levelo://app?vid=eef74caf-b712-46ac-8fc5-c007ce1eecfe","ios":"levelo://app?vid=eef74caf-b712-46ac-8fc5-c007ce1eecfe"},"vehicle_type_id":"4","last_reported":1732464641,"current_range_meters":28400,"station_id":"ce4bhnh2rcd13ifvqgug","pricing_plan_id":"cebpf4jnsgd1na2vs0mg"},{"bike_id":"86ec5835-1e76-4455-9969-54b44bba3755","system_id":"levelo_inurba_marseille","lat":43.32477,"lon":5.36569,"is_reserved":false,"is_disabled":false,"rental_uris":{"android":"levelo://app?vid=86ec5835-1e76-4455-9969-54b44bba3755","ios":"levelo://app?vid=86ec5835-1e76-4455-9969-54b44bba3755"},"vehicle_type_id":"4","last_reported":1732464641,"current_range_meters":16800,"station_id":"ce4bhs12rcd13ifvqhvg","pricing_plan_id":"cebpf4jnsgd1na2vs0mg"},{"bike_id":"0ee2791b-c0d5-4ae7-a47e-597962f52631","system_id":"levelo_inurba_marseille","lat":43.299,"lon":5.43676,"is_reserved":false,"is_disabled":false,"rental_uris":{"android":"levelo://app?vid=0ee2791b-c0d5-4ae7-a47e-597962f52631","ios":"levelo://app?vid=0ee2791b-c0d5-4ae7-a47e-597962f52631"},"vehicle_type_id":"4","last_reported":1732464641,"current_range_meters":38800,"station_id":"ce4bhpp2rcd13ifvqhfg","pricing_plan_id":"cebpf4jnsgd1na2vs0mg"},{"bike_id":"63e5c75a-30c8-4be5-8ec8-448fdf89dbb8","system_id":"levelo_inurba_marseille","lat":43.23065,"lon":5.35489,"is_reserved":false,"is_disabled":false,"rental_uris":{"android":"levelo://app?vid=63e5c75a-30c8-4be5-8ec8-448fdf89dbb8","ios":"levelo://app?vid=63e5c75a-30c8-4be5-8ec8-448fdf89dbb8"},"vehicle_type_id":"4","last_reported":1732464641,"current_range_meters":38800,"station_id":"cpo3342slgdg3j2ifvpg","pricing_plan_id":"cebpf4jnsgd1na2vs0mg"},{"bike_id":"1e193d09-2cb0-4798-8e19-b0516f3ebb8e","system_id":"levelo_inurba_marseille","lat":43.28188,"lon":5.42656,"is_reserved":false,"is_disabled":false,"rental_uris":{"android":"levelo://app?vid=1e193d09-2cb0-4798-8e19-b0516f3ebb8e","ios":"levelo://app?vid=1e193d09-2cb0-4798-8e19-b0516f3ebb8e"},"vehicle_type_id":"4","last_reported":1732464641,"current_range_meters":20000,"station_id":"ce4bhnh2rcd13ifvqgug","pricing_plan_id":"cebpf4jnsgd1na2vs0mg"},{"bike_id":"823a2db6-6519-4fff-88d8-800ec3fcc5ca","system_id":"levelo_inurba_marseille","lat":43.30087,"lon":5.39078,"is_reserved":false,"is_disabled":false,"rental_uris":{"android":"levelo://app?vid=823a2db6-6519-4fff-88d8-800ec3fcc5ca","ios":"levelo://app?vid=823a2db6-6519-4fff-88d8-800ec3fcc5ca"},"vehicle_type_id":"4","last_reported":1732464641,"current_range_meters":33600,"station_id":"ce4bh192rcd13ifvqdb0","pricing_plan_id":"cebpf4jnsgd1na2vs0mg"},{"bike_id":"08bb9d56-f397-488c-abe2-8a839870253a","system_id":"levelo_inurba_marseille","lat":43.27067,"lon":5.42271,"is_reserved":false,"is_disabled":false,"rental_uris":{"android":"levelo://app?vid=08bb9d56-f397-488c-abe2-8a839870253a","ios":"levelo://app?vid=08bb9d56-f397-488c-abe2-8a839870253a"},"vehicle_type_id":"4","last_reported":1732464641,"current_range_meters":34000,"station_id":"ce4bhk92rcd13ifvqgb0","pricing_plan_id":"cebpf4jnsgd1na2vs0mg"},{"bike_id":"319287df-687a-4519-8559-afdae3b3272f","system_id":"levelo_inurba_marseille","lat":43.2979,"lon":5.38108,"is_reserved":false,"is_disabled":true,"rental_uris":{"android":"levelo://app?vid=319287df-687a-4519-8559-afdae3b3272f","ios":"levelo://app?vid=319287df-687a-4519-8559-afdae3b3272f"},"vehicle_type_id":"4","last_reported":1732464641,"current_range_meters":33600,"station_id":"ce4bgip2rcd13ifvqbb0","pricing_plan_id":"cebpf4jnsgd1na2vs0mg"},{"bike_id":"bca3fd95-577b-4655-a940-7281cdb56793","system_id":"levelo_inurba_marseille","lat":43.28037,"lon":5.36942,"is_reserved":false,"is_disabled":true,"rental_uris":{"android":"levelo://app?vid=bca3fd95-577b-4655-a940-7281cdb56793","ios":"levelo://app?vid=bca3fd95-577b-4655-a940-7281cdb56793"},"vehicle_type_id":"4","last_reported":1732464641,"current_range_meters":35200,"station_id":"ce4bha12rcd13ifvqef0","pricing_plan_id":"cebpf4jnsgd1na2vs0mg"},{"bike_id":"e5951ee3-4a5a-4ebb-b469-096c5188dfa3","system_id":"levelo_inurba_marseille","lat":43.23193,"lon":5.35556,"is_reserved":false,"is_disabled":false,"rental_uris":{"android":"levelo://app?vid=e5951ee3-4a5a-4ebb-b469-096c5188dfa3","ios":"levelo://app?vid=e5951ee3-4a5a-4ebb-b469-096c5188dfa3"},"vehicle_type_id":"4","last_reported":1732464641,"current_range_meters":16800,"station_id":"ce4bhu92rcd13ifvqi70","pricing_plan_id":"cebpf4jnsgd1na2vs0mg"},{"bike_id":"38b912b2-2d2a-4554-8fd2-0e0947577dc9","system_id":"levelo_inurba_marseille","lat":43.29521,"lon":5.375,"is_reserved":false,"is_disabled":false,"rental_uris":{"android":"levelo://app?vid=38b912b2-2d2a-4554-8fd2-0e0947577dc9","ios":"levelo://app?vid=38b912b2-2d2a-4554-8fd2-0e0947577dc9"},"vehicle_type_id":"4","last_reported":1732464641,"current_range_meters":34000,"station_id":"ce4bgkp2rcd13ifvqbmg","pricing_plan_id":"cebpf4jnsgd1na2vs0mg"},{"bike_id":"e700e5aa-5b73-4656-9935-3bdb73a733cb","system_id":"levelo_inurba_marseille","lat":43.30587,"lon":5.37234,"is_reserved":false,"is_disabled":false,"rental_uris":{"android":"levelo://app?vid=e700e5aa-5b73-4656-9935-3bdb73a733cb","ios":"levelo://app?vid=e700e5aa-5b73-4656-9935-3bdb73a733cb"},"vehicle_type_id":"4","last_reported":1732464641,"current_range_meters":9600,"station_id":"ce4bgqh2rcd13ifvqc4g","pricing_plan_id":"cebpf4jnsgd1na2vs0mg"},{"bike_id":"e48a8bcf-b285-491a-ab93-4eafc8a4367e","system_id":"levelo_inurba_marseille","lat":43.23968,"lon":5.36631,"is_reserved":false,"is_disabled":false,"rental_uris":{"android":"levelo://app?vid=e48a8bcf-b285-491a-ab93-4eafc8a4367e","ios":"levelo://app?vid=e48a8bcf-b285-491a-ab93-4eafc8a4367e"},"vehicle_type_id":"4","last_reported":1732464641,"current_range_meters":39200,"station_id":"ce4bhi12rcd13ifvqfp0","pricing_plan_id":"cebpf4jnsgd1na2vs0mg"},{"bike_id":"13ed36c4-6f45-48ae-83e9-9702cfaa90b9","system_id":"levelo_inurba_marseille","lat":43.2894,"lon":5.36645,"is_reserved":false,"is_disabled":false,"rental_uris":{"android":"levelo://app?vid=13ed36c4-6f45-48ae-83e9-9702cfaa90b9","ios":"levelo://app?vid=13ed36c4-6f45-48ae-83e9-9702cfaa90b9"},"vehicle_type_id":"4","last_reported":1732464641,"current_range_meters":2800,"station_id":"ce4bhap2rcd13ifvqek0","pricing_plan_id":"cebpf4jnsgd1na2vs0mg"},{"bike_id":"6c948e9c-d5b3-4fe5-a918-1bd2f7c83b02","system_id":"levelo_inurba_marseille","lat":43.32114,"lon":5.36781,"is_reserved":false,"is_disabled":false,"rental_uris":{"android":"levelo://app?vid=6c948e9c-d5b3-4fe5-a918-1bd2f7c83b02","ios":"levelo://app?vid=6c948e9c-d5b3-4fe5-a918-1bd2f7c83b02"},"vehicle_type_id":"4","last_reported":1732464641,"current_range_meters":28000,"station_id":"ce4bhrh2rcd13ifvqhug","pricing_plan_id":"cebpf4jnsgd1na2vs0mg"},{"bike_id":"9e620abf-d324-4f99-84fc-d67e71109f2a","system_id":"levelo_inurba_marseille","lat":43.31077,"lon":5.42435,"is_reserved":false,"is_disabled":true,"rental_uris":{"android":"levelo://app?vid=9e620abf-d324-4f99-84fc-d67e71109f2a","ios":"levelo://app?vid=9e620abf-d324-4f99-84fc-d67e71109f2a"},"vehicle_type_id":"4","last_reported":1732464641,"current_range_meters":0,"station_id":"ce4bhp92rcd13ifvqhag","pricing_plan_id":"cebpf4jnsgd1na2vs0mg"},{"bike_id":"9388a7ff-9c5c-4c26-9899-39b2408cf7e3","system_id":"levelo_inurba_marseille","lat":43.31025,"lon":5.38342,"is_reserved":false,"is_disabled":true,"rental_uris":{"android":"levelo://app?vid=9388a7ff-9c5c-4c26-9899-39b2408cf7e3","ios":"levelo://app?vid=9388a7ff-9c5c-4c26-9899-39b2408cf7e3"},"vehicle_type_id":"4","last_reported":1732464641,"current_range_meters":0,"station_id":"","pricing_plan_id":"cebpf4jnsgd1na2vs0mg"},{"bike_id":"4d6b356d-2cf8-4c98-aed1-976ebfe1555d","system_id":"levelo_inurba_marseille","lat":43.25579,"lon":5.38233,"is_reserved":false,"is_disabled":false,"rental_uris":{"android":"levelo://app?vid=4d6b356d-2cf8-4c98-aed1-976ebfe1555d","ios":"levelo://app?vid=4d6b356d-2cf8-4c98-aed1-976ebfe1555d"},"vehicle_type_id":"4","last_reported":1732464641,"current_range_meters":32000,"station_id":"ce4bhih2rcd13ifvqfs0","pricing_plan_id":"cebpf4jnsgd1na2vs0mg"},{"bike_id":"623efcdd-d051-4505-909d-c52e6c52245f","system_id":"levelo_inurba_marseille","lat":43.32369,"lon":5.38884,"is_reserved":false,"is_disabled":true,"rental_uris":{"android":"levelo://app?vid=623efcdd-d051-4505-909d-c52e6c52245f","ios":"levelo://app?vid=623efcdd-d051-4505-909d-c52e6c52245f"},"vehicle_type_id":"4","last_reported":1732464641,"current_range_meters":8400,"station_id":"ce4bhqp2rcd13ifvqhog","pricing_plan_id":"cebpf4jnsgd1na2vs0mg"},{"bike_id":"6c2c8bef-3ff5-4ec9-a67d-ed9e7166008b","system_id":"levelo_inurba_marseille","lat":43.30141,"lon":5.38059,"is_reserved":false,"is_disabled":false,"rental_uris":{"android":"levelo://app?vid=6c2c8bef-3ff5-4ec9-a67d-ed9e7166008b","ios":"levelo://app?vid=6c2c8bef-3ff5-4ec9-a67d-ed9e7166008b"},"vehicle_type_id":"4","last_reported":1732464641,"current_range_meters":8000,"station_id":"ce4bgjp2rcd13ifvqbh0","pricing_plan_id":"cebpf4jnsgd1na2vs0mg"},{"bike_id":"c73f9031-dfb2-406e-b982-b1df3d770256","system_id":"levelo_inurba_marseille","lat":43.32657,"lon":5.4099,"is_reserved":false,"is_disabled":false,"rental_uris":{"android":"levelo://app?vid=c73f9031-dfb2-406e-b982-b1df3d770256","ios":"levelo://app?vid=c73f9031-dfb2-406e-b982-b1df3d770256"},"vehicle_type_id":"4","last_reported":1732464641,"current_range_meters":38000,"station_id":"ce4bhpp2rcd13ifvqhgg","pricing_plan_id":"cebpf4jnsgd1na2vs0mg"},{"bike_id":"5c53cfbd-2547-413a-b79a-f8cc3b1ca992","system_id":"levelo_inurba_marseille","lat":43.32109,"lon":5.36777,"is_reserved":false,"is_disabled":false,"rental_uris":{"android":"levelo://app?vid=5c53cfbd-2547-413a-b79a-f8cc3b1ca992","ios":"levelo://app?vid=5c53cfbd-2547-413a-b79a-f8cc3b1ca992"},"vehicle_type_id":"4","last_reported":1732464641,"current_range_meters":38800,"station_id":"ce4bhrh2rcd13ifvqhug","pricing_plan_id":"cebpf4jnsgd1na2vs0mg"},{"bike_id":"a4f6b2ed-09d6-4a2d-b8f8-67e653271cf5","system_id":"levelo_inurba_marseille","lat":43.298723,"lon":5.403517,"is_reserved":false,"is_disabled":false,"rental_uris":{"android":"levelo://app?vid=a4f6b2ed-09d6-4a2d-b8f8-67e653271cf5","ios":"levelo://app?vid=a4f6b2ed-09d6-4a2d-b8f8-67e653271cf5"},"vehicle_type_id":"4","last_reported":1732464641,"current_range_meters":6800,"station_id":"","pricing_plan_id":"cebpf4jnsgd1na2vs0mg"},{"bike_id":"04b9c9cb-be15-44a7-9bdc-6d22ca715c34","system_id":"levelo_inurba_marseille","lat":43.33718,"lon":5.391784,"is_reserved":false,"is_disabled":false,"rental_uris":{"android":"levelo://app?vid=04b9c9cb-be15-44a7-9bdc-6d22ca715c34","ios":"levelo://app?vid=04b9c9cb-be15-44a7-9bdc-6d22ca715c34"},"vehicle_type_id":"4","last_reported":1732464641,"current_range_meters":24400,"station_id":"ce4bhr92rcd13ifvqhsg","pricing_plan_id":"cebpf4jnsgd1na2vs0mg"},{"bike_id":"0b7c1271-06bf-43a0-a7d9-bb8d3720e94b","system_id":"levelo_inurba_marseille","lat":43.28854,"lon":5.39315,"is_reserved":false,"is_disabled":false,"rental_uris":{"android":"levelo://app?vid=0b7c1271-06bf-43a0-a7d9-bb8d3720e94b","ios":"levelo://app?vid=0b7c1271-06bf-43a0-a7d9-bb8d3720e94b"},"vehicle_type_id":"4","last_reported":1732464641,"current_range_meters":38800,"station_id":"ce4bh2p2rcd13ifvqdi0","pricing_plan_id":"cebpf4jnsgd1na2vs0mg"},{"bike_id":"43ef1878-08c8-43ce-8a84-e0d20cc2548c","system_id":"levelo_inurba_marseille","lat":43.2594,"lon":5.40908,"is_reserved":false,"is_disabled":true,"rental_uris":{"android":"levelo://app?vid=43ef1878-08c8-43ce-8a84-e0d20cc2548c","ios":"levelo://app?vid=43ef1878-08c8-43ce-8a84-e0d20cc2548c"},"vehicle_type_id":"4","last_reported":1732464641,"current_range_meters":0,"station_id":"ce4bhm92rcd13ifvqglg","pricing_plan_id":"cebpf4jnsgd1na2vs0mg"},{"bike_id":"47e7951f-9bba-42b2-be48-684ea462686e","system_id":"levelo_inurba_marseille","lat":43.30358,"lon":5.41888,"is_reserved":false,"is_disabled":false,"rental_uris":{"android":"levelo://app?vid=47e7951f-9bba-42b2-be48-684ea462686e","ios":"levelo://app?vid=47e7951f-9bba-42b2-be48-684ea462686e"},"vehicle_type_id":"4","last_reported":1732464641,"current_range_meters":38800,"station_id":"ce4bhop2rcd13ifvqh7g","pricing_plan_id":"cebpf4jnsgd1na2vs0mg"},{"bike_id":"56ca6b93-ca3d-4dfc-8e20-e35c24d8bd07","system_id":"levelo_inurba_marseille","lat":43.337444,"lon":5.374475,"is_reserved":false,"is_disabled":true,"rental_uris":{"android":"levelo://app?vid=56ca6b93-ca3d-4dfc-8e20-e35c24d8bd07","ios":"levelo://app?vid=56ca6b93-ca3d-4dfc-8e20-e35c24d8bd07"},"vehicle_type_id":"4","last_reported":1732464641,"current_range_meters":0,"station_id":"","pricing_plan_id":"cebpf4jnsgd1na2vs0mg"},{"bike_id":"fc4e3e2e-faf4-4cbc-8fd8-119b18821073","system_id":"levelo_inurba_marseille","lat":43.25575,"lon":5.38237,"is_reserved":false,"is_disabled":true,"rental_uris":{"android":"levelo://app?vid=fc4e3e2e-faf4-4cbc-8fd8-119b18821073","ios":"levelo://app?vid=fc4e3e2e-faf4-4cbc-8fd8-119b18821073"},"vehicle_type_id":"4","last_reported":1732464641,"current_range_meters":10000,"station_id":"ce4bhih2rcd13ifvqfs0","pricing_plan_id":"cebpf4jnsgd1na2vs0mg"},{"bike_id":"89b60ab2-d6a6-4acf-aafc-578126cf416a","system_id":"levelo_inurba_marseille","lat":43.28276,"lon":5.35075,"is_reserved":false,"is_disabled":true,"rental_uris":{"android":"levelo://app?vid=89b60ab2-d6a6-4acf-aafc-578126cf416a","ios":"levelo://app?vid=89b60ab2-d6a6-4acf-aafc-578126cf416a"},"vehicle_type_id":"4","last_reported":1732464641,"current_range_meters":29600,"station_id":"ce4bhbp2rcd13ifvqerg","pricing_plan_id":"cebpf4jnsgd1na2vs0mg"},{"bike_id":"46ac22a8-6f10-4221-98a6-34eba5c97bfb","system_id":"levelo_inurba_marseille","lat":43.292035,"lon":5.37314,"is_reserved":false,"is_disabled":true,"rental_uris":{"android":"levelo://app?vid=46ac22a8-6f10-4221-98a6-34eba5c97bfb","ios":"levelo://app?vid=46ac22a8-6f10-4221-98a6-34eba5c97bfb"},"vehicle_type_id":"4","last_reported":1732464641,"current_range_meters":0,"station_id":"","pricing_plan_id":"cebpf4jnsgd1na2vs0mg"},{"bike_id":"5846e7ee-045c-466d-b02c-9cd3eadc9db6","system_id":"levelo_inurba_marseille","lat":43.29197,"lon":5.35811,"is_reserved":false,"is_disabled":true,"rental_uris":{"android":"levelo://app?vid=5846e7ee-045c-466d-b02c-9cd3eadc9db6","ios":"levelo://app?vid=5846e7ee-045c-466d-b02c-9cd3eadc9db6"},"vehicle_type_id":"4","last_reported":1732464641,"current_range_meters":38800,"station_id":"ce4bhb12rcd13ifvqel0","pricing_plan_id":"cebpf4jnsgd1na2vs0mg"},{"bike_id":"7a0c860b-0349-4a63-a021-6151708c3e9e","system_id":"levelo_inurba_marseille","lat":43.25506,"lon":5.37649,"is_reserved":false,"is_disabled":false,"rental_uris":{"android":"levelo://app?vid=7a0c860b-0349-4a63-a021-6151708c3e9e","ios":"levelo://app?vid=7a0c860b-0349-4a63-a021-6151708c3e9e"},"vehicle_type_id":"4","last_reported":1732464641,"current_range_meters":6000,"station_id":"ce4bhh12rcd13ifvqff0","pricing_plan_id":"cebpf4jnsgd1na2vs0mg"},{"bike_id":"960c3bee-5c23-42f9-8de0-e03a981c67d9","system_id":"levelo_inurba_marseille","lat":43.27222,"lon":5.36262,"is_reserved":false,"is_disabled":false,"rental_uris":{"android":"levelo://app?vid=960c3bee-5c23-42f9-8de0-e03a981c67d9","ios":"levelo://app?vid=960c3bee-5c23-42f9-8de0-e03a981c67d9"},"vehicle_type_id":"4","last_reported":1732464641,"current_range_meters":36800,"station_id":"ce4bhbh2rcd13ifvqeo0","pricing_plan_id":"cebpf4jnsgd1na2vs0mg"},{"bike_id":"43746d86-8a13-4845-9faf-ae69b548d714","system_id":"levelo_inurba_marseille","lat":43.294507,"lon":5.379274,"is_reserved":false,"is_disabled":true,"rental_uris":{"android":"levelo://app?vid=43746d86-8a13-4845-9faf-ae69b548d714","ios":"levelo://app?vid=43746d86-8a13-4845-9faf-ae69b548d714"},"vehicle_type_id":"4","last_reported":1732464641,"current_range_meters":0,"station_id":"","pricing_plan_id":"cebpf4jnsgd1na2vs0mg"},{"bike_id":"7317920e-5975-4c67-a891-63736e89f140","system_id":"levelo_inurba_marseille","lat":43.29172,"lon":5.3567,"is_reserved":false,"is_disabled":false,"rental_uris":{"android":"levelo://app?vid=7317920e-5975-4c67-a891-63736e89f140","ios":"levelo://app?vid=7317920e-5975-4c67-a891-63736e89f140"},"vehicle_type_id":"4","last_reported":1732464641,"current_range_meters":27200,"station_id":"","pricing_plan_id":"cebpf4jnsgd1na2vs0mg"},{"bike_id":"da97777b-139b-41a7-ae38-6470b35c7fac","system_id":"levelo_inurba_marseille","lat":43.295596,"lon":5.366164,"is_reserved":false,"is_disabled":true,"rental_uris":{"android":"levelo://app?vid=da97777b-139b-41a7-ae38-6470b35c7fac","ios":"levelo://app?vid=da97777b-139b-41a7-ae38-6470b35c7fac"},"vehicle_type_id":"4","last_reported":1732464641,"current_range_meters":1200,"station_id":"ce4bgpp2rcd13ifvqc3g","pricing_plan_id":"cebpf4jnsgd1na2vs0mg"},{"bike_id":"a2b09865-004d-45eb-b301-cf3640220a72","system_id":"levelo_inurba_marseille","lat":43.29603,"lon":5.38112,"is_reserved":false,"is_disabled":true,"rental_uris":{"android":"levelo://app?vid=a2b09865-004d-45eb-b301-cf3640220a72","ios":"levelo://app?vid=a2b09865-004d-45eb-b301-cf3640220a72"},"vehicle_type_id":"4","last_reported":1732464641,"current_range_meters":0,"station_id":"ce4bgl12rcd13ifvqbo0","pricing_plan_id":"cebpf4jnsgd1na2vs0mg"},{"bike_id":"57433900-a253-4ab2-b976-9ec2dbacc71d","system_id":"levelo_inurba_marseille","lat":43.31226,"lon":5.36836,"is_reserved":false,"is_disabled":false,"rental_uris":{"android":"levelo://app?vid=57433900-a253-4ab2-b976-9ec2dbacc71d","ios":"levelo://app?vid=57433900-a253-4ab2-b976-9ec2dbacc71d"},"vehicle_type_id":"4","last_reported":1732464641,"current_range_meters":14400,"station_id":"ce4bgl92rcd13ifvqbq0","pricing_plan_id":"cebpf4jnsgd1na2vs0mg"},{"bike_id":"f7f29097-34a0-4fd3-9ee7-8abdc6d41ad7","system_id":"levelo_inurba_marseille","lat":43.27199,"lon":5.39187,"is_reserved":false,"is_disabled":true,"rental_uris":{"android":"levelo://app?vid=f7f29097-34a0-4fd3-9ee7-8abdc6d41ad7","ios":"levelo://app?vid=f7f29097-34a0-4fd3-9ee7-8abdc6d41ad7"},"vehicle_type_id":"4","last_reported":1732464641,"current_range_meters":0,"station_id":"ce4bhhp2rcd13ifvqfm0","pricing_plan_id":"cebpf4jnsgd1na2vs0mg"},{"bike_id":"874b4f08-ca73-4d98-bdba-29bdad707bca","system_id":"levelo_inurba_marseille","lat":43.29272,"lon":5.36842,"is_reserved":false,"is_disabled":false,"rental_uris":{"android":"levelo://app?vid=874b4f08-ca73-4d98-bdba-29bdad707bca","ios":"levelo://app?vid=874b4f08-ca73-4d98-bdba-29bdad707bca"},"vehicle_type_id":"4","last_reported":1732464641,"current_range_meters":38800,"station_id":"ce4bhbp2rcd13ifvqesg","pricing_plan_id":"cebpf4jnsgd1na2vs0mg"},{"bike_id":"9cb43568-450b-4ba6-99ff-f584fa374332","system_id":"levelo_inurba_marseille","lat":43.25495,"lon":5.37649,"is_reserved":false,"is_disabled":false,"rental_uris":{"android":"levelo://app?vid=9cb43568-450b-4ba6-99ff-f584fa374332","ios":"levelo://app?vid=9cb43568-450b-4ba6-99ff-f584fa374332"},"vehicle_type_id":"4","last_reported":1732464641,"current_range_meters":38800,"station_id":"ce4bhh12rcd13ifvqff0","pricing_plan_id":"cebpf4jnsgd1na2vs0mg"},{"bike_id":"8fec413f-6e54-4bc7-85ca-2a709e6eb0ad","system_id":"levelo_inurba_marseille","lat":43.3361,"lon":5.41027,"is_reserved":false,"is_disabled":false,"rental_uris":{"android":"levelo://app?vid=8fec413f-6e54-4bc7-85ca-2a709e6eb0ad","ios":"levelo://app?vid=8fec413f-6e54-4bc7-85ca-2a709e6eb0ad"},"vehicle_type_id":"4","last_reported":1732464641,"current_range_meters":38800,"station_id":"ce4bhqh2rcd13ifvqhmg","pricing_plan_id":"cebpf4jnsgd1na2vs0mg"},{"bike_id":"6d31f772-bcf0-47fe-8b98-fad5c1a27925","system_id":"levelo_inurba_marseille","lat":43.24075,"lon":5.37762,"is_reserved":false,"is_disabled":false,"rental_uris":{"android":"levelo://app?vid=6d31f772-bcf0-47fe-8b98-fad5c1a27925","ios":"levelo://app?vid=6d31f772-bcf0-47fe-8b98-fad5c1a27925"},"vehicle_type_id":"4","last_reported":1732464641,"current_range_meters":38000,"station_id":"ce4bhnp2rcd13ifvqgvg","pricing_plan_id":"cebpf4jnsgd1na2vs0mg"},{"bike_id":"0ccdc1f1-7007-402c-a0cb-4e17dcfddba2","system_id":"levelo_inurba_marseille","lat":43.25496,"lon":5.37647,"is_reserved":false,"is_disabled":false,"rental_uris":{"android":"levelo://app?vid=0ccdc1f1-7007-402c-a0cb-4e17dcfddba2","ios":"levelo://app?vid=0ccdc1f1-7007-402c-a0cb-4e17dcfddba2"},"vehicle_type_id":"4","last_reported":1732464641,"current_range_meters":32800,"station_id":"ce4bhh12rcd13ifvqff0","pricing_plan_id":"cebpf4jnsgd1na2vs0mg"},{"bike_id":"0280a01a-6d00-4639-9251-0ee9ee63735a","system_id":"levelo_inurba_marseille","lat":43.2927,"lon":5.36838,"is_reserved":false,"is_disabled":true,"rental_uris":{"android":"levelo://app?vid=0280a01a-6d00-4639-9251-0ee9ee63735a","ios":"levelo://app?vid=0280a01a-6d00-4639-9251-0ee9ee63735a"},"vehicle_type_id":"4","last_reported":1732464641,"current_range_meters":30800,"station_id":"ce4bhbp2rcd13ifvqesg","pricing_plan_id":"cebpf4jnsgd1na2vs0mg"},{"bike_id":"40838fbd-175e-4307-947d-b85409f45c17","system_id":"levelo_inurba_marseille","lat":43.23196,"lon":5.3555,"is_reserved":false,"is_disabled":false,"rental_uris":{"android":"levelo://app?vid=40838fbd-175e-4307-947d-b85409f45c17","ios":"levelo://app?vid=40838fbd-175e-4307-947d-b85409f45c17"},"vehicle_type_id":"4","last_reported":1732464641,"current_range_meters":36000,"station_id":"ce4bhu92rcd13ifvqi70","pricing_plan_id":"cebpf4jnsgd1na2vs0mg"},{"bike_id":"7f723b0b-cbe8-4f68-b8fe-2ce3d5e983bd","system_id":"levelo_inurba_marseille","lat":43.32106,"lon":5.36766,"is_reserved":false,"is_disabled":true,"rental_uris":{"android":"levelo://app?vid=7f723b0b-cbe8-4f68-b8fe-2ce3d5e983bd","ios":"levelo://app?vid=7f723b0b-cbe8-4f68-b8fe-2ce3d5e983bd"},"vehicle_type_id":"4","last_reported":1732464641,"current_range_meters":28400,"station_id":"","pricing_plan_id":"cebpf4jnsgd1na2vs0mg"},{"bike_id":"bed49796-95e2-4d08-afe1-e394afb6f61a","system_id":"levelo_inurba_marseille","lat":43.30238,"lon":5.40064,"is_reserved":false,"is_disabled":true,"rental_uris":{"android":"levelo://app?vid=bed49796-95e2-4d08-afe1-e394afb6f61a","ios":"levelo://app?vid=bed49796-95e2-4d08-afe1-e394afb6f61a"},"vehicle_type_id":"4","last_reported":1732464641,"current_range_meters":0,"station_id":"ce4bgvh2rcd13ifvqcs0","pricing_plan_id":"cebpf4jnsgd1na2vs0mg"},{"bike_id":"7e9061cd-5627-407a-8c6f-fcf878e75a40","system_id":"levelo_inurba_marseille","lat":43.27962,"lon":5.41054,"is_reserved":false,"is_disabled":true,"rental_uris":{"android":"levelo://app?vid=7e9061cd-5627-407a-8c6f-fcf878e75a40","ios":"levelo://app?vid=7e9061cd-5627-407a-8c6f-fcf878e75a40"},"vehicle_type_id":"4","last_reported":1732464641,"current_range_meters":10000,"station_id":"ce4bhnp2rcd13ifvqh0g","pricing_plan_id":"cebpf4jnsgd1na2vs0mg"},{"bike_id":"0aa2ee5b-29e3-4db8-9ffd-eb5f7b56cdbc","system_id":"levelo_inurba_marseille","lat":43.27413,"lon":5.39412,"is_reserved":false,"is_disabled":true,"rental_uris":{"android":"levelo://app?vid=0aa2ee5b-29e3-4db8-9ffd-eb5f7b56cdbc","ios":"levelo://app?vid=0aa2ee5b-29e3-4db8-9ffd-eb5f7b56cdbc"},"vehicle_type_id":"4","last_reported":1732464641,"current_range_meters":28000,"station_id":"ce4bhdp2rcd13ifvqf20","pricing_plan_id":"cebpf4jnsgd1na2vs0mg"},{"bike_id":"3ba60ecf-4a3e-4815-915f-8112821d3142","system_id":"levelo_inurba_marseille","lat":43.25574,"lon":5.38234,"is_reserved":false,"is_disabled":false,"rental_uris":{"android":"levelo://app?vid=3ba60ecf-4a3e-4815-915f-8112821d3142","ios":"levelo://app?vid=3ba60ecf-4a3e-4815-915f-8112821d3142"},"vehicle_type_id":"4","last_reported":1732464641,"current_range_meters":19200,"station_id":"ce4bhih2rcd13ifvqfs0","pricing_plan_id":"cebpf4jnsgd1na2vs0mg"},{"bike_id":"cea7b5a0-1083-4f02-9090-3e7d56a4f168","system_id":"levelo_inurba_marseille","lat":43.23187,"lon":5.39991,"is_reserved":false,"is_disabled":false,"rental_uris":{"android":"levelo://app?vid=cea7b5a0-1083-4f02-9090-3e7d56a4f168","ios":"levelo://app?vid=cea7b5a0-1083-4f02-9090-3e7d56a4f168"},"vehicle_type_id":"4","last_reported":1732464641,"current_range_meters":23200,"station_id":"ce4bhn12rcd13ifvqgqg","pricing_plan_id":"cebpf4jnsgd1na2vs0mg"},{"bike_id":"7d324c9d-10cc-4066-bbce-919dfe6be58d","system_id":"levelo_inurba_marseille","lat":43.25107,"lon":5.40324,"is_reserved":false,"is_disabled":false,"rental_uris":{"android":"levelo://app?vid=7d324c9d-10cc-4066-bbce-919dfe6be58d","ios":"levelo://app?vid=7d324c9d-10cc-4066-bbce-919dfe6be58d"},"vehicle_type_id":"4","last_reported":1732464641,"current_range_meters":31200,"station_id":"ce4bhlh2rcd13ifvqgig","pricing_plan_id":"cebpf4jnsgd1na2vs0mg"},{"bike_id":"7934f62a-ebe3-41d6-9f28-65d83dcdfa38","system_id":"levelo_inurba_marseille","lat":43.2872,"lon":5.37939,"is_reserved":false,"is_disabled":true,"rental_uris":{"android":"levelo://app?vid=7934f62a-ebe3-41d6-9f28-65d83dcdfa38","ios":"levelo://app?vid=7934f62a-ebe3-41d6-9f28-65d83dcdfa38"},"vehicle_type_id":"4","last_reported":1732464641,"current_range_meters":1600,"station_id":"ce4bh9p2rcd13ifvqec0","pricing_plan_id":"cebpf4jnsgd1na2vs0mg"},{"bike_id":"0d5f334b-7ea6-4270-a2a5-e4a69ff54076","system_id":"levelo_inurba_marseille","lat":43.26943,"lon":5.4025,"is_reserved":false,"is_disabled":false,"rental_uris":{"android":"levelo://app?vid=0d5f334b-7ea6-4270-a2a5-e4a69ff54076","ios":"levelo://app?vid=0d5f334b-7ea6-4270-a2a5-e4a69ff54076"},"vehicle_type_id":"4","last_reported":1732464641,"current_range_meters":30400,"station_id":"cjm6bp8fraef2m0cb0m0","pricing_plan_id":"cebpf4jnsgd1na2vs0mg"},{"bike_id":"8d4c53a9-af61-4ebe-92a9-eade5c193740","system_id":"levelo_inurba_marseille","lat":43.28576,"lon":5.39495,"is_reserved":false,"is_disabled":false,"rental_uris":{"android":"levelo://app?vid=8d4c53a9-af61-4ebe-92a9-eade5c193740","ios":"levelo://app?vid=8d4c53a9-af61-4ebe-92a9-eade5c193740"},"vehicle_type_id":"4","last_reported":1732464641,"current_range_meters":36400,"station_id":"ce4bh292rcd13ifvqdg0","pricing_plan_id":"cebpf4jnsgd1na2vs0mg"},{"bike_id":"0b5f7b4e-e065-44c9-9b8b-2118dda16eca","system_id":"levelo_inurba_marseille","lat":43.24826,"lon":5.37462,"is_reserved":false,"is_disabled":true,"rental_uris":{"android":"levelo://app?vid=0b5f7b4e-e065-44c9-9b8b-2118dda16eca","ios":"levelo://app?vid=0b5f7b4e-e065-44c9-9b8b-2118dda16eca"},"vehicle_type_id":"4","last_reported":1732464641,"current_range_meters":36400,"station_id":"ce4bhgh2rcd13ifvqfb0","pricing_plan_id":"cebpf4jnsgd1na2vs0mg"},{"bike_id":"12a19c10-f897-4c0e-9448-fec8aac092ce","system_id":"levelo_inurba_marseille","lat":43.25826,"lon":5.39432,"is_reserved":false,"is_disabled":true,"rental_uris":{"android":"levelo://app?vid=12a19c10-f897-4c0e-9448-fec8aac092ce","ios":"levelo://app?vid=12a19c10-f897-4c0e-9448-fec8aac092ce"},"vehicle_type_id":"4","last_reported":1732464641,"current_range_meters":38800,"station_id":"ce4bhip2rcd13ifvqft0","pricing_plan_id":"cebpf4jnsgd1na2vs0mg"},{"bike_id":"8d450723-f86a-440f-9581-3922c7acfb0a","system_id":"levelo_inurba_marseille","lat":43.28467,"lon":5.38544,"is_reserved":false,"is_disabled":true,"rental_uris":{"android":"levelo://app?vid=8d450723-f86a-440f-9581-3922c7acfb0a","ios":"levelo://app?vid=8d450723-f86a-440f-9581-3922c7acfb0a"},"vehicle_type_id":"4","last_reported":1732464641,"current_range_meters":38400,"station_id":"ce4bh8p2rcd13ifvqeb0","pricing_plan_id":"cebpf4jnsgd1na2vs0mg"},{"bike_id":"03336f80-457e-4e38-9588-c85df3625053","system_id":"levelo_inurba_marseille","lat":43.30546,"lon":5.36703,"is_reserved":false,"is_disabled":false,"rental_uris":{"android":"levelo://app?vid=03336f80-457e-4e38-9588-c85df3625053","ios":"levelo://app?vid=03336f80-457e-4e38-9588-c85df3625053"},"vehicle_type_id":"4","last_reported":1732464641,"current_range_meters":9600,"station_id":"ce4bgrp2rcd13ifvqc9g","pricing_plan_id":"cebpf4jnsgd1na2vs0mg"},{"bike_id":"4b8f546a-3ffe-4bac-9449-defd806fc9e2","system_id":"levelo_inurba_marseille","lat":43.25087,"lon":5.39525,"is_reserved":false,"is_disabled":false,"rental_uris":{"android":"levelo://app?vid=4b8f546a-3ffe-4bac-9449-defd806fc9e2","ios":"levelo://app?vid=4b8f546a-3ffe-4bac-9449-defd806fc9e2"},"vehicle_type_id":"4","last_reported":1732464641,"current_range_meters":8000,"station_id":"ce4bhm12rcd13ifvqgkg","pricing_plan_id":"cebpf4jnsgd1na2vs0mg"},{"bike_id":"11114a6a-839a-4b5e-aad1-8a728436b76d","system_id":"levelo_inurba_marseille","lat":43.32047,"lon":5.41549,"is_reserved":false,"is_disabled":false,"rental_uris":{"android":"levelo://app?vid=11114a6a-839a-4b5e-aad1-8a728436b76d","ios":"levelo://app?vid=11114a6a-839a-4b5e-aad1-8a728436b76d"},"vehicle_type_id":"4","last_reported":1732464641,"current_range_meters":37600,"station_id":"ce4bhq92rcd13ifvqhkg","pricing_plan_id":"cebpf4jnsgd1na2vs0mg"},{"bike_id":"0051c665-3fb6-4497-97c5-e63a311662da","system_id":"levelo_inurba_marseille","lat":43.26066,"lon":5.39396,"is_reserved":false,"is_disabled":true,"rental_uris":{"android":"levelo://app?vid=0051c665-3fb6-4497-97c5-e63a311662da","ios":"levelo://app?vid=0051c665-3fb6-4497-97c5-e63a311662da"},"vehicle_type_id":"4","last_reported":1732464641,"current_range_meters":36400,"station_id":"ce4bhh92rcd13ifvqfj0","pricing_plan_id":"cebpf4jnsgd1na2vs0mg"},{"bike_id":"031d938e-5d7d-42d8-aada-49aba0d51c48","system_id":"levelo_inurba_marseille","lat":43.31995,"lon":5.38143,"is_reserved":false,"is_disabled":false,"rental_uris":{"android":"levelo://app?vid=031d938e-5d7d-42d8-aada-49aba0d51c48","ios":"levelo://app?vid=031d938e-5d7d-42d8-aada-49aba0d51c48"},"vehicle_type_id":"4","last_reported":1732464641,"current_range_meters":20400,"station_id":"ce4bhr12rcd13ifvqhpg","pricing_plan_id":"cebpf4jnsgd1na2vs0mg"},{"bike_id":"7e04bb67-c24d-44da-93e9-2e0567bf10fa","system_id":"levelo_inurba_marseille","lat":43.23152,"lon":5.43713,"is_reserved":false,"is_disabled":true,"rental_uris":{"android":"levelo://app?vid=7e04bb67-c24d-44da-93e9-2e0567bf10fa","ios":"levelo://app?vid=7e04bb67-c24d-44da-93e9-2e0567bf10fa"},"vehicle_type_id":"4","last_reported":1732464641,"current_range_meters":0,"station_id":"ce4bhmp2rcd13ifvqgog","pricing_plan_id":"cebpf4jnsgd1na2vs0mg"},{"bike_id":"ce072f01-8bd8-4a64-b5c2-9b5ab3a47c13","system_id":"levelo_inurba_marseille","lat":43.27559,"lon":5.38418,"is_reserved":false,"is_disabled":false,"rental_uris":{"android":"levelo://app?vid=ce072f01-8bd8-4a64-b5c2-9b5ab3a47c13","ios":"levelo://app?vid=ce072f01-8bd8-4a64-b5c2-9b5ab3a47c13"},"vehicle_type_id":"4","last_reported":1732464641,"current_range_meters":38400,"station_id":"ce4bhh92rcd13ifvqfi0","pricing_plan_id":"cebpf4jnsgd1na2vs0mg"},{"bike_id":"43544c3a-59ce-49a7-9e89-feca061b7b74","system_id":"levelo_inurba_marseille","lat":43.30092,"lon":5.39106,"is_reserved":false,"is_disabled":false,"rental_uris":{"android":"levelo://app?vid=43544c3a-59ce-49a7-9e89-feca061b7b74","ios":"levelo://app?vid=43544c3a-59ce-49a7-9e89-feca061b7b74"},"vehicle_type_id":"4","last_reported":1732464641,"current_range_meters":19600,"station_id":"ce4bh192rcd13ifvqdb0","pricing_plan_id":"cebpf4jnsgd1na2vs0mg"},{"bike_id":"5c444ffa-3db6-4f1b-993f-8949c4ddb2c7","system_id":"levelo_inurba_marseille","lat":43.26562,"lon":5.39005,"is_reserved":false,"is_disabled":true,"rental_uris":{"android":"levelo://app?vid=5c444ffa-3db6-4f1b-993f-8949c4ddb2c7","ios":"levelo://app?vid=5c444ffa-3db6-4f1b-993f-8949c4ddb2c7"},"vehicle_type_id":"4","last_reported":1732464641,"current_range_meters":26800,"station_id":"ce4bhe12rcd13ifvqf30","pricing_plan_id":"cebpf4jnsgd1na2vs0mg"},{"bike_id":"0b22d0a9-85aa-4774-a7ed-6445574407b8","system_id":"levelo_inurba_marseille","lat":43.28742,"lon":5.43421,"is_reserved":false,"is_disabled":true,"rental_uris":{"android":"levelo://app?vid=0b22d0a9-85aa-4774-a7ed-6445574407b8","ios":"levelo://app?vid=0b22d0a9-85aa-4774-a7ed-6445574407b8"},"vehicle_type_id":"4","last_reported":1732464641,"current_range_meters":0,"station_id":"","pricing_plan_id":"cebpf4jnsgd1na2vs0mg"},{"bike_id":"636a2ddd-e086-4ee9-9733-8dfb00863c38","system_id":"levelo_inurba_marseille","lat":43.28988,"lon":5.3784,"is_reserved":false,"is_disabled":true,"rental_uris":{"android":"levelo://app?vid=636a2ddd-e086-4ee9-9733-8dfb00863c38","ios":"levelo://app?vid=636a2ddd-e086-4ee9-9733-8dfb00863c38"},"vehicle_type_id":"4","last_reported":1732464641,"current_range_meters":1600,"station_id":"ce4bh9p2rcd13ifvqed0","pricing_plan_id":"cebpf4jnsgd1na2vs0mg"},{"bike_id":"a754cffe-2ca2-4d83-9346-57e9884ff121","system_id":"levelo_inurba_marseille","lat":43.23061,"lon":5.35493,"is_reserved":false,"is_disabled":false,"rental_uris":{"android":"levelo://app?vid=a754cffe-2ca2-4d83-9346-57e9884ff121","ios":"levelo://app?vid=a754cffe-2ca2-4d83-9346-57e9884ff121"},"vehicle_type_id":"4","last_reported":1732464641,"current_range_meters":6000,"station_id":"cpo3342slgdg3j2ifvpg","pricing_plan_id":"cebpf4jnsgd1na2vs0mg"},