{"last_updated":1716239200,"ttl":30,"version":"2.2","data":{"bikes":[{"bike_id":"c95c7c57-9631-4fb9-a0bd-e0d4de09593e","system_id":"levelo_inurba_marseille","lat":43.313391,"lon":5.36706,"is_reserved":false,"is_disabled":false,"rental_uris":{"android":"levelo://app?vid=c95c7c57-9631-4fb9-a0bd-e0d4de09593e","ios":"levelo://app?vid=c95c7c57-9631-4fb9-a0bd-e0d4de09593e"},"vehicle_type_id":"4","last_reported":1716239200,"current_range_meters":20800,"station_id":"ce4bgr92rcd13ifvqc6g","pricing_plan_id":"cebpf4jnsgd1na2vs0mg"},{"bike_id":"1b9b0074-aff1-4c76-a0db-3d2b4e95dc13","system_id":"levelo_inurba_marseille","lat":43.31219,"lon":5.36847,"is_reserved":false,"is_disabled":false,"rental_uris":{"android":"levelo://app?vid=1b9b0074-aff1-4c76-a0db-3d2b4e95dc13","ios":"levelo://app?vid=1b9b0074-aff1-4c76-a0db-3d2b4e95dc13"},"vehicle_type_id":"4","last_reported":1716239200,"current_range_meters":2800,"station_id":"ce4bgl92rcd13ifvqbq0","pricing_plan_id":"cebpf4jnsgd1na2vs0mg"},{"bike_id":"5cc450e5-2ef1-4d45-b074-c29844a15f3c","system_id":"levelo_inurba_marseille","lat":43.312239,"lon":5.368562,"is_reserved":false,"is_disabled":false,"rental_uris":{"android":"levelo://app?vid=5cc450e5-2ef1-4d45-b074-c29844a15f3c","ios":"levelo://app?vid=5cc450e5-2ef1-4d45-b074-c29844a15f3c"},"vehicle_type_id":"4","last_reported":1716239200,"current_range_meters":9600,"station_id":"ce4bgl92rcd13ifvqbq0","pricing_plan_id":"cebpf4jnsgd1na2vs0mg"},{"bike_id":"a27cda88-c78f-4cda-97dd-a34539eee823","system_id":"levelo_inurba_marseille","lat":43.312239,"lon":5.368562,"is_reserved":false,"is_disabled":false,"rental_uris":{"android":"levelo://app?vid=a27cda88-c78f-4cda-97dd-a34539eee823","ios":"levelo://app?vid=a27cda88-c78f-4cda-97dd-a34539eee823"},"vehicle_type_id":"4","last_reported":1716239200,"current_range_meters":18400,"station_id":"ce4bgl92rcd13ifvqbq0","pricing_plan_id":"cebpf4jnsgd1na2vs0mg"},{"bike_id":"daa61f29-b38e-498f-a9aa-0fdedae27b7b","system_id":"levelo_inurba_marseille","lat":43.312239,"lon":5.368562,"is_reserved":false,"is_disabled":false,"rental_uris":{"android":"levelo://app?vid=daa61f29-b38e-498f-a9aa-0fdedae27b7b","ios":"levelo://app?vid=daa61f29-b38e-498f-a9aa-0fdedae27b7b"},"vehicle_type_id":"4","last_reported":1716239200,"current_range_meters":16000,"station_id":"ce4bgl92rcd13ifvqbq0","pricing_plan_id":"cebpf4jnsgd1na2vs0mg"},{"bike_id":"36c79c2b-efc2-442c-8223-e63d004a54ba","system_id":"levelo_inurba_marseille","lat":43.312239,"lon":5.368562,"is_reserved":false,"is_disabled":false,"rental_uris":{"android":"levelo://app?vid=36c79c2b-efc2-442c-8223-e63d004a54ba","ios":"levelo://app?vid=36c79c2b-efc2-442c-8223-e63d004a54ba"},"vehicle_type_id":"4","last_reported":1716239200,"current_range_meters":4400,"station_id":"ce4bgl92rcd13ifvqbq0","pricing_plan_id":"cebpf4jnsgd1na2vs0mg"},{"bike_id":"a038e371-1564-4690-9fca-7fab107858d8","system_id":"levelo_inurba_marseille","lat":43.312239,"lon":5.368562,"is_reserved":false,"is_disabled":false,"rental_uris":{"android":"levelo://app?vid=a038e371-1564-4690-9fca-7fab107858d8","ios":"levelo://app?vid=a038e371-1564-4690-9fca-7fab107858d8"},"vehicle_type_id":"4","last_reported":1716239200,"current_range_meters":0,"station_id":"ce4bgl92rcd13ifvqbq0","pricing_plan_id":"cebpf4jnsgd1na2vs0mg"},{"bike_id":"7c49968b-5660-4c22-bbf3-4c1f8be62d30","system_id":"levelo_inurba_marseille","lat":43.312239,"lon":5.368562,"is_reserved":false,"is_disabled":false,"rental_uris":{"android":"levelo://app?vid=7c49968b-5660-4c22-bbf3-4c1f8be62d30","ios":"levelo://app?vid=7c49968b-5660-4c22-bbf3-4c1f8be62d30"},"vehicle_type_id":"4","last_reported":1716239200,"current_range_meters":6000,"station_id":"ce4bgl92rcd13ifvqbq0","pricing_plan_id":"cebpf4jnsgd1na2vs0mg"},{"bike_id":"a392a47f-9744-48bb-99f3-7a26df099201","system_id":"levelo_inurba_marseille","lat":43.31213,"lon":5.36868,"is_reserved":false,"is_disabled":false,"rental_uris":{"android":"levelo://app?vid=a392a47f-9744-48bb-99f3-7a26df099201","ios":"levelo://app?vid=a392a47f-9744-48bb-99f3-7a26df099201"},"vehicle_type_id":"4","last_reported":1716239200,"current_range_meters":9200,"station_id":"ce4bgl92rcd13ifvqbq0","pricing_plan_id":"cebpf4jnsgd1na2vs0mg"},{"bike_id":"ab3d66a1-12f6-4ea7-952f-6cad01a2fc6e","system_id":"levelo_inurba_marseille","lat":43.309076,"lon":5.368465,"is_reserved":false,"is_disabled":false,"rental_uris":{"android":"levelo://app?vid=ab3d66a1-12f6-4ea7-952f-6cad01a2fc6e","ios":"levelo://app?vid=ab3d66a1-12f6-4ea7-952f-6cad01a2fc6e"},"vehicle_type_id":"4","last_reported":1716239200,"current_range_meters":13600,"station_id":"ce4bgn92rcd13ifvqbvg","pricing_plan_id":"cebpf4jnsgd1na2vs0mg"},{"bike_id":"bbb5e49b-695c-4045-a3e1-026cdbd70d2f","system_id":"levelo_inurba_marseille","lat":43.309076,"lon":5.368465,"is_reserved":false,"is_disabled":false,"rental_uris":{"android":"levelo://app?vid=bbb5e49b-695c-4045-a3e1-026cdbd70d2f","ios":"levelo://app?vid=bbb5e49b-695c-4045-a3e1-026cdbd70d2f"},"vehicle_type_id":"4","last_reported":1716239200,"current_range_meters":14000,"station_id":"ce4bgn92rcd13ifvqbvg","pricing_plan_id":"cebpf4jnsgd1na2vs0mg"},{"bike_id":"d708bf73-474b-4e0f-8818-399d8592c219","system_id":"levelo_inurba_marseille","lat":43.309379,"lon":5.370883,"is_reserved":false,"is_disabled":false,"rental_uris":{"android":"levelo://app?vid=d708bf73-474b-4e0f-8818-399d8592c219","ios":"levelo://app?vid=d708bf73-474b-4e0f-8818-399d8592c219"},"vehicle_type_id":"4","last_reported":1716239200,"current_range_meters":4400,"station_id":"","pricing_plan_id":"cebpf4jnsgd1na2vs0mg"},{"bike_id":"e31076fa-f5bd-4c8b-97ae-db6d5da17c43","system_id":"levelo_inurba_marseille","lat":43.314811,"lon":5.373103,"is_reserved":false,"is_disabled":false,"rental_uris":{"android":"levelo://app?vid=e31076fa-f5bd-4c8b-97ae-db6d5da17c43","ios":"levelo://app?vid=e31076fa-f5bd-4c8b-97ae-db6d5da17c43"},"vehicle_type_id":"4","last_reported":1716239200,"current_range_meters":6800,"station_id":"ce4bgt12rcd13ifvqcd0","pricing_plan_id":"cebpf4jnsgd1na2vs0mg"},{"bike_id":"f63271e8-0c25-464a-85b9-51f8e59df3ff","system_id":"levelo_inurba_marseille","lat":43.314811,"lon":5.373103,"is_reserved":false,"is_disabled":false,"rental_uris":{"android":"levelo://app?vid=f63271e8-0c25-464a-85b9-51f8e59df3ff","ios":"levelo://app?vid=f63271e8-0c25-464a-85b9-51f8e59df3ff"},"vehicle_type_id":"4","last_reported":1716239200,"current_range_meters":2000,"station_id":"ce4bgt12rcd13ifvqcd0","pricing_plan_id":"cebpf4jnsgd1na2vs0mg"},{"bike_id":"5f174f4a-f9c5-40e8-9027-cb2e27b1a6ef","system_id":"levelo_inurba_marseille","lat":43.314811,"lon":5.373104,"is_reserved":false,"is_disabled":false,"rental_uris":{"android":"levelo://app?vid=5f174f4a-f9c5-40e8-9027-cb2e27b1a6ef","ios":"levelo://app?vid=5f174f4a-f9c5-40e8-9027-cb2e27b1a6ef"},"vehicle_type_id":"4","last_reported":1716239200,"current_range_meters":4400,"station_id":"ce4bgt12rcd13ifvqcd0","pricing_plan_id":"cebpf4jnsgd1na2vs0mg"},{"bike_id":"756bbb46-d973-437b-9963-e81399b59e62","system_id":"levelo_inurba_marseille","lat":43.314811,"lon":5.373104,"is_reserved":false,"is_disabled":false,"rental_uris":{"android":"levelo://app?vid=756bbb46-d973-437b-9963-e81399b59e62","ios":"levelo://app?vid=756bbb46-d973-437b-9963-e81399b59e62"},"vehicle_type_id":"4","last_reported":1716239200,"current_range_meters":23600,"station_id":"ce4bgt12rcd13ifvqcd0","pricing_plan_id":"cebpf4jnsgd1na2vs0mg"},{"bike_id":"2c6f10aa-92c7-4543-b858-99d7bfc09c32","system_id":"levelo_inurba_marseille","lat":43.314811,"lon":5.373103,"is_reserved":false,"is_disabled":false,"rental_uris":{"android":"levelo://app?vid=2c6f10aa-92c7-4543-b858-99d7bfc09c32","ios":"levelo://app?vid=2c6f10aa-92c7-4543-b858-99d7bfc09c32"},"vehicle_type_id":"4","last_reported":1716239200,"current_range_meters":22800,"station_id":"ce4bgt12rcd13ifvqcd0","pricing_plan_id":"cebpf4jnsgd1na2vs0mg"},{"bike_id":"7a40c2ab-16e1-4d9c-8b11-d32994f2c47f","system_id":"levelo_inurba_marseille","lat":43.314811,"lon":5.373103,"is_reserved":false,"is_disabled":false,"rental_uris":{"android":"levelo://app?vid=7a40c2ab-16e1-4d9c-8b11-d32994f2c47f","ios":"levelo://app?vid=7a40c2ab-16e1-4d9c-8b11-d32994f2c47f"},"vehicle_type_id":"4","last_reported":1716239200,"current_range_meters":4400,"station_id":"ce4bgt12rcd13ifvqcd0","pricing_plan_id":"cebpf4jnsgd1na2vs0mg"},{"bike_id":"f546551d-60a6-4a83-8f09-47479d0df0e3","system_id":"levelo_inurba_marseille","lat":43.309039,"lon":5.371797,"is_reserved":false,"is_disabled":false,"rental_uris":{"android":"levelo://app?vid=f546551d-60a6-4a83-8f09-47479d0df0e3","ios":"levelo://app?vid=f546551d-60a6-4a83-8f09-47479d0df0e3"},"vehicle_type_id":"4","last_reported":1716239200,"current_range_meters":23200,"station_id":"ce4bguh2rcd13ifvqckg","pricing_plan_id":"cebpf4jnsgd1na2vs0mg"},{"bike_id":"e4632e7a-2deb-48a7-808d-6c5307f12802","system_id":"levelo_inurba_marseille","lat":43.31672,"lon":5.3722,"is_reserved":false,"is_disabled":false,"rental_uris":{"android":"levelo://app?vid=e4632e7a-2deb-48a7-808d-6c5307f12802","ios":"levelo://app?vid=e4632e7a-2deb-48a7-808d-6c5307f12802"},"vehicle_type_id":"4","last_reported":1716239200,"current_range_meters":17200,"station_id":"","pricing_plan_id":"cebpf4jnsgd1na2vs0mg"},{"bike_id":"c5475b79-ba31-4c85-bb68-4a0e798c5d37","system_id":"levelo_inurba_marseille","lat":43.30657,"lon":5.36892,"is_reserved":false,"is_disabled":false,"rental_uris":{"android":"levelo://app?vid=c5475b79-ba31-4c85-bb68-4a0e798c5d37","ios":"levelo://app?vid=c5475b79-ba31-4c85-bb68-4a0e798c5d37"},"vehicle_type_id":"4","last_reported":1716239200,"current_range_meters":21200,"station_id":"","pricing_plan_id":"cebpf4jnsgd1na2vs0mg"},{"bike_id":"6e054a2d-fec8-4e6f-85d5-a94481591460","system_id":"levelo_inurba_marseille","lat":43.318176,"lon":5.373086,"is_reserved":false,"is_disabled":false,"rental_uris":{"android":"levelo://app?vid=6e054a2d-fec8-4e6f-85d5-a94481591460","ios":"levelo://app?vid=6e054a2d-fec8-4e6f-85d5-a94481591460"},"vehicle_type_id":"4","last_reported":1716239200,"current_range_meters":30400,"station_id":"","pricing_plan_id":"cebpf4jnsgd1na2vs0mg"},{"bike_id":"30da7709-c992-40b7-b2f2-129602bfb26a","system_id":"levelo_inurba_marseille","lat":43.305989,"lon":5.37225,"is_reserved":false,"is_disabled":false,"rental_uris":{"android":"levelo://app?vid=30da7709-c992-40b7-b2f2-129602bfb26a","ios":"levelo://app?vid=30da7709-c992-40b7-b2f2-129602bfb26a"},"vehicle_type_id":"4","last_reported":1716239200,"current_range_meters":4400,"station_id":"ce4bgqh2rcd13ifvqc4g","pricing_plan_id":"cebpf4jnsgd1na2vs0mg"},{"bike_id":"aeb42fe9-c13c-48a2-931a-2b8a6b6e6b57","system_id":"levelo_inurba_marseille","lat":43.30594,"lon":5.37232,"is_reserved":false,"is_disabled":false,"rental_uris":{"android":"levelo://app?vid=aeb42fe9-c13c-48a2-931a-2b8a6b6e6b57","ios":"levelo://app?vid=aeb42fe9-c13c-48a2-931a-2b8a6b6e6b57"},"vehicle_type_id":"4","last_reported":1716239200,"current_range_meters":20000,"station_id":"ce4bgqh2rcd13ifvqc4g","pricing_plan_id":"cebpf4jnsgd1na2vs0mg"},{"bike_id":"059e29e2-7465-46d0-9ed5-2e42d4cea8b6","system_id":"levelo_inurba_marseille","lat":43.311131,"lon":5.377651,"is_reserved":false,"is_disabled":false,"rental_uris":{"android":"levelo://app?vid=059e29e2-7465-46d0-9ed5-2e42d4cea8b6","ios":"levelo://app?vid=059e29e2-7465-46d0-9ed5-2e42d4cea8b6"},"vehicle_type_id":"4","last_reported":1716239200,"current_range_meters":6800,"station_id":"ce4bgt92rcd13ifvqcg0","pricing_plan_id":"cebpf4jnsgd1na2vs0mg"},{"bike_id":"7ff7b98e-b429-4f6f-9768-a69f7b3e2cce","system_id":"levelo_inurba_marseille","lat":43.305989,"lon":5.37225,"is_reserved":false,"is_disabled":false,"rental_uris":{"android":"levelo://app?vid=7ff7b98e-b429-4f6f-9768-a69f7b3e2cce","ios":"levelo://app?vid=7ff7b98e-b429-4f6f-9768-a69f7b3e2cce"},"vehicle_type_id":"4","last_reported":1716239200,"current_range_meters":12000,"station_id":"ce4bgqh2rcd13ifvqc4g","pricing_plan_id":"cebpf4jnsgd1na2vs0mg"},{"bike_id":"cb64b8f5-702b-4ff1-bf28-4600f91fa4c6","system_id":"levelo_inurba_marseille","lat":43.30537,"lon":5.367345,"is_reserved":false,"is_disabled":false,"rental_uris":{"android":"levelo://app?vid=cb64b8f5-702b-4ff1-bf28-4600f91fa4c6","ios":"levelo://app?vid=cb64b8f5-702b-4ff1-bf28-4600f91fa4c6"},"vehicle_type_id":"4","last_reported":1716239200,"current_range_meters":9600,"station_id":"ce4bgrp2rcd13ifvqc9g","pricing_plan_id":"cebpf4jnsgd1na2vs0mg"},{"bike_id":"e36756b5-b2b4-4815-99a0-0fa9c171d444","system_id":"levelo_inurba_marseille","lat":43.308012,"lon":5.381511,"is_reserved":false,"is_disabled":false,"rental_uris":{"android":"levelo://app?vid=e36756b5-b2b4-4815-99a0-0fa9c171d444","ios":"levelo://app?vid=e36756b5-b2b4-4815-99a0-0fa9c171d444"},"vehicle_type_id":"4","last_reported":1716239200,"current_range_meters":9600,"station_id":"ce4bgt12rcd13ifvqce0","pricing_plan_id":"cebpf4jnsgd1na2vs0mg"},{"bike_id":"5dffe70b-168f-43f3-be29-083119744dfa","system_id":"levelo_inurba_marseille","lat":43.305989,"lon":5.37225,"is_reserved":false,"is_disabled":false,"rental_uris":{"android":"levelo://app?vid=5dffe70b-168f-43f3-be29-083119744dfa","ios":"levelo://app?vid=5dffe70b-168f-43f3-be29-083119744dfa"},"vehicle_type_id":"4","last_reported":1716239200,"current_range_meters":23200,"station_id":"ce4bgqh2rcd13ifvqc4g","pricing_plan_id":"cebpf4jnsgd1na2vs0mg"},{"bike_id":"40599aad-7099-4314-868c-0d3b6f5e65d3","system_id":"levelo_inurba_marseille","lat":43.311131,"lon":5.377651,"is_reserved":false,"is_disabled":false,"rental_uris":{"android":"levelo://app?vid=40599aad-7099-4314-868c-0d3b6f5e65d3","ios":"levelo://app?vid=40599aad-7099-4314-868c-0d3b6f5e65d3"},"vehicle_type_id":"4","last_reported":1716239200,"current_range_meters":3200,"station_id":"ce4bgt92rcd13ifvqcg0","pricing_plan_id":"cebpf4jnsgd1na2vs0mg"},{"bike_id":"8104f661-1076-4125-8501-5b606a7c45f2","system_id":"levelo_inurba_marseille","lat":43.307945,"lon":5.376487,"is_reserved":false,"is_disabled":false,"rental_uris":{"android":"levelo://app?vid=8104f661-1076-4125-8501-5b606a7c45f2","ios":"levelo://app?vid=8104f661-1076-4125-8501-5b606a7c45f2"},"vehicle_type_id":"4","last_reported":1716239200,"current_range_meters":0,"station_id":"ce4bgv92rcd13ifvqcq0","pricing_plan_id":"cebpf4jnsgd1na2vs0mg"},{"bike_id":"d50ac615-3fb0-4570-9667-9099c4fdee1f","system_id":"levelo_inurba_marseille","lat":43.307945,"lon":5.376487,"is_reserved":false,"is_disabled":false,"rental_uris":{"android":"levelo://app?vid=d50ac615-3fb0-4570-9667-9099c4fdee1f","ios":"levelo://app?vid=d50ac615-3fb0-4570-9667-9099c4fdee1f"},"vehicle_type_id":"4","last_reported":1716239200,"current_range_meters":24400,"station_id":"ce4bgv92rcd13ifvqcq0","pricing_plan_id":"cebpf4jnsgd1na2vs0mg"},{"bike_id":"0228e0b2-26e6-44a7-a7c5-d840e01c3c89","system_id":"levelo_inurba_marseille","lat":43.307945,"lon":5.376487,"is_reserved":false,"is_disabled":false,"rental_uris":{"android":"levelo://app?vid=0228e0b2-26e6-44a7-a7c5-d840e01c3c89","ios":"levelo://app?vid=0228e0b2-26e6-44a7-a7c5-d840e01c3c89"},"vehicle_type_id":"4","last_reported":1716239200,"current_range_meters":24800,"station_id":"ce4bgv92rcd13ifvqcq0","pricing_plan_id":"cebpf4jnsgd1na2vs0mg"},{"bike_id":"4aed50b3-14e6-4c16-bf4a-562412ee672c","system_id":"levelo_inurba_marseille","lat":43.307945,"lon":5.376487,"is_reserved":false,"is_disabled":false,"rental_uris":{"android":"levelo://app?vid=4aed50b3-14e6-4c16-bf4a-562412ee672c","ios":"levelo://app?vid=4aed50b3-14e6-4c16-bf4a-562412ee672c"},"vehicle_type_id":"4","last_reported":1716239200,"current_range_meters":25600,"station_id":"ce4bgv92rcd13ifvqcq0","pricing_plan_id":"cebpf4jnsgd1na2vs0mg"},{"bike_id":"64923f40-89d5-4795-bf16-e5419f1d81d2","system_id":"levelo_inurba_marseille","lat":43.307945,"lon":5.376487,"is_reserved":false,"is_disabled":false,"rental_uris":{"android":"levelo://app?vid=64923f40-89d5-4795-bf16-e5419f1d81d2","ios":"levelo://app?vid=64923f40-89d5-4795-bf16-e5419f1d81d2"},"vehicle_type_id":"4","last_reported":1716239200,"current_range_meters":21600,"station_id":"ce4bgv92rcd13ifvqcq0","pricing_plan_id":"cebpf4jnsgd1na2vs0mg"},{"bike_id":"bad6f265-d313-4080-9207-0fa43c575b5b","system_id":"levelo_inurba_marseille","lat":43.307758,"lon":5.376503,"is_reserved":false,"is_disabled":false,"rental_uris":{"android":"levelo://app?vid=bad6f265-d313-4080-9207-0fa43c575b5b","ios":"levelo://app?vid=bad6f265-d313-4080-9207-0fa43c575b5b"},"vehicle_type_id":"4","last_reported":1716239200,"current_range_meters":24000,"station_id":"ce4bgv92rcd13ifvqcq0","pricing_plan_id":"cebpf4jnsgd1na2vs0mg"},{"bike_id":"a6cfe265-af35-49a7-b843-03ed6aed098d","system_id":"levelo_inurba_marseille","lat":43.317075,"lon":5.377367,"is_reserved":false,"is_disabled":false,"rental_uris":{"android":"levelo://app?vid=a6cfe265-af35-49a7-b843-03ed6aed098d","ios":"levelo://app?vid=a6cfe265-af35-49a7-b843-03ed6aed098d"},"vehicle_type_id":"4","last_reported":1716239200,"current_range_meters":9600,"station_id":"ce4bgth2rcd13ifvqch0","pricing_plan_id":"cebpf4jnsgd1na2vs0mg"},{"bike_id":"5e1ff359-4fa7-44e2-a2ad-7fbcae02427a","system_id":"levelo_inurba_marseille","lat":43.30783,"lon":5.376592,"is_reserved":false,"is_disabled":false,"rental_uris":{"android":"levelo://app?vid=5e1ff359-4fa7-44e2-a2ad-7fbcae02427a","ios":"levelo://app?vid=5e1ff359-4fa7-44e2-a2ad-7fbcae02427a"},"vehicle_type_id":"4","last_reported":1716239200,"current_range_meters":18400,"station_id":"ce4bgv92rcd13ifvqcq0","pricing_plan_id":"cebpf4jnsgd1na2vs0mg"},{"bike_id":"87ee2c1f-608d-4086-afbf-1d45ad83f158","system_id":"levelo_inurba_marseille","lat":43.317075,"lon":5.377367,"is_reserved":false,"is_disabled":false,"rental_uris":{"android":"levelo://app?vid=87ee2c1f-608d-4086-afbf-1d45ad83f158","ios":"levelo://app?vid=87ee2c1f-608d-4086-afbf-1d45ad83f158"},"vehicle_type_id":"4","last_reported":1716239200,"current_range_meters":4400,"station_id":"ce4bgth2rcd13ifvqch0","pricing_plan_id":"cebpf4jnsgd1na2vs0mg"},{"bike_id":"3db07f7e-360c-41ea-af7c-b5b05a16423a","system_id":"levelo_inurba_marseille","lat":43.317075,"lon":5.377367,"is_reserved":false,"is_disabled":false,"rental_uris":{"android":"levelo://app?vid=3db07f7e-360c-41ea-af7c-b5b05a16423a","ios":"levelo://app?vid=3db07f7e-360c-41ea-af7c-b5b05a16423a"},"vehicle_type_id":"4","last_reported":1716239200,"current_range_meters":12400,"station_id":"ce4bgth2rcd13ifvqch0","pricing_plan_id":"cebpf4jnsgd1na2vs0mg"},{"bike_id":"3d5f4a66-f731-4a4a-b0af-53380ec7ee22","system_id":"levelo_inurba_marseille","lat":43.317075,"lon":5.377367,"is_reserved":false,"is_disabled":false,"rental_uris":{"android":"levelo://app?vid=3d5f4a66-f731-4a4a-b0af-53380ec7ee22","ios":"levelo://app?vid=3d5f4a66-f731-4a4a-b0af-53380ec7ee22"},"vehicle_type_id":"4","last_reported":1716239200,"current_range_meters":14400,"station_id":"ce4bgth2rcd13ifvqch0","pricing_plan_id":"cebpf4jnsgd1na2vs0mg"},{"bike_id":"62089149-0c5c-4b57-ad48-e14f61f1ae6e","system_id":"levelo_inurba_marseille","lat":43.305989,"lon":5.37225,"is_reserved":false,"is_disabled":false,"rental_uris":{"android":"levelo://app?vid=62089149-0c5c-4b57-ad48-e14f61f1ae6e","ios":"levelo://app?vid=62089149-0c5c-4b57-ad48-e14f61f1ae6e"},"vehicle_type_id":"4","last_reported":1716239200,"current_range_meters":4000,"station_id":"ce4bgqh2rcd13ifvqc4g","pricing_plan_id":"cebpf4jnsgd1na2vs0mg"},{"bike_id":"e5de7a36-db5e-4722-b6c5-04f3ac87a3c3","system_id":"levelo_inurba_marseille","lat":43.315289,"lon":5.380349,"is_reserved":false,"is_disabled":false,"rental_uris":{"android":"levelo://app?vid=e5de7a36-db5e-4722-b6c5-04f3ac87a3c3","ios":"levelo://app?vid=e5de7a36-db5e-4722-b6c5-04f3ac87a3c3"},"vehicle_type_id":"4","last_reported":1716239200,"current_range_meters":15600,"station_id":"ce4bhsp2rcd13ifvqi50","pricing_plan_id":"cebpf4jnsgd1na2vs0mg"},{"bike_id":"37e320eb-97d0-4420-8b8a-8917c59d861b","system_id":"levelo_inurba_marseille","lat":43.315289,"lon":5.380349,"is_reserved":false,"is_disabled":false,"rental_uris":{"android":"levelo://app?vid=37e320eb-97d0-4420-8b8a-8917c59d861b","ios":"levelo://app?vid=37e320eb-97d0-4420-8b8a-8917c59d861b"},"vehicle_type_id":"4","last_reported":1716239200,"current_range_meters":14800,"station_id":"ce4bhsp2rcd13ifvqi50","pricing_plan_id":"cebpf4jnsgd1na2vs0mg"},{"bike_id":"79f6ce24-1393-4167-b356-96aaa14637d9","system_id":"levelo_inurba_marseille","lat":43.316395,"lon":5.379955,"is_reserved":false,"is_disabled":false,"rental_uris":{"android":"levelo://app?vid=79f6ce24-1393-4167-b356-96aaa14637d9","ios":"levelo://app?vid=79f6ce24-1393-4167-b356-96aaa14637d9"},"vehicle_type_id":"4","last_reported":1716239200,"current_range_meters":13600,"station_id":"","pricing_plan_id":"cebpf4jnsgd1na2vs0mg"},{"bike_id":"dc190e52-7959-446f-8266-e0778a8fe0ab","system_id":"levelo_inurba_marseille","lat":43.303046,"lon":5.368981,"is_reserved":false,"is_disabled":false,"rental_uris":{"android":"levelo://app?vid=dc190e52-7959-446f-8266-e0778a8fe0ab","ios":"levelo://app?vid=dc190e52-7959-446f-8266-e0778a8fe0ab"},"vehicle_type_id":"4","last_reported":1716239200,"current_range_meters":14800,"station_id":"ce4bgqh2rcd13ifvqc5g","pricing_plan_id":"cebpf4jnsgd1na2vs0mg"},{"bike_id":"d21afd7b-63d8-4ba6-87ac-c1aba261a513","system_id":"levelo_inurba_marseille","lat":43.301939,"lon":5.366286,"is_reserved":false,"is_disabled":false,"rental_uris":{"android":"levelo://app?vid=d21afd7b-63d8-4ba6-87ac-c1aba261a513","ios":"levelo://app?vid=d21afd7b-63d8-4ba6-87ac-c1aba261a513"},"vehicle_type_id":"4","last_reported":1716239200,"current_range_meters":16400,"station_id":"ce4bgrh2rcd13ifvqc8g","pricing_plan_id":"cebpf4jnsgd1na2vs0mg"},{"bike_id":"87a382c3-5128-4be4-ace5-e47747dbc87b","system_id":"levelo_inurba_marseille","lat":43.308012,"lon":5.381511,"is_reserved":false,"is_disabled":false,"rental_uris":{"android":"levelo://app?vid=87a382c3-5128-4be4-ace5-e47747dbc87b","ios":"levelo://app?vid=87a382c3-5128-4be4-ace5-e47747dbc87b"},"vehicle_type_id":"4","last_reported":1716239200,"current_range_meters":2000,"station_id":"ce4bgt12rcd13ifvqce0","pricing_plan_id":"cebpf4jnsgd1na2vs0mg"},{"bike_id":"8b5ee03f-006c-48ab-8c24-d34375c14272","system_id":"levelo_inurba_marseille","lat":43.301939,"lon":5.366286,"is_reserved":false,"is_disabled":false,"rental_uris":{"android":"levelo://app?vid=8b5ee03f-006c-48ab-8c24-d34375c14272","ios":"levelo://app?vid=8b5ee03f-006c-48ab-8c24-d34375c14272"},"vehicle_type_id":"4","last_reported":1716239200,"current_range_meters":30000,"station_id":"ce4bgrh2rcd13ifvqc8g","pricing_plan_id":"cebpf4jnsgd1na2vs0mg"},{"bike_id":"9e4723eb-76a5-4cbe-a969-46595c5b773a","system_id":"levelo_inurba_marseille","lat":43.301939,"lon":5.366286,"is_reserved":false,"is_disabled":false,"rental_uris":{"android":"levelo://app?vid=9e4723eb-76a5-4cbe-a969-46595c5b773a","ios":"levelo://app?vid=9e4723eb-76a5-4cbe-a969-46595c5b773a"},"vehicle_type_id":"4","last_reported":1716239200,"current_range_meters":9600,"station_id":"ce4bgrh2rcd13ifvqc8g","pricing_plan_id":"cebpf4jnsgd1na2vs0mg"},{"bike_id":"0ce0c10b-a636-40ea-9e75-bbf44389c5da","system_id":"levelo_inurba_marseille","lat":43.301939,"lon":5.366286,"is_reserved":false,"is_disabled":false,"rental_uris":{"android":"levelo://app?vid=0ce0c10b-a636-40ea-9e75-bbf44389c5da","ios":"levelo://app?vid=0ce0c10b-a636-40ea-9e75-bbf44389c5da"},"vehicle_type_id":"4","last_reported":1716239200,"current_range_meters":21600,"station_id":"ce4bgrh2rcd13ifvqc8g","pricing_plan_id":"cebpf4jnsgd1na2vs0mg"},{"bike_id":"58dbd84f-2d92-4e09-9fa4-28bb801b229a","system_id":"levelo_inurba_marseille","lat":43.308012,"lon":5.381511,"is_reserved":false,"is_disabled":false,"rental_uris":{"android":"levelo://app?vid=58dbd84f-2d92-4e09-9fa4-28bb801b229a","ios":"levelo://app?vid=58dbd84f-2d92-4e09-9fa4-28bb801b229a"},"vehicle_type_id":"4","last_reported":1716239200,"current_range_meters":0,"station_id":"ce4bgt12rcd13ifvqce0","pricing_plan_id":"cebpf4jnsgd1na2vs0mg"},{"bike_id":"f5a40247-d87b-4952-b902-b0945ddc366c","system_id":"levelo_inurba_marseille","lat":43.307982,"lon":5.381422,"is_reserved":false,"is_disabled":false,"rental_uris":{"android":"levelo://app?vid=f5a40247-d87b-4952-b902-b0945ddc366c","ios":"levelo://app?vid=f5a40247-d87b-4952-b902-b0945ddc366c"},"vehicle_type_id":"4","last_reported":1716239200,"current_range_meters":2800,"station_id":"ce4bgt12rcd13ifvqce0","pricing_plan_id":"cebpf4jnsgd1na2vs0mg"},{"bike_id":"5a726de4-20a7-45df-854a-6b7c858b1d79","system_id":"levelo_inurba_marseille","lat":43.308012,"lon":5.381511,"is_reserved":false,"is_disabled":false,"rental_uris":{"android":"levelo://app?vid=5a726de4-20a7-45df-854a-6b7c858b1d79","ios":"levelo://app?vid=5a726de4-20a7-45df-854a-6b7c858b1d79"},"vehicle_type_id":"4","last_reported":1716239200,"current_range_meters":4000,"station_id":"ce4bgt12rcd13ifvqce0","pricing_plan_id":"cebpf4jnsgd1na2vs0mg"},{"bike_id":"e7672a27-c1d4-4e65-8bfc-37f47b79eca9","system_id":"levelo_inurba_marseille","lat":43.308012,"lon":5.381511,"is_reserved":false,"is_disabled":false,"rental_uris":{"android":"levelo://app?vid=e7672a27-c1d4-4e65-8bfc-37f47b79eca9","ios":"levelo://app?vid=e7672a27-c1d4-4e65-8bfc-37f47b79eca9"},"vehicle_type_id":"4","last_reported":1716239200,"current_range_meters":26400,"station_id":"ce4bgt12rcd13ifvqce0","pricing_plan_id":"cebpf4jnsgd1na2vs0mg"},{"bike_id":"453c7902-096c-4c09-bb67-b23eca11347a","system_id":"levelo_inurba_marseille","lat":43.308012,"lon":5.381511,"is_reserved":false,"is_disabled":false,"rental_uris":{"android":"levelo://app?vid=453c7902-096c-4c09-bb67-b23eca11347a","ios":"levelo://app?vid=453c7902-096c-4c09-bb67-b23eca11347a"},"vehicle_type_id":"4","last_reported":1716239200,"current_range_meters":0,"station_id":"ce4bgt12rcd13ifvqce0","pricing_plan_id":"cebpf4jnsgd1na2vs0mg"},{"bike_id":"23684dfd-e6d0-424a-9cb8-f561aa495e3d","system_id":"levelo_inurba_marseille","lat":43.308012,"lon":5.381511,"is_reserved":false,"is_disabled":false,"rental_uris":{"android":"levelo://app?vid=23684dfd-e6d0-424a-9cb8-f561aa495e3d","ios":"levelo://app?vid=23684dfd-e6d0-424a-9cb8-f561aa495e3d"},"vehicle_type_id":"4","last_reported":1716239200,"current_range_meters":1200,"station_id":"ce4bgt12rcd13ifvqce0","pricing_plan_id":"cebpf4jnsgd1na2vs0mg"},{"bike_id":"9d50f318-69c2-4284-8687-e399d2c28e61","system_id":"levelo_inurba_marseille","lat":43.307959,"lon":5.381554,"is_reserved":false,"is_disabled":false,"rental_uris":{"android":"levelo://app?vid=9d50f318-69c2-4284-8687-e399d2c28e61","ios":"levelo://app?vid=9d50f318-69c2-4284-8687-e399d2c28e61"},"vehicle_type_id":"4","last_reported":1716239200,"current_range_meters":12000,"station_id":"ce4bgt12rcd13ifvqce0","pricing_plan_id":"cebpf4jnsgd1na2vs0mg"},{"bike_id":"b7627703-57ce-4c18-8803-07f6034065d6","system_id":"levelo_inurba_marseille","lat":43.307801,"lon":5.381637,"is_reserved":false,"is_disabled":false,"rental_uris":{"android":"levelo://app?vid=b7627703-57ce-4c18-8803-07f6034065d6","ios":"levelo://app?vid=b7627703-57ce-4c18-8803-07f6034065d6"},"vehicle_type_id":"4","last_reported":1716239200,"current_range_meters":18800,"station_id":"ce4bgt12rcd13ifvqce0","pricing_plan_id":"cebpf4jnsgd1na2vs0mg"},{"bike_id":"03b2d0ac-4855-463a-a2f0-be21041dc802","system_id":"levelo_inurba_marseille","lat":43.304606,"lon":5.379026,"is_reserved":false,"is_disabled":false,"rental_uris":{"android":"levelo://app?vid=03b2d0ac-4855-463a-a2f0-be21041dc802","ios":"levelo://app?vid=03b2d0ac-4855-463a-a2f0-be21041dc802"},"vehicle_type_id":"4","last_reported":1716239200,"current_range_meters":28800,"station_id":"ce4bgup2rcd13ifvqcn0","pricing_plan_id":"cebpf4jnsgd1na2vs0mg"},{"bike_id":"7118c79d-2b19-4ddb-a8d5-6a373303c839","system_id":"levelo_inurba_marseille","lat":43.324771,"lon":5.36557,"is_reserved":false,"is_disabled":false,"rental_uris":{"android":"levelo://app?vid=7118c79d-2b19-4ddb-a8d5-6a373303c839","ios":"levelo://app?vid=7118c79d-2b19-4ddb-a8d5-6a373303c839"},"vehicle_type_id":"4","last_reported":1716239200,"current_range_meters":18400,"station_id":"ce4bhs12rcd13ifvqhvg","pricing_plan_id":"cebpf4jnsgd1na2vs0mg"},{"bike_id":"e62a8dbb-0e96-4059-a8d9-965708fb5f1e","system_id":"levelo_inurba_marseille","lat":43.324771,"lon":5.36557,"is_reserved":false,"is_disabled":false,"rental_uris":{"android":"levelo://app?vid=e62a8dbb-0e96-4059-a8d9-965708fb5f1e","ios":"levelo://app?vid=e62a8dbb-0e96-4059-a8d9-965708fb5f1e"},"vehicle_type_id":"4","last_reported":1716239200,"current_range_meters":12000,"station_id":"ce4bhs12rcd13ifvqhvg","pricing_plan_id":"cebpf4jnsgd1na2vs0mg"},{"bike_id":"3d91d303-2d76-44cb-b3b8-992cc764755f","system_id":"levelo_inurba_marseille","lat":43.324771,"lon":5.36557,"is_reserved":false,"is_disabled":false,"rental_uris":{"android":"levelo://app?vid=3d91d303-2d76-44cb-b3b8-992cc764755f","ios":"levelo://app?vid=3d91d303-2d76-44cb-b3b8-992cc764755f"},"vehicle_type_id":"4","last_reported":1716239200,"current_range_meters":31200,"station_id":"ce4bhs12rcd13ifvqhvg","pricing_plan_id":"cebpf4jnsgd1na2vs0mg"},{"bike_id":"0dd97c26-11f4-41b6-8a12-71b4006f110c","system_id":"levelo_inurba_marseille","lat":43.324771,"lon":5.36557,"is_reserved":false,"is_disabled":false,"rental_uris":{"android":"levelo://app?vid=0dd97c26-11f4-41b6-8a12-71b4006f110c","ios":"levelo://app?vid=0dd97c26-11f4-41b6-8a12-71b4006f110c"},"vehicle_type_id":"4","last_reported":1716239200,"current_range_meters":22400,"station_id":"ce4bhs12rcd13ifvqhvg","pricing_plan_id":"cebpf4jnsgd1na2vs0mg"},{"bike_id":"b450414a-2995-4a82-a4f1-22c77abd79a2","system_id":"levelo_inurba_marseille","lat":43.324771,"lon":5.36557,"is_reserved":false,"is_disabled":false,"rental_uris":{"android":"levelo://app?vid=b450414a-2995-4a82-a4f1-22c77abd79a2","ios":"levelo://app?vid=b450414a-2995-4a82-a4f1-22c77abd79a2"},"vehicle_type_id":"4","last_reported":1716239200,"current_range_meters":31200,"station_id":"ce4bhs12rcd13ifvqhvg","pricing_plan_id":"cebpf4jnsgd1na2vs0mg"},{"bike_id":"44d8488e-db9e-4b63-861a-5959e6ab647b","system_id":"levelo_inurba_marseille","lat":43.324771,"lon":5.36557,"is_reserved":false,"is_disabled":false,"rental_uris":{"android":"levelo://app?vid=44d8488e-db9e-4b63-861a-5959e6ab647b","ios":"levelo://app?vid=44d8488e-db9e-4b63-861a-5959e6ab647b"},"vehicle_type_id":"4","last_reported":1716239200,"current_range_meters":31200,"station_id":"ce4bhs12rcd13ifvqhvg","pricing_plan_id":"cebpf4jnsgd1na2vs0mg"},{"bike_id":"e47bcb64-aec4-4fcd-96fc-83ec348237d4","system_id":"levelo_inurba_marseille","lat":43.324771,"lon":5.36557,"is_reserved":false,"is_disabled":false,"rental_uris":{"android":"levelo://app?vid=e47bcb64-aec4-4fcd-96fc-83ec348237d4","ios":"levelo://app?vid=e47bcb64-aec4-4fcd-96fc-83ec348237d4"},"vehicle_type_id":"4","last_reported":1716239200,"current_range_meters":20800,"station_id":"ce4bhs12rcd13ifvqhvg","pricing_plan_id":"cebpf4jnsgd1na2vs0mg"},{"bike_id":"b99aa1e8-09cd-4123-9ef7-7c407553b0f6","system_id":"levelo_inurba_marseille","lat":43.324771,"lon":5.36557,"is_reserved":false,"is_disabled":false,"rental_uris":{"android":"levelo://app?vid=b99aa1e8-09cd-4123-9ef7-7c407553b0f6","ios":"levelo://app?vid=b99aa1e8-09cd-4123-9ef7-7c407553b0f6"},"vehicle_type_id":"4","last_reported":1716239200,"current_range_meters":18000,"station_id":"ce4bhs12rcd13ifvqhvg","pricing_plan_id":"cebpf4jnsgd1na2vs0mg"},{"bike_id":"3e626050-7b4f-496d-b8b5-7f5c8a58bbd4","system_id":"levelo_inurba_marseille","lat":43.324771,"lon":5.36557,"is_reserved":false,"is_disabled":false,"rental_uris":{"android":"levelo://app?vid=3e626050-7b4f-496d-b8b5-7f5c8a58bbd4","ios":"levelo://app?vid=3e626050-7b4f-496d-b8b5-7f5c8a58bbd4"},"vehicle_type_id":"4","last_reported":1716239200,"current_range_meters":31200,"station_id":"ce4bhs12rcd13ifvqhvg","pricing_plan_id":"cebpf4jnsgd1na2vs0mg"},{"bike_id":"ec35004e-cd23-4d19-8b19-e9db1012251f","system_id":"levelo_inurba_marseille","lat":43.324771,"lon":5.36557,"is_reserved":false,"is_disabled":false,"rental_uris":{"android":"levelo://app?vid=ec35004e-cd23-4d19-8b19-e9db1012251f","ios":"levelo://app?vid=ec35004e-cd23-4d19-8b19-e9db1012251f"},"vehicle_type_id":"4","last_reported":1716239200,"current_range_meters":31200,"station_id":"ce4bhs12rcd13ifvqhvg","pricing_plan_id":"cebpf4jnsgd1na2vs0mg"},{"bike_id":"15619fa8-6a3e-49a4-a4eb-33ce7d274f9c","system_id":"levelo_inurba_marseille","lat":43.310804,"lon":5.38359,"is_reserved":false,"is_disabled":false,"rental_uris":{"android":"levelo://app?vid=15619fa8-6a3e-49a4-a4eb-33ce7d274f9c","ios":"levelo://app?vid=15619fa8-6a3e-49a4-a4eb-33ce7d274f9c"},"vehicle_type_id":"4","last_reported":1716239200,"current_range_meters":19600,"station_id":"ce4bgv92rcd13ifvqcr0","pricing_plan_id":"cebpf4jnsgd1na2vs0mg"},{"bike_id":"4a0806b6-c667-409d-9312-fe65e209c241","system_id":"levelo_inurba_marseille","lat":43.320467,"lon":5.380168,"is_reserved":false,"is_disabled":false,"rental_uris":{"android":"levelo://app?vid=4a0806b6-c667-409d-9312-fe65e209c241","ios":"levelo://app?vid=4a0806b6-c667-409d-9312-fe65e209c241"},"vehicle_type_id":"4","last_reported":1716239200,"current_range_meters":28400,"station_id":"","pricing_plan_id":"cebpf4jnsgd1na2vs0mg"},{"bike_id":"5868e980-02fa-4393-8564-462a4eb9079e","system_id":"levelo_inurba_marseille","lat":43.302784,"lon":5.377158,"is_reserved":false,"is_disabled":false,"rental_uris":{"android":"levelo://app?vid=5868e980-02fa-4393-8564-462a4eb9079e","ios":"levelo://app?vid=5868e980-02fa-4393-8564-462a4eb9079e"},"vehicle_type_id":"4","last_reported":1716239200,"current_range_meters":6000,"station_id":"ce4bguh2rcd13ifvqcj0","pricing_plan_id":"cebpf4jnsgd1na2vs0mg"},{"bike_id":"a9851f12-66d4-461c-8846-33d04e23ca99","system_id":"levelo_inurba_marseille","lat":43.308012,"lon":5.381511,"is_reserved":false,"is_disabled":false,"rental_uris":{"android":"levelo://app?vid=a9851f12-66d4-461c-8846-33d04e23ca99","ios":"levelo://app?vid=a9851f12-66d4-461c-8846-33d04e23ca99"},"vehicle_type_id":"4","last_reported":1716239200,"current_range_meters":5200,"station_id":"ce4bgt12rcd13ifvqce0","pricing_plan_id":"cebpf4jnsgd1na2vs0mg"},{"bike_id":"b2567934-18fa-4795-93c7-10b1b33198e1","system_id":"levelo_inurba_marseille","lat":43.301429,"lon":5.37413,"is_reserved":false,"is_disabled":false,"rental_uris":{"android":"levelo://app?vid=b2567934-18fa-4795-93c7-10b1b33198e1","ios":"levelo://app?vid=b2567934-18fa-4795-93c7-10b1b33198e1"},"vehicle_type_id":"4","last_reported":1716239200,"current_range_meters":21200,"station_id":"ce4bgs92rcd13ifvqcc0","pricing_plan_id":"cebpf4jnsgd1na2vs0mg"},{"bike_id":"f9893ce7-1c1d-4bde-9d9f-21eb5d299e2b","system_id":"levelo_inurba_marseille","lat":43.31994,"lon":5.38147,"is_reserved":false,"is_disabled":false,"rental_uris":{"android":"levelo://app?vid=f9893ce7-1c1d-4bde-9d9f-21eb5d299e2b","ios":"levelo://app?vid=f9893ce7-1c1d-4bde-9d9f-21eb5d299e2b"},"vehicle_type_id":"4","last_reported":1716239200,"current_range_meters":24000,"station_id":"ce4bhr12rcd13ifvqhpg","pricing_plan_id":"cebpf4jnsgd1na2vs0mg"},{"bike_id":"9c85aad0-6bad-4a50-8e19-12ccc52c8e6d","system_id":"levelo_inurba_marseille","lat":43.319935,"lon":5.381699,"is_reserved":false,"is_disabled":false,"rental_uris":{"android":"levelo://app?vid=9c85aad0-6bad-4a50-8e19-12ccc52c8e6d","ios":"levelo://app?vid=9c85aad0-6bad-4a50-8e19-12ccc52c8e6d"},"vehicle_type_id":"4","last_reported":1716239200,"current_range_meters":30800,"station_id":"ce4bhr12rcd13ifvqhpg","pricing_plan_id":"cebpf4jnsgd1na2vs0mg"},{"bike_id":"7339168f-69f4-4a05-afea-c26a6a047607","system_id":"levelo_inurba_marseille","lat":43.31996,"lon":5.38152,"is_reserved":false,"is_disabled":false,"rental_uris":{"android":"levelo://app?vid=7339168f-69f4-4a05-afea-c26a6a047607","ios":"levelo://app?vid=7339168f-69f4-4a05-afea-c26a6a047607"},"vehicle_type_id":"4","last_reported":1716239200,"current_range_meters":10000,"station_id":"ce4bhr12rcd13ifvqhpg","pricing_plan_id":"cebpf4jnsgd1na2vs0mg"},{"bike_id":"894c679d-dbc6-4249-84c1-7d73755cad19","system_id":"levelo_inurba_marseille","lat":43.313571,"lon":5.384829,"is_reserved":false,"is_disabled":false,"rental_uris":{"android":"levelo://app?vid=894c679d-dbc6-4249-84c1-7d73755cad19","ios":"levelo://app?vid=894c679d-dbc6-4249-84c1-7d73755cad19"},"vehicle_type_id":"4","last_reported":1716239200,"current_range_meters":2800,"station_id":"ce4bgt92rcd13ifvqcf0","pricing_plan_id":"cebpf4jnsgd1na2vs0mg"},{"bike_id":"ff80956a-2cb3-4f80-b5fd-ba5b3e5db0d8","system_id":"levelo_inurba_marseille","lat":43.313571,"lon":5.384829,"is_reserved":false,"is_disabled":false,"rental_uris":{"android":"levelo://app?vid=ff80956a-2cb3-4f80-b5fd-ba5b3e5db0d8","ios":"levelo://app?vid=ff80956a-2cb3-4f80-b5fd-ba5b3e5db0d8"},"vehicle_type_id":"4","last_reported":1716239200,"current_range_meters":26800,"station_id":"ce4bgt92rcd13ifvqcf0","pricing_plan_id":"cebpf4jnsgd1na2vs0mg"},{"bike_id":"15def61a-a895-4c82-a051-f6ed2e56a7e3","system_id":"levelo_inurba_marseille","lat":43.313571,"lon":5.384829,"is_reserved":false,"is_disabled":false,"rental_uris":{"android":"levelo://app?vid=15def61a-a895-4c82-a051-f6ed2e56a7e3","ios":"levelo://app?vid=15def61a-a895-4c82-a051-f6ed2e56a7e3"},"vehicle_type_id":"4","last_reported":1716239200,"current_range_meters":14400,"station_id":"ce4bgt92rcd13ifvqcf0","pricing_plan_id":"cebpf4jnsgd1na2vs0mg"},{"bike_id":"dcc9be50-eaaf-40fa-8a03-1d9049e4ec75","system_id":"levelo_inurba_marseille","lat":43.313571,"lon":5.384829,"is_reserved":false,"is_disabled":false,"rental_uris":{"android":"levelo://app?vid=dcc9be50-eaaf-40fa-8a03-1d9049e4ec75","ios":"levelo://app?vid=dcc9be50-eaaf-40fa-8a03-1d9049e4ec75"},"vehicle_type_id":"4","last_reported":1716239200,"current_range_meters":28400,"station_id":"ce4bgt92rcd13ifvqcf0","pricing_plan_id":"cebpf4jnsgd1na2vs0mg"},{"bike_id":"c4d84a78-2a61-4199-b246-ec5a28ae8e90","system_id":"levelo_inurba_marseille","lat":43.29985,"lon":5.37168,"is_reserved":false,"is_disabled":false,"rental_uris":{"android":"levelo://app?vid=c4d84a78-2a61-4199-b246-ec5a28ae8e90","ios":"levelo://app?vid=c4d84a78-2a61-4199-b246-ec5a28ae8e90"},"vehicle_type_id":"4","last_reported":1716239200,"current_range_meters":12400,"station_id":"ce4bgr92rcd13ifvqc7g","pricing_plan_id":"cebpf4jnsgd1na2vs0mg"},{"bike_id":"2b2f12a4-48f0-408e-92cc-33efe7f566ef","system_id":"levelo_inurba_marseille","lat":43.29982,"lon":5.37165,"is_reserved":false,"is_disabled":false,"rental_uris":{"android":"levelo://app?vid=2b2f12a4-48f0-408e-92cc-33efe7f566ef","ios":"levelo://app?vid=2b2f12a4-48f0-408e-92cc-33efe7f566ef"},"vehicle_type_id":"4","last_reported":1716239200,"current_range_meters":11200,"station_id":"ce4bgr92rcd13ifvqc7g","pricing_plan_id":"cebpf4jnsgd1na2vs0mg"},{"bike_id":"dfc45fd6-e659-4bc8-a462-bd1cd4d84cbc","system_id":"levelo_inurba_marseille","lat":43.299797,"lon":5.371855,"is_reserved":false,"is_disabled":false,"rental_uris":{"android":"levelo://app?vid=dfc45fd6-e659-4bc8-a462-bd1cd4d84cbc","ios":"levelo://app?vid=dfc45fd6-e659-4bc8-a462-bd1cd4d84cbc"},"vehicle_type_id":"4","last_reported":1716239200,"current_range_meters":1200,"station_id":"ce4bgr92rcd13ifvqc7g","pricing_plan_id":"cebpf4jnsgd1na2vs0mg"},{"bike_id":"d811ae23-9564-47c1-9249-10f0f4eb173d","system_id":"levelo_inurba_marseille","lat":43.299222,"lon":5.365554,"is_reserved":false,"is_disabled":false,"rental_uris":{"android":"levelo://app?vid=d811ae23-9564-47c1-9249-10f0f4eb173d","ios":"levelo://app?vid=d811ae23-9564-47c1-9249-10f0f4eb173d"},"vehicle_type_id":"4","last_reported":1716239200,"current_range_meters":9600,"station_id":"ce4bgm92rcd13ifvqbr0","pricing_plan_id":"cebpf4jnsgd1na2vs0mg"},{"bike_id":"d08195e2-7761-4675-bea0-8c8d2142dcfe","system_id":"levelo_inurba_marseille","lat":43.29978,"lon":5.37196,"is_reserved":false,"is_disabled":false,"rental_uris":{"android":"levelo://app?vid=d08195e2-7761-4675-bea0-8c8d2142dcfe","ios":"levelo://app?vid=d08195e2-7761-4675-bea0-8c8d2142dcfe"},"vehicle_type_id":"4","last_reported":1716239200,"current_range_meters":9200,"station_id":"ce4bgr92rcd13ifvqc7g","pricing_plan_id":"cebpf4jnsgd1na2vs0mg"},{"bike_id":"ecdbddf4-935e-47ba-a0c1-2bb6bad4dc9f","system_id":"levelo_inurba_marseille","lat":43.299724,"lon":5.371829,"is_reserved":false,"is_disabled":false,"rental_uris":{"android":"levelo://app?vid=ecdbddf4-935e-47ba-a0c1-2bb6bad4dc9f","ios":"levelo://app?vid=ecdbddf4-935e-47ba-a0c1-2bb6bad4dc9f"},"vehicle_type_id":"4","last_reported":1716239200,"current_range_meters":23200,"station_id":"ce4bgr92rcd13ifvqc7g","pricing_plan_id":"cebpf4jnsgd1na2vs0mg"},{"bike_id":"8998b0d8-f694-40d9-81d7-99c4f65aa72a","system_id":"levelo_inurba_marseille","lat":43.29971,"lon":5.371816,"is_reserved":false,"is_disabled":false,"rental_uris":{"android":"levelo://app?vid=8998b0d8-f694-40d9-81d7-99c4f65aa72a","ios":"levelo://app?vid=8998b0d8-f694-40d9-81d7-99c4f65aa72a"},"vehicle_type_id":"4","last_reported":1716239200,"current_range_meters":28000,"station_id":"ce4bgr92rcd13ifvqc7g","pricing_plan_id":"cebpf4jnsgd1na2vs0mg"},{"bike_id":"a9249003-cdc3-46b3-8626-eac3c552cda6","system_id":"levelo_inurba_marseille","lat":43.313571,"lon":5.384829,"is_reserved":false,"is_disabled":false,"rental_uris":{"android":"levelo://app?vid=a9249003-cdc3-46b3-8626-eac3c552cda6","ios":"levelo://app?vid=a9249003-cdc3-46b3-8626-eac3c552cda6"},"vehicle_type_id":"4","last_reported":1716239200,"current_range_meters":11200,"station_id":"ce4bgt92rcd13ifvqcf0","pricing_plan_id":"cebpf4jnsgd1na2vs0mg"},{"bike_id":"5ab35f29-01d9-492d-843c-4f9a196cb329","system_id":"levelo_inurba_marseille","lat":43.299204,"lon":5.363086,"is_reserved":false,"is_disabled":false,"rental_uris":{"android":"levelo://app?vid=5ab35f29-01d9-492d-843c-4f9a196cb329","ios":"levelo://app?vid=5ab35f29-01d9-492d-843c-4f9a196cb329"},"vehicle_type_id":"4","last_reported":1716239200,"current_range_meters":2800,"station_id":"","pricing_plan_id":"cebpf4jnsgd1na2vs0mg"},{"bike_id":"7b60c87d-1a92-4c62-b7e8-cabb83514b3e","system_id":"levelo_inurba_marseille","lat":43.311722,"lon":5.387247,"is_reserved":false,"is_disabled":false,"rental_uris":{"android":"levelo://app?vid=7b60c87d-1a92-4c62-b7e8-cabb83514b3e","ios":"levelo://app?vid=7b60c87d-1a92-4c62-b7e8-cabb83514b3e"},"vehicle_type_id":"4","last_reported":1716239200,"current_range_meters":29600,"station_id":"ce4bgv12rcd13ifvqcp0","pricing_plan_id":"cebpf4jnsgd1na2vs0mg"},{"bike_id":"0963b68a-ddb0-4836-839f-8273103b9437","system_id":"levelo_inurba_marseille","lat":43.311827,"lon":5.387098,"is_reserved":false,"is_disabled":false,"rental_uris":{"android":"levelo://app?vid=0963b68a-ddb0-4836-839f-8273103b9437","ios":"levelo://app?vid=0963b68a-ddb0-4836-839f-8273103b9437"},"vehicle_type_id":"4","last_reported":1716239200,"current_range_meters":24000,"station_id":"ce4bgv12rcd13ifvqcp0","pricing_plan_id":"cebpf4jnsgd1na2vs0mg"},{"bike_id":"85e9d17c-b219-410a-bdda-ef47e9b309e0","system_id":"levelo_inurba_marseille","lat":43.311722,"lon":5.387247,"is_reserved":false,"is_disabled":false,"rental_uris":{"android":"levelo://app?vid=85e9d17c-b219-410a-bdda-ef47e9b309e0","ios":"levelo://app?vid=85e9d17c-b219-410a-bdda-ef47e9b309e0"},"vehicle_type_id":"4","last_reported":1716239200,"current_range_meters":24400,"station_id":"ce4bgv12rcd13ifvqcp0","pricing_plan_id":"cebpf4jnsgd1na2vs0mg"},{"bike_id":"02f555b7-e5b2-47a3-92b9-1d45299e5156","system_id":"levelo_inurba_marseille","lat":43.311722,"lon":5.387247,"is_reserved":false,"is_disabled":false,"rental_uris":{"android":"levelo://app?vid=02f555b7-e5b2-47a3-92b9-1d45299e5156","ios":"levelo://app?vid=02f555b7-e5b2-47a3-92b9-1d45299e5156"},"vehicle_type_id":"4","last_reported":1716239200,"current_range_meters":15600,"station_id":"ce4bgv12rcd13ifvqcp0","pricing_plan_id":"cebpf4jnsgd1na2vs0mg"},{"bike_id":"7d69afb9-3194-47b6-9ea3-18d31d1eb5fe","system_id":"levelo_inurba_marseille","lat":43.311722,"lon":5.387247,"is_reserved":false,"is_disabled":false,"rental_uris":{"android":"levelo://app?vid=7d69afb9-3194-47b6-9ea3-18d31d1eb5fe","ios":"levelo://app?vid=7d69afb9-3194-47b6-9ea3-18d31d1eb5fe"},"vehicle_type_id":"4","last_reported":1716239200,"current_range_meters":0,"station_id":"ce4bgv12rcd13ifvqcp0","pricing_plan_id":"cebpf4jnsgd1na2vs0mg"},{"bike_id":"0febff86-bb42-4457-ac97-9712ba235dd9","system_id":"levelo_inurba_marseille","lat":43.311722,"lon":5.387247,"is_reserved":false,"is_disabled":false,"rental_uris":{"android":"levelo://app?vid=0febff86-bb42-4457-ac97-9712ba235dd9","ios":"levelo://app?vid=0febff86-bb42-4457-ac97-9712ba235dd9"},"vehicle_type_id":"4","last_reported":1716239200,"current_range_meters":25600,"station_id":"ce4bgv12rcd13ifvqcp0","pricing_plan_id":"cebpf4jnsgd1na2vs0mg"},{"bike_id":"55d6df08-ea0d-44f7-9195-3770d86e5b8a","system_id":"levelo_inurba_marseille","lat":43.311722,"lon":5.387247,"is_reserved":false,"is_disabled":false,"rental_uris":{"android":"levelo://app?vid=55d6df08-ea0d-44f7-9195-3770d86e5b8a","ios":"levelo://app?vid=55d6df08-ea0d-44f7-9195-3770d86e5b8a"},"vehicle_type_id":"4","last_reported":1716239200,"current_range_meters":7600,"station_id":"ce4bgv12rcd13ifvqcp0","pricing_plan_id":"cebpf4jnsgd1na2vs0mg"},{"bike_id":"6b2451dc-2b3d-47de-9b1d-6073422e9889","system_id":"levelo_inurba_marseille","lat":43.311722,"lon":5.387247,"is_reserved":false,"is_disabled":false,"rental_uris":{"android":"levelo://app?vid=6b2451dc-2b3d-47de-9b1d-6073422e9889","ios":"levelo://app?vid=6b2451dc-2b3d-47de-9b1d-6073422e9889"},"vehicle_type_id":"4","last_reported":1716239200,"current_range_meters":31200,"station_id":"ce4bgv12rcd13ifvqcp0","pricing_plan_id":"cebpf4jnsgd1na2vs0mg"},{"bike_id":"e89379bb-62d1-4201-a2e4-b36d7d28eb0e","system_id":"levelo_inurba_marseille","lat":43.311722,"lon":5.387247,"is_reserved":false,"is_disabled":false,"rental_uris":{"android":"levelo://app?vid=e89379bb-62d1-4201-a2e4-b36d7d28eb0e","ios":"levelo://app?vid=e89379bb-62d1-4201-a2e4-b36d7d28eb0e"},"vehicle_type_id":"4","last_reported":1716239200,"current_range_meters":17200,"station_id":"ce4bgv12rcd13ifvqcp0","pricing_plan_id":"cebpf4jnsgd1na2vs0mg"},{"bike_id":"b2798377-2264-41c2-b799-281aa55a9061","system_id":"levelo_inurba_marseille","lat":43.311722,"lon":5.387247,"is_reserved":false,"is_disabled":false,"rental_uris":{"android":"levelo://app?vid=b2798377-2264-41c2-b799-281aa55a9061","ios":"levelo://app?vid=b2798377-2264-41c2-b799-281aa55a9061"},"vehicle_type_id":"4","last_reported":1716239200,"current_range_meters":12000,"station_id":"ce4bgv12rcd13ifvqcp0","pricing_plan_id":"cebpf4jnsgd1na2vs0mg"},{"bike_id":"e0c79ae9-2428-45a4-93cc-7eaa19875710","system_id":"levelo_inurba_marseille","lat":43.311722,"lon":5.387247,"is_reserved":false,"is_disabled":false,"rental_uris":{"android":"levelo://app?vid=e0c79ae9-2428-45a4-93cc-7eaa19875710","ios":"levelo://app?vid=e0c79ae9-2428-45a4-93cc-7eaa19875710"},"vehicle_type_id":"4","last_reported":1716239200,"current_range_meters":19600,"station_id":"ce4bgv12rcd13ifvqcp0","pricing_plan_id":"cebpf4jnsgd1na2vs0mg"},{"bike_id":"401af092-1802-40ec-9625-f6d7e505b9ad","system_id":"levelo_inurba_marseille","lat":43.297794,"lon":5.370888,"is_reserved":false,"is_disabled":false,"rental_uris":{"android":"levelo://app?vid=401af092-1802-40ec-9625-f6d7e505b9ad","ios":"levelo://app?vid=401af092-1802-40ec-9625-f6d7e505b9ad"},"vehicle_type_id":"4","last_reported":1716239200,"current_range_meters":0,"station_id":"ce4bgop2rcd13ifvqc1g","pricing_plan_id":"cebpf4jnsgd1na2vs0mg"},{"bike_id":"4db12bb2-047c-428a-addf-22fa2d72f822","system_id":"levelo_inurba_marseille","lat":43.297774,"lon":5.370875,"is_reserved":false,"is_disabled":false,"rental_uris":{"android":"levelo://app?vid=4db12bb2-047c-428a-addf-22fa2d72f822","ios":"levelo://app?vid=4db12bb2-047c-428a-addf-22fa2d72f822"},"vehicle_type_id":"4","last_reported":1716239200,"current_range_meters":30800,"station_id":"ce4bgop2rcd13ifvqc1g","pricing_plan_id":"cebpf4jnsgd1na2vs0mg"},{"bike_id":"ed492a4e-944e-43b3-bd26-4581a8e6f7a8","system_id":"levelo_inurba_marseille","lat":43.297794,"lon":5.370888,"is_reserved":false,"is_disabled":false,"rental_uris":{"android":"levelo://app?vid=ed492a4e-944e-43b3-bd26-4581a8e6f7a8","ios":"levelo://app?vid=ed492a4e-944e-43b3-bd26-4581a8e6f7a8"},"vehicle_type_id":"4","last_reported":1716239200,"current_range_meters":30400,"station_id":"ce4bgop2rcd13ifvqc1g","pricing_plan_id":"cebpf4jnsgd1na2vs0mg"},{"bike_id":"feb3ce99-0c04-4694-b02b-9334282d6142","system_id":"levelo_inurba_marseille","lat":43.311722,"lon":5.387247,"is_reserved":false,"is_disabled":false,"rental_uris":{"android":"levelo://app?vid=feb3ce99-0c04-4694-b02b-9334282d6142","ios":"levelo://app?vid=feb3ce99-0c04-4694-b02b-9334282d6142"},"vehicle_type_id":"4","last_reported":1716239200,"current_range_meters":28800,"station_id":"ce4bgv12rcd13ifvqcp0","pricing_plan_id":"cebpf4jnsgd1na2vs0mg"},{"bike_id":"6100f9d6-f27f-48a5-9c4f-63706291f99d","system_id":"levelo_inurba_marseille","lat":43.297774,"lon":5.370875,"is_reserved":false,"is_disabled":false,"rental_uris":{"android":"levelo://app?vid=6100f9d6-f27f-48a5-9c4f-63706291f99d","ios":"levelo://app?vid=6100f9d6-f27f-48a5-9c4f-63706291f99d"},"vehicle_type_id":"4","last_reported":1716239200,"current_range_meters":26400,"station_id":"ce4bgop2rcd13ifvqc1g","pricing_plan_id":"cebpf4jnsgd1na2vs0mg"},{"bike_id":"d8da685b-9d7c-433f-a975-1473e901d5bf","system_id":"levelo_inurba_marseille","lat":43.322872,"lon":5.382756,"is_reserved":false,"is_disabled":false,"rental_uris":{"android":"levelo://app?vid=d8da685b-9d7c-433f-a975-1473e901d5bf","ios":"levelo://app?vid=d8da685b-9d7c-433f-a975-1473e901d5bf"},"vehicle_type_id":"4","last_reported":1716239200,"current_range_meters":16400,"station_id":"ce4bhr12rcd13ifvqhqg","pricing_plan_id":"cebpf4jnsgd1na2vs0mg"},{"bike_id":"d39db37c-9f78-4b03-a1c5-3ec323bb42fe","system_id":"levelo_inurba_marseille","lat":43.322895,"lon":5.38263,"is_reserved":false,"is_disabled":false,"rental_uris":{"android":"levelo://app?vid=d39db37c-9f78-4b03-a1c5-3ec323bb42fe","ios":"levelo://app?vid=d39db37c-9f78-4b03-a1c5-3ec323bb42fe"},"vehicle_type_id":"4","last_reported":1716239200,"current_range_meters":5200,"station_id":"ce4bhr12rcd13ifvqhqg","pricing_plan_id":"cebpf4jnsgd1na2vs0mg"},{"bike_id":"b488fd65-bd5a-457c-b330-5026f2e0d6ea","system_id":"levelo_inurba_marseille","lat":43.322872,"lon":5.382756,"is_reserved":false,"is_disabled":false,"rental_uris":{"android":"levelo://app?vid=b488fd65-bd5a-457c-b330-5026f2e0d6ea","ios":"levelo://app?vid=b488fd65-bd5a-457c-b330-5026f2e0d6ea"},"vehicle_type_id":"4","last_reported":1716239200,"current_range_meters":26400,"station_id":"ce4bhr12rcd13ifvqhqg","pricing_plan_id":"cebpf4jnsgd1na2vs0mg"},{"bike_id":"41097da2-1d0d-475a-91b6-8929b0b038e4","system_id":"levelo_inurba_marseille","lat":43.297774,"lon":5.370875,"is_reserved":false,"is_disabled":false,"rental_uris":{"android":"levelo://app?vid=41097da2-1d0d-475a-91b6-8929b0b038e4","ios":"levelo://app?vid=41097da2-1d0d-475a-91b6-8929b0b038e4"},"vehicle_type_id":"4","last_reported":1716239200,"current_range_meters":14400,"station_id":"ce4bgop2rcd13ifvqc1g","pricing_plan_id":"cebpf4jnsgd1na2vs0mg"},{"bike_id":"01e95566-5fb4-4063-8f1e-bc37a36174e1","system_id":"levelo_inurba_marseille","lat":43.297794,"lon":5.370888,"is_reserved":false,"is_disabled":false,"rental_uris":{"android":"levelo://app?vid=01e95566-5fb4-4063-8f1e-bc37a36174e1","ios":"levelo://app?vid=01e95566-5fb4-4063-8f1e-bc37a36174e1"},"vehicle_type_id":"4","last_reported":1716239200,"current_range_meters":5200,"station_id":"ce4bgop2rcd13ifvqc1g","pricing_plan_id":"cebpf4jnsgd1na2vs0mg"},{"bike_id":"7328fab6-48fe-4a8f-ba91-edbc907e8244","system_id":"levelo_inurba_marseille","lat":43.297774,"lon":5.370875,"is_reserved":false,"is_disabled":false,"rental_uris":{"android":"levelo://app?vid=7328fab6-48fe-4a8f-ba91-edbc907e8244","ios":"levelo://app?vid=7328fab6-48fe-4a8f-ba91-edbc907e8244"},"vehicle_type_id":"4","last_reported":1716239200,"current_range_meters":2000,"station_id":"ce4bgop2rcd13ifvqc1g","pricing_plan_id":"cebpf4jnsgd1na2vs0mg"},{"bike_id":"c67fe492-8c66-4e0f-b450-e2efa3b5948a","system_id":"levelo_inurba_marseille","lat":43.322872,"lon":5.382756,"is_reserved":false,"is_disabled":false,"rental_uris":{"android":"levelo://app?vid=c67fe492-8c66-4e0f-b450-e2efa3b5948a","ios":"levelo://app?vid=c67fe492-8c66-4e0f-b450-e2efa3b5948a"},"vehicle_type_id":"4","last_reported":1716239200,"current_range_meters":31600,"station_id":"ce4bhr12rcd13ifvqhqg","pricing_plan_id":"cebpf4jnsgd1na2vs0mg"},{"bike_id":"16f66172-cfd1-4966-8e04-6218a5cde7c9","system_id":"levelo_inurba_marseille","lat":43.32287,"lon":5.38282,"is_reserved":false,"is_disabled":false,"rental_uris":{"android":"levelo://app?vid=16f66172-cfd1-4966-8e04-6218a5cde7c9","ios":"levelo://app?vid=16f66172-cfd1-4966-8e04-6218a5cde7c9"},"vehicle_type_id":"4","last_reported":1716239200,"current_range_meters":0,"station_id":"ce4bhr12rcd13ifvqhqg","pricing_plan_id":"cebpf4jnsgd1na2vs0mg"},{"bike_id":"f213fd8a-dce9-424b-8473-048407c398b0","system_id":"levelo_inurba_marseille","lat":43.297197,"lon":5.37251,"is_reserved":false,"is_disabled":false,"rental_uris":{"android":"levelo://app?vid=f213fd8a-dce9-424b-8473-048407c398b0","ios":"levelo://app?vid=f213fd8a-dce9-424b-8473-048407c398b0"},"vehicle_type_id":"4","last_reported":1716239200,"current_range_meters":30800,"station_id":"ce4bgk12rcd13ifvqbj0","pricing_plan_id":"cebpf4jnsgd1na2vs0mg"},{"bike_id":"f3c66621-7960-4329-b4f2-44c5ce88039d","system_id":"levelo_inurba_marseille","lat":43.296811,"lon":5.372821,"is_reserved":false,"is_disabled":false,"rental_uris":{"android":"levelo://app?vid=f3c66621-7960-4329-b4f2-44c5ce88039d","ios":"levelo://app?vid=f3c66621-7960-4329-b4f2-44c5ce88039d"},"vehicle_type_id":"4","last_reported":1716239200,"current_range_meters":15600,"station_id":"ce4bgk12rcd13ifvqbj0","pricing_plan_id":"cebpf4jnsgd1na2vs0mg"},{"bike_id":"00503ce8-9edf-4f9b-a51c-7b767c9d3bd2","system_id":"levelo_inurba_marseille","lat":43.299069,"lon":5.380729,"is_reserved":false,"is_disabled":false,"rental_uris":{"android":"levelo://app?vid=00503ce8-9edf-4f9b-a51c-7b767c9d3bd2","ios":"levelo://app?vid=00503ce8-9edf-4f9b-a51c-7b767c9d3bd2"},"vehicle_type_id":"4","last_reported":1716239200,"current_range_meters":28800,"station_id":"","pricing_plan_id":"cebpf4jnsgd1na2vs0mg"},{"bike_id":"4c3f5181-160c-4329-bfa9-fa1ed02f4862","system_id":"levelo_inurba_marseille","lat":43.30959,"lon":5.390146,"is_reserved":false,"is_disabled":false,"rental_uris":{"android":"levelo://app?vid=4c3f5181-160c-4329-bfa9-fa1ed02f4862","ios":"levelo://app?vid=4c3f5181-160c-4329-bfa9-fa1ed02f4862"},"vehicle_type_id":"4","last_reported":1716239200,"current_range_meters":1200,"station_id":"ce4bgup2rcd13ifvqco0","pricing_plan_id":"cebpf4jnsgd1na2vs0mg"},{"bike_id":"62f669dd-71bd-4e9e-aca7-6e699f5da208","system_id":"levelo_inurba_marseille","lat":43.309589,"lon":5.390258,"is_reserved":false,"is_disabled":false,"rental_uris":{"android":"levelo://app?vid=62f669dd-71bd-4e9e-aca7-6e699f5da208","ios":"levelo://app?vid=62f669dd-71bd-4e9e-aca7-6e699f5da208"},"vehicle_type_id":"4","last_reported":1716239200,"current_range_meters":8000,"station_id":"ce4bgup2rcd13ifvqco0","pricing_plan_id":"cebpf4jnsgd1na2vs0mg"},{"bike_id":"0b969e03-47ac-4c9c-8e7b-9cdff8c0bca4","system_id":"levelo_inurba_marseille","lat":43.309589,"lon":5.390258,"is_reserved":false,"is_disabled":false,"rental_uris":{"android":"levelo://app?vid=0b969e03-47ac-4c9c-8e7b-9cdff8c0bca4","ios":"levelo://app?vid=0b969e03-47ac-4c9c-8e7b-9cdff8c0bca4"},"vehicle_type_id":"4","last_reported":1716239200,"current_range_meters":7600,"station_id":"ce4bgup2rcd13ifvqco0","pricing_plan_id":"cebpf4jnsgd1na2vs0mg"},{"bike_id":"71cc1adb-a96d-45b0-8b55-16497b958907","system_id":"levelo_inurba_marseille","lat":43.296952,"lon":5.376966,"is_reserved":false,"is_disabled":false,"rental_uris":{"android":"levelo://app?vid=71cc1adb-a96d-45b0-8b55-16497b958907","ios":"levelo://app?vid=71cc1adb-a96d-45b0-8b55-16497b958907"},"vehicle_type_id":"4","last_reported":1716239200,"current_range_meters":4000,"station_id":"ce4bgkh2rcd13ifvqbl0","pricing_plan_id":"cebpf4jnsgd1na2vs0mg"},{"bike_id":"68ac4a70-18e9-4a30-aa33-949eb8985754","system_id":"levelo_inurba_marseille","lat":43.309589,"lon":5.390258,"is_reserved":false,"is_disabled":false,"rental_uris":{"android":"levelo://app?vid=68ac4a70-18e9-4a30-aa33-949eb8985754","ios":"levelo://app?vid=68ac4a70-18e9-4a30-aa33-949eb8985754"},"vehicle_type_id":"4","last_reported":1716239200,"current_range_meters":22000,"station_id":"ce4bgup2rcd13ifvqco0","pricing_plan_id":"cebpf4jnsgd1na2vs0mg"},{"bike_id":"9456592b-a996-4fbf-9953-d3ef68d68196","system_id":"levelo_inurba_marseille","lat":43.298037,"lon":5.381066,"is_reserved":false,"is_disabled":false,"rental_uris":{"android":"levelo://app?vid=9456592b-a996-4fbf-9953-d3ef68d68196","ios":"levelo://app?vid=9456592b-a996-4fbf-9953-d3ef68d68196"},"vehicle_type_id":"4","last_reported":1716239200,"current_range_meters":4400,"station_id":"ce4bgip2rcd13ifvqbb0","pricing_plan_id":"cebpf4jnsgd1na2vs0mg"},{"bike_id":"4a30287a-307d-45f1-af6e-bf21b88c8550","system_id":"levelo_inurba_marseille","lat":43.317557,"lon":5.390173,"is_reserved":false,"is_disabled":false,"rental_uris":{"android":"levelo://app?vid=4a30287a-307d-45f1-af6e-bf21b88c8550","ios":"levelo://app?vid=4a30287a-307d-45f1-af6e-bf21b88c8550"},"vehicle_type_id":"4","last_reported":1716239200,"current_range_meters":15200,"station_id":"ce4bhqp2rcd13ifvqhng","pricing_plan_id":"cebpf4jnsgd1na2vs0mg"},{"bike_id":"90a1b8d0-b1d5-4302-ad22-e792dae59786","system_id":"levelo_inurba_marseille","lat":43.317557,"lon":5.390173,"is_reserved":false,"is_disabled":false,"rental_uris":{"android":"levelo://app?vid=90a1b8d0-b1d5-4302-ad22-e792dae59786","ios":"levelo://app?vid=90a1b8d0-b1d5-4302-ad22-e792dae59786"},"vehicle_type_id":"4","last_reported":1716239200,"current_range_meters":6800,"station_id":"ce4bhqp2rcd13ifvqhng","pricing_plan_id":"cebpf4jnsgd1na2vs0mg"},{"bike_id":"148c282e-efc1-44e6-addb-133c50df5c83","system_id":"levelo_inurba_marseille","lat":43.317557,"lon":5.390173,"is_reserved":false,"is_disabled":false,"rental_uris":{"android":"levelo://app?vid=148c282e-efc1-44e6-addb-133c50df5c83","ios":"levelo://app?vid=148c282e-efc1-44e6-addb-133c50df5c83"},"vehicle_type_id":"4","last_reported":1716239200,"current_range_meters":20800,"station_id":"ce4bhqp2rcd13ifvqhng","pricing_plan_id":"cebpf4jnsgd1na2vs0mg"},{"bike_id":"3ac2f96a-7f67-4460-8cab-51aeb90d5afb","system_id":"levelo_inurba_marseille","lat":43.317557,"lon":5.390173,"is_reserved":false,"is_disabled":false,"rental_uris":{"android":"levelo://app?vid=3ac2f96a-7f67-4460-8cab-51aeb90d5afb","ios":"levelo://app?vid=3ac2f96a-7f67-4460-8cab-51aeb90d5afb"},"vehicle_type_id":"4","last_reported":1716239200,"current_range_meters":13600,"station_id":"ce4bhqp2rcd13ifvqhng","pricing_plan_id":"cebpf4jnsgd1na2vs0mg"},{"bike_id":"1644fc64-f522-4b3e-aab6-db9b22d56ff0","system_id":"levelo_inurba_marseille","lat":43.317557,"lon":5.390173,"is_reserved":false,"is_disabled":false,"rental_uris":{"android":"levelo://app?vid=1644fc64-f522-4b3e-aab6-db9b22d56ff0","ios":"levelo://app?vid=1644fc64-f522-4b3e-aab6-db9b22d56ff0"},"vehicle_type_id":"4","last_reported":1716239200,"current_range_meters":17200,"station_id":"ce4bhqp2rcd13ifvqhng","pricing_plan_id":"cebpf4jnsgd1na2vs0mg"},{"bike_id":"6413d4c6-268a-4bfb-9e16-a40a1c7ca45a","system_id":"levelo_inurba_marseille","lat":43.298037,"lon":5.381066,"is_reserved":false,"is_disabled":false,"rental_uris":{"android":"levelo://app?vid=6413d4c6-268a-4bfb-9e16-a40a1c7ca45a","ios":"levelo://app?vid=6413d4c6-268a-4bfb-9e16-a40a1c7ca45a"},"vehicle_type_id":"4","last_reported":1716239200,"current_range_meters":25600,"station_id":"ce4bgip2rcd13ifvqbb0","pricing_plan_id":"cebpf4jnsgd1na2vs0mg"},{"bike_id":"bb84e9a4-1abf-466f-9c31-cea36119cb7e","system_id":"levelo_inurba_marseille","lat":43.304274,"lon":5.388873,"is_reserved":false,"is_disabled":false,"rental_uris":{"android":"levelo://app?vid=bb84e9a4-1abf-466f-9c31-cea36119cb7e","ios":"levelo://app?vid=bb84e9a4-1abf-466f-9c31-cea36119cb7e"},"vehicle_type_id":"4","last_reported":1716239200,"current_range_meters":31200,"station_id":"ce4bgk12rcd13ifvqbi0","pricing_plan_id":"cebpf4jnsgd1na2vs0mg"},{"bike_id":"fc7048e0-dd8c-498d-8c6f-790950b03cb8","system_id":"levelo_inurba_marseille","lat":43.295748,"lon":5.37522,"is_reserved":false,"is_disabled":false,"rental_uris":{"android":"levelo://app?vid=fc7048e0-dd8c-498d-8c6f-790950b03cb8","ios":"levelo://app?vid=fc7048e0-dd8c-498d-8c6f-790950b03cb8"},"vehicle_type_id":"4","last_reported":1716239200,"current_range_meters":14400,"station_id":"ce4bgh92rcd13ifvqb50","pricing_plan_id":"cebpf4jnsgd1na2vs0mg"},{"bike_id":"efdb59e4-9128-4ee2-b797-2c9060793327","system_id":"levelo_inurba_marseille","lat":43.295748,"lon":5.37522,"is_reserved":false,"is_disabled":false,"rental_uris":{"android":"levelo://app?vid=efdb59e4-9128-4ee2-b797-2c9060793327","ios":"levelo://app?vid=efdb59e4-9128-4ee2-b797-2c9060793327"},"vehicle_type_id":"4","last_reported":1716239200,"current_range_meters":16800,"station_id":"ce4bgh92rcd13ifvqb50","pricing_plan_id":"cebpf4jnsgd1na2vs0mg"},{"bike_id":"26448ac3-4464-4ce3-9b5a-a7a393d7ca01","system_id":"levelo_inurba_marseille","lat":43.29788,"lon":5.381021,"is_reserved":false,"is_disabled":false,"rental_uris":{"android":"levelo://app?vid=26448ac3-4464-4ce3-9b5a-a7a393d7ca01","ios":"levelo://app?vid=26448ac3-4464-4ce3-9b5a-a7a393d7ca01"},"vehicle_type_id":"4","last_reported":1716239200,"current_range_meters":0,"station_id":"ce4bgip2rcd13ifvqbb0","pricing_plan_id":"cebpf4jnsgd1na2vs0mg"},{"bike_id":"0dfb24b6-9b7c-460e-8736-61e403c101a9","system_id":"levelo_inurba_marseille","lat":43.304278,"lon":5.388874,"is_reserved":false,"is_disabled":false,"rental_uris":{"android":"levelo://app?vid=0dfb24b6-9b7c-460e-8736-61e403c101a9","ios":"levelo://app?vid=0dfb24b6-9b7c-460e-8736-61e403c101a9"},"vehicle_type_id":"4","last_reported":1716239200,"current_range_meters":31200,"station_id":"ce4bgk12rcd13ifvqbi0","pricing_plan_id":"cebpf4jnsgd1na2vs0mg"},{"bike_id":"3d606a97-c937-43d5-8b48-241e904002e4","system_id":"levelo_inurba_marseille","lat":43.304274,"lon":5.388873,"is_reserved":false,"is_disabled":false,"rental_uris":{"android":"levelo://app?vid=3d606a97-c937-43d5-8b48-241e904002e4","ios":"levelo://app?vid=3d606a97-c937-43d5-8b48-241e904002e4"},"vehicle_type_id":"4","last_reported":1716239200,"current_range_meters":14400,"station_id":"ce4bgk12rcd13ifvqbi0","pricing_plan_id":"cebpf4jnsgd1na2vs0mg"},{"bike_id":"e8d58c16-481b-40cb-8022-47e085a46cf7","system_id":"levelo_inurba_marseille","lat":43.30429,"lon":5.38891,"is_reserved":false,"is_disabled":false,"rental_uris":{"android":"levelo://app?vid=e8d58c16-481b-40cb-8022-47e085a46cf7","ios":"levelo://app?vid=e8d58c16-481b-40cb-8022-47e085a46cf7"},"vehicle_type_id":"4","last_reported":1716239200,"current_range_meters":20000,"station_id":"ce4bgk12rcd13ifvqbi0","pricing_plan_id":"cebpf4jnsgd1na2vs0mg"},{"bike_id":"04d091bf-6037-4fde-bc5e-af1748acf134","system_id":"levelo_inurba_marseille","lat":43.29562,"lon":5.37502,"is_reserved":false,"is_disabled":false,"rental_uris":{"android":"levelo://app?vid=04d091bf-6037-4fde-bc5e-af1748acf134","ios":"levelo://app?vid=04d091bf-6037-4fde-bc5e-af1748acf134"},"vehicle_type_id":"4","last_reported":1716239200,"current_range_meters":17200,"station_id":"","pricing_plan_id":"cebpf4jnsgd1na2vs0mg"},{"bike_id":"48e64c8d-b401-4c77-a17c-830b613c4180","system_id":"levelo_inurba_marseille","lat":43.298037,"lon":5.381066,"is_reserved":false,"is_disabled":false,"rental_uris":{"android":"levelo://app?vid=48e64c8d-b401-4c77-a17c-830b613c4180","ios":"levelo://app?vid=48e64c8d-b401-4c77-a17c-830b613c4180"},"vehicle_type_id":"4","last_reported":1716239200,"current_range_meters":2400,"station_id":"ce4bgip2rcd13ifvqbb0","pricing_plan_id":"cebpf4jnsgd1na2vs0mg"},{"bike_id":"7ad2f5ca-dbd5-41fc-be93-6b96e79ce112","system_id":"levelo_inurba_marseille","lat":43.296277,"lon":5.377108,"is_reserved":false,"is_disabled":false,"rental_uris":{"android":"levelo://app?vid=7ad2f5ca-dbd5-41fc-be93-6b96e79ce112","ios":"levelo://app?vid=7ad2f5ca-dbd5-41fc-be93-6b96e79ce112"},"vehicle_type_id":"4","last_reported":1716239200,"current_range_meters":3600,"station_id":"ce4bgi92rcd13ifvqb90","pricing_plan_id":"cebpf4jnsgd1na2vs0mg"},{"bike_id":"d014cf3e-048b-41f0-8f75-4b7171a47831","system_id":"levelo_inurba_marseille","lat":43.299724,"lon":5.384848,"is_reserved":false,"is_disabled":false,"rental_uris":{"android":"levelo://app?vid=d014cf3e-048b-41f0-8f75-4b7171a47831","ios":"levelo://app?vid=d014cf3e-048b-41f0-8f75-4b7171a47831"},"vehicle_type_id":"4","last_reported":1716239200,"current_range_meters":31200,"station_id":"ce4bgj92rcd13ifvqbd0","pricing_plan_id":"cebpf4jnsgd1na2vs0mg"},{"bike_id":"708617ae-deed-4baa-b037-64c445bb5e74","system_id":"levelo_inurba_marseille","lat":43.299717,"lon":5.384845,"is_reserved":false,"is_disabled":false,"rental_uris":{"android":"levelo://app?vid=708617ae-deed-4baa-b037-64c445bb5e74","ios":"levelo://app?vid=708617ae-deed-4baa-b037-64c445bb5e74"},"vehicle_type_id":"4","last_reported":1716239200,"current_range_meters":25600,"station_id":"ce4bgj92rcd13ifvqbd0","pricing_plan_id":"cebpf4jnsgd1na2vs0mg"},{"bike_id":"891e99a6-e0b9-408f-86e8-c5ca6451bd50","system_id":"levelo_inurba_marseille","lat":43.299717,"lon":5.384845,"is_reserved":false,"is_disabled":false,"rental_uris":{"android":"levelo://app?vid=891e99a6-e0b9-408f-86e8-c5ca6451bd50","ios":"levelo://app?vid=891e99a6-e0b9-408f-86e8-c5ca6451bd50"},"vehicle_type_id":"4","last_reported":1716239200,"current_range_meters":20000,"station_id":"ce4bgj92rcd13ifvqbd0","pricing_plan_id":"cebpf4jnsgd1na2vs0mg"},{"bike_id":"a4131378-5eab-4470-b9e6-316b6b4b9557","system_id":"levelo_inurba_marseille","lat":43.299717,"lon":5.384845,"is_reserved":false,"is_disabled":false,"rental_uris":{"android":"levelo://app?vid=a4131378-5eab-4470-b9e6-316b6b4b9557","ios":"levelo://app?vid=a4131378-5eab-4470-b9e6-316b6b4b9557"},"vehicle_type_id":"4","last_reported":1716239200,"current_range_meters":3200,"station_id":"ce4bgj92rcd13ifvqbd0","pricing_plan_id":"cebpf4jnsgd1na2vs0mg"},{"bike_id":"73d24a53-7f1e-447f-b1f1-5ed5cee06552","system_id":"levelo_inurba_marseille","lat":43.300806,"lon":5.386958,"is_reserved":false,"is_disabled":false,"rental_uris":{"android":"levelo://app?vid=73d24a53-7f1e-447f-b1f1-5ed5cee06552","ios":"levelo://app?vid=73d24a53-7f1e-447f-b1f1-5ed5cee06552"},"vehicle_type_id":"4","last_reported":1716239200,"current_range_meters":0,"station_id":"","pricing_plan_id":"cebpf4jnsgd1na2vs0mg"},{"bike_id":"78252e3e-8eff-4ccb-a142-6526e4cc39f4","system_id":"levelo_inurba_marseille","lat":43.30089,"lon":5.38729,"is_reserved":false,"is_disabled":false,"rental_uris":{"android":"levelo://app?vid=78252e3e-8eff-4ccb-a142-6526e4cc39f4","ios":"levelo://app?vid=78252e3e-8eff-4ccb-a142-6526e4cc39f4"},"vehicle_type_id":"4","last_reported":1716239200,"current_range_meters":18400,"station_id":"","pricing_plan_id":"cebpf4jnsgd1na2vs0mg"},{"bike_id":"0f07e7e5-da52-4283-8dab-7ba5b9ab81df","system_id":"levelo_inurba_marseille","lat":43.308012,"lon":5.381511,"is_reserved":false,"is_disabled":false,"rental_uris":{"android":"levelo://app?vid=0f07e7e5-da52-4283-8dab-7ba5b9ab81df","ios":"levelo://app?vid=0f07e7e5-da52-4283-8dab-7ba5b9ab81df"},"vehicle_type_id":"4","last_reported":1716239200,"current_range_meters":0,"station_id":"ce4bgt12rcd13ifvqce0","pricing_plan_id":"cebpf4jnsgd1na2vs0mg"},{"bike_id":"65811bef-151b-478e-bf91-b26ce1f2a1dd","system_id":"levelo_inurba_marseille","lat":43.32368,"lon":5.38881,"is_reserved":false,"is_disabled":false,"rental_uris":{"android":"levelo://app?vid=65811bef-151b-478e-bf91-b26ce1f2a1dd","ios":"levelo://app?vid=65811bef-151b-478e-bf91-b26ce1f2a1dd"},"vehicle_type_id":"4","last_reported":1716239200,"current_range_meters":31200,"station_id":"ce4bhqp2rcd13ifvqhog","pricing_plan_id":"cebpf4jnsgd1na2vs0mg"},{"bike_id":"c0aedf1a-79d0-4f21-b529-ef60a8147aad","system_id":"levelo_inurba_marseille","lat":43.32367,"lon":5.388836,"is_reserved":false,"is_disabled":false,"rental_uris":{"android":"levelo://app?vid=c0aedf1a-79d0-4f21-b529-ef60a8147aad","ios":"levelo://app?vid=c0aedf1a-79d0-4f21-b529-ef60a8147aad"},"vehicle_type_id":"4","last_reported":1716239200,"current_range_meters":4800,"station_id":"ce4bhqp2rcd13ifvqhog","pricing_plan_id":"cebpf4jnsgd1na2vs0mg"},{"bike_id":"cabc6c92-4d0d-43b8-823b-0e53a898c88b","system_id":"levelo_inurba_marseille","lat":43.32367,"lon":5.388836,"is_reserved":false,"is_disabled":false,"rental_uris":{"android":"levelo://app?vid=cabc6c92-4d0d-43b8-823b-0e53a898c88b","ios":"levelo://app?vid=cabc6c92-4d0d-43b8-823b-0e53a898c88b"},"vehicle_type_id":"4","last_reported":1716239200,"current_range_meters":24400,"station_id":"ce4bhqp2rcd13ifvqhog","pricing_plan_id":"cebpf4jnsgd1na2vs0mg"},{"bike_id":"534e668b-9e18-4477-b4dc-afc3bdfab49d","system_id":"levelo_inurba_marseille","lat":43.323657,"lon":5.388867,"is_reserved":false,"is_disabled":false,"rental_uris":{"android":"levelo://app?vid=534e668b-9e18-4477-b4dc-afc3bdfab49d","ios":"levelo://app?vid=534e668b-9e18-4477-b4dc-afc3bdfab49d"},"vehicle_type_id":"4","last_reported":1716239200,"current_range_meters":31200,"station_id":"ce4bhqp2rcd13ifvqhog","pricing_plan_id":"cebpf4jnsgd1na2vs0mg"},{"bike_id":"1e731210-6fd1-41ed-9fa3-f43977653544","system_id":"levelo_inurba_marseille","lat":43.32367,"lon":5.388836,"is_reserved":false,"is_disabled":false,"rental_uris":{"android":"levelo://app?vid=1e731210-6fd1-41ed-9fa3-f43977653544","ios":"levelo://app?vid=1e731210-6fd1-41ed-9fa3-f43977653544"},"vehicle_type_id":"4","last_reported":1716239200,"current_range_meters":0,"station_id":"ce4bhqp2rcd13ifvqhog","pricing_plan_id":"cebpf4jnsgd1na2vs0mg"},{"bike_id":"06df9d38-7e6a-4c84-b3b0-19e760d511fc","system_id":"levelo_inurba_marseille","lat":43.32368,"lon":5.38889,"is_reserved":false,"is_disabled":false,"rental_uris":{"android":"levelo://app?vid=06df9d38-7e6a-4c84-b3b0-19e760d511fc","ios":"levelo://app?vid=06df9d38-7e6a-4c84-b3b0-19e760d511fc"},"vehicle_type_id":"4","last_reported":1716239200,"current_range_meters":31200,"station_id":"ce4bhqp2rcd13ifvqhog","pricing_plan_id":"cebpf4jnsgd1na2vs0mg"},{"bike_id":"25500253-68b7-4ebf-9386-366bfd0fc124","system_id":"levelo_inurba_marseille","lat":43.29602,"lon":5.381084,"is_reserved":false,"is_disabled":false,"rental_uris":{"android":"levelo://app?vid=25500253-68b7-4ebf-9386-366bfd0fc124","ios":"levelo://app?vid=25500253-68b7-4ebf-9386-366bfd0fc124"},"vehicle_type_id":"4","last_reported":1716239200,"current_range_meters":0,"station_id":"ce4bgl12rcd13ifvqbo0","pricing_plan_id":"cebpf4jnsgd1na2vs0mg"},{"bike_id":"66fd271e-9bb1-44c0-b999-e022b4efdd07","system_id":"levelo_inurba_marseille","lat":43.29598,"lon":5.38106,"is_reserved":false,"is_disabled":false,"rental_uris":{"android":"levelo://app?vid=66fd271e-9bb1-44c0-b999-e022b4efdd07","ios":"levelo://app?vid=66fd271e-9bb1-44c0-b999-e022b4efdd07"},"vehicle_type_id":"4","last_reported":1716239200,"current_range_meters":14000,"station_id":"ce4bgl12rcd13ifvqbo0","pricing_plan_id":"cebpf4jnsgd1na2vs0mg"},{"bike_id":"57e13463-8ab6-4eb5-ac06-d3084a7dd520","system_id":"levelo_inurba_marseille","lat":43.29595,"lon":5.38104,"is_reserved":false,"is_disabled":false,"rental_uris":{"android":"levelo://app?vid=57e13463-8ab6-4eb5-ac06-d3084a7dd520","ios":"levelo://app?vid=57e13463-8ab6-4eb5-ac06-d3084a7dd520"},"vehicle_type_id":"4","last_reported":1716239200,"current_range_meters":12400,"station_id":"ce4bgl12rcd13ifvqbo0","pricing_plan_id":"cebpf4jnsgd1na2vs0mg"},{"bike_id":"c7635b53-b24d-463c-a865-2e029eff844b","system_id":"levelo_inurba_marseille","lat":43.29308,"lon":5.37177,"is_reserved":false,"is_disabled":false,"rental_uris":{"android":"levelo://app?vid=c7635b53-b24d-463c-a865-2e029eff844b","ios":"levelo://app?vid=c7635b53-b24d-463c-a865-2e029eff844b"},"vehicle_type_id":"4","last_reported":1716239200,"current_range_meters":22800,"station_id":"ce4bgh92rcd13ifvqb40","pricing_plan_id":"cebpf4jnsgd1na2vs0mg"},{"bike_id":"9d23cd29-7acb-43ef-a77e-727d291d82d3","system_id":"levelo_inurba_marseille","lat":43.292749,"lon":5.368402,"is_reserved":false,"is_disabled":false,"rental_uris":{"android":"levelo://app?vid=9d23cd29-7acb-43ef-a77e-727d291d82d3","ios":"levelo://app?vid=9d23cd29-7acb-43ef-a77e-727d291d82d3"},"vehicle_type_id":"4","last_reported":1716239200,"current_range_meters":11600,"station_id":"ce4bhbp2rcd13ifvqesg","pricing_plan_id":"cebpf4jnsgd1na2vs0mg"},{"bike_id":"5a7b268d-50c6-49ec-a7f1-03123063d381","system_id":"levelo_inurba_marseille","lat":43.293009,"lon":5.374584,"is_reserved":false,"is_disabled":false,"rental_uris":{"android":"levelo://app?vid=5a7b268d-50c6-49ec-a7f1-03123063d381","ios":"levelo://app?vid=5a7b268d-50c6-49ec-a7f1-03123063d381"},"vehicle_type_id":"4","last_reported":1716239200,"current_range_meters":0,"station_id":"ce4bgi12rcd13ifvqb70","pricing_plan_id":"cebpf4jnsgd1na2vs0mg"},{"bike_id":"ab151fd1-72f7-41c0-90da-84022dc44d36","system_id":"levelo_inurba_marseille","lat":43.305994,"lon":5.393687,"is_reserved":false,"is_disabled":false,"rental_uris":{"android":"levelo://app?vid=ab151fd1-72f7-41c0-90da-84022dc44d36","ios":"levelo://app?vid=ab151fd1-72f7-41c0-90da-84022dc44d36"},"vehicle_type_id":"4","last_reported":1716239200,"current_range_meters":28000,"station_id":"ce4bh0p2rcd13ifvqd80","pricing_plan_id":"cebpf4jnsgd1na2vs0mg"},{"bike_id":"cc072177-069a-47d7-881c-6daaf3867b80","system_id":"levelo_inurba_marseille","lat":43.305994,"lon":5.393687,"is_reserved":false,"is_disabled":false,"rental_uris":{"android":"levelo://app?vid=cc072177-069a-47d7-881c-6daaf3867b80","ios":"levelo://app?vid=cc072177-069a-47d7-881c-6daaf3867b80"},"vehicle_type_id":"4","last_reported":1716239200,"current_range_meters":31200,"station_id":"ce4bh0p2rcd13ifvqd80","pricing_plan_id":"cebpf4jnsgd1na2vs0mg"},{"bike_id":"4ab0de06-e583-49fc-8893-fae51b67ec86","system_id":"levelo_inurba_marseille","lat":43.305921,"lon":5.393487,"is_reserved":false,"is_disabled":false,"rental_uris":{"android":"levelo://app?vid=4ab0de06-e583-49fc-8893-fae51b67ec86","ios":"levelo://app?vid=4ab0de06-e583-49fc-8893-fae51b67ec86"},"vehicle_type_id":"4","last_reported":1716239200,"current_range_meters":31200,"station_id":"ce4bh0p2rcd13ifvqd80","pricing_plan_id":"cebpf4jnsgd1na2vs0mg"},{"bike_id":"7707de32-a363-448a-995a-4a6dfe20bcc5","system_id":"levelo_inurba_marseille","lat":43.305994,"lon":5.393687,"is_reserved":false,"is_disabled":false,"rental_uris":{"android":"levelo://app?vid=7707de32-a363-448a-995a-4a6dfe20bcc5","ios":"levelo://app?vid=7707de32-a363-448a-995a-4a6dfe20bcc5"},"vehicle_type_id":"4","last_reported":1716239200,"current_range_meters":26800,"station_id":"ce4bh0p2rcd13ifvqd80","pricing_plan_id":"cebpf4jnsgd1na2vs0mg"},{"bike_id":"cb404cc4-7a0d-4ee9-b42d-83fc50b556df","system_id":"levelo_inurba_marseille","lat":43.305994,"lon":5.393687,"is_reserved":false,"is_disabled":false,"rental_uris":{"android":"levelo://app?vid=cb404cc4-7a0d-4ee9-b42d-83fc50b556df","ios":"levelo://app?vid=cb404cc4-7a0d-4ee9-b42d-83fc50b556df"},"vehicle_type_id":"4","last_reported":1716239200,"current_range_meters":30400,"station_id":"ce4bh0p2rcd13ifvqd80","pricing_plan_id":"cebpf4jnsgd1na2vs0mg"},{"bike_id":"5a3b8742-1410-4526-b0e3-57a6207ff18b","system_id":"levelo_inurba_marseille","lat":43.30607,"lon":5.39358,"is_reserved":false,"is_disabled":false,"rental_uris":{"android":"levelo://app?vid=5a3b8742-1410-4526-b0e3-57a6207ff18b","ios":"levelo://app?vid=5a3b8742-1410-4526-b0e3-57a6207ff18b"},"vehicle_type_id":"4","last_reported":1716239200,"current_range_meters":28000,"station_id":"ce4bh0p2rcd13ifvqd80","pricing_plan_id":"cebpf4jnsgd1na2vs0mg"},{"bike_id":"fc019636-f6dd-4172-9ac2-de00660d3bcb","system_id":"levelo_inurba_marseille","lat":43.305994,"lon":5.393687,"is_reserved":false,"is_disabled":false,"rental_uris":{"android":"levelo://app?vid=fc019636-f6dd-4172-9ac2-de00660d3bcb","ios":"levelo://app?vid=fc019636-f6dd-4172-9ac2-de00660d3bcb"},"vehicle_type_id":"4","last_reported":1716239200,"current_range_meters":13600,"station_id":"ce4bh0p2rcd13ifvqd80","pricing_plan_id":"cebpf4jnsgd1na2vs0mg"},{"bike_id":"cf0f9f2b-e31f-4bd3-b64f-f091360fad58","system_id":"levelo_inurba_marseille","lat":43.305994,"lon":5.393687,"is_reserved":false,"is_disabled":false,"rental_uris":{"android":"levelo://app?vid=cf0f9f2b-e31f-4bd3-b64f-f091360fad58","ios":"levelo://app?vid=cf0f9f2b-e31f-4bd3-b64f-f091360fad58"},"vehicle_type_id":"4","last_reported":1716239200,"current_range_meters":26000,"station_id":"ce4bh0p2rcd13ifvqd80","pricing_plan_id":"cebpf4jnsgd1na2vs0mg"},{"bike_id":"3391f782-bd68-46a2-9ea0-7ca29ee3ff7d","system_id":"levelo_inurba_marseille","lat":43.293009,"lon":5.374584,"is_reserved":false,"is_disabled":false,"rental_uris":{"android":"levelo://app?vid=3391f782-bd68-46a2-9ea0-7ca29ee3ff7d","ios":"levelo://app?vid=3391f782-bd68-46a2-9ea0-7ca29ee3ff7d"},"vehicle_type_id":"4","last_reported":1716239200,"current_range_meters":6000,"station_id":"ce4bgi12rcd13ifvqb70","pricing_plan_id":"cebpf4jnsgd1na2vs0mg"},{"bike_id":"9a2d5191-9053-4be9-8137-a57ac57ebaf2","system_id":"levelo_inurba_marseille","lat":43.305994,"lon":5.393687,"is_reserved":false,"is_disabled":false,"rental_uris":{"android":"levelo://app?vid=9a2d5191-9053-4be9-8137-a57ac57ebaf2","ios":"levelo://app?vid=9a2d5191-9053-4be9-8137-a57ac57ebaf2"},"vehicle_type_id":"4","last_reported":1716239200,"current_range_meters":18800,"station_id":"ce4bh0p2rcd13ifvqd80","pricing_plan_id":"cebpf4jnsgd1na2vs0mg"},{"bike_id":"18d7bb7e-0565-4eed-9206-c7c566bb2a8d","system_id":"levelo_inurba_marseille","lat":43.305994,"lon":5.393687,"is_reserved":false,"is_disabled":false,"rental_uris":{"android":"levelo://app?vid=18d7bb7e-0565-4eed-9206-c7c566bb2a8d","ios":"levelo://app?vid=18d7bb7e-0565-4eed-9206-c7c566bb2a8d"},"vehicle_type_id":"4","last_reported":1716239200,"current_range_meters":31600,"station_id":"ce4bh0p2rcd13ifvqd80","pricing_plan_id":"cebpf4jnsgd1na2vs0mg"},{"bike_id":"0b49df7a-6e6e-4886-810e-250bbddffc57","system_id":"levelo_inurba_marseille","lat":43.305994,"lon":5.393687,"is_reserved":false,"is_disabled":false,"rental_uris":{"android":"levelo://app?vid=0b49df7a-6e6e-4886-810e-250bbddffc57","ios":"levelo://app?vid=0b49df7a-6e6e-4886-810e-250bbddffc57"},"vehicle_type_id":"4","last_reported":1716239200,"current_range_meters":14400,"station_id":"ce4bh0p2rcd13ifvqd80","pricing_plan_id":"cebpf4jnsgd1na2vs0mg"},{"bike_id":"a9230e70-d2d1-4829-b8e3-e44b4f451980","system_id":"levelo_inurba_marseille","lat":43.305994,"lon":5.393687,"is_reserved":false,"is_disabled":false,"rental_uris":{"android":"levelo://app?vid=a9230e70-d2d1-4829-b8e3-e44b4f451980","ios":"levelo://app?vid=a9230e70-d2d1-4829-b8e3-e44b4f451980"},"vehicle_type_id":"4","last_reported":1716239200,"current_range_meters":19600,"station_id":"ce4bh0p2rcd13ifvqd80","pricing_plan_id":"cebpf4jnsgd1na2vs0mg"},{"bike_id":"ead9eeff-bbb9-4a31-8dea-d55f7521f0ce","system_id":"levelo_inurba_marseille","lat":43.303002,"lon":5.392142,"is_reserved":false,"is_disabled":false,"rental_uris":{"android":"levelo://app?vid=ead9eeff-bbb9-4a31-8dea-d55f7521f0ce","ios":"levelo://app?vid=ead9eeff-bbb9-4a31-8dea-d55f7521f0ce"},"vehicle_type_id":"4","last_reported":1716239200,"current_range_meters":24800,"station_id":"ce4bgkh2rcd13ifvqbk0","pricing_plan_id":"cebpf4jnsgd1na2vs0mg"},{"bike_id":"6277d591-51b5-4a1b-a0dd-19b1138c463e","system_id":"levelo_inurba_marseille","lat":43.303002,"lon":5.392142,"is_reserved":false,"is_disabled":false,"rental_uris":{"android":"levelo://app?vid=6277d591-51b5-4a1b-a0dd-19b1138c463e","ios":"levelo://app?vid=6277d591-51b5-4a1b-a0dd-19b1138c463e"},"vehicle_type_id":"4","last_reported":1716239200,"current_range_meters":1600,"station_id":"ce4bgkh2rcd13ifvqbk0","pricing_plan_id":"cebpf4jnsgd1na2vs0mg"},{"bike_id":"34721040-993a-4755-9c68-6b3d8ae2b569","system_id":"levelo_inurba_marseille","lat":43.302992,"lon":5.392136,"is_reserved":false,"is_disabled":false,"rental_uris":{"android":"levelo://app?vid=34721040-993a-4755-9c68-6b3d8ae2b569","ios":"levelo://app?vid=34721040-993a-4755-9c68-6b3d8ae2b569"},"vehicle_type_id":"4","last_reported":1716239200,"current_range_meters":7600,"station_id":"ce4bgkh2rcd13ifvqbk0","pricing_plan_id":"cebpf4jnsgd1na2vs0mg"},{"bike_id":"84b8c4df-46b4-4d0a-bda3-dbc48def70be","system_id":"levelo_inurba_marseille","lat":43.302992,"lon":5.392136,"is_reserved":false,"is_disabled":false,"rental_uris":{"android":"levelo://app?vid=84b8c4df-46b4-4d0a-bda3-dbc48def70be","ios":"levelo://app?vid=84b8c4df-46b4-4d0a-bda3-dbc48def70be"},"vehicle_type_id":"4","last_reported":1716239200,"current_range_meters":18400,"station_id":"ce4bgkh2rcd13ifvqbk0","pricing_plan_id":"cebpf4jnsgd1na2vs0mg"},{"bike_id":"304ab567-8b9e-4f7d-9bf6-274be96764d9","system_id":"levelo_inurba_marseille","lat":43.293009,"lon":5.374584,"is_reserved":false,"is_disabled":false,"rental_uris":{"android":"levelo://app?vid=304ab567-8b9e-4f7d-9bf6-274be96764d9","ios":"levelo://app?vid=304ab567-8b9e-4f7d-9bf6-274be96764d9"},"vehicle_type_id":"4","last_reported":1716239200,"current_range_meters":10400,"station_id":"ce4bgi12rcd13ifvqb70","pricing_plan_id":"cebpf4jnsgd1na2vs0mg"},{"bike_id":"d21b44a2-418e-498f-9155-79c56b0fd74b","system_id":"levelo_inurba_marseille","lat":43.292311,"lon":5.360731,"is_reserved":false,"is_disabled":false,"rental_uris":{"android":"levelo://app?vid=d21b44a2-418e-498f-9155-79c56b0fd74b","ios":"levelo://app?vid=d21b44a2-418e-498f-9155-79c56b0fd74b"},"vehicle_type_id":"4","last_reported":1716239200,"current_range_meters":22000,"station_id":"ce4bhbh2rcd13ifvqeqg","pricing_plan_id":"cebpf4jnsgd1na2vs0mg"},{"bike_id":"ed030049-67f0-4b11-bc68-cd87cde5f5f1","system_id":"levelo_inurba_marseille","lat":43.292311,"lon":5.360731,"is_reserved":false,"is_disabled":false,"rental_uris":{"android":"levelo://app?vid=ed030049-67f0-4b11-bc68-cd87cde5f5f1","ios":"levelo://app?vid=ed030049-67f0-4b11-bc68-cd87cde5f5f1"},"vehicle_type_id":"4","last_reported":1716239200,"current_range_meters":19600,"station_id":"ce4bhbh2rcd13ifvqeqg","pricing_plan_id":"cebpf4jnsgd1na2vs0mg"},{"bike_id":"7f736aea-8da3-495b-9bde-f1ea2d0f01f1","system_id":"levelo_inurba_marseille","lat":43.292311,"lon":5.360731,"is_reserved":false,"is_disabled":false,"rental_uris":{"android":"levelo://app?vid=7f736aea-8da3-495b-9bde-f1ea2d0f01f1","ios":"levelo://app?vid=7f736aea-8da3-495b-9bde-f1ea2d0f01f1"},"vehicle_type_id":"4","last_reported":1716239200,"current_range_meters":25600,"station_id":"ce4bhbh2rcd13ifvqeqg","pricing_plan_id":"cebpf4jnsgd1na2vs0mg"},{"bike_id":"1f8b358c-ec6c-4384-8c5c-ae3a0c057e57","system_id":"levelo_inurba_marseille","lat":43.30094,"lon":5.390828,"is_reserved":false,"is_disabled":false,"rental_uris":{"android":"levelo://app?vid=1f8b358c-ec6c-4384-8c5c-ae3a0c057e57","ios":"levelo://app?vid=1f8b358c-ec6c-4384-8c5c-ae3a0c057e57"},"vehicle_type_id":"4","last_reported":1716239200,"current_range_meters":24400,"station_id":"","pricing_plan_id":"cebpf4jnsgd1na2vs0mg"},{"bike_id":"e161245c-deb3-452f-b664-475113bc7f78","system_id":"levelo_inurba_marseille","lat":43.30085,"lon":5.390856,"is_reserved":false,"is_disabled":false,"rental_uris":{"android":"levelo://app?vid=e161245c-deb3-452f-b664-475113bc7f78","ios":"levelo://app?vid=e161245c-deb3-452f-b664-475113bc7f78"},"vehicle_type_id":"4","last_reported":1716239200,"current_range_meters":18000,"station_id":"ce4bh192rcd13ifvqdb0","pricing_plan_id":"cebpf4jnsgd1na2vs0mg"},{"bike_id":"0e1ae9f2-3dac-4ee8-97a0-9b69380d56b6","system_id":"levelo_inurba_marseille","lat":43.30085,"lon":5.390856,"is_reserved":false,"is_disabled":false,"rental_uris":{"android":"levelo://app?vid=0e1ae9f2-3dac-4ee8-97a0-9b69380d56b6","ios":"levelo://app?vid=0e1ae9f2-3dac-4ee8-97a0-9b69380d56b6"},"vehicle_type_id":"4","last_reported":1716239200,"current_range_meters":27600,"station_id":"ce4bh192rcd13ifvqdb0","pricing_plan_id":"cebpf4jnsgd1na2vs0mg"},{"bike_id":"7c861c89-1ff0-40fa-b9a3-bfb0f6b050f2","system_id":"levelo_inurba_marseille","lat":43.300852,"lon":5.390859,"is_reserved":false,"is_disabled":false,"rental_uris":{"android":"levelo://app?vid=7c861c89-1ff0-40fa-b9a3-bfb0f6b050f2","ios":"levelo://app?vid=7c861c89-1ff0-40fa-b9a3-bfb0f6b050f2"},"vehicle_type_id":"4","last_reported":1716239200,"current_range_meters":21200,"station_id":"ce4bh192rcd13ifvqdb0","pricing_plan_id":"cebpf4jnsgd1na2vs0mg"},{"bike_id":"89b8a553-79bf-43bb-8f8c-0b16ee5088d6","system_id":"levelo_inurba_marseille","lat":43.298764,"lon":5.388973,"is_reserved":false,"is_disabled":false,"rental_uris":{"android":"levelo://app?vid=89b8a553-79bf-43bb-8f8c-0b16ee5088d6","ios":"levelo://app?vid=89b8a553-79bf-43bb-8f8c-0b16ee5088d6"},"vehicle_type_id":"4","last_reported":1716239200,"current_range_meters":16400,"station_id":"ce4bh392rcd13ifvqdl0","pricing_plan_id":"cebpf4jnsgd1na2vs0mg"},{"bike_id":"5a347f3a-f94b-4426-ae53-3461e087f6d7","system_id":"levelo_inurba_marseille","lat":43.29174,"lon":5.37139,"is_reserved":false,"is_disabled":false,"rental_uris":{"android":"levelo://app?vid=5a347f3a-f94b-4426-ae53-3461e087f6d7","ios":"levelo://app?vid=5a347f3a-f94b-4426-ae53-3461e087f6d7"},"vehicle_type_id":"4","last_reported":1716239200,"current_range_meters":0,"station_id":"ce4bha92rcd13ifvqeh0","pricing_plan_id":"cebpf4jnsgd1na2vs0mg"},{"bike_id":"5634e8ba-2113-4f67-83a6-32e3f0c23b55","system_id":"levelo_inurba_marseille","lat":43.298764,"lon":5.388973,"is_reserved":false,"is_disabled":false,"rental_uris":{"android":"levelo://app?vid=5634e8ba-2113-4f67-83a6-32e3f0c23b55","ios":"levelo://app?vid=5634e8ba-2113-4f67-83a6-32e3f0c23b55"},"vehicle_type_id":"4","last_reported":1716239200,"current_range_meters":30400,"station_id":"ce4bh392rcd13ifvqdl0","pricing_plan_id":"cebpf4jnsgd1na2vs0mg"},{"bike_id":"1ab952b0-53e4-4f39-bf6c-fb032c5223f5","system_id":"levelo_inurba_marseille","lat":43.29171,"lon":5.371387,"is_reserved":false,"is_disabled":false,"rental_uris":{"android":"levelo://app?vid=1ab952b0-53e4-4f39-bf6c-fb032c5223f5","ios":"levelo://app?vid=1ab952b0-53e4-4f39-bf6c-fb032c5223f5"},"vehicle_type_id":"4","last_reported":1716239200,"current_range_meters":28000,"station_id":"ce4bha92rcd13ifvqeh0","pricing_plan_id":"cebpf4jnsgd1na2vs0mg"},{"bike_id":"8a93b728-fabe-4194-90e2-7fb7088dc984","system_id":"levelo_inurba_marseille","lat":43.298764,"lon":5.388973,"is_reserved":false,"is_disabled":false,"rental_uris":{"android":"levelo://app?vid=8a93b728-fabe-4194-90e2-7fb7088dc984","ios":"levelo://app?vid=8a93b728-fabe-4194-90e2-7fb7088dc984"},"vehicle_type_id":"4","last_reported":1716239200,"current_range_meters":31200,"station_id":"ce4bh392rcd13ifvqdl0","pricing_plan_id":"cebpf4jnsgd1na2vs0mg"},{"bike_id":"fe1786a0-b2f9-48ca-8b4a-88294c165a2f","system_id":"levelo_inurba_marseille","lat":43.298764,"lon":5.388973,"is_reserved":false,"is_disabled":false,"rental_uris":{"android":"levelo://app?vid=fe1786a0-b2f9-48ca-8b4a-88294c165a2f","ios":"levelo://app?vid=fe1786a0-b2f9-48ca-8b4a-88294c165a2f"},"vehicle_type_id":"4","last_reported":1716239200,"current_range_meters":12000,"station_id":"ce4bh392rcd13ifvqdl0","pricing_plan_id":"cebpf4jnsgd1na2vs0mg"},{"bike_id":"2e22837f-6dd6-4118-b086-67629197f57c","system_id":"levelo_inurba_marseille","lat":43.298764,"lon":5.388973,"is_reserved":false,"is_disabled":false,"rental_uris":{"android":"levelo://app?vid=2e22837f-6dd6-4118-b086-67629197f57c","ios":"levelo://app?vid=2e22837f-6dd6-4118-b086-67629197f57c"},"vehicle_type_id":"4","last_reported":1716239200,"current_range_meters":31200,"station_id":"ce4bh392rcd13ifvqdl0","pricing_plan_id":"cebpf4jnsgd1na2vs0mg"},{"bike_id":"aa835f93-ca68-43bd-a836-d995337200e2","system_id":"levelo_inurba_marseille","lat":43.298764,"lon":5.388973,"is_reserved":false,"is_disabled":false,"rental_uris":{"android":"levelo://app?vid=aa835f93-ca68-43bd-a836-d995337200e2","ios":"levelo://app?vid=aa835f93-ca68-43bd-a836-d995337200e2"},"vehicle_type_id":"4","last_reported":1716239200,"current_range_meters":31200,"station_id":"ce4bh392rcd13ifvqdl0","pricing_plan_id":"cebpf4jnsgd1na2vs0mg"},{"bike_id":"35961dd6-83a6-4520-8afe-f3cedafa9752","system_id":"levelo_inurba_marseille","lat":43.298675,"lon":5.389061,"is_reserved":false,"is_disabled":false,"rental_uris":{"android":"levelo://app?vid=35961dd6-83a6-4520-8afe-f3cedafa9752","ios":"levelo://app?vid=35961dd6-83a6-4520-8afe-f3cedafa9752"},"vehicle_type_id":"4","last_reported":1716239200,"current_range_meters":30800,"station_id":"ce4bh392rcd13ifvqdl0","pricing_plan_id":"cebpf4jnsgd1na2vs0mg"},{"bike_id":"d577fbf8-d170-401c-8aa7-41407284ed2d","system_id":"levelo_inurba_marseille","lat":43.298764,"lon":5.388973,"is_reserved":false,"is_disabled":false,"rental_uris":{"android":"levelo://app?vid=d577fbf8-d170-401c-8aa7-41407284ed2d","ios":"levelo://app?vid=d577fbf8-d170-401c-8aa7-41407284ed2d"},"vehicle_type_id":"4","last_reported":1716239200,"current_range_meters":22400,"station_id":"ce4bh392rcd13ifvqdl0","pricing_plan_id":"cebpf4jnsgd1na2vs0mg"},{"bike_id":"42d67619-ca10-471b-91b5-5fe76cf0c354","system_id":"levelo_inurba_marseille","lat":43.298764,"lon":5.388973,"is_reserved":false,"is_disabled":false,"rental_uris":{"android":"levelo://app?vid=42d67619-ca10-471b-91b5-5fe76cf0c354","ios":"levelo://app?vid=42d67619-ca10-471b-91b5-5fe76cf0c354"},"vehicle_type_id":"4","last_reported":1716239200,"current_range_meters":13600,"station_id":"ce4bh392rcd13ifvqdl0","pricing_plan_id":"cebpf4jnsgd1na2vs0mg"},{"bike_id":"6fb11c0d-c90a-4fec-91d6-67d7607654a4","system_id":"levelo_inurba_marseille","lat":43.313291,"lon":5.396838,"is_reserved":false,"is_disabled":false,"rental_uris":{"android":"levelo://app?vid=6fb11c0d-c90a-4fec-91d6-67d7607654a4","ios":"levelo://app?vid=6fb11c0d-c90a-4fec-91d6-67d7607654a4"},"vehicle_type_id":"4","last_reported":1716239200,"current_range_meters":10400,"station_id":"ce4bgvp2rcd13ifvqcu0","pricing_plan_id":"cebpf4jnsgd1na2vs0mg"},{"bike_id":"8dd2e8c2-df3a-49bb-ba77-3e17a73e9b6d","system_id":"levelo_inurba_marseille","lat":43.30887,"lon":5.39622,"is_reserved":false,"is_disabled":false,"rental_uris":{"android":"levelo://app?vid=8dd2e8c2-df3a-49bb-ba77-3e17a73e9b6d","ios":"levelo://app?vid=8dd2e8c2-df3a-49bb-ba77-3e17a73e9b6d"},"vehicle_type_id":"4","last_reported":1716239200,"current_range_meters":8000,"station_id":"ce4bh012rcd13ifvqcv0","pricing_plan_id":"cebpf4jnsgd1na2vs0mg"},{"bike_id":"14cc3f27-b2c7-4e44-b9b2-72e6caa83491","system_id":"levelo_inurba_marseille","lat":43.309038,"lon":5.396546,"is_reserved":false,"is_disabled":false,"rental_uris":{"android":"levelo://app?vid=14cc3f27-b2c7-4e44-b9b2-72e6caa83491","ios":"levelo://app?vid=14cc3f27-b2c7-4e44-b9b2-72e6caa83491"},"vehicle_type_id":"4","last_reported":1716239200,"current_range_meters":31200,"station_id":"ce4bh012rcd13ifvqcv0","pricing_plan_id":"cebpf4jnsgd1na2vs0mg"},{"bike_id":"29874e61-b4bb-4dc3-9a75-43e214f827f6","system_id":"levelo_inurba_marseille","lat":43.309038,"lon":5.396546,"is_reserved":false,"is_disabled":false,"rental_uris":{"android":"levelo://app?vid=29874e61-b4bb-4dc3-9a75-43e214f827f6","ios":"levelo://app?vid=29874e61-b4bb-4dc3-9a75-43e214f827f6"},"vehicle_type_id":"4","last_reported":1716239200,"current_range_meters":29200,"station_id":"ce4bh012rcd13ifvqcv0","pricing_plan_id":"cebpf4jnsgd1na2vs0mg"},{"bike_id":"e2902e5a-851a-4a2f-b350-73331cd36f6f","system_id":"levelo_inurba_marseille","lat":43.30881,"lon":5.39636,"is_reserved":false,"is_disabled":false,"rental_uris":{"android":"levelo://app?vid=e2902e5a-851a-4a2f-b350-73331cd36f6f","ios":"levelo://app?vid=e2902e5a-851a-4a2f-b350-73331cd36f6f"},"vehicle_type_id":"4","last_reported":1716239200,"current_range_meters":29200,"station_id":"ce4bh012rcd13ifvqcv0","pricing_plan_id":"cebpf4jnsgd1na2vs0mg"},{"bike_id":"4b90ca5d-d9b8-4490-ba92-803e63181438","system_id":"levelo_inurba_marseille","lat":43.309038,"lon":5.396546,"is_reserved":false,"is_disabled":false,"rental_uris":{"android":"levelo://app?vid=4b90ca5d-d9b8-4490-ba92-803e63181438","ios":"levelo://app?vid=4b90ca5d-d9b8-4490-ba92-803e63181438"},"vehicle_type_id":"4","last_reported":1716239200,"current_range_meters":25200,"station_id":"ce4bh012rcd13ifvqcv0","pricing_plan_id":"cebpf4jnsgd1na2vs0mg"},{"bike_id":"8856ad23-83f4-4971-a8c5-1329f8425f3f","system_id":"levelo_inurba_marseille","lat":43.309047,"lon":5.396551,"is_reserved":false,"is_disabled":false,"rental_uris":{"android":"levelo://app?vid=8856ad23-83f4-4971-a8c5-1329f8425f3f","ios":"levelo://app?vid=8856ad23-83f4-4971-a8c5-1329f8425f3f"},"vehicle_type_id":"4","last_reported":1716239200,"current_range_meters":28000,"station_id":"ce4bh012rcd13ifvqcv0","pricing_plan_id":"cebpf4jnsgd1na2vs0mg"},{"bike_id":"4c8960ce-efea-4863-916c-5b6e6ef3666e","system_id":"levelo_inurba_marseille","lat":43.309038,"lon":5.396546,"is_reserved":false,"is_disabled":false,"rental_uris":{"android":"levelo://app?vid=4c8960ce-efea-4863-916c-5b6e6ef3666e","ios":"levelo://app?vid=4c8960ce-efea-4863-916c-5b6e6ef3666e"},"vehicle_type_id":"4","last_reported":1716239200,"current_range_meters":13200,"station_id":"ce4bh012rcd13ifvqcv0","pricing_plan_id":"cebpf4jnsgd1na2vs0mg"},{"bike_id":"b4ec62ee-726b-4bbc-b321-4a786dffda71","system_id":"levelo_inurba_marseille","lat":43.309038,"lon":5.396546,"is_reserved":false,"is_disabled":false,"rental_uris":{"android":"levelo://app?vid=b4ec62ee-726b-4bbc-b321-4a786dffda71","ios":"levelo://app?vid=b4ec62ee-726b-4bbc-b321-4a786dffda71"},"vehicle_type_id":"4","last_reported":1716239200,"current_range_meters":20800,"station_id":"ce4bh012rcd13ifvqcv0","pricing_plan_id":"cebpf4jnsgd1na2vs0mg"},{"bike_id":"c148bad8-e871-4237-9410-bc1de049a9bd","system_id":"levelo_inurba_marseille","lat":43.30881,"lon":5.39641,"is_reserved":false,"is_disabled":false,"rental_uris":{"android":"levelo://app?vid=c148bad8-e871-4237-9410-bc1de049a9bd","ios":"levelo://app?vid=c148bad8-e871-4237-9410-bc1de049a9bd"},"vehicle_type_id":"4","last_reported":1716239200,"current_range_meters":19200,"station_id":"ce4bh012rcd13ifvqcv0","pricing_plan_id":"cebpf4jnsgd1na2vs0mg"},{"bike_id":"a780771f-96df-4eaa-9478-8d16d242928f","system_id":"levelo_inurba_marseille","lat":43.291994,"lon":5.357886,"is_reserved":false,"is_disabled":false,"rental_uris":{"android":"levelo://app?vid=a780771f-96df-4eaa-9478-8d16d242928f","ios":"levelo://app?vid=a780771f-96df-4eaa-9478-8d16d242928f"},"vehicle_type_id":"4","last_reported":1716239200,"current_range_meters":23600,"station_id":"ce4bhb12rcd13ifvqel0","pricing_plan_id":"cebpf4jnsgd1na2vs0mg"},{"bike_id":"413eaeab-4868-4fe4-82eb-377c3939ed76","system_id":"levelo_inurba_marseille","lat":43.309038,"lon":5.396546,"is_reserved":false,"is_disabled":false,"rental_uris":{"android":"levelo://app?vid=413eaeab-4868-4fe4-82eb-377c3939ed76","ios":"levelo://app?vid=413eaeab-4868-4fe4-82eb-377c3939ed76"},"vehicle_type_id":"4","last_reported":1716239200,"current_range_meters":31200,"station_id":"ce4bh012rcd13ifvqcv0","pricing_plan_id":"cebpf4jnsgd1na2vs0mg"},{"bike_id":"20795824-3eb6-41e5-bab8-562a7a838bea","system_id":"levelo_inurba_marseille","lat":43.309038,"lon":5.396546,"is_reserved":false,"is_disabled":false,"rental_uris":{"android":"levelo://app?vid=20795824-3eb6-41e5-bab8-562a7a838bea","ios":"levelo://app?vid=20795824-3eb6-41e5-bab8-562a7a838bea"},"vehicle_type_id":"4","last_reported":1716239200,"current_range_meters":31200,"station_id":"ce4bh012rcd13ifvqcv0","pricing_plan_id":"cebpf4jnsgd1na2vs0mg"},{"bike_id":"a03f9e36-6e14-481d-8229-b0406734dcc9","system_id":"levelo_inurba_marseille","lat":43.309038,"lon":5.396546,"is_reserved":false,"is_disabled":false,"rental_uris":{"android":"levelo://app?vid=a03f9e36-6e14-481d-8229-b0406734dcc9","ios":"levelo://app?vid=a03f9e36-6e14-481d-8229-b0406734dcc9"},"vehicle_type_id":"4","last_reported":1716239200,"current_range_meters":31200,"station_id":"ce4bh012rcd13ifvqcv0","pricing_plan_id":"cebpf4jnsgd1na2vs0mg"},{"bike_id":"27f89cec-ec73-4e81-8ecb-e931afcdef17","system_id":"levelo_inurba_marseille","lat":43.30887,"lon":5.39645,"is_reserved":false,"is_disabled":false,"rental_uris":{"android":"levelo://app?vid=27f89cec-ec73-4e81-8ecb-e931afcdef17","ios":"levelo://app?vid=27f89cec-ec73-4e81-8ecb-e931afcdef17"},"vehicle_type_id":"4","last_reported":1716239200,"current_range_meters":31200,"station_id":"ce4bh012rcd13ifvqcv0","pricing_plan_id":"cebpf4jnsgd1na2vs0mg"},{"bike_id":"96deb415-42c3-4371-8df0-818d56f0e63d","system_id":"levelo_inurba_marseille","lat":43.291994,"lon":5.357886,"is_reserved":false,"is_disabled":false,"rental_uris":{"android":"levelo://app?vid=96deb415-42c3-4371-8df0-818d56f0e63d","ios":"levelo://app?vid=96deb415-42c3-4371-8df0-818d56f0e63d"},"vehicle_type_id":"4","last_reported":1716239200,"current_range_meters":20400,"station_id":"ce4bhb12rcd13ifvqel0","pricing_plan_id":"cebpf4jnsgd1na2vs0mg"},{"bike_id":"4d147f01-fdbc-4de7-acd7-941ed977fd9e","system_id":"levelo_inurba_marseille","lat":43.309038,"lon":5.396546,"is_reserved":false,"is_disabled":false,"rental_uris":{"android":"levelo://app?vid=4d147f01-fdbc-4de7-acd7-941ed977fd9e","ios":"levelo://app?vid=4d147f01-fdbc-4de7-acd7-941ed977fd9e"},"vehicle_type_id":"4","last_reported":1716239200,"current_range_meters":24400,"station_id":"ce4bh012rcd13ifvqcv0","pricing_plan_id":"cebpf4jnsgd1na2vs0mg"},{"bike_id":"2b0a76a6-04b4-4479-a600-46616454a6f6","system_id":"levelo_inurba_marseille","lat":43.309038,"lon":5.396546,"is_reserved":false,"is_disabled":false,"rental_uris":{"android":"levelo://app?vid=2b0a76a6-04b4-4479-a600-46616454a6f6","ios":"levelo://app?vid=2b0a76a6-04b4-4479-a600-46616454a6f6"},"vehicle_type_id":"4","last_reported":1716239200,"current_range_meters":10000,"station_id":"ce4bh012rcd13ifvqcv0","pricing_plan_id":"cebpf4jnsgd1na2vs0mg"},{"bike_id":"927bcfcd-ad18-4fa9-8ecd-f943ff65b14a","system_id":"levelo_inurba_marseille","lat":43.313291,"lon":5.396838,"is_reserved":false,"is_disabled":false,"rental_uris":{"android":"levelo://app?vid=927bcfcd-ad18-4fa9-8ecd-f943ff65b14a","ios":"levelo://app?vid=927bcfcd-ad18-4fa9-8ecd-f943ff65b14a"},"vehicle_type_id":"4","last_reported":1716239200,"current_range_meters":27600,"station_id":"ce4bgvp2rcd13ifvqcu0","pricing_plan_id":"cebpf4jnsgd1na2vs0mg"},{"bike_id":"2affbb5f-e3ec-4785-9458-ac8b83ed9da0","system_id":"levelo_inurba_marseille","lat":43.309038,"lon":5.396546,"is_reserved":false,"is_disabled":false,"rental_uris":{"android":"levelo://app?vid=2affbb5f-e3ec-4785-9458-ac8b83ed9da0","ios":"levelo://app?vid=2affbb5f-e3ec-4785-9458-ac8b83ed9da0"},"vehicle_type_id":"4","last_reported":1716239200,"current_range_meters":22800,"station_id":"ce4bh012rcd13ifvqcv0","pricing_plan_id":"cebpf4jnsgd1na2vs0mg"},{"bike_id":"be9c4b68-c0bc-4260-b2c4-b238275ba2c4","system_id":"levelo_inurba_marseille","lat":43.308796,"lon":5.396456,"is_reserved":false,"is_disabled":false,"rental_uris":{"android":"levelo://app?vid=be9c4b68-c0bc-4260-b2c4-b238275ba2c4","ios":"levelo://app?vid=be9c4b68-c0bc-4260-b2c4-b238275ba2c4"},"vehicle_type_id":"4","last_reported":1716239200,"current_range_meters":24800,"station_id":"ce4bh012rcd13ifvqcv0","pricing_plan_id":"cebpf4jnsgd1na2vs0mg"},{"bike_id":"ed0464e6-8905-43e1-a6dd-9a5973c3a0e3","system_id":"levelo_inurba_marseille","lat":43.309038,"lon":5.396546,"is_reserved":false,"is_disabled":false,"rental_uris":{"android":"levelo://app?vid=ed0464e6-8905-43e1-a6dd-9a5973c3a0e3","ios":"levelo://app?vid=ed0464e6-8905-43e1-a6dd-9a5973c3a0e3"},"vehicle_type_id":"4","last_reported":1716239200,"current_range_meters":12800,"station_id":"ce4bh012rcd13ifvqcv0","pricing_plan_id":"cebpf4jnsgd1na2vs0mg"},{"bike_id":"e7b38f65-4b9a-4869-8ad0-06953530b4d4","system_id":"levelo_inurba_marseille","lat":43.313291,"lon":5.396838,"is_reserved":false,"is_disabled":false,"rental_uris":{"android":"levelo://app?vid=e7b38f65-4b9a-4869-8ad0-06953530b4d4","ios":"levelo://app?vid=e7b38f65-4b9a-4869-8ad0-06953530b4d4"},"vehicle_type_id":"4","last_reported":1716239200,"current_range_meters":7200,"station_id":"ce4bgvp2rcd13ifvqcu0","pricing_plan_id":"cebpf4jnsgd1na2vs0mg"},