{"last_updated":1749478305,"ttl":60,"version":"2.2","data":{"bikes":[{"bike_id":"cccbec92-73d6-470b-bb9c-477ca5eff804","system_id":"levelo_inurba_marseille","lat":43.28615,"lon":5.35112,"is_reserved":false,"is_disabled":false,"rental_uris":{"android":"levelo://app?vid=cccbec92-73d6-470b-bb9c-477ca5eff804","ios":"levelo://app?vid=cccbec92-73d6-470b-bb9c-477ca5eff804"},"vehicle_type_id":"4","last_reported":1749478305,"current_range_meters":2800,"station_id":"ce4bhch2rcd13ifvqeug","pricing_plan_id":"cebpf4jnsgd1na2vs0mg"},{"bike_id":"ad214eb0-d7ca-4bdf-85b1-6d11df9bed8e","system_id":"levelo_inurba_marseille","lat":43.24172,"lon":5.36398,"is_reserved":false,"is_disabled":false,"rental_uris":{"android":"levelo://app?vid=ad214eb0-d7ca-4bdf-85b1-6d11df9bed8e","ios":"levelo://app?vid=ad214eb0-d7ca-4bdf-85b1-6d11df9bed8e"},"vehicle_type_id":"4","last_reported":1749478305,"current_range_meters":2800,"station_id":"cpo36qri1sfpv3e86is0","pricing_plan_id":"cebpf4jnsgd1na2vs0mg"},{"bike_id":"36bd9edc-c169-414d-8b31-865eaa7d1d6b","system_id":"levelo_inurba_marseille","lat":43.26028,"lon":5.37555,"is_reserved":false,"is_disabled":false,"rental_uris":{"android":"levelo://app?vid=36bd9edc-c169-414d-8b31-865eaa7d1d6b","ios":"levelo://app?vid=36bd9edc-c169-414d-8b31-865eaa7d1d6b"},"vehicle_type_id":"4","last_reported":1749478305,"current_range_meters":2800,"station_id":"ce4bhgh2rcd13ifvqfa0","pricing_plan_id":"cebpf4jnsgd1na2vs0mg"},{"bike_id":"39a3e56c-8755-4a50-be73-7b398e5d2492","system_id":"levelo_inurba_marseille","lat":43.273803,"lon":5.362627,"is_reserved":false,"is_disabled":true,"rental_uris":{"android":"levelo://app?vid=39a3e56c-8755-4a50-be73-7b398e5d2492","ios":"levelo://app?vid=39a3e56c-8755-4a50-be73-7b398e5d2492"},"vehicle_type_id":"4","last_reported":1749478305,"current_range_meters":2800,"station_id":"ce4bhbh2rcd13ifvqeo0","pricing_plan_id":"cebpf4jnsgd1na2vs0mg"},{"bike_id":"496d48a1-7a8b-488d-a162-d2250c820fb0","system_id":"levelo_inurba_marseille","lat":43.26413,"lon":5.38594,"is_reserved":false,"is_disabled":false,"rental_uris":{"android":"levelo://app?vid=496d48a1-7a8b-488d-a162-d2250c820fb0","ios":"levelo://app?vid=496d48a1-7a8b-488d-a162-d2250c820fb0"},"vehicle_type_id":"4","last_reported":1749478305,"current_range_meters":2800,"station_id":"","pricing_plan_id":"cebpf4jnsgd1na2vs0mg"},{"bike_id":"ada020f7-bc3a-49b1-9dd3-677d28752256","system_id":"levelo_inurba_marseille","lat":43.29518,"lon":5.37491,"is_reserved":false,"is_disabled":false,"rental_uris":{"android":"levelo://app?vid=ada020f7-bc3a-49b1-9dd3-677d28752256","ios":"levelo://app?vid=ada020f7-bc3a-49b1-9dd3-677d28752256"},"vehicle_type_id":"4","last_reported":1749478305,"current_range_meters":2800,"station_id":"ce4bgkp2rcd13ifvqbmg","pricing_plan_id":"cebpf4jnsgd1na2vs0mg"},{"bike_id":"51dbbef5-2eaa-44bf-a6d3-9639ad60c6c8","system_id":"levelo_inurba_marseille","lat":43.26208,"lon":5.37445,"is_reserved":false,"is_disabled":false,"rental_uris":{"android":"levelo://app?vid=51dbbef5-2eaa-44bf-a6d3-9639ad60c6c8","ios":"levelo://app?vid=51dbbef5-2eaa-44bf-a6d3-9639ad60c6c8"},"vehicle_type_id":"4","last_reported":1749478305,"current_range_meters":3200,"station_id":"ce4bhgp2rcd13ifvqfc0","pricing_plan_id":"cebpf4jnsgd1na2vs0mg"},{"bike_id":"22e3ddf8-aa57-440c-9286-f60b04a13ec3","system_id":"levelo_inurba_marseille","lat":43.29781,"lon":5.38093,"is_reserved":false,"is_disabled":false,"rental_uris":{"android":"levelo://app?vid=22e3ddf8-aa57-440c-9286-f60b04a13ec3","ios":"levelo://app?vid=22e3ddf8-aa57-440c-9286-f60b04a13ec3"},"vehicle_type_id":"4","last_reported":1749478305,"current_range_meters":3200,"station_id":"ce4bgip2rcd13ifvqbb0","pricing_plan_id":"cebpf4jnsgd1na2vs0mg"},{"bike_id":"86fde31b-85b0-4cb0-b28a-d008fb1199ce","system_id":"levelo_inurba_marseille","lat":43.30185,"lon":5.36621,"is_reserved":false,"is_disabled":false,"rental_uris":{"android":"levelo://app?vid=86fde31b-85b0-4cb0-b28a-d008fb1199ce","ios":"levelo://app?vid=86fde31b-85b0-4cb0-b28a-d008fb1199ce"},"vehicle_type_id":"4","last_reported":1749478305,"current_range_meters":3600,"station_id":"ce4bgrh2rcd13ifvqc8g","pricing_plan_id":"cebpf4jnsgd1na2vs0mg"},{"bike_id":"c9a8fe53-d67e-4a11-b531-5e7bd6be63b3","system_id":"levelo_inurba_marseille","lat":43.24542,"lon":5.39519,"is_reserved":false,"is_disabled":false,"rental_uris":{"android":"levelo://app?vid=c9a8fe53-d67e-4a11-b531-5e7bd6be63b3","ios":"levelo://app?vid=c9a8fe53-d67e-4a11-b531-5e7bd6be63b3"},"vehicle_type_id":"4","last_reported":1749478305,"current_range_meters":3600,"station_id":"ce4bhlp2rcd13ifvqgjg","pricing_plan_id":"cebpf4jnsgd1na2vs0mg"},{"bike_id":"c501cbe2-0ab6-4f54-8538-6c91449c08f4","system_id":"levelo_inurba_marseille","lat":43.28619,"lon":5.35109,"is_reserved":false,"is_disabled":false,"rental_uris":{"android":"levelo://app?vid=c501cbe2-0ab6-4f54-8538-6c91449c08f4","ios":"levelo://app?vid=c501cbe2-0ab6-4f54-8538-6c91449c08f4"},"vehicle_type_id":"4","last_reported":1749478305,"current_range_meters":3600,"station_id":"ce4bhch2rcd13ifvqeug","pricing_plan_id":"cebpf4jnsgd1na2vs0mg"},{"bike_id":"0674113d-e40b-4853-bb28-d9454db2d1c6","system_id":"levelo_inurba_marseille","lat":43.28417,"lon":5.34983,"is_reserved":false,"is_disabled":false,"rental_uris":{"android":"levelo://app?vid=0674113d-e40b-4853-bb28-d9454db2d1c6","ios":"levelo://app?vid=0674113d-e40b-4853-bb28-d9454db2d1c6"},"vehicle_type_id":"4","last_reported":1749478305,"current_range_meters":3600,"station_id":"ce4bhbh2rcd13ifvqepg","pricing_plan_id":"cebpf4jnsgd1na2vs0mg"},{"bike_id":"cae1d56b-c8df-4963-a3f5-b05dbb9066e6","system_id":"levelo_inurba_marseille","lat":43.27604,"lon":5.36106,"is_reserved":false,"is_disabled":false,"rental_uris":{"android":"levelo://app?vid=cae1d56b-c8df-4963-a3f5-b05dbb9066e6","ios":"levelo://app?vid=cae1d56b-c8df-4963-a3f5-b05dbb9066e6"},"vehicle_type_id":"4","last_reported":1749478305,"current_range_meters":4000,"station_id":"ce4bgj92rcd13ifvqbe0","pricing_plan_id":"cebpf4jnsgd1na2vs0mg"},{"bike_id":"3a23a91a-8199-4857-825e-f76c65d907fa","system_id":"levelo_inurba_marseille","lat":43.25454,"lon":5.37675,"is_reserved":false,"is_disabled":false,"rental_uris":{"android":"levelo://app?vid=3a23a91a-8199-4857-825e-f76c65d907fa","ios":"levelo://app?vid=3a23a91a-8199-4857-825e-f76c65d907fa"},"vehicle_type_id":"4","last_reported":1749478305,"current_range_meters":4000,"station_id":"","pricing_plan_id":"cebpf4jnsgd1na2vs0mg"},{"bike_id":"4c6aa1f2-c3c3-47d1-ba80-f978d04171d8","system_id":"levelo_inurba_marseille","lat":43.24388,"lon":5.37062,"is_reserved":false,"is_disabled":false,"rental_uris":{"android":"levelo://app?vid=4c6aa1f2-c3c3-47d1-ba80-f978d04171d8","ios":"levelo://app?vid=4c6aa1f2-c3c3-47d1-ba80-f978d04171d8"},"vehicle_type_id":"4","last_reported":1749478305,"current_range_meters":4000,"station_id":"ce4bhhh2rcd13ifvqfk0","pricing_plan_id":"cebpf4jnsgd1na2vs0mg"},{"bike_id":"993687f2-87fb-4152-85a2-3dd5a0b176fd","system_id":"levelo_inurba_marseille","lat":43.33614,"lon":5.41018,"is_reserved":false,"is_disabled":false,"rental_uris":{"android":"levelo://app?vid=993687f2-87fb-4152-85a2-3dd5a0b176fd","ios":"levelo://app?vid=993687f2-87fb-4152-85a2-3dd5a0b176fd"},"vehicle_type_id":"4","last_reported":1749478305,"current_range_meters":4000,"station_id":"ce4bhqh2rcd13ifvqhmg","pricing_plan_id":"cebpf4jnsgd1na2vs0mg"},{"bike_id":"489aa523-0934-4b57-b054-b89677d8a1df","system_id":"levelo_inurba_marseille","lat":43.27622,"lon":5.36113,"is_reserved":false,"is_disabled":false,"rental_uris":{"android":"levelo://app?vid=489aa523-0934-4b57-b054-b89677d8a1df","ios":"levelo://app?vid=489aa523-0934-4b57-b054-b89677d8a1df"},"vehicle_type_id":"4","last_reported":1749478305,"current_range_meters":4000,"station_id":"ce4bgj92rcd13ifvqbe0","pricing_plan_id":"cebpf4jnsgd1na2vs0mg"},{"bike_id":"432a23a5-db5c-4778-9de1-1e6c29f8e1bd","system_id":"levelo_inurba_marseille","lat":43.25004,"lon":5.38923,"is_reserved":false,"is_disabled":false,"rental_uris":{"android":"levelo://app?vid=432a23a5-db5c-4778-9de1-1e6c29f8e1bd","ios":"levelo://app?vid=432a23a5-db5c-4778-9de1-1e6c29f8e1bd"},"vehicle_type_id":"4","last_reported":1749478305,"current_range_meters":4000,"station_id":"ce4bhgp2rcd13ifvqfd0","pricing_plan_id":"cebpf4jnsgd1na2vs0mg"},{"bike_id":"ebf481e5-bc16-4c60-ab6f-4764fbb8a221","system_id":"levelo_inurba_marseille","lat":43.24167,"lon":5.36397,"is_reserved":false,"is_disabled":false,"rental_uris":{"android":"levelo://app?vid=ebf481e5-bc16-4c60-ab6f-4764fbb8a221","ios":"levelo://app?vid=ebf481e5-bc16-4c60-ab6f-4764fbb8a221"},"vehicle_type_id":"4","last_reported":1749478305,"current_range_meters":4000,"station_id":"cpo36qri1sfpv3e86is0","pricing_plan_id":"cebpf4jnsgd1na2vs0mg"},{"bike_id":"422598f6-b7ce-4013-bfc1-f031e1f28bb6","system_id":"levelo_inurba_marseille","lat":43.28272,"lon":5.35061,"is_reserved":false,"is_disabled":false,"rental_uris":{"android":"levelo://app?vid=422598f6-b7ce-4013-bfc1-f031e1f28bb6","ios":"levelo://app?vid=422598f6-b7ce-4013-bfc1-f031e1f28bb6"},"vehicle_type_id":"4","last_reported":1749478305,"current_range_meters":4400,"station_id":"ce4bhbp2rcd13ifvqerg","pricing_plan_id":"cebpf4jnsgd1na2vs0mg"},{"bike_id":"226c52fd-8dfc-4f51-8737-700e07f06568","system_id":"levelo_inurba_marseille","lat":43.32368,"lon":5.38889,"is_reserved":false,"is_disabled":false,"rental_uris":{"android":"levelo://app?vid=226c52fd-8dfc-4f51-8737-700e07f06568","ios":"levelo://app?vid=226c52fd-8dfc-4f51-8737-700e07f06568"},"vehicle_type_id":"4","last_reported":1749478305,"current_range_meters":4400,"station_id":"ce4bhqp2rcd13ifvqhog","pricing_plan_id":"cebpf4jnsgd1na2vs0mg"},{"bike_id":"1ea4d901-280f-4050-a043-0b37afe86b03","system_id":"levelo_inurba_marseille","lat":43.21191,"lon":5.35073,"is_reserved":false,"is_disabled":false,"rental_uris":{"android":"levelo://app?vid=1ea4d901-280f-4050-a043-0b37afe86b03","ios":"levelo://app?vid=1ea4d901-280f-4050-a043-0b37afe86b03"},"vehicle_type_id":"4","last_reported":1749478305,"current_range_meters":4400,"station_id":"st_cvj6sg6p6f1abm77japg","pricing_plan_id":"cebpf4jnsgd1na2vs0mg"},{"bike_id":"67d4735d-a812-4e55-90bc-5641f4e35931","system_id":"levelo_inurba_marseille","lat":43.21193,"lon":5.35086,"is_reserved":false,"is_disabled":false,"rental_uris":{"android":"levelo://app?vid=67d4735d-a812-4e55-90bc-5641f4e35931","ios":"levelo://app?vid=67d4735d-a812-4e55-90bc-5641f4e35931"},"vehicle_type_id":"4","last_reported":1749478305,"current_range_meters":4800,"station_id":"st_cvj6sg6p6f1abm77japg","pricing_plan_id":"cebpf4jnsgd1na2vs0mg"},{"bike_id":"7c16632b-0494-4236-8f96-70146a70a4e4","system_id":"levelo_inurba_marseille","lat":43.22927,"lon":5.3539,"is_reserved":false,"is_disabled":false,"rental_uris":{"android":"levelo://app?vid=7c16632b-0494-4236-8f96-70146a70a4e4","ios":"levelo://app?vid=7c16632b-0494-4236-8f96-70146a70a4e4"},"vehicle_type_id":"4","last_reported":1749478305,"current_range_meters":4800,"station_id":"cpo3532slgdg3j2ikp40","pricing_plan_id":"cebpf4jnsgd1na2vs0mg"},{"bike_id":"1bf96f11-863d-4a9f-8bea-b36b50625e3c","system_id":"levelo_inurba_marseille","lat":43.25493,"lon":5.37676,"is_reserved":false,"is_disabled":false,"rental_uris":{"android":"levelo://app?vid=1bf96f11-863d-4a9f-8bea-b36b50625e3c","ios":"levelo://app?vid=1bf96f11-863d-4a9f-8bea-b36b50625e3c"},"vehicle_type_id":"4","last_reported":1749478305,"current_range_meters":4800,"station_id":"ce4bhh12rcd13ifvqff0","pricing_plan_id":"cebpf4jnsgd1na2vs0mg"},{"bike_id":"97c42988-9062-4751-86d3-d1af3abb6da7","system_id":"levelo_inurba_marseille","lat":43.27614,"lon":5.361,"is_reserved":false,"is_disabled":false,"rental_uris":{"android":"levelo://app?vid=97c42988-9062-4751-86d3-d1af3abb6da7","ios":"levelo://app?vid=97c42988-9062-4751-86d3-d1af3abb6da7"},"vehicle_type_id":"4","last_reported":1749478305,"current_range_meters":4800,"station_id":"ce4bgj92rcd13ifvqbe0","pricing_plan_id":"cebpf4jnsgd1na2vs0mg"},{"bike_id":"28831f32-49bd-4fb1-91e7-1817a72ca592","system_id":"levelo_inurba_marseille","lat":43.27629,"lon":5.36133,"is_reserved":false,"is_disabled":false,"rental_uris":{"android":"levelo://app?vid=28831f32-49bd-4fb1-91e7-1817a72ca592","ios":"levelo://app?vid=28831f32-49bd-4fb1-91e7-1817a72ca592"},"vehicle_type_id":"4","last_reported":1749478305,"current_range_meters":4800,"station_id":"ce4bgj92rcd13ifvqbe0","pricing_plan_id":"cebpf4jnsgd1na2vs0mg"},{"bike_id":"2e41f4f3-4505-46bc-a815-6ff0eb325c8d","system_id":"levelo_inurba_marseille","lat":43.30434,"lon":5.38878,"is_reserved":false,"is_disabled":false,"rental_uris":{"android":"levelo://app?vid=2e41f4f3-4505-46bc-a815-6ff0eb325c8d","ios":"levelo://app?vid=2e41f4f3-4505-46bc-a815-6ff0eb325c8d"},"vehicle_type_id":"4","last_reported":1749478305,"current_range_meters":4800,"station_id":"ce4bgk12rcd13ifvqbi0","pricing_plan_id":"cebpf4jnsgd1na2vs0mg"},{"bike_id":"19b9d581-3680-42d2-9b05-5c990c0fe3c8","system_id":"levelo_inurba_marseille","lat":43.31568,"lon":5.38384,"is_reserved":false,"is_disabled":false,"rental_uris":{"android":"levelo://app?vid=19b9d581-3680-42d2-9b05-5c990c0fe3c8","ios":"levelo://app?vid=19b9d581-3680-42d2-9b05-5c990c0fe3c8"},"vehicle_type_id":"4","last_reported":1749478305,"current_range_meters":4800,"station_id":"","pricing_plan_id":"cebpf4jnsgd1na2vs0mg"},{"bike_id":"1c23b5d4-4dd2-467d-a506-6599a4329822","system_id":"levelo_inurba_marseille","lat":43.2762,"lon":5.36118,"is_reserved":false,"is_disabled":false,"rental_uris":{"android":"levelo://app?vid=1c23b5d4-4dd2-467d-a506-6599a4329822","ios":"levelo://app?vid=1c23b5d4-4dd2-467d-a506-6599a4329822"},"vehicle_type_id":"4","last_reported":1749478305,"current_range_meters":4800,"station_id":"ce4bgj92rcd13ifvqbe0","pricing_plan_id":"cebpf4jnsgd1na2vs0mg"},{"bike_id":"994fbbd1-7b7a-4973-8b72-780a5cbeda75","system_id":"levelo_inurba_marseille","lat":43.28978,"lon":5.37832,"is_reserved":false,"is_disabled":true,"rental_uris":{"android":"levelo://app?vid=994fbbd1-7b7a-4973-8b72-780a5cbeda75","ios":"levelo://app?vid=994fbbd1-7b7a-4973-8b72-780a5cbeda75"},"vehicle_type_id":"4","last_reported":1749478305,"current_range_meters":5600,"station_id":"ce4bh9p2rcd13ifvqed0","pricing_plan_id":"cebpf4jnsgd1na2vs0mg"},{"bike_id":"a2d73be7-868a-4600-9834-af16b43b12ad","system_id":"levelo_inurba_marseille","lat":43.24528,"lon":5.42525,"is_reserved":false,"is_disabled":false,"rental_uris":{"android":"levelo://app?vid=a2d73be7-868a-4600-9834-af16b43b12ad","ios":"levelo://app?vid=a2d73be7-868a-4600-9834-af16b43b12ad"},"vehicle_type_id":"4","last_reported":1749478305,"current_range_meters":5600,"station_id":"","pricing_plan_id":"cebpf4jnsgd1na2vs0mg"},{"bike_id":"513d1f34-2908-474f-a89f-b3daa224a6a3","system_id":"levelo_inurba_marseille","lat":43.21774,"lon":5.34614,"is_reserved":false,"is_disabled":false,"rental_uris":{"android":"levelo://app?vid=513d1f34-2908-474f-a89f-b3daa224a6a3","ios":"levelo://app?vid=513d1f34-2908-474f-a89f-b3daa224a6a3"},"vehicle_type_id":"4","last_reported":1749478305,"current_range_meters":5600,"station_id":"st_cvj6r9ubvosntc0bgbag","pricing_plan_id":"cebpf4jnsgd1na2vs0mg"},{"bike_id":"2f91378d-1286-4f55-967c-acea9d348d18","system_id":"levelo_inurba_marseille","lat":43.28574,"lon":5.39498,"is_reserved":false,"is_disabled":false,"rental_uris":{"android":"levelo://app?vid=2f91378d-1286-4f55-967c-acea9d348d18","ios":"levelo://app?vid=2f91378d-1286-4f55-967c-acea9d348d18"},"vehicle_type_id":"4","last_reported":1749478305,"current_range_meters":5600,"station_id":"ce4bh292rcd13ifvqdg0","pricing_plan_id":"cebpf4jnsgd1na2vs0mg"},{"bike_id":"f38cd793-5169-415e-8769-48428d5a115e","system_id":"levelo_inurba_marseille","lat":43.23192,"lon":5.35553,"is_reserved":false,"is_disabled":false,"rental_uris":{"android":"levelo://app?vid=f38cd793-5169-415e-8769-48428d5a115e","ios":"levelo://app?vid=f38cd793-5169-415e-8769-48428d5a115e"},"vehicle_type_id":"4","last_reported":1749478305,"current_range_meters":5600,"station_id":"ce4bhu92rcd13ifvqi70","pricing_plan_id":"cebpf4jnsgd1na2vs0mg"},{"bike_id":"fb7cb7e2-723c-406b-bae3-20781ebb6127","system_id":"levelo_inurba_marseille","lat":43.25585,"lon":5.38236,"is_reserved":false,"is_disabled":false,"rental_uris":{"android":"levelo://app?vid=fb7cb7e2-723c-406b-bae3-20781ebb6127","ios":"levelo://app?vid=fb7cb7e2-723c-406b-bae3-20781ebb6127"},"vehicle_type_id":"4","last_reported":1749478305,"current_range_meters":6000,"station_id":"ce4bhih2rcd13ifvqfs0","pricing_plan_id":"cebpf4jnsgd1na2vs0mg"},{"bike_id":"5c8a6149-0169-4a54-a58f-a01a0115dab3","system_id":"levelo_inurba_marseille","lat":43.29778,"lon":5.3712,"is_reserved":false,"is_disabled":false,"rental_uris":{"android":"levelo://app?vid=5c8a6149-0169-4a54-a58f-a01a0115dab3","ios":"levelo://app?vid=5c8a6149-0169-4a54-a58f-a01a0115dab3"},"vehicle_type_id":"4","last_reported":1749478305,"current_range_meters":6000,"station_id":"ce4bgop2rcd13ifvqc1g","pricing_plan_id":"cebpf4jnsgd1na2vs0mg"},{"bike_id":"7963a5fd-6561-4f8b-b91c-8ce07f35667c","system_id":"levelo_inurba_marseille","lat":43.2826,"lon":5.3507,"is_reserved":false,"is_disabled":false,"rental_uris":{"android":"levelo://app?vid=7963a5fd-6561-4f8b-b91c-8ce07f35667c","ios":"levelo://app?vid=7963a5fd-6561-4f8b-b91c-8ce07f35667c"},"vehicle_type_id":"4","last_reported":1749478305,"current_range_meters":6400,"station_id":"ce4bhbp2rcd13ifvqerg","pricing_plan_id":"cebpf4jnsgd1na2vs0mg"},{"bike_id":"a61242dd-8369-4520-9963-a504224e1a30","system_id":"levelo_inurba_marseille","lat":43.23157,"lon":5.40772,"is_reserved":false,"is_disabled":false,"rental_uris":{"android":"levelo://app?vid=a61242dd-8369-4520-9963-a504224e1a30","ios":"levelo://app?vid=a61242dd-8369-4520-9963-a504224e1a30"},"vehicle_type_id":"4","last_reported":1749478305,"current_range_meters":6400,"station_id":"","pricing_plan_id":"cebpf4jnsgd1na2vs0mg"},{"bike_id":"5d90b140-ed6c-47ce-9fa0-2a323fd00ecf","system_id":"levelo_inurba_marseille","lat":43.28404,"lon":5.37516,"is_reserved":false,"is_disabled":false,"rental_uris":{"android":"levelo://app?vid=5d90b140-ed6c-47ce-9fa0-2a323fd00ecf","ios":"levelo://app?vid=5d90b140-ed6c-47ce-9fa0-2a323fd00ecf"},"vehicle_type_id":"4","last_reported":1749478305,"current_range_meters":6000,"station_id":"ce4bh412rcd13ifvqds0","pricing_plan_id":"cebpf4jnsgd1na2vs0mg"},{"bike_id":"e4f78d6d-faf2-465c-865e-f765ddf9f2a0","system_id":"levelo_inurba_marseille","lat":43.27906,"lon":5.38024,"is_reserved":false,"is_disabled":false,"rental_uris":{"android":"levelo://app?vid=e4f78d6d-faf2-465c-865e-f765ddf9f2a0","ios":"levelo://app?vid=e4f78d6d-faf2-465c-865e-f765ddf9f2a0"},"vehicle_type_id":"4","last_reported":1749478305,"current_range_meters":6400,"station_id":"ce4bhf92rcd13ifvqf50","pricing_plan_id":"cebpf4jnsgd1na2vs0mg"},{"bike_id":"0975fdd4-d9a3-477f-b59e-565071d08eec","system_id":"levelo_inurba_marseille","lat":43.22953,"lon":5.35392,"is_reserved":false,"is_disabled":false,"rental_uris":{"android":"levelo://app?vid=0975fdd4-d9a3-477f-b59e-565071d08eec","ios":"levelo://app?vid=0975fdd4-d9a3-477f-b59e-565071d08eec"},"vehicle_type_id":"4","last_reported":1749478305,"current_range_meters":6400,"station_id":"cpo3532slgdg3j2ikp40","pricing_plan_id":"cebpf4jnsgd1na2vs0mg"},{"bike_id":"a6a6a133-209f-4370-b90c-1e9074e0405a","system_id":"levelo_inurba_marseille","lat":43.29703,"lon":5.37705,"is_reserved":false,"is_disabled":false,"rental_uris":{"android":"levelo://app?vid=a6a6a133-209f-4370-b90c-1e9074e0405a","ios":"levelo://app?vid=a6a6a133-209f-4370-b90c-1e9074e0405a"},"vehicle_type_id":"4","last_reported":1749478305,"current_range_meters":6400,"station_id":"ce4bgkh2rcd13ifvqbl0","pricing_plan_id":"cebpf4jnsgd1na2vs0mg"},{"bike_id":"a123613f-9232-4894-900a-09912e112c27","system_id":"levelo_inurba_marseille","lat":43.28417,"lon":5.37528,"is_reserved":false,"is_disabled":false,"rental_uris":{"android":"levelo://app?vid=a123613f-9232-4894-900a-09912e112c27","ios":"levelo://app?vid=a123613f-9232-4894-900a-09912e112c27"},"vehicle_type_id":"4","last_reported":1749478305,"current_range_meters":6800,"station_id":"ce4bh412rcd13ifvqds0","pricing_plan_id":"cebpf4jnsgd1na2vs0mg"},{"bike_id":"2a5849e6-d5ec-4570-89c0-b9cdf0db8e73","system_id":"levelo_inurba_marseille","lat":43.26034,"lon":5.37553,"is_reserved":false,"is_disabled":false,"rental_uris":{"android":"levelo://app?vid=2a5849e6-d5ec-4570-89c0-b9cdf0db8e73","ios":"levelo://app?vid=2a5849e6-d5ec-4570-89c0-b9cdf0db8e73"},"vehicle_type_id":"4","last_reported":1749478305,"current_range_meters":6800,"station_id":"ce4bhgh2rcd13ifvqfa0","pricing_plan_id":"cebpf4jnsgd1na2vs0mg"},{"bike_id":"c863e750-b5b6-4572-b57e-c0e976f53305","system_id":"levelo_inurba_marseille","lat":43.28422,"lon":5.35,"is_reserved":false,"is_disabled":false,"rental_uris":{"android":"levelo://app?vid=c863e750-b5b6-4572-b57e-c0e976f53305","ios":"levelo://app?vid=c863e750-b5b6-4572-b57e-c0e976f53305"},"vehicle_type_id":"4","last_reported":1749478305,"current_range_meters":6800,"station_id":"ce4bhbh2rcd13ifvqepg","pricing_plan_id":"cebpf4jnsgd1na2vs0mg"},{"bike_id":"c7de9924-dfb7-4b4b-b584-1c271b3887d2","system_id":"levelo_inurba_marseille","lat":43.21756,"lon":5.34611,"is_reserved":false,"is_disabled":false,"rental_uris":{"android":"levelo://app?vid=c7de9924-dfb7-4b4b-b584-1c271b3887d2","ios":"levelo://app?vid=c7de9924-dfb7-4b4b-b584-1c271b3887d2"},"vehicle_type_id":"4","last_reported":1749478305,"current_range_meters":7200,"station_id":"st_cvj6r9ubvosntc0bgbag","pricing_plan_id":"cebpf4jnsgd1na2vs0mg"},{"bike_id":"57628890-740f-487f-9469-3ceda7bced95","system_id":"levelo_inurba_marseille","lat":43.23962,"lon":5.36628,"is_reserved":false,"is_disabled":false,"rental_uris":{"android":"levelo://app?vid=57628890-740f-487f-9469-3ceda7bced95","ios":"levelo://app?vid=57628890-740f-487f-9469-3ceda7bced95"},"vehicle_type_id":"4","last_reported":1749478305,"current_range_meters":7200,"station_id":"ce4bhi12rcd13ifvqfp0","pricing_plan_id":"cebpf4jnsgd1na2vs0mg"},{"bike_id":"9f957cbf-ffd1-4058-a229-595e0ea316be","system_id":"levelo_inurba_marseille","lat":43.30884,"lon":5.37185,"is_reserved":false,"is_disabled":false,"rental_uris":{"android":"levelo://app?vid=9f957cbf-ffd1-4058-a229-595e0ea316be","ios":"levelo://app?vid=9f957cbf-ffd1-4058-a229-595e0ea316be"},"vehicle_type_id":"4","last_reported":1749478305,"current_range_meters":6800,"station_id":"ce4bguh2rcd13ifvqckg","pricing_plan_id":"cebpf4jnsgd1na2vs0mg"},{"bike_id":"25b9d225-2fed-4924-83ea-0186ac6013f7","system_id":"levelo_inurba_marseille","lat":43.26557,"lon":5.37287,"is_reserved":false,"is_disabled":false,"rental_uris":{"android":"levelo://app?vid=25b9d225-2fed-4924-83ea-0186ac6013f7","ios":"levelo://app?vid=25b9d225-2fed-4924-83ea-0186ac6013f7"},"vehicle_type_id":"4","last_reported":1749478305,"current_range_meters":7200,"station_id":"ce4bhg12rcd13ifvqf70","pricing_plan_id":"cebpf4jnsgd1na2vs0mg"},{"bike_id":"c8a7299a-a52a-41ca-a967-bc98d6a917b4","system_id":"levelo_inurba_marseille","lat":43.24389,"lon":5.37062,"is_reserved":false,"is_disabled":false,"rental_uris":{"android":"levelo://app?vid=c8a7299a-a52a-41ca-a967-bc98d6a917b4","ios":"levelo://app?vid=c8a7299a-a52a-41ca-a967-bc98d6a917b4"},"vehicle_type_id":"4","last_reported":1749478305,"current_range_meters":7200,"station_id":"ce4bhhh2rcd13ifvqfk0","pricing_plan_id":"cebpf4jnsgd1na2vs0mg"},{"bike_id":"d425de15-1bd7-4abd-8abe-aa1ae0db838d","system_id":"levelo_inurba_marseille","lat":43.31716,"lon":5.42399,"is_reserved":false,"is_disabled":false,"rental_uris":{"android":"levelo://app?vid=d425de15-1bd7-4abd-8abe-aa1ae0db838d","ios":"levelo://app?vid=d425de15-1bd7-4abd-8abe-aa1ae0db838d"},"vehicle_type_id":"4","last_reported":1749478305,"current_range_meters":7200,"station_id":"ce4bhp92rcd13ifvqhbg","pricing_plan_id":"cebpf4jnsgd1na2vs0mg"},{"bike_id":"c96237fc-8bc6-4574-a13f-34d99827e293","system_id":"levelo_inurba_marseille","lat":43.28252,"lon":5.35072,"is_reserved":false,"is_disabled":false,"rental_uris":{"android":"levelo://app?vid=c96237fc-8bc6-4574-a13f-34d99827e293","ios":"levelo://app?vid=c96237fc-8bc6-4574-a13f-34d99827e293"},"vehicle_type_id":"4","last_reported":1749478305,"current_range_meters":7200,"station_id":"ce4bhbp2rcd13ifvqerg","pricing_plan_id":"cebpf4jnsgd1na2vs0mg"},{"bike_id":"7ca359c6-4f84-49d0-9ff4-62ca2243dd9d","system_id":"levelo_inurba_marseille","lat":43.23055,"lon":5.35491,"is_reserved":false,"is_disabled":false,"rental_uris":{"android":"levelo://app?vid=7ca359c6-4f84-49d0-9ff4-62ca2243dd9d","ios":"levelo://app?vid=7ca359c6-4f84-49d0-9ff4-62ca2243dd9d"},"vehicle_type_id":"4","last_reported":1749478305,"current_range_meters":7200,"station_id":"cpo3342slgdg3j2ifvpg","pricing_plan_id":"cebpf4jnsgd1na2vs0mg"},{"bike_id":"26b898cc-11a0-4c85-a890-8a9bb099fecf","system_id":"levelo_inurba_marseille","lat":43.32282,"lon":5.38257,"is_reserved":false,"is_disabled":false,"rental_uris":{"android":"levelo://app?vid=26b898cc-11a0-4c85-a890-8a9bb099fecf","ios":"levelo://app?vid=26b898cc-11a0-4c85-a890-8a9bb099fecf"},"vehicle_type_id":"4","last_reported":1749478305,"current_range_meters":8000,"station_id":"ce4bhr12rcd13ifvqhqg","pricing_plan_id":"cebpf4jnsgd1na2vs0mg"},{"bike_id":"e789db96-5390-475e-be94-97ae95e7e988","system_id":"levelo_inurba_marseille","lat":43.229332,"lon":5.353775,"is_reserved":false,"is_disabled":false,"rental_uris":{"android":"levelo://app?vid=e789db96-5390-475e-be94-97ae95e7e988","ios":"levelo://app?vid=e789db96-5390-475e-be94-97ae95e7e988"},"vehicle_type_id":"4","last_reported":1749478305,"current_range_meters":8000,"station_id":"cpo3532slgdg3j2ikp40","pricing_plan_id":"cebpf4jnsgd1na2vs0mg"},{"bike_id":"8154f088-1e30-4887-be97-4a8b3ae33852","system_id":"levelo_inurba_marseille","lat":43.27626,"lon":5.36131,"is_reserved":false,"is_disabled":false,"rental_uris":{"android":"levelo://app?vid=8154f088-1e30-4887-be97-4a8b3ae33852","ios":"levelo://app?vid=8154f088-1e30-4887-be97-4a8b3ae33852"},"vehicle_type_id":"4","last_reported":1749478305,"current_range_meters":8000,"station_id":"ce4bgj92rcd13ifvqbe0","pricing_plan_id":"cebpf4jnsgd1na2vs0mg"},{"bike_id":"29a567cc-2ff1-4cb4-8a4f-b0b5fcc74f25","system_id":"levelo_inurba_marseille","lat":43.23964,"lon":5.36636,"is_reserved":false,"is_disabled":false,"rental_uris":{"android":"levelo://app?vid=29a567cc-2ff1-4cb4-8a4f-b0b5fcc74f25","ios":"levelo://app?vid=29a567cc-2ff1-4cb4-8a4f-b0b5fcc74f25"},"vehicle_type_id":"4","last_reported":1749478305,"current_range_meters":8000,"station_id":"ce4bhi12rcd13ifvqfp0","pricing_plan_id":"cebpf4jnsgd1na2vs0mg"},{"bike_id":"ca8be690-9def-466a-9c9f-3f27533662a2","system_id":"levelo_inurba_marseille","lat":43.28613,"lon":5.35102,"is_reserved":false,"is_disabled":false,"rental_uris":{"android":"levelo://app?vid=ca8be690-9def-466a-9c9f-3f27533662a2","ios":"levelo://app?vid=ca8be690-9def-466a-9c9f-3f27533662a2"},"vehicle_type_id":"4","last_reported":1749478305,"current_range_meters":8000,"station_id":"ce4bhch2rcd13ifvqeug","pricing_plan_id":"cebpf4jnsgd1na2vs0mg"},{"bike_id":"5d496dcf-a85b-4a3d-acd0-bd40f17911f6","system_id":"levelo_inurba_marseille","lat":43.28699,"lon":5.399822,"is_reserved":false,"is_disabled":false,"rental_uris":{"android":"levelo://app?vid=5d496dcf-a85b-4a3d-acd0-bd40f17911f6","ios":"levelo://app?vid=5d496dcf-a85b-4a3d-acd0-bd40f17911f6"},"vehicle_type_id":"4","last_reported":1749478305,"current_range_meters":8400,"station_id":"ce4bho92rcd13ifvqh3g","pricing_plan_id":"cebpf4jnsgd1na2vs0mg"},{"bike_id":"781bcf50-52ca-4350-bf0f-8071b3b2b128","system_id":"levelo_inurba_marseille","lat":43.29898,"lon":5.43668,"is_reserved":false,"is_disabled":false,"rental_uris":{"android":"levelo://app?vid=781bcf50-52ca-4350-bf0f-8071b3b2b128","ios":"levelo://app?vid=781bcf50-52ca-4350-bf0f-8071b3b2b128"},"vehicle_type_id":"4","last_reported":1749478305,"current_range_meters":8400,"station_id":"ce4bhpp2rcd13ifvqhfg","pricing_plan_id":"cebpf4jnsgd1na2vs0mg"},{"bike_id":"18a8aad5-4510-42dd-b76e-34a73061f496","system_id":"levelo_inurba_marseille","lat":43.28264,"lon":5.35068,"is_reserved":false,"is_disabled":false,"rental_uris":{"android":"levelo://app?vid=18a8aad5-4510-42dd-b76e-34a73061f496","ios":"levelo://app?vid=18a8aad5-4510-42dd-b76e-34a73061f496"},"vehicle_type_id":"4","last_reported":1749478305,"current_range_meters":8400,"station_id":"ce4bhbp2rcd13ifvqerg","pricing_plan_id":"cebpf4jnsgd1na2vs0mg"},{"bike_id":"89e61be4-479c-4cec-a748-e4051ae578a2","system_id":"levelo_inurba_marseille","lat":43.32366,"lon":5.38883,"is_reserved":false,"is_disabled":false,"rental_uris":{"android":"levelo://app?vid=89e61be4-479c-4cec-a748-e4051ae578a2","ios":"levelo://app?vid=89e61be4-479c-4cec-a748-e4051ae578a2"},"vehicle_type_id":"4","last_reported":1749478305,"current_range_meters":8400,"station_id":"ce4bhqp2rcd13ifvqhog","pricing_plan_id":"cebpf4jnsgd1na2vs0mg"},{"bike_id":"2589f8a9-767b-492c-8192-6221d0e3e27f","system_id":"levelo_inurba_marseille","lat":43.27611,"lon":5.36104,"is_reserved":false,"is_disabled":false,"rental_uris":{"android":"levelo://app?vid=2589f8a9-767b-492c-8192-6221d0e3e27f","ios":"levelo://app?vid=2589f8a9-767b-492c-8192-6221d0e3e27f"},"vehicle_type_id":"4","last_reported":1749478305,"current_range_meters":8800,"station_id":"ce4bgj92rcd13ifvqbe0","pricing_plan_id":"cebpf4jnsgd1na2vs0mg"},{"bike_id":"58458b01-fd4b-427b-9334-a1e6209bb4c9","system_id":"levelo_inurba_marseille","lat":43.23195,"lon":5.35547,"is_reserved":false,"is_disabled":false,"rental_uris":{"android":"levelo://app?vid=58458b01-fd4b-427b-9334-a1e6209bb4c9","ios":"levelo://app?vid=58458b01-fd4b-427b-9334-a1e6209bb4c9"},"vehicle_type_id":"4","last_reported":1749478305,"current_range_meters":8800,"station_id":"ce4bhu92rcd13ifvqi70","pricing_plan_id":"cebpf4jnsgd1na2vs0mg"},{"bike_id":"e20b734c-db8d-4e15-9005-f71e4ce643ff","system_id":"levelo_inurba_marseille","lat":43.26208,"lon":5.37443,"is_reserved":false,"is_disabled":false,"rental_uris":{"android":"levelo://app?vid=e20b734c-db8d-4e15-9005-f71e4ce643ff","ios":"levelo://app?vid=e20b734c-db8d-4e15-9005-f71e4ce643ff"},"vehicle_type_id":"4","last_reported":1749478305,"current_range_meters":8800,"station_id":"ce4bhgp2rcd13ifvqfc0","pricing_plan_id":"cebpf4jnsgd1na2vs0mg"},{"bike_id":"8b4caff4-6ee7-47a5-a64f-5ccaa83c132f","system_id":"levelo_inurba_marseille","lat":43.29538,"lon":5.42513,"is_reserved":false,"is_disabled":false,"rental_uris":{"android":"levelo://app?vid=8b4caff4-6ee7-47a5-a64f-5ccaa83c132f","ios":"levelo://app?vid=8b4caff4-6ee7-47a5-a64f-5ccaa83c132f"},"vehicle_type_id":"4","last_reported":1749478305,"current_range_meters":8800,"station_id":"","pricing_plan_id":"cebpf4jnsgd1na2vs0mg"},{"bike_id":"05ee0cd2-6efb-4bda-b77d-e828d7cfc0b6","system_id":"levelo_inurba_marseille","lat":43.27073,"lon":5.42282,"is_reserved":false,"is_disabled":false,"rental_uris":{"android":"levelo://app?vid=05ee0cd2-6efb-4bda-b77d-e828d7cfc0b6","ios":"levelo://app?vid=05ee0cd2-6efb-4bda-b77d-e828d7cfc0b6"},"vehicle_type_id":"4","last_reported":1749478305,"current_range_meters":8800,"station_id":"ce4bhk92rcd13ifvqgb0","pricing_plan_id":"cebpf4jnsgd1na2vs0mg"},{"bike_id":"6970104f-235b-4cea-a045-4f7689546f11","system_id":"levelo_inurba_marseille","lat":43.24167,"lon":5.36396,"is_reserved":false,"is_disabled":false,"rental_uris":{"android":"levelo://app?vid=6970104f-235b-4cea-a045-4f7689546f11","ios":"levelo://app?vid=6970104f-235b-4cea-a045-4f7689546f11"},"vehicle_type_id":"4","last_reported":1749478305,"current_range_meters":8800,"station_id":"cpo36qri1sfpv3e86is0","pricing_plan_id":"cebpf4jnsgd1na2vs0mg"},{"bike_id":"7eedcc0e-33d2-492d-876b-2852803d9891","system_id":"levelo_inurba_marseille","lat":43.26483,"lon":5.39195,"is_reserved":false,"is_disabled":false,"rental_uris":{"android":"levelo://app?vid=7eedcc0e-33d2-492d-876b-2852803d9891","ios":"levelo://app?vid=7eedcc0e-33d2-492d-876b-2852803d9891"},"vehicle_type_id":"4","last_reported":1749478305,"current_range_meters":8800,"station_id":"","pricing_plan_id":"cebpf4jnsgd1na2vs0mg"},{"bike_id":"3bb87db6-8022-418f-a4aa-7c455834f81e","system_id":"levelo_inurba_marseille","lat":43.23576,"lon":5.37909,"is_reserved":false,"is_disabled":false,"rental_uris":{"android":"levelo://app?vid=3bb87db6-8022-418f-a4aa-7c455834f81e","ios":"levelo://app?vid=3bb87db6-8022-418f-a4aa-7c455834f81e"},"vehicle_type_id":"4","last_reported":1749478305,"current_range_meters":9200,"station_id":"","pricing_plan_id":"cebpf4jnsgd1na2vs0mg"},{"bike_id":"5478c1b4-4c7d-476f-b8e4-102490ff70cd","system_id":"levelo_inurba_marseille","lat":43.31912,"lon":5.37289,"is_reserved":false,"is_disabled":false,"rental_uris":{"android":"levelo://app?vid=5478c1b4-4c7d-476f-b8e4-102490ff70cd","ios":"levelo://app?vid=5478c1b4-4c7d-476f-b8e4-102490ff70cd"},"vehicle_type_id":"4","last_reported":1749478305,"current_range_meters":9200,"station_id":"","pricing_plan_id":"cebpf4jnsgd1na2vs0mg"},{"bike_id":"ac06db74-7761-48d6-bd05-b50a354f6acc","system_id":"levelo_inurba_marseille","lat":43.2587,"lon":5.39894,"is_reserved":false,"is_disabled":false,"rental_uris":{"android":"levelo://app?vid=ac06db74-7761-48d6-bd05-b50a354f6acc","ios":"levelo://app?vid=ac06db74-7761-48d6-bd05-b50a354f6acc"},"vehicle_type_id":"4","last_reported":1749478305,"current_range_meters":9200,"station_id":"ce4bhl92rcd13ifvqghg","pricing_plan_id":"cebpf4jnsgd1na2vs0mg"},{"bike_id":"11d99533-1239-4522-b0b5-f8a3bff696e7","system_id":"levelo_inurba_marseille","lat":43.30175,"lon":5.42485,"is_reserved":false,"is_disabled":false,"rental_uris":{"android":"levelo://app?vid=11d99533-1239-4522-b0b5-f8a3bff696e7","ios":"levelo://app?vid=11d99533-1239-4522-b0b5-f8a3bff696e7"},"vehicle_type_id":"4","last_reported":1749478305,"current_range_meters":9200,"station_id":"","pricing_plan_id":"cebpf4jnsgd1na2vs0mg"},{"bike_id":"9ab5dcb2-22af-49e2-b2c1-32117ad578dc","system_id":"levelo_inurba_marseille","lat":43.29532,"lon":5.42561,"is_reserved":false,"is_disabled":false,"rental_uris":{"android":"levelo://app?vid=9ab5dcb2-22af-49e2-b2c1-32117ad578dc","ios":"levelo://app?vid=9ab5dcb2-22af-49e2-b2c1-32117ad578dc"},"vehicle_type_id":"4","last_reported":1749478305,"current_range_meters":9200,"station_id":"","pricing_plan_id":"cebpf4jnsgd1na2vs0mg"},{"bike_id":"d0335b62-b327-476c-91be-37179ff89c90","system_id":"levelo_inurba_marseille","lat":43.26211,"lon":5.37442,"is_reserved":false,"is_disabled":false,"rental_uris":{"android":"levelo://app?vid=d0335b62-b327-476c-91be-37179ff89c90","ios":"levelo://app?vid=d0335b62-b327-476c-91be-37179ff89c90"},"vehicle_type_id":"4","last_reported":1749478305,"current_range_meters":9200,"station_id":"ce4bhgp2rcd13ifvqfc0","pricing_plan_id":"cebpf4jnsgd1na2vs0mg"},{"bike_id":"1e586377-e5cd-4379-a2f0-02b4a6a16d45","system_id":"levelo_inurba_marseille","lat":43.26019,"lon":5.3755,"is_reserved":false,"is_disabled":false,"rental_uris":{"android":"levelo://app?vid=1e586377-e5cd-4379-a2f0-02b4a6a16d45","ios":"levelo://app?vid=1e586377-e5cd-4379-a2f0-02b4a6a16d45"},"vehicle_type_id":"4","last_reported":1749478305,"current_range_meters":9200,"station_id":"ce4bhgh2rcd13ifvqfa0","pricing_plan_id":"cebpf4jnsgd1na2vs0mg"},{"bike_id":"9d073130-46db-46c4-affb-6564e2de5a50","system_id":"levelo_inurba_marseille","lat":43.32378,"lon":5.389,"is_reserved":false,"is_disabled":false,"rental_uris":{"android":"levelo://app?vid=9d073130-46db-46c4-affb-6564e2de5a50","ios":"levelo://app?vid=9d073130-46db-46c4-affb-6564e2de5a50"},"vehicle_type_id":"4","last_reported":1749478305,"current_range_meters":9200,"station_id":"ce4bhqp2rcd13ifvqhog","pricing_plan_id":"cebpf4jnsgd1na2vs0mg"},{"bike_id":"26372c51-88d2-45e3-9c15-627c8cea592d","system_id":"levelo_inurba_marseille","lat":43.23081,"lon":5.35523,"is_reserved":false,"is_disabled":false,"rental_uris":{"android":"levelo://app?vid=26372c51-88d2-45e3-9c15-627c8cea592d","ios":"levelo://app?vid=26372c51-88d2-45e3-9c15-627c8cea592d"},"vehicle_type_id":"4","last_reported":1749478305,"current_range_meters":9200,"station_id":"cpo3342slgdg3j2ifvpg","pricing_plan_id":"cebpf4jnsgd1na2vs0mg"},{"bike_id":"ee7a2e6a-3e65-41f6-b8b3-501fb42682dc","system_id":"levelo_inurba_marseille","lat":43.27541,"lon":5.38447,"is_reserved":false,"is_disabled":true,"rental_uris":{"android":"levelo://app?vid=ee7a2e6a-3e65-41f6-b8b3-501fb42682dc","ios":"levelo://app?vid=ee7a2e6a-3e65-41f6-b8b3-501fb42682dc"},"vehicle_type_id":"4","last_reported":1749478305,"current_range_meters":9200,"station_id":"ce4bhh92rcd13ifvqfi0","pricing_plan_id":"cebpf4jnsgd1na2vs0mg"},{"bike_id":"b32cb2ec-77df-4bec-9704-430af7d8754a","system_id":"levelo_inurba_marseille","lat":43.27627,"lon":5.36145,"is_reserved":false,"is_disabled":false,"rental_uris":{"android":"levelo://app?vid=b32cb2ec-77df-4bec-9704-430af7d8754a","ios":"levelo://app?vid=b32cb2ec-77df-4bec-9704-430af7d8754a"},"vehicle_type_id":"4","last_reported":1749478305,"current_range_meters":9200,"station_id":"ce4bgj92rcd13ifvqbe0","pricing_plan_id":"cebpf4jnsgd1na2vs0mg"},{"bike_id":"78824323-0810-44e8-b331-2726c6b3645d","system_id":"levelo_inurba_marseille","lat":43.3363,"lon":5.40984,"is_reserved":false,"is_disabled":false,"rental_uris":{"android":"levelo://app?vid=78824323-0810-44e8-b331-2726c6b3645d","ios":"levelo://app?vid=78824323-0810-44e8-b331-2726c6b3645d"},"vehicle_type_id":"4","last_reported":1749478305,"current_range_meters":9600,"station_id":"ce4bhqh2rcd13ifvqhmg","pricing_plan_id":"cebpf4jnsgd1na2vs0mg"},{"bike_id":"ee83b6ef-e72c-4889-82d5-481eeeb34013","system_id":"levelo_inurba_marseille","lat":43.217498,"lon":5.346107,"is_reserved":false,"is_disabled":false,"rental_uris":{"android":"levelo://app?vid=ee83b6ef-e72c-4889-82d5-481eeeb34013","ios":"levelo://app?vid=ee83b6ef-e72c-4889-82d5-481eeeb34013"},"vehicle_type_id":"4","last_reported":1749478305,"current_range_meters":9600,"station_id":"st_cvj6r9ubvosntc0bgbag","pricing_plan_id":"cebpf4jnsgd1na2vs0mg"},{"bike_id":"712a30c7-0f79-44f4-a37c-ba4636f6f916","system_id":"levelo_inurba_marseille","lat":43.23194,"lon":5.35554,"is_reserved":false,"is_disabled":false,"rental_uris":{"android":"levelo://app?vid=712a30c7-0f79-44f4-a37c-ba4636f6f916","ios":"levelo://app?vid=712a30c7-0f79-44f4-a37c-ba4636f6f916"},"vehicle_type_id":"4","last_reported":1749478305,"current_range_meters":9600,"station_id":"ce4bhu92rcd13ifvqi70","pricing_plan_id":"cebpf4jnsgd1na2vs0mg"},{"bike_id":"d0b72d65-79b0-4986-805e-066fa2089486","system_id":"levelo_inurba_marseille","lat":43.23201,"lon":5.35558,"is_reserved":false,"is_disabled":false,"rental_uris":{"android":"levelo://app?vid=d0b72d65-79b0-4986-805e-066fa2089486","ios":"levelo://app?vid=d0b72d65-79b0-4986-805e-066fa2089486"},"vehicle_type_id":"4","last_reported":1749478305,"current_range_meters":9600,"station_id":"ce4bhu92rcd13ifvqi70","pricing_plan_id":"cebpf4jnsgd1na2vs0mg"},{"bike_id":"dd67f108-95bf-4a1e-b619-4bb77e009c5b","system_id":"levelo_inurba_marseille","lat":43.29048,"lon":5.42787,"is_reserved":false,"is_disabled":false,"rental_uris":{"android":"levelo://app?vid=dd67f108-95bf-4a1e-b619-4bb77e009c5b","ios":"levelo://app?vid=dd67f108-95bf-4a1e-b619-4bb77e009c5b"},"vehicle_type_id":"4","last_reported":1749478305,"current_range_meters":9600,"station_id":"","pricing_plan_id":"cebpf4jnsgd1na2vs0mg"},{"bike_id":"55991ce1-64b0-4649-b968-a764f3c6eee7","system_id":"levelo_inurba_marseille","lat":43.23194,"lon":5.35554,"is_reserved":false,"is_disabled":false,"rental_uris":{"android":"levelo://app?vid=55991ce1-64b0-4649-b968-a764f3c6eee7","ios":"levelo://app?vid=55991ce1-64b0-4649-b968-a764f3c6eee7"},"vehicle_type_id":"4","last_reported":1749478305,"current_range_meters":9600,"station_id":"ce4bhu92rcd13ifvqi70","pricing_plan_id":"cebpf4jnsgd1na2vs0mg"},{"bike_id":"2b74abfb-1262-40a3-bda3-f22e67504377","system_id":"levelo_inurba_marseille","lat":43.30435,"lon":5.36893,"is_reserved":false,"is_disabled":false,"rental_uris":{"android":"levelo://app?vid=2b74abfb-1262-40a3-bda3-f22e67504377","ios":"levelo://app?vid=2b74abfb-1262-40a3-bda3-f22e67504377"},"vehicle_type_id":"4","last_reported":1749478305,"current_range_meters":9600,"station_id":"","pricing_plan_id":"cebpf4jnsgd1na2vs0mg"},{"bike_id":"b6357a6b-fb7d-4cc0-be61-cee5cdc46eea","system_id":"levelo_inurba_marseille","lat":43.26556,"lon":5.37281,"is_reserved":false,"is_disabled":false,"rental_uris":{"android":"levelo://app?vid=b6357a6b-fb7d-4cc0-be61-cee5cdc46eea","ios":"levelo://app?vid=b6357a6b-fb7d-4cc0-be61-cee5cdc46eea"},"vehicle_type_id":"4","last_reported":1749478305,"current_range_meters":9600,"station_id":"ce4bhg12rcd13ifvqf70","pricing_plan_id":"cebpf4jnsgd1na2vs0mg"},{"bike_id":"809ebc01-e73f-4e18-a6e8-d6db6fb4da87","system_id":"levelo_inurba_marseille","lat":43.25496,"lon":5.37659,"is_reserved":false,"is_disabled":false,"rental_uris":{"android":"levelo://app?vid=809ebc01-e73f-4e18-a6e8-d6db6fb4da87","ios":"levelo://app?vid=809ebc01-e73f-4e18-a6e8-d6db6fb4da87"},"vehicle_type_id":"4","last_reported":1749478305,"current_range_meters":9600,"station_id":"ce4bhh12rcd13ifvqff0","pricing_plan_id":"cebpf4jnsgd1na2vs0mg"},{"bike_id":"6246825d-02f4-4b98-9ee0-336fe2684f68","system_id":"levelo_inurba_marseille","lat":43.31638,"lon":5.38974,"is_reserved":false,"is_disabled":false,"rental_uris":{"android":"levelo://app?vid=6246825d-02f4-4b98-9ee0-336fe2684f68","ios":"levelo://app?vid=6246825d-02f4-4b98-9ee0-336fe2684f68"},"vehicle_type_id":"4","last_reported":1749478305,"current_range_meters":9600,"station_id":"","pricing_plan_id":"cebpf4jnsgd1na2vs0mg"},{"bike_id":"7101e620-cc76-4028-b91a-a52aa997ec1d","system_id":"levelo_inurba_marseille","lat":43.30654,"lon":5.37385,"is_reserved":false,"is_disabled":false,"rental_uris":{"android":"levelo://app?vid=7101e620-cc76-4028-b91a-a52aa997ec1d","ios":"levelo://app?vid=7101e620-cc76-4028-b91a-a52aa997ec1d"},"vehicle_type_id":"4","last_reported":1749478305,"current_range_meters":9600,"station_id":"","pricing_plan_id":"cebpf4jnsgd1na2vs0mg"},{"bike_id":"39cdf7ed-89dc-4de2-aafe-6c9905ce3698","system_id":"levelo_inurba_marseille","lat":43.29799,"lon":5.36821,"is_reserved":false,"is_disabled":false,"rental_uris":{"android":"levelo://app?vid=39cdf7ed-89dc-4de2-aafe-6c9905ce3698","ios":"levelo://app?vid=39cdf7ed-89dc-4de2-aafe-6c9905ce3698"},"vehicle_type_id":"4","last_reported":1749478305,"current_range_meters":10000,"station_id":"","pricing_plan_id":"cebpf4jnsgd1na2vs0mg"},{"bike_id":"649a7053-0d2a-4dc9-8125-ff6f6a643fa3","system_id":"levelo_inurba_marseille","lat":43.26242,"lon":5.37443,"is_reserved":false,"is_disabled":false,"rental_uris":{"android":"levelo://app?vid=649a7053-0d2a-4dc9-8125-ff6f6a643fa3","ios":"levelo://app?vid=649a7053-0d2a-4dc9-8125-ff6f6a643fa3"},"vehicle_type_id":"4","last_reported":1749478305,"current_range_meters":10000,"station_id":"","pricing_plan_id":"cebpf4jnsgd1na2vs0mg"},{"bike_id":"cd57c3e4-7fb2-4519-aef1-21790d297e41","system_id":"levelo_inurba_marseille","lat":43.28256,"lon":5.35067,"is_reserved":false,"is_disabled":false,"rental_uris":{"android":"levelo://app?vid=cd57c3e4-7fb2-4519-aef1-21790d297e41","ios":"levelo://app?vid=cd57c3e4-7fb2-4519-aef1-21790d297e41"},"vehicle_type_id":"4","last_reported":1749478305,"current_range_meters":10000,"station_id":"ce4bhbp2rcd13ifvqerg","pricing_plan_id":"cebpf4jnsgd1na2vs0mg"},{"bike_id":"1f99bae8-b64b-4aeb-8739-f815029c8434","system_id":"levelo_inurba_marseille","lat":43.21757,"lon":5.34605,"is_reserved":false,"is_disabled":false,"rental_uris":{"android":"levelo://app?vid=1f99bae8-b64b-4aeb-8739-f815029c8434","ios":"levelo://app?vid=1f99bae8-b64b-4aeb-8739-f815029c8434"},"vehicle_type_id":"4","last_reported":1749478305,"current_range_meters":10000,"station_id":"st_cvj6r9ubvosntc0bgbag","pricing_plan_id":"cebpf4jnsgd1na2vs0mg"},{"bike_id":"225d0f70-7c17-4a90-9f3e-76ecd463a5ee","system_id":"levelo_inurba_marseille","lat":43.2944,"lon":5.39765,"is_reserved":false,"is_disabled":false,"rental_uris":{"android":"levelo://app?vid=225d0f70-7c17-4a90-9f3e-76ecd463a5ee","ios":"levelo://app?vid=225d0f70-7c17-4a90-9f3e-76ecd463a5ee"},"vehicle_type_id":"4","last_reported":1749478305,"current_range_meters":10000,"station_id":"ce4bh3h2rcd13ifvqdo0","pricing_plan_id":"cebpf4jnsgd1na2vs0mg"},{"bike_id":"fbafb49f-3f65-456b-9f70-613a58524798","system_id":"levelo_inurba_marseille","lat":43.23977,"lon":5.36658,"is_reserved":false,"is_disabled":false,"rental_uris":{"android":"levelo://app?vid=fbafb49f-3f65-456b-9f70-613a58524798","ios":"levelo://app?vid=fbafb49f-3f65-456b-9f70-613a58524798"},"vehicle_type_id":"4","last_reported":1749478305,"current_range_meters":10000,"station_id":"ce4bhi12rcd13ifvqfp0","pricing_plan_id":"cebpf4jnsgd1na2vs0mg"},{"bike_id":"ed00ef55-0e4e-4c69-a83d-529208d44147","system_id":"levelo_inurba_marseille","lat":43.2861,"lon":5.35101,"is_reserved":false,"is_disabled":false,"rental_uris":{"android":"levelo://app?vid=ed00ef55-0e4e-4c69-a83d-529208d44147","ios":"levelo://app?vid=ed00ef55-0e4e-4c69-a83d-529208d44147"},"vehicle_type_id":"4","last_reported":1749478305,"current_range_meters":10000,"station_id":"ce4bhch2rcd13ifvqeug","pricing_plan_id":"cebpf4jnsgd1na2vs0mg"},{"bike_id":"cb990818-444e-4c31-908c-0ac881770dbf","system_id":"levelo_inurba_marseille","lat":43.33067,"lon":5.38247,"is_reserved":false,"is_disabled":false,"rental_uris":{"android":"levelo://app?vid=cb990818-444e-4c31-908c-0ac881770dbf","ios":"levelo://app?vid=cb990818-444e-4c31-908c-0ac881770dbf"},"vehicle_type_id":"4","last_reported":1749478305,"current_range_meters":10000,"station_id":"","pricing_plan_id":"cebpf4jnsgd1na2vs0mg"},{"bike_id":"61f6c674-87d9-4784-b4ee-5aeb9b4f5830","system_id":"levelo_inurba_marseille","lat":43.29532,"lon":5.38554,"is_reserved":false,"is_disabled":false,"rental_uris":{"android":"levelo://app?vid=61f6c674-87d9-4784-b4ee-5aeb9b4f5830","ios":"levelo://app?vid=61f6c674-87d9-4784-b4ee-5aeb9b4f5830"},"vehicle_type_id":"4","last_reported":1749478305,"current_range_meters":10000,"station_id":"ce4bgih2rcd13ifvqba0","pricing_plan_id":"cebpf4jnsgd1na2vs0mg"},{"bike_id":"9216dba1-771f-4e5a-af74-387979995090","system_id":"levelo_inurba_marseille","lat":43.2119,"lon":5.35075,"is_reserved":false,"is_disabled":false,"rental_uris":{"android":"levelo://app?vid=9216dba1-771f-4e5a-af74-387979995090","ios":"levelo://app?vid=9216dba1-771f-4e5a-af74-387979995090"},"vehicle_type_id":"4","last_reported":1749478305,"current_range_meters":10800,"station_id":"st_cvj6sg6p6f1abm77japg","pricing_plan_id":"cebpf4jnsgd1na2vs0mg"},{"bike_id":"7a286b17-17df-491a-a381-1330c2f7a715","system_id":"levelo_inurba_marseille","lat":43.29907,"lon":5.43669,"is_reserved":false,"is_disabled":false,"rental_uris":{"android":"levelo://app?vid=7a286b17-17df-491a-a381-1330c2f7a715","ios":"levelo://app?vid=7a286b17-17df-491a-a381-1330c2f7a715"},"vehicle_type_id":"4","last_reported":1749478305,"current_range_meters":10800,"station_id":"ce4bhpp2rcd13ifvqhfg","pricing_plan_id":"cebpf4jnsgd1na2vs0mg"},{"bike_id":"749edadc-4592-4f96-ba99-8dbb54628304","system_id":"levelo_inurba_marseille","lat":43.21759,"lon":5.34598,"is_reserved":false,"is_disabled":false,"rental_uris":{"android":"levelo://app?vid=749edadc-4592-4f96-ba99-8dbb54628304","ios":"levelo://app?vid=749edadc-4592-4f96-ba99-8dbb54628304"},"vehicle_type_id":"4","last_reported":1749478305,"current_range_meters":10800,"station_id":"st_cvj6r9ubvosntc0bgbag","pricing_plan_id":"cebpf4jnsgd1na2vs0mg"},{"bike_id":"138ce3a7-3665-4cf3-9b4e-12159a8d7ee9","system_id":"levelo_inurba_marseille","lat":43.28001,"lon":5.40004,"is_reserved":false,"is_disabled":false,"rental_uris":{"android":"levelo://app?vid=138ce3a7-3665-4cf3-9b4e-12159a8d7ee9","ios":"levelo://app?vid=138ce3a7-3665-4cf3-9b4e-12159a8d7ee9"},"vehicle_type_id":"4","last_reported":1749478305,"current_range_meters":10000,"station_id":"ce4bho92rcd13ifvqh4g","pricing_plan_id":"cebpf4jnsgd1na2vs0mg"},{"bike_id":"8f8a4ccb-171b-4dbb-8ae4-31e8a264532f","system_id":"levelo_inurba_marseille","lat":43.28417,"lon":5.34998,"is_reserved":false,"is_disabled":false,"rental_uris":{"android":"levelo://app?vid=8f8a4ccb-171b-4dbb-8ae4-31e8a264532f","ios":"levelo://app?vid=8f8a4ccb-171b-4dbb-8ae4-31e8a264532f"},"vehicle_type_id":"4","last_reported":1749478305,"current_range_meters":11200,"station_id":"ce4bhbh2rcd13ifvqepg","pricing_plan_id":"cebpf4jnsgd1na2vs0mg"},{"bike_id":"f9a7995c-43bd-4d9c-a96e-c45956ade08b","system_id":"levelo_inurba_marseille","lat":43.27625,"lon":5.36131,"is_reserved":false,"is_disabled":false,"rental_uris":{"android":"levelo://app?vid=f9a7995c-43bd-4d9c-a96e-c45956ade08b","ios":"levelo://app?vid=f9a7995c-43bd-4d9c-a96e-c45956ade08b"},"vehicle_type_id":"4","last_reported":1749478305,"current_range_meters":11200,"station_id":"ce4bgj92rcd13ifvqbe0","pricing_plan_id":"cebpf4jnsgd1na2vs0mg"},{"bike_id":"626c3e65-d746-497b-9b60-a144401c263b","system_id":"levelo_inurba_marseille","lat":43.3043,"lon":5.38891,"is_reserved":false,"is_disabled":false,"rental_uris":{"android":"levelo://app?vid=626c3e65-d746-497b-9b60-a144401c263b","ios":"levelo://app?vid=626c3e65-d746-497b-9b60-a144401c263b"},"vehicle_type_id":"4","last_reported":1749478305,"current_range_meters":11200,"station_id":"ce4bgk12rcd13ifvqbi0","pricing_plan_id":"cebpf4jnsgd1na2vs0mg"},{"bike_id":"2c441bbf-d288-4d72-9ee1-76e95c230117","system_id":"levelo_inurba_marseille","lat":43.27627,"lon":5.36117,"is_reserved":false,"is_disabled":false,"rental_uris":{"android":"levelo://app?vid=2c441bbf-d288-4d72-9ee1-76e95c230117","ios":"levelo://app?vid=2c441bbf-d288-4d72-9ee1-76e95c230117"},"vehicle_type_id":"4","last_reported":1749478305,"current_range_meters":11200,"station_id":"ce4bgj92rcd13ifvqbe0","pricing_plan_id":"cebpf4jnsgd1na2vs0mg"},{"bike_id":"1fdce072-d226-4da1-ba02-fbcc0f1c5d7a","system_id":"levelo_inurba_marseille","lat":43.21748,"lon":5.34615,"is_reserved":false,"is_disabled":false,"rental_uris":{"android":"levelo://app?vid=1fdce072-d226-4da1-ba02-fbcc0f1c5d7a","ios":"levelo://app?vid=1fdce072-d226-4da1-ba02-fbcc0f1c5d7a"},"vehicle_type_id":"4","last_reported":1749478305,"current_range_meters":11200,"station_id":"st_cvj6r9ubvosntc0bgbag","pricing_plan_id":"cebpf4jnsgd1na2vs0mg"},{"bike_id":"da14da1f-7442-42b5-98f6-365f4fbd4c56","system_id":"levelo_inurba_marseille","lat":43.31867,"lon":5.38712,"is_reserved":false,"is_disabled":false,"rental_uris":{"android":"levelo://app?vid=da14da1f-7442-42b5-98f6-365f4fbd4c56","ios":"levelo://app?vid=da14da1f-7442-42b5-98f6-365f4fbd4c56"},"vehicle_type_id":"4","last_reported":1749478305,"current_range_meters":11200,"station_id":"","pricing_plan_id":"cebpf4jnsgd1na2vs0mg"},{"bike_id":"ba18b8d6-36dc-4ba2-8440-35095876d199","system_id":"levelo_inurba_marseille","lat":43.229177,"lon":5.353768,"is_reserved":false,"is_disabled":false,"rental_uris":{"android":"levelo://app?vid=ba18b8d6-36dc-4ba2-8440-35095876d199","ios":"levelo://app?vid=ba18b8d6-36dc-4ba2-8440-35095876d199"},"vehicle_type_id":"4","last_reported":1749478305,"current_range_meters":11600,"station_id":"cpo3532slgdg3j2ikp40","pricing_plan_id":"cebpf4jnsgd1na2vs0mg"},{"bike_id":"d4960690-2db9-4284-8047-6f5686468ecc","system_id":"levelo_inurba_marseille","lat":43.31718,"lon":5.40469,"is_reserved":false,"is_disabled":false,"rental_uris":{"android":"levelo://app?vid=d4960690-2db9-4284-8047-6f5686468ecc","ios":"levelo://app?vid=d4960690-2db9-4284-8047-6f5686468ecc"},"vehicle_type_id":"4","last_reported":1749478305,"current_range_meters":11600,"station_id":"ce4bh012rcd13ifvqd00","pricing_plan_id":"cebpf4jnsgd1na2vs0mg"},{"bike_id":"842b3250-4d8c-4a66-bdcc-cc0e7d8d04c9","system_id":"levelo_inurba_marseille","lat":43.21759,"lon":5.34619,"is_reserved":false,"is_disabled":false,"rental_uris":{"android":"levelo://app?vid=842b3250-4d8c-4a66-bdcc-cc0e7d8d04c9","ios":"levelo://app?vid=842b3250-4d8c-4a66-bdcc-cc0e7d8d04c9"},"vehicle_type_id":"4","last_reported":1749478305,"current_range_meters":11600,"station_id":"st_cvj6r9ubvosntc0bgbag","pricing_plan_id":"cebpf4jnsgd1na2vs0mg"},{"bike_id":"4b48594e-0db4-4c10-bc6d-2c152c7ab41d","system_id":"levelo_inurba_marseille","lat":43.28395,"lon":5.34983,"is_reserved":false,"is_disabled":false,"rental_uris":{"android":"levelo://app?vid=4b48594e-0db4-4c10-bc6d-2c152c7ab41d","ios":"levelo://app?vid=4b48594e-0db4-4c10-bc6d-2c152c7ab41d"},"vehicle_type_id":"4","last_reported":1749478305,"current_range_meters":11600,"station_id":"ce4bhbh2rcd13ifvqepg","pricing_plan_id":"cebpf4jnsgd1na2vs0mg"},{"bike_id":"ec6f23f1-4435-4f03-b947-be2326a2502a","system_id":"levelo_inurba_marseille","lat":43.27608,"lon":5.36133,"is_reserved":false,"is_disabled":false,"rental_uris":{"android":"levelo://app?vid=ec6f23f1-4435-4f03-b947-be2326a2502a","ios":"levelo://app?vid=ec6f23f1-4435-4f03-b947-be2326a2502a"},"vehicle_type_id":"4","last_reported":1749478305,"current_range_meters":11600,"station_id":"ce4bgj92rcd13ifvqbe0","pricing_plan_id":"cebpf4jnsgd1na2vs0mg"},{"bike_id":"0ef13df7-f0a2-4ad0-bec8-42d38ed31c24","system_id":"levelo_inurba_marseille","lat":43.26208,"lon":5.37443,"is_reserved":false,"is_disabled":false,"rental_uris":{"android":"levelo://app?vid=0ef13df7-f0a2-4ad0-bec8-42d38ed31c24","ios":"levelo://app?vid=0ef13df7-f0a2-4ad0-bec8-42d38ed31c24"},"vehicle_type_id":"4","last_reported":1749478305,"current_range_meters":11600,"station_id":"ce4bhgp2rcd13ifvqfc0","pricing_plan_id":"cebpf4jnsgd1na2vs0mg"},{"bike_id":"898adc08-6852-494f-92e0-a15241901b70","system_id":"levelo_inurba_marseille","lat":43.26278,"lon":5.37529,"is_reserved":false,"is_disabled":false,"rental_uris":{"android":"levelo://app?vid=898adc08-6852-494f-92e0-a15241901b70","ios":"levelo://app?vid=898adc08-6852-494f-92e0-a15241901b70"},"vehicle_type_id":"4","last_reported":1749478305,"current_range_meters":12000,"station_id":"","pricing_plan_id":"cebpf4jnsgd1na2vs0mg"},{"bike_id":"3691427f-31f1-4d5f-8961-58f86fee09f5","system_id":"levelo_inurba_marseille","lat":43.27981,"lon":5.41649,"is_reserved":false,"is_disabled":false,"rental_uris":{"android":"levelo://app?vid=3691427f-31f1-4d5f-8961-58f86fee09f5","ios":"levelo://app?vid=3691427f-31f1-4d5f-8961-58f86fee09f5"},"vehicle_type_id":"4","last_reported":1749478305,"current_range_meters":12000,"station_id":"ce4bho12rcd13ifvqh1g","pricing_plan_id":"cebpf4jnsgd1na2vs0mg"},{"bike_id":"ba472bab-4664-498a-bf9c-6d27d6d5731e","system_id":"levelo_inurba_marseille","lat":43.217446,"lon":5.346006,"is_reserved":false,"is_disabled":false,"rental_uris":{"android":"levelo://app?vid=ba472bab-4664-498a-bf9c-6d27d6d5731e","ios":"levelo://app?vid=ba472bab-4664-498a-bf9c-6d27d6d5731e"},"vehicle_type_id":"4","last_reported":1749478305,"current_range_meters":12000,"station_id":"st_cvj6r9ubvosntc0bgbag","pricing_plan_id":"cebpf4jnsgd1na2vs0mg"},{"bike_id":"036ddd9b-7336-46f1-86ce-c5ff4d74ea35","system_id":"levelo_inurba_marseille","lat":43.27601,"lon":5.36101,"is_reserved":false,"is_disabled":false,"rental_uris":{"android":"levelo://app?vid=036ddd9b-7336-46f1-86ce-c5ff4d74ea35","ios":"levelo://app?vid=036ddd9b-7336-46f1-86ce-c5ff4d74ea35"},"vehicle_type_id":"4","last_reported":1749478305,"current_range_meters":12000,"station_id":"ce4bgj92rcd13ifvqbe0","pricing_plan_id":"cebpf4jnsgd1na2vs0mg"},{"bike_id":"4cacb408-f051-4e32-ba40-16604d300ec9","system_id":"levelo_inurba_marseille","lat":43.28431,"lon":5.35008,"is_reserved":false,"is_disabled":false,"rental_uris":{"android":"levelo://app?vid=4cacb408-f051-4e32-ba40-16604d300ec9","ios":"levelo://app?vid=4cacb408-f051-4e32-ba40-16604d300ec9"},"vehicle_type_id":"4","last_reported":1749478305,"current_range_meters":12000,"station_id":"ce4bhbh2rcd13ifvqepg","pricing_plan_id":"cebpf4jnsgd1na2vs0mg"},{"bike_id":"aa1bdd37-123a-417e-b194-c17fd42be0da","system_id":"levelo_inurba_marseille","lat":43.21214,"lon":5.35086,"is_reserved":false,"is_disabled":false,"rental_uris":{"android":"levelo://app?vid=aa1bdd37-123a-417e-b194-c17fd42be0da","ios":"levelo://app?vid=aa1bdd37-123a-417e-b194-c17fd42be0da"},"vehicle_type_id":"4","last_reported":1749478305,"current_range_meters":12000,"station_id":"st_cvj6sg6p6f1abm77japg","pricing_plan_id":"cebpf4jnsgd1na2vs0mg"},{"bike_id":"2e200b46-8f93-4bdb-af5d-d2b220d0d737","system_id":"levelo_inurba_marseille","lat":43.23201,"lon":5.40002,"is_reserved":false,"is_disabled":false,"rental_uris":{"android":"levelo://app?vid=2e200b46-8f93-4bdb-af5d-d2b220d0d737","ios":"levelo://app?vid=2e200b46-8f93-4bdb-af5d-d2b220d0d737"},"vehicle_type_id":"4","last_reported":1749478305,"current_range_meters":12000,"station_id":"ce4bhn12rcd13ifvqgqg","pricing_plan_id":"cebpf4jnsgd1na2vs0mg"},{"bike_id":"c09b1c1e-6d5b-4a72-8f97-eccd430a9e54","system_id":"levelo_inurba_marseille","lat":43.26677,"lon":5.38264,"is_reserved":false,"is_disabled":false,"rental_uris":{"android":"levelo://app?vid=c09b1c1e-6d5b-4a72-8f97-eccd430a9e54","ios":"levelo://app?vid=c09b1c1e-6d5b-4a72-8f97-eccd430a9e54"},"vehicle_type_id":"4","last_reported":1749478305,"current_range_meters":12000,"station_id":"ce4bhgp2rcd13ifvqfc0","pricing_plan_id":"cebpf4jnsgd1na2vs0mg"},{"bike_id":"fbb9b34c-7031-4d75-9691-342c610b2101","system_id":"levelo_inurba_marseille","lat":43.28385,"lon":5.36448,"is_reserved":false,"is_disabled":false,"rental_uris":{"android":"levelo://app?vid=fbb9b34c-7031-4d75-9691-342c610b2101","ios":"levelo://app?vid=fbb9b34c-7031-4d75-9691-342c610b2101"},"vehicle_type_id":"4","last_reported":1749478305,"current_range_meters":12400,"station_id":"","pricing_plan_id":"cebpf4jnsgd1na2vs0mg"},{"bike_id":"372fc13b-95b8-4015-b4bc-28a5fabccded","system_id":"levelo_inurba_marseille","lat":43.22509,"lon":5.34781,"is_reserved":false,"is_disabled":false,"rental_uris":{"android":"levelo://app?vid=372fc13b-95b8-4015-b4bc-28a5fabccded","ios":"levelo://app?vid=372fc13b-95b8-4015-b4bc-28a5fabccded"},"vehicle_type_id":"4","last_reported":1749478305,"current_range_meters":12400,"station_id":"st_cvj5dfep6f1abm77gieg","pricing_plan_id":"cebpf4jnsgd1na2vs0mg"},{"bike_id":"a8650cfe-a31a-4ec8-a221-8f99bc0f054c","system_id":"levelo_inurba_marseille","lat":43.21196,"lon":5.35093,"is_reserved":false,"is_disabled":false,"rental_uris":{"android":"levelo://app?vid=a8650cfe-a31a-4ec8-a221-8f99bc0f054c","ios":"levelo://app?vid=a8650cfe-a31a-4ec8-a221-8f99bc0f054c"},"vehicle_type_id":"4","last_reported":1749478305,"current_range_meters":12400,"station_id":"st_cvj6sg6p6f1abm77japg","pricing_plan_id":"cebpf4jnsgd1na2vs0mg"},{"bike_id":"5aee6e98-5d72-4a58-8068-559ee9f9703d","system_id":"levelo_inurba_marseille","lat":43.21202,"lon":5.3508,"is_reserved":false,"is_disabled":false,"rental_uris":{"android":"levelo://app?vid=5aee6e98-5d72-4a58-8068-559ee9f9703d","ios":"levelo://app?vid=5aee6e98-5d72-4a58-8068-559ee9f9703d"},"vehicle_type_id":"4","last_reported":1749478305,"current_range_meters":12400,"station_id":"st_cvj6sg6p6f1abm77japg","pricing_plan_id":"cebpf4jnsgd1na2vs0mg"},{"bike_id":"c8c4af1d-070c-484a-a3f7-babd17d99646","system_id":"levelo_inurba_marseille","lat":43.33716,"lon":5.39186,"is_reserved":false,"is_disabled":false,"rental_uris":{"android":"levelo://app?vid=c8c4af1d-070c-484a-a3f7-babd17d99646","ios":"levelo://app?vid=c8c4af1d-070c-484a-a3f7-babd17d99646"},"vehicle_type_id":"4","last_reported":1749478305,"current_range_meters":12400,"station_id":"ce4bhr92rcd13ifvqhsg","pricing_plan_id":"cebpf4jnsgd1na2vs0mg"},{"bike_id":"cd090228-ac5a-47a7-a51b-5edfc36abc08","system_id":"levelo_inurba_marseille","lat":43.26032,"lon":5.3759,"is_reserved":false,"is_disabled":false,"rental_uris":{"android":"levelo://app?vid=cd090228-ac5a-47a7-a51b-5edfc36abc08","ios":"levelo://app?vid=cd090228-ac5a-47a7-a51b-5edfc36abc08"},"vehicle_type_id":"4","last_reported":1749478305,"current_range_meters":12400,"station_id":"ce4bhgh2rcd13ifvqfa0","pricing_plan_id":"cebpf4jnsgd1na2vs0mg"},{"bike_id":"b4e4e14c-70a2-4b6f-86e8-a37ac2f389d3","system_id":"levelo_inurba_marseille","lat":43.27819,"lon":5.40709,"is_reserved":false,"is_disabled":false,"rental_uris":{"android":"levelo://app?vid=b4e4e14c-70a2-4b6f-86e8-a37ac2f389d3","ios":"levelo://app?vid=b4e4e14c-70a2-4b6f-86e8-a37ac2f389d3"},"vehicle_type_id":"4","last_reported":1749478305,"current_range_meters":12400,"station_id":"ce4bhnh2rcd13ifvqgtg","pricing_plan_id":"cebpf4jnsgd1na2vs0mg"},{"bike_id":"2c064bf8-26b7-4461-b719-591b03b33758","system_id":"levelo_inurba_marseille","lat":43.21756,"lon":5.34614,"is_reserved":false,"is_disabled":false,"rental_uris":{"android":"levelo://app?vid=2c064bf8-26b7-4461-b719-591b03b33758","ios":"levelo://app?vid=2c064bf8-26b7-4461-b719-591b03b33758"},"vehicle_type_id":"4","last_reported":1749478305,"current_range_meters":12800,"station_id":"st_cvj6r9ubvosntc0bgbag","pricing_plan_id":"cebpf4jnsgd1na2vs0mg"},{"bike_id":"46c45b18-1394-472b-9717-9272a4c994da","system_id":"levelo_inurba_marseille","lat":43.28275,"lon":5.3508,"is_reserved":false,"is_disabled":false,"rental_uris":{"android":"levelo://app?vid=46c45b18-1394-472b-9717-9272a4c994da","ios":"levelo://app?vid=46c45b18-1394-472b-9717-9272a4c994da"},"vehicle_type_id":"4","last_reported":1749478305,"current_range_meters":12800,"station_id":"ce4bhbp2rcd13ifvqerg","pricing_plan_id":"cebpf4jnsgd1na2vs0mg"},{"bike_id":"2ed4d114-20f5-4a86-acfa-2045a6bb5c8a","system_id":"levelo_inurba_marseille","lat":43.24379,"lon":5.37048,"is_reserved":false,"is_disabled":false,"rental_uris":{"android":"levelo://app?vid=2ed4d114-20f5-4a86-acfa-2045a6bb5c8a","ios":"levelo://app?vid=2ed4d114-20f5-4a86-acfa-2045a6bb5c8a"},"vehicle_type_id":"4","last_reported":1749478305,"current_range_meters":13600,"station_id":"ce4bhhh2rcd13ifvqfk0","pricing_plan_id":"cebpf4jnsgd1na2vs0mg"},{"bike_id":"7050f6e9-c88e-4979-a478-0f9a9c428b41","system_id":"levelo_inurba_marseille","lat":43.29305,"lon":5.37172,"is_reserved":false,"is_disabled":false,"rental_uris":{"android":"levelo://app?vid=7050f6e9-c88e-4979-a478-0f9a9c428b41","ios":"levelo://app?vid=7050f6e9-c88e-4979-a478-0f9a9c428b41"},"vehicle_type_id":"4","last_reported":1749478305,"current_range_meters":13600,"station_id":"ce4bgh92rcd13ifvqb40","pricing_plan_id":"cebpf4jnsgd1na2vs0mg"},{"bike_id":"8e317286-d121-41fb-88b8-5b957116b9fe","system_id":"levelo_inurba_marseille","lat":43.2119,"lon":5.3507,"is_reserved":false,"is_disabled":false,"rental_uris":{"android":"levelo://app?vid=8e317286-d121-41fb-88b8-5b957116b9fe","ios":"levelo://app?vid=8e317286-d121-41fb-88b8-5b957116b9fe"},"vehicle_type_id":"4","last_reported":1749478305,"current_range_meters":13600,"station_id":"st_cvj6sg6p6f1abm77japg","pricing_plan_id":"cebpf4jnsgd1na2vs0mg"},{"bike_id":"80a0df42-20d9-4736-8e76-7218c0997a1e","system_id":"levelo_inurba_marseille","lat":43.28408,"lon":5.34994,"is_reserved":false,"is_disabled":false,"rental_uris":{"android":"levelo://app?vid=80a0df42-20d9-4736-8e76-7218c0997a1e","ios":"levelo://app?vid=80a0df42-20d9-4736-8e76-7218c0997a1e"},"vehicle_type_id":"4","last_reported":1749478305,"current_range_meters":13600,"station_id":"ce4bhbh2rcd13ifvqepg","pricing_plan_id":"cebpf4jnsgd1na2vs0mg"},{"bike_id":"48d4ea13-7f91-4530-b695-ed01c385b9a6","system_id":"levelo_inurba_marseille","lat":43.282626,"lon":5.350588,"is_reserved":false,"is_disabled":false,"rental_uris":{"android":"levelo://app?vid=48d4ea13-7f91-4530-b695-ed01c385b9a6","ios":"levelo://app?vid=48d4ea13-7f91-4530-b695-ed01c385b9a6"},"vehicle_type_id":"4","last_reported":1749478305,"current_range_meters":14000,"station_id":"ce4bhbp2rcd13ifvqerg","pricing_plan_id":"cebpf4jnsgd1na2vs0mg"},{"bike_id":"5f2fea90-0683-4be5-a6ec-2516c355d622","system_id":"levelo_inurba_marseille","lat":43.24167,"lon":5.36397,"is_reserved":false,"is_disabled":false,"rental_uris":{"android":"levelo://app?vid=5f2fea90-0683-4be5-a6ec-2516c355d622","ios":"levelo://app?vid=5f2fea90-0683-4be5-a6ec-2516c355d622"},"vehicle_type_id":"4","last_reported":1749478305,"current_range_meters":14000,"station_id":"cpo36qri1sfpv3e86is0","pricing_plan_id":"cebpf4jnsgd1na2vs0mg"},{"bike_id":"a9fdb91c-7438-41ab-a755-af1bfb7dfc48","system_id":"levelo_inurba_marseille","lat":43.23062,"lon":5.35497,"is_reserved":false,"is_disabled":false,"rental_uris":{"android":"levelo://app?vid=a9fdb91c-7438-41ab-a755-af1bfb7dfc48","ios":"levelo://app?vid=a9fdb91c-7438-41ab-a755-af1bfb7dfc48"},"vehicle_type_id":"4","last_reported":1749478305,"current_range_meters":13600,"station_id":"cpo3342slgdg3j2ifvpg","pricing_plan_id":"cebpf4jnsgd1na2vs0mg"},{"bike_id":"2f32b755-3ca4-4102-8e33-37fff5e1ff8d","system_id":"levelo_inurba_marseille","lat":43.27167,"lon":5.40152,"is_reserved":false,"is_disabled":false,"rental_uris":{"android":"levelo://app?vid=2f32b755-3ca4-4102-8e33-37fff5e1ff8d","ios":"levelo://app?vid=2f32b755-3ca4-4102-8e33-37fff5e1ff8d"},"vehicle_type_id":"4","last_reported":1749478305,"current_range_meters":14000,"station_id":"","pricing_plan_id":"cebpf4jnsgd1na2vs0mg"},{"bike_id":"ec07001e-2983-41dc-8c5c-ab6ed645b8c7","system_id":"levelo_inurba_marseille","lat":43.26224,"lon":5.40462,"is_reserved":false,"is_disabled":false,"rental_uris":{"android":"levelo://app?vid=ec07001e-2983-41dc-8c5c-ab6ed645b8c7","ios":"levelo://app?vid=ec07001e-2983-41dc-8c5c-ab6ed645b8c7"},"vehicle_type_id":"4","last_reported":1749478305,"current_range_meters":14000,"station_id":"ce4bhmh2rcd13ifvqgmg","pricing_plan_id":"cebpf4jnsgd1na2vs0mg"},{"bike_id":"64578cd7-b5f6-423c-bb6a-a97838c483a2","system_id":"levelo_inurba_marseille","lat":43.21769,"lon":5.34612,"is_reserved":false,"is_disabled":false,"rental_uris":{"android":"levelo://app?vid=64578cd7-b5f6-423c-bb6a-a97838c483a2","ios":"levelo://app?vid=64578cd7-b5f6-423c-bb6a-a97838c483a2"},"vehicle_type_id":"4","last_reported":1749478305,"current_range_meters":14000,"station_id":"st_cvj6r9ubvosntc0bgbag","pricing_plan_id":"cebpf4jnsgd1na2vs0mg"},{"bike_id":"52d1b077-b6d4-4662-b739-a4e64dc2f1a9","system_id":"levelo_inurba_marseille","lat":43.28278,"lon":5.35083,"is_reserved":false,"is_disabled":false,"rental_uris":{"android":"levelo://app?vid=52d1b077-b6d4-4662-b739-a4e64dc2f1a9","ios":"levelo://app?vid=52d1b077-b6d4-4662-b739-a4e64dc2f1a9"},"vehicle_type_id":"4","last_reported":1749478305,"current_range_meters":14400,"station_id":"ce4bhbp2rcd13ifvqerg","pricing_plan_id":"cebpf4jnsgd1na2vs0mg"},{"bike_id":"b775c92a-f07e-4683-9ec6-efe633d69f20","system_id":"levelo_inurba_marseille","lat":43.21763,"lon":5.34627,"is_reserved":false,"is_disabled":false,"rental_uris":{"android":"levelo://app?vid=b775c92a-f07e-4683-9ec6-efe633d69f20","ios":"levelo://app?vid=b775c92a-f07e-4683-9ec6-efe633d69f20"},"vehicle_type_id":"4","last_reported":1749478305,"current_range_meters":14000,"station_id":"st_cvj6r9ubvosntc0bgbag","pricing_plan_id":"cebpf4jnsgd1na2vs0mg"},{"bike_id":"39338a7f-9696-4e8d-a23c-ee7de2652e3d","system_id":"levelo_inurba_marseille","lat":43.211959,"lon":5.350821,"is_reserved":false,"is_disabled":false,"rental_uris":{"android":"levelo://app?vid=39338a7f-9696-4e8d-a23c-ee7de2652e3d","ios":"levelo://app?vid=39338a7f-9696-4e8d-a23c-ee7de2652e3d"},"vehicle_type_id":"4","last_reported":1749478305,"current_range_meters":14400,"station_id":"st_cvj6sg6p6f1abm77japg","pricing_plan_id":"cebpf4jnsgd1na2vs0mg"},{"bike_id":"7facd0d3-e088-4a5a-a896-d77e8e818ab6","system_id":"levelo_inurba_marseille","lat":43.29216,"lon":5.36056,"is_reserved":false,"is_disabled":true,"rental_uris":{"android":"levelo://app?vid=7facd0d3-e088-4a5a-a896-d77e8e818ab6","ios":"levelo://app?vid=7facd0d3-e088-4a5a-a896-d77e8e818ab6"},"vehicle_type_id":"4","last_reported":1749478305,"current_range_meters":14400,"station_id":"ce4bhbh2rcd13ifvqeqg","pricing_plan_id":"cebpf4jnsgd1na2vs0mg"},{"bike_id":"5fda9a87-2b68-4421-b415-520c832f56e9","system_id":"levelo_inurba_marseille","lat":43.21194,"lon":5.35077,"is_reserved":false,"is_disabled":false,"rental_uris":{"android":"levelo://app?vid=5fda9a87-2b68-4421-b415-520c832f56e9","ios":"levelo://app?vid=5fda9a87-2b68-4421-b415-520c832f56e9"},"vehicle_type_id":"4","last_reported":1749478305,"current_range_meters":14400,"station_id":"st_cvj6sg6p6f1abm77japg","pricing_plan_id":"cebpf4jnsgd1na2vs0mg"},{"bike_id":"5aa85669-e338-4181-967a-bce3e57b480a","system_id":"levelo_inurba_marseille","lat":43.30207,"lon":5.39463,"is_reserved":false,"is_disabled":false,"rental_uris":{"android":"levelo://app?vid=5aa85669-e338-4181-967a-bce3e57b480a","ios":"levelo://app?vid=5aa85669-e338-4181-967a-bce3e57b480a"},"vehicle_type_id":"4","last_reported":1749478305,"current_range_meters":14000,"station_id":"ce4bh0p2rcd13ifvqd70","pricing_plan_id":"cebpf4jnsgd1na2vs0mg"},{"bike_id":"6fd4cd93-a409-4da9-ad4b-b6025023458d","system_id":"levelo_inurba_marseille","lat":43.290126,"lon":5.38123,"is_reserved":false,"is_disabled":false,"rental_uris":{"android":"levelo://app?vid=6fd4cd93-a409-4da9-ad4b-b6025023458d","ios":"levelo://app?vid=6fd4cd93-a409-4da9-ad4b-b6025023458d"},"vehicle_type_id":"4","last_reported":1749478305,"current_range_meters":14800,"station_id":"","pricing_plan_id":"cebpf4jnsgd1na2vs0mg"},{"bike_id":"7b621075-9a84-4c80-869d-3f3541637187","system_id":"levelo_inurba_marseille","lat":43.22931,"lon":5.35384,"is_reserved":false,"is_disabled":false,"rental_uris":{"android":"levelo://app?vid=7b621075-9a84-4c80-869d-3f3541637187","ios":"levelo://app?vid=7b621075-9a84-4c80-869d-3f3541637187"},"vehicle_type_id":"4","last_reported":1749478305,"current_range_meters":14800,"station_id":"cpo3532slgdg3j2ikp40","pricing_plan_id":"cebpf4jnsgd1na2vs0mg"},{"bike_id":"b83d5609-6c86-4883-81d1-637d99ed4c41","system_id":"levelo_inurba_marseille","lat":43.27365,"lon":5.3624,"is_reserved":false,"is_disabled":false,"rental_uris":{"android":"levelo://app?vid=b83d5609-6c86-4883-81d1-637d99ed4c41","ios":"levelo://app?vid=b83d5609-6c86-4883-81d1-637d99ed4c41"},"vehicle_type_id":"4","last_reported":1749478305,"current_range_meters":14800,"station_id":"ce4bhbh2rcd13ifvqeo0","pricing_plan_id":"cebpf4jnsgd1na2vs0mg"},{"bike_id":"458922d4-88f3-4aa3-ae85-deca35c11eb8","system_id":"levelo_inurba_marseille","lat":43.276543,"lon":5.383929,"is_reserved":false,"is_disabled":false,"rental_uris":{"android":"levelo://app?vid=458922d4-88f3-4aa3-ae85-deca35c11eb8","ios":"levelo://app?vid=458922d4-88f3-4aa3-ae85-deca35c11eb8"},"vehicle_type_id":"4","last_reported":1749478305,"current_range_meters":14800,"station_id":"ce4bhg92rcd13ifvqf90","pricing_plan_id":"cebpf4jnsgd1na2vs0mg"},{"bike_id":"6b566ac5-f5de-4ba0-a650-a81ea46fe09e","system_id":"levelo_inurba_marseille","lat":43.341471,"lon":5.408995,"is_reserved":false,"is_disabled":false,"rental_uris":{"android":"levelo://app?vid=6b566ac5-f5de-4ba0-a650-a81ea46fe09e","ios":"levelo://app?vid=6b566ac5-f5de-4ba0-a650-a81ea46fe09e"},"vehicle_type_id":"4","last_reported":1749478305,"current_range_meters":14800,"station_id":"ce4bhqh2rcd13ifvqhlg","pricing_plan_id":"cebpf4jnsgd1na2vs0mg"},{"bike_id":"d7f228d3-40c9-494e-aaba-c8ab739652fc","system_id":"levelo_inurba_marseille","lat":43.28417,"lon":5.34973,"is_reserved":false,"is_disabled":false,"rental_uris":{"android":"levelo://app?vid=d7f228d3-40c9-494e-aaba-c8ab739652fc","ios":"levelo://app?vid=d7f228d3-40c9-494e-aaba-c8ab739652fc"},"vehicle_type_id":"4","last_reported":1749478305,"current_range_meters":14800,"station_id":"","pricing_plan_id":"cebpf4jnsgd1na2vs0mg"},{"bike_id":"138dba73-f197-46d0-988e-ddabb8a53f7e","system_id":"levelo_inurba_marseille","lat":43.25451,"lon":5.37674,"is_reserved":false,"is_disabled":false,"rental_uris":{"android":"levelo://app?vid=138dba73-f197-46d0-988e-ddabb8a53f7e","ios":"levelo://app?vid=138dba73-f197-46d0-988e-ddabb8a53f7e"},"vehicle_type_id":"4","last_reported":1749478305,"current_range_meters":14800,"station_id":"","pricing_plan_id":"cebpf4jnsgd1na2vs0mg"},{"bike_id":"90c24675-e654-4da0-a995-031c2b62c370","system_id":"levelo_inurba_marseille","lat":43.28266,"lon":5.35063,"is_reserved":false,"is_disabled":false,"rental_uris":{"android":"levelo://app?vid=90c24675-e654-4da0-a995-031c2b62c370","ios":"levelo://app?vid=90c24675-e654-4da0-a995-031c2b62c370"},"vehicle_type_id":"4","last_reported":1749478305,"current_range_meters":14800,"station_id":"ce4bhbp2rcd13ifvqerg","pricing_plan_id":"cebpf4jnsgd1na2vs0mg"},{"bike_id":"2de21299-d27c-47e9-aa84-a269068c3f28","system_id":"levelo_inurba_marseille","lat":43.23962,"lon":5.36634,"is_reserved":false,"is_disabled":false,"rental_uris":{"android":"levelo://app?vid=2de21299-d27c-47e9-aa84-a269068c3f28","ios":"levelo://app?vid=2de21299-d27c-47e9-aa84-a269068c3f28"},"vehicle_type_id":"4","last_reported":1749478305,"current_range_meters":14800,"station_id":"ce4bhi12rcd13ifvqfp0","pricing_plan_id":"cebpf4jnsgd1na2vs0mg"},{"bike_id":"0773d084-521e-4ca3-ad6c-4e45db7de073","system_id":"levelo_inurba_marseille","lat":43.27624,"lon":5.36172,"is_reserved":false,"is_disabled":false,"rental_uris":{"android":"levelo://app?vid=0773d084-521e-4ca3-ad6c-4e45db7de073","ios":"levelo://app?vid=0773d084-521e-4ca3-ad6c-4e45db7de073"},"vehicle_type_id":"4","last_reported":1749478305,"current_range_meters":15200,"station_id":"","pricing_plan_id":"cebpf4jnsgd1na2vs0mg"},{"bike_id":"5077581b-cebb-46fc-ba69-4fa8272d4810","system_id":"levelo_inurba_marseille","lat":43.21369,"lon":5.35546,"is_reserved":false,"is_disabled":false,"rental_uris":{"android":"levelo://app?vid=5077581b-cebb-46fc-ba69-4fa8272d4810","ios":"levelo://app?vid=5077581b-cebb-46fc-ba69-4fa8272d4810"},"vehicle_type_id":"4","last_reported":1749478305,"current_range_meters":16000,"station_id":"","pricing_plan_id":"cebpf4jnsgd1na2vs0mg"},{"bike_id":"dfe0a19c-e5dd-49f3-97ee-62fe11bb6fb9","system_id":"levelo_inurba_marseille","lat":43.29581,"lon":5.36746,"is_reserved":false,"is_disabled":false,"rental_uris":{"android":"levelo://app?vid=dfe0a19c-e5dd-49f3-97ee-62fe11bb6fb9","ios":"levelo://app?vid=dfe0a19c-e5dd-49f3-97ee-62fe11bb6fb9"},"vehicle_type_id":"4","last_reported":1749478305,"current_range_meters":15200,"station_id":"ce4bgph2rcd13ifvqc2g","pricing_plan_id":"cebpf4jnsgd1na2vs0mg"},{"bike_id":"9080ee0e-9056-4b76-9d4e-2d2b1f468981","system_id":"levelo_inurba_marseille","lat":43.28271,"lon":5.35064,"is_reserved":false,"is_disabled":false,"rental_uris":{"android":"levelo://app?vid=9080ee0e-9056-4b76-9d4e-2d2b1f468981","ios":"levelo://app?vid=9080ee0e-9056-4b76-9d4e-2d2b1f468981"},"vehicle_type_id":"4","last_reported":1749478305,"current_range_meters":16000,"station_id":"ce4bhbp2rcd13ifvqerg","pricing_plan_id":"cebpf4jnsgd1na2vs0mg"},{"bike_id":"3c7105e8-a9af-487d-9835-b309f4e6124e","system_id":"levelo_inurba_marseille","lat":43.23193,"lon":5.35557,"is_reserved":false,"is_disabled":false,"rental_uris":{"android":"levelo://app?vid=3c7105e8-a9af-487d-9835-b309f4e6124e","ios":"levelo://app?vid=3c7105e8-a9af-487d-9835-b309f4e6124e"},"vehicle_type_id":"4","last_reported":1749478305,"current_range_meters":16000,"station_id":"ce4bhu92rcd13ifvqi70","pricing_plan_id":"cebpf4jnsgd1na2vs0mg"},{"bike_id":"0053f0bd-3481-4f8f-a19e-7dd7a6624507","system_id":"levelo_inurba_marseille","lat":43.29891,"lon":5.43665,"is_reserved":false,"is_disabled":false,"rental_uris":{"android":"levelo://app?vid=0053f0bd-3481-4f8f-a19e-7dd7a6624507","ios":"levelo://app?vid=0053f0bd-3481-4f8f-a19e-7dd7a6624507"},"vehicle_type_id":"4","last_reported":1749478305,"current_range_meters":16000,"station_id":"ce4bhpp2rcd13ifvqhfg","pricing_plan_id":"cebpf4jnsgd1na2vs0mg"},{"bike_id":"88113087-f0bb-4133-ab2a-bbfce1f3d99a","system_id":"levelo_inurba_marseille","lat":43.31699,"lon":5.40466,"is_reserved":false,"is_disabled":true,"rental_uris":{"android":"levelo://app?vid=88113087-f0bb-4133-ab2a-bbfce1f3d99a","ios":"levelo://app?vid=88113087-f0bb-4133-ab2a-bbfce1f3d99a"},"vehicle_type_id":"4","last_reported":1749478305,"current_range_meters":16000,"station_id":"ce4bh012rcd13ifvqd00","pricing_plan_id":"cebpf4jnsgd1na2vs0mg"},{"bike_id":"5484588d-dd46-4448-aa66-be69cd3aa405","system_id":"levelo_inurba_marseille","lat":43.26197,"lon":5.37451,"is_reserved":false,"is_disabled":false,"rental_uris":{"android":"levelo://app?vid=5484588d-dd46-4448-aa66-be69cd3aa405","ios":"levelo://app?vid=5484588d-dd46-4448-aa66-be69cd3aa405"},"vehicle_type_id":"4","last_reported":1749478305,"current_range_meters":16000,"station_id":"ce4bhgp2rcd13ifvqfc0","pricing_plan_id":"cebpf4jnsgd1na2vs0mg"},{"bike_id":"1e3c0132-c838-4f06-a6c3-46c3cb6ca49e","system_id":"levelo_inurba_marseille","lat":43.27391,"lon":5.36217,"is_reserved":false,"is_disabled":false,"rental_uris":{"android":"levelo://app?vid=1e3c0132-c838-4f06-a6c3-46c3cb6ca49e","ios":"levelo://app?vid=1e3c0132-c838-4f06-a6c3-46c3cb6ca49e"},"vehicle_type_id":"4","last_reported":1749478305,"current_range_meters":16000,"station_id":"","pricing_plan_id":"cebpf4jnsgd1na2vs0mg"},{"bike_id":"24365e02-dc17-42b6-b27f-d94cdffb4fb5","system_id":"levelo_inurba_marseille","lat":43.28991,"lon":5.35619,"is_reserved":false,"is_disabled":true,"rental_uris":{"android":"levelo://app?vid=24365e02-dc17-42b6-b27f-d94cdffb4fb5","ios":"levelo://app?vid=24365e02-dc17-42b6-b27f-d94cdffb4fb5"},"vehicle_type_id":"4","last_reported":1749478305,"current_range_meters":16000,"station_id":"ce4bhb92rcd13ifvqen0","pricing_plan_id":"cebpf4jnsgd1na2vs0mg"},{"bike_id":"de8e06e5-3b35-4f47-b97a-15327cfa528b","system_id":"levelo_inurba_marseille","lat":43.28418,"lon":5.34989,"is_reserved":false,"is_disabled":false,"rental_uris":{"android":"levelo://app?vid=de8e06e5-3b35-4f47-b97a-15327cfa528b","ios":"levelo://app?vid=de8e06e5-3b35-4f47-b97a-15327cfa528b"},"vehicle_type_id":"4","last_reported":1749478305,"current_range_meters":16000,"station_id":"ce4bhbh2rcd13ifvqepg","pricing_plan_id":"cebpf4jnsgd1na2vs0mg"},{"bike_id":"b51eb269-ea73-4164-b6b3-2865212ff2f6","system_id":"levelo_inurba_marseille","lat":43.28263,"lon":5.35073,"is_reserved":false,"is_disabled":false,"rental_uris":{"android":"levelo://app?vid=b51eb269-ea73-4164-b6b3-2865212ff2f6","ios":"levelo://app?vid=b51eb269-ea73-4164-b6b3-2865212ff2f6"},"vehicle_type_id":"4","last_reported":1749478305,"current_range_meters":16000,"station_id":"ce4bhbp2rcd13ifvqerg","pricing_plan_id":"cebpf4jnsgd1na2vs0mg"},{"bike_id":"34d4a7a3-5a92-4b4d-9059-2bb9b400830a","system_id":"levelo_inurba_marseille","lat":43.231933,"lon":5.355507,"is_reserved":false,"is_disabled":false,"rental_uris":{"android":"levelo://app?vid=34d4a7a3-5a92-4b4d-9059-2bb9b400830a","ios":"levelo://app?vid=34d4a7a3-5a92-4b4d-9059-2bb9b400830a"},"vehicle_type_id":"4","last_reported":1749478305,"current_range_meters":16000,"station_id":"ce4bhu92rcd13ifvqi70","pricing_plan_id":"cebpf4jnsgd1na2vs0mg"},{"bike_id":"59ac0f35-2320-4eb9-b793-18372e03776c","system_id":"levelo_inurba_marseille","lat":43.21744,"lon":5.34605,"is_reserved":false,"is_disabled":false,"rental_uris":{"android":"levelo://app?vid=59ac0f35-2320-4eb9-b793-18372e03776c","ios":"levelo://app?vid=59ac0f35-2320-4eb9-b793-18372e03776c"},"vehicle_type_id":"4","last_reported":1749478305,"current_range_meters":16000,"station_id":"st_cvj6r9ubvosntc0bgbag","pricing_plan_id":"cebpf4jnsgd1na2vs0mg"},{"bike_id":"5534adbf-4284-4ca8-99eb-a673e78afaf9","system_id":"levelo_inurba_marseille","lat":43.24181,"lon":5.36443,"is_reserved":false,"is_disabled":false,"rental_uris":{"android":"levelo://app?vid=5534adbf-4284-4ca8-99eb-a673e78afaf9","ios":"levelo://app?vid=5534adbf-4284-4ca8-99eb-a673e78afaf9"},"vehicle_type_id":"4","last_reported":1749478305,"current_range_meters":16400,"station_id":"cpo36qri1sfpv3e86is0","pricing_plan_id":"cebpf4jnsgd1na2vs0mg"},{"bike_id":"95e79488-9e1e-4d64-a800-fb9372ee9394","system_id":"levelo_inurba_marseille","lat":43.2781,"lon":5.40714,"is_reserved":false,"is_disabled":false,"rental_uris":{"android":"levelo://app?vid=95e79488-9e1e-4d64-a800-fb9372ee9394","ios":"levelo://app?vid=95e79488-9e1e-4d64-a800-fb9372ee9394"},"vehicle_type_id":"4","last_reported":1749478305,"current_range_meters":16400,"station_id":"ce4bhnh2rcd13ifvqgtg","pricing_plan_id":"cebpf4jnsgd1na2vs0mg"},{"bike_id":"9d3ca6f7-da3f-4284-a37c-669c14d0fd5c","system_id":"levelo_inurba_marseille","lat":43.25879,"lon":5.39902,"is_reserved":false,"is_disabled":false,"rental_uris":{"android":"levelo://app?vid=9d3ca6f7-da3f-4284-a37c-669c14d0fd5c","ios":"levelo://app?vid=9d3ca6f7-da3f-4284-a37c-669c14d0fd5c"},"vehicle_type_id":"4","last_reported":1749478305,"current_range_meters":16400,"station_id":"ce4bhl92rcd13ifvqghg","pricing_plan_id":"cebpf4jnsgd1na2vs0mg"},{"bike_id":"f087024a-1100-4d51-85c7-098f33c58e77","system_id":"levelo_inurba_marseille","lat":43.22942,"lon":5.35405,"is_reserved":false,"is_disabled":false,"rental_uris":{"android":"levelo://app?vid=f087024a-1100-4d51-85c7-098f33c58e77","ios":"levelo://app?vid=f087024a-1100-4d51-85c7-098f33c58e77"},"vehicle_type_id":"4","last_reported":1749478305,"current_range_meters":16400,"station_id":"cpo3532slgdg3j2ikp40","pricing_plan_id":"cebpf4jnsgd1na2vs0mg"},{"bike_id":"a2824cfe-99fd-4677-ab2b-2ca7e09b9260","system_id":"levelo_inurba_marseille","lat":43.32348,"lon":5.36711,"is_reserved":false,"is_disabled":false,"rental_uris":{"android":"levelo://app?vid=a2824cfe-99fd-4677-ab2b-2ca7e09b9260","ios":"levelo://app?vid=a2824cfe-99fd-4677-ab2b-2ca7e09b9260"},"vehicle_type_id":"4","last_reported":1749478305,"current_range_meters":16400,"station_id":"ce4bhsh2rcd13ifvqi2g","pricing_plan_id":"cebpf4jnsgd1na2vs0mg"},{"bike_id":"ba3e1223-7c63-4d2b-a6fc-7ba21ec23bc4","system_id":"levelo_inurba_marseille","lat":43.26197,"lon":5.3746,"is_reserved":false,"is_disabled":false,"rental_uris":{"android":"levelo://app?vid=ba3e1223-7c63-4d2b-a6fc-7ba21ec23bc4","ios":"levelo://app?vid=ba3e1223-7c63-4d2b-a6fc-7ba21ec23bc4"},"vehicle_type_id":"4","last_reported":1749478305,"current_range_meters":16400,"station_id":"ce4bhgp2rcd13ifvqfc0","pricing_plan_id":"cebpf4jnsgd1na2vs0mg"},{"bike_id":"f4d39fe3-afe9-4d85-87f9-457d9f9c136e","system_id":"levelo_inurba_marseille","lat":43.27583,"lon":5.36105,"is_reserved":false,"is_disabled":false,"rental_uris":{"android":"levelo://app?vid=f4d39fe3-afe9-4d85-87f9-457d9f9c136e","ios":"levelo://app?vid=f4d39fe3-afe9-4d85-87f9-457d9f9c136e"},"vehicle_type_id":"4","last_reported":1749478305,"current_range_meters":16400,"station_id":"ce4bgj92rcd13ifvqbe0","pricing_plan_id":"cebpf4jnsgd1na2vs0mg"},{"bike_id":"e1d9ab8a-de6e-4a59-815a-0c6ebde2cf3b","system_id":"levelo_inurba_marseille","lat":43.31716,"lon":5.42396,"is_reserved":false,"is_disabled":false,"rental_uris":{"android":"levelo://app?vid=e1d9ab8a-de6e-4a59-815a-0c6ebde2cf3b","ios":"levelo://app?vid=e1d9ab8a-de6e-4a59-815a-0c6ebde2cf3b"},"vehicle_type_id":"4","last_reported":1749478305,"current_range_meters":16400,"station_id":"ce4bhp92rcd13ifvqhbg","pricing_plan_id":"cebpf4jnsgd1na2vs0mg"},{"bike_id":"b8117546-41fe-4c56-82e4-26dca8059854","system_id":"levelo_inurba_marseille","lat":43.2738,"lon":5.36259,"is_reserved":false,"is_disabled":false,"rental_uris":{"android":"levelo://app?vid=b8117546-41fe-4c56-82e4-26dca8059854","ios":"levelo://app?vid=b8117546-41fe-4c56-82e4-26dca8059854"},"vehicle_type_id":"4","last_reported":1749478305,"current_range_meters":16400,"station_id":"ce4bhbh2rcd13ifvqeo0","pricing_plan_id":"cebpf4jnsgd1na2vs0mg"},{"bike_id":"078ec5aa-5e25-4584-9592-314f49e50aac","system_id":"levelo_inurba_marseille","lat":43.29799,"lon":5.38099,"is_reserved":false,"is_disabled":false,"rental_uris":{"android":"levelo://app?vid=078ec5aa-5e25-4584-9592-314f49e50aac","ios":"levelo://app?vid=078ec5aa-5e25-4584-9592-314f49e50aac"},"vehicle_type_id":"4","last_reported":1749478305,"current_range_meters":16000,"station_id":"ce4bgip2rcd13ifvqbb0","pricing_plan_id":"cebpf4jnsgd1na2vs0mg"},{"bike_id":"6f5e2ae1-704e-47d7-8df4-a21571bbea82","system_id":"levelo_inurba_marseille","lat":43.32413,"lon":5.37451,"is_reserved":false,"is_disabled":false,"rental_uris":{"android":"levelo://app?vid=6f5e2ae1-704e-47d7-8df4-a21571bbea82","ios":"levelo://app?vid=6f5e2ae1-704e-47d7-8df4-a21571bbea82"},"vehicle_type_id":"4","last_reported":1749478305,"current_range_meters":16400,"station_id":"","pricing_plan_id":"cebpf4jnsgd1na2vs0mg"},{"bike_id":"60d2632f-ba98-431c-bb09-ab361b7f0220","system_id":"levelo_inurba_marseille","lat":43.33716,"lon":5.39191,"is_reserved":false,"is_disabled":false,"rental_uris":{"android":"levelo://app?vid=60d2632f-ba98-431c-bb09-ab361b7f0220","ios":"levelo://app?vid=60d2632f-ba98-431c-bb09-ab361b7f0220"},"vehicle_type_id":"4","last_reported":1749478305,"current_range_meters":16400,"station_id":"ce4bhr92rcd13ifvqhsg","pricing_plan_id":"cebpf4jnsgd1na2vs0mg"},{"bike_id":"7e74bb39-0641-4295-a21e-235564d5e432","system_id":"levelo_inurba_marseille","lat":43.29624,"lon":5.37169,"is_reserved":false,"is_disabled":false,"rental_uris":{"android":"levelo://app?vid=7e74bb39-0641-4295-a21e-235564d5e432","ios":"levelo://app?vid=7e74bb39-0641-4295-a21e-235564d5e432"},"vehicle_type_id":"4","last_reported":1749478305,"current_range_meters":16400,"station_id":"ce4bgnh2rcd13ifvqc0g","pricing_plan_id":"cebpf4jnsgd1na2vs0mg"},{"bike_id":"2e706ecc-6a9f-4af7-be06-a7a24091f5d7","system_id":"levelo_inurba_marseille","lat":43.29189,"lon":5.35789,"is_reserved":false,"is_disabled":false,"rental_uris":{"android":"levelo://app?vid=2e706ecc-6a9f-4af7-be06-a7a24091f5d7","ios":"levelo://app?vid=2e706ecc-6a9f-4af7-be06-a7a24091f5d7"},"vehicle_type_id":"4","last_reported":1749478305,"current_range_meters":16800,"station_id":"ce4bhb12rcd13ifvqel0","pricing_plan_id":"cebpf4jnsgd1na2vs0mg"},{"bike_id":"a6932b32-a7b9-4a74-9653-0ce32b5546e9","system_id":"levelo_inurba_marseille","lat":43.32343,"lon":5.36791,"is_reserved":false,"is_disabled":false,"rental_uris":{"android":"levelo://app?vid=a6932b32-a7b9-4a74-9653-0ce32b5546e9","ios":"levelo://app?vid=a6932b32-a7b9-4a74-9653-0ce32b5546e9"},"vehicle_type_id":"4","last_reported":1749478305,"current_range_meters":16800,"station_id":"ce4bhsh2rcd13ifvqi2g","pricing_plan_id":"cebpf4jnsgd1na2vs0mg"},{"bike_id":"10a70f2c-55b2-4b29-a176-df92e1013498","system_id":"levelo_inurba_marseille","lat":43.26215,"lon":5.37445,"is_reserved":false,"is_disabled":false,"rental_uris":{"android":"levelo://app?vid=10a70f2c-55b2-4b29-a176-df92e1013498","ios":"levelo://app?vid=10a70f2c-55b2-4b29-a176-df92e1013498"},"vehicle_type_id":"4","last_reported":1749478305,"current_range_meters":16800,"station_id":"ce4bhgp2rcd13ifvqfc0","pricing_plan_id":"cebpf4jnsgd1na2vs0mg"},{"bike_id":"67f3169a-c3ce-4aa0-9783-ff7fd361e92c","system_id":"levelo_inurba_marseille","lat":43.31147,"lon":5.37784,"is_reserved":false,"is_disabled":false,"rental_uris":{"android":"levelo://app?vid=67f3169a-c3ce-4aa0-9783-ff7fd361e92c","ios":"levelo://app?vid=67f3169a-c3ce-4aa0-9783-ff7fd361e92c"},"vehicle_type_id":"4","last_reported":1749478305,"current_range_meters":16800,"station_id":"ce4bgt92rcd13ifvqcg0","pricing_plan_id":"cebpf4jnsgd1na2vs0mg"},{"bike_id":"2ce1bc59-3a63-4e25-8d65-bb54b60afe13","system_id":"levelo_inurba_marseille","lat":43.26211,"lon":5.37461,"is_reserved":false,"is_disabled":false,"rental_uris":{"android":"levelo://app?vid=2ce1bc59-3a63-4e25-8d65-bb54b60afe13","ios":"levelo://app?vid=2ce1bc59-3a63-4e25-8d65-bb54b60afe13"},"vehicle_type_id":"4","last_reported":1749478305,"current_range_meters":16800,"station_id":"ce4bhgp2rcd13ifvqfc0","pricing_plan_id":"cebpf4jnsgd1na2vs0mg"},{"bike_id":"f40c943c-6aed-4cc9-b1c6-0be262e1e94b","system_id":"levelo_inurba_marseille","lat":43.30211,"lon":5.36632,"is_reserved":false,"is_disabled":false,"rental_uris":{"android":"levelo://app?vid=f40c943c-6aed-4cc9-b1c6-0be262e1e94b","ios":"levelo://app?vid=f40c943c-6aed-4cc9-b1c6-0be262e1e94b"},"vehicle_type_id":"4","last_reported":1749478305,"current_range_meters":16800,"station_id":"ce4bgrh2rcd13ifvqc8g","pricing_plan_id":"cebpf4jnsgd1na2vs0mg"},{"bike_id":"6e268e54-0998-48cc-a200-0bff829b0996","system_id":"levelo_inurba_marseille","lat":43.23178,"lon":5.35552,"is_reserved":false,"is_disabled":false,"rental_uris":{"android":"levelo://app?vid=6e268e54-0998-48cc-a200-0bff829b0996","ios":"levelo://app?vid=6e268e54-0998-48cc-a200-0bff829b0996"},"vehicle_type_id":"4","last_reported":1749478305,"current_range_meters":16800,"station_id":"ce4bhu92rcd13ifvqi70","pricing_plan_id":"cebpf4jnsgd1na2vs0mg"},{"bike_id":"740da1e1-1a42-4224-a2ea-f489fe9abbcf","system_id":"levelo_inurba_marseille","lat":43.24481,"lon":5.42541,"is_reserved":false,"is_disabled":false,"rental_uris":{"android":"levelo://app?vid=740da1e1-1a42-4224-a2ea-f489fe9abbcf","ios":"levelo://app?vid=740da1e1-1a42-4224-a2ea-f489fe9abbcf"},"vehicle_type_id":"4","last_reported":1749478305,"current_range_meters":16800,"station_id":"","pricing_plan_id":"cebpf4jnsgd1na2vs0mg"},{"bike_id":"eab6b162-1fae-42cb-af90-060f27764e48","system_id":"levelo_inurba_marseille","lat":43.21743,"lon":5.34607,"is_reserved":false,"is_disabled":false,"rental_uris":{"android":"levelo://app?vid=eab6b162-1fae-42cb-af90-060f27764e48","ios":"levelo://app?vid=eab6b162-1fae-42cb-af90-060f27764e48"},"vehicle_type_id":"4","last_reported":1749478305,"current_range_meters":16800,"station_id":"st_cvj6r9ubvosntc0bgbag","pricing_plan_id":"cebpf4jnsgd1na2vs0mg"},{"bike_id":"402b268f-51d8-4319-85da-3f411d4d5d91","system_id":"levelo_inurba_marseille","lat":43.21234,"lon":5.35075,"is_reserved":false,"is_disabled":false,"rental_uris":{"android":"levelo://app?vid=402b268f-51d8-4319-85da-3f411d4d5d91","ios":"levelo://app?vid=402b268f-51d8-4319-85da-3f411d4d5d91"},"vehicle_type_id":"4","last_reported":1749478305,"current_range_meters":16800,"station_id":"","pricing_plan_id":"cebpf4jnsgd1na2vs0mg"},{"bike_id":"69c61564-e40c-49fd-8e63-6564a079ee60","system_id":"levelo_inurba_marseille","lat":43.26217,"lon":5.40478,"is_reserved":false,"is_disabled":false,"rental_uris":{"android":"levelo://app?vid=69c61564-e40c-49fd-8e63-6564a079ee60","ios":"levelo://app?vid=69c61564-e40c-49fd-8e63-6564a079ee60"},"vehicle_type_id":"4","last_reported":1749478305,"current_range_meters":16800,"station_id":"ce4bhmh2rcd13ifvqgmg","pricing_plan_id":"cebpf4jnsgd1na2vs0mg"},{"bike_id":"ab5f1112-31f1-4884-9278-3943b0267de8","system_id":"levelo_inurba_marseille","lat":43.27415,"lon":5.36269,"is_reserved":false,"is_disabled":false,"rental_uris":{"android":"levelo://app?vid=ab5f1112-31f1-4884-9278-3943b0267de8","ios":"levelo://app?vid=ab5f1112-31f1-4884-9278-3943b0267de8"},"vehicle_type_id":"4","last_reported":1749478305,"current_range_meters":17200,"station_id":"","pricing_plan_id":"cebpf4jnsgd1na2vs0mg"},{"bike_id":"899291ad-210d-4d78-84f7-3a1821413ead","system_id":"levelo_inurba_marseille","lat":43.30892,"lon":5.39662,"is_reserved":false,"is_disabled":false,"rental_uris":{"android":"levelo://app?vid=899291ad-210d-4d78-84f7-3a1821413ead","ios":"levelo://app?vid=899291ad-210d-4d78-84f7-3a1821413ead"},"vehicle_type_id":"4","last_reported":1749478305,"current_range_meters":16800,"station_id":"ce4bh012rcd13ifvqcv0","pricing_plan_id":"cebpf4jnsgd1na2vs0mg"},{"bike_id":"10a5d76c-82af-406c-8409-cb92d19f67aa","system_id":"levelo_inurba_marseille","lat":43.26198,"lon":5.37931,"is_reserved":false,"is_disabled":false,"rental_uris":{"android":"levelo://app?vid=10a5d76c-82af-406c-8409-cb92d19f67aa","ios":"levelo://app?vid=10a5d76c-82af-406c-8409-cb92d19f67aa"},"vehicle_type_id":"4","last_reported":1749478305,"current_range_meters":17200,"station_id":"ce4bhjp2rcd13ifvqg90","pricing_plan_id":"cebpf4jnsgd1na2vs0mg"},{"bike_id":"6da15f22-4839-4b16-9715-3e15d5d720ff","system_id":"levelo_inurba_marseille","lat":43.29544,"lon":5.42283,"is_reserved":false,"is_disabled":false,"rental_uris":{"android":"levelo://app?vid=6da15f22-4839-4b16-9715-3e15d5d720ff","ios":"levelo://app?vid=6da15f22-4839-4b16-9715-3e15d5d720ff"},"vehicle_type_id":"4","last_reported":1749478305,"current_range_meters":17200,"station_id":"ce4bhph2rcd13ifvqhdg","pricing_plan_id":"cebpf4jnsgd1na2vs0mg"},{"bike_id":"22d0924c-5da1-457f-9250-e6195eccffd9","system_id":"levelo_inurba_marseille","lat":43.21752,"lon":5.34605,"is_reserved":false,"is_disabled":false,"rental_uris":{"android":"levelo://app?vid=22d0924c-5da1-457f-9250-e6195eccffd9","ios":"levelo://app?vid=22d0924c-5da1-457f-9250-e6195eccffd9"},"vehicle_type_id":"4","last_reported":1749478305,"current_range_meters":17200,"station_id":"st_cvj6r9ubvosntc0bgbag","pricing_plan_id":"cebpf4jnsgd1na2vs0mg"},{"bike_id":"01a575ed-1f03-4cd7-9534-24b45d98f89d","system_id":"levelo_inurba_marseille","lat":43.28433,"lon":5.35005,"is_reserved":false,"is_disabled":false,"rental_uris":{"android":"levelo://app?vid=01a575ed-1f03-4cd7-9534-24b45d98f89d","ios":"levelo://app?vid=01a575ed-1f03-4cd7-9534-24b45d98f89d"},"vehicle_type_id":"4","last_reported":1749478305,"current_range_meters":17200,"station_id":"ce4bhbh2rcd13ifvqepg","pricing_plan_id":"cebpf4jnsgd1na2vs0mg"},{"bike_id":"8c863cc8-f9e7-42ab-87a4-bfd20bb1b56b","system_id":"levelo_inurba_marseille","lat":43.26553,"lon":5.37284,"is_reserved":false,"is_disabled":false,"rental_uris":{"android":"levelo://app?vid=8c863cc8-f9e7-42ab-87a4-bfd20bb1b56b","ios":"levelo://app?vid=8c863cc8-f9e7-42ab-87a4-bfd20bb1b56b"},"vehicle_type_id":"4","last_reported":1749478305,"current_range_meters":17200,"station_id":"ce4bhg12rcd13ifvqf70","pricing_plan_id":"cebpf4jnsgd1na2vs0mg"},{"bike_id":"f234357a-3ff5-41cd-a1f9-33dd4479fa5a","system_id":"levelo_inurba_marseille","lat":43.28877,"lon":5.39387,"is_reserved":false,"is_disabled":false,"rental_uris":{"android":"levelo://app?vid=f234357a-3ff5-41cd-a1f9-33dd4479fa5a","ios":"levelo://app?vid=f234357a-3ff5-41cd-a1f9-33dd4479fa5a"},"vehicle_type_id":"4","last_reported":1749478305,"current_range_meters":17200,"station_id":"ce4bh2p2rcd13ifvqdi0","pricing_plan_id":"cebpf4jnsgd1na2vs0mg"},{"bike_id":"01a4d6e0-e13e-4860-b605-15f0bef4fdd6","system_id":"levelo_inurba_marseille","lat":43.211884,"lon":5.350564,"is_reserved":false,"is_disabled":false,"rental_uris":{"android":"levelo://app?vid=01a4d6e0-e13e-4860-b605-15f0bef4fdd6","ios":"levelo://app?vid=01a4d6e0-e13e-4860-b605-15f0bef4fdd6"},"vehicle_type_id":"4","last_reported":1749478305,"current_range_meters":17200,"station_id":"st_cvj6sg6p6f1abm77japg","pricing_plan_id":"cebpf4jnsgd1na2vs0mg"},{"bike_id":"ca27e12a-1f2d-4cf2-be29-12a2b9ff1547","system_id":"levelo_inurba_marseille","lat":43.31721,"lon":5.42412,"is_reserved":false,"is_disabled":false,"rental_uris":{"android":"levelo://app?vid=ca27e12a-1f2d-4cf2-be29-12a2b9ff1547","ios":"levelo://app?vid=ca27e12a-1f2d-4cf2-be29-12a2b9ff1547"},"vehicle_type_id":"4","last_reported":1749478305,"current_range_meters":17200,"station_id":"ce4bhp92rcd13ifvqhbg","pricing_plan_id":"cebpf4jnsgd1na2vs0mg"},{"bike_id":"8fad182c-eb78-40da-9d1d-586268942b1a","system_id":"levelo_inurba_marseille","lat":43.21751,"lon":5.34609,"is_reserved":false,"is_disabled":false,"rental_uris":{"android":"levelo://app?vid=8fad182c-eb78-40da-9d1d-586268942b1a","ios":"levelo://app?vid=8fad182c-eb78-40da-9d1d-586268942b1a"},"vehicle_type_id":"4","last_reported":1749478305,"current_range_meters":17600,"station_id":"st_cvj6r9ubvosntc0bgbag","pricing_plan_id":"cebpf4jnsgd1na2vs0mg"},{"bike_id":"7903c858-0061-4772-b6aa-9ac1f88d158f","system_id":"levelo_inurba_marseille","lat":43.240675,"lon":5.37763,"is_reserved":false,"is_disabled":false,"rental_uris":{"android":"levelo://app?vid=7903c858-0061-4772-b6aa-9ac1f88d158f","ios":"levelo://app?vid=7903c858-0061-4772-b6aa-9ac1f88d158f"},"vehicle_type_id":"4","last_reported":1749478305,"current_range_meters":17600,"station_id":"ce4bhnp2rcd13ifvqgvg","pricing_plan_id":"cebpf4jnsgd1na2vs0mg"},{"bike_id":"136b8fbf-14bc-4a87-a822-8077a5afc251","system_id":"levelo_inurba_marseille","lat":43.28417,"lon":5.34979,"is_reserved":false,"is_disabled":false,"rental_uris":{"android":"levelo://app?vid=136b8fbf-14bc-4a87-a822-8077a5afc251","ios":"levelo://app?vid=136b8fbf-14bc-4a87-a822-8077a5afc251"},"vehicle_type_id":"4","last_reported":1749478305,"current_range_meters":17600,"station_id":"ce4bhbh2rcd13ifvqepg","pricing_plan_id":"cebpf4jnsgd1na2vs0mg"},{"bike_id":"e055dd94-9a18-4715-b0a3-48320d828816","system_id":"levelo_inurba_marseille","lat":43.28425,"lon":5.34994,"is_reserved":false,"is_disabled":false,"rental_uris":{"android":"levelo://app?vid=e055dd94-9a18-4715-b0a3-48320d828816","ios":"levelo://app?vid=e055dd94-9a18-4715-b0a3-48320d828816"},"vehicle_type_id":"4","last_reported":1749478305,"current_range_meters":17600,"station_id":"ce4bhbh2rcd13ifvqepg","pricing_plan_id":"cebpf4jnsgd1na2vs0mg"},{"bike_id":"8c761ef8-c444-4ceb-b858-bc87d8fe27d4","system_id":"levelo_inurba_marseille","lat":43.25081,"lon":5.39517,"is_reserved":false,"is_disabled":false,"rental_uris":{"android":"levelo://app?vid=8c761ef8-c444-4ceb-b858-bc87d8fe27d4","ios":"levelo://app?vid=8c761ef8-c444-4ceb-b858-bc87d8fe27d4"},"vehicle_type_id":"4","last_reported":1749478305,"current_range_meters":17600,"station_id":"ce4bhm12rcd13ifvqgkg","pricing_plan_id":"cebpf4jnsgd1na2vs0mg"},{"bike_id":"3c4d7a42-e24c-466c-9d1a-7a2a5b94b606","system_id":"levelo_inurba_marseille","lat":43.28618,"lon":5.35118,"is_reserved":false,"is_disabled":false,"rental_uris":{"android":"levelo://app?vid=3c4d7a42-e24c-466c-9d1a-7a2a5b94b606","ios":"levelo://app?vid=3c4d7a42-e24c-466c-9d1a-7a2a5b94b606"},"vehicle_type_id":"4","last_reported":1749478305,"current_range_meters":17600,"station_id":"ce4bhch2rcd13ifvqeug","pricing_plan_id":"cebpf4jnsgd1na2vs0mg"},{"bike_id":"b7651752-8eb3-4b67-91fc-0a6e006c8d1f","system_id":"levelo_inurba_marseille","lat":43.21211,"lon":5.35089,"is_reserved":false,"is_disabled":false,"rental_uris":{"android":"levelo://app?vid=b7651752-8eb3-4b67-91fc-0a6e006c8d1f","ios":"levelo://app?vid=b7651752-8eb3-4b67-91fc-0a6e006c8d1f"},"vehicle_type_id":"4","last_reported":1749478305,"current_range_meters":17600,"station_id":"st_cvj6sg6p6f1abm77japg","pricing_plan_id":"cebpf4jnsgd1na2vs0mg"},{"bike_id":"2138ff97-c5bf-410d-b7b3-dbef5874d459","system_id":"levelo_inurba_marseille","lat":43.21231,"lon":5.35093,"is_reserved":false,"is_disabled":false,"rental_uris":{"android":"levelo://app?vid=2138ff97-c5bf-410d-b7b3-dbef5874d459","ios":"levelo://app?vid=2138ff97-c5bf-410d-b7b3-dbef5874d459"},"vehicle_type_id":"4","last_reported":1749478305,"current_range_meters":17600,"station_id":"","pricing_plan_id":"cebpf4jnsgd1na2vs0mg"},{"bike_id":"64172dc6-558d-44e1-b168-dcee9ede86ae","system_id":"levelo_inurba_marseille","lat":43.31362,"lon":5.38491,"is_reserved":false,"is_disabled":false,"rental_uris":{"android":"levelo://app?vid=64172dc6-558d-44e1-b168-dcee9ede86ae","ios":"levelo://app?vid=64172dc6-558d-44e1-b168-dcee9ede86ae"},"vehicle_type_id":"4","last_reported":1749478305,"current_range_meters":17600,"station_id":"ce4bgt92rcd13ifvqcf0","pricing_plan_id":"cebpf4jnsgd1na2vs0mg"},{"bike_id":"eb97d445-7ab3-4349-92bb-d3e2be9c8407","system_id":"levelo_inurba_marseille","lat":43.29,"lon":5.35604,"is_reserved":false,"is_disabled":false,"rental_uris":{"android":"levelo://app?vid=eb97d445-7ab3-4349-92bb-d3e2be9c8407","ios":"levelo://app?vid=eb97d445-7ab3-4349-92bb-d3e2be9c8407"},"vehicle_type_id":"4","last_reported":1749478305,"current_range_meters":17600,"station_id":"ce4bhb92rcd13ifvqen0","pricing_plan_id":"cebpf4jnsgd1na2vs0mg"},{"bike_id":"4f2cbb97-7e2f-479b-aa3a-963a72f545e6","system_id":"levelo_inurba_marseille","lat":43.21191,"lon":5.35079,"is_reserved":false,"is_disabled":false,"rental_uris":{"android":"levelo://app?vid=4f2cbb97-7e2f-479b-aa3a-963a72f545e6","ios":"levelo://app?vid=4f2cbb97-7e2f-479b-aa3a-963a72f545e6"},"vehicle_type_id":"4","last_reported":1749478305,"current_range_meters":17600,"station_id":"st_cvj6sg6p6f1abm77japg","pricing_plan_id":"cebpf4jnsgd1na2vs0mg"},{"bike_id":"e925ed2b-babc-4cf9-b75b-bac898fd5635","system_id":"levelo_inurba_marseille","lat":43.211928,"lon":5.350668,"is_reserved":false,"is_disabled":false,"rental_uris":{"android":"levelo://app?vid=e925ed2b-babc-4cf9-b75b-bac898fd5635","ios":"levelo://app?vid=e925ed2b-babc-4cf9-b75b-bac898fd5635"},"vehicle_type_id":"4","last_reported":1749478305,"current_range_meters":17600,"station_id":"st_cvj6sg6p6f1abm77japg","pricing_plan_id":"cebpf4jnsgd1na2vs0mg"},{"bike_id":"eed92507-7e7a-4bf5-9941-ba64e2159a76","system_id":"levelo_inurba_marseille","lat":43.26492,"lon":5.39542,"is_reserved":false,"is_disabled":false,"rental_uris":{"android":"levelo://app?vid=eed92507-7e7a-4bf5-9941-ba64e2159a76","ios":"levelo://app?vid=eed92507-7e7a-4bf5-9941-ba64e2159a76"},"vehicle_type_id":"4","last_reported":1749478305,"current_range_meters":17600,"station_id":"ce4bhi12rcd13ifvqfq0","pricing_plan_id":"cebpf4jnsgd1na2vs0mg"},