{"last_updated":1742563116,"ttl":60,"version":"2.2","data":{"bikes":[{"bike_id":"f594b79f-b6fe-4c8a-b6f1-88af12273f99","system_id":"levelo_inurba_marseille","lat":43.3017,"lon":5.38083,"is_reserved":false,"is_disabled":false,"rental_uris":{"android":"levelo://app?vid=f594b79f-b6fe-4c8a-b6f1-88af12273f99","ios":"levelo://app?vid=f594b79f-b6fe-4c8a-b6f1-88af12273f99"},"vehicle_type_id":"4","last_reported":1742563117,"current_range_meters":2800,"station_id":"ce4bgjp2rcd13ifvqbh0","pricing_plan_id":"cebpf4jnsgd1na2vs0mg"},{"bike_id":"58efc4e1-3c23-450a-9231-a38190fd8b58","system_id":"levelo_inurba_marseille","lat":43.29889,"lon":5.38983,"is_reserved":false,"is_disabled":false,"rental_uris":{"android":"levelo://app?vid=58efc4e1-3c23-450a-9231-a38190fd8b58","ios":"levelo://app?vid=58efc4e1-3c23-450a-9231-a38190fd8b58"},"vehicle_type_id":"4","last_reported":1742563117,"current_range_meters":2800,"station_id":"","pricing_plan_id":"cebpf4jnsgd1na2vs0mg"},{"bike_id":"e74e0b99-991b-47d0-8bd9-abdf6d68c440","system_id":"levelo_inurba_marseille","lat":43.27075,"lon":5.42279,"is_reserved":false,"is_disabled":false,"rental_uris":{"android":"levelo://app?vid=e74e0b99-991b-47d0-8bd9-abdf6d68c440","ios":"levelo://app?vid=e74e0b99-991b-47d0-8bd9-abdf6d68c440"},"vehicle_type_id":"4","last_reported":1742563117,"current_range_meters":2800,"station_id":"ce4bhk92rcd13ifvqgb0","pricing_plan_id":"cebpf4jnsgd1na2vs0mg"},{"bike_id":"c70f1f74-8d91-4ea5-b0c0-84daff5739d5","system_id":"levelo_inurba_marseille","lat":43.28979,"lon":5.37846,"is_reserved":false,"is_disabled":false,"rental_uris":{"android":"levelo://app?vid=c70f1f74-8d91-4ea5-b0c0-84daff5739d5","ios":"levelo://app?vid=c70f1f74-8d91-4ea5-b0c0-84daff5739d5"},"vehicle_type_id":"4","last_reported":1742563117,"current_range_meters":3200,"station_id":"ce4bh9p2rcd13ifvqed0","pricing_plan_id":"cebpf4jnsgd1na2vs0mg"},{"bike_id":"a8b8dae1-87ef-4f8a-a2c8-fe9fd9bf0f77","system_id":"levelo_inurba_marseille","lat":43.23653,"lon":5.37774,"is_reserved":false,"is_disabled":false,"rental_uris":{"android":"levelo://app?vid=a8b8dae1-87ef-4f8a-a2c8-fe9fd9bf0f77","ios":"levelo://app?vid=a8b8dae1-87ef-4f8a-a2c8-fe9fd9bf0f77"},"vehicle_type_id":"4","last_reported":1742563117,"current_range_meters":3200,"station_id":"","pricing_plan_id":"cebpf4jnsgd1na2vs0mg"},{"bike_id":"e82979cd-2bb8-40a3-8a74-dd3c1c80e088","system_id":"levelo_inurba_marseille","lat":43.29938,"lon":5.36561,"is_reserved":false,"is_disabled":false,"rental_uris":{"android":"levelo://app?vid=e82979cd-2bb8-40a3-8a74-dd3c1c80e088","ios":"levelo://app?vid=e82979cd-2bb8-40a3-8a74-dd3c1c80e088"},"vehicle_type_id":"4","last_reported":1742563117,"current_range_meters":3200,"station_id":"ce4bgm92rcd13ifvqbr0","pricing_plan_id":"cebpf4jnsgd1na2vs0mg"},{"bike_id":"557ab3c7-2059-46f7-aeaa-97c56c2fee3a","system_id":"levelo_inurba_marseille","lat":43.29799,"lon":5.38102,"is_reserved":false,"is_disabled":false,"rental_uris":{"android":"levelo://app?vid=557ab3c7-2059-46f7-aeaa-97c56c2fee3a","ios":"levelo://app?vid=557ab3c7-2059-46f7-aeaa-97c56c2fee3a"},"vehicle_type_id":"4","last_reported":1742563117,"current_range_meters":3200,"station_id":"ce4bgip2rcd13ifvqbb0","pricing_plan_id":"cebpf4jnsgd1na2vs0mg"},{"bike_id":"0df0dd2c-a433-4812-9da3-54da14e3596c","system_id":"levelo_inurba_marseille","lat":43.30557,"lon":5.36703,"is_reserved":false,"is_disabled":false,"rental_uris":{"android":"levelo://app?vid=0df0dd2c-a433-4812-9da3-54da14e3596c","ios":"levelo://app?vid=0df0dd2c-a433-4812-9da3-54da14e3596c"},"vehicle_type_id":"4","last_reported":1742563117,"current_range_meters":3200,"station_id":"ce4bgrp2rcd13ifvqc9g","pricing_plan_id":"cebpf4jnsgd1na2vs0mg"},{"bike_id":"bd1e1cd6-07bd-4fcb-ba65-26479a9897a3","system_id":"levelo_inurba_marseille","lat":43.25119,"lon":5.40321,"is_reserved":false,"is_disabled":false,"rental_uris":{"android":"levelo://app?vid=bd1e1cd6-07bd-4fcb-ba65-26479a9897a3","ios":"levelo://app?vid=bd1e1cd6-07bd-4fcb-ba65-26479a9897a3"},"vehicle_type_id":"4","last_reported":1742563117,"current_range_meters":3200,"station_id":"ce4bhlh2rcd13ifvqgig","pricing_plan_id":"cebpf4jnsgd1na2vs0mg"},{"bike_id":"b599efb9-e599-4a9e-8634-36c6c4d23491","system_id":"levelo_inurba_marseille","lat":43.27569,"lon":5.38416,"is_reserved":false,"is_disabled":false,"rental_uris":{"android":"levelo://app?vid=b599efb9-e599-4a9e-8634-36c6c4d23491","ios":"levelo://app?vid=b599efb9-e599-4a9e-8634-36c6c4d23491"},"vehicle_type_id":"4","last_reported":1742563117,"current_range_meters":3200,"station_id":"ce4bhh92rcd13ifvqfi0","pricing_plan_id":"cebpf4jnsgd1na2vs0mg"},{"bike_id":"bea0d0e5-352d-43b6-a064-ae6427b2f747","system_id":"levelo_inurba_marseille","lat":43.32486,"lon":5.36579,"is_reserved":false,"is_disabled":false,"rental_uris":{"android":"levelo://app?vid=bea0d0e5-352d-43b6-a064-ae6427b2f747","ios":"levelo://app?vid=bea0d0e5-352d-43b6-a064-ae6427b2f747"},"vehicle_type_id":"4","last_reported":1742563117,"current_range_meters":3200,"station_id":"ce4bhs12rcd13ifvqhvg","pricing_plan_id":"cebpf4jnsgd1na2vs0mg"},{"bike_id":"188abe0d-844d-4369-bba3-32ac4249fe25","system_id":"levelo_inurba_marseille","lat":43.2594,"lon":5.40901,"is_reserved":false,"is_disabled":false,"rental_uris":{"android":"levelo://app?vid=188abe0d-844d-4369-bba3-32ac4249fe25","ios":"levelo://app?vid=188abe0d-844d-4369-bba3-32ac4249fe25"},"vehicle_type_id":"4","last_reported":1742563117,"current_range_meters":3600,"station_id":"ce4bhm92rcd13ifvqglg","pricing_plan_id":"cebpf4jnsgd1na2vs0mg"},{"bike_id":"7f45f538-c1a2-4384-b14d-48d1668c1334","system_id":"levelo_inurba_marseille","lat":43.29979,"lon":5.38494,"is_reserved":false,"is_disabled":false,"rental_uris":{"android":"levelo://app?vid=7f45f538-c1a2-4384-b14d-48d1668c1334","ios":"levelo://app?vid=7f45f538-c1a2-4384-b14d-48d1668c1334"},"vehicle_type_id":"4","last_reported":1742563117,"current_range_meters":3600,"station_id":"ce4bgj92rcd13ifvqbd0","pricing_plan_id":"cebpf4jnsgd1na2vs0mg"},{"bike_id":"fa75eac7-09e2-4433-88aa-d837f7337ea4","system_id":"levelo_inurba_marseille","lat":43.295549,"lon":5.400336,"is_reserved":false,"is_disabled":false,"rental_uris":{"android":"levelo://app?vid=fa75eac7-09e2-4433-88aa-d837f7337ea4","ios":"levelo://app?vid=fa75eac7-09e2-4433-88aa-d837f7337ea4"},"vehicle_type_id":"4","last_reported":1742563117,"current_range_meters":3200,"station_id":"cjm6bp8fraef2m0cb0m0","pricing_plan_id":"cebpf4jnsgd1na2vs0mg"},{"bike_id":"ae6f4620-49c3-47eb-8a42-d26e3a43d3bc","system_id":"levelo_inurba_marseille","lat":43.2927,"lon":5.3684,"is_reserved":false,"is_disabled":false,"rental_uris":{"android":"levelo://app?vid=ae6f4620-49c3-47eb-8a42-d26e3a43d3bc","ios":"levelo://app?vid=ae6f4620-49c3-47eb-8a42-d26e3a43d3bc"},"vehicle_type_id":"4","last_reported":1742563117,"current_range_meters":2800,"station_id":"ce4bhbp2rcd13ifvqesg","pricing_plan_id":"cebpf4jnsgd1na2vs0mg"},{"bike_id":"b873fa21-8f4c-48dd-b5b1-148f019d90d4","system_id":"levelo_inurba_marseille","lat":43.28928,"lon":5.38396,"is_reserved":false,"is_disabled":false,"rental_uris":{"android":"levelo://app?vid=b873fa21-8f4c-48dd-b5b1-148f019d90d4","ios":"levelo://app?vid=b873fa21-8f4c-48dd-b5b1-148f019d90d4"},"vehicle_type_id":"4","last_reported":1742563117,"current_range_meters":3200,"station_id":"ce4bh612rcd13ifvqe6g","pricing_plan_id":"cebpf4jnsgd1na2vs0mg"},{"bike_id":"0c75caed-8fc7-4a71-8288-d1febda71732","system_id":"levelo_inurba_marseille","lat":43.25862,"lon":5.39897,"is_reserved":false,"is_disabled":false,"rental_uris":{"android":"levelo://app?vid=0c75caed-8fc7-4a71-8288-d1febda71732","ios":"levelo://app?vid=0c75caed-8fc7-4a71-8288-d1febda71732"},"vehicle_type_id":"4","last_reported":1742563117,"current_range_meters":3600,"station_id":"ce4bhl92rcd13ifvqghg","pricing_plan_id":"cebpf4jnsgd1na2vs0mg"},{"bike_id":"0d87581c-e8a1-4ddc-bbdb-cc51556eba17","system_id":"levelo_inurba_marseille","lat":43.33606,"lon":5.41027,"is_reserved":false,"is_disabled":false,"rental_uris":{"android":"levelo://app?vid=0d87581c-e8a1-4ddc-bbdb-cc51556eba17","ios":"levelo://app?vid=0d87581c-e8a1-4ddc-bbdb-cc51556eba17"},"vehicle_type_id":"4","last_reported":1742563117,"current_range_meters":4000,"station_id":"ce4bhqh2rcd13ifvqhmg","pricing_plan_id":"cebpf4jnsgd1na2vs0mg"},{"bike_id":"4bf651d1-e6fa-4f14-b2a3-0fd77b2bf7e1","system_id":"levelo_inurba_marseille","lat":43.32104,"lon":5.36785,"is_reserved":false,"is_disabled":false,"rental_uris":{"android":"levelo://app?vid=4bf651d1-e6fa-4f14-b2a3-0fd77b2bf7e1","ios":"levelo://app?vid=4bf651d1-e6fa-4f14-b2a3-0fd77b2bf7e1"},"vehicle_type_id":"4","last_reported":1742563117,"current_range_meters":4000,"station_id":"ce4bhrh2rcd13ifvqhug","pricing_plan_id":"cebpf4jnsgd1na2vs0mg"},{"bike_id":"96ed452b-2ccb-47b7-a8f9-d4f42ae8042b","system_id":"levelo_inurba_marseille","lat":43.33024,"lon":5.39049,"is_reserved":false,"is_disabled":false,"rental_uris":{"android":"levelo://app?vid=96ed452b-2ccb-47b7-a8f9-d4f42ae8042b","ios":"levelo://app?vid=96ed452b-2ccb-47b7-a8f9-d4f42ae8042b"},"vehicle_type_id":"4","last_reported":1742563117,"current_range_meters":4000,"station_id":"ce4bhr92rcd13ifvqhrg","pricing_plan_id":"cebpf4jnsgd1na2vs0mg"},{"bike_id":"96d63dd4-1364-43c9-b8f3-637627235834","system_id":"levelo_inurba_marseille","lat":43.29892,"lon":5.39748,"is_reserved":false,"is_disabled":true,"rental_uris":{"android":"levelo://app?vid=96d63dd4-1364-43c9-b8f3-637627235834","ios":"levelo://app?vid=96d63dd4-1364-43c9-b8f3-637627235834"},"vehicle_type_id":"4","last_reported":1742563117,"current_range_meters":4000,"station_id":"ce4bh0h2rcd13ifvqd50","pricing_plan_id":"cebpf4jnsgd1na2vs0mg"},{"bike_id":"730ee65a-d9d6-42e7-be5e-38de59134d50","system_id":"levelo_inurba_marseille","lat":43.28723,"lon":5.37943,"is_reserved":false,"is_disabled":false,"rental_uris":{"android":"levelo://app?vid=730ee65a-d9d6-42e7-be5e-38de59134d50","ios":"levelo://app?vid=730ee65a-d9d6-42e7-be5e-38de59134d50"},"vehicle_type_id":"4","last_reported":1742563117,"current_range_meters":4000,"station_id":"ce4bh9p2rcd13ifvqec0","pricing_plan_id":"cebpf4jnsgd1na2vs0mg"},{"bike_id":"b955ef26-e3d9-4989-8fa5-7ccef3e19562","system_id":"levelo_inurba_marseille","lat":43.27692,"lon":5.389,"is_reserved":false,"is_disabled":true,"rental_uris":{"android":"levelo://app?vid=b955ef26-e3d9-4989-8fa5-7ccef3e19562","ios":"levelo://app?vid=b955ef26-e3d9-4989-8fa5-7ccef3e19562"},"vehicle_type_id":"4","last_reported":1742563117,"current_range_meters":4000,"station_id":"ce4bhi12rcd13ifvqfo0","pricing_plan_id":"cebpf4jnsgd1na2vs0mg"},{"bike_id":"5d28bce7-ab1a-4e8b-ae70-12e427a81793","system_id":"levelo_inurba_marseille","lat":43.24167,"lon":5.36391,"is_reserved":false,"is_disabled":false,"rental_uris":{"android":"levelo://app?vid=5d28bce7-ab1a-4e8b-ae70-12e427a81793","ios":"levelo://app?vid=5d28bce7-ab1a-4e8b-ae70-12e427a81793"},"vehicle_type_id":"4","last_reported":1742563117,"current_range_meters":4400,"station_id":"cpo36qri1sfpv3e86is0","pricing_plan_id":"cebpf4jnsgd1na2vs0mg"},{"bike_id":"66833db3-0764-4f8e-9f72-bc230cf28b94","system_id":"levelo_inurba_marseille","lat":43.28173,"lon":5.42669,"is_reserved":false,"is_disabled":true,"rental_uris":{"android":"levelo://app?vid=66833db3-0764-4f8e-9f72-bc230cf28b94","ios":"levelo://app?vid=66833db3-0764-4f8e-9f72-bc230cf28b94"},"vehicle_type_id":"4","last_reported":1742563117,"current_range_meters":4400,"station_id":"ce4bhnh2rcd13ifvqgug","pricing_plan_id":"cebpf4jnsgd1na2vs0mg"},{"bike_id":"6ccb542d-5259-4eb1-860c-a2436d88687b","system_id":"levelo_inurba_marseille","lat":43.23074,"lon":5.35492,"is_reserved":false,"is_disabled":false,"rental_uris":{"android":"levelo://app?vid=6ccb542d-5259-4eb1-860c-a2436d88687b","ios":"levelo://app?vid=6ccb542d-5259-4eb1-860c-a2436d88687b"},"vehicle_type_id":"4","last_reported":1742563117,"current_range_meters":4400,"station_id":"cpo3342slgdg3j2ifvpg","pricing_plan_id":"cebpf4jnsgd1na2vs0mg"},{"bike_id":"1036e65b-b636-41b1-83e4-98d49e389bc5","system_id":"levelo_inurba_marseille","lat":43.24996,"lon":5.3893,"is_reserved":false,"is_disabled":false,"rental_uris":{"android":"levelo://app?vid=1036e65b-b636-41b1-83e4-98d49e389bc5","ios":"levelo://app?vid=1036e65b-b636-41b1-83e4-98d49e389bc5"},"vehicle_type_id":"4","last_reported":1742563117,"current_range_meters":4400,"station_id":"ce4bhgp2rcd13ifvqfd0","pricing_plan_id":"cebpf4jnsgd1na2vs0mg"},{"bike_id":"e6b0f740-da4d-486f-b6f4-01fe8f7c6a84","system_id":"levelo_inurba_marseille","lat":43.27812,"lon":5.4071,"is_reserved":false,"is_disabled":false,"rental_uris":{"android":"levelo://app?vid=e6b0f740-da4d-486f-b6f4-01fe8f7c6a84","ios":"levelo://app?vid=e6b0f740-da4d-486f-b6f4-01fe8f7c6a84"},"vehicle_type_id":"4","last_reported":1742563117,"current_range_meters":4800,"station_id":"ce4bhnh2rcd13ifvqgtg","pricing_plan_id":"cebpf4jnsgd1na2vs0mg"},{"bike_id":"4a29a711-e2e4-41ca-a83c-08f18b223276","system_id":"levelo_inurba_marseille","lat":43.23966,"lon":5.36627,"is_reserved":false,"is_disabled":false,"rental_uris":{"android":"levelo://app?vid=4a29a711-e2e4-41ca-a83c-08f18b223276","ios":"levelo://app?vid=4a29a711-e2e4-41ca-a83c-08f18b223276"},"vehicle_type_id":"4","last_reported":1742563117,"current_range_meters":4800,"station_id":"ce4bhi12rcd13ifvqfp0","pricing_plan_id":"cebpf4jnsgd1na2vs0mg"},{"bike_id":"ff70c630-86a0-4514-a643-42d4d81f16a0","system_id":"levelo_inurba_marseille","lat":43.27075,"lon":5.4228,"is_reserved":false,"is_disabled":false,"rental_uris":{"android":"levelo://app?vid=ff70c630-86a0-4514-a643-42d4d81f16a0","ios":"levelo://app?vid=ff70c630-86a0-4514-a643-42d4d81f16a0"},"vehicle_type_id":"4","last_reported":1742563117,"current_range_meters":4400,"station_id":"ce4bhk92rcd13ifvqgb0","pricing_plan_id":"cebpf4jnsgd1na2vs0mg"},{"bike_id":"671210b1-9e8f-4893-953f-985ab8b97e34","system_id":"levelo_inurba_marseille","lat":43.32096,"lon":5.36783,"is_reserved":false,"is_disabled":false,"rental_uris":{"android":"levelo://app?vid=671210b1-9e8f-4893-953f-985ab8b97e34","ios":"levelo://app?vid=671210b1-9e8f-4893-953f-985ab8b97e34"},"vehicle_type_id":"4","last_reported":1742563117,"current_range_meters":4800,"station_id":"ce4bhrh2rcd13ifvqhug","pricing_plan_id":"cebpf4jnsgd1na2vs0mg"},{"bike_id":"88235f40-31c6-4a2f-8946-34e3a8b8f4b1","system_id":"levelo_inurba_marseille","lat":43.29889,"lon":5.39764,"is_reserved":false,"is_disabled":false,"rental_uris":{"android":"levelo://app?vid=88235f40-31c6-4a2f-8946-34e3a8b8f4b1","ios":"levelo://app?vid=88235f40-31c6-4a2f-8946-34e3a8b8f4b1"},"vehicle_type_id":"4","last_reported":1742563117,"current_range_meters":4800,"station_id":"ce4bh0h2rcd13ifvqd50","pricing_plan_id":"cebpf4jnsgd1na2vs0mg"},{"bike_id":"0eea05cd-71a8-476d-bb6a-c62fd9e6e95f","system_id":"levelo_inurba_marseille","lat":43.27494,"lon":5.42452,"is_reserved":false,"is_disabled":false,"rental_uris":{"android":"levelo://app?vid=0eea05cd-71a8-476d-bb6a-c62fd9e6e95f","ios":"levelo://app?vid=0eea05cd-71a8-476d-bb6a-c62fd9e6e95f"},"vehicle_type_id":"4","last_reported":1742563117,"current_range_meters":5600,"station_id":"ce4bhn92rcd13ifvqgrg","pricing_plan_id":"cebpf4jnsgd1na2vs0mg"},{"bike_id":"1dba7d11-aa8b-424c-a49e-cca2ab6fa1b3","system_id":"levelo_inurba_marseille","lat":43.30603,"lon":5.36555,"is_reserved":false,"is_disabled":false,"rental_uris":{"android":"levelo://app?vid=1dba7d11-aa8b-424c-a49e-cca2ab6fa1b3","ios":"levelo://app?vid=1dba7d11-aa8b-424c-a49e-cca2ab6fa1b3"},"vehicle_type_id":"4","last_reported":1742563117,"current_range_meters":5600,"station_id":"ce4bgs12rcd13ifvqcag","pricing_plan_id":"cebpf4jnsgd1na2vs0mg"},{"bike_id":"0d8f66dc-5e30-476f-81a8-1ca73af0ec7a","system_id":"levelo_inurba_marseille","lat":43.28709,"lon":5.39962,"is_reserved":false,"is_disabled":false,"rental_uris":{"android":"levelo://app?vid=0d8f66dc-5e30-476f-81a8-1ca73af0ec7a","ios":"levelo://app?vid=0d8f66dc-5e30-476f-81a8-1ca73af0ec7a"},"vehicle_type_id":"4","last_reported":1742563117,"current_range_meters":5600,"station_id":"ce4bho92rcd13ifvqh3g","pricing_plan_id":"cebpf4jnsgd1na2vs0mg"},{"bike_id":"9044461e-62db-4d23-b825-ab9c7ed1b440","system_id":"levelo_inurba_marseille","lat":43.27244,"lon":5.41084,"is_reserved":false,"is_disabled":false,"rental_uris":{"android":"levelo://app?vid=9044461e-62db-4d23-b825-ab9c7ed1b440","ios":"levelo://app?vid=9044461e-62db-4d23-b825-ab9c7ed1b440"},"vehicle_type_id":"4","last_reported":1742563117,"current_range_meters":5600,"station_id":"ce4bho12rcd13ifvqh1g","pricing_plan_id":"cebpf4jnsgd1na2vs0mg"},{"bike_id":"434771d6-8436-4de5-a70a-911ce6776115","system_id":"levelo_inurba_marseille","lat":43.31493,"lon":5.37312,"is_reserved":false,"is_disabled":false,"rental_uris":{"android":"levelo://app?vid=434771d6-8436-4de5-a70a-911ce6776115","ios":"levelo://app?vid=434771d6-8436-4de5-a70a-911ce6776115"},"vehicle_type_id":"4","last_reported":1742563117,"current_range_meters":5600,"station_id":"ce4bgt12rcd13ifvqcd0","pricing_plan_id":"cebpf4jnsgd1na2vs0mg"},{"bike_id":"38fa863a-91a2-44eb-b718-19af02253b65","system_id":"levelo_inurba_marseille","lat":43.26939,"lon":5.40258,"is_reserved":false,"is_disabled":true,"rental_uris":{"android":"levelo://app?vid=38fa863a-91a2-44eb-b718-19af02253b65","ios":"levelo://app?vid=38fa863a-91a2-44eb-b718-19af02253b65"},"vehicle_type_id":"4","last_reported":1742563117,"current_range_meters":5600,"station_id":"cjm6bp8fraef2m0cb0m0","pricing_plan_id":"cebpf4jnsgd1na2vs0mg"},{"bike_id":"e2d44c57-a27d-483b-ad06-7050d944e5ad","system_id":"levelo_inurba_marseille","lat":43.26943,"lon":5.38637,"is_reserved":false,"is_disabled":false,"rental_uris":{"android":"levelo://app?vid=e2d44c57-a27d-483b-ad06-7050d944e5ad","ios":"levelo://app?vid=e2d44c57-a27d-483b-ad06-7050d944e5ad"},"vehicle_type_id":"4","last_reported":1742563117,"current_range_meters":5600,"station_id":"ce4bhh92rcd13ifvqfh0","pricing_plan_id":"cebpf4jnsgd1na2vs0mg"},{"bike_id":"3290675a-99c0-4873-8409-3b4a22b5423a","system_id":"levelo_inurba_marseille","lat":43.2963,"lon":5.40597,"is_reserved":false,"is_disabled":false,"rental_uris":{"android":"levelo://app?vid=3290675a-99c0-4873-8409-3b4a22b5423a","ios":"levelo://app?vid=3290675a-99c0-4873-8409-3b4a22b5423a"},"vehicle_type_id":"4","last_reported":1742563117,"current_range_meters":6000,"station_id":"ce4bh0h2rcd13ifvqd60","pricing_plan_id":"cebpf4jnsgd1na2vs0mg"},{"bike_id":"aebe2f4f-31c4-4dca-921d-bcef3bdf1b59","system_id":"levelo_inurba_marseille","lat":43.29813,"lon":5.38087,"is_reserved":false,"is_disabled":false,"rental_uris":{"android":"levelo://app?vid=aebe2f4f-31c4-4dca-921d-bcef3bdf1b59","ios":"levelo://app?vid=aebe2f4f-31c4-4dca-921d-bcef3bdf1b59"},"vehicle_type_id":"4","last_reported":1742563117,"current_range_meters":6000,"station_id":"ce4bgip2rcd13ifvqbb0","pricing_plan_id":"cebpf4jnsgd1na2vs0mg"},{"bike_id":"f023beb0-ee46-4186-ab83-0c5ec4e6a3ad","system_id":"levelo_inurba_marseille","lat":43.29073,"lon":5.37174,"is_reserved":false,"is_disabled":false,"rental_uris":{"android":"levelo://app?vid=f023beb0-ee46-4186-ab83-0c5ec4e6a3ad","ios":"levelo://app?vid=f023beb0-ee46-4186-ab83-0c5ec4e6a3ad"},"vehicle_type_id":"4","last_reported":1742563117,"current_range_meters":6000,"station_id":"ce4bh5p2rcd13ifvqe4g","pricing_plan_id":"cebpf4jnsgd1na2vs0mg"},{"bike_id":"22e08996-635b-4b54-8d99-ba34605ff5c8","system_id":"levelo_inurba_marseille","lat":43.2847,"lon":5.38418,"is_reserved":false,"is_disabled":false,"rental_uris":{"android":"levelo://app?vid=22e08996-635b-4b54-8d99-ba34605ff5c8","ios":"levelo://app?vid=22e08996-635b-4b54-8d99-ba34605ff5c8"},"vehicle_type_id":"4","last_reported":1742563117,"current_range_meters":6000,"station_id":"ce4bh512rcd13ifvqe3g","pricing_plan_id":"cebpf4jnsgd1na2vs0mg"},{"bike_id":"9b2a4ae1-45d2-42a7-b1d8-970226b193d0","system_id":"levelo_inurba_marseille","lat":43.24181,"lon":5.39711,"is_reserved":false,"is_disabled":false,"rental_uris":{"android":"levelo://app?vid=9b2a4ae1-45d2-42a7-b1d8-970226b193d0","ios":"levelo://app?vid=9b2a4ae1-45d2-42a7-b1d8-970226b193d0"},"vehicle_type_id":"4","last_reported":1742563117,"current_range_meters":6000,"station_id":"ce4bhn12rcd13ifvqgpg","pricing_plan_id":"cebpf4jnsgd1na2vs0mg"},{"bike_id":"dc54b20c-a667-4125-9cbb-7cacc5f5c69b","system_id":"levelo_inurba_marseille","lat":43.28454,"lon":5.38427,"is_reserved":false,"is_disabled":false,"rental_uris":{"android":"levelo://app?vid=dc54b20c-a667-4125-9cbb-7cacc5f5c69b","ios":"levelo://app?vid=dc54b20c-a667-4125-9cbb-7cacc5f5c69b"},"vehicle_type_id":"4","last_reported":1742563117,"current_range_meters":6000,"station_id":"ce4bh512rcd13ifvqe3g","pricing_plan_id":"cebpf4jnsgd1na2vs0mg"},{"bike_id":"47ec9bf4-3434-4c73-b2bb-f1093639eb08","system_id":"levelo_inurba_marseille","lat":43.2621,"lon":5.37443,"is_reserved":false,"is_disabled":false,"rental_uris":{"android":"levelo://app?vid=47ec9bf4-3434-4c73-b2bb-f1093639eb08","ios":"levelo://app?vid=47ec9bf4-3434-4c73-b2bb-f1093639eb08"},"vehicle_type_id":"4","last_reported":1742563117,"current_range_meters":6000,"station_id":"ce4bhgp2rcd13ifvqfc0","pricing_plan_id":"cebpf4jnsgd1na2vs0mg"},{"bike_id":"cb6062cd-3cfa-4917-b79b-5707b99e3c03","system_id":"levelo_inurba_marseille","lat":43.321185,"lon":5.367534,"is_reserved":false,"is_disabled":false,"rental_uris":{"android":"levelo://app?vid=cb6062cd-3cfa-4917-b79b-5707b99e3c03","ios":"levelo://app?vid=cb6062cd-3cfa-4917-b79b-5707b99e3c03"},"vehicle_type_id":"4","last_reported":1742563117,"current_range_meters":6400,"station_id":"ce4bhrh2rcd13ifvqhug","pricing_plan_id":"cebpf4jnsgd1na2vs0mg"},{"bike_id":"63e25349-5f30-48de-b4a8-310f738b85c1","system_id":"levelo_inurba_marseille","lat":43.26957,"lon":5.38646,"is_reserved":false,"is_disabled":false,"rental_uris":{"android":"levelo://app?vid=63e25349-5f30-48de-b4a8-310f738b85c1","ios":"levelo://app?vid=63e25349-5f30-48de-b4a8-310f738b85c1"},"vehicle_type_id":"4","last_reported":1742563117,"current_range_meters":6400,"station_id":"ce4bhh92rcd13ifvqfh0","pricing_plan_id":"cebpf4jnsgd1na2vs0mg"},{"bike_id":"76b77f12-5f85-44c9-bf23-3be9b4fba728","system_id":"levelo_inurba_marseille","lat":43.31173,"lon":5.38712,"is_reserved":false,"is_disabled":false,"rental_uris":{"android":"levelo://app?vid=76b77f12-5f85-44c9-bf23-3be9b4fba728","ios":"levelo://app?vid=76b77f12-5f85-44c9-bf23-3be9b4fba728"},"vehicle_type_id":"4","last_reported":1742563117,"current_range_meters":6000,"station_id":"ce4bgv12rcd13ifvqcp0","pricing_plan_id":"cebpf4jnsgd1na2vs0mg"},{"bike_id":"882f0ae1-2aeb-4e6e-9865-04e3b4f69d3b","system_id":"levelo_inurba_marseille","lat":43.27496,"lon":5.42448,"is_reserved":false,"is_disabled":false,"rental_uris":{"android":"levelo://app?vid=882f0ae1-2aeb-4e6e-9865-04e3b4f69d3b","ios":"levelo://app?vid=882f0ae1-2aeb-4e6e-9865-04e3b4f69d3b"},"vehicle_type_id":"4","last_reported":1742563117,"current_range_meters":6000,"station_id":"ce4bhn92rcd13ifvqgrg","pricing_plan_id":"cebpf4jnsgd1na2vs0mg"},{"bike_id":"1e1f26fd-329e-4e5a-8c8f-94e98e79acf2","system_id":"levelo_inurba_marseille","lat":43.33604,"lon":5.4102,"is_reserved":false,"is_disabled":false,"rental_uris":{"android":"levelo://app?vid=1e1f26fd-329e-4e5a-8c8f-94e98e79acf2","ios":"levelo://app?vid=1e1f26fd-329e-4e5a-8c8f-94e98e79acf2"},"vehicle_type_id":"4","last_reported":1742563117,"current_range_meters":6400,"station_id":"ce4bhqh2rcd13ifvqhmg","pricing_plan_id":"cebpf4jnsgd1na2vs0mg"},{"bike_id":"b1a4e397-41ae-4270-a36b-665974743c0e","system_id":"levelo_inurba_marseille","lat":43.2678,"lon":5.39418,"is_reserved":false,"is_disabled":false,"rental_uris":{"android":"levelo://app?vid=b1a4e397-41ae-4270-a36b-665974743c0e","ios":"levelo://app?vid=b1a4e397-41ae-4270-a36b-665974743c0e"},"vehicle_type_id":"4","last_reported":1742563117,"current_range_meters":6400,"station_id":"ce4bhh12rcd13ifvqfg0","pricing_plan_id":"cebpf4jnsgd1na2vs0mg"},{"bike_id":"f9723e71-a44c-462d-8643-7da6b39a03cb","system_id":"levelo_inurba_marseille","lat":43.31363,"lon":5.38512,"is_reserved":false,"is_disabled":false,"rental_uris":{"android":"levelo://app?vid=f9723e71-a44c-462d-8643-7da6b39a03cb","ios":"levelo://app?vid=f9723e71-a44c-462d-8643-7da6b39a03cb"},"vehicle_type_id":"4","last_reported":1742563117,"current_range_meters":6400,"station_id":"ce4bgt92rcd13ifvqcf0","pricing_plan_id":"cebpf4jnsgd1na2vs0mg"},{"bike_id":"25ecc595-2e36-4eb0-83f8-05618a93e8ad","system_id":"levelo_inurba_marseille","lat":43.25829,"lon":5.39409,"is_reserved":false,"is_disabled":false,"rental_uris":{"android":"levelo://app?vid=25ecc595-2e36-4eb0-83f8-05618a93e8ad","ios":"levelo://app?vid=25ecc595-2e36-4eb0-83f8-05618a93e8ad"},"vehicle_type_id":"4","last_reported":1742563117,"current_range_meters":6400,"station_id":"ce4bhip2rcd13ifvqft0","pricing_plan_id":"cebpf4jnsgd1na2vs0mg"},{"bike_id":"d7645557-54c5-44ed-8c44-41e433a350da","system_id":"levelo_inurba_marseille","lat":43.29481,"lon":5.35573,"is_reserved":false,"is_disabled":false,"rental_uris":{"android":"levelo://app?vid=d7645557-54c5-44ed-8c44-41e433a350da","ios":"levelo://app?vid=d7645557-54c5-44ed-8c44-41e433a350da"},"vehicle_type_id":"4","last_reported":1742563117,"current_range_meters":6400,"station_id":"","pricing_plan_id":"cebpf4jnsgd1na2vs0mg"},{"bike_id":"a1d4474e-dc54-4e96-8359-81b099ba1a93","system_id":"levelo_inurba_marseille","lat":43.23188,"lon":5.39988,"is_reserved":false,"is_disabled":false,"rental_uris":{"android":"levelo://app?vid=a1d4474e-dc54-4e96-8359-81b099ba1a93","ios":"levelo://app?vid=a1d4474e-dc54-4e96-8359-81b099ba1a93"},"vehicle_type_id":"4","last_reported":1742563117,"current_range_meters":6800,"station_id":"ce4bhn12rcd13ifvqgqg","pricing_plan_id":"cebpf4jnsgd1na2vs0mg"},{"bike_id":"acd83a82-4624-4f24-8f56-7735b60f9537","system_id":"levelo_inurba_marseille","lat":43.33022,"lon":5.39038,"is_reserved":false,"is_disabled":false,"rental_uris":{"android":"levelo://app?vid=acd83a82-4624-4f24-8f56-7735b60f9537","ios":"levelo://app?vid=acd83a82-4624-4f24-8f56-7735b60f9537"},"vehicle_type_id":"4","last_reported":1742563117,"current_range_meters":6800,"station_id":"ce4bhr92rcd13ifvqhrg","pricing_plan_id":"cebpf4jnsgd1na2vs0mg"},{"bike_id":"b266faba-4e26-4c50-b078-a54d17773ddd","system_id":"levelo_inurba_marseille","lat":43.24556,"lon":5.39525,"is_reserved":false,"is_disabled":false,"rental_uris":{"android":"levelo://app?vid=b266faba-4e26-4c50-b078-a54d17773ddd","ios":"levelo://app?vid=b266faba-4e26-4c50-b078-a54d17773ddd"},"vehicle_type_id":"4","last_reported":1742563117,"current_range_meters":6800,"station_id":"ce4bhlp2rcd13ifvqgjg","pricing_plan_id":"cebpf4jnsgd1na2vs0mg"},{"bike_id":"7ea397cd-867e-4912-a6d3-a7a31a5159a3","system_id":"levelo_inurba_marseille","lat":43.29801,"lon":5.38092,"is_reserved":false,"is_disabled":false,"rental_uris":{"android":"levelo://app?vid=7ea397cd-867e-4912-a6d3-a7a31a5159a3","ios":"levelo://app?vid=7ea397cd-867e-4912-a6d3-a7a31a5159a3"},"vehicle_type_id":"4","last_reported":1742563117,"current_range_meters":6800,"station_id":"ce4bgip2rcd13ifvqbb0","pricing_plan_id":"cebpf4jnsgd1na2vs0mg"},{"bike_id":"859c64f7-96b5-44c4-af21-d05c687a4b57","system_id":"levelo_inurba_marseille","lat":43.29068,"lon":5.39939,"is_reserved":false,"is_disabled":false,"rental_uris":{"android":"levelo://app?vid=859c64f7-96b5-44c4-af21-d05c687a4b57","ios":"levelo://app?vid=859c64f7-96b5-44c4-af21-d05c687a4b57"},"vehicle_type_id":"4","last_reported":1742563117,"current_range_meters":6800,"station_id":"ce4bh392rcd13ifvqdm0","pricing_plan_id":"cebpf4jnsgd1na2vs0mg"},{"bike_id":"ae65e52b-ed3f-4327-9cbf-08ac58833251","system_id":"levelo_inurba_marseille","lat":43.27815,"lon":5.40715,"is_reserved":false,"is_disabled":false,"rental_uris":{"android":"levelo://app?vid=ae65e52b-ed3f-4327-9cbf-08ac58833251","ios":"levelo://app?vid=ae65e52b-ed3f-4327-9cbf-08ac58833251"},"vehicle_type_id":"4","last_reported":1742563117,"current_range_meters":6800,"station_id":"ce4bhnh2rcd13ifvqgtg","pricing_plan_id":"cebpf4jnsgd1na2vs0mg"},{"bike_id":"e6d737ec-f186-4ff7-a6bd-2e9968f2f8f1","system_id":"levelo_inurba_marseille","lat":43.27914,"lon":5.39579,"is_reserved":false,"is_disabled":false,"rental_uris":{"android":"levelo://app?vid=e6d737ec-f186-4ff7-a6bd-2e9968f2f8f1","ios":"levelo://app?vid=e6d737ec-f186-4ff7-a6bd-2e9968f2f8f1"},"vehicle_type_id":"4","last_reported":1742563117,"current_range_meters":6800,"station_id":"ce4bhf92rcd13ifvqf40","pricing_plan_id":"cebpf4jnsgd1na2vs0mg"},{"bike_id":"79059261-ac37-47aa-b65f-8b8991f42fe6","system_id":"levelo_inurba_marseille","lat":43.32373,"lon":5.3891,"is_reserved":false,"is_disabled":false,"rental_uris":{"android":"levelo://app?vid=79059261-ac37-47aa-b65f-8b8991f42fe6","ios":"levelo://app?vid=79059261-ac37-47aa-b65f-8b8991f42fe6"},"vehicle_type_id":"4","last_reported":1742563117,"current_range_meters":6800,"station_id":"ce4bhqp2rcd13ifvqhog","pricing_plan_id":"cebpf4jnsgd1na2vs0mg"},{"bike_id":"399b43de-a5c1-4bc6-9061-e12f52a9da37","system_id":"levelo_inurba_marseille","lat":43.26565,"lon":5.37285,"is_reserved":false,"is_disabled":false,"rental_uris":{"android":"levelo://app?vid=399b43de-a5c1-4bc6-9061-e12f52a9da37","ios":"levelo://app?vid=399b43de-a5c1-4bc6-9061-e12f52a9da37"},"vehicle_type_id":"4","last_reported":1742563117,"current_range_meters":6800,"station_id":"ce4bhg12rcd13ifvqf70","pricing_plan_id":"cebpf4jnsgd1na2vs0mg"},{"bike_id":"fa6bf643-7f3f-4368-af0e-a810dda90f64","system_id":"levelo_inurba_marseille","lat":43.30488,"lon":5.37904,"is_reserved":false,"is_disabled":false,"rental_uris":{"android":"levelo://app?vid=fa6bf643-7f3f-4368-af0e-a810dda90f64","ios":"levelo://app?vid=fa6bf643-7f3f-4368-af0e-a810dda90f64"},"vehicle_type_id":"4","last_reported":1742563117,"current_range_meters":6800,"station_id":"ce4bgup2rcd13ifvqcn0","pricing_plan_id":"cebpf4jnsgd1na2vs0mg"},{"bike_id":"4da38abe-63fe-44a7-abd3-4bad6629a678","system_id":"levelo_inurba_marseille","lat":43.29681,"lon":5.37332,"is_reserved":false,"is_disabled":false,"rental_uris":{"android":"levelo://app?vid=4da38abe-63fe-44a7-abd3-4bad6629a678","ios":"levelo://app?vid=4da38abe-63fe-44a7-abd3-4bad6629a678"},"vehicle_type_id":"4","last_reported":1742563117,"current_range_meters":6800,"station_id":"ce4bgk12rcd13ifvqbj0","pricing_plan_id":"cebpf4jnsgd1na2vs0mg"},{"bike_id":"85dd3e30-ba4f-46a8-8bea-69d52899ec96","system_id":"levelo_inurba_marseille","lat":43.2897,"lon":5.37844,"is_reserved":false,"is_disabled":false,"rental_uris":{"android":"levelo://app?vid=85dd3e30-ba4f-46a8-8bea-69d52899ec96","ios":"levelo://app?vid=85dd3e30-ba4f-46a8-8bea-69d52899ec96"},"vehicle_type_id":"4","last_reported":1742563117,"current_range_meters":7200,"station_id":"ce4bh9p2rcd13ifvqed0","pricing_plan_id":"cebpf4jnsgd1na2vs0mg"},{"bike_id":"74ca8f8e-770f-4c39-9bcc-04d356dfc1fe","system_id":"levelo_inurba_marseille","lat":43.32475,"lon":5.3659,"is_reserved":false,"is_disabled":false,"rental_uris":{"android":"levelo://app?vid=74ca8f8e-770f-4c39-9bcc-04d356dfc1fe","ios":"levelo://app?vid=74ca8f8e-770f-4c39-9bcc-04d356dfc1fe"},"vehicle_type_id":"4","last_reported":1742563117,"current_range_meters":7200,"station_id":"ce4bhs12rcd13ifvqhvg","pricing_plan_id":"cebpf4jnsgd1na2vs0mg"},{"bike_id":"9e36e618-bb62-4acc-933d-246be470434f","system_id":"levelo_inurba_marseille","lat":43.28847,"lon":5.39321,"is_reserved":false,"is_disabled":false,"rental_uris":{"android":"levelo://app?vid=9e36e618-bb62-4acc-933d-246be470434f","ios":"levelo://app?vid=9e36e618-bb62-4acc-933d-246be470434f"},"vehicle_type_id":"4","last_reported":1742563117,"current_range_meters":6800,"station_id":"ce4bh2p2rcd13ifvqdi0","pricing_plan_id":"cebpf4jnsgd1na2vs0mg"},{"bike_id":"765cbb23-a872-4006-b915-562b6aa58f07","system_id":"levelo_inurba_marseille","lat":43.30555,"lon":5.36546,"is_reserved":false,"is_disabled":false,"rental_uris":{"android":"levelo://app?vid=765cbb23-a872-4006-b915-562b6aa58f07","ios":"levelo://app?vid=765cbb23-a872-4006-b915-562b6aa58f07"},"vehicle_type_id":"4","last_reported":1742563117,"current_range_meters":7200,"station_id":"ce4bgs12rcd13ifvqcag","pricing_plan_id":"cebpf4jnsgd1na2vs0mg"},{"bike_id":"a0deeb6c-62a7-4efb-834c-1bec837aaba6","system_id":"levelo_inurba_marseille","lat":43.33691,"lon":5.37867,"is_reserved":false,"is_disabled":false,"rental_uris":{"android":"levelo://app?vid=a0deeb6c-62a7-4efb-834c-1bec837aaba6","ios":"levelo://app?vid=a0deeb6c-62a7-4efb-834c-1bec837aaba6"},"vehicle_type_id":"4","last_reported":1742563117,"current_range_meters":7200,"station_id":"","pricing_plan_id":"cebpf4jnsgd1na2vs0mg"},{"bike_id":"bd358072-6bfb-47dd-adcd-1cd7f675d4f7","system_id":"levelo_inurba_marseille","lat":43.26778,"lon":5.3943,"is_reserved":false,"is_disabled":false,"rental_uris":{"android":"levelo://app?vid=bd358072-6bfb-47dd-adcd-1cd7f675d4f7","ios":"levelo://app?vid=bd358072-6bfb-47dd-adcd-1cd7f675d4f7"},"vehicle_type_id":"4","last_reported":1742563117,"current_range_meters":7200,"station_id":"ce4bhh12rcd13ifvqfg0","pricing_plan_id":"cebpf4jnsgd1na2vs0mg"},{"bike_id":"ffbee1c9-ab8d-45ee-b606-c546ab78c5f2","system_id":"levelo_inurba_marseille","lat":43.29741,"lon":5.37788,"is_reserved":false,"is_disabled":false,"rental_uris":{"android":"levelo://app?vid=ffbee1c9-ab8d-45ee-b606-c546ab78c5f2","ios":"levelo://app?vid=ffbee1c9-ab8d-45ee-b606-c546ab78c5f2"},"vehicle_type_id":"4","last_reported":1742563117,"current_range_meters":7200,"station_id":"","pricing_plan_id":"cebpf4jnsgd1na2vs0mg"},{"bike_id":"b50713d9-a61f-4cb0-a6e7-8a2ba98b8fbc","system_id":"levelo_inurba_marseille","lat":43.27947,"lon":5.41037,"is_reserved":false,"is_disabled":false,"rental_uris":{"android":"levelo://app?vid=b50713d9-a61f-4cb0-a6e7-8a2ba98b8fbc","ios":"levelo://app?vid=b50713d9-a61f-4cb0-a6e7-8a2ba98b8fbc"},"vehicle_type_id":"4","last_reported":1742563117,"current_range_meters":7200,"station_id":"ce4bhnp2rcd13ifvqh0g","pricing_plan_id":"cebpf4jnsgd1na2vs0mg"},{"bike_id":"b9e4bdd0-024c-4547-9a94-39d0c7923642","system_id":"levelo_inurba_marseille","lat":43.24178,"lon":5.364,"is_reserved":false,"is_disabled":false,"rental_uris":{"android":"levelo://app?vid=b9e4bdd0-024c-4547-9a94-39d0c7923642","ios":"levelo://app?vid=b9e4bdd0-024c-4547-9a94-39d0c7923642"},"vehicle_type_id":"4","last_reported":1742563117,"current_range_meters":7200,"station_id":"cpo36qri1sfpv3e86is0","pricing_plan_id":"cebpf4jnsgd1na2vs0mg"},{"bike_id":"fecb09e4-abd6-439d-888e-32acf6256163","system_id":"levelo_inurba_marseille","lat":43.2572,"lon":5.41111,"is_reserved":false,"is_disabled":false,"rental_uris":{"android":"levelo://app?vid=fecb09e4-abd6-439d-888e-32acf6256163","ios":"levelo://app?vid=fecb09e4-abd6-439d-888e-32acf6256163"},"vehicle_type_id":"4","last_reported":1742563117,"current_range_meters":7200,"station_id":"ce4bhkp2rcd13ifvqgd0","pricing_plan_id":"cebpf4jnsgd1na2vs0mg"},{"bike_id":"c5bb5dca-1dc9-450e-9a3d-9fa737cf345d","system_id":"levelo_inurba_marseille","lat":43.24643,"lon":5.38891,"is_reserved":false,"is_disabled":false,"rental_uris":{"android":"levelo://app?vid=c5bb5dca-1dc9-450e-9a3d-9fa737cf345d","ios":"levelo://app?vid=c5bb5dca-1dc9-450e-9a3d-9fa737cf345d"},"vehicle_type_id":"4","last_reported":1742563117,"current_range_meters":7200,"station_id":"ce4bhg12rcd13ifvqf60","pricing_plan_id":"cebpf4jnsgd1na2vs0mg"},{"bike_id":"caf327ee-0718-40f1-8a49-7a70f510b0a8","system_id":"levelo_inurba_marseille","lat":43.269417,"lon":5.38648,"is_reserved":false,"is_disabled":true,"rental_uris":{"android":"levelo://app?vid=caf327ee-0718-40f1-8a49-7a70f510b0a8","ios":"levelo://app?vid=caf327ee-0718-40f1-8a49-7a70f510b0a8"},"vehicle_type_id":"4","last_reported":1742563117,"current_range_meters":7200,"station_id":"ce4bhh92rcd13ifvqfh0","pricing_plan_id":"cebpf4jnsgd1na2vs0mg"},{"bike_id":"8dfa3a41-454e-4520-9293-365a2fbc3f7c","system_id":"levelo_inurba_marseille","lat":43.26562,"lon":5.37295,"is_reserved":false,"is_disabled":false,"rental_uris":{"android":"levelo://app?vid=8dfa3a41-454e-4520-9293-365a2fbc3f7c","ios":"levelo://app?vid=8dfa3a41-454e-4520-9293-365a2fbc3f7c"},"vehicle_type_id":"4","last_reported":1742563117,"current_range_meters":8000,"station_id":"ce4bhg12rcd13ifvqf70","pricing_plan_id":"cebpf4jnsgd1na2vs0mg"},{"bike_id":"32e3927b-12d0-4b1a-9923-ea2f64ded6c1","system_id":"levelo_inurba_marseille","lat":43.281572,"lon":5.42649,"is_reserved":false,"is_disabled":false,"rental_uris":{"android":"levelo://app?vid=32e3927b-12d0-4b1a-9923-ea2f64ded6c1","ios":"levelo://app?vid=32e3927b-12d0-4b1a-9923-ea2f64ded6c1"},"vehicle_type_id":"4","last_reported":1742563117,"current_range_meters":8000,"station_id":"ce4bhnh2rcd13ifvqgug","pricing_plan_id":"cebpf4jnsgd1na2vs0mg"},{"bike_id":"8c9fa4ba-3022-472d-a524-2b34aef0abf8","system_id":"levelo_inurba_marseille","lat":43.29971,"lon":5.37145,"is_reserved":false,"is_disabled":true,"rental_uris":{"android":"levelo://app?vid=8c9fa4ba-3022-472d-a524-2b34aef0abf8","ios":"levelo://app?vid=8c9fa4ba-3022-472d-a524-2b34aef0abf8"},"vehicle_type_id":"4","last_reported":1742563117,"current_range_meters":8000,"station_id":"ce4bgr92rcd13ifvqc7g","pricing_plan_id":"cebpf4jnsgd1na2vs0mg"},{"bike_id":"298094ff-1b8f-403e-b315-5326030acb86","system_id":"levelo_inurba_marseille","lat":43.28172,"lon":5.42642,"is_reserved":false,"is_disabled":false,"rental_uris":{"android":"levelo://app?vid=298094ff-1b8f-403e-b315-5326030acb86","ios":"levelo://app?vid=298094ff-1b8f-403e-b315-5326030acb86"},"vehicle_type_id":"4","last_reported":1742563117,"current_range_meters":8000,"station_id":"ce4bhnh2rcd13ifvqgug","pricing_plan_id":"cebpf4jnsgd1na2vs0mg"},{"bike_id":"24e7619e-1200-4ec6-9e20-bdc768c08f30","system_id":"levelo_inurba_marseille","lat":43.23194,"lon":5.35566,"is_reserved":false,"is_disabled":false,"rental_uris":{"android":"levelo://app?vid=24e7619e-1200-4ec6-9e20-bdc768c08f30","ios":"levelo://app?vid=24e7619e-1200-4ec6-9e20-bdc768c08f30"},"vehicle_type_id":"4","last_reported":1742563117,"current_range_meters":8000,"station_id":"ce4bhu92rcd13ifvqi70","pricing_plan_id":"cebpf4jnsgd1na2vs0mg"},{"bike_id":"1650c152-e083-415c-b118-5516ca869cbf","system_id":"levelo_inurba_marseille","lat":43.26996,"lon":5.38601,"is_reserved":false,"is_disabled":false,"rental_uris":{"android":"levelo://app?vid=1650c152-e083-415c-b118-5516ca869cbf","ios":"levelo://app?vid=1650c152-e083-415c-b118-5516ca869cbf"},"vehicle_type_id":"4","last_reported":1742563117,"current_range_meters":8000,"station_id":"","pricing_plan_id":"cebpf4jnsgd1na2vs0mg"},{"bike_id":"d15c630a-acc1-4278-b4d1-feb375d3df70","system_id":"levelo_inurba_marseille","lat":43.30493,"lon":5.37909,"is_reserved":false,"is_disabled":false,"rental_uris":{"android":"levelo://app?vid=d15c630a-acc1-4278-b4d1-feb375d3df70","ios":"levelo://app?vid=d15c630a-acc1-4278-b4d1-feb375d3df70"},"vehicle_type_id":"4","last_reported":1742563117,"current_range_meters":8000,"station_id":"ce4bgup2rcd13ifvqcn0","pricing_plan_id":"cebpf4jnsgd1na2vs0mg"},{"bike_id":"1d8daad7-9bb4-40dd-adfc-e589f483368c","system_id":"levelo_inurba_marseille","lat":43.25829,"lon":5.39435,"is_reserved":false,"is_disabled":false,"rental_uris":{"android":"levelo://app?vid=1d8daad7-9bb4-40dd-adfc-e589f483368c","ios":"levelo://app?vid=1d8daad7-9bb4-40dd-adfc-e589f483368c"},"vehicle_type_id":"4","last_reported":1742563117,"current_range_meters":8400,"station_id":"ce4bhip2rcd13ifvqft0","pricing_plan_id":"cebpf4jnsgd1na2vs0mg"},{"bike_id":"3ca2b3ac-85d1-47c0-947c-209c4761986e","system_id":"levelo_inurba_marseille","lat":43.33604,"lon":5.41028,"is_reserved":false,"is_disabled":false,"rental_uris":{"android":"levelo://app?vid=3ca2b3ac-85d1-47c0-947c-209c4761986e","ios":"levelo://app?vid=3ca2b3ac-85d1-47c0-947c-209c4761986e"},"vehicle_type_id":"4","last_reported":1742563117,"current_range_meters":8400,"station_id":"ce4bhqh2rcd13ifvqhmg","pricing_plan_id":"cebpf4jnsgd1na2vs0mg"},{"bike_id":"62bf2f5c-9819-4816-afad-4a268d7a76b8","system_id":"levelo_inurba_marseille","lat":43.24167,"lon":5.3641,"is_reserved":false,"is_disabled":false,"rental_uris":{"android":"levelo://app?vid=62bf2f5c-9819-4816-afad-4a268d7a76b8","ios":"levelo://app?vid=62bf2f5c-9819-4816-afad-4a268d7a76b8"},"vehicle_type_id":"4","last_reported":1742563117,"current_range_meters":8400,"station_id":"cpo36qri1sfpv3e86is0","pricing_plan_id":"cebpf4jnsgd1na2vs0mg"},{"bike_id":"e5c14285-2e1d-41d9-bab9-ae38b8ffec63","system_id":"levelo_inurba_marseille","lat":43.33617,"lon":5.40988,"is_reserved":false,"is_disabled":false,"rental_uris":{"android":"levelo://app?vid=e5c14285-2e1d-41d9-bab9-ae38b8ffec63","ios":"levelo://app?vid=e5c14285-2e1d-41d9-bab9-ae38b8ffec63"},"vehicle_type_id":"4","last_reported":1742563117,"current_range_meters":8400,"station_id":"ce4bhqh2rcd13ifvqhmg","pricing_plan_id":"cebpf4jnsgd1na2vs0mg"},{"bike_id":"be38586b-e5dc-4232-ab17-bdf14f9705ea","system_id":"levelo_inurba_marseille","lat":43.28158,"lon":5.42649,"is_reserved":false,"is_disabled":false,"rental_uris":{"android":"levelo://app?vid=be38586b-e5dc-4232-ab17-bdf14f9705ea","ios":"levelo://app?vid=be38586b-e5dc-4232-ab17-bdf14f9705ea"},"vehicle_type_id":"4","last_reported":1742563117,"current_range_meters":8400,"station_id":"ce4bhnh2rcd13ifvqgug","pricing_plan_id":"cebpf4jnsgd1na2vs0mg"},{"bike_id":"8c5afa24-d4d7-43ca-aee6-50493a1cd92e","system_id":"levelo_inurba_marseille","lat":43.25143,"lon":5.40342,"is_reserved":false,"is_disabled":false,"rental_uris":{"android":"levelo://app?vid=8c5afa24-d4d7-43ca-aee6-50493a1cd92e","ios":"levelo://app?vid=8c5afa24-d4d7-43ca-aee6-50493a1cd92e"},"vehicle_type_id":"4","last_reported":1742563117,"current_range_meters":8400,"station_id":"ce4bhlh2rcd13ifvqgig","pricing_plan_id":"cebpf4jnsgd1na2vs0mg"},{"bike_id":"13980092-d2f2-4df8-91a8-35fcecedea60","system_id":"levelo_inurba_marseille","lat":43.28938,"lon":5.3963,"is_reserved":false,"is_disabled":false,"rental_uris":{"android":"levelo://app?vid=13980092-d2f2-4df8-91a8-35fcecedea60","ios":"levelo://app?vid=13980092-d2f2-4df8-91a8-35fcecedea60"},"vehicle_type_id":"4","last_reported":1742563117,"current_range_meters":8000,"station_id":"ce4bh3h2rcd13ifvqdn0","pricing_plan_id":"cebpf4jnsgd1na2vs0mg"},{"bike_id":"d6449a8a-8cb9-436e-8467-42213de18c90","system_id":"levelo_inurba_marseille","lat":43.25572,"lon":5.38229,"is_reserved":false,"is_disabled":false,"rental_uris":{"android":"levelo://app?vid=d6449a8a-8cb9-436e-8467-42213de18c90","ios":"levelo://app?vid=d6449a8a-8cb9-436e-8467-42213de18c90"},"vehicle_type_id":"4","last_reported":1742563117,"current_range_meters":8400,"station_id":"ce4bhih2rcd13ifvqfs0","pricing_plan_id":"cebpf4jnsgd1na2vs0mg"},{"bike_id":"037dbfe4-6d41-4ed0-a07d-0521a0c84e5d","system_id":"levelo_inurba_marseille","lat":43.26232,"lon":5.37447,"is_reserved":false,"is_disabled":false,"rental_uris":{"android":"levelo://app?vid=037dbfe4-6d41-4ed0-a07d-0521a0c84e5d","ios":"levelo://app?vid=037dbfe4-6d41-4ed0-a07d-0521a0c84e5d"},"vehicle_type_id":"4","last_reported":1742563117,"current_range_meters":8400,"station_id":"ce4bhgp2rcd13ifvqfc0","pricing_plan_id":"cebpf4jnsgd1na2vs0mg"},{"bike_id":"e389810b-ce41-4efc-a37e-5365ac0ad688","system_id":"levelo_inurba_marseille","lat":43.30464,"lon":5.37904,"is_reserved":false,"is_disabled":false,"rental_uris":{"android":"levelo://app?vid=e389810b-ce41-4efc-a37e-5365ac0ad688","ios":"levelo://app?vid=e389810b-ce41-4efc-a37e-5365ac0ad688"},"vehicle_type_id":"4","last_reported":1742563117,"current_range_meters":8400,"station_id":"ce4bgup2rcd13ifvqcn0","pricing_plan_id":"cebpf4jnsgd1na2vs0mg"},{"bike_id":"88a837d6-3963-47dc-9ba3-f0a03f29e488","system_id":"levelo_inurba_marseille","lat":43.29032,"lon":5.37566,"is_reserved":false,"is_disabled":false,"rental_uris":{"android":"levelo://app?vid=88a837d6-3963-47dc-9ba3-f0a03f29e488","ios":"levelo://app?vid=88a837d6-3963-47dc-9ba3-f0a03f29e488"},"vehicle_type_id":"4","last_reported":1742563117,"current_range_meters":8400,"station_id":"ce4bh692rcd13ifvqe90","pricing_plan_id":"cebpf4jnsgd1na2vs0mg"},{"bike_id":"f589539d-d63d-45fb-bd41-4fe66d427517","system_id":"levelo_inurba_marseille","lat":43.31076,"lon":5.38356,"is_reserved":false,"is_disabled":false,"rental_uris":{"android":"levelo://app?vid=f589539d-d63d-45fb-bd41-4fe66d427517","ios":"levelo://app?vid=f589539d-d63d-45fb-bd41-4fe66d427517"},"vehicle_type_id":"4","last_reported":1742563117,"current_range_meters":8400,"station_id":"ce4bgv92rcd13ifvqcr0","pricing_plan_id":"cebpf4jnsgd1na2vs0mg"},{"bike_id":"f7e3baae-b91f-4a72-a693-383cf586f5ba","system_id":"levelo_inurba_marseille","lat":43.2804,"lon":5.36938,"is_reserved":false,"is_disabled":false,"rental_uris":{"android":"levelo://app?vid=f7e3baae-b91f-4a72-a693-383cf586f5ba","ios":"levelo://app?vid=f7e3baae-b91f-4a72-a693-383cf586f5ba"},"vehicle_type_id":"4","last_reported":1742563117,"current_range_meters":8400,"station_id":"ce4bha12rcd13ifvqef0","pricing_plan_id":"cebpf4jnsgd1na2vs0mg"},{"bike_id":"1e9d8313-c9b6-49c9-b708-8de08d726aed","system_id":"levelo_inurba_marseille","lat":43.27951,"lon":5.41035,"is_reserved":false,"is_disabled":false,"rental_uris":{"android":"levelo://app?vid=1e9d8313-c9b6-49c9-b708-8de08d726aed","ios":"levelo://app?vid=1e9d8313-c9b6-49c9-b708-8de08d726aed"},"vehicle_type_id":"4","last_reported":1742563117,"current_range_meters":8400,"station_id":"ce4bhnp2rcd13ifvqh0g","pricing_plan_id":"cebpf4jnsgd1na2vs0mg"},{"bike_id":"cdcd15e9-ceab-40d3-952d-69e1094c5b53","system_id":"levelo_inurba_marseille","lat":43.30552,"lon":5.36541,"is_reserved":false,"is_disabled":false,"rental_uris":{"android":"levelo://app?vid=cdcd15e9-ceab-40d3-952d-69e1094c5b53","ios":"levelo://app?vid=cdcd15e9-ceab-40d3-952d-69e1094c5b53"},"vehicle_type_id":"4","last_reported":1742563117,"current_range_meters":8400,"station_id":"ce4bgs12rcd13ifvqcag","pricing_plan_id":"cebpf4jnsgd1na2vs0mg"},{"bike_id":"2d86cf0c-8220-4a0c-a77e-5b4210ae7f59","system_id":"levelo_inurba_marseille","lat":43.30494,"lon":5.3707,"is_reserved":false,"is_disabled":false,"rental_uris":{"android":"levelo://app?vid=2d86cf0c-8220-4a0c-a77e-5b4210ae7f59","ios":"levelo://app?vid=2d86cf0c-8220-4a0c-a77e-5b4210ae7f59"},"vehicle_type_id":"4","last_reported":1742563117,"current_range_meters":8400,"station_id":"","pricing_plan_id":"cebpf4jnsgd1na2vs0mg"},{"bike_id":"2678929a-312d-4089-b116-1e816de7db90","system_id":"levelo_inurba_marseille","lat":43.32123,"lon":5.3677,"is_reserved":false,"is_disabled":false,"rental_uris":{"android":"levelo://app?vid=2678929a-312d-4089-b116-1e816de7db90","ios":"levelo://app?vid=2678929a-312d-4089-b116-1e816de7db90"},"vehicle_type_id":"4","last_reported":1742563117,"current_range_meters":8800,"station_id":"ce4bhrh2rcd13ifvqhug","pricing_plan_id":"cebpf4jnsgd1na2vs0mg"},{"bike_id":"e6cde97c-302d-4a60-b744-5e4f30accb0c","system_id":"levelo_inurba_marseille","lat":43.28483,"lon":5.38381,"is_reserved":false,"is_disabled":false,"rental_uris":{"android":"levelo://app?vid=e6cde97c-302d-4a60-b744-5e4f30accb0c","ios":"levelo://app?vid=e6cde97c-302d-4a60-b744-5e4f30accb0c"},"vehicle_type_id":"4","last_reported":1742563117,"current_range_meters":8800,"station_id":"ce4bh512rcd13ifvqe3g","pricing_plan_id":"cebpf4jnsgd1na2vs0mg"},{"bike_id":"1c3b5361-695c-4ccc-94f9-aca7f37b6d45","system_id":"levelo_inurba_marseille","lat":43.23196,"lon":5.35556,"is_reserved":false,"is_disabled":false,"rental_uris":{"android":"levelo://app?vid=1c3b5361-695c-4ccc-94f9-aca7f37b6d45","ios":"levelo://app?vid=1c3b5361-695c-4ccc-94f9-aca7f37b6d45"},"vehicle_type_id":"4","last_reported":1742563117,"current_range_meters":9200,"station_id":"ce4bhu92rcd13ifvqi70","pricing_plan_id":"cebpf4jnsgd1na2vs0mg"},{"bike_id":"448af6b1-7be5-4861-b59a-d7533837d077","system_id":"levelo_inurba_marseille","lat":43.28373,"lon":5.38632,"is_reserved":false,"is_disabled":false,"rental_uris":{"android":"levelo://app?vid=448af6b1-7be5-4861-b59a-d7533837d077","ios":"levelo://app?vid=448af6b1-7be5-4861-b59a-d7533837d077"},"vehicle_type_id":"4","last_reported":1742563117,"current_range_meters":8800,"station_id":"ce4bh492rcd13ifvqdvg","pricing_plan_id":"cebpf4jnsgd1na2vs0mg"},{"bike_id":"070c961e-e86e-4740-8698-1a0e841f9bb8","system_id":"levelo_inurba_marseille","lat":43.29711,"lon":5.36613,"is_reserved":false,"is_disabled":false,"rental_uris":{"android":"levelo://app?vid=070c961e-e86e-4740-8698-1a0e841f9bb8","ios":"levelo://app?vid=070c961e-e86e-4740-8698-1a0e841f9bb8"},"vehicle_type_id":"4","last_reported":1742563117,"current_range_meters":8800,"station_id":"ce4bgn12rcd13ifvqbt0","pricing_plan_id":"cebpf4jnsgd1na2vs0mg"},{"bike_id":"a67c54b6-5ce9-4632-8070-5ca7d5b7fc9e","system_id":"levelo_inurba_marseille","lat":43.2307,"lon":5.35485,"is_reserved":false,"is_disabled":false,"rental_uris":{"android":"levelo://app?vid=a67c54b6-5ce9-4632-8070-5ca7d5b7fc9e","ios":"levelo://app?vid=a67c54b6-5ce9-4632-8070-5ca7d5b7fc9e"},"vehicle_type_id":"4","last_reported":1742563117,"current_range_meters":9200,"station_id":"cpo3342slgdg3j2ifvpg","pricing_plan_id":"cebpf4jnsgd1na2vs0mg"},{"bike_id":"0ed80887-c895-47de-b29f-d64a2613ede3","system_id":"levelo_inurba_marseille","lat":43.3054,"lon":5.36541,"is_reserved":false,"is_disabled":false,"rental_uris":{"android":"levelo://app?vid=0ed80887-c895-47de-b29f-d64a2613ede3","ios":"levelo://app?vid=0ed80887-c895-47de-b29f-d64a2613ede3"},"vehicle_type_id":"4","last_reported":1742563117,"current_range_meters":9200,"station_id":"ce4bgs12rcd13ifvqcag","pricing_plan_id":"cebpf4jnsgd1na2vs0mg"},{"bike_id":"98d35705-ef42-4f31-9bfc-9db2be832a4a","system_id":"levelo_inurba_marseille","lat":43.30458,"lon":5.37896,"is_reserved":false,"is_disabled":false,"rental_uris":{"android":"levelo://app?vid=98d35705-ef42-4f31-9bfc-9db2be832a4a","ios":"levelo://app?vid=98d35705-ef42-4f31-9bfc-9db2be832a4a"},"vehicle_type_id":"4","last_reported":1742563117,"current_range_meters":9200,"station_id":"ce4bgup2rcd13ifvqcn0","pricing_plan_id":"cebpf4jnsgd1na2vs0mg"},{"bike_id":"6d3d33a6-cfba-439b-bab5-9d5dabfa89f4","system_id":"levelo_inurba_marseille","lat":43.29982,"lon":5.38484,"is_reserved":false,"is_disabled":false,"rental_uris":{"android":"levelo://app?vid=6d3d33a6-cfba-439b-bab5-9d5dabfa89f4","ios":"levelo://app?vid=6d3d33a6-cfba-439b-bab5-9d5dabfa89f4"},"vehicle_type_id":"4","last_reported":1742563117,"current_range_meters":9200,"station_id":"ce4bgj92rcd13ifvqbd0","pricing_plan_id":"cebpf4jnsgd1na2vs0mg"},{"bike_id":"31ba5937-48f4-487d-85b0-bd6c0014621f","system_id":"levelo_inurba_marseille","lat":43.31501,"lon":5.37265,"is_reserved":false,"is_disabled":false,"rental_uris":{"android":"levelo://app?vid=31ba5937-48f4-487d-85b0-bd6c0014621f","ios":"levelo://app?vid=31ba5937-48f4-487d-85b0-bd6c0014621f"},"vehicle_type_id":"4","last_reported":1742563117,"current_range_meters":9200,"station_id":"ce4bgt12rcd13ifvqcd0","pricing_plan_id":"cebpf4jnsgd1na2vs0mg"},{"bike_id":"86859bc8-cdf3-4c55-a231-e1ff87943727","system_id":"levelo_inurba_marseille","lat":43.31496,"lon":5.37306,"is_reserved":false,"is_disabled":false,"rental_uris":{"android":"levelo://app?vid=86859bc8-cdf3-4c55-a231-e1ff87943727","ios":"levelo://app?vid=86859bc8-cdf3-4c55-a231-e1ff87943727"},"vehicle_type_id":"4","last_reported":1742563117,"current_range_meters":9600,"station_id":"ce4bgt12rcd13ifvqcd0","pricing_plan_id":"cebpf4jnsgd1na2vs0mg"},{"bike_id":"9fcb3f14-f368-4f79-aa70-01b27150c36b","system_id":"levelo_inurba_marseille","lat":43.30639,"lon":5.37244,"is_reserved":false,"is_disabled":false,"rental_uris":{"android":"levelo://app?vid=9fcb3f14-f368-4f79-aa70-01b27150c36b","ios":"levelo://app?vid=9fcb3f14-f368-4f79-aa70-01b27150c36b"},"vehicle_type_id":"4","last_reported":1742563117,"current_range_meters":9600,"station_id":"ce4bgqh2rcd13ifvqc4g","pricing_plan_id":"cebpf4jnsgd1na2vs0mg"},{"bike_id":"c7f0b1a9-d1cb-4001-8f4e-99b174944710","system_id":"levelo_inurba_marseille","lat":43.26572,"lon":5.38986,"is_reserved":false,"is_disabled":false,"rental_uris":{"android":"levelo://app?vid=c7f0b1a9-d1cb-4001-8f4e-99b174944710","ios":"levelo://app?vid=c7f0b1a9-d1cb-4001-8f4e-99b174944710"},"vehicle_type_id":"4","last_reported":1742563117,"current_range_meters":9600,"station_id":"ce4bhe12rcd13ifvqf30","pricing_plan_id":"cebpf4jnsgd1na2vs0mg"},{"bike_id":"fd63a192-a2ae-4c1d-aa3f-4b573664d6e9","system_id":"levelo_inurba_marseille","lat":43.31354,"lon":5.36709,"is_reserved":false,"is_disabled":false,"rental_uris":{"android":"levelo://app?vid=fd63a192-a2ae-4c1d-aa3f-4b573664d6e9","ios":"levelo://app?vid=fd63a192-a2ae-4c1d-aa3f-4b573664d6e9"},"vehicle_type_id":"4","last_reported":1742563117,"current_range_meters":9600,"station_id":"ce4bgr92rcd13ifvqc6g","pricing_plan_id":"cebpf4jnsgd1na2vs0mg"},{"bike_id":"849ed778-563c-4385-b3a0-222c5dbfd0d6","system_id":"levelo_inurba_marseille","lat":43.25937,"lon":5.409,"is_reserved":false,"is_disabled":false,"rental_uris":{"android":"levelo://app?vid=849ed778-563c-4385-b3a0-222c5dbfd0d6","ios":"levelo://app?vid=849ed778-563c-4385-b3a0-222c5dbfd0d6"},"vehicle_type_id":"4","last_reported":1742563117,"current_range_meters":9600,"station_id":"ce4bhm92rcd13ifvqglg","pricing_plan_id":"cebpf4jnsgd1na2vs0mg"},{"bike_id":"12e7e33a-856a-49b2-a52e-1f3567d1d990","system_id":"levelo_inurba_marseille","lat":43.30548,"lon":5.36538,"is_reserved":false,"is_disabled":false,"rental_uris":{"android":"levelo://app?vid=12e7e33a-856a-49b2-a52e-1f3567d1d990","ios":"levelo://app?vid=12e7e33a-856a-49b2-a52e-1f3567d1d990"},"vehicle_type_id":"4","last_reported":1742563117,"current_range_meters":9600,"station_id":"ce4bgs12rcd13ifvqcag","pricing_plan_id":"cebpf4jnsgd1na2vs0mg"},{"bike_id":"3a260712-d654-4076-bb8e-2d2c938680e2","system_id":"levelo_inurba_marseille","lat":43.33593,"lon":5.40998,"is_reserved":false,"is_disabled":false,"rental_uris":{"android":"levelo://app?vid=3a260712-d654-4076-bb8e-2d2c938680e2","ios":"levelo://app?vid=3a260712-d654-4076-bb8e-2d2c938680e2"},"vehicle_type_id":"4","last_reported":1742563117,"current_range_meters":9600,"station_id":"ce4bhqh2rcd13ifvqhmg","pricing_plan_id":"cebpf4jnsgd1na2vs0mg"},{"bike_id":"f4ff874d-62d0-4d69-86ad-fa614c6a16c4","system_id":"levelo_inurba_marseille","lat":43.2408,"lon":5.37753,"is_reserved":false,"is_disabled":false,"rental_uris":{"android":"levelo://app?vid=f4ff874d-62d0-4d69-86ad-fa614c6a16c4","ios":"levelo://app?vid=f4ff874d-62d0-4d69-86ad-fa614c6a16c4"},"vehicle_type_id":"4","last_reported":1742563117,"current_range_meters":9600,"station_id":"ce4bhnp2rcd13ifvqgvg","pricing_plan_id":"cebpf4jnsgd1na2vs0mg"},{"bike_id":"ded6f5ad-6252-4ce9-8aea-b9c3424b3a3b","system_id":"levelo_inurba_marseille","lat":43.30462,"lon":5.37914,"is_reserved":false,"is_disabled":false,"rental_uris":{"android":"levelo://app?vid=ded6f5ad-6252-4ce9-8aea-b9c3424b3a3b","ios":"levelo://app?vid=ded6f5ad-6252-4ce9-8aea-b9c3424b3a3b"},"vehicle_type_id":"4","last_reported":1742563117,"current_range_meters":9600,"station_id":"ce4bgup2rcd13ifvqcn0","pricing_plan_id":"cebpf4jnsgd1na2vs0mg"},{"bike_id":"d4cbfe2b-0aee-4355-8dd5-15348e2b8c4b","system_id":"levelo_inurba_marseille","lat":43.29304,"lon":5.37478,"is_reserved":false,"is_disabled":false,"rental_uris":{"android":"levelo://app?vid=d4cbfe2b-0aee-4355-8dd5-15348e2b8c4b","ios":"levelo://app?vid=d4cbfe2b-0aee-4355-8dd5-15348e2b8c4b"},"vehicle_type_id":"4","last_reported":1742563117,"current_range_meters":9600,"station_id":"ce4bgi12rcd13ifvqb70","pricing_plan_id":"cebpf4jnsgd1na2vs0mg"},{"bike_id":"70f71158-94ab-4eb7-aff1-34f3614783c1","system_id":"levelo_inurba_marseille","lat":43.24076,"lon":5.37762,"is_reserved":false,"is_disabled":false,"rental_uris":{"android":"levelo://app?vid=70f71158-94ab-4eb7-aff1-34f3614783c1","ios":"levelo://app?vid=70f71158-94ab-4eb7-aff1-34f3614783c1"},"vehicle_type_id":"4","last_reported":1742563117,"current_range_meters":9600,"station_id":"ce4bhnp2rcd13ifvqgvg","pricing_plan_id":"cebpf4jnsgd1na2vs0mg"},{"bike_id":"899ab87e-4ea4-40e5-9304-e09f83aad3d0","system_id":"levelo_inurba_marseille","lat":43.2397,"lon":5.36645,"is_reserved":false,"is_disabled":false,"rental_uris":{"android":"levelo://app?vid=899ab87e-4ea4-40e5-9304-e09f83aad3d0","ios":"levelo://app?vid=899ab87e-4ea4-40e5-9304-e09f83aad3d0"},"vehicle_type_id":"4","last_reported":1742563117,"current_range_meters":10000,"station_id":"ce4bhi12rcd13ifvqfp0","pricing_plan_id":"cebpf4jnsgd1na2vs0mg"},{"bike_id":"033c0fb1-c3a4-4e6f-8f9a-726d88d2d5ce","system_id":"levelo_inurba_marseille","lat":43.25005,"lon":5.38923,"is_reserved":false,"is_disabled":false,"rental_uris":{"android":"levelo://app?vid=033c0fb1-c3a4-4e6f-8f9a-726d88d2d5ce","ios":"levelo://app?vid=033c0fb1-c3a4-4e6f-8f9a-726d88d2d5ce"},"vehicle_type_id":"4","last_reported":1742563117,"current_range_meters":9600,"station_id":"ce4bhgp2rcd13ifvqfd0","pricing_plan_id":"cebpf4jnsgd1na2vs0mg"},{"bike_id":"8294ba95-4caa-488d-bd32-52d49262ead9","system_id":"levelo_inurba_marseille","lat":43.26945,"lon":5.38639,"is_reserved":false,"is_disabled":false,"rental_uris":{"android":"levelo://app?vid=8294ba95-4caa-488d-bd32-52d49262ead9","ios":"levelo://app?vid=8294ba95-4caa-488d-bd32-52d49262ead9"},"vehicle_type_id":"4","last_reported":1742563117,"current_range_meters":10000,"station_id":"ce4bhh92rcd13ifvqfh0","pricing_plan_id":"cebpf4jnsgd1na2vs0mg"},{"bike_id":"1323d2cd-c4e0-4783-b4f1-4daaeb41faef","system_id":"levelo_inurba_marseille","lat":43.23962,"lon":5.36626,"is_reserved":false,"is_disabled":false,"rental_uris":{"android":"levelo://app?vid=1323d2cd-c4e0-4783-b4f1-4daaeb41faef","ios":"levelo://app?vid=1323d2cd-c4e0-4783-b4f1-4daaeb41faef"},"vehicle_type_id":"4","last_reported":1742563117,"current_range_meters":10000,"station_id":"ce4bhi12rcd13ifvqfp0","pricing_plan_id":"cebpf4jnsgd1na2vs0mg"},{"bike_id":"bf5d7bdb-65a8-4310-b955-6a76e2cbd7fe","system_id":"levelo_inurba_marseille","lat":43.33734,"lon":5.39184,"is_reserved":false,"is_disabled":false,"rental_uris":{"android":"levelo://app?vid=bf5d7bdb-65a8-4310-b955-6a76e2cbd7fe","ios":"levelo://app?vid=bf5d7bdb-65a8-4310-b955-6a76e2cbd7fe"},"vehicle_type_id":"4","last_reported":1742563117,"current_range_meters":10000,"station_id":"ce4bhr92rcd13ifvqhsg","pricing_plan_id":"cebpf4jnsgd1na2vs0mg"},{"bike_id":"75252e3b-ff13-4f3b-bd72-1e287b81c85d","system_id":"levelo_inurba_marseille","lat":43.28706,"lon":5.39995,"is_reserved":false,"is_disabled":false,"rental_uris":{"android":"levelo://app?vid=75252e3b-ff13-4f3b-bd72-1e287b81c85d","ios":"levelo://app?vid=75252e3b-ff13-4f3b-bd72-1e287b81c85d"},"vehicle_type_id":"4","last_reported":1742563117,"current_range_meters":9200,"station_id":"ce4bho92rcd13ifvqh3g","pricing_plan_id":"cebpf4jnsgd1na2vs0mg"},{"bike_id":"986bc6b3-2404-4a9e-af36-9765f879b692","system_id":"levelo_inurba_marseille","lat":43.30201,"lon":5.39467,"is_reserved":false,"is_disabled":false,"rental_uris":{"android":"levelo://app?vid=986bc6b3-2404-4a9e-af36-9765f879b692","ios":"levelo://app?vid=986bc6b3-2404-4a9e-af36-9765f879b692"},"vehicle_type_id":"4","last_reported":1742563117,"current_range_meters":10000,"station_id":"ce4bh0p2rcd13ifvqd70","pricing_plan_id":"cebpf4jnsgd1na2vs0mg"},{"bike_id":"a34c9369-de2a-4ce0-9681-9c2c092e7d09","system_id":"levelo_inurba_marseille","lat":43.28274,"lon":5.3508,"is_reserved":false,"is_disabled":false,"rental_uris":{"android":"levelo://app?vid=a34c9369-de2a-4ce0-9681-9c2c092e7d09","ios":"levelo://app?vid=a34c9369-de2a-4ce0-9681-9c2c092e7d09"},"vehicle_type_id":"4","last_reported":1742563117,"current_range_meters":10000,"station_id":"ce4bhbp2rcd13ifvqerg","pricing_plan_id":"cebpf4jnsgd1na2vs0mg"},{"bike_id":"32c136b5-47bb-4db2-974c-debde23c849b","system_id":"levelo_inurba_marseille","lat":43.29265,"lon":5.37618,"is_reserved":false,"is_disabled":false,"rental_uris":{"android":"levelo://app?vid=32c136b5-47bb-4db2-974c-debde23c849b","ios":"levelo://app?vid=32c136b5-47bb-4db2-974c-debde23c849b"},"vehicle_type_id":"4","last_reported":1742563117,"current_range_meters":10000,"station_id":"ce4bgi12rcd13ifvqb80","pricing_plan_id":"cebpf4jnsgd1na2vs0mg"},{"bike_id":"6633cd85-5ca9-4202-8361-82e71093e1ca","system_id":"levelo_inurba_marseille","lat":43.29322,"lon":5.37424,"is_reserved":false,"is_disabled":false,"rental_uris":{"android":"levelo://app?vid=6633cd85-5ca9-4202-8361-82e71093e1ca","ios":"levelo://app?vid=6633cd85-5ca9-4202-8361-82e71093e1ca"},"vehicle_type_id":"4","last_reported":1742563117,"current_range_meters":10000,"station_id":"ce4bgi12rcd13ifvqb70","pricing_plan_id":"cebpf4jnsgd1na2vs0mg"},{"bike_id":"9d79f439-7e4a-4285-8d7e-eabcfa1e44da","system_id":"levelo_inurba_marseille","lat":43.30093,"lon":5.39091,"is_reserved":false,"is_disabled":false,"rental_uris":{"android":"levelo://app?vid=9d79f439-7e4a-4285-8d7e-eabcfa1e44da","ios":"levelo://app?vid=9d79f439-7e4a-4285-8d7e-eabcfa1e44da"},"vehicle_type_id":"4","last_reported":1742563117,"current_range_meters":10800,"station_id":"ce4bh192rcd13ifvqdb0","pricing_plan_id":"cebpf4jnsgd1na2vs0mg"},{"bike_id":"96f516c2-264e-43cc-a054-ee59b4eb1ccc","system_id":"levelo_inurba_marseille","lat":43.30258,"lon":5.40074,"is_reserved":false,"is_disabled":false,"rental_uris":{"android":"levelo://app?vid=96f516c2-264e-43cc-a054-ee59b4eb1ccc","ios":"levelo://app?vid=96f516c2-264e-43cc-a054-ee59b4eb1ccc"},"vehicle_type_id":"4","last_reported":1742563117,"current_range_meters":10800,"station_id":"ce4bgvh2rcd13ifvqcs0","pricing_plan_id":"cebpf4jnsgd1na2vs0mg"},{"bike_id":"20e2be53-78ac-4b24-8dad-96b43d72add2","system_id":"levelo_inurba_marseille","lat":43.31075,"lon":5.38353,"is_reserved":false,"is_disabled":false,"rental_uris":{"android":"levelo://app?vid=20e2be53-78ac-4b24-8dad-96b43d72add2","ios":"levelo://app?vid=20e2be53-78ac-4b24-8dad-96b43d72add2"},"vehicle_type_id":"4","last_reported":1742563117,"current_range_meters":10800,"station_id":"ce4bgv92rcd13ifvqcr0","pricing_plan_id":"cebpf4jnsgd1na2vs0mg"},{"bike_id":"e90b4c8c-9c59-457c-a5c3-e0736c271adb","system_id":"levelo_inurba_marseille","lat":43.27169,"lon":5.40984,"is_reserved":false,"is_disabled":false,"rental_uris":{"android":"levelo://app?vid=e90b4c8c-9c59-457c-a5c3-e0736c271adb","ios":"levelo://app?vid=e90b4c8c-9c59-457c-a5c3-e0736c271adb"},"vehicle_type_id":"4","last_reported":1742563117,"current_range_meters":10800,"station_id":"ce4bhl12rcd13ifvqgf0","pricing_plan_id":"cebpf4jnsgd1na2vs0mg"},{"bike_id":"0dedeb8d-d39f-4dd4-bbd7-6d3a8a302137","system_id":"levelo_inurba_marseille","lat":43.30304,"lon":5.39219,"is_reserved":false,"is_disabled":false,"rental_uris":{"android":"levelo://app?vid=0dedeb8d-d39f-4dd4-bbd7-6d3a8a302137","ios":"levelo://app?vid=0dedeb8d-d39f-4dd4-bbd7-6d3a8a302137"},"vehicle_type_id":"4","last_reported":1742563117,"current_range_meters":10800,"station_id":"ce4bgkh2rcd13ifvqbk0","pricing_plan_id":"cebpf4jnsgd1na2vs0mg"},{"bike_id":"cff5c5d7-b2c2-4661-bcba-b7a09aa5def1","system_id":"levelo_inurba_marseille","lat":43.30307,"lon":5.36891,"is_reserved":false,"is_disabled":false,"rental_uris":{"android":"levelo://app?vid=cff5c5d7-b2c2-4661-bcba-b7a09aa5def1","ios":"levelo://app?vid=cff5c5d7-b2c2-4661-bcba-b7a09aa5def1"},"vehicle_type_id":"4","last_reported":1742563117,"current_range_meters":10800,"station_id":"ce4bgqh2rcd13ifvqc5g","pricing_plan_id":"cebpf4jnsgd1na2vs0mg"},{"bike_id":"0053c563-136a-48c8-882d-d51352fae521","system_id":"levelo_inurba_marseille","lat":43.28947,"lon":5.36399,"is_reserved":false,"is_disabled":false,"rental_uris":{"android":"levelo://app?vid=0053c563-136a-48c8-882d-d51352fae521","ios":"levelo://app?vid=0053c563-136a-48c8-882d-d51352fae521"},"vehicle_type_id":"4","last_reported":1742563117,"current_range_meters":10800,"station_id":"ce4bhc92rcd13ifvqetg","pricing_plan_id":"cebpf4jnsgd1na2vs0mg"},{"bike_id":"fb15ee11-b2b6-4fb7-9d7d-b32657ee284c","system_id":"levelo_inurba_marseille","lat":43.30322,"lon":5.36888,"is_reserved":false,"is_disabled":false,"rental_uris":{"android":"levelo://app?vid=fb15ee11-b2b6-4fb7-9d7d-b32657ee284c","ios":"levelo://app?vid=fb15ee11-b2b6-4fb7-9d7d-b32657ee284c"},"vehicle_type_id":"4","last_reported":1742563117,"current_range_meters":10800,"station_id":"ce4bgqh2rcd13ifvqc5g","pricing_plan_id":"cebpf4jnsgd1na2vs0mg"},{"bike_id":"0394990d-7df2-440e-b885-889d65e65ea5","system_id":"levelo_inurba_marseille","lat":43.30206,"lon":5.39456,"is_reserved":false,"is_disabled":false,"rental_uris":{"android":"levelo://app?vid=0394990d-7df2-440e-b885-889d65e65ea5","ios":"levelo://app?vid=0394990d-7df2-440e-b885-889d65e65ea5"},"vehicle_type_id":"4","last_reported":1742563117,"current_range_meters":10800,"station_id":"ce4bh0p2rcd13ifvqd70","pricing_plan_id":"cebpf4jnsgd1na2vs0mg"},{"bike_id":"df755ce5-f6e1-4929-a970-6b61bfd2fe0d","system_id":"levelo_inurba_marseille","lat":43.28464,"lon":5.35899,"is_reserved":false,"is_disabled":false,"rental_uris":{"android":"levelo://app?vid=df755ce5-f6e1-4929-a970-6b61bfd2fe0d","ios":"levelo://app?vid=df755ce5-f6e1-4929-a970-6b61bfd2fe0d"},"vehicle_type_id":"4","last_reported":1742563117,"current_range_meters":10800,"station_id":"ce4bhah2rcd13ifvqei0","pricing_plan_id":"cebpf4jnsgd1na2vs0mg"},{"bike_id":"a2493cec-b334-48b4-a87d-1776fd3ad7be","system_id":"levelo_inurba_marseille","lat":43.30088,"lon":5.39062,"is_reserved":false,"is_disabled":false,"rental_uris":{"android":"levelo://app?vid=a2493cec-b334-48b4-a87d-1776fd3ad7be","ios":"levelo://app?vid=a2493cec-b334-48b4-a87d-1776fd3ad7be"},"vehicle_type_id":"4","last_reported":1742563117,"current_range_meters":10800,"station_id":"ce4bh192rcd13ifvqdb0","pricing_plan_id":"cebpf4jnsgd1na2vs0mg"},{"bike_id":"36e2d1d3-d60f-4fe6-93f0-6886d66895ff","system_id":"levelo_inurba_marseille","lat":43.30448,"lon":5.39315,"is_reserved":false,"is_disabled":false,"rental_uris":{"android":"levelo://app?vid=36e2d1d3-d60f-4fe6-93f0-6886d66895ff","ios":"levelo://app?vid=36e2d1d3-d60f-4fe6-93f0-6886d66895ff"},"vehicle_type_id":"4","last_reported":1742563117,"current_range_meters":11200,"station_id":"ce4bh0p2rcd13ifvqd70","pricing_plan_id":"cebpf4jnsgd1na2vs0mg"},{"bike_id":"a06df953-ee24-4eee-acd9-cfb685fc1c62","system_id":"levelo_inurba_marseille","lat":43.31417,"lon":5.37443,"is_reserved":false,"is_disabled":false,"rental_uris":{"android":"levelo://app?vid=a06df953-ee24-4eee-acd9-cfb685fc1c62","ios":"levelo://app?vid=a06df953-ee24-4eee-acd9-cfb685fc1c62"},"vehicle_type_id":"4","last_reported":1742563117,"current_range_meters":11200,"station_id":"","pricing_plan_id":"cebpf4jnsgd1na2vs0mg"},{"bike_id":"4267841d-5d94-44c6-8617-f314080e9a83","system_id":"levelo_inurba_marseille","lat":43.32482,"lon":5.36552,"is_reserved":false,"is_disabled":false,"rental_uris":{"android":"levelo://app?vid=4267841d-5d94-44c6-8617-f314080e9a83","ios":"levelo://app?vid=4267841d-5d94-44c6-8617-f314080e9a83"},"vehicle_type_id":"4","last_reported":1742563117,"current_range_meters":11200,"station_id":"ce4bhs12rcd13ifvqhvg","pricing_plan_id":"cebpf4jnsgd1na2vs0mg"},{"bike_id":"623e2c33-110c-4dac-952e-7fffb9cddb50","system_id":"levelo_inurba_marseille","lat":43.30607,"lon":5.37221,"is_reserved":false,"is_disabled":false,"rental_uris":{"android":"levelo://app?vid=623e2c33-110c-4dac-952e-7fffb9cddb50","ios":"levelo://app?vid=623e2c33-110c-4dac-952e-7fffb9cddb50"},"vehicle_type_id":"4","last_reported":1742563117,"current_range_meters":11200,"station_id":"ce4bgqh2rcd13ifvqc4g","pricing_plan_id":"cebpf4jnsgd1na2vs0mg"},{"bike_id":"c614872f-37e6-4f72-8eee-43e03e48177e","system_id":"levelo_inurba_marseille","lat":43.24805,"lon":5.37456,"is_reserved":false,"is_disabled":false,"rental_uris":{"android":"levelo://app?vid=c614872f-37e6-4f72-8eee-43e03e48177e","ios":"levelo://app?vid=c614872f-37e6-4f72-8eee-43e03e48177e"},"vehicle_type_id":"4","last_reported":1742563117,"current_range_meters":11200,"station_id":"ce4bhgh2rcd13ifvqfb0","pricing_plan_id":"cebpf4jnsgd1na2vs0mg"},{"bike_id":"1f4b5356-d265-454a-aa48-2f7dec9d4d2a","system_id":"levelo_inurba_marseille","lat":43.33736,"lon":5.39212,"is_reserved":false,"is_disabled":false,"rental_uris":{"android":"levelo://app?vid=1f4b5356-d265-454a-aa48-2f7dec9d4d2a","ios":"levelo://app?vid=1f4b5356-d265-454a-aa48-2f7dec9d4d2a"},"vehicle_type_id":"4","last_reported":1742563117,"current_range_meters":11200,"station_id":"ce4bhr92rcd13ifvqhsg","pricing_plan_id":"cebpf4jnsgd1na2vs0mg"},{"bike_id":"e62dac40-44c1-4bd0-960d-9e1c5df60e4a","system_id":"levelo_inurba_marseille","lat":43.30313,"lon":5.36901,"is_reserved":false,"is_disabled":false,"rental_uris":{"android":"levelo://app?vid=e62dac40-44c1-4bd0-960d-9e1c5df60e4a","ios":"levelo://app?vid=e62dac40-44c1-4bd0-960d-9e1c5df60e4a"},"vehicle_type_id":"4","last_reported":1742563117,"current_range_meters":11200,"station_id":"ce4bgqh2rcd13ifvqc5g","pricing_plan_id":"cebpf4jnsgd1na2vs0mg"},{"bike_id":"8fe1cde8-07d4-4a6b-b841-011cf97204d4","system_id":"levelo_inurba_marseille","lat":43.26806,"lon":5.39378,"is_reserved":false,"is_disabled":false,"rental_uris":{"android":"levelo://app?vid=8fe1cde8-07d4-4a6b-b841-011cf97204d4","ios":"levelo://app?vid=8fe1cde8-07d4-4a6b-b841-011cf97204d4"},"vehicle_type_id":"4","last_reported":1742563117,"current_range_meters":11200,"station_id":"ce4bhh12rcd13ifvqfg0","pricing_plan_id":"cebpf4jnsgd1na2vs0mg"},{"bike_id":"5466676a-5a0d-424e-bb85-606dd2b50d50","system_id":"levelo_inurba_marseille","lat":43.30885,"lon":5.39642,"is_reserved":false,"is_disabled":false,"rental_uris":{"android":"levelo://app?vid=5466676a-5a0d-424e-bb85-606dd2b50d50","ios":"levelo://app?vid=5466676a-5a0d-424e-bb85-606dd2b50d50"},"vehicle_type_id":"4","last_reported":1742563117,"current_range_meters":11200,"station_id":"ce4bh012rcd13ifvqcv0","pricing_plan_id":"cebpf4jnsgd1na2vs0mg"},{"bike_id":"cc0fe0ef-c66f-4869-aef5-6cf6c5b8644d","system_id":"levelo_inurba_marseille","lat":43.28617,"lon":5.35104,"is_reserved":false,"is_disabled":false,"rental_uris":{"android":"levelo://app?vid=cc0fe0ef-c66f-4869-aef5-6cf6c5b8644d","ios":"levelo://app?vid=cc0fe0ef-c66f-4869-aef5-6cf6c5b8644d"},"vehicle_type_id":"4","last_reported":1742563117,"current_range_meters":11600,"station_id":"ce4bhch2rcd13ifvqeug","pricing_plan_id":"cebpf4jnsgd1na2vs0mg"},{"bike_id":"52c16ac5-3447-4053-956c-78fc8bf0dc7c","system_id":"levelo_inurba_marseille","lat":43.32359,"lon":5.36767,"is_reserved":false,"is_disabled":false,"rental_uris":{"android":"levelo://app?vid=52c16ac5-3447-4053-956c-78fc8bf0dc7c","ios":"levelo://app?vid=52c16ac5-3447-4053-956c-78fc8bf0dc7c"},"vehicle_type_id":"4","last_reported":1742563117,"current_range_meters":11600,"station_id":"ce4bhsh2rcd13ifvqi2g","pricing_plan_id":"cebpf4jnsgd1na2vs0mg"},{"bike_id":"9f1c3e5c-869d-4869-b7c6-0c926f2da6bf","system_id":"levelo_inurba_marseille","lat":43.28366,"lon":5.39813,"is_reserved":false,"is_disabled":false,"rental_uris":{"android":"levelo://app?vid=9f1c3e5c-869d-4869-b7c6-0c926f2da6bf","ios":"levelo://app?vid=9f1c3e5c-869d-4869-b7c6-0c926f2da6bf"},"vehicle_type_id":"4","last_reported":1742563117,"current_range_meters":11600,"station_id":"","pricing_plan_id":"cebpf4jnsgd1na2vs0mg"},{"bike_id":"6dbc4210-5b74-4ba8-8019-c2ae59912284","system_id":"levelo_inurba_marseille","lat":43.28485,"lon":5.38436,"is_reserved":false,"is_disabled":false,"rental_uris":{"android":"levelo://app?vid=6dbc4210-5b74-4ba8-8019-c2ae59912284","ios":"levelo://app?vid=6dbc4210-5b74-4ba8-8019-c2ae59912284"},"vehicle_type_id":"4","last_reported":1742563117,"current_range_meters":11600,"station_id":"ce4bh512rcd13ifvqe3g","pricing_plan_id":"cebpf4jnsgd1na2vs0mg"},{"bike_id":"db28d095-65d7-4b51-8efe-3700f885bd6f","system_id":"levelo_inurba_marseille","lat":43.30604,"lon":5.39352,"is_reserved":false,"is_disabled":false,"rental_uris":{"android":"levelo://app?vid=db28d095-65d7-4b51-8efe-3700f885bd6f","ios":"levelo://app?vid=db28d095-65d7-4b51-8efe-3700f885bd6f"},"vehicle_type_id":"4","last_reported":1742563117,"current_range_meters":11600,"station_id":"ce4bh0p2rcd13ifvqd80","pricing_plan_id":"cebpf4jnsgd1na2vs0mg"},{"bike_id":"4eed87ec-6ba8-4423-bb2a-902257d20a6d","system_id":"levelo_inurba_marseille","lat":43.23155,"lon":5.43704,"is_reserved":false,"is_disabled":false,"rental_uris":{"android":"levelo://app?vid=4eed87ec-6ba8-4423-bb2a-902257d20a6d","ios":"levelo://app?vid=4eed87ec-6ba8-4423-bb2a-902257d20a6d"},"vehicle_type_id":"4","last_reported":1742563117,"current_range_meters":12000,"station_id":"ce4bhmp2rcd13ifvqgog","pricing_plan_id":"cebpf4jnsgd1na2vs0mg"},{"bike_id":"8d8aa966-3f9a-4f7c-8370-35601cca72a6","system_id":"levelo_inurba_marseille","lat":43.30308,"lon":5.36903,"is_reserved":false,"is_disabled":false,"rental_uris":{"android":"levelo://app?vid=8d8aa966-3f9a-4f7c-8370-35601cca72a6","ios":"levelo://app?vid=8d8aa966-3f9a-4f7c-8370-35601cca72a6"},"vehicle_type_id":"4","last_reported":1742563117,"current_range_meters":12000,"station_id":"ce4bgqh2rcd13ifvqc5g","pricing_plan_id":"cebpf4jnsgd1na2vs0mg"},{"bike_id":"fbbb3028-b15b-4750-98dc-ac90972ecc9b","system_id":"levelo_inurba_marseille","lat":43.32117,"lon":5.36777,"is_reserved":false,"is_disabled":false,"rental_uris":{"android":"levelo://app?vid=fbbb3028-b15b-4750-98dc-ac90972ecc9b","ios":"levelo://app?vid=fbbb3028-b15b-4750-98dc-ac90972ecc9b"},"vehicle_type_id":"4","last_reported":1742563117,"current_range_meters":12000,"station_id":"ce4bhrh2rcd13ifvqhug","pricing_plan_id":"cebpf4jnsgd1na2vs0mg"},{"bike_id":"6d8dbbe0-cae2-4e1a-93fb-c633cbd0ff36","system_id":"levelo_inurba_marseille","lat":43.3091,"lon":5.36843,"is_reserved":false,"is_disabled":false,"rental_uris":{"android":"levelo://app?vid=6d8dbbe0-cae2-4e1a-93fb-c633cbd0ff36","ios":"levelo://app?vid=6d8dbbe0-cae2-4e1a-93fb-c633cbd0ff36"},"vehicle_type_id":"4","last_reported":1742563117,"current_range_meters":12000,"station_id":"ce4bgn92rcd13ifvqbvg","pricing_plan_id":"cebpf4jnsgd1na2vs0mg"},{"bike_id":"83c43408-577f-453d-8cb1-34b0dcddb94a","system_id":"levelo_inurba_marseille","lat":43.30229,"lon":5.39459,"is_reserved":false,"is_disabled":false,"rental_uris":{"android":"levelo://app?vid=83c43408-577f-453d-8cb1-34b0dcddb94a","ios":"levelo://app?vid=83c43408-577f-453d-8cb1-34b0dcddb94a"},"vehicle_type_id":"4","last_reported":1742563117,"current_range_meters":12000,"station_id":"ce4bh0p2rcd13ifvqd70","pricing_plan_id":"cebpf4jnsgd1na2vs0mg"},{"bike_id":"6d6b3ef7-1560-4be7-9fb6-04c64153a825","system_id":"levelo_inurba_marseille","lat":43.28566,"lon":5.39479,"is_reserved":false,"is_disabled":false,"rental_uris":{"android":"levelo://app?vid=6d6b3ef7-1560-4be7-9fb6-04c64153a825","ios":"levelo://app?vid=6d6b3ef7-1560-4be7-9fb6-04c64153a825"},"vehicle_type_id":"4","last_reported":1742563117,"current_range_meters":11600,"station_id":"ce4bh292rcd13ifvqdg0","pricing_plan_id":"cebpf4jnsgd1na2vs0mg"},{"bike_id":"257266cf-683b-4c8a-a350-70a5c3f41572","system_id":"levelo_inurba_marseille","lat":43.31165,"lon":5.38713,"is_reserved":false,"is_disabled":false,"rental_uris":{"android":"levelo://app?vid=257266cf-683b-4c8a-a350-70a5c3f41572","ios":"levelo://app?vid=257266cf-683b-4c8a-a350-70a5c3f41572"},"vehicle_type_id":"4","last_reported":1742563117,"current_range_meters":12400,"station_id":"ce4bgv12rcd13ifvqcp0","pricing_plan_id":"cebpf4jnsgd1na2vs0mg"},{"bike_id":"37def324-076e-483c-ab34-363268702f01","system_id":"levelo_inurba_marseille","lat":43.31365,"lon":5.38485,"is_reserved":false,"is_disabled":false,"rental_uris":{"android":"levelo://app?vid=37def324-076e-483c-ab34-363268702f01","ios":"levelo://app?vid=37def324-076e-483c-ab34-363268702f01"},"vehicle_type_id":"4","last_reported":1742563117,"current_range_meters":12000,"station_id":"ce4bgt92rcd13ifvqcf0","pricing_plan_id":"cebpf4jnsgd1na2vs0mg"},{"bike_id":"dc537980-6042-493d-8080-0667efb1d6ad","system_id":"levelo_inurba_marseille","lat":43.24545,"lon":5.39513,"is_reserved":false,"is_disabled":false,"rental_uris":{"android":"levelo://app?vid=dc537980-6042-493d-8080-0667efb1d6ad","ios":"levelo://app?vid=dc537980-6042-493d-8080-0667efb1d6ad"},"vehicle_type_id":"4","last_reported":1742563117,"current_range_meters":12400,"station_id":"ce4bhlp2rcd13ifvqgjg","pricing_plan_id":"cebpf4jnsgd1na2vs0mg"},{"bike_id":"32c22226-b738-479f-8e45-1761f4a78a15","system_id":"levelo_inurba_marseille","lat":43.31883,"lon":5.40736,"is_reserved":false,"is_disabled":false,"rental_uris":{"android":"levelo://app?vid=32c22226-b738-479f-8e45-1761f4a78a15","ios":"levelo://app?vid=32c22226-b738-479f-8e45-1761f4a78a15"},"vehicle_type_id":"4","last_reported":1742563117,"current_range_meters":12400,"station_id":"ce4bhq12rcd13ifvqhig","pricing_plan_id":"cebpf4jnsgd1na2vs0mg"},{"bike_id":"35bacac1-b4b2-409a-a031-4fd05ba88bce","system_id":"levelo_inurba_marseille","lat":43.26972,"lon":5.38612,"is_reserved":false,"is_disabled":false,"rental_uris":{"android":"levelo://app?vid=35bacac1-b4b2-409a-a031-4fd05ba88bce","ios":"levelo://app?vid=35bacac1-b4b2-409a-a031-4fd05ba88bce"},"vehicle_type_id":"4","last_reported":1742563117,"current_range_meters":12400,"station_id":"ce4bhh92rcd13ifvqfh0","pricing_plan_id":"cebpf4jnsgd1na2vs0mg"},{"bike_id":"f7b19721-c68b-4280-b653-43eff6dbb1fd","system_id":"levelo_inurba_marseille","lat":43.32112,"lon":5.36777,"is_reserved":false,"is_disabled":false,"rental_uris":{"android":"levelo://app?vid=f7b19721-c68b-4280-b653-43eff6dbb1fd","ios":"levelo://app?vid=f7b19721-c68b-4280-b653-43eff6dbb1fd"},"vehicle_type_id":"4","last_reported":1742563117,"current_range_meters":12400,"station_id":"ce4bhrh2rcd13ifvqhug","pricing_plan_id":"cebpf4jnsgd1na2vs0mg"},{"bike_id":"0dfb7246-4940-47d8-abaa-e2bf352d8448","system_id":"levelo_inurba_marseille","lat":43.28721,"lon":5.39967,"is_reserved":false,"is_disabled":false,"rental_uris":{"android":"levelo://app?vid=0dfb7246-4940-47d8-abaa-e2bf352d8448","ios":"levelo://app?vid=0dfb7246-4940-47d8-abaa-e2bf352d8448"},"vehicle_type_id":"4","last_reported":1742563117,"current_range_meters":12400,"station_id":"ce4bho92rcd13ifvqh3g","pricing_plan_id":"cebpf4jnsgd1na2vs0mg"},{"bike_id":"906028a4-61e4-48d4-a5f0-a0c08a3ac24f","system_id":"levelo_inurba_marseille","lat":43.29247,"lon":5.40903,"is_reserved":false,"is_disabled":false,"rental_uris":{"android":"levelo://app?vid=906028a4-61e4-48d4-a5f0-a0c08a3ac24f","ios":"levelo://app?vid=906028a4-61e4-48d4-a5f0-a0c08a3ac24f"},"vehicle_type_id":"4","last_reported":1742563117,"current_range_meters":12400,"station_id":"ce4bh192rcd13ifvqdc0","pricing_plan_id":"cebpf4jnsgd1na2vs0mg"},{"bike_id":"29c299a3-8deb-46e4-8cd6-c7a928ea34d7","system_id":"levelo_inurba_marseille","lat":43.26567,"lon":5.37288,"is_reserved":false,"is_disabled":false,"rental_uris":{"android":"levelo://app?vid=29c299a3-8deb-46e4-8cd6-c7a928ea34d7","ios":"levelo://app?vid=29c299a3-8deb-46e4-8cd6-c7a928ea34d7"},"vehicle_type_id":"4","last_reported":1742563117,"current_range_meters":12800,"station_id":"ce4bhg12rcd13ifvqf70","pricing_plan_id":"cebpf4jnsgd1na2vs0mg"},{"bike_id":"e3c9628c-23ca-4c45-bd47-3a661eb6c331","system_id":"levelo_inurba_marseille","lat":43.27175,"lon":5.40996,"is_reserved":false,"is_disabled":false,"rental_uris":{"android":"levelo://app?vid=e3c9628c-23ca-4c45-bd47-3a661eb6c331","ios":"levelo://app?vid=e3c9628c-23ca-4c45-bd47-3a661eb6c331"},"vehicle_type_id":"4","last_reported":1742563117,"current_range_meters":12400,"station_id":"ce4bhl12rcd13ifvqgf0","pricing_plan_id":"cebpf4jnsgd1na2vs0mg"},{"bike_id":"d400037c-84cc-4564-b9a0-2c3e74999730","system_id":"levelo_inurba_marseille","lat":43.272865,"lon":5.362934,"is_reserved":false,"is_disabled":false,"rental_uris":{"android":"levelo://app?vid=d400037c-84cc-4564-b9a0-2c3e74999730","ios":"levelo://app?vid=d400037c-84cc-4564-b9a0-2c3e74999730"},"vehicle_type_id":"4","last_reported":1742563117,"current_range_meters":12400,"station_id":"ce4bhbh2rcd13ifvqeo0","pricing_plan_id":"cebpf4jnsgd1na2vs0mg"},{"bike_id":"b00a3a3b-b083-4d3d-8746-d8c2a9d4dd18","system_id":"levelo_inurba_marseille","lat":43.25718,"lon":5.42166,"is_reserved":false,"is_disabled":false,"rental_uris":{"android":"levelo://app?vid=b00a3a3b-b083-4d3d-8746-d8c2a9d4dd18","ios":"levelo://app?vid=b00a3a3b-b083-4d3d-8746-d8c2a9d4dd18"},"vehicle_type_id":"4","last_reported":1742563117,"current_range_meters":12800,"station_id":"","pricing_plan_id":"cebpf4jnsgd1na2vs0mg"},{"bike_id":"f857e3ee-7b86-4ccd-8116-6a58a1cacb60","system_id":"levelo_inurba_marseille","lat":43.33067,"lon":5.4084,"is_reserved":false,"is_disabled":false,"rental_uris":{"android":"levelo://app?vid=f857e3ee-7b86-4ccd-8116-6a58a1cacb60","ios":"levelo://app?vid=f857e3ee-7b86-4ccd-8116-6a58a1cacb60"},"vehicle_type_id":"4","last_reported":1742563117,"current_range_meters":13600,"station_id":"","pricing_plan_id":"cebpf4jnsgd1na2vs0mg"},{"bike_id":"addb5609-62b0-4520-a9f8-ed1935b0df7a","system_id":"levelo_inurba_marseille","lat":43.31485,"lon":5.37304,"is_reserved":false,"is_disabled":false,"rental_uris":{"android":"levelo://app?vid=addb5609-62b0-4520-a9f8-ed1935b0df7a","ios":"levelo://app?vid=addb5609-62b0-4520-a9f8-ed1935b0df7a"},"vehicle_type_id":"4","last_reported":1742563117,"current_range_meters":13600,"station_id":"ce4bgt12rcd13ifvqcd0","pricing_plan_id":"cebpf4jnsgd1na2vs0mg"},{"bike_id":"d5008c42-98f6-4ef7-bc26-398f502db47d","system_id":"levelo_inurba_marseille","lat":43.28701,"lon":5.39978,"is_reserved":false,"is_disabled":false,"rental_uris":{"android":"levelo://app?vid=d5008c42-98f6-4ef7-bc26-398f502db47d","ios":"levelo://app?vid=d5008c42-98f6-4ef7-bc26-398f502db47d"},"vehicle_type_id":"4","last_reported":1742563117,"current_range_meters":13600,"station_id":"ce4bho92rcd13ifvqh3g","pricing_plan_id":"cebpf4jnsgd1na2vs0mg"},{"bike_id":"d6f5d13c-8c27-4f06-9f76-de88ff463bed","system_id":"levelo_inurba_marseille","lat":43.30435,"lon":5.38902,"is_reserved":false,"is_disabled":false,"rental_uris":{"android":"levelo://app?vid=d6f5d13c-8c27-4f06-9f76-de88ff463bed","ios":"levelo://app?vid=d6f5d13c-8c27-4f06-9f76-de88ff463bed"},"vehicle_type_id":"4","last_reported":1742563117,"current_range_meters":13600,"station_id":"ce4bgk12rcd13ifvqbi0","pricing_plan_id":"cebpf4jnsgd1na2vs0mg"},{"bike_id":"aa998e82-ea1a-49f9-bf10-cbc4957eb9b9","system_id":"levelo_inurba_marseille","lat":43.23962,"lon":5.36636,"is_reserved":false,"is_disabled":false,"rental_uris":{"android":"levelo://app?vid=aa998e82-ea1a-49f9-bf10-cbc4957eb9b9","ios":"levelo://app?vid=aa998e82-ea1a-49f9-bf10-cbc4957eb9b9"},"vehicle_type_id":"4","last_reported":1742563117,"current_range_meters":13600,"station_id":"ce4bhi12rcd13ifvqfp0","pricing_plan_id":"cebpf4jnsgd1na2vs0mg"},{"bike_id":"2f4bfce1-ac46-449f-aa0e-43693022e13a","system_id":"levelo_inurba_marseille","lat":43.30909,"lon":5.36843,"is_reserved":false,"is_disabled":false,"rental_uris":{"android":"levelo://app?vid=2f4bfce1-ac46-449f-aa0e-43693022e13a","ios":"levelo://app?vid=2f4bfce1-ac46-449f-aa0e-43693022e13a"},"vehicle_type_id":"4","last_reported":1742563117,"current_range_meters":14000,"station_id":"ce4bgn92rcd13ifvqbvg","pricing_plan_id":"cebpf4jnsgd1na2vs0mg"},{"bike_id":"5e8992ca-1906-4cb3-b532-3dc89631b747","system_id":"levelo_inurba_marseille","lat":43.29025,"lon":5.38147,"is_reserved":false,"is_disabled":false,"rental_uris":{"android":"levelo://app?vid=5e8992ca-1906-4cb3-b532-3dc89631b747","ios":"levelo://app?vid=5e8992ca-1906-4cb3-b532-3dc89631b747"},"vehicle_type_id":"4","last_reported":1742563117,"current_range_meters":14000,"station_id":"ce4bh4p2rcd13ifvqe1g","pricing_plan_id":"cebpf4jnsgd1na2vs0mg"},{"bike_id":"87fb5a9e-e295-4a40-9b4d-49b6169f1406","system_id":"levelo_inurba_marseille","lat":43.30552,"lon":5.38425,"is_reserved":false,"is_disabled":false,"rental_uris":{"android":"levelo://app?vid=87fb5a9e-e295-4a40-9b4d-49b6169f1406","ios":"levelo://app?vid=87fb5a9e-e295-4a40-9b4d-49b6169f1406"},"vehicle_type_id":"4","last_reported":1742563117,"current_range_meters":14000,"station_id":"ce4bgg92rcd13ifvqb30","pricing_plan_id":"cebpf4jnsgd1na2vs0mg"},{"bike_id":"295b2b96-8a22-4b6f-a45b-df5a7ed58969","system_id":"levelo_inurba_marseille","lat":43.33731,"lon":5.39183,"is_reserved":false,"is_disabled":false,"rental_uris":{"android":"levelo://app?vid=295b2b96-8a22-4b6f-a45b-df5a7ed58969","ios":"levelo://app?vid=295b2b96-8a22-4b6f-a45b-df5a7ed58969"},"vehicle_type_id":"4","last_reported":1742563117,"current_range_meters":14400,"station_id":"ce4bhr92rcd13ifvqhsg","pricing_plan_id":"cebpf4jnsgd1na2vs0mg"},{"bike_id":"758d6121-2739-47f8-baa5-39507cb03d50","system_id":"levelo_inurba_marseille","lat":43.31527,"lon":5.37255,"is_reserved":false,"is_disabled":false,"rental_uris":{"android":"levelo://app?vid=758d6121-2739-47f8-baa5-39507cb03d50","ios":"levelo://app?vid=758d6121-2739-47f8-baa5-39507cb03d50"},"vehicle_type_id":"4","last_reported":1742563117,"current_range_meters":14400,"station_id":"","pricing_plan_id":"cebpf4jnsgd1na2vs0mg"},{"bike_id":"b525bd80-e31c-4a8c-b441-b1e9c7cad69b","system_id":"levelo_inurba_marseille","lat":43.28619,"lon":5.35109,"is_reserved":false,"is_disabled":false,"rental_uris":{"android":"levelo://app?vid=b525bd80-e31c-4a8c-b441-b1e9c7cad69b","ios":"levelo://app?vid=b525bd80-e31c-4a8c-b441-b1e9c7cad69b"},"vehicle_type_id":"4","last_reported":1742563117,"current_range_meters":14400,"station_id":"ce4bhch2rcd13ifvqeug","pricing_plan_id":"cebpf4jnsgd1na2vs0mg"},{"bike_id":"f49862f9-af23-4ed6-92be-c6db642be6a4","system_id":"levelo_inurba_marseille","lat":43.24557,"lon":5.39523,"is_reserved":false,"is_disabled":false,"rental_uris":{"android":"levelo://app?vid=f49862f9-af23-4ed6-92be-c6db642be6a4","ios":"levelo://app?vid=f49862f9-af23-4ed6-92be-c6db642be6a4"},"vehicle_type_id":"4","last_reported":1742563117,"current_range_meters":14400,"station_id":"ce4bhlp2rcd13ifvqgjg","pricing_plan_id":"cebpf4jnsgd1na2vs0mg"},{"bike_id":"9440fc64-516a-4a17-9225-16d1f1ada248","system_id":"levelo_inurba_marseille","lat":43.3046,"lon":5.379,"is_reserved":false,"is_disabled":false,"rental_uris":{"android":"levelo://app?vid=9440fc64-516a-4a17-9225-16d1f1ada248","ios":"levelo://app?vid=9440fc64-516a-4a17-9225-16d1f1ada248"},"vehicle_type_id":"4","last_reported":1742563117,"current_range_meters":14400,"station_id":"ce4bgup2rcd13ifvqcn0","pricing_plan_id":"cebpf4jnsgd1na2vs0mg"},{"bike_id":"82292b7f-6f82-49d2-b83f-1f5c2b6e3d55","system_id":"levelo_inurba_marseille","lat":43.29102,"lon":5.38129,"is_reserved":false,"is_disabled":false,"rental_uris":{"android":"levelo://app?vid=82292b7f-6f82-49d2-b83f-1f5c2b6e3d55","ios":"levelo://app?vid=82292b7f-6f82-49d2-b83f-1f5c2b6e3d55"},"vehicle_type_id":"4","last_reported":1742563117,"current_range_meters":14800,"station_id":"ce4bh512rcd13ifvqe2g","pricing_plan_id":"cebpf4jnsgd1na2vs0mg"},{"bike_id":"f00aabdf-f086-4bc9-a179-4c6829851567","system_id":"levelo_inurba_marseille","lat":43.31492,"lon":5.37309,"is_reserved":false,"is_disabled":false,"rental_uris":{"android":"levelo://app?vid=f00aabdf-f086-4bc9-a179-4c6829851567","ios":"levelo://app?vid=f00aabdf-f086-4bc9-a179-4c6829851567"},"vehicle_type_id":"4","last_reported":1742563117,"current_range_meters":14800,"station_id":"ce4bgt12rcd13ifvqcd0","pricing_plan_id":"cebpf4jnsgd1na2vs0mg"},{"bike_id":"085d6e90-ff31-4453-a174-79277c92962a","system_id":"levelo_inurba_marseille","lat":43.31371,"lon":5.38493,"is_reserved":false,"is_disabled":false,"rental_uris":{"android":"levelo://app?vid=085d6e90-ff31-4453-a174-79277c92962a","ios":"levelo://app?vid=085d6e90-ff31-4453-a174-79277c92962a"},"vehicle_type_id":"4","last_reported":1742563117,"current_range_meters":14800,"station_id":"ce4bgt92rcd13ifvqcf0","pricing_plan_id":"cebpf4jnsgd1na2vs0mg"},{"bike_id":"b3e99222-a1da-4b00-9dae-ca5a4d1998a4","system_id":"levelo_inurba_marseille","lat":43.29602,"lon":5.381,"is_reserved":false,"is_disabled":false,"rental_uris":{"android":"levelo://app?vid=b3e99222-a1da-4b00-9dae-ca5a4d1998a4","ios":"levelo://app?vid=b3e99222-a1da-4b00-9dae-ca5a4d1998a4"},"vehicle_type_id":"4","last_reported":1742563117,"current_range_meters":14800,"station_id":"ce4bgl12rcd13ifvqbo0","pricing_plan_id":"cebpf4jnsgd1na2vs0mg"},{"bike_id":"766ed4e8-2a20-4bdb-8ea5-31983f4f3106","system_id":"levelo_inurba_marseille","lat":43.29856,"lon":5.36291,"is_reserved":false,"is_disabled":true,"rental_uris":{"android":"levelo://app?vid=766ed4e8-2a20-4bdb-8ea5-31983f4f3106","ios":"levelo://app?vid=766ed4e8-2a20-4bdb-8ea5-31983f4f3106"},"vehicle_type_id":"4","last_reported":1742563117,"current_range_meters":14800,"station_id":"ce4bgpp2rcd13ifvqc3g","pricing_plan_id":"cebpf4jnsgd1na2vs0mg"},{"bike_id":"a6104e83-ef25-427b-b5ea-e882fea15e41","system_id":"levelo_inurba_marseille","lat":43.29859,"lon":5.38222,"is_reserved":false,"is_disabled":false,"rental_uris":{"android":"levelo://app?vid=a6104e83-ef25-427b-b5ea-e882fea15e41","ios":"levelo://app?vid=a6104e83-ef25-427b-b5ea-e882fea15e41"},"vehicle_type_id":"4","last_reported":1742563117,"current_range_meters":15200,"station_id":"ce4bgj12rcd13ifvqbc0","pricing_plan_id":"cebpf4jnsgd1na2vs0mg"},{"bike_id":"9683555e-fe04-4de7-b706-7a9b0019a6a7","system_id":"levelo_inurba_marseille","lat":43.33753,"lon":5.37495,"is_reserved":false,"is_disabled":true,"rental_uris":{"android":"levelo://app?vid=9683555e-fe04-4de7-b706-7a9b0019a6a7","ios":"levelo://app?vid=9683555e-fe04-4de7-b706-7a9b0019a6a7"},"vehicle_type_id":"4","last_reported":1742563117,"current_range_meters":15200,"station_id":"ce4bh2h2rcd13ifvqdh0","pricing_plan_id":"cebpf4jnsgd1na2vs0mg"},{"bike_id":"8554844d-ad1f-4179-94b2-8ae283e549a0","system_id":"levelo_inurba_marseille","lat":43.30528,"lon":5.36535,"is_reserved":false,"is_disabled":false,"rental_uris":{"android":"levelo://app?vid=8554844d-ad1f-4179-94b2-8ae283e549a0","ios":"levelo://app?vid=8554844d-ad1f-4179-94b2-8ae283e549a0"},"vehicle_type_id":"4","last_reported":1742563117,"current_range_meters":15200,"station_id":"ce4bgs12rcd13ifvqcag","pricing_plan_id":"cebpf4jnsgd1na2vs0mg"},{"bike_id":"b0f47d71-571a-441d-be01-cd0e5dbc0181","system_id":"levelo_inurba_marseille","lat":43.28,"lon":5.40014,"is_reserved":false,"is_disabled":false,"rental_uris":{"android":"levelo://app?vid=b0f47d71-571a-441d-be01-cd0e5dbc0181","ios":"levelo://app?vid=b0f47d71-571a-441d-be01-cd0e5dbc0181"},"vehicle_type_id":"4","last_reported":1742563117,"current_range_meters":14800,"station_id":"ce4bho92rcd13ifvqh4g","pricing_plan_id":"cebpf4jnsgd1na2vs0mg"},{"bike_id":"54add7df-778b-4762-963a-5bfd73c8f8b3","system_id":"levelo_inurba_marseille","lat":43.27976,"lon":5.38735,"is_reserved":false,"is_disabled":false,"rental_uris":{"android":"levelo://app?vid=54add7df-778b-4762-963a-5bfd73c8f8b3","ios":"levelo://app?vid=54add7df-778b-4762-963a-5bfd73c8f8b3"},"vehicle_type_id":"4","last_reported":1742563117,"current_range_meters":15200,"station_id":"ce4bhg12rcd13ifvqf80","pricing_plan_id":"cebpf4jnsgd1na2vs0mg"},{"bike_id":"38044645-ece5-4bcd-8d4d-db0d7b3b13cd","system_id":"levelo_inurba_marseille","lat":43.24554,"lon":5.39519,"is_reserved":false,"is_disabled":false,"rental_uris":{"android":"levelo://app?vid=38044645-ece5-4bcd-8d4d-db0d7b3b13cd","ios":"levelo://app?vid=38044645-ece5-4bcd-8d4d-db0d7b3b13cd"},"vehicle_type_id":"4","last_reported":1742563117,"current_range_meters":15200,"station_id":"ce4bhlp2rcd13ifvqgjg","pricing_plan_id":"cebpf4jnsgd1na2vs0mg"},{"bike_id":"1941e1fe-aa74-4007-afde-fda9d78d046e","system_id":"levelo_inurba_marseille","lat":43.29272,"lon":5.37621,"is_reserved":false,"is_disabled":false,"rental_uris":{"android":"levelo://app?vid=1941e1fe-aa74-4007-afde-fda9d78d046e","ios":"levelo://app?vid=1941e1fe-aa74-4007-afde-fda9d78d046e"},"vehicle_type_id":"4","last_reported":1742563117,"current_range_meters":16000,"station_id":"ce4bgi12rcd13ifvqb80","pricing_plan_id":"cebpf4jnsgd1na2vs0mg"},{"bike_id":"c343f1d1-84eb-4bea-8819-071cf36a5335","system_id":"levelo_inurba_marseille","lat":43.29084,"lon":5.366798,"is_reserved":false,"is_disabled":false,"rental_uris":{"android":"levelo://app?vid=c343f1d1-84eb-4bea-8819-071cf36a5335","ios":"levelo://app?vid=c343f1d1-84eb-4bea-8819-071cf36a5335"},"vehicle_type_id":"4","last_reported":1742563117,"current_range_meters":16000,"station_id":"ce4bh0p2rcd13ifvqd70","pricing_plan_id":"cebpf4jnsgd1na2vs0mg"},{"bike_id":"9a2c5bb3-364b-4d5e-8ad4-94a80d77f5b9","system_id":"levelo_inurba_marseille","lat":43.306084,"lon":5.372304,"is_reserved":false,"is_disabled":false,"rental_uris":{"android":"levelo://app?vid=9a2c5bb3-364b-4d5e-8ad4-94a80d77f5b9","ios":"levelo://app?vid=9a2c5bb3-364b-4d5e-8ad4-94a80d77f5b9"},"vehicle_type_id":"4","last_reported":1742563117,"current_range_meters":15200,"station_id":"ce4bgqh2rcd13ifvqc4g","pricing_plan_id":"cebpf4jnsgd1na2vs0mg"},{"bike_id":"ecef44e5-88c9-4bf3-9e69-cb5f84157e15","system_id":"levelo_inurba_marseille","lat":43.30284,"lon":5.37707,"is_reserved":false,"is_disabled":false,"rental_uris":{"android":"levelo://app?vid=ecef44e5-88c9-4bf3-9e69-cb5f84157e15","ios":"levelo://app?vid=ecef44e5-88c9-4bf3-9e69-cb5f84157e15"},"vehicle_type_id":"4","last_reported":1742563117,"current_range_meters":16000,"station_id":"ce4bguh2rcd13ifvqcj0","pricing_plan_id":"cebpf4jnsgd1na2vs0mg"},{"bike_id":"1cc4909e-c609-4abe-82e5-094dd8af1115","system_id":"levelo_inurba_marseille","lat":43.3181,"lon":5.37444,"is_reserved":false,"is_disabled":false,"rental_uris":{"android":"levelo://app?vid=1cc4909e-c609-4abe-82e5-094dd8af1115","ios":"levelo://app?vid=1cc4909e-c609-4abe-82e5-094dd8af1115"},"vehicle_type_id":"4","last_reported":1742563117,"current_range_meters":16000,"station_id":"","pricing_plan_id":"cebpf4jnsgd1na2vs0mg"},{"bike_id":"d87d5c3a-aa89-42e8-a54a-9aa0f8ed4aa2","system_id":"levelo_inurba_marseille","lat":43.34141,"lon":5.40923,"is_reserved":false,"is_disabled":false,"rental_uris":{"android":"levelo://app?vid=d87d5c3a-aa89-42e8-a54a-9aa0f8ed4aa2","ios":"levelo://app?vid=d87d5c3a-aa89-42e8-a54a-9aa0f8ed4aa2"},"vehicle_type_id":"4","last_reported":1742563117,"current_range_meters":15200,"station_id":"ce4bhqh2rcd13ifvqhlg","pricing_plan_id":"cebpf4jnsgd1na2vs0mg"},{"bike_id":"3a41ed60-982f-4370-b967-50c866ae5f2c","system_id":"levelo_inurba_marseille","lat":43.31041,"lon":5.37537,"is_reserved":false,"is_disabled":false,"rental_uris":{"android":"levelo://app?vid=3a41ed60-982f-4370-b967-50c866ae5f2c","ios":"levelo://app?vid=3a41ed60-982f-4370-b967-50c866ae5f2c"},"vehicle_type_id":"4","last_reported":1742563117,"current_range_meters":16000,"station_id":"","pricing_plan_id":"cebpf4jnsgd1na2vs0mg"},{"bike_id":"f1c1254d-d9d6-4485-8910-4ae2a7c84bc0","system_id":"levelo_inurba_marseille","lat":43.23194,"lon":5.39987,"is_reserved":false,"is_disabled":false,"rental_uris":{"android":"levelo://app?vid=f1c1254d-d9d6-4485-8910-4ae2a7c84bc0","ios":"levelo://app?vid=f1c1254d-d9d6-4485-8910-4ae2a7c84bc0"},"vehicle_type_id":"4","last_reported":1742563117,"current_range_meters":16000,"station_id":"ce4bhn12rcd13ifvqgqg","pricing_plan_id":"cebpf4jnsgd1na2vs0mg"},{"bike_id":"6229919b-7d4b-4451-b70d-c87e2db1e732","system_id":"levelo_inurba_marseille","lat":43.31712,"lon":5.43704,"is_reserved":false,"is_disabled":false,"rental_uris":{"android":"levelo://app?vid=6229919b-7d4b-4451-b70d-c87e2db1e732","ios":"levelo://app?vid=6229919b-7d4b-4451-b70d-c87e2db1e732"},"vehicle_type_id":"4","last_reported":1742563117,"current_range_meters":16400,"station_id":"ce4bhp92rcd13ifvqhcg","pricing_plan_id":"cebpf4jnsgd1na2vs0mg"},{"bike_id":"750f347e-373f-4c98-8af1-4dfba1eb89e2","system_id":"levelo_inurba_marseille","lat":43.25838,"lon":5.39422,"is_reserved":false,"is_disabled":false,"rental_uris":{"android":"levelo://app?vid=750f347e-373f-4c98-8af1-4dfba1eb89e2","ios":"levelo://app?vid=750f347e-373f-4c98-8af1-4dfba1eb89e2"},"vehicle_type_id":"4","last_reported":1742563117,"current_range_meters":16400,"station_id":"ce4bhip2rcd13ifvqft0","pricing_plan_id":"cebpf4jnsgd1na2vs0mg"},{"bike_id":"90deafae-e380-4a2a-b84b-42a4bba9791b","system_id":"levelo_inurba_marseille","lat":43.30282,"lon":5.37699,"is_reserved":false,"is_disabled":false,"rental_uris":{"android":"levelo://app?vid=90deafae-e380-4a2a-b84b-42a4bba9791b","ios":"levelo://app?vid=90deafae-e380-4a2a-b84b-42a4bba9791b"},"vehicle_type_id":"4","last_reported":1742563117,"current_range_meters":16400,"station_id":"ce4bguh2rcd13ifvqcj0","pricing_plan_id":"cebpf4jnsgd1na2vs0mg"},{"bike_id":"b66f8ee0-0e8d-4112-8a76-11bd9796bc3a","system_id":"levelo_inurba_marseille","lat":43.30313,"lon":5.36877,"is_reserved":false,"is_disabled":false,"rental_uris":{"android":"levelo://app?vid=b66f8ee0-0e8d-4112-8a76-11bd9796bc3a","ios":"levelo://app?vid=b66f8ee0-0e8d-4112-8a76-11bd9796bc3a"},"vehicle_type_id":"4","last_reported":1742563117,"current_range_meters":16400,"station_id":"ce4bgqh2rcd13ifvqc5g","pricing_plan_id":"cebpf4jnsgd1na2vs0mg"},{"bike_id":"9c6aca2f-ebf6-4e17-8d0c-cc9578f6b84d","system_id":"levelo_inurba_marseille","lat":43.32473,"lon":5.36569,"is_reserved":false,"is_disabled":false,"rental_uris":{"android":"levelo://app?vid=9c6aca2f-ebf6-4e17-8d0c-cc9578f6b84d","ios":"levelo://app?vid=9c6aca2f-ebf6-4e17-8d0c-cc9578f6b84d"},"vehicle_type_id":"4","last_reported":1742563117,"current_range_meters":16400,"station_id":"ce4bhs12rcd13ifvqhvg","pricing_plan_id":"cebpf4jnsgd1na2vs0mg"},{"bike_id":"a5235df1-0421-49c6-9ab1-d4066c968db2","system_id":"levelo_inurba_marseille","lat":43.31555,"lon":5.38917,"is_reserved":false,"is_disabled":false,"rental_uris":{"android":"levelo://app?vid=a5235df1-0421-49c6-9ab1-d4066c968db2","ios":"levelo://app?vid=a5235df1-0421-49c6-9ab1-d4066c968db2"},"vehicle_type_id":"4","last_reported":1742563117,"current_range_meters":16400,"station_id":"","pricing_plan_id":"cebpf4jnsgd1na2vs0mg"},{"bike_id":"7c15e8bf-5e69-4317-a1d2-3f0ca9960d9e","system_id":"levelo_inurba_marseille","lat":43.31491,"lon":5.37309,"is_reserved":false,"is_disabled":false,"rental_uris":{"android":"levelo://app?vid=7c15e8bf-5e69-4317-a1d2-3f0ca9960d9e","ios":"levelo://app?vid=7c15e8bf-5e69-4317-a1d2-3f0ca9960d9e"},"vehicle_type_id":"4","last_reported":1742563117,"current_range_meters":16400,"station_id":"ce4bgt12rcd13ifvqcd0","pricing_plan_id":"cebpf4jnsgd1na2vs0mg"},{"bike_id":"2441d6fc-4c21-410a-9294-4c22a5a24d50","system_id":"levelo_inurba_marseille","lat":43.30465,"lon":5.37909,"is_reserved":false,"is_disabled":false,"rental_uris":{"android":"levelo://app?vid=2441d6fc-4c21-410a-9294-4c22a5a24d50","ios":"levelo://app?vid=2441d6fc-4c21-410a-9294-4c22a5a24d50"},"vehicle_type_id":"4","last_reported":1742563117,"current_range_meters":16800,"station_id":"ce4bgup2rcd13ifvqcn0","pricing_plan_id":"cebpf4jnsgd1na2vs0mg"},{"bike_id":"710413c8-e18d-41ef-8f8b-5fadde7038c8","system_id":"levelo_inurba_marseille","lat":43.31121,"lon":5.37751,"is_reserved":false,"is_disabled":false,"rental_uris":{"android":"levelo://app?vid=710413c8-e18d-41ef-8f8b-5fadde7038c8","ios":"levelo://app?vid=710413c8-e18d-41ef-8f8b-5fadde7038c8"},"vehicle_type_id":"4","last_reported":1742563117,"current_range_meters":16400,"station_id":"ce4bgt92rcd13ifvqcg0","pricing_plan_id":"cebpf4jnsgd1na2vs0mg"},{"bike_id":"016a7113-4cb2-4a86-8fcf-39d5e01c446e","system_id":"levelo_inurba_marseille","lat":43.30207,"lon":5.39471,"is_reserved":false,"is_disabled":false,"rental_uris":{"android":"levelo://app?vid=016a7113-4cb2-4a86-8fcf-39d5e01c446e","ios":"levelo://app?vid=016a7113-4cb2-4a86-8fcf-39d5e01c446e"},"vehicle_type_id":"4","last_reported":1742563117,"current_range_meters":16800,"station_id":"ce4bh0p2rcd13ifvqd70","pricing_plan_id":"cebpf4jnsgd1na2vs0mg"},{"bike_id":"b215cd69-181e-4706-bed9-b861bed15a24","system_id":"levelo_inurba_marseille","lat":43.29096,"lon":5.37229,"is_reserved":false,"is_disabled":false,"rental_uris":{"android":"levelo://app?vid=b215cd69-181e-4706-bed9-b861bed15a24","ios":"levelo://app?vid=b215cd69-181e-4706-bed9-b861bed15a24"},"vehicle_type_id":"4","last_reported":1742563117,"current_range_meters":16800,"station_id":"","pricing_plan_id":"cebpf4jnsgd1na2vs0mg"},{"bike_id":"72503a27-a949-4a46-b139-c44d4f416a58","system_id":"levelo_inurba_marseille","lat":43.23201,"lon":5.3554,"is_reserved":false,"is_disabled":false,"rental_uris":{"android":"levelo://app?vid=72503a27-a949-4a46-b139-c44d4f416a58","ios":"levelo://app?vid=72503a27-a949-4a46-b139-c44d4f416a58"},"vehicle_type_id":"4","last_reported":1742563117,"current_range_meters":16800,"station_id":"ce4bhu92rcd13ifvqi70","pricing_plan_id":"cebpf4jnsgd1na2vs0mg"},{"bike_id":"16f3a69e-8c02-4faf-b72b-b0b7309bc72d","system_id":"levelo_inurba_marseille","lat":43.30312,"lon":5.36894,"is_reserved":false,"is_disabled":false,"rental_uris":{"android":"levelo://app?vid=16f3a69e-8c02-4faf-b72b-b0b7309bc72d","ios":"levelo://app?vid=16f3a69e-8c02-4faf-b72b-b0b7309bc72d"},