{"last_updated":1762888056,"ttl":60,"version":"2.2","data":{"bikes":[{"bike_id":"d7db12ce-11cc-4c98-8751-ac59baa5d7aa","system_id":"levelo_inurba_marseille","lat":43.337444,"lon":5.374475,"is_reserved":false,"is_disabled":false,"rental_uris":{"android":"levelo://app?vid=d7db12ce-11cc-4c98-8751-ac59baa5d7aa","ios":"levelo://app?vid=d7db12ce-11cc-4c98-8751-ac59baa5d7aa"},"vehicle_type_id":"4","last_reported":1762888057,"current_range_meters":0,"station_id":"","pricing_plan_id":"cebpf4jnsgd1na2vs0mg"},{"bike_id":"ad96ece5-6a2f-494c-a1cd-bd2ba6aa3023","system_id":"levelo_inurba_marseille","lat":43.241794,"lon":5.397329,"is_reserved":false,"is_disabled":false,"rental_uris":{"android":"levelo://app?vid=ad96ece5-6a2f-494c-a1cd-bd2ba6aa3023","ios":"levelo://app?vid=ad96ece5-6a2f-494c-a1cd-bd2ba6aa3023"},"vehicle_type_id":"4","last_reported":1762888057,"current_range_meters":2800,"station_id":"ce4bhn12rcd13ifvqgpg","pricing_plan_id":"cebpf4jnsgd1na2vs0mg"},{"bike_id":"b9066939-a19c-477a-b04d-8f463e5d81c3","system_id":"levelo_inurba_marseille","lat":43.28435,"lon":5.39201,"is_reserved":false,"is_disabled":false,"rental_uris":{"android":"levelo://app?vid=b9066939-a19c-477a-b04d-8f463e5d81c3","ios":"levelo://app?vid=b9066939-a19c-477a-b04d-8f463e5d81c3"},"vehicle_type_id":"4","last_reported":1762888057,"current_range_meters":2800,"station_id":"ce4bhoh2rcd13ifvqh5g","pricing_plan_id":"cebpf4jnsgd1na2vs0mg"},{"bike_id":"28a9add4-df57-48ad-8b13-ad921ad002dd","system_id":"levelo_inurba_marseille","lat":43.292683,"lon":5.384456,"is_reserved":false,"is_disabled":false,"rental_uris":{"android":"levelo://app?vid=28a9add4-df57-48ad-8b13-ad921ad002dd","ios":"levelo://app?vid=28a9add4-df57-48ad-8b13-ad921ad002dd"},"vehicle_type_id":"4","last_reported":1762888057,"current_range_meters":3200,"station_id":"ce4bhbh2rcd13ifvqeqg","pricing_plan_id":"cebpf4jnsgd1na2vs0mg"},{"bike_id":"b4582bc0-21fa-4717-911d-87c868127486","system_id":"levelo_inurba_marseille","lat":43.31532,"lon":5.38024,"is_reserved":false,"is_disabled":false,"rental_uris":{"android":"levelo://app?vid=b4582bc0-21fa-4717-911d-87c868127486","ios":"levelo://app?vid=b4582bc0-21fa-4717-911d-87c868127486"},"vehicle_type_id":"4","last_reported":1762888057,"current_range_meters":3600,"station_id":"ce4bhsp2rcd13ifvqi50","pricing_plan_id":"cebpf4jnsgd1na2vs0mg"},{"bike_id":"1b267de1-bcca-40ed-87d1-2e39c381830d","system_id":"levelo_inurba_marseille","lat":43.225342,"lon":5.348387,"is_reserved":false,"is_disabled":false,"rental_uris":{"android":"levelo://app?vid=1b267de1-bcca-40ed-87d1-2e39c381830d","ios":"levelo://app?vid=1b267de1-bcca-40ed-87d1-2e39c381830d"},"vehicle_type_id":"4","last_reported":1762888057,"current_range_meters":3600,"station_id":"","pricing_plan_id":"cebpf4jnsgd1na2vs0mg"},{"bike_id":"e380d16b-3fb9-463d-ac77-2773db3fc221","system_id":"levelo_inurba_marseille","lat":43.286971,"lon":5.37388,"is_reserved":false,"is_disabled":false,"rental_uris":{"android":"levelo://app?vid=e380d16b-3fb9-463d-ac77-2773db3fc221","ios":"levelo://app?vid=e380d16b-3fb9-463d-ac77-2773db3fc221"},"vehicle_type_id":"4","last_reported":1762888057,"current_range_meters":3600,"station_id":"ce4bh3p2rcd13ifvqdq0","pricing_plan_id":"cebpf4jnsgd1na2vs0mg"},{"bike_id":"83b9d0d8-0438-40ef-9f53-da7a3b5ebd0c","system_id":"levelo_inurba_marseille","lat":43.27997,"lon":5.40012,"is_reserved":false,"is_disabled":false,"rental_uris":{"android":"levelo://app?vid=83b9d0d8-0438-40ef-9f53-da7a3b5ebd0c","ios":"levelo://app?vid=83b9d0d8-0438-40ef-9f53-da7a3b5ebd0c"},"vehicle_type_id":"4","last_reported":1762888057,"current_range_meters":3600,"station_id":"ce4bho92rcd13ifvqh4g","pricing_plan_id":"cebpf4jnsgd1na2vs0mg"},{"bike_id":"d07ff9ce-707c-4699-9f99-714bf52a28f6","system_id":"levelo_inurba_marseille","lat":43.28566,"lon":5.39492,"is_reserved":false,"is_disabled":false,"rental_uris":{"android":"levelo://app?vid=d07ff9ce-707c-4699-9f99-714bf52a28f6","ios":"levelo://app?vid=d07ff9ce-707c-4699-9f99-714bf52a28f6"},"vehicle_type_id":"4","last_reported":1762888057,"current_range_meters":4000,"station_id":"ce4bh292rcd13ifvqdg0","pricing_plan_id":"cebpf4jnsgd1na2vs0mg"},{"bike_id":"54185c98-d6c6-4428-8cba-7c1453d08e44","system_id":"levelo_inurba_marseille","lat":43.27994,"lon":5.40008,"is_reserved":false,"is_disabled":false,"rental_uris":{"android":"levelo://app?vid=54185c98-d6c6-4428-8cba-7c1453d08e44","ios":"levelo://app?vid=54185c98-d6c6-4428-8cba-7c1453d08e44"},"vehicle_type_id":"4","last_reported":1762888057,"current_range_meters":4000,"station_id":"ce4bho92rcd13ifvqh4g","pricing_plan_id":"cebpf4jnsgd1na2vs0mg"},{"bike_id":"653cd1b2-09fb-446a-b9a7-1badbc538d8c","system_id":"levelo_inurba_marseille","lat":43.23778,"lon":5.36627,"is_reserved":false,"is_disabled":false,"rental_uris":{"android":"levelo://app?vid=653cd1b2-09fb-446a-b9a7-1badbc538d8c","ios":"levelo://app?vid=653cd1b2-09fb-446a-b9a7-1badbc538d8c"},"vehicle_type_id":"4","last_reported":1762888057,"current_range_meters":4000,"station_id":"st_d3nk18o9ro0c73en2l3g","pricing_plan_id":"cebpf4jnsgd1na2vs0mg"},{"bike_id":"2156c0fe-0326-4b79-ac38-07a8e724ebb6","system_id":"levelo_inurba_marseille","lat":43.29051,"lon":5.35919,"is_reserved":false,"is_disabled":false,"rental_uris":{"android":"levelo://app?vid=2156c0fe-0326-4b79-ac38-07a8e724ebb6","ios":"levelo://app?vid=2156c0fe-0326-4b79-ac38-07a8e724ebb6"},"vehicle_type_id":"4","last_reported":1762888057,"current_range_meters":4000,"station_id":"ce4bha92rcd13ifvqeg0","pricing_plan_id":"cebpf4jnsgd1na2vs0mg"},{"bike_id":"d465a52a-66b4-4bd9-b2a6-e1beda0af726","system_id":"levelo_inurba_marseille","lat":43.28995,"lon":5.35623,"is_reserved":false,"is_disabled":true,"rental_uris":{"android":"levelo://app?vid=d465a52a-66b4-4bd9-b2a6-e1beda0af726","ios":"levelo://app?vid=d465a52a-66b4-4bd9-b2a6-e1beda0af726"},"vehicle_type_id":"4","last_reported":1762888057,"current_range_meters":4000,"station_id":"ce4bhb92rcd13ifvqen0","pricing_plan_id":"cebpf4jnsgd1na2vs0mg"},{"bike_id":"ad4500ed-81bb-4b1a-a889-6c6c34f05429","system_id":"levelo_inurba_marseille","lat":43.29044,"lon":5.37177,"is_reserved":false,"is_disabled":false,"rental_uris":{"android":"levelo://app?vid=ad4500ed-81bb-4b1a-a889-6c6c34f05429","ios":"levelo://app?vid=ad4500ed-81bb-4b1a-a889-6c6c34f05429"},"vehicle_type_id":"4","last_reported":1762888057,"current_range_meters":4000,"station_id":"ce4bh5p2rcd13ifvqe4g","pricing_plan_id":"cebpf4jnsgd1na2vs0mg"},{"bike_id":"931a25ef-35ab-4881-b7c7-2226797d96ed","system_id":"levelo_inurba_marseille","lat":43.27823,"lon":5.3921,"is_reserved":false,"is_disabled":false,"rental_uris":{"android":"levelo://app?vid=931a25ef-35ab-4881-b7c7-2226797d96ed","ios":"levelo://app?vid=931a25ef-35ab-4881-b7c7-2226797d96ed"},"vehicle_type_id":"4","last_reported":1762888057,"current_range_meters":4000,"station_id":"ce4bhjp2rcd13ifvqga0","pricing_plan_id":"cebpf4jnsgd1na2vs0mg"},{"bike_id":"d91f7b77-628b-406f-9c6d-db5e5cfcadca","system_id":"levelo_inurba_marseille","lat":43.28485,"lon":5.48395,"is_reserved":false,"is_disabled":false,"rental_uris":{"android":"levelo://app?vid=d91f7b77-628b-406f-9c6d-db5e5cfcadca","ios":"levelo://app?vid=d91f7b77-628b-406f-9c6d-db5e5cfcadca"},"vehicle_type_id":"4","last_reported":1762888057,"current_range_meters":4800,"station_id":"st_d3svhcjqgbts73a3dn0g","pricing_plan_id":"cebpf4jnsgd1na2vs0mg"},{"bike_id":"edfaca90-62ba-4309-852f-30da3bbe8079","system_id":"levelo_inurba_marseille","lat":43.275726,"lon":5.384316,"is_reserved":false,"is_disabled":false,"rental_uris":{"android":"levelo://app?vid=edfaca90-62ba-4309-852f-30da3bbe8079","ios":"levelo://app?vid=edfaca90-62ba-4309-852f-30da3bbe8079"},"vehicle_type_id":"4","last_reported":1762888057,"current_range_meters":4800,"station_id":"ce4bhh92rcd13ifvqfi0","pricing_plan_id":"cebpf4jnsgd1na2vs0mg"},{"bike_id":"56252eb9-8e9f-40dd-80e3-62657c8ad531","system_id":"levelo_inurba_marseille","lat":43.288524,"lon":5.393242,"is_reserved":false,"is_disabled":false,"rental_uris":{"android":"levelo://app?vid=56252eb9-8e9f-40dd-80e3-62657c8ad531","ios":"levelo://app?vid=56252eb9-8e9f-40dd-80e3-62657c8ad531"},"vehicle_type_id":"4","last_reported":1762888057,"current_range_meters":4800,"station_id":"","pricing_plan_id":"cebpf4jnsgd1na2vs0mg"},{"bike_id":"15741435-245e-4e4d-a14c-f564231b8eff","system_id":"levelo_inurba_marseille","lat":43.27953,"lon":5.41048,"is_reserved":false,"is_disabled":false,"rental_uris":{"android":"levelo://app?vid=15741435-245e-4e4d-a14c-f564231b8eff","ios":"levelo://app?vid=15741435-245e-4e4d-a14c-f564231b8eff"},"vehicle_type_id":"4","last_reported":1762888057,"current_range_meters":4800,"station_id":"ce4bhnp2rcd13ifvqh0g","pricing_plan_id":"cebpf4jnsgd1na2vs0mg"},{"bike_id":"4386e18a-fc30-4ce0-8ece-c45d88abff12","system_id":"levelo_inurba_marseille","lat":43.29691,"lon":5.3659,"is_reserved":false,"is_disabled":false,"rental_uris":{"android":"levelo://app?vid=4386e18a-fc30-4ce0-8ece-c45d88abff12","ios":"levelo://app?vid=4386e18a-fc30-4ce0-8ece-c45d88abff12"},"vehicle_type_id":"4","last_reported":1762888057,"current_range_meters":5600,"station_id":"ce4bgn12rcd13ifvqbt0","pricing_plan_id":"cebpf4jnsgd1na2vs0mg"},{"bike_id":"29e2584a-230c-452d-979b-14506e060750","system_id":"levelo_inurba_marseille","lat":43.28723,"lon":5.36092,"is_reserved":false,"is_disabled":false,"rental_uris":{"android":"levelo://app?vid=29e2584a-230c-452d-979b-14506e060750","ios":"levelo://app?vid=29e2584a-230c-452d-979b-14506e060750"},"vehicle_type_id":"4","last_reported":1762888057,"current_range_meters":5600,"station_id":"cki0cbj6b192h4jlfktg","pricing_plan_id":"cebpf4jnsgd1na2vs0mg"},{"bike_id":"444b5947-f30b-4d32-98e2-5ff053d7e36e","system_id":"levelo_inurba_marseille","lat":43.310709,"lon":5.383602,"is_reserved":false,"is_disabled":false,"rental_uris":{"android":"levelo://app?vid=444b5947-f30b-4d32-98e2-5ff053d7e36e","ios":"levelo://app?vid=444b5947-f30b-4d32-98e2-5ff053d7e36e"},"vehicle_type_id":"4","last_reported":1762888057,"current_range_meters":5600,"station_id":"ce4bgv92rcd13ifvqcr0","pricing_plan_id":"cebpf4jnsgd1na2vs0mg"},{"bike_id":"eb3534a4-027a-44e5-ae11-c85b473ef89b","system_id":"levelo_inurba_marseille","lat":43.29603,"lon":5.38099,"is_reserved":false,"is_disabled":false,"rental_uris":{"android":"levelo://app?vid=eb3534a4-027a-44e5-ae11-c85b473ef89b","ios":"levelo://app?vid=eb3534a4-027a-44e5-ae11-c85b473ef89b"},"vehicle_type_id":"4","last_reported":1762888057,"current_range_meters":5600,"station_id":"ce4bgl12rcd13ifvqbo0","pricing_plan_id":"cebpf4jnsgd1na2vs0mg"},{"bike_id":"e3f9fd59-f47b-45cc-a518-e16ed71d0e44","system_id":"levelo_inurba_marseille","lat":43.30434,"lon":5.38878,"is_reserved":false,"is_disabled":false,"rental_uris":{"android":"levelo://app?vid=e3f9fd59-f47b-45cc-a518-e16ed71d0e44","ios":"levelo://app?vid=e3f9fd59-f47b-45cc-a518-e16ed71d0e44"},"vehicle_type_id":"4","last_reported":1762888057,"current_range_meters":5600,"station_id":"ce4bgk12rcd13ifvqbi0","pricing_plan_id":"cebpf4jnsgd1na2vs0mg"},{"bike_id":"64d841ee-cd4a-4b84-a83d-853cd5bd5dc9","system_id":"levelo_inurba_marseille","lat":43.313317,"lon":5.396947,"is_reserved":false,"is_disabled":false,"rental_uris":{"android":"levelo://app?vid=64d841ee-cd4a-4b84-a83d-853cd5bd5dc9","ios":"levelo://app?vid=64d841ee-cd4a-4b84-a83d-853cd5bd5dc9"},"vehicle_type_id":"4","last_reported":1762888057,"current_range_meters":5600,"station_id":"ce4bgvp2rcd13ifvqcu0","pricing_plan_id":"cebpf4jnsgd1na2vs0mg"},{"bike_id":"355d0a72-63a4-43ac-addc-15604eb0aa69","system_id":"levelo_inurba_marseille","lat":43.299364,"lon":5.363926,"is_reserved":false,"is_disabled":false,"rental_uris":{"android":"levelo://app?vid=355d0a72-63a4-43ac-addc-15604eb0aa69","ios":"levelo://app?vid=355d0a72-63a4-43ac-addc-15604eb0aa69"},"vehicle_type_id":"4","last_reported":1762888057,"current_range_meters":5600,"station_id":"","pricing_plan_id":"cebpf4jnsgd1na2vs0mg"},{"bike_id":"3e43be77-447d-42d3-ab6c-fbde1063cff9","system_id":"levelo_inurba_marseille","lat":43.28672,"lon":5.38669,"is_reserved":false,"is_disabled":false,"rental_uris":{"android":"levelo://app?vid=3e43be77-447d-42d3-ab6c-fbde1063cff9","ios":"levelo://app?vid=3e43be77-447d-42d3-ab6c-fbde1063cff9"},"vehicle_type_id":"4","last_reported":1762888057,"current_range_meters":6000,"station_id":"ce4bh492rcd13ifvqdug","pricing_plan_id":"cebpf4jnsgd1na2vs0mg"},{"bike_id":"4bc331fa-7696-4f4b-93e9-ec6fa3462aa1","system_id":"levelo_inurba_marseille","lat":43.3153,"lon":5.38029,"is_reserved":false,"is_disabled":false,"rental_uris":{"android":"levelo://app?vid=4bc331fa-7696-4f4b-93e9-ec6fa3462aa1","ios":"levelo://app?vid=4bc331fa-7696-4f4b-93e9-ec6fa3462aa1"},"vehicle_type_id":"4","last_reported":1762888057,"current_range_meters":6000,"station_id":"ce4bhsp2rcd13ifvqi50","pricing_plan_id":"cebpf4jnsgd1na2vs0mg"},{"bike_id":"3e127f70-cf6a-4934-aa04-3bd2aa9faa0a","system_id":"levelo_inurba_marseille","lat":43.27063,"lon":5.42274,"is_reserved":false,"is_disabled":false,"rental_uris":{"android":"levelo://app?vid=3e127f70-cf6a-4934-aa04-3bd2aa9faa0a","ios":"levelo://app?vid=3e127f70-cf6a-4934-aa04-3bd2aa9faa0a"},"vehicle_type_id":"4","last_reported":1762888057,"current_range_meters":6400,"station_id":"ce4bhk92rcd13ifvqgb0","pricing_plan_id":"cebpf4jnsgd1na2vs0mg"},{"bike_id":"285edc02-c40d-4315-906b-2d38b29ac259","system_id":"levelo_inurba_marseille","lat":43.33774,"lon":5.37476,"is_reserved":false,"is_disabled":false,"rental_uris":{"android":"levelo://app?vid=285edc02-c40d-4315-906b-2d38b29ac259","ios":"levelo://app?vid=285edc02-c40d-4315-906b-2d38b29ac259"},"vehicle_type_id":"4","last_reported":1762888057,"current_range_meters":6400,"station_id":"","pricing_plan_id":"cebpf4jnsgd1na2vs0mg"},{"bike_id":"cc9de5a3-c53e-410a-afa4-7badb4a0dce3","system_id":"levelo_inurba_marseille","lat":43.28376,"lon":5.3878,"is_reserved":false,"is_disabled":false,"rental_uris":{"android":"levelo://app?vid=cc9de5a3-c53e-410a-afa4-7badb4a0dce3","ios":"levelo://app?vid=cc9de5a3-c53e-410a-afa4-7badb4a0dce3"},"vehicle_type_id":"4","last_reported":1762888057,"current_range_meters":6400,"station_id":"","pricing_plan_id":"cebpf4jnsgd1na2vs0mg"},{"bike_id":"a153bb7a-facf-4d89-8fb0-01e6272ba505","system_id":"levelo_inurba_marseille","lat":43.269843,"lon":5.388007,"is_reserved":false,"is_disabled":false,"rental_uris":{"android":"levelo://app?vid=a153bb7a-facf-4d89-8fb0-01e6272ba505","ios":"levelo://app?vid=a153bb7a-facf-4d89-8fb0-01e6272ba505"},"vehicle_type_id":"4","last_reported":1762888057,"current_range_meters":6400,"station_id":"","pricing_plan_id":"cebpf4jnsgd1na2vs0mg"},{"bike_id":"9a7c2dc7-2180-4633-bc7e-23c0c093b3c2","system_id":"levelo_inurba_marseille","lat":43.33028,"lon":5.39049,"is_reserved":false,"is_disabled":false,"rental_uris":{"android":"levelo://app?vid=9a7c2dc7-2180-4633-bc7e-23c0c093b3c2","ios":"levelo://app?vid=9a7c2dc7-2180-4633-bc7e-23c0c093b3c2"},"vehicle_type_id":"4","last_reported":1762888057,"current_range_meters":6400,"station_id":"ce4bhr92rcd13ifvqhrg","pricing_plan_id":"cebpf4jnsgd1na2vs0mg"},{"bike_id":"9a82fcbb-0ab3-4f45-aacf-b6e1642c0228","system_id":"levelo_inurba_marseille","lat":43.29623,"lon":5.37703,"is_reserved":false,"is_disabled":true,"rental_uris":{"android":"levelo://app?vid=9a82fcbb-0ab3-4f45-aacf-b6e1642c0228","ios":"levelo://app?vid=9a82fcbb-0ab3-4f45-aacf-b6e1642c0228"},"vehicle_type_id":"4","last_reported":1762888057,"current_range_meters":6400,"station_id":"ce4bgi92rcd13ifvqb90","pricing_plan_id":"cebpf4jnsgd1na2vs0mg"},{"bike_id":"1bf60d7e-82fe-44a6-825b-6387a61e2b5e","system_id":"levelo_inurba_marseille","lat":43.231904,"lon":5.35554,"is_reserved":false,"is_disabled":false,"rental_uris":{"android":"levelo://app?vid=1bf60d7e-82fe-44a6-825b-6387a61e2b5e","ios":"levelo://app?vid=1bf60d7e-82fe-44a6-825b-6387a61e2b5e"},"vehicle_type_id":"4","last_reported":1762888057,"current_range_meters":6400,"station_id":"ce4bhb92rcd13ifvqen0","pricing_plan_id":"cebpf4jnsgd1na2vs0mg"},{"bike_id":"24fafebe-994f-48c7-a199-2cb093d92a68","system_id":"levelo_inurba_marseille","lat":43.28945,"lon":5.39597,"is_reserved":false,"is_disabled":false,"rental_uris":{"android":"levelo://app?vid=24fafebe-994f-48c7-a199-2cb093d92a68","ios":"levelo://app?vid=24fafebe-994f-48c7-a199-2cb093d92a68"},"vehicle_type_id":"4","last_reported":1762888057,"current_range_meters":6400,"station_id":"ce4bh3h2rcd13ifvqdn0","pricing_plan_id":"cebpf4jnsgd1na2vs0mg"},{"bike_id":"4fa8f8c8-4526-4105-9753-b5959e2ebfe8","system_id":"levelo_inurba_marseille","lat":43.27998,"lon":5.40005,"is_reserved":false,"is_disabled":false,"rental_uris":{"android":"levelo://app?vid=4fa8f8c8-4526-4105-9753-b5959e2ebfe8","ios":"levelo://app?vid=4fa8f8c8-4526-4105-9753-b5959e2ebfe8"},"vehicle_type_id":"4","last_reported":1762888057,"current_range_meters":6400,"station_id":"ce4bho92rcd13ifvqh4g","pricing_plan_id":"cebpf4jnsgd1na2vs0mg"},{"bike_id":"74c3705e-1b0c-4229-b62c-b37dd5c13ca6","system_id":"levelo_inurba_marseille","lat":43.29872,"lon":5.40068,"is_reserved":false,"is_disabled":false,"rental_uris":{"android":"levelo://app?vid=74c3705e-1b0c-4229-b62c-b37dd5c13ca6","ios":"levelo://app?vid=74c3705e-1b0c-4229-b62c-b37dd5c13ca6"},"vehicle_type_id":"4","last_reported":1762888057,"current_range_meters":6400,"station_id":"","pricing_plan_id":"cebpf4jnsgd1na2vs0mg"},{"bike_id":"b3724fe1-9df5-4895-9ba9-fbbba5593e5f","system_id":"levelo_inurba_marseille","lat":43.27915,"lon":5.39578,"is_reserved":false,"is_disabled":false,"rental_uris":{"android":"levelo://app?vid=b3724fe1-9df5-4895-9ba9-fbbba5593e5f","ios":"levelo://app?vid=b3724fe1-9df5-4895-9ba9-fbbba5593e5f"},"vehicle_type_id":"4","last_reported":1762888057,"current_range_meters":6800,"station_id":"ce4bhf92rcd13ifvqf40","pricing_plan_id":"cebpf4jnsgd1na2vs0mg"},{"bike_id":"7258984c-aca4-475b-aba5-180366bba5da","system_id":"levelo_inurba_marseille","lat":43.24659,"lon":5.38165,"is_reserved":false,"is_disabled":false,"rental_uris":{"android":"levelo://app?vid=7258984c-aca4-475b-aba5-180366bba5da","ios":"levelo://app?vid=7258984c-aca4-475b-aba5-180366bba5da"},"vehicle_type_id":"4","last_reported":1762888057,"current_range_meters":6800,"station_id":"ce4bhih2rcd13ifvqfr0","pricing_plan_id":"cebpf4jnsgd1na2vs0mg"},{"bike_id":"9ade1fe7-d83f-4045-9bd3-74892e77626e","system_id":"levelo_inurba_marseille","lat":43.24082,"lon":5.37739,"is_reserved":false,"is_disabled":true,"rental_uris":{"android":"levelo://app?vid=9ade1fe7-d83f-4045-9bd3-74892e77626e","ios":"levelo://app?vid=9ade1fe7-d83f-4045-9bd3-74892e77626e"},"vehicle_type_id":"4","last_reported":1762888057,"current_range_meters":6800,"station_id":"ce4bhnp2rcd13ifvqgvg","pricing_plan_id":"cebpf4jnsgd1na2vs0mg"},{"bike_id":"d315980f-e55c-4a2b-8743-e45ce3622e8d","system_id":"levelo_inurba_marseille","lat":43.28467,"lon":5.48386,"is_reserved":false,"is_disabled":false,"rental_uris":{"android":"levelo://app?vid=d315980f-e55c-4a2b-8743-e45ce3622e8d","ios":"levelo://app?vid=d315980f-e55c-4a2b-8743-e45ce3622e8d"},"vehicle_type_id":"4","last_reported":1762888057,"current_range_meters":6800,"station_id":"st_d3svhcjqgbts73a3dn0g","pricing_plan_id":"cebpf4jnsgd1na2vs0mg"},{"bike_id":"9bd1756f-336b-4e01-86db-ae889cda5c98","system_id":"levelo_inurba_marseille","lat":43.30798,"lon":5.38163,"is_reserved":false,"is_disabled":false,"rental_uris":{"android":"levelo://app?vid=9bd1756f-336b-4e01-86db-ae889cda5c98","ios":"levelo://app?vid=9bd1756f-336b-4e01-86db-ae889cda5c98"},"vehicle_type_id":"4","last_reported":1762888057,"current_range_meters":6800,"station_id":"ce4bgt12rcd13ifvqce0","pricing_plan_id":"cebpf4jnsgd1na2vs0mg"},{"bike_id":"ae8df7c2-dced-4c87-8be6-83ffc212bba9","system_id":"levelo_inurba_marseille","lat":43.28277,"lon":5.35077,"is_reserved":false,"is_disabled":true,"rental_uris":{"android":"levelo://app?vid=ae8df7c2-dced-4c87-8be6-83ffc212bba9","ios":"levelo://app?vid=ae8df7c2-dced-4c87-8be6-83ffc212bba9"},"vehicle_type_id":"4","last_reported":1762888057,"current_range_meters":6800,"station_id":"ce4bhbp2rcd13ifvqerg","pricing_plan_id":"cebpf4jnsgd1na2vs0mg"},{"bike_id":"f6fdbefe-3a40-47ca-914a-77895baa1fc0","system_id":"levelo_inurba_marseille","lat":43.24073,"lon":5.37758,"is_reserved":false,"is_disabled":false,"rental_uris":{"android":"levelo://app?vid=f6fdbefe-3a40-47ca-914a-77895baa1fc0","ios":"levelo://app?vid=f6fdbefe-3a40-47ca-914a-77895baa1fc0"},"vehicle_type_id":"4","last_reported":1762888057,"current_range_meters":6800,"station_id":"ce4bhnp2rcd13ifvqgvg","pricing_plan_id":"cebpf4jnsgd1na2vs0mg"},{"bike_id":"a8b59da6-3f08-4943-ba0d-ba12842ac9ed","system_id":"levelo_inurba_marseille","lat":43.295501,"lon":5.423021,"is_reserved":false,"is_disabled":false,"rental_uris":{"android":"levelo://app?vid=a8b59da6-3f08-4943-ba0d-ba12842ac9ed","ios":"levelo://app?vid=a8b59da6-3f08-4943-ba0d-ba12842ac9ed"},"vehicle_type_id":"4","last_reported":1762888057,"current_range_meters":6800,"station_id":"ce4bho92rcd13ifvqh3g","pricing_plan_id":"cebpf4jnsgd1na2vs0mg"},{"bike_id":"49105566-0132-4b8c-a6c2-df0cf8a01e10","system_id":"levelo_inurba_marseille","lat":43.29195,"lon":5.39326,"is_reserved":false,"is_disabled":false,"rental_uris":{"android":"levelo://app?vid=49105566-0132-4b8c-a6c2-df0cf8a01e10","ios":"levelo://app?vid=49105566-0132-4b8c-a6c2-df0cf8a01e10"},"vehicle_type_id":"4","last_reported":1762888057,"current_range_meters":6800,"station_id":"ce4bh192rcd13ifvqdd0","pricing_plan_id":"cebpf4jnsgd1na2vs0mg"},{"bike_id":"99f555dd-b87a-4899-bc4d-afec626c1e28","system_id":"levelo_inurba_marseille","lat":43.28474,"lon":5.48395,"is_reserved":false,"is_disabled":false,"rental_uris":{"android":"levelo://app?vid=99f555dd-b87a-4899-bc4d-afec626c1e28","ios":"levelo://app?vid=99f555dd-b87a-4899-bc4d-afec626c1e28"},"vehicle_type_id":"4","last_reported":1762888057,"current_range_meters":6800,"station_id":"","pricing_plan_id":"cebpf4jnsgd1na2vs0mg"},{"bike_id":"5e9e5ad1-3d67-4d32-9614-9b5cb260b1cd","system_id":"levelo_inurba_marseille","lat":43.27071,"lon":5.42279,"is_reserved":false,"is_disabled":false,"rental_uris":{"android":"levelo://app?vid=5e9e5ad1-3d67-4d32-9614-9b5cb260b1cd","ios":"levelo://app?vid=5e9e5ad1-3d67-4d32-9614-9b5cb260b1cd"},"vehicle_type_id":"4","last_reported":1762888057,"current_range_meters":6800,"station_id":"ce4bhk92rcd13ifvqgb0","pricing_plan_id":"cebpf4jnsgd1na2vs0mg"},{"bike_id":"272ec4df-f760-4b78-b278-d4935816cd67","system_id":"levelo_inurba_marseille","lat":43.237858,"lon":5.366222,"is_reserved":false,"is_disabled":false,"rental_uris":{"android":"levelo://app?vid=272ec4df-f760-4b78-b278-d4935816cd67","ios":"levelo://app?vid=272ec4df-f760-4b78-b278-d4935816cd67"},"vehicle_type_id":"4","last_reported":1762888057,"current_range_meters":6800,"station_id":"st_d3nk18o9ro0c73en2l3g","pricing_plan_id":"cebpf4jnsgd1na2vs0mg"},{"bike_id":"04463c73-5e77-400d-a3d7-bfd614e1dabf","system_id":"levelo_inurba_marseille","lat":43.29784,"lon":5.38092,"is_reserved":false,"is_disabled":false,"rental_uris":{"android":"levelo://app?vid=04463c73-5e77-400d-a3d7-bfd614e1dabf","ios":"levelo://app?vid=04463c73-5e77-400d-a3d7-bfd614e1dabf"},"vehicle_type_id":"4","last_reported":1762888057,"current_range_meters":7200,"station_id":"ce4bgip2rcd13ifvqbb0","pricing_plan_id":"cebpf4jnsgd1na2vs0mg"},{"bike_id":"6ff8d6ec-158d-4282-a8e4-2131b624f1b8","system_id":"levelo_inurba_marseille","lat":43.28446,"lon":5.39208,"is_reserved":false,"is_disabled":false,"rental_uris":{"android":"levelo://app?vid=6ff8d6ec-158d-4282-a8e4-2131b624f1b8","ios":"levelo://app?vid=6ff8d6ec-158d-4282-a8e4-2131b624f1b8"},"vehicle_type_id":"4","last_reported":1762888057,"current_range_meters":7200,"station_id":"ce4bhoh2rcd13ifvqh5g","pricing_plan_id":"cebpf4jnsgd1na2vs0mg"},{"bike_id":"669cbf74-6055-44d2-8c8c-333de696521c","system_id":"levelo_inurba_marseille","lat":43.3136,"lon":5.38488,"is_reserved":false,"is_disabled":false,"rental_uris":{"android":"levelo://app?vid=669cbf74-6055-44d2-8c8c-333de696521c","ios":"levelo://app?vid=669cbf74-6055-44d2-8c8c-333de696521c"},"vehicle_type_id":"4","last_reported":1762888057,"current_range_meters":7200,"station_id":"ce4bgt92rcd13ifvqcf0","pricing_plan_id":"cebpf4jnsgd1na2vs0mg"},{"bike_id":"d3d7c06f-c53e-4fb0-bb02-50de8c629c7b","system_id":"levelo_inurba_marseille","lat":43.312748,"lon":5.401684,"is_reserved":false,"is_disabled":false,"rental_uris":{"android":"levelo://app?vid=d3d7c06f-c53e-4fb0-bb02-50de8c629c7b","ios":"levelo://app?vid=d3d7c06f-c53e-4fb0-bb02-50de8c629c7b"},"vehicle_type_id":"4","last_reported":1762888057,"current_range_meters":7200,"station_id":"ce4bh092rcd13ifvqd30","pricing_plan_id":"cebpf4jnsgd1na2vs0mg"},{"bike_id":"c620c9fc-398f-4dca-8fdd-2b652311235d","system_id":"levelo_inurba_marseille","lat":43.211908,"lon":5.350685,"is_reserved":false,"is_disabled":true,"rental_uris":{"android":"levelo://app?vid=c620c9fc-398f-4dca-8fdd-2b652311235d","ios":"levelo://app?vid=c620c9fc-398f-4dca-8fdd-2b652311235d"},"vehicle_type_id":"4","last_reported":1762888057,"current_range_meters":7200,"station_id":"st_cvj6sg6p6f1abm77japg","pricing_plan_id":"cebpf4jnsgd1na2vs0mg"},{"bike_id":"b2be4fa2-44ee-40dc-acc7-1755c74f1c5d","system_id":"levelo_inurba_marseille","lat":43.29739,"lon":5.41124,"is_reserved":false,"is_disabled":false,"rental_uris":{"android":"levelo://app?vid=b2be4fa2-44ee-40dc-acc7-1755c74f1c5d","ios":"levelo://app?vid=b2be4fa2-44ee-40dc-acc7-1755c74f1c5d"},"vehicle_type_id":"4","last_reported":1762888057,"current_range_meters":7200,"station_id":"","pricing_plan_id":"cebpf4jnsgd1na2vs0mg"},{"bike_id":"1648104b-81bc-4751-ace2-e97e844cd43d","system_id":"levelo_inurba_marseille","lat":43.28474,"lon":5.48414,"is_reserved":false,"is_disabled":false,"rental_uris":{"android":"levelo://app?vid=1648104b-81bc-4751-ace2-e97e844cd43d","ios":"levelo://app?vid=1648104b-81bc-4751-ace2-e97e844cd43d"},"vehicle_type_id":"4","last_reported":1762888057,"current_range_meters":7200,"station_id":"st_d3svhcjqgbts73a3dn0g","pricing_plan_id":"cebpf4jnsgd1na2vs0mg"},{"bike_id":"c6e13001-12f1-4281-aac8-ddc65dfe99a0","system_id":"levelo_inurba_marseille","lat":43.28662,"lon":5.36349,"is_reserved":false,"is_disabled":false,"rental_uris":{"android":"levelo://app?vid=c6e13001-12f1-4281-aac8-ddc65dfe99a0","ios":"levelo://app?vid=c6e13001-12f1-4281-aac8-ddc65dfe99a0"},"vehicle_type_id":"4","last_reported":1762888057,"current_range_meters":7200,"station_id":"ce4bhah2rcd13ifvqej0","pricing_plan_id":"cebpf4jnsgd1na2vs0mg"},{"bike_id":"8bd4ee00-4635-4b8f-a93f-5fdca4bf725d","system_id":"levelo_inurba_marseille","lat":43.279392,"lon":5.410475,"is_reserved":false,"is_disabled":false,"rental_uris":{"android":"levelo://app?vid=8bd4ee00-4635-4b8f-a93f-5fdca4bf725d","ios":"levelo://app?vid=8bd4ee00-4635-4b8f-a93f-5fdca4bf725d"},"vehicle_type_id":"4","last_reported":1762888057,"current_range_meters":8000,"station_id":"","pricing_plan_id":"cebpf4jnsgd1na2vs0mg"},{"bike_id":"349b2ad9-adea-4dd9-9ac9-fffb121b5424","system_id":"levelo_inurba_marseille","lat":43.29892,"lon":5.37537,"is_reserved":false,"is_disabled":false,"rental_uris":{"android":"levelo://app?vid=349b2ad9-adea-4dd9-9ac9-fffb121b5424","ios":"levelo://app?vid=349b2ad9-adea-4dd9-9ac9-fffb121b5424"},"vehicle_type_id":"4","last_reported":1762888057,"current_range_meters":8000,"station_id":"","pricing_plan_id":"cebpf4jnsgd1na2vs0mg"},{"bike_id":"1ce752b0-fa49-429d-9734-2f06993f4bd6","system_id":"levelo_inurba_marseille","lat":43.31994,"lon":5.38153,"is_reserved":false,"is_disabled":false,"rental_uris":{"android":"levelo://app?vid=1ce752b0-fa49-429d-9734-2f06993f4bd6","ios":"levelo://app?vid=1ce752b0-fa49-429d-9734-2f06993f4bd6"},"vehicle_type_id":"4","last_reported":1762888057,"current_range_meters":8000,"station_id":"ce4bhr12rcd13ifvqhpg","pricing_plan_id":"cebpf4jnsgd1na2vs0mg"},{"bike_id":"30efddd0-6453-4796-81a6-738ca9aad512","system_id":"levelo_inurba_marseille","lat":43.31055,"lon":5.38695,"is_reserved":false,"is_disabled":false,"rental_uris":{"android":"levelo://app?vid=30efddd0-6453-4796-81a6-738ca9aad512","ios":"levelo://app?vid=30efddd0-6453-4796-81a6-738ca9aad512"},"vehicle_type_id":"4","last_reported":1762888057,"current_range_meters":8000,"station_id":"ce4bgv12rcd13ifvqcp0","pricing_plan_id":"cebpf4jnsgd1na2vs0mg"},{"bike_id":"e9fe7994-8483-46a4-8998-649b0e8b5189","system_id":"levelo_inurba_marseille","lat":43.29301,"lon":5.37158,"is_reserved":false,"is_disabled":false,"rental_uris":{"android":"levelo://app?vid=e9fe7994-8483-46a4-8998-649b0e8b5189","ios":"levelo://app?vid=e9fe7994-8483-46a4-8998-649b0e8b5189"},"vehicle_type_id":"4","last_reported":1762888057,"current_range_meters":8000,"station_id":"ce4bgh92rcd13ifvqb40","pricing_plan_id":"cebpf4jnsgd1na2vs0mg"},{"bike_id":"8c233313-a231-4552-bd58-e6089cef5c80","system_id":"levelo_inurba_marseille","lat":43.29281,"lon":5.37619,"is_reserved":false,"is_disabled":false,"rental_uris":{"android":"levelo://app?vid=8c233313-a231-4552-bd58-e6089cef5c80","ios":"levelo://app?vid=8c233313-a231-4552-bd58-e6089cef5c80"},"vehicle_type_id":"4","last_reported":1762888057,"current_range_meters":8000,"station_id":"ce4bgi12rcd13ifvqb80","pricing_plan_id":"cebpf4jnsgd1na2vs0mg"},{"bike_id":"a6bdf21f-a1d2-4def-a11f-b6f07d15f833","system_id":"levelo_inurba_marseille","lat":43.30098,"lon":5.38259,"is_reserved":false,"is_disabled":false,"rental_uris":{"android":"levelo://app?vid=a6bdf21f-a1d2-4def-a11f-b6f07d15f833","ios":"levelo://app?vid=a6bdf21f-a1d2-4def-a11f-b6f07d15f833"},"vehicle_type_id":"4","last_reported":1762888057,"current_range_meters":8000,"station_id":"","pricing_plan_id":"cebpf4jnsgd1na2vs0mg"},{"bike_id":"3817c81d-20f6-4209-be43-3b1b480b3ab6","system_id":"levelo_inurba_marseille","lat":43.30092,"lon":5.39065,"is_reserved":false,"is_disabled":false,"rental_uris":{"android":"levelo://app?vid=3817c81d-20f6-4209-be43-3b1b480b3ab6","ios":"levelo://app?vid=3817c81d-20f6-4209-be43-3b1b480b3ab6"},"vehicle_type_id":"4","last_reported":1762888057,"current_range_meters":8400,"station_id":"ce4bh192rcd13ifvqdb0","pricing_plan_id":"cebpf4jnsgd1na2vs0mg"},{"bike_id":"36f9d686-2d41-431b-9bb4-116c0a0d66a9","system_id":"levelo_inurba_marseille","lat":43.30194,"lon":5.36609,"is_reserved":false,"is_disabled":false,"rental_uris":{"android":"levelo://app?vid=36f9d686-2d41-431b-9bb4-116c0a0d66a9","ios":"levelo://app?vid=36f9d686-2d41-431b-9bb4-116c0a0d66a9"},"vehicle_type_id":"4","last_reported":1762888057,"current_range_meters":8400,"station_id":"ce4bgrh2rcd13ifvqc8g","pricing_plan_id":"cebpf4jnsgd1na2vs0mg"},{"bike_id":"6e6913ab-5565-44c2-bf61-26805575b411","system_id":"levelo_inurba_marseille","lat":43.29822,"lon":5.44066,"is_reserved":false,"is_disabled":false,"rental_uris":{"android":"levelo://app?vid=6e6913ab-5565-44c2-bf61-26805575b411","ios":"levelo://app?vid=6e6913ab-5565-44c2-bf61-26805575b411"},"vehicle_type_id":"4","last_reported":1762888057,"current_range_meters":8400,"station_id":"st_d3jp68qikq2c7381ktn0","pricing_plan_id":"cebpf4jnsgd1na2vs0mg"},{"bike_id":"6c695009-8d57-4f14-b25e-253cf9de0b52","system_id":"levelo_inurba_marseille","lat":43.31344,"lon":5.39723,"is_reserved":false,"is_disabled":false,"rental_uris":{"android":"levelo://app?vid=6c695009-8d57-4f14-b25e-253cf9de0b52","ios":"levelo://app?vid=6c695009-8d57-4f14-b25e-253cf9de0b52"},"vehicle_type_id":"4","last_reported":1762888057,"current_range_meters":8400,"station_id":"ce4bgvp2rcd13ifvqcu0","pricing_plan_id":"cebpf4jnsgd1na2vs0mg"},{"bike_id":"d4727bf4-ce00-4ad5-a616-072b6c555b76","system_id":"levelo_inurba_marseille","lat":43.28148,"lon":5.4264,"is_reserved":false,"is_disabled":false,"rental_uris":{"android":"levelo://app?vid=d4727bf4-ce00-4ad5-a616-072b6c555b76","ios":"levelo://app?vid=d4727bf4-ce00-4ad5-a616-072b6c555b76"},"vehicle_type_id":"4","last_reported":1762888057,"current_range_meters":8400,"station_id":"ce4bhnh2rcd13ifvqgug","pricing_plan_id":"cebpf4jnsgd1na2vs0mg"},{"bike_id":"a1255a2c-180a-4a2b-9748-505a1e2de20d","system_id":"levelo_inurba_marseille","lat":43.292603,"lon":5.384336,"is_reserved":false,"is_disabled":false,"rental_uris":{"android":"levelo://app?vid=a1255a2c-180a-4a2b-9748-505a1e2de20d","ios":"levelo://app?vid=a1255a2c-180a-4a2b-9748-505a1e2de20d"},"vehicle_type_id":"4","last_reported":1762888057,"current_range_meters":8400,"station_id":"ce4bh692rcd13ifvqea0","pricing_plan_id":"cebpf4jnsgd1na2vs0mg"},{"bike_id":"f3d7bdd9-94e6-45cb-b657-91c04a5e8667","system_id":"levelo_inurba_marseille","lat":43.30265,"lon":5.40082,"is_reserved":false,"is_disabled":false,"rental_uris":{"android":"levelo://app?vid=f3d7bdd9-94e6-45cb-b657-91c04a5e8667","ios":"levelo://app?vid=f3d7bdd9-94e6-45cb-b657-91c04a5e8667"},"vehicle_type_id":"4","last_reported":1762888057,"current_range_meters":8400,"station_id":"ce4bgvh2rcd13ifvqcs0","pricing_plan_id":"cebpf4jnsgd1na2vs0mg"},{"bike_id":"e0467342-2ee8-4c36-aeb9-27d25d94ead5","system_id":"levelo_inurba_marseille","lat":43.28148,"lon":5.42641,"is_reserved":false,"is_disabled":true,"rental_uris":{"android":"levelo://app?vid=e0467342-2ee8-4c36-aeb9-27d25d94ead5","ios":"levelo://app?vid=e0467342-2ee8-4c36-aeb9-27d25d94ead5"},"vehicle_type_id":"4","last_reported":1762888057,"current_range_meters":8400,"station_id":"ce4bhnh2rcd13ifvqgug","pricing_plan_id":"cebpf4jnsgd1na2vs0mg"},{"bike_id":"4b632529-f30d-4e26-becd-5aa63cff31a6","system_id":"levelo_inurba_marseille","lat":43.292543,"lon":5.376207,"is_reserved":false,"is_disabled":false,"rental_uris":{"android":"levelo://app?vid=4b632529-f30d-4e26-becd-5aa63cff31a6","ios":"levelo://app?vid=4b632529-f30d-4e26-becd-5aa63cff31a6"},"vehicle_type_id":"4","last_reported":1762888057,"current_range_meters":8800,"station_id":"ce4bgi12rcd13ifvqb80","pricing_plan_id":"cebpf4jnsgd1na2vs0mg"},{"bike_id":"6aa07b68-711b-419b-97fb-4f0267b95509","system_id":"levelo_inurba_marseille","lat":43.29024,"lon":5.38614,"is_reserved":false,"is_disabled":true,"rental_uris":{"android":"levelo://app?vid=6aa07b68-711b-419b-97fb-4f0267b95509","ios":"levelo://app?vid=6aa07b68-711b-419b-97fb-4f0267b95509"},"vehicle_type_id":"4","last_reported":1762888057,"current_range_meters":8800,"station_id":"ce4bh4p2rcd13ifvqe0g","pricing_plan_id":"cebpf4jnsgd1na2vs0mg"},{"bike_id":"520598b3-96c3-46e0-842d-f88d56b5e32a","system_id":"levelo_inurba_marseille","lat":43.272071,"lon":5.391892,"is_reserved":false,"is_disabled":true,"rental_uris":{"android":"levelo://app?vid=520598b3-96c3-46e0-842d-f88d56b5e32a","ios":"levelo://app?vid=520598b3-96c3-46e0-842d-f88d56b5e32a"},"vehicle_type_id":"4","last_reported":1762888057,"current_range_meters":8800,"station_id":"ce4bhhp2rcd13ifvqfm0","pricing_plan_id":"cebpf4jnsgd1na2vs0mg"},{"bike_id":"fa670eed-6e8c-47c0-b877-25fb24390d31","system_id":"levelo_inurba_marseille","lat":43.295966,"lon":5.381052,"is_reserved":false,"is_disabled":false,"rental_uris":{"android":"levelo://app?vid=fa670eed-6e8c-47c0-b877-25fb24390d31","ios":"levelo://app?vid=fa670eed-6e8c-47c0-b877-25fb24390d31"},"vehicle_type_id":"4","last_reported":1762888057,"current_range_meters":8800,"station_id":"ce4bgl12rcd13ifvqbo0","pricing_plan_id":"cebpf4jnsgd1na2vs0mg"},{"bike_id":"a85b9412-6f2e-424d-b506-e64f3a53ff2e","system_id":"levelo_inurba_marseille","lat":43.2954,"lon":5.38551,"is_reserved":false,"is_disabled":false,"rental_uris":{"android":"levelo://app?vid=a85b9412-6f2e-424d-b506-e64f3a53ff2e","ios":"levelo://app?vid=a85b9412-6f2e-424d-b506-e64f3a53ff2e"},"vehicle_type_id":"4","last_reported":1762888057,"current_range_meters":8800,"station_id":"ce4bgih2rcd13ifvqba0","pricing_plan_id":"cebpf4jnsgd1na2vs0mg"},{"bike_id":"d14a3070-960e-421d-b5dc-419b8cc88005","system_id":"levelo_inurba_marseille","lat":43.31606,"lon":5.37612,"is_reserved":false,"is_disabled":false,"rental_uris":{"android":"levelo://app?vid=d14a3070-960e-421d-b5dc-419b8cc88005","ios":"levelo://app?vid=d14a3070-960e-421d-b5dc-419b8cc88005"},"vehicle_type_id":"4","last_reported":1762888057,"current_range_meters":8800,"station_id":"","pricing_plan_id":"cebpf4jnsgd1na2vs0mg"},{"bike_id":"0936661e-7a56-4432-8d2b-2bac2c32e235","system_id":"levelo_inurba_marseille","lat":43.28923,"lon":5.38389,"is_reserved":false,"is_disabled":false,"rental_uris":{"android":"levelo://app?vid=0936661e-7a56-4432-8d2b-2bac2c32e235","ios":"levelo://app?vid=0936661e-7a56-4432-8d2b-2bac2c32e235"},"vehicle_type_id":"4","last_reported":1762888057,"current_range_meters":8800,"station_id":"ce4bh612rcd13ifvqe6g","pricing_plan_id":"cebpf4jnsgd1na2vs0mg"},{"bike_id":"526b9587-63aa-4d93-a8f1-4d9063f90b6b","system_id":"levelo_inurba_marseille","lat":43.30932,"lon":5.40133,"is_reserved":false,"is_disabled":false,"rental_uris":{"android":"levelo://app?vid=526b9587-63aa-4d93-a8f1-4d9063f90b6b","ios":"levelo://app?vid=526b9587-63aa-4d93-a8f1-4d9063f90b6b"},"vehicle_type_id":"4","last_reported":1762888057,"current_range_meters":8800,"station_id":"ce4bgvp2rcd13ifvqct0","pricing_plan_id":"cebpf4jnsgd1na2vs0mg"},{"bike_id":"07c890b8-6865-4a93-a891-fa0a3e49347d","system_id":"levelo_inurba_marseille","lat":43.28437,"lon":5.39187,"is_reserved":false,"is_disabled":false,"rental_uris":{"android":"levelo://app?vid=07c890b8-6865-4a93-a891-fa0a3e49347d","ios":"levelo://app?vid=07c890b8-6865-4a93-a891-fa0a3e49347d"},"vehicle_type_id":"4","last_reported":1762888057,"current_range_meters":9200,"station_id":"ce4bhoh2rcd13ifvqh5g","pricing_plan_id":"cebpf4jnsgd1na2vs0mg"},{"bike_id":"55ab23c9-35d0-43bd-8f1e-cfcdeb560898","system_id":"levelo_inurba_marseille","lat":43.290324,"lon":5.386474,"is_reserved":false,"is_disabled":false,"rental_uris":{"android":"levelo://app?vid=55ab23c9-35d0-43bd-8f1e-cfcdeb560898","ios":"levelo://app?vid=55ab23c9-35d0-43bd-8f1e-cfcdeb560898"},"vehicle_type_id":"4","last_reported":1762888057,"current_range_meters":9200,"station_id":"ce4bh4p2rcd13ifvqe0g","pricing_plan_id":"cebpf4jnsgd1na2vs0mg"},{"bike_id":"9c99c8b9-4a95-4961-b29d-13f4473ae52f","system_id":"levelo_inurba_marseille","lat":43.30895,"lon":5.3718,"is_reserved":false,"is_disabled":false,"rental_uris":{"android":"levelo://app?vid=9c99c8b9-4a95-4961-b29d-13f4473ae52f","ios":"levelo://app?vid=9c99c8b9-4a95-4961-b29d-13f4473ae52f"},"vehicle_type_id":"4","last_reported":1762888057,"current_range_meters":9200,"station_id":"ce4bguh2rcd13ifvqckg","pricing_plan_id":"cebpf4jnsgd1na2vs0mg"},{"bike_id":"84da55ed-a169-4c20-816f-882eaadb7b22","system_id":"levelo_inurba_marseille","lat":43.29082,"lon":5.37185,"is_reserved":false,"is_disabled":false,"rental_uris":{"android":"levelo://app?vid=84da55ed-a169-4c20-816f-882eaadb7b22","ios":"levelo://app?vid=84da55ed-a169-4c20-816f-882eaadb7b22"},"vehicle_type_id":"4","last_reported":1762888057,"current_range_meters":9200,"station_id":"ce4bh5p2rcd13ifvqe4g","pricing_plan_id":"cebpf4jnsgd1na2vs0mg"},{"bike_id":"6eb76fe4-d521-45ac-b954-f34c4b3e34b6","system_id":"levelo_inurba_marseille","lat":43.27669,"lon":5.38883,"is_reserved":false,"is_disabled":false,"rental_uris":{"android":"levelo://app?vid=6eb76fe4-d521-45ac-b954-f34c4b3e34b6","ios":"levelo://app?vid=6eb76fe4-d521-45ac-b954-f34c4b3e34b6"},"vehicle_type_id":"4","last_reported":1762888057,"current_range_meters":9200,"station_id":"ce4bhi12rcd13ifvqfo0","pricing_plan_id":"cebpf4jnsgd1na2vs0mg"},{"bike_id":"87bfe472-e252-476c-8957-0e330f18d662","system_id":"levelo_inurba_marseille","lat":43.29256,"lon":5.37622,"is_reserved":false,"is_disabled":false,"rental_uris":{"android":"levelo://app?vid=87bfe472-e252-476c-8957-0e330f18d662","ios":"levelo://app?vid=87bfe472-e252-476c-8957-0e330f18d662"},"vehicle_type_id":"4","last_reported":1762888057,"current_range_meters":9200,"station_id":"ce4bgi12rcd13ifvqb80","pricing_plan_id":"cebpf4jnsgd1na2vs0mg"},{"bike_id":"9c48b55b-4494-4d42-9ef0-ea78e5be17dc","system_id":"levelo_inurba_marseille","lat":43.29789,"lon":5.38102,"is_reserved":false,"is_disabled":false,"rental_uris":{"android":"levelo://app?vid=9c48b55b-4494-4d42-9ef0-ea78e5be17dc","ios":"levelo://app?vid=9c48b55b-4494-4d42-9ef0-ea78e5be17dc"},"vehicle_type_id":"4","last_reported":1762888057,"current_range_meters":9600,"station_id":"ce4bgip2rcd13ifvqbb0","pricing_plan_id":"cebpf4jnsgd1na2vs0mg"},{"bike_id":"4b75f4f1-28cd-4ac7-9b5c-b069daf52b29","system_id":"levelo_inurba_marseille","lat":43.3185,"lon":5.37381,"is_reserved":false,"is_disabled":false,"rental_uris":{"android":"levelo://app?vid=4b75f4f1-28cd-4ac7-9b5c-b069daf52b29","ios":"levelo://app?vid=4b75f4f1-28cd-4ac7-9b5c-b069daf52b29"},"vehicle_type_id":"4","last_reported":1762888057,"current_range_meters":9600,"station_id":"","pricing_plan_id":"cebpf4jnsgd1na2vs0mg"},{"bike_id":"38060efd-ed0d-4fc8-a558-2a407ef2a801","system_id":"levelo_inurba_marseille","lat":43.31717,"lon":5.43699,"is_reserved":false,"is_disabled":false,"rental_uris":{"android":"levelo://app?vid=38060efd-ed0d-4fc8-a558-2a407ef2a801","ios":"levelo://app?vid=38060efd-ed0d-4fc8-a558-2a407ef2a801"},"vehicle_type_id":"4","last_reported":1762888057,"current_range_meters":9600,"station_id":"ce4bhp92rcd13ifvqhcg","pricing_plan_id":"cebpf4jnsgd1na2vs0mg"},{"bike_id":"0ee5ed68-17b0-4de5-8497-c5a52ae4e738","system_id":"levelo_inurba_marseille","lat":43.29435,"lon":5.39746,"is_reserved":false,"is_disabled":false,"rental_uris":{"android":"levelo://app?vid=0ee5ed68-17b0-4de5-8497-c5a52ae4e738","ios":"levelo://app?vid=0ee5ed68-17b0-4de5-8497-c5a52ae4e738"},"vehicle_type_id":"4","last_reported":1762888057,"current_range_meters":9600,"station_id":"ce4bh3h2rcd13ifvqdo0","pricing_plan_id":"cebpf4jnsgd1na2vs0mg"},{"bike_id":"5bb896f2-dec6-4193-88dc-e86ff5a402fd","system_id":"levelo_inurba_marseille","lat":43.29811,"lon":5.44064,"is_reserved":false,"is_disabled":false,"rental_uris":{"android":"levelo://app?vid=5bb896f2-dec6-4193-88dc-e86ff5a402fd","ios":"levelo://app?vid=5bb896f2-dec6-4193-88dc-e86ff5a402fd"},"vehicle_type_id":"4","last_reported":1762888057,"current_range_meters":9600,"station_id":"st_d3jp68qikq2c7381ktn0","pricing_plan_id":"cebpf4jnsgd1na2vs0mg"},{"bike_id":"df923196-f3ce-49f2-940b-4b0f508e6121","system_id":"levelo_inurba_marseille","lat":43.28706,"lon":5.3998,"is_reserved":false,"is_disabled":false,"rental_uris":{"android":"levelo://app?vid=df923196-f3ce-49f2-940b-4b0f508e6121","ios":"levelo://app?vid=df923196-f3ce-49f2-940b-4b0f508e6121"},"vehicle_type_id":"4","last_reported":1762888057,"current_range_meters":9600,"station_id":"ce4bho92rcd13ifvqh3g","pricing_plan_id":"cebpf4jnsgd1na2vs0mg"},{"bike_id":"229df969-849c-4adb-9abb-fb280355b17b","system_id":"levelo_inurba_marseille","lat":43.29596,"lon":5.381,"is_reserved":false,"is_disabled":false,"rental_uris":{"android":"levelo://app?vid=229df969-849c-4adb-9abb-fb280355b17b","ios":"levelo://app?vid=229df969-849c-4adb-9abb-fb280355b17b"},"vehicle_type_id":"4","last_reported":1762888057,"current_range_meters":10000,"station_id":"ce4bgl12rcd13ifvqbo0","pricing_plan_id":"cebpf4jnsgd1na2vs0mg"},{"bike_id":"5369ca34-7723-43dc-a1d0-03c4269b2e4a","system_id":"levelo_inurba_marseille","lat":43.31285,"lon":5.37798,"is_reserved":false,"is_disabled":false,"rental_uris":{"android":"levelo://app?vid=5369ca34-7723-43dc-a1d0-03c4269b2e4a","ios":"levelo://app?vid=5369ca34-7723-43dc-a1d0-03c4269b2e4a"},"vehicle_type_id":"4","last_reported":1762888057,"current_range_meters":10000,"station_id":"","pricing_plan_id":"cebpf4jnsgd1na2vs0mg"},{"bike_id":"7475b38b-2404-4afa-9250-b595f675d2e9","system_id":"levelo_inurba_marseille","lat":43.2925,"lon":5.37611,"is_reserved":false,"is_disabled":false,"rental_uris":{"android":"levelo://app?vid=7475b38b-2404-4afa-9250-b595f675d2e9","ios":"levelo://app?vid=7475b38b-2404-4afa-9250-b595f675d2e9"},"vehicle_type_id":"4","last_reported":1762888057,"current_range_meters":10000,"station_id":"ce4bgi12rcd13ifvqb80","pricing_plan_id":"cebpf4jnsgd1na2vs0mg"},{"bike_id":"9cf7695e-ca84-42cb-8f23-6c603ed0b0ce","system_id":"levelo_inurba_marseille","lat":43.27915,"lon":5.39576,"is_reserved":false,"is_disabled":false,"rental_uris":{"android":"levelo://app?vid=9cf7695e-ca84-42cb-8f23-6c603ed0b0ce","ios":"levelo://app?vid=9cf7695e-ca84-42cb-8f23-6c603ed0b0ce"},"vehicle_type_id":"4","last_reported":1762888057,"current_range_meters":10000,"station_id":"ce4bhf92rcd13ifvqf40","pricing_plan_id":"cebpf4jnsgd1na2vs0mg"},{"bike_id":"2728b59e-ef08-40de-a4eb-5aa73687c4a5","system_id":"levelo_inurba_marseille","lat":43.28972,"lon":5.37847,"is_reserved":false,"is_disabled":false,"rental_uris":{"android":"levelo://app?vid=2728b59e-ef08-40de-a4eb-5aa73687c4a5","ios":"levelo://app?vid=2728b59e-ef08-40de-a4eb-5aa73687c4a5"},"vehicle_type_id":"4","last_reported":1762888057,"current_range_meters":10000,"station_id":"ce4bh9p2rcd13ifvqed0","pricing_plan_id":"cebpf4jnsgd1na2vs0mg"},{"bike_id":"fb30a5bd-5753-4fef-9259-b5fdcbe0fcf6","system_id":"levelo_inurba_marseille","lat":43.28699,"lon":5.37394,"is_reserved":false,"is_disabled":false,"rental_uris":{"android":"levelo://app?vid=fb30a5bd-5753-4fef-9259-b5fdcbe0fcf6","ios":"levelo://app?vid=fb30a5bd-5753-4fef-9259-b5fdcbe0fcf6"},"vehicle_type_id":"4","last_reported":1762888057,"current_range_meters":10000,"station_id":"ce4bh3p2rcd13ifvqdq0","pricing_plan_id":"cebpf4jnsgd1na2vs0mg"},{"bike_id":"f8d78524-b363-4c7c-9205-e0b76028b8cb","system_id":"levelo_inurba_marseille","lat":43.28157,"lon":5.42643,"is_reserved":false,"is_disabled":false,"rental_uris":{"android":"levelo://app?vid=f8d78524-b363-4c7c-9205-e0b76028b8cb","ios":"levelo://app?vid=f8d78524-b363-4c7c-9205-e0b76028b8cb"},"vehicle_type_id":"4","last_reported":1762888057,"current_range_meters":10000,"station_id":"ce4bhnh2rcd13ifvqgug","pricing_plan_id":"cebpf4jnsgd1na2vs0mg"},{"bike_id":"62a14efb-5f7a-4e0d-bbfa-d4a60d07f475","system_id":"levelo_inurba_marseille","lat":43.297571,"lon":5.373111,"is_reserved":false,"is_disabled":false,"rental_uris":{"android":"levelo://app?vid=62a14efb-5f7a-4e0d-bbfa-d4a60d07f475","ios":"levelo://app?vid=62a14efb-5f7a-4e0d-bbfa-d4a60d07f475"},"vehicle_type_id":"4","last_reported":1762888057,"current_range_meters":10000,"station_id":"","pricing_plan_id":"cebpf4jnsgd1na2vs0mg"},{"bike_id":"4585539a-ba80-465b-83a6-4a31cabac938","system_id":"levelo_inurba_marseille","lat":43.28484,"lon":5.48386,"is_reserved":false,"is_disabled":false,"rental_uris":{"android":"levelo://app?vid=4585539a-ba80-465b-83a6-4a31cabac938","ios":"levelo://app?vid=4585539a-ba80-465b-83a6-4a31cabac938"},"vehicle_type_id":"4","last_reported":1762888057,"current_range_meters":10000,"station_id":"st_d3svhcjqgbts73a3dn0g","pricing_plan_id":"cebpf4jnsgd1na2vs0mg"},{"bike_id":"a36e7767-e025-44af-901e-1d9e213118eb","system_id":"levelo_inurba_marseille","lat":43.29886,"lon":5.43646,"is_reserved":false,"is_disabled":false,"rental_uris":{"android":"levelo://app?vid=a36e7767-e025-44af-901e-1d9e213118eb","ios":"levelo://app?vid=a36e7767-e025-44af-901e-1d9e213118eb"},"vehicle_type_id":"4","last_reported":1762888057,"current_range_meters":10800,"station_id":"ce4bhpp2rcd13ifvqhfg","pricing_plan_id":"cebpf4jnsgd1na2vs0mg"},{"bike_id":"a290718c-4812-4883-a23c-f42ad67406da","system_id":"levelo_inurba_marseille","lat":43.29265,"lon":5.40134,"is_reserved":false,"is_disabled":false,"rental_uris":{"android":"levelo://app?vid=a290718c-4812-4883-a23c-f42ad67406da","ios":"levelo://app?vid=a290718c-4812-4883-a23c-f42ad67406da"},"vehicle_type_id":"4","last_reported":1762888057,"current_range_meters":10800,"station_id":"ce4bh312rcd13ifvqdk0","pricing_plan_id":"cebpf4jnsgd1na2vs0mg"},{"bike_id":"38c922e6-37cd-47dc-af88-f07475112c2a","system_id":"levelo_inurba_marseille","lat":43.3214,"lon":5.38841,"is_reserved":false,"is_disabled":false,"rental_uris":{"android":"levelo://app?vid=38c922e6-37cd-47dc-af88-f07475112c2a","ios":"levelo://app?vid=38c922e6-37cd-47dc-af88-f07475112c2a"},"vehicle_type_id":"4","last_reported":1762888057,"current_range_meters":10800,"station_id":"","pricing_plan_id":"cebpf4jnsgd1na2vs0mg"},{"bike_id":"14abd541-9f79-4003-92ba-768bbbd06bb6","system_id":"levelo_inurba_marseille","lat":43.30364,"lon":5.42485,"is_reserved":false,"is_disabled":false,"rental_uris":{"android":"levelo://app?vid=14abd541-9f79-4003-92ba-768bbbd06bb6","ios":"levelo://app?vid=14abd541-9f79-4003-92ba-768bbbd06bb6"},"vehicle_type_id":"4","last_reported":1762888057,"current_range_meters":10800,"station_id":"ce4bhoh2rcd13ifvqh6g","pricing_plan_id":"cebpf4jnsgd1na2vs0mg"},{"bike_id":"ba55720e-a746-47fa-9d55-2b227006d988","system_id":"levelo_inurba_marseille","lat":43.2886,"lon":5.42513,"is_reserved":false,"is_disabled":false,"rental_uris":{"android":"levelo://app?vid=ba55720e-a746-47fa-9d55-2b227006d988","ios":"levelo://app?vid=ba55720e-a746-47fa-9d55-2b227006d988"},"vehicle_type_id":"4","last_reported":1762888057,"current_range_meters":10800,"station_id":"st_d3b462108ojc7389ooeg","pricing_plan_id":"cebpf4jnsgd1na2vs0mg"},{"bike_id":"007b1ae9-a09c-441f-9e7c-48bd56d0ddbe","system_id":"levelo_inurba_marseille","lat":43.26225,"lon":5.40451,"is_reserved":false,"is_disabled":false,"rental_uris":{"android":"levelo://app?vid=007b1ae9-a09c-441f-9e7c-48bd56d0ddbe","ios":"levelo://app?vid=007b1ae9-a09c-441f-9e7c-48bd56d0ddbe"},"vehicle_type_id":"4","last_reported":1762888057,"current_range_meters":10800,"station_id":"ce4bhmh2rcd13ifvqgmg","pricing_plan_id":"cebpf4jnsgd1na2vs0mg"},{"bike_id":"d54952de-c2c9-4463-b55a-b35b39e9463c","system_id":"levelo_inurba_marseille","lat":43.29823,"lon":5.44062,"is_reserved":false,"is_disabled":false,"rental_uris":{"android":"levelo://app?vid=d54952de-c2c9-4463-b55a-b35b39e9463c","ios":"levelo://app?vid=d54952de-c2c9-4463-b55a-b35b39e9463c"},"vehicle_type_id":"4","last_reported":1762888057,"current_range_meters":10800,"station_id":"st_d3jp68qikq2c7381ktn0","pricing_plan_id":"cebpf4jnsgd1na2vs0mg"},{"bike_id":"6599b6aa-f015-4918-9550-01825fd7d0bd","system_id":"levelo_inurba_marseille","lat":43.28926,"lon":5.38391,"is_reserved":false,"is_disabled":false,"rental_uris":{"android":"levelo://app?vid=6599b6aa-f015-4918-9550-01825fd7d0bd","ios":"levelo://app?vid=6599b6aa-f015-4918-9550-01825fd7d0bd"},"vehicle_type_id":"4","last_reported":1762888057,"current_range_meters":10800,"station_id":"ce4bh612rcd13ifvqe6g","pricing_plan_id":"cebpf4jnsgd1na2vs0mg"},{"bike_id":"019f475f-b1fa-49e2-b164-8437c23c1555","system_id":"levelo_inurba_marseille","lat":43.31357,"lon":5.3849,"is_reserved":false,"is_disabled":false,"rental_uris":{"android":"levelo://app?vid=019f475f-b1fa-49e2-b164-8437c23c1555","ios":"levelo://app?vid=019f475f-b1fa-49e2-b164-8437c23c1555"},"vehicle_type_id":"4","last_reported":1762888057,"current_range_meters":10800,"station_id":"","pricing_plan_id":"cebpf4jnsgd1na2vs0mg"},{"bike_id":"f66fdcb4-acc8-4a90-88ec-9926db65e0d3","system_id":"levelo_inurba_marseille","lat":43.28039,"lon":5.369439,"is_reserved":false,"is_disabled":false,"rental_uris":{"android":"levelo://app?vid=f66fdcb4-acc8-4a90-88ec-9926db65e0d3","ios":"levelo://app?vid=f66fdcb4-acc8-4a90-88ec-9926db65e0d3"},"vehicle_type_id":"4","last_reported":1762888057,"current_range_meters":10800,"station_id":"ce4bha12rcd13ifvqef0","pricing_plan_id":"cebpf4jnsgd1na2vs0mg"},{"bike_id":"ab93a7c8-95a0-431b-a672-30f4856879ba","system_id":"levelo_inurba_marseille","lat":43.25706,"lon":5.411,"is_reserved":false,"is_disabled":false,"rental_uris":{"android":"levelo://app?vid=ab93a7c8-95a0-431b-a672-30f4856879ba","ios":"levelo://app?vid=ab93a7c8-95a0-431b-a672-30f4856879ba"},"vehicle_type_id":"4","last_reported":1762888057,"current_range_meters":11200,"station_id":"ce4bhkp2rcd13ifvqgd0","pricing_plan_id":"cebpf4jnsgd1na2vs0mg"},{"bike_id":"1b5be03e-768e-46f0-b152-16af9f81cff1","system_id":"levelo_inurba_marseille","lat":43.309322,"lon":5.401366,"is_reserved":false,"is_disabled":true,"rental_uris":{"android":"levelo://app?vid=1b5be03e-768e-46f0-b152-16af9f81cff1","ios":"levelo://app?vid=1b5be03e-768e-46f0-b152-16af9f81cff1"},"vehicle_type_id":"4","last_reported":1762888057,"current_range_meters":11200,"station_id":"","pricing_plan_id":"cebpf4jnsgd1na2vs0mg"},{"bike_id":"80b08912-5c5c-477a-8ae7-5e4dcb821efd","system_id":"levelo_inurba_marseille","lat":43.29263,"lon":5.38425,"is_reserved":false,"is_disabled":false,"rental_uris":{"android":"levelo://app?vid=80b08912-5c5c-477a-8ae7-5e4dcb821efd","ios":"levelo://app?vid=80b08912-5c5c-477a-8ae7-5e4dcb821efd"},"vehicle_type_id":"4","last_reported":1762888057,"current_range_meters":11200,"station_id":"ce4bh692rcd13ifvqea0","pricing_plan_id":"cebpf4jnsgd1na2vs0mg"},{"bike_id":"3871ebcf-4a28-4b22-beb9-9220e15dd9fe","system_id":"levelo_inurba_marseille","lat":43.28481,"lon":5.48383,"is_reserved":false,"is_disabled":false,"rental_uris":{"android":"levelo://app?vid=3871ebcf-4a28-4b22-beb9-9220e15dd9fe","ios":"levelo://app?vid=3871ebcf-4a28-4b22-beb9-9220e15dd9fe"},"vehicle_type_id":"4","last_reported":1762888057,"current_range_meters":11200,"station_id":"st_d3svhcjqgbts73a3dn0g","pricing_plan_id":"cebpf4jnsgd1na2vs0mg"},{"bike_id":"75026184-39d3-4407-a2f5-f0473b7dfb4b","system_id":"levelo_inurba_marseille","lat":43.29584,"lon":5.38108,"is_reserved":false,"is_disabled":false,"rental_uris":{"android":"levelo://app?vid=75026184-39d3-4407-a2f5-f0473b7dfb4b","ios":"levelo://app?vid=75026184-39d3-4407-a2f5-f0473b7dfb4b"},"vehicle_type_id":"4","last_reported":1762888057,"current_range_meters":11200,"station_id":"ce4bgl12rcd13ifvqbo0","pricing_plan_id":"cebpf4jnsgd1na2vs0mg"},{"bike_id":"63fd1c25-fd22-43cc-9d0f-61b3c7539e5a","system_id":"levelo_inurba_marseille","lat":43.29262,"lon":5.40902,"is_reserved":false,"is_disabled":false,"rental_uris":{"android":"levelo://app?vid=63fd1c25-fd22-43cc-9d0f-61b3c7539e5a","ios":"levelo://app?vid=63fd1c25-fd22-43cc-9d0f-61b3c7539e5a"},"vehicle_type_id":"4","last_reported":1762888057,"current_range_meters":11200,"station_id":"ce4bh192rcd13ifvqdc0","pricing_plan_id":"cebpf4jnsgd1na2vs0mg"},{"bike_id":"b168279c-966e-4f97-8577-f8c06e3e1119","system_id":"levelo_inurba_marseille","lat":43.29265,"lon":5.38441,"is_reserved":false,"is_disabled":false,"rental_uris":{"android":"levelo://app?vid=b168279c-966e-4f97-8577-f8c06e3e1119","ios":"levelo://app?vid=b168279c-966e-4f97-8577-f8c06e3e1119"},"vehicle_type_id":"4","last_reported":1762888057,"current_range_meters":11600,"station_id":"ce4bh692rcd13ifvqea0","pricing_plan_id":"cebpf4jnsgd1na2vs0mg"},{"bike_id":"4a392cd4-0e9e-4acc-9ed4-f14baadd93d7","system_id":"levelo_inurba_marseille","lat":43.32079,"lon":5.36767,"is_reserved":false,"is_disabled":false,"rental_uris":{"android":"levelo://app?vid=4a392cd4-0e9e-4acc-9ed4-f14baadd93d7","ios":"levelo://app?vid=4a392cd4-0e9e-4acc-9ed4-f14baadd93d7"},"vehicle_type_id":"4","last_reported":1762888057,"current_range_meters":11600,"station_id":"ce4bhrh2rcd13ifvqhug","pricing_plan_id":"cebpf4jnsgd1na2vs0mg"},{"bike_id":"5a3b0391-fbd8-4f34-911b-88c6b58a35bd","system_id":"levelo_inurba_marseille","lat":43.2867,"lon":5.3866,"is_reserved":false,"is_disabled":false,"rental_uris":{"android":"levelo://app?vid=5a3b0391-fbd8-4f34-911b-88c6b58a35bd","ios":"levelo://app?vid=5a3b0391-fbd8-4f34-911b-88c6b58a35bd"},"vehicle_type_id":"4","last_reported":1762888057,"current_range_meters":11600,"station_id":"ce4bh492rcd13ifvqdug","pricing_plan_id":"cebpf4jnsgd1na2vs0mg"},{"bike_id":"91ae7ce9-57e1-4e6a-b81b-8a3d59451a0b","system_id":"levelo_inurba_marseille","lat":43.2926,"lon":5.40904,"is_reserved":false,"is_disabled":false,"rental_uris":{"android":"levelo://app?vid=91ae7ce9-57e1-4e6a-b81b-8a3d59451a0b","ios":"levelo://app?vid=91ae7ce9-57e1-4e6a-b81b-8a3d59451a0b"},"vehicle_type_id":"4","last_reported":1762888057,"current_range_meters":11600,"station_id":"ce4bh192rcd13ifvqdc0","pricing_plan_id":"cebpf4jnsgd1na2vs0mg"},{"bike_id":"172a1479-a5a8-4a14-96d6-945fbc77b377","system_id":"levelo_inurba_marseille","lat":43.31986,"lon":5.38141,"is_reserved":false,"is_disabled":false,"rental_uris":{"android":"levelo://app?vid=172a1479-a5a8-4a14-96d6-945fbc77b377","ios":"levelo://app?vid=172a1479-a5a8-4a14-96d6-945fbc77b377"},"vehicle_type_id":"4","last_reported":1762888057,"current_range_meters":11600,"station_id":"ce4bhr12rcd13ifvqhpg","pricing_plan_id":"cebpf4jnsgd1na2vs0mg"},{"bike_id":"f59f8202-57d4-4bc9-8219-f02afc7f8fd3","system_id":"levelo_inurba_marseille","lat":43.29843,"lon":5.36267,"is_reserved":false,"is_disabled":false,"rental_uris":{"android":"levelo://app?vid=f59f8202-57d4-4bc9-8219-f02afc7f8fd3","ios":"levelo://app?vid=f59f8202-57d4-4bc9-8219-f02afc7f8fd3"},"vehicle_type_id":"4","last_reported":1762888057,"current_range_meters":11600,"station_id":"ce4bgpp2rcd13ifvqc3g","pricing_plan_id":"cebpf4jnsgd1na2vs0mg"},{"bike_id":"722f7e0f-46d9-4be9-997c-6a53c83a7527","system_id":"levelo_inurba_marseille","lat":43.28033,"lon":5.36944,"is_reserved":false,"is_disabled":true,"rental_uris":{"android":"levelo://app?vid=722f7e0f-46d9-4be9-997c-6a53c83a7527","ios":"levelo://app?vid=722f7e0f-46d9-4be9-997c-6a53c83a7527"},"vehicle_type_id":"4","last_reported":1762888057,"current_range_meters":11600,"station_id":"ce4bha12rcd13ifvqef0","pricing_plan_id":"cebpf4jnsgd1na2vs0mg"},{"bike_id":"4a8ea99f-b39a-401a-9c8e-0832b530973f","system_id":"levelo_inurba_marseille","lat":43.28449,"lon":5.37526,"is_reserved":false,"is_disabled":false,"rental_uris":{"android":"levelo://app?vid=4a8ea99f-b39a-401a-9c8e-0832b530973f","ios":"levelo://app?vid=4a8ea99f-b39a-401a-9c8e-0832b530973f"},"vehicle_type_id":"4","last_reported":1762888057,"current_range_meters":11600,"station_id":"","pricing_plan_id":"cebpf4jnsgd1na2vs0mg"},{"bike_id":"0aa20523-1e39-4d7a-bc6b-34e299f4afcc","system_id":"levelo_inurba_marseille","lat":43.29608,"lon":5.38102,"is_reserved":false,"is_disabled":false,"rental_uris":{"android":"levelo://app?vid=0aa20523-1e39-4d7a-bc6b-34e299f4afcc","ios":"levelo://app?vid=0aa20523-1e39-4d7a-bc6b-34e299f4afcc"},"vehicle_type_id":"4","last_reported":1762888057,"current_range_meters":11600,"station_id":"ce4bgl12rcd13ifvqbo0","pricing_plan_id":"cebpf4jnsgd1na2vs0mg"},{"bike_id":"41f1d0d1-2345-4150-a22d-cb8ddeab5f7c","system_id":"levelo_inurba_marseille","lat":43.29304,"lon":5.37167,"is_reserved":false,"is_disabled":false,"rental_uris":{"android":"levelo://app?vid=41f1d0d1-2345-4150-a22d-cb8ddeab5f7c","ios":"levelo://app?vid=41f1d0d1-2345-4150-a22d-cb8ddeab5f7c"},"vehicle_type_id":"4","last_reported":1762888057,"current_range_meters":11600,"station_id":"ce4bgh92rcd13ifvqb40","pricing_plan_id":"cebpf4jnsgd1na2vs0mg"},{"bike_id":"36747a50-2956-4552-b2f1-0e3eebcc0f69","system_id":"levelo_inurba_marseille","lat":43.302638,"lon":5.40076,"is_reserved":false,"is_disabled":false,"rental_uris":{"android":"levelo://app?vid=36747a50-2956-4552-b2f1-0e3eebcc0f69","ios":"levelo://app?vid=36747a50-2956-4552-b2f1-0e3eebcc0f69"},"vehicle_type_id":"4","last_reported":1762888057,"current_range_meters":12000,"station_id":"ce4bgvh2rcd13ifvqcs0","pricing_plan_id":"cebpf4jnsgd1na2vs0mg"},{"bike_id":"69bcc9c9-16ef-4b05-a281-a3669c844e4b","system_id":"levelo_inurba_marseille","lat":43.22531,"lon":5.34843,"is_reserved":false,"is_disabled":false,"rental_uris":{"android":"levelo://app?vid=69bcc9c9-16ef-4b05-a281-a3669c844e4b","ios":"levelo://app?vid=69bcc9c9-16ef-4b05-a281-a3669c844e4b"},"vehicle_type_id":"4","last_reported":1762888057,"current_range_meters":12000,"station_id":"","pricing_plan_id":"cebpf4jnsgd1na2vs0mg"},{"bike_id":"60b742ff-1f57-412f-8513-fa8618d609bd","system_id":"levelo_inurba_marseille","lat":43.30759,"lon":5.37636,"is_reserved":false,"is_disabled":false,"rental_uris":{"android":"levelo://app?vid=60b742ff-1f57-412f-8513-fa8618d609bd","ios":"levelo://app?vid=60b742ff-1f57-412f-8513-fa8618d609bd"},"vehicle_type_id":"4","last_reported":1762888057,"current_range_meters":12000,"station_id":"ce4bgv92rcd13ifvqcq0","pricing_plan_id":"cebpf4jnsgd1na2vs0mg"},{"bike_id":"386af895-1321-418d-8249-df7eea5dc0fe","system_id":"levelo_inurba_marseille","lat":43.29275,"lon":5.36851,"is_reserved":false,"is_disabled":false,"rental_uris":{"android":"levelo://app?vid=386af895-1321-418d-8249-df7eea5dc0fe","ios":"levelo://app?vid=386af895-1321-418d-8249-df7eea5dc0fe"},"vehicle_type_id":"4","last_reported":1762888057,"current_range_meters":12000,"station_id":"ce4bhbp2rcd13ifvqesg","pricing_plan_id":"cebpf4jnsgd1na2vs0mg"},{"bike_id":"ac571466-1dc3-4aea-b277-4afec8514b82","system_id":"levelo_inurba_marseille","lat":43.27947,"lon":5.41043,"is_reserved":false,"is_disabled":false,"rental_uris":{"android":"levelo://app?vid=ac571466-1dc3-4aea-b277-4afec8514b82","ios":"levelo://app?vid=ac571466-1dc3-4aea-b277-4afec8514b82"},"vehicle_type_id":"4","last_reported":1762888057,"current_range_meters":12000,"station_id":"ce4bhnp2rcd13ifvqh0g","pricing_plan_id":"cebpf4jnsgd1na2vs0mg"},{"bike_id":"a74deb4a-56eb-4a14-97c8-4dfda49bb83d","system_id":"levelo_inurba_marseille","lat":43.29558,"lon":5.42294,"is_reserved":false,"is_disabled":false,"rental_uris":{"android":"levelo://app?vid=a74deb4a-56eb-4a14-97c8-4dfda49bb83d","ios":"levelo://app?vid=a74deb4a-56eb-4a14-97c8-4dfda49bb83d"},"vehicle_type_id":"4","last_reported":1762888057,"current_range_meters":12000,"station_id":"ce4bhph2rcd13ifvqhdg","pricing_plan_id":"cebpf4jnsgd1na2vs0mg"},{"bike_id":"035e03df-e41b-4cf7-9eb1-51683218cb2e","system_id":"levelo_inurba_marseille","lat":43.295196,"lon":5.393974,"is_reserved":false,"is_disabled":false,"rental_uris":{"android":"levelo://app?vid=035e03df-e41b-4cf7-9eb1-51683218cb2e","ios":"levelo://app?vid=035e03df-e41b-4cf7-9eb1-51683218cb2e"},"vehicle_type_id":"4","last_reported":1762888057,"current_range_meters":12000,"station_id":"ce4bh292rcd13ifvqdf0","pricing_plan_id":"cebpf4jnsgd1na2vs0mg"},{"bike_id":"70dfc295-e02a-4702-9447-def7ca36f61a","system_id":"levelo_inurba_marseille","lat":43.26927,"lon":5.38897,"is_reserved":false,"is_disabled":false,"rental_uris":{"android":"levelo://app?vid=70dfc295-e02a-4702-9447-def7ca36f61a","ios":"levelo://app?vid=70dfc295-e02a-4702-9447-def7ca36f61a"},"vehicle_type_id":"4","last_reported":1762888057,"current_range_meters":12000,"station_id":"ce4bhhh2rcd13ifvqfl0","pricing_plan_id":"cebpf4jnsgd1na2vs0mg"},{"bike_id":"8d12b437-7f9f-4b7e-84c7-86b8eeef65d8","system_id":"levelo_inurba_marseille","lat":43.29564,"lon":5.39948,"is_reserved":false,"is_disabled":false,"rental_uris":{"android":"levelo://app?vid=8d12b437-7f9f-4b7e-84c7-86b8eeef65d8","ios":"levelo://app?vid=8d12b437-7f9f-4b7e-84c7-86b8eeef65d8"},"vehicle_type_id":"4","last_reported":1762888057,"current_range_meters":12000,"station_id":"ce4bh312rcd13ifvqdj0","pricing_plan_id":"cebpf4jnsgd1na2vs0mg"},{"bike_id":"dc9399a6-68ac-4bce-a28c-89dbbb7d0681","system_id":"levelo_inurba_marseille","lat":43.287727,"lon":5.408267,"is_reserved":false,"is_disabled":true,"rental_uris":{"android":"levelo://app?vid=dc9399a6-68ac-4bce-a28c-89dbbb7d0681","ios":"levelo://app?vid=dc9399a6-68ac-4bce-a28c-89dbbb7d0681"},"vehicle_type_id":"4","last_reported":1762888057,"current_range_meters":12000,"station_id":"","pricing_plan_id":"cebpf4jnsgd1na2vs0mg"},{"bike_id":"5a04390a-ad60-4fd6-bcf6-e75b8899a404","system_id":"levelo_inurba_marseille","lat":43.29037,"lon":5.39967,"is_reserved":false,"is_disabled":true,"rental_uris":{"android":"levelo://app?vid=5a04390a-ad60-4fd6-bcf6-e75b8899a404","ios":"levelo://app?vid=5a04390a-ad60-4fd6-bcf6-e75b8899a404"},"vehicle_type_id":"4","last_reported":1762888057,"current_range_meters":12400,"station_id":"ce4bh392rcd13ifvqdm0","pricing_plan_id":"cebpf4jnsgd1na2vs0mg"},{"bike_id":"c90ab13d-c87a-49ed-957b-386103c5f0dc","system_id":"levelo_inurba_marseille","lat":43.29002,"lon":5.35615,"is_reserved":false,"is_disabled":false,"rental_uris":{"android":"levelo://app?vid=c90ab13d-c87a-49ed-957b-386103c5f0dc","ios":"levelo://app?vid=c90ab13d-c87a-49ed-957b-386103c5f0dc"},"vehicle_type_id":"4","last_reported":1762888057,"current_range_meters":12400,"station_id":"ce4bhb92rcd13ifvqen0","pricing_plan_id":"cebpf4jnsgd1na2vs0mg"},{"bike_id":"64fc051b-1ea3-4a88-9faf-81df1156f8e2","system_id":"levelo_inurba_marseille","lat":43.282714,"lon":5.381416,"is_reserved":false,"is_disabled":false,"rental_uris":{"android":"levelo://app?vid=64fc051b-1ea3-4a88-9faf-81df1156f8e2","ios":"levelo://app?vid=64fc051b-1ea3-4a88-9faf-81df1156f8e2"},"vehicle_type_id":"4","last_reported":1762888057,"current_range_meters":12400,"station_id":"ce4bh412rcd13ifvqdr0","pricing_plan_id":"cebpf4jnsgd1na2vs0mg"},{"bike_id":"9585676c-76e5-402e-bb88-17e07a1559b5","system_id":"levelo_inurba_marseille","lat":43.2868,"lon":5.38665,"is_reserved":false,"is_disabled":false,"rental_uris":{"android":"levelo://app?vid=9585676c-76e5-402e-bb88-17e07a1559b5","ios":"levelo://app?vid=9585676c-76e5-402e-bb88-17e07a1559b5"},"vehicle_type_id":"4","last_reported":1762888057,"current_range_meters":12400,"station_id":"ce4bh492rcd13ifvqdug","pricing_plan_id":"cebpf4jnsgd1na2vs0mg"},{"bike_id":"a4b2eea4-2861-48eb-9220-4eb2eb8b93a8","system_id":"levelo_inurba_marseille","lat":43.31219,"lon":5.36908,"is_reserved":false,"is_disabled":false,"rental_uris":{"android":"levelo://app?vid=a4b2eea4-2861-48eb-9220-4eb2eb8b93a8","ios":"levelo://app?vid=a4b2eea4-2861-48eb-9220-4eb2eb8b93a8"},"vehicle_type_id":"4","last_reported":1762888057,"current_range_meters":12400,"station_id":"ce4bgl92rcd13ifvqbq0","pricing_plan_id":"cebpf4jnsgd1na2vs0mg"},{"bike_id":"7f7c8159-51ec-48b6-b180-2b22a5672e2c","system_id":"levelo_inurba_marseille","lat":43.29525,"lon":5.37499,"is_reserved":false,"is_disabled":false,"rental_uris":{"android":"levelo://app?vid=7f7c8159-51ec-48b6-b180-2b22a5672e2c","ios":"levelo://app?vid=7f7c8159-51ec-48b6-b180-2b22a5672e2c"},"vehicle_type_id":"4","last_reported":1762888057,"current_range_meters":12800,"station_id":"ce4bgkp2rcd13ifvqbmg","pricing_plan_id":"cebpf4jnsgd1na2vs0mg"},{"bike_id":"8ab7d9d8-8f5f-4bbd-8cfb-a5e19894ebbe","system_id":"levelo_inurba_marseille","lat":43.292787,"lon":5.401169,"is_reserved":false,"is_disabled":false,"rental_uris":{"android":"levelo://app?vid=8ab7d9d8-8f5f-4bbd-8cfb-a5e19894ebbe","ios":"levelo://app?vid=8ab7d9d8-8f5f-4bbd-8cfb-a5e19894ebbe"},"vehicle_type_id":"4","last_reported":1762888057,"current_range_meters":12800,"station_id":"ce4bh312rcd13ifvqdk0","pricing_plan_id":"cebpf4jnsgd1na2vs0mg"},{"bike_id":"a4fa6491-252e-4621-9e69-e4232817646e","system_id":"levelo_inurba_marseille","lat":43.29608,"lon":5.38096,"is_reserved":false,"is_disabled":false,"rental_uris":{"android":"levelo://app?vid=a4fa6491-252e-4621-9e69-e4232817646e","ios":"levelo://app?vid=a4fa6491-252e-4621-9e69-e4232817646e"},"vehicle_type_id":"4","last_reported":1762888057,"current_range_meters":12800,"station_id":"ce4bgl12rcd13ifvqbo0","pricing_plan_id":"cebpf4jnsgd1na2vs0mg"},{"bike_id":"a1fde1f4-1860-4e49-88db-aacdf02b72c8","system_id":"levelo_inurba_marseille","lat":43.25105,"lon":5.40331,"is_reserved":false,"is_disabled":true,"rental_uris":{"android":"levelo://app?vid=a1fde1f4-1860-4e49-88db-aacdf02b72c8","ios":"levelo://app?vid=a1fde1f4-1860-4e49-88db-aacdf02b72c8"},"vehicle_type_id":"4","last_reported":1762888057,"current_range_meters":12800,"station_id":"ce4bhlh2rcd13ifvqgig","pricing_plan_id":"cebpf4jnsgd1na2vs0mg"},{"bike_id":"28e36cd3-4665-4002-a55e-04a45eaa3992","system_id":"levelo_inurba_marseille","lat":43.33159,"lon":5.37686,"is_reserved":false,"is_disabled":false,"rental_uris":{"android":"levelo://app?vid=28e36cd3-4665-4002-a55e-04a45eaa3992","ios":"levelo://app?vid=28e36cd3-4665-4002-a55e-04a45eaa3992"},"vehicle_type_id":"4","last_reported":1762888057,"current_range_meters":12800,"station_id":"st_d46cu089ee8s73dldbu0","pricing_plan_id":"cebpf4jnsgd1na2vs0mg"},{"bike_id":"b259621f-2fe6-4b30-92e0-2292fee32f1f","system_id":"levelo_inurba_marseille","lat":43.28038,"lon":5.36944,"is_reserved":false,"is_disabled":true,"rental_uris":{"android":"levelo://app?vid=b259621f-2fe6-4b30-92e0-2292fee32f1f","ios":"levelo://app?vid=b259621f-2fe6-4b30-92e0-2292fee32f1f"},"vehicle_type_id":"4","last_reported":1762888057,"current_range_meters":12800,"station_id":"ce4bha12rcd13ifvqef0","pricing_plan_id":"cebpf4jnsgd1na2vs0mg"},{"bike_id":"8c4f22e8-8f17-4ae5-95d0-b42925f35d5e","system_id":"levelo_inurba_marseille","lat":43.28482,"lon":5.48401,"is_reserved":false,"is_disabled":false,"rental_uris":{"android":"levelo://app?vid=8c4f22e8-8f17-4ae5-95d0-b42925f35d5e","ios":"levelo://app?vid=8c4f22e8-8f17-4ae5-95d0-b42925f35d5e"},"vehicle_type_id":"4","last_reported":1762888057,"current_range_meters":12800,"station_id":"","pricing_plan_id":"cebpf4jnsgd1na2vs0mg"},{"bike_id":"237ff6af-de05-441a-92b7-90898f788582","system_id":"levelo_inurba_marseille","lat":43.27916,"lon":5.39576,"is_reserved":false,"is_disabled":false,"rental_uris":{"android":"levelo://app?vid=237ff6af-de05-441a-92b7-90898f788582","ios":"levelo://app?vid=237ff6af-de05-441a-92b7-90898f788582"},"vehicle_type_id":"4","last_reported":1762888057,"current_range_meters":12800,"station_id":"ce4bhf92rcd13ifvqf40","pricing_plan_id":"cebpf4jnsgd1na2vs0mg"},{"bike_id":"63a93af9-98d9-4fd8-823e-565cc55bf0a6","system_id":"levelo_inurba_marseille","lat":43.29259,"lon":5.37615,"is_reserved":false,"is_disabled":false,"rental_uris":{"android":"levelo://app?vid=63a93af9-98d9-4fd8-823e-565cc55bf0a6","ios":"levelo://app?vid=63a93af9-98d9-4fd8-823e-565cc55bf0a6"},"vehicle_type_id":"4","last_reported":1762888057,"current_range_meters":13600,"station_id":"ce4bgi12rcd13ifvqb80","pricing_plan_id":"cebpf4jnsgd1na2vs0mg"},{"bike_id":"dff6bcf3-0727-43ac-94da-c6ce1530cad3","system_id":"levelo_inurba_marseille","lat":43.29351,"lon":5.3774,"is_reserved":false,"is_disabled":false,"rental_uris":{"android":"levelo://app?vid=dff6bcf3-0727-43ac-94da-c6ce1530cad3","ios":"levelo://app?vid=dff6bcf3-0727-43ac-94da-c6ce1530cad3"},"vehicle_type_id":"4","last_reported":1762888057,"current_range_meters":13600,"station_id":"","pricing_plan_id":"cebpf4jnsgd1na2vs0mg"},{"bike_id":"fd701a75-4781-402a-904f-db4a38b6da23","system_id":"levelo_inurba_marseille","lat":43.29298,"lon":5.37452,"is_reserved":false,"is_disabled":false,"rental_uris":{"android":"levelo://app?vid=fd701a75-4781-402a-904f-db4a38b6da23","ios":"levelo://app?vid=fd701a75-4781-402a-904f-db4a38b6da23"},"vehicle_type_id":"4","last_reported":1762888057,"current_range_meters":13600,"station_id":"ce4bgi12rcd13ifvqb70","pricing_plan_id":"cebpf4jnsgd1na2vs0mg"},{"bike_id":"76fc4c63-a0f2-44a8-a895-ca7619257281","system_id":"levelo_inurba_marseille","lat":43.29601,"lon":5.38089,"is_reserved":false,"is_disabled":false,"rental_uris":{"android":"levelo://app?vid=76fc4c63-a0f2-44a8-a895-ca7619257281","ios":"levelo://app?vid=76fc4c63-a0f2-44a8-a895-ca7619257281"},"vehicle_type_id":"4","last_reported":1762888057,"current_range_meters":13600,"station_id":"ce4bgl12rcd13ifvqbo0","pricing_plan_id":"cebpf4jnsgd1na2vs0mg"},{"bike_id":"bd88dc69-23f7-463d-bc8f-9e98138d09c4","system_id":"levelo_inurba_marseille","lat":43.30203,"lon":5.39462,"is_reserved":false,"is_disabled":false,"rental_uris":{"android":"levelo://app?vid=bd88dc69-23f7-463d-bc8f-9e98138d09c4","ios":"levelo://app?vid=bd88dc69-23f7-463d-bc8f-9e98138d09c4"},"vehicle_type_id":"4","last_reported":1762888057,"current_range_meters":13600,"station_id":"ce4bh0p2rcd13ifvqd70","pricing_plan_id":"cebpf4jnsgd1na2vs0mg"},{"bike_id":"82b12585-ffa7-4c88-b102-3fe32379f936","system_id":"levelo_inurba_marseille","lat":43.292908,"lon":5.374508,"is_reserved":false,"is_disabled":false,"rental_uris":{"android":"levelo://app?vid=82b12585-ffa7-4c88-b102-3fe32379f936","ios":"levelo://app?vid=82b12585-ffa7-4c88-b102-3fe32379f936"},"vehicle_type_id":"4","last_reported":1762888057,"current_range_meters":13600,"station_id":"","pricing_plan_id":"cebpf4jnsgd1na2vs0mg"},{"bike_id":"84aade2c-4b39-4bce-814f-cfa3d6ed46f7","system_id":"levelo_inurba_marseille","lat":43.28471,"lon":5.48388,"is_reserved":false,"is_disabled":false,"rental_uris":{"android":"levelo://app?vid=84aade2c-4b39-4bce-814f-cfa3d6ed46f7","ios":"levelo://app?vid=84aade2c-4b39-4bce-814f-cfa3d6ed46f7"},"vehicle_type_id":"4","last_reported":1762888057,"current_range_meters":13600,"station_id":"st_d3svhcjqgbts73a3dn0g","pricing_plan_id":"cebpf4jnsgd1na2vs0mg"},{"bike_id":"2a2eaddf-734b-4280-b7dd-77194534aa95","system_id":"levelo_inurba_marseille","lat":43.29256,"lon":5.3844,"is_reserved":false,"is_disabled":false,"rental_uris":{"android":"levelo://app?vid=2a2eaddf-734b-4280-b7dd-77194534aa95","ios":"levelo://app?vid=2a2eaddf-734b-4280-b7dd-77194534aa95"},"vehicle_type_id":"4","last_reported":1762888057,"current_range_meters":13600,"station_id":"ce4bh692rcd13ifvqea0","pricing_plan_id":"cebpf4jnsgd1na2vs0mg"},{"bike_id":"c3076cb8-88a2-418d-a899-e2c00e0a4123","system_id":"levelo_inurba_marseille","lat":43.26556,"lon":5.40313,"is_reserved":false,"is_disabled":false,"rental_uris":{"android":"levelo://app?vid=c3076cb8-88a2-418d-a899-e2c00e0a4123","ios":"levelo://app?vid=c3076cb8-88a2-418d-a899-e2c00e0a4123"},"vehicle_type_id":"4","last_reported":1762888057,"current_range_meters":14000,"station_id":"ce4bhmp2rcd13ifvqgng","pricing_plan_id":"cebpf4jnsgd1na2vs0mg"},{"bike_id":"6dc99a1c-d50b-441c-98da-f192df05d562","system_id":"levelo_inurba_marseille","lat":43.28572,"lon":5.39491,"is_reserved":false,"is_disabled":false,"rental_uris":{"android":"levelo://app?vid=6dc99a1c-d50b-441c-98da-f192df05d562","ios":"levelo://app?vid=6dc99a1c-d50b-441c-98da-f192df05d562"},"vehicle_type_id":"4","last_reported":1762888057,"current_range_meters":14000,"station_id":"ce4bh292rcd13ifvqdg0","pricing_plan_id":"cebpf4jnsgd1na2vs0mg"},{"bike_id":"c3d54e2e-34c7-4083-996e-d27e15abb20b","system_id":"levelo_inurba_marseille","lat":43.31691,"lon":5.40456,"is_reserved":false,"is_disabled":false,"rental_uris":{"android":"levelo://app?vid=c3d54e2e-34c7-4083-996e-d27e15abb20b","ios":"levelo://app?vid=c3d54e2e-34c7-4083-996e-d27e15abb20b"},"vehicle_type_id":"4","last_reported":1762888057,"current_range_meters":14000,"station_id":"ce4bh012rcd13ifvqd00","pricing_plan_id":"cebpf4jnsgd1na2vs0mg"},{"bike_id":"0f2e167a-7d89-4055-85a0-53269b85f1f4","system_id":"levelo_inurba_marseille","lat":43.28116,"lon":5.42598,"is_reserved":false,"is_disabled":false,"rental_uris":{"android":"levelo://app?vid=0f2e167a-7d89-4055-85a0-53269b85f1f4","ios":"levelo://app?vid=0f2e167a-7d89-4055-85a0-53269b85f1f4"},"vehicle_type_id":"4","last_reported":1762888057,"current_range_meters":14000,"station_id":"ce4bhnh2rcd13ifvqgug","pricing_plan_id":"cebpf4jnsgd1na2vs0mg"},{"bike_id":"a14cb38d-bc70-43b5-bc55-80a8e2b146cf","system_id":"levelo_inurba_marseille","lat":43.33157,"lon":5.37682,"is_reserved":false,"is_disabled":false,"rental_uris":{"android":"levelo://app?vid=a14cb38d-bc70-43b5-bc55-80a8e2b146cf","ios":"levelo://app?vid=a14cb38d-bc70-43b5-bc55-80a8e2b146cf"},"vehicle_type_id":"4","last_reported":1762888057,"current_range_meters":14000,"station_id":"st_d46cu089ee8s73dldbu0","pricing_plan_id":"cebpf4jnsgd1na2vs0mg"},{"bike_id":"c8f149f4-39bd-4c20-83b5-c943301a4178","system_id":"levelo_inurba_marseille","lat":43.31714,"lon":5.37737,"is_reserved":false,"is_disabled":false,"rental_uris":{"android":"levelo://app?vid=c8f149f4-39bd-4c20-83b5-c943301a4178","ios":"levelo://app?vid=c8f149f4-39bd-4c20-83b5-c943301a4178"},"vehicle_type_id":"4","last_reported":1762888057,"current_range_meters":14400,"station_id":"ce4bgth2rcd13ifvqch0","pricing_plan_id":"cebpf4jnsgd1na2vs0mg"},{"bike_id":"816ee6d1-f26e-4bc1-b448-91a59f9d6a64","system_id":"levelo_inurba_marseille","lat":43.29526,"lon":5.39408,"is_reserved":false,"is_disabled":false,"rental_uris":{"android":"levelo://app?vid=816ee6d1-f26e-4bc1-b448-91a59f9d6a64","ios":"levelo://app?vid=816ee6d1-f26e-4bc1-b448-91a59f9d6a64"},"vehicle_type_id":"4","last_reported":1762888057,"current_range_meters":14400,"station_id":"ce4bh292rcd13ifvqdf0","pricing_plan_id":"cebpf4jnsgd1na2vs0mg"},{"bike_id":"b170fb66-dbdc-4121-9673-2c815fcea0c6","system_id":"levelo_inurba_marseille","lat":43.29261,"lon":5.38442,"is_reserved":false,"is_disabled":false,"rental_uris":{"android":"levelo://app?vid=b170fb66-dbdc-4121-9673-2c815fcea0c6","ios":"levelo://app?vid=b170fb66-dbdc-4121-9673-2c815fcea0c6"},"vehicle_type_id":"4","last_reported":1762888057,"current_range_meters":14400,"station_id":"ce4bh692rcd13ifvqea0","pricing_plan_id":"cebpf4jnsgd1na2vs0mg"},{"bike_id":"58be3ff3-3206-4b8f-bf9f-31d2a07e9ad7","system_id":"levelo_inurba_marseille","lat":43.29592,"lon":5.38088,"is_reserved":false,"is_disabled":false,"rental_uris":{"android":"levelo://app?vid=58be3ff3-3206-4b8f-bf9f-31d2a07e9ad7","ios":"levelo://app?vid=58be3ff3-3206-4b8f-bf9f-31d2a07e9ad7"},"vehicle_type_id":"4","last_reported":1762888057,"current_range_meters":14400,"station_id":"ce4bgl12rcd13ifvqbo0","pricing_plan_id":"cebpf4jnsgd1na2vs0mg"},{"bike_id":"a38b499d-f66f-4f43-bcf5-7ca9af21ec79","system_id":"levelo_inurba_marseille","lat":43.2816,"lon":5.42647,"is_reserved":false,"is_disabled":false,"rental_uris":{"android":"levelo://app?vid=a38b499d-f66f-4f43-bcf5-7ca9af21ec79","ios":"levelo://app?vid=a38b499d-f66f-4f43-bcf5-7ca9af21ec79"},"vehicle_type_id":"4","last_reported":1762888057,"current_range_meters":14400,"station_id":"ce4bhnh2rcd13ifvqgug","pricing_plan_id":"cebpf4jnsgd1na2vs0mg"},{"bike_id":"55b7e291-072b-4042-a272-a038a9f41f7f","system_id":"levelo_inurba_marseille","lat":43.27941,"lon":5.41041,"is_reserved":false,"is_disabled":false,"rental_uris":{"android":"levelo://app?vid=55b7e291-072b-4042-a272-a038a9f41f7f","ios":"levelo://app?vid=55b7e291-072b-4042-a272-a038a9f41f7f"},"vehicle_type_id":"4","last_reported":1762888057,"current_range_meters":14800,"station_id":"ce4bhnp2rcd13ifvqh0g","pricing_plan_id":"cebpf4jnsgd1na2vs0mg"},{"bike_id":"fc25c398-a53b-49cc-bdb7-741db718980c","system_id":"levelo_inurba_marseille","lat":43.284383,"lon":5.39204,"is_reserved":false,"is_disabled":false,"rental_uris":{"android":"levelo://app?vid=fc25c398-a53b-49cc-bdb7-741db718980c","ios":"levelo://app?vid=fc25c398-a53b-49cc-bdb7-741db718980c"},"vehicle_type_id":"4","last_reported":1762888057,"current_range_meters":14800,"station_id":"ce4bhoh2rcd13ifvqh5g","pricing_plan_id":"cebpf4jnsgd1na2vs0mg"},{"bike_id":"c47023ab-2905-4a00-af93-ffd0b768cdc9","system_id":"levelo_inurba_marseille","lat":43.28857,"lon":5.42537,"is_reserved":false,"is_disabled":false,"rental_uris":{"android":"levelo://app?vid=c47023ab-2905-4a00-af93-ffd0b768cdc9","ios":"levelo://app?vid=c47023ab-2905-4a00-af93-ffd0b768cdc9"},"vehicle_type_id":"4","last_reported":1762888057,"current_range_meters":14800,"station_id":"st_d3b462108ojc7389ooeg","pricing_plan_id":"cebpf4jnsgd1na2vs0mg"},{"bike_id":"32162483-923a-4e23-8738-bf029245f9f0","system_id":"levelo_inurba_marseille","lat":43.28466,"lon":5.38446,"is_reserved":false,"is_disabled":true,"rental_uris":{"android":"levelo://app?vid=32162483-923a-4e23-8738-bf029245f9f0","ios":"levelo://app?vid=32162483-923a-4e23-8738-bf029245f9f0"},"vehicle_type_id":"4","last_reported":1762888057,"current_range_meters":14800,"station_id":"ce4bh512rcd13ifvqe3g","pricing_plan_id":"cebpf4jnsgd1na2vs0mg"},{"bike_id":"fb43374f-b98c-42a2-89b3-428fe1015a42","system_id":"levelo_inurba_marseille","lat":43.26937,"lon":5.38919,"is_reserved":false,"is_disabled":false,"rental_uris":{"android":"levelo://app?vid=fb43374f-b98c-42a2-89b3-428fe1015a42","ios":"levelo://app?vid=fb43374f-b98c-42a2-89b3-428fe1015a42"},"vehicle_type_id":"4","last_reported":1762888057,"current_range_meters":14800,"station_id":"ce4bhhh2rcd13ifvqfl0","pricing_plan_id":"cebpf4jnsgd1na2vs0mg"},{"bike_id":"71216598-6b3d-432d-8b4c-e2360729d8a2","system_id":"levelo_inurba_marseille","lat":43.29802,"lon":5.40392,"is_reserved":false,"is_disabled":false,"rental_uris":{"android":"levelo://app?vid=71216598-6b3d-432d-8b4c-e2360729d8a2","ios":"levelo://app?vid=71216598-6b3d-432d-8b4c-e2360729d8a2"},"vehicle_type_id":"4","last_reported":1762888057,"current_range_meters":14800,"station_id":"ce4bh112rcd13ifvqd90","pricing_plan_id":"cebpf4jnsgd1na2vs0mg"},{"bike_id":"14c4c79d-54a2-43ff-b01b-d18f58077d1e","system_id":"levelo_inurba_marseille","lat":43.285998,"lon":5.350196,"is_reserved":false,"is_disabled":false,"rental_uris":{"android":"levelo://app?vid=14c4c79d-54a2-43ff-b01b-d18f58077d1e","ios":"levelo://app?vid=14c4c79d-54a2-43ff-b01b-d18f58077d1e"},"vehicle_type_id":"4","last_reported":1762888057,"current_range_meters":15200,"station_id":"","pricing_plan_id":"cebpf4jnsgd1na2vs0mg"},{"bike_id":"f09b69fd-4220-4b51-8365-9a85828617f1","system_id":"levelo_inurba_marseille","lat":43.330268,"lon":5.390397,"is_reserved":false,"is_disabled":false,"rental_uris":{"android":"levelo://app?vid=f09b69fd-4220-4b51-8365-9a85828617f1","ios":"levelo://app?vid=f09b69fd-4220-4b51-8365-9a85828617f1"},"vehicle_type_id":"4","last_reported":1762888057,"current_range_meters":15200,"station_id":"ce4bhr92rcd13ifvqhrg","pricing_plan_id":"cebpf4jnsgd1na2vs0mg"},{"bike_id":"e13b78db-2231-48a0-b9e0-a153f32a43f4","system_id":"levelo_inurba_marseille","lat":43.230521,"lon":5.354955,"is_reserved":false,"is_disabled":false,"rental_uris":{"android":"levelo://app?vid=e13b78db-2231-48a0-b9e0-a153f32a43f4","ios":"levelo://app?vid=e13b78db-2231-48a0-b9e0-a153f32a43f4"},"vehicle_type_id":"4","last_reported":1762888057,"current_range_meters":15200,"station_id":"cpo3342slgdg3j2ifvpg","pricing_plan_id":"cebpf4jnsgd1na2vs0mg"},{"bike_id":"3a522933-0cd9-497a-a1e4-2a52a0872253","system_id":"levelo_inurba_marseille","lat":43.29527,"lon":5.38543,"is_reserved":false,"is_disabled":false,"rental_uris":{"android":"levelo://app?vid=3a522933-0cd9-497a-a1e4-2a52a0872253","ios":"levelo://app?vid=3a522933-0cd9-497a-a1e4-2a52a0872253"},"vehicle_type_id":"4","last_reported":1762888057,"current_range_meters":15200,"station_id":"ce4bgih2rcd13ifvqba0","pricing_plan_id":"cebpf4jnsgd1na2vs0mg"},{"bike_id":"3b15451b-9ca4-4b75-9fab-bb81fed744ea","system_id":"levelo_inurba_marseille","lat":43.30299,"lon":5.39203,"is_reserved":false,"is_disabled":true,"rental_uris":{"android":"levelo://app?vid=3b15451b-9ca4-4b75-9fab-bb81fed744ea","ios":"levelo://app?vid=3b15451b-9ca4-4b75-9fab-bb81fed744ea"},"vehicle_type_id":"4","last_reported":1762888057,"current_range_meters":15200,"station_id":"ce4bgkh2rcd13ifvqbk0","pricing_plan_id":"cebpf4jnsgd1na2vs0mg"},{"bike_id":"43599706-aeab-41b2-859f-99807479547f","system_id":"levelo_inurba_marseille","lat":43.25328,"lon":5.42171,"is_reserved":false,"is_disabled":false,"rental_uris":{"android":"levelo://app?vid=43599706-aeab-41b2-859f-99807479547f","ios":"levelo://app?vid=43599706-aeab-41b2-859f-99807479547f"},"vehicle_type_id":"4","last_reported":1762888057,"current_range_meters":15200,"station_id":"st_d2m65c5bi1j21697t3ng","pricing_plan_id":"cebpf4jnsgd1na2vs0mg"},{"bike_id":"cb7a5799-c024-4519-bb5c-6f2896731a81","system_id":"levelo_inurba_marseille","lat":43.33161,"lon":5.37703,"is_reserved":false,"is_disabled":false,"rental_uris":{"android":"levelo://app?vid=cb7a5799-c024-4519-bb5c-6f2896731a81","ios":"levelo://app?vid=cb7a5799-c024-4519-bb5c-6f2896731a81"},"vehicle_type_id":"4","last_reported":1762888057,"current_range_meters":15200,"station_id":"st_d46cu089ee8s73dldbu0","pricing_plan_id":"cebpf4jnsgd1na2vs0mg"},{"bike_id":"fd388d6d-dae2-4858-8784-3c7b71f20251","system_id":"levelo_inurba_marseille","lat":43.23183,"lon":5.35521,"is_reserved":false,"is_disabled":false,"rental_uris":{"android":"levelo://app?vid=fd388d6d-dae2-4858-8784-3c7b71f20251","ios":"levelo://app?vid=fd388d6d-dae2-4858-8784-3c7b71f20251"},"vehicle_type_id":"4","last_reported":1762888057,"current_range_meters":15200,"station_id":"ce4bhu92rcd13ifvqi70","pricing_plan_id":"cebpf4jnsgd1na2vs0mg"},{"bike_id":"50b661f0-112f-4780-95bd-167a8c61a238","system_id":"levelo_inurba_marseille","lat":43.211956,"lon":5.350777,"is_reserved":false,"is_disabled":true,"rental_uris":{"android":"levelo://app?vid=50b661f0-112f-4780-95bd-167a8c61a238","ios":"levelo://app?vid=50b661f0-112f-4780-95bd-167a8c61a238"},"vehicle_type_id":"4","last_reported":1762888057,"current_range_meters":15200,"station_id":"st_cvj6sg6p6f1abm77japg","pricing_plan_id":"cebpf4jnsgd1na2vs0mg"},{"bike_id":"807fb4e0-9985-453d-9d5c-6127e388f605","system_id":"levelo_inurba_marseille","lat":43.26574,"lon":5.39002,"is_reserved":false,"is_disabled":false,"rental_uris":{"android":"levelo://app?vid=807fb4e0-9985-453d-9d5c-6127e388f605","ios":"levelo://app?vid=807fb4e0-9985-453d-9d5c-6127e388f605"},"vehicle_type_id":"4","last_reported":1762888057,"current_range_meters":16000,"station_id":"ce4bhe12rcd13ifvqf30","pricing_plan_id":"cebpf4jnsgd1na2vs0mg"},{"bike_id":"fc629a5e-2d0d-4d87-a7e6-1d3fb489425b","system_id":"levelo_inurba_marseille","lat":43.27555,"lon":5.38411,"is_reserved":false,"is_disabled":false,"rental_uris":{"android":"levelo://app?vid=fc629a5e-2d0d-4d87-a7e6-1d3fb489425b","ios":"levelo://app?vid=fc629a5e-2d0d-4d87-a7e6-1d3fb489425b"},"vehicle_type_id":"4","last_reported":1762888057,"current_range_meters":16000,"station_id":"ce4bhh92rcd13ifvqfi0","pricing_plan_id":"cebpf4jnsgd1na2vs0mg"},{"bike_id":"0f91c4cd-ea5a-42f8-9272-beafe4513254","system_id":"levelo_inurba_marseille","lat":43.29528,"lon":5.38544,"is_reserved":false,"is_disabled":false,"rental_uris":{"android":"levelo://app?vid=0f91c4cd-ea5a-42f8-9272-beafe4513254","ios":"levelo://app?vid=0f91c4cd-ea5a-42f8-9272-beafe4513254"},"vehicle_type_id":"4","last_reported":1762888057,"current_range_meters":16000,"station_id":"ce4bgih2rcd13ifvqba0","pricing_plan_id":"cebpf4jnsgd1na2vs0mg"},{"bike_id":"f0413c71-e0c3-427b-98cb-cdf950c219e3","system_id":"levelo_inurba_marseille","lat":43.31004,"lon":5.4007,"is_reserved":false,"is_disabled":false,"rental_uris":{"android":"levelo://app?vid=f0413c71-e0c3-427b-98cb-cdf950c219e3","ios":"levelo://app?vid=f0413c71-e0c3-427b-98cb-cdf950c219e3"},"vehicle_type_id":"4","last_reported":1762888057,"current_range_meters":16000,"station_id":"","pricing_plan_id":"cebpf4jnsgd1na2vs0mg"},{"bike_id":"f4bcf42f-af49-491f-9ba3-ce6167699527","system_id":"levelo_inurba_marseille","lat":43.231939,"lon":5.35552,"is_reserved":false,"is_disabled":false,"rental_uris":{"android":"levelo://app?vid=f4bcf42f-af49-491f-9ba3-ce6167699527","ios":"levelo://app?vid=f4bcf42f-af49-491f-9ba3-ce6167699527"},"vehicle_type_id":"4","last_reported":1762888057,"current_range_meters":16000,"station_id":"ce4bhu92rcd13ifvqi70","pricing_plan_id":"cebpf4jnsgd1na2vs0mg"},{"bike_id":"daef7724-a87b-4c19-a8cb-ec249ecd7336","system_id":"levelo_inurba_marseille","lat":43.268061,"lon":5.394189,"is_reserved":false,"is_disabled":false,"rental_uris":{"android":"levelo://app?vid=daef7724-a87b-4c19-a8cb-ec249ecd7336","ios":"levelo://app?vid=daef7724-a87b-4c19-a8cb-ec249ecd7336"},"vehicle_type_id":"4","last_reported":1762888057,"current_range_meters":16000,"station_id":"ce4bhh12rcd13ifvqfg0","pricing_plan_id":"cebpf4jnsgd1na2vs0mg"},{"bike_id":"90b7b1ac-129d-4f5e-9e36-1417be0b1559","system_id":"levelo_inurba_marseille","lat":43.30378,"lon":5.4248,"is_reserved":false,"is_disabled":true,"rental_uris":{"android":"levelo://app?vid=90b7b1ac-129d-4f5e-9e36-1417be0b1559","ios":"levelo://app?vid=90b7b1ac-129d-4f5e-9e36-1417be0b1559"},"vehicle_type_id":"4","last_reported":1762888057,"current_range_meters":16000,"station_id":"ce4bhoh2rcd13ifvqh6g","pricing_plan_id":"cebpf4jnsgd1na2vs0mg"},{"bike_id":"c31c777a-98fe-41ff-97ce-d6c4cffecca1","system_id":"levelo_inurba_marseille","lat":43.298214,"lon":5.382794,"is_reserved":false,"is_disabled":false,"rental_uris":{"android":"levelo://app?vid=c31c777a-98fe-41ff-97ce-d6c4cffecca1","ios":"levelo://app?vid=c31c777a-98fe-41ff-97ce-d6c4cffecca1"},"vehicle_type_id":"4","last_reported":1762888057,"current_range_meters":16000,"station_id":"","pricing_plan_id":"cebpf4jnsgd1na2vs0mg"},{"bike_id":"7853a813-0949-48bc-9da8-6f66b0f8768a","system_id":"levelo_inurba_marseille","lat":43.24422,"lon":5.37096,"is_reserved":false,"is_disabled":true,"rental_uris":{"android":"levelo://app?vid=7853a813-0949-48bc-9da8-6f66b0f8768a","ios":"levelo://app?vid=7853a813-0949-48bc-9da8-6f66b0f8768a"},"vehicle_type_id":"4","last_reported":1762888057,"current_range_meters":16000,"station_id":"ce4bhhh2rcd13ifvqfk0","pricing_plan_id":"cebpf4jnsgd1na2vs0mg"},{"bike_id":"5a47a0c1-0d30-4859-818d-6463601bcea6","system_id":"levelo_inurba_marseille","lat":43.28667,"lon":5.38658,"is_reserved":false,"is_disabled":false,"rental_uris":{"android":"levelo://app?vid=5a47a0c1-0d30-4859-818d-6463601bcea6","ios":"levelo://app?vid=5a47a0c1-0d30-4859-818d-6463601bcea6"},"vehicle_type_id":"4","last_reported":1762888057,"current_range_meters":16400,"station_id":"ce4bh492rcd13ifvqdug","pricing_plan_id":"cebpf4jnsgd1na2vs0mg"},{"bike_id":"12bf30e2-6c0d-4d08-b405-94cc0e98c464","system_id":"levelo_inurba_marseille","lat":43.27998,"lon":5.40005,"is_reserved":false,"is_disabled":false,"rental_uris":{"android":"levelo://app?vid=12bf30e2-6c0d-4d08-b405-94cc0e98c464","ios":"levelo://app?vid=12bf30e2-6c0d-4d08-b405-94cc0e98c464"},"vehicle_type_id":"4","last_reported":1762888057,"current_range_meters":16400,"station_id":"ce4bho92rcd13ifvqh4g","pricing_plan_id":"cebpf4jnsgd1na2vs0mg"},{"bike_id":"df92a55a-9e5e-44d7-9639-61acc8cd2f32","system_id":"levelo_inurba_marseille","lat":43.27918,"lon":5.39583,"is_reserved":false,"is_disabled":false,"rental_uris":{"android":"levelo://app?vid=df92a55a-9e5e-44d7-9639-61acc8cd2f32","ios":"levelo://app?vid=df92a55a-9e5e-44d7-9639-61acc8cd2f32"},"vehicle_type_id":"4","last_reported":1762888057,"current_range_meters":16400,"station_id":"ce4bhf92rcd13ifvqf40","pricing_plan_id":"cebpf4jnsgd1na2vs0mg"},{"bike_id":"9076ae51-9410-4c1b-9986-f30d66fd9259","system_id":"levelo_inurba_marseille","lat":43.23192,"lon":5.35557,"is_reserved":false,"is_disabled":false,"rental_uris":{"android":"levelo://app?vid=9076ae51-9410-4c1b-9986-f30d66fd9259","ios":"levelo://app?vid=9076ae51-9410-4c1b-9986-f30d66fd9259"},"vehicle_type_id":"4","last_reported":1762888057,"current_range_meters":16400,"station_id":"ce4bhu92rcd13ifvqi70","pricing_plan_id":"cebpf4jnsgd1na2vs0mg"},{"bike_id":"df3cfee6-7493-4255-9f42-39c00be42c13","system_id":"levelo_inurba_marseille","lat":43.29761,"lon":5.37649,"is_reserved":false,"is_disabled":false,"rental_uris":{"android":"levelo://app?vid=df3cfee6-7493-4255-9f42-39c00be42c13","ios":"levelo://app?vid=df3cfee6-7493-4255-9f42-39c00be42c13"},"vehicle_type_id":"4","last_reported":1762888057,"current_range_meters":16400,"station_id":"","pricing_plan_id":"cebpf4jnsgd1na2vs0mg"},{"bike_id":"16718b80-3142-4147-b2de-503b0264b7c2","system_id":"levelo_inurba_marseille","lat":43.29569,"lon":5.37516,"is_reserved":false,"is_disabled":false,"rental_uris":{"android":"levelo://app?vid=16718b80-3142-4147-b2de-503b0264b7c2","ios":"levelo://app?vid=16718b80-3142-4147-b2de-503b0264b7c2"},"vehicle_type_id":"4","last_reported":1762888057,"current_range_meters":16400,"station_id":"ce4bgh92rcd13ifvqb50","pricing_plan_id":"cebpf4jnsgd1na2vs0mg"},{"bike_id":"558d6336-8c01-4b7e-9c90-98f020bc4f34","system_id":"levelo_inurba_marseille","lat":43.31889,"lon":5.40737,"is_reserved":false,"is_disabled":false,"rental_uris":{"android":"levelo://app?vid=558d6336-8c01-4b7e-9c90-98f020bc4f34","ios":"levelo://app?vid=558d6336-8c01-4b7e-9c90-98f020bc4f34"},"vehicle_type_id":"4","last_reported":1762888057,"current_range_meters":16400,"station_id":"ce4bhq12rcd13ifvqhig","pricing_plan_id":"cebpf4jnsgd1na2vs0mg"},{"bike_id":"e5072903-b867-4d8e-a478-9934ce296bde","system_id":"levelo_inurba_marseille","lat":43.291265,"lon":5.390577,"is_reserved":false,"is_disabled":false,"rental_uris":{"android":"levelo://app?vid=e5072903-b867-4d8e-a478-9934ce296bde","ios":"levelo://app?vid=e5072903-b867-4d8e-a478-9934ce296bde"},"vehicle_type_id":"4","last_reported":1762888057,"current_range_meters":16400,"station_id":"","pricing_plan_id":"cebpf4jnsgd1na2vs0mg"},{"bike_id":"ee1e2802-dd23-44e4-9af8-d0a354457b2e","system_id":"levelo_inurba_marseille","lat":43.28729,"lon":5.36082,"is_reserved":false,"is_disabled":false,"rental_uris":{"android":"levelo://app?vid=ee1e2802-dd23-44e4-9af8-d0a354457b2e","ios":"levelo://app?vid=ee1e2802-dd23-44e4-9af8-d0a354457b2e"},"vehicle_type_id":"4","last_reported":1762888057,"current_range_meters":16400,"station_id":"cki0cbj6b192h4jlfktg","pricing_plan_id":"cebpf4jnsgd1na2vs0mg"},{"bike_id":"456c3b77-50a7-458c-9a10-8138e2e89389","system_id":"levelo_inurba_marseille","lat":43.252167,"lon":5.380375,"is_reserved":false,"is_disabled":false,"rental_uris":{"android":"levelo://app?vid=456c3b77-50a7-458c-9a10-8138e2e89389","ios":"levelo://app?vid=456c3b77-50a7-458c-9a10-8138e2e89389"},"vehicle_type_id":"4","last_reported":1762888057,"current_range_meters":16400,"station_id":"","pricing_plan_id":"cebpf4jnsgd1na2vs0mg"},{"bike_id":"e6efda86-178a-42ef-8411-7efae8ec27ae","system_id":"levelo_inurba_marseille","lat":43.29967,"lon":5.37171,"is_reserved":false,"is_disabled":false,"rental_uris":{"android":"levelo://app?vid=e6efda86-178a-42ef-8411-7efae8ec27ae","ios":"levelo://app?vid=e6efda86-178a-42ef-8411-7efae8ec27ae"},"vehicle_type_id":"4","last_reported":1762888057,"current_range_meters":16400,"station_id":"ce4bgr92rcd13ifvqc7g","pricing_plan_id":"cebpf4jnsgd1na2vs0mg"},{"bike_id":"b412bb62-9036-43bc-9782-40bdf05af501","system_id":"levelo_inurba_marseille","lat":43.27418,"lon":5.39418,"is_reserved":false,"is_disabled":false,"rental_uris":{"android":"levelo://app?vid=b412bb62-9036-43bc-9782-40bdf05af501","ios":"levelo://app?vid=b412bb62-9036-43bc-9782-40bdf05af501"},"vehicle_type_id":"4","last_reported":1762888057,"current_range_meters":16400,"station_id":"ce4bhdp2rcd13ifvqf20","pricing_plan_id":"cebpf4jnsgd1na2vs0mg"},{"bike_id":"811cfd4b-0c66-4d12-bd5f-bd476de90b49","system_id":"levelo_inurba_marseille","lat":43.24954,"lon":5.40483,"is_reserved":false,"is_disabled":false,"rental_uris":{"android":"levelo://app?vid=811cfd4b-0c66-4d12-bd5f-bd476de90b49","ios":"levelo://app?vid=811cfd4b-0c66-4d12-bd5f-bd476de90b49"},"vehicle_type_id":"4","last_reported":1762888057,"current_range_meters":16400,"station_id":"st_d2ngiaodas8pm72gd1h0","pricing_plan_id":"cebpf4jnsgd1na2vs0mg"},{"bike_id":"55f24f19-a4bf-43f3-96d8-f53f1b6a63ab","system_id":"levelo_inurba_marseille","lat":43.28075,"lon":5.39656,"is_reserved":false,"is_disabled":false,"rental_uris":{"android":"levelo://app?vid=55f24f19-a4bf-43f3-96d8-f53f1b6a63ab","ios":"levelo://app?vid=55f24f19-a4bf-43f3-96d8-f53f1b6a63ab"},"vehicle_type_id":"4","last_reported":1762888057,"current_range_meters":16400,"station_id":"ce4bho12rcd13ifvqh2g","pricing_plan_id":"cebpf4jnsgd1na2vs0mg"},{"bike_id":"7f40f0c5-ec52-4f82-a8ba-51ca788fb557","system_id":"levelo_inurba_marseille","lat":43.30883,"lon":5.39649,"is_reserved":false,"is_disabled":false,"rental_uris":{"android":"levelo://app?vid=7f40f0c5-ec52-4f82-a8ba-51ca788fb557","ios":"levelo://app?vid=7f40f0c5-ec52-4f82-a8ba-51ca788fb557"},"vehicle_type_id":"4","last_reported":1762888057,"current_range_meters":16400,"station_id":"ce4bh012rcd13ifvqcv0","pricing_plan_id":"cebpf4jnsgd1na2vs0mg"},{"bike_id":"138acbc8-a44a-45ec-9d4e-f41258a8778e","system_id":"levelo_inurba_marseille","lat":43.2982,"lon":5.44064,"is_reserved":false,"is_disabled":false,"rental_uris":{"android":"levelo://app?vid=138acbc8-a44a-45ec-9d4e-f41258a8778e","ios":"levelo://app?vid=138acbc8-a44a-45ec-9d4e-f41258a8778e"},"vehicle_type_id":"4","last_reported":1762888057,"current_range_meters":16400,"station_id":"st_d3jp68qikq2c7381ktn0","pricing_plan_id":"cebpf4jnsgd1na2vs0mg"},{"bike_id":"f9d44752-72ec-41fd-9f35-e9b08cb47a00","system_id":"levelo_inurba_marseille","lat":43.299198,"lon":5.385515,"is_reserved":false,"is_disabled":false,"rental_uris":{"android":"levelo://app?vid=f9d44752-72ec-41fd-9f35-e9b08cb47a00","ios":"levelo://app?vid=f9d44752-72ec-41fd-9f35-e9b08cb47a00"},"vehicle_type_id":"4","last_reported":1762888057,"current_range_meters":16800,"station_id":"ce4bgj92rcd13ifvqbd0","pricing_plan_id":"cebpf4jnsgd1na2vs0mg"},{"bike_id":"7f344d28-851c-42c9-a019-3520aba013d9","system_id":"levelo_inurba_marseille","lat":43.23964,"lon":5.36633,"is_reserved":false,"is_disabled":false,"rental_uris":{"android":"levelo://app?vid=7f344d28-851c-42c9-a019-3520aba013d9","ios":"levelo://app?vid=7f344d28-851c-42c9-a019-3520aba013d9"},"vehicle_type_id":"4","last_reported":1762888057,"current_range_meters":16800,"station_id":"ce4bhi12rcd13ifvqfp0","pricing_plan_id":"cebpf4jnsgd1na2vs0mg"},{"bike_id":"b3d16a6d-0471-48a5-8737-66b518d20806","system_id":"levelo_inurba_marseille","lat":43.27444,"lon":5.39415,"is_reserved":false,"is_disabled":false,"rental_uris":{"android":"levelo://app?vid=b3d16a6d-0471-48a5-8737-66b518d20806","ios":"levelo://app?vid=b3d16a6d-0471-48a5-8737-66b518d20806"},"vehicle_type_id":"4","last_reported":1762888057,"current_range_meters":16800,"station_id":"ce4bhdp2rcd13ifvqf20","pricing_plan_id":"cebpf4jnsgd1na2vs0mg"},{"bike_id":"5804ac99-3bd4-4091-bff1-7487e9285e0c","system_id":"levelo_inurba_marseille","lat":43.291904,"lon":5.375826,"is_reserved":false,"is_disabled":false,"rental_uris":{"android":"levelo://app?vid=5804ac99-3bd4-4091-bff1-7487e9285e0c","ios":"levelo://app?vid=5804ac99-3bd4-4091-bff1-7487e9285e0c"},"vehicle_type_id":"4","last_reported":1762888057,"current_range_meters":16800,"station_id":"","pricing_plan_id":"cebpf4jnsgd1na2vs0mg"},{"bike_id":"7176117e-ac54-47a3-9a10-e1d24bf36f6e","system_id":"levelo_inurba_marseille","lat":43.28369,"lon":5.38088,"is_reserved":false,"is_disabled":false,"rental_uris":{"android":"levelo://app?vid=7176117e-ac54-47a3-9a10-e1d24bf36f6e","ios":"levelo://app?vid=7176117e-ac54-47a3-9a10-e1d24bf36f6e"},"vehicle_type_id":"4","last_reported":1762888057,"current_range_meters":16800,"station_id":"ce4bh412rcd13ifvqdr0","pricing_plan_id":"cebpf4jnsgd1na2vs0mg"},{"bike_id":"22553e17-6572-4eda-aa05-58a78b222dd0","system_id":"levelo_inurba_marseille","lat":43.290105,"lon":5.38126,"is_reserved":false,"is_disabled":false,"rental_uris":{"android":"levelo://app?vid=22553e17-6572-4eda-aa05-58a78b222dd0","ios":"levelo://app?vid=22553e17-6572-4eda-aa05-58a78b222dd0"},"vehicle_type_id":"4","last_reported":1762888057,"current_range_meters":16800,"station_id":"ce4bh192rcd13ifvqdb0","pricing_plan_id":"cebpf4jnsgd1na2vs0mg"},{"bike_id":"ca832d9b-2460-4423-a8ce-5f7543cdec32","system_id":"levelo_inurba_marseille","lat":43.31321,"lon":5.39697,"is_reserved":false,"is_disabled":false,"rental_uris":{"android":"levelo://app?vid=ca832d9b-2460-4423-a8ce-5f7543cdec32","ios":"levelo://app?vid=ca832d9b-2460-4423-a8ce-5f7543cdec32"},"vehicle_type_id":"4","last_reported":1762888057,"current_range_meters":16800,"station_id":"ce4bgvp2rcd13ifvqcu0","pricing_plan_id":"cebpf4jnsgd1na2vs0mg"},{"bike_id":"4efdeac5-17ad-4557-a85f-169f7ed3db96","system_id":"levelo_inurba_marseille","lat":43.29534,"lon":5.38547,"is_reserved":false,"is_disabled":false,"rental_uris":{"android":"levelo://app?vid=4efdeac5-17ad-4557-a85f-169f7ed3db96","ios":"levelo://app?vid=4efdeac5-17ad-4557-a85f-169f7ed3db96"},"vehicle_type_id":"4","last_reported":1762888057,"current_range_meters":16800,"station_id":"ce4bgih2rcd13ifvqba0","pricing_plan_id":"cebpf4jnsgd1na2vs0mg"},{"bike_id":"e95c7a5e-2ca6-4704-beef-c914118730ac","system_id":"levelo_inurba_marseille","lat":43.23376,"lon":5.41218,"is_reserved":false,"is_disabled":false,"rental_uris":{"android":"levelo://app?vid=e95c7a5e-2ca6-4704-beef-c914118730ac","ios":"levelo://app?vid=e95c7a5e-2ca6-4704-beef-c914118730ac"},"vehicle_type_id":"4","last_reported":1762888057,"current_range_meters":16800,"station_id":"","pricing_plan_id":"cebpf4jnsgd1na2vs0mg"},{"bike_id":"c50bbb0a-f8ad-43cb-b121-719d80782746","system_id":"levelo_inurba_marseille","lat":43.24806,"lon":5.37433,"is_reserved":false,"is_disabled":false,"rental_uris":{"android":"levelo://app?vid=c50bbb0a-f8ad-43cb-b121-719d80782746","ios":"levelo://app?vid=c50bbb0a-f8ad-43cb-b121-719d80782746"},"vehicle_type_id":"4","last_reported":1762888057,"current_range_meters":16800,"station_id":"ce4bhgh2rcd13ifvqfb0","pricing_plan_id":"cebpf4jnsgd1na2vs0mg"},{"bike_id":"7298cb2e-dd4b-4a34-9d41-c3e10d984726","system_id":"levelo_inurba_marseille","lat":43.33601,"lon":5.41025,"is_reserved":false,"is_disabled":false,"rental_uris":{"android":"levelo://app?vid=7298cb2e-dd4b-4a34-9d41-c3e10d984726","ios":"levelo://app?vid=7298cb2e-dd4b-4a34-9d41-c3e10d984726"},"vehicle_type_id":"4","last_reported":1762888057,"current_range_meters":17200,"station_id":"ce4bhqh2rcd13ifvqhmg","pricing_plan_id":"cebpf4jnsgd1na2vs0mg"},