{"last_updated":1730076516,"ttl":60,"version":"2.2","data":{"bikes":[{"bike_id":"796d13f0-dbdb-469e-b237-8b6f408a292a","system_id":"levelo_inurba_marseille","lat":43.2866,"lon":5.36364,"is_reserved":false,"is_disabled":false,"rental_uris":{"android":"levelo://app?vid=796d13f0-dbdb-469e-b237-8b6f408a292a","ios":"levelo://app?vid=796d13f0-dbdb-469e-b237-8b6f408a292a"},"vehicle_type_id":"4","last_reported":1730076516,"current_range_meters":39200,"station_id":"ce4bhah2rcd13ifvqej0","pricing_plan_id":"cebpf4jnsgd1na2vs0mg"},{"bike_id":"724dc614-2190-4e35-bc1b-c3dab9efe590","system_id":"levelo_inurba_marseille","lat":43.28725,"lon":5.36082,"is_reserved":false,"is_disabled":false,"rental_uris":{"android":"levelo://app?vid=724dc614-2190-4e35-bc1b-c3dab9efe590","ios":"levelo://app?vid=724dc614-2190-4e35-bc1b-c3dab9efe590"},"vehicle_type_id":"4","last_reported":1730076516,"current_range_meters":36800,"station_id":"cki0cbj6b192h4jlfktg","pricing_plan_id":"cebpf4jnsgd1na2vs0mg"},{"bike_id":"645e4a67-a45f-4559-bf89-21f7355cc074","system_id":"levelo_inurba_marseille","lat":43.29881,"lon":5.39727,"is_reserved":false,"is_disabled":false,"rental_uris":{"android":"levelo://app?vid=645e4a67-a45f-4559-bf89-21f7355cc074","ios":"levelo://app?vid=645e4a67-a45f-4559-bf89-21f7355cc074"},"vehicle_type_id":"4","last_reported":1730076516,"current_range_meters":39200,"station_id":"ce4bh0h2rcd13ifvqd50","pricing_plan_id":"cebpf4jnsgd1na2vs0mg"},{"bike_id":"1e7c1adc-6e5f-45d9-a75d-a51f2ad067c8","system_id":"levelo_inurba_marseille","lat":43.29895,"lon":5.43664,"is_reserved":false,"is_disabled":false,"rental_uris":{"android":"levelo://app?vid=1e7c1adc-6e5f-45d9-a75d-a51f2ad067c8","ios":"levelo://app?vid=1e7c1adc-6e5f-45d9-a75d-a51f2ad067c8"},"vehicle_type_id":"4","last_reported":1730076516,"current_range_meters":11200,"station_id":"ce4bhpp2rcd13ifvqhfg","pricing_plan_id":"cebpf4jnsgd1na2vs0mg"},{"bike_id":"01769d76-5393-4981-b6f5-72383fb74ff6","system_id":"levelo_inurba_marseille","lat":43.240724,"lon":5.377581,"is_reserved":false,"is_disabled":false,"rental_uris":{"android":"levelo://app?vid=01769d76-5393-4981-b6f5-72383fb74ff6","ios":"levelo://app?vid=01769d76-5393-4981-b6f5-72383fb74ff6"},"vehicle_type_id":"4","last_reported":1730076516,"current_range_meters":4000,"station_id":"ce4bhnp2rcd13ifvqgvg","pricing_plan_id":"cebpf4jnsgd1na2vs0mg"},{"bike_id":"b6e289e4-f54c-41d4-9b66-a1a2db060b7b","system_id":"levelo_inurba_marseille","lat":43.28463,"lon":5.35899,"is_reserved":false,"is_disabled":false,"rental_uris":{"android":"levelo://app?vid=b6e289e4-f54c-41d4-9b66-a1a2db060b7b","ios":"levelo://app?vid=b6e289e4-f54c-41d4-9b66-a1a2db060b7b"},"vehicle_type_id":"4","last_reported":1730076516,"current_range_meters":40000,"station_id":"ce4bhah2rcd13ifvqei0","pricing_plan_id":"cebpf4jnsgd1na2vs0mg"},{"bike_id":"90b09f7c-4665-4372-8e70-8220f506b4de","system_id":"levelo_inurba_marseille","lat":43.25729,"lon":5.41109,"is_reserved":false,"is_disabled":false,"rental_uris":{"android":"levelo://app?vid=90b09f7c-4665-4372-8e70-8220f506b4de","ios":"levelo://app?vid=90b09f7c-4665-4372-8e70-8220f506b4de"},"vehicle_type_id":"4","last_reported":1730076516,"current_range_meters":14800,"station_id":"ce4bhkp2rcd13ifvqgd0","pricing_plan_id":"cebpf4jnsgd1na2vs0mg"},{"bike_id":"83dc329b-1766-4a0e-99ca-b0b205cf41c3","system_id":"levelo_inurba_marseille","lat":43.28105,"lon":5.37835,"is_reserved":false,"is_disabled":false,"rental_uris":{"android":"levelo://app?vid=83dc329b-1766-4a0e-99ca-b0b205cf41c3","ios":"levelo://app?vid=83dc329b-1766-4a0e-99ca-b0b205cf41c3"},"vehicle_type_id":"4","last_reported":1730076516,"current_range_meters":27600,"station_id":"ce4bha12rcd13ifvqee0","pricing_plan_id":"cebpf4jnsgd1na2vs0mg"},{"bike_id":"edd455a6-8479-4862-831d-8d4084141331","system_id":"levelo_inurba_marseille","lat":43.29138,"lon":5.39989,"is_reserved":false,"is_disabled":false,"rental_uris":{"android":"levelo://app?vid=edd455a6-8479-4862-831d-8d4084141331","ios":"levelo://app?vid=edd455a6-8479-4862-831d-8d4084141331"},"vehicle_type_id":"4","last_reported":1730076516,"current_range_meters":31200,"station_id":"ce4bh392rcd13ifvqdm0","pricing_plan_id":"cebpf4jnsgd1na2vs0mg"},{"bike_id":"18728487-1f41-4027-9752-d42c4c6fc507","system_id":"levelo_inurba_marseille","lat":43.29885,"lon":5.39735,"is_reserved":false,"is_disabled":false,"rental_uris":{"android":"levelo://app?vid=18728487-1f41-4027-9752-d42c4c6fc507","ios":"levelo://app?vid=18728487-1f41-4027-9752-d42c4c6fc507"},"vehicle_type_id":"4","last_reported":1730076516,"current_range_meters":16400,"station_id":"ce4bh0h2rcd13ifvqd50","pricing_plan_id":"cebpf4jnsgd1na2vs0mg"},{"bike_id":"230066e4-0304-4124-897f-ec32fa61bc78","system_id":"levelo_inurba_marseille","lat":43.26682,"lon":5.38279,"is_reserved":false,"is_disabled":false,"rental_uris":{"android":"levelo://app?vid=230066e4-0304-4124-897f-ec32fa61bc78","ios":"levelo://app?vid=230066e4-0304-4124-897f-ec32fa61bc78"},"vehicle_type_id":"4","last_reported":1730076516,"current_range_meters":38800,"station_id":"ce4bhg92rcd13ifvqf90","pricing_plan_id":"cebpf4jnsgd1na2vs0mg"},{"bike_id":"4f16e8bb-2b9c-4a34-a78f-80246efb6268","system_id":"levelo_inurba_marseille","lat":43.308868,"lon":5.396673,"is_reserved":false,"is_disabled":false,"rental_uris":{"android":"levelo://app?vid=4f16e8bb-2b9c-4a34-a78f-80246efb6268","ios":"levelo://app?vid=4f16e8bb-2b9c-4a34-a78f-80246efb6268"},"vehicle_type_id":"4","last_reported":1730076516,"current_range_meters":28800,"station_id":"ce4bh012rcd13ifvqcv0","pricing_plan_id":"cebpf4jnsgd1na2vs0mg"},{"bike_id":"9b6d7666-561a-47de-8677-8ae76a547034","system_id":"levelo_inurba_marseille","lat":43.27905,"lon":5.38,"is_reserved":false,"is_disabled":false,"rental_uris":{"android":"levelo://app?vid=9b6d7666-561a-47de-8677-8ae76a547034","ios":"levelo://app?vid=9b6d7666-561a-47de-8677-8ae76a547034"},"vehicle_type_id":"4","last_reported":1730076516,"current_range_meters":27600,"station_id":"ce4bhf92rcd13ifvqf50","pricing_plan_id":"cebpf4jnsgd1na2vs0mg"},{"bike_id":"e1395604-316e-4ef3-9482-76e16d240733","system_id":"levelo_inurba_marseille","lat":43.30885,"lon":5.39643,"is_reserved":false,"is_disabled":false,"rental_uris":{"android":"levelo://app?vid=e1395604-316e-4ef3-9482-76e16d240733","ios":"levelo://app?vid=e1395604-316e-4ef3-9482-76e16d240733"},"vehicle_type_id":"4","last_reported":1730076516,"current_range_meters":39200,"station_id":"ce4bh012rcd13ifvqcv0","pricing_plan_id":"cebpf4jnsgd1na2vs0mg"},{"bike_id":"e2971513-5509-43da-a4bb-a3d89812546c","system_id":"levelo_inurba_marseille","lat":43.25008,"lon":5.38917,"is_reserved":false,"is_disabled":false,"rental_uris":{"android":"levelo://app?vid=e2971513-5509-43da-a4bb-a3d89812546c","ios":"levelo://app?vid=e2971513-5509-43da-a4bb-a3d89812546c"},"vehicle_type_id":"4","last_reported":1730076516,"current_range_meters":8000,"station_id":"ce4bhgp2rcd13ifvqfd0","pricing_plan_id":"cebpf4jnsgd1na2vs0mg"},{"bike_id":"4e76489d-b1e0-4ba9-adfd-a21d6b553c02","system_id":"levelo_inurba_marseille","lat":43.25112,"lon":5.40326,"is_reserved":false,"is_disabled":false,"rental_uris":{"android":"levelo://app?vid=4e76489d-b1e0-4ba9-adfd-a21d6b553c02","ios":"levelo://app?vid=4e76489d-b1e0-4ba9-adfd-a21d6b553c02"},"vehicle_type_id":"4","last_reported":1730076516,"current_range_meters":36400,"station_id":"ce4bhlh2rcd13ifvqgig","pricing_plan_id":"cebpf4jnsgd1na2vs0mg"},{"bike_id":"713f5c9e-116f-4c28-99ae-d5eb1c1249d0","system_id":"levelo_inurba_marseille","lat":43.27996,"lon":5.40024,"is_reserved":false,"is_disabled":false,"rental_uris":{"android":"levelo://app?vid=713f5c9e-116f-4c28-99ae-d5eb1c1249d0","ios":"levelo://app?vid=713f5c9e-116f-4c28-99ae-d5eb1c1249d0"},"vehicle_type_id":"4","last_reported":1730076516,"current_range_meters":38800,"station_id":"ce4bho92rcd13ifvqh4g","pricing_plan_id":"cebpf4jnsgd1na2vs0mg"},{"bike_id":"a531fcfe-00f9-4d5e-bf0b-055819806b8e","system_id":"levelo_inurba_marseille","lat":43.31323,"lon":5.39694,"is_reserved":false,"is_disabled":false,"rental_uris":{"android":"levelo://app?vid=a531fcfe-00f9-4d5e-bf0b-055819806b8e","ios":"levelo://app?vid=a531fcfe-00f9-4d5e-bf0b-055819806b8e"},"vehicle_type_id":"4","last_reported":1730076516,"current_range_meters":36000,"station_id":"ce4bgvp2rcd13ifvqcu0","pricing_plan_id":"cebpf4jnsgd1na2vs0mg"},{"bike_id":"a9a8573f-5f85-47f4-a2db-7199d261c7aa","system_id":"levelo_inurba_marseille","lat":43.31536,"lon":5.38033,"is_reserved":false,"is_disabled":false,"rental_uris":{"android":"levelo://app?vid=a9a8573f-5f85-47f4-a2db-7199d261c7aa","ios":"levelo://app?vid=a9a8573f-5f85-47f4-a2db-7199d261c7aa"},"vehicle_type_id":"4","last_reported":1730076516,"current_range_meters":38800,"station_id":"ce4bhsp2rcd13ifvqi50","pricing_plan_id":"cebpf4jnsgd1na2vs0mg"},{"bike_id":"c0710a3f-9259-48fc-8baf-5f373be38096","system_id":"levelo_inurba_marseille","lat":43.30595,"lon":5.37235,"is_reserved":false,"is_disabled":false,"rental_uris":{"android":"levelo://app?vid=c0710a3f-9259-48fc-8baf-5f373be38096","ios":"levelo://app?vid=c0710a3f-9259-48fc-8baf-5f373be38096"},"vehicle_type_id":"4","last_reported":1730076516,"current_range_meters":36400,"station_id":"ce4bgqh2rcd13ifvqc4g","pricing_plan_id":"cebpf4jnsgd1na2vs0mg"},{"bike_id":"804ab3e9-2a31-4b35-ab7d-b81e9937d544","system_id":"levelo_inurba_marseille","lat":43.30303,"lon":5.39234,"is_reserved":false,"is_disabled":false,"rental_uris":{"android":"levelo://app?vid=804ab3e9-2a31-4b35-ab7d-b81e9937d544","ios":"levelo://app?vid=804ab3e9-2a31-4b35-ab7d-b81e9937d544"},"vehicle_type_id":"4","last_reported":1730076516,"current_range_meters":38400,"station_id":"ce4bgkh2rcd13ifvqbk0","pricing_plan_id":"cebpf4jnsgd1na2vs0mg"},{"bike_id":"eb74aa32-c49d-4202-bac3-91a96c4d4783","system_id":"levelo_inurba_marseille","lat":43.308016,"lon":5.369921,"is_reserved":false,"is_disabled":false,"rental_uris":{"android":"levelo://app?vid=eb74aa32-c49d-4202-bac3-91a96c4d4783","ios":"levelo://app?vid=eb74aa32-c49d-4202-bac3-91a96c4d4783"},"vehicle_type_id":"4","last_reported":1730076516,"current_range_meters":18800,"station_id":"ce4bguh2rcd13ifvqckg","pricing_plan_id":"cebpf4jnsgd1na2vs0mg"},{"bike_id":"8fea6a8c-1bba-48fa-bae2-6e9923e9bf31","system_id":"levelo_inurba_marseille","lat":43.31175,"lon":5.3872,"is_reserved":false,"is_disabled":false,"rental_uris":{"android":"levelo://app?vid=8fea6a8c-1bba-48fa-bae2-6e9923e9bf31","ios":"levelo://app?vid=8fea6a8c-1bba-48fa-bae2-6e9923e9bf31"},"vehicle_type_id":"4","last_reported":1730076516,"current_range_meters":24800,"station_id":"ce4bgv12rcd13ifvqcp0","pricing_plan_id":"cebpf4jnsgd1na2vs0mg"},{"bike_id":"84e374c4-fc62-498f-bc8b-cb0b8a3e0a0c","system_id":"levelo_inurba_marseille","lat":43.25728,"lon":5.41113,"is_reserved":false,"is_disabled":false,"rental_uris":{"android":"levelo://app?vid=84e374c4-fc62-498f-bc8b-cb0b8a3e0a0c","ios":"levelo://app?vid=84e374c4-fc62-498f-bc8b-cb0b8a3e0a0c"},"vehicle_type_id":"4","last_reported":1730076516,"current_range_meters":38800,"station_id":"ce4bhkp2rcd13ifvqgd0","pricing_plan_id":"cebpf4jnsgd1na2vs0mg"},{"bike_id":"eaf566eb-b09e-46d4-b187-2147ca599082","system_id":"levelo_inurba_marseille","lat":43.30958,"lon":5.39039,"is_reserved":false,"is_disabled":false,"rental_uris":{"android":"levelo://app?vid=eaf566eb-b09e-46d4-b187-2147ca599082","ios":"levelo://app?vid=eaf566eb-b09e-46d4-b187-2147ca599082"},"vehicle_type_id":"4","last_reported":1730076516,"current_range_meters":38000,"station_id":"ce4bgup2rcd13ifvqco0","pricing_plan_id":"cebpf4jnsgd1na2vs0mg"},{"bike_id":"75f2e981-d20e-4abd-9642-0a30d889fe55","system_id":"levelo_inurba_marseille","lat":43.28103,"lon":5.3784,"is_reserved":false,"is_disabled":false,"rental_uris":{"android":"levelo://app?vid=75f2e981-d20e-4abd-9642-0a30d889fe55","ios":"levelo://app?vid=75f2e981-d20e-4abd-9642-0a30d889fe55"},"vehicle_type_id":"4","last_reported":1730076516,"current_range_meters":18000,"station_id":"ce4bha12rcd13ifvqee0","pricing_plan_id":"cebpf4jnsgd1na2vs0mg"},{"bike_id":"48e40d75-ca0c-48e5-ae31-b42eeb6f4184","system_id":"levelo_inurba_marseille","lat":43.31071,"lon":5.38354,"is_reserved":false,"is_disabled":false,"rental_uris":{"android":"levelo://app?vid=48e40d75-ca0c-48e5-ae31-b42eeb6f4184","ios":"levelo://app?vid=48e40d75-ca0c-48e5-ae31-b42eeb6f4184"},"vehicle_type_id":"4","last_reported":1730076516,"current_range_meters":13600,"station_id":"ce4bgv92rcd13ifvqcr0","pricing_plan_id":"cebpf4jnsgd1na2vs0mg"},{"bike_id":"090c043d-c75d-4799-97ee-f225f61fa3ea","system_id":"levelo_inurba_marseille","lat":43.28157,"lon":5.42644,"is_reserved":false,"is_disabled":false,"rental_uris":{"android":"levelo://app?vid=090c043d-c75d-4799-97ee-f225f61fa3ea","ios":"levelo://app?vid=090c043d-c75d-4799-97ee-f225f61fa3ea"},"vehicle_type_id":"4","last_reported":1730076516,"current_range_meters":18000,"station_id":"ce4bhnh2rcd13ifvqgug","pricing_plan_id":"cebpf4jnsgd1na2vs0mg"},{"bike_id":"04be2868-2aab-4e6c-8872-303c9381e9e2","system_id":"levelo_inurba_marseille","lat":43.30062,"lon":5.401,"is_reserved":false,"is_disabled":false,"rental_uris":{"android":"levelo://app?vid=04be2868-2aab-4e6c-8872-303c9381e9e2","ios":"levelo://app?vid=04be2868-2aab-4e6c-8872-303c9381e9e2"},"vehicle_type_id":"4","last_reported":1730076516,"current_range_meters":10800,"station_id":"ce4bh112rcd13ifvqd90","pricing_plan_id":"cebpf4jnsgd1na2vs0mg"},{"bike_id":"c70c3f6b-a8d0-434d-b9f6-e5c66a62c638","system_id":"levelo_inurba_marseille","lat":43.31757,"lon":5.39022,"is_reserved":false,"is_disabled":false,"rental_uris":{"android":"levelo://app?vid=c70c3f6b-a8d0-434d-b9f6-e5c66a62c638","ios":"levelo://app?vid=c70c3f6b-a8d0-434d-b9f6-e5c66a62c638"},"vehicle_type_id":"4","last_reported":1730076516,"current_range_meters":38800,"station_id":"ce4bhqp2rcd13ifvqhng","pricing_plan_id":"cebpf4jnsgd1na2vs0mg"},{"bike_id":"7b87e6db-3f7a-48c8-83b0-5ba95a586374","system_id":"levelo_inurba_marseille","lat":43.28457,"lon":5.35891,"is_reserved":false,"is_disabled":false,"rental_uris":{"android":"levelo://app?vid=7b87e6db-3f7a-48c8-83b0-5ba95a586374","ios":"levelo://app?vid=7b87e6db-3f7a-48c8-83b0-5ba95a586374"},"vehicle_type_id":"4","last_reported":1730076516,"current_range_meters":14400,"station_id":"ce4bhah2rcd13ifvqei0","pricing_plan_id":"cebpf4jnsgd1na2vs0mg"},{"bike_id":"2ab6a876-b383-42be-8174-3b09d00c2764","system_id":"levelo_inurba_marseille","lat":43.22927,"lon":5.35374,"is_reserved":false,"is_disabled":false,"rental_uris":{"android":"levelo://app?vid=2ab6a876-b383-42be-8174-3b09d00c2764","ios":"levelo://app?vid=2ab6a876-b383-42be-8174-3b09d00c2764"},"vehicle_type_id":"4","last_reported":1730076516,"current_range_meters":38800,"station_id":"cpo3532slgdg3j2ikp40","pricing_plan_id":"cebpf4jnsgd1na2vs0mg"},{"bike_id":"885f8dd2-91f7-4ef6-9993-cc1af36f0309","system_id":"levelo_inurba_marseille","lat":43.28095,"lon":5.37851,"is_reserved":false,"is_disabled":false,"rental_uris":{"android":"levelo://app?vid=885f8dd2-91f7-4ef6-9993-cc1af36f0309","ios":"levelo://app?vid=885f8dd2-91f7-4ef6-9993-cc1af36f0309"},"vehicle_type_id":"4","last_reported":1730076516,"current_range_meters":32800,"station_id":"ce4bha12rcd13ifvqee0","pricing_plan_id":"cebpf4jnsgd1na2vs0mg"},{"bike_id":"f8da188e-27f9-4404-9276-e402b0c7c251","system_id":"levelo_inurba_marseille","lat":43.28567,"lon":5.39508,"is_reserved":false,"is_disabled":false,"rental_uris":{"android":"levelo://app?vid=f8da188e-27f9-4404-9276-e402b0c7c251","ios":"levelo://app?vid=f8da188e-27f9-4404-9276-e402b0c7c251"},"vehicle_type_id":"4","last_reported":1730076516,"current_range_meters":34000,"station_id":"ce4bh292rcd13ifvqdg0","pricing_plan_id":"cebpf4jnsgd1na2vs0mg"},{"bike_id":"e9d2627b-0323-4f6a-bb61-f8fed2e2d6e2","system_id":"levelo_inurba_marseille","lat":43.24185,"lon":5.39722,"is_reserved":false,"is_disabled":false,"rental_uris":{"android":"levelo://app?vid=e9d2627b-0323-4f6a-bb61-f8fed2e2d6e2","ios":"levelo://app?vid=e9d2627b-0323-4f6a-bb61-f8fed2e2d6e2"},"vehicle_type_id":"4","last_reported":1730076516,"current_range_meters":12000,"station_id":"ce4bhn12rcd13ifvqgpg","pricing_plan_id":"cebpf4jnsgd1na2vs0mg"},{"bike_id":"711ea989-9bbd-4a86-a947-8e287449186f","system_id":"levelo_inurba_marseille","lat":43.22923,"lon":5.35377,"is_reserved":false,"is_disabled":false,"rental_uris":{"android":"levelo://app?vid=711ea989-9bbd-4a86-a947-8e287449186f","ios":"levelo://app?vid=711ea989-9bbd-4a86-a947-8e287449186f"},"vehicle_type_id":"4","last_reported":1730076516,"current_range_meters":39200,"station_id":"cpo3532slgdg3j2ikp40","pricing_plan_id":"cebpf4jnsgd1na2vs0mg"},{"bike_id":"b6671e78-1604-45bf-abf3-0630423c89a1","system_id":"levelo_inurba_marseille","lat":43.29361,"lon":5.37853,"is_reserved":false,"is_disabled":false,"rental_uris":{"android":"levelo://app?vid=b6671e78-1604-45bf-abf3-0630423c89a1","ios":"levelo://app?vid=b6671e78-1604-45bf-abf3-0630423c89a1"},"vehicle_type_id":"4","last_reported":1730076516,"current_range_meters":14800,"station_id":"ce4bgjh2rcd13ifvqbf0","pricing_plan_id":"cebpf4jnsgd1na2vs0mg"},{"bike_id":"27f39214-437b-402f-ba70-e8fd46f4e41b","system_id":"levelo_inurba_marseille","lat":43.28516,"lon":5.36928,"is_reserved":false,"is_disabled":false,"rental_uris":{"android":"levelo://app?vid=27f39214-437b-402f-ba70-e8fd46f4e41b","ios":"levelo://app?vid=27f39214-437b-402f-ba70-e8fd46f4e41b"},"vehicle_type_id":"4","last_reported":1730076516,"current_range_meters":16800,"station_id":"","pricing_plan_id":"cebpf4jnsgd1na2vs0mg"},{"bike_id":"bd4e1a28-5e3f-420f-8236-1634e6a8a61d","system_id":"levelo_inurba_marseille","lat":43.25585,"lon":5.3823,"is_reserved":false,"is_disabled":false,"rental_uris":{"android":"levelo://app?vid=bd4e1a28-5e3f-420f-8236-1634e6a8a61d","ios":"levelo://app?vid=bd4e1a28-5e3f-420f-8236-1634e6a8a61d"},"vehicle_type_id":"4","last_reported":1730076516,"current_range_meters":40000,"station_id":"ce4bhih2rcd13ifvqfs0","pricing_plan_id":"cebpf4jnsgd1na2vs0mg"},{"bike_id":"d1dacee6-8f47-4ca5-823b-a2ea6c3413e8","system_id":"levelo_inurba_marseille","lat":43.23193,"lon":5.35556,"is_reserved":false,"is_disabled":false,"rental_uris":{"android":"levelo://app?vid=d1dacee6-8f47-4ca5-823b-a2ea6c3413e8","ios":"levelo://app?vid=d1dacee6-8f47-4ca5-823b-a2ea6c3413e8"},"vehicle_type_id":"4","last_reported":1730076516,"current_range_meters":38000,"station_id":"ce4bhu92rcd13ifvqi70","pricing_plan_id":"cebpf4jnsgd1na2vs0mg"},{"bike_id":"a6965f49-eb39-4825-8976-1f87c42f05ca","system_id":"levelo_inurba_marseille","lat":43.28699,"lon":5.39988,"is_reserved":false,"is_disabled":false,"rental_uris":{"android":"levelo://app?vid=a6965f49-eb39-4825-8976-1f87c42f05ca","ios":"levelo://app?vid=a6965f49-eb39-4825-8976-1f87c42f05ca"},"vehicle_type_id":"4","last_reported":1730076516,"current_range_meters":30400,"station_id":"ce4bho92rcd13ifvqh3g","pricing_plan_id":"cebpf4jnsgd1na2vs0mg"},{"bike_id":"73bf1d48-4811-483c-9cf9-ca83aa18090a","system_id":"levelo_inurba_marseille","lat":43.31366,"lon":5.38499,"is_reserved":false,"is_disabled":false,"rental_uris":{"android":"levelo://app?vid=73bf1d48-4811-483c-9cf9-ca83aa18090a","ios":"levelo://app?vid=73bf1d48-4811-483c-9cf9-ca83aa18090a"},"vehicle_type_id":"4","last_reported":1730076516,"current_range_meters":26000,"station_id":"ce4bgt92rcd13ifvqcf0","pricing_plan_id":"cebpf4jnsgd1na2vs0mg"},{"bike_id":"308f161d-9c65-444a-b013-1fa98bd64f0a","system_id":"levelo_inurba_marseille","lat":43.26027,"lon":5.37551,"is_reserved":false,"is_disabled":false,"rental_uris":{"android":"levelo://app?vid=308f161d-9c65-444a-b013-1fa98bd64f0a","ios":"levelo://app?vid=308f161d-9c65-444a-b013-1fa98bd64f0a"},"vehicle_type_id":"4","last_reported":1730076516,"current_range_meters":38800,"station_id":"ce4bhgh2rcd13ifvqfa0","pricing_plan_id":"cebpf4jnsgd1na2vs0mg"},{"bike_id":"0735b41e-71a4-4766-b4b6-d17376be3df2","system_id":"levelo_inurba_marseille","lat":43.26944,"lon":5.40251,"is_reserved":false,"is_disabled":false,"rental_uris":{"android":"levelo://app?vid=0735b41e-71a4-4766-b4b6-d17376be3df2","ios":"levelo://app?vid=0735b41e-71a4-4766-b4b6-d17376be3df2"},"vehicle_type_id":"4","last_reported":1730076516,"current_range_meters":24400,"station_id":"cjm6bp8fraef2m0cb0m0","pricing_plan_id":"cebpf4jnsgd1na2vs0mg"},{"bike_id":"062c37a5-8c98-4262-a368-0baffa13b81a","system_id":"levelo_inurba_marseille","lat":43.29558,"lon":5.42296,"is_reserved":false,"is_disabled":false,"rental_uris":{"android":"levelo://app?vid=062c37a5-8c98-4262-a368-0baffa13b81a","ios":"levelo://app?vid=062c37a5-8c98-4262-a368-0baffa13b81a"},"vehicle_type_id":"4","last_reported":1730076516,"current_range_meters":20400,"station_id":"ce4bhph2rcd13ifvqhdg","pricing_plan_id":"cebpf4jnsgd1na2vs0mg"},{"bike_id":"c617479c-40f2-49ac-ae62-20a0a7b2a8a7","system_id":"levelo_inurba_marseille","lat":43.30596,"lon":5.37227,"is_reserved":false,"is_disabled":false,"rental_uris":{"android":"levelo://app?vid=c617479c-40f2-49ac-ae62-20a0a7b2a8a7","ios":"levelo://app?vid=c617479c-40f2-49ac-ae62-20a0a7b2a8a7"},"vehicle_type_id":"4","last_reported":1730076516,"current_range_meters":38800,"station_id":"ce4bgqh2rcd13ifvqc4g","pricing_plan_id":"cebpf4jnsgd1na2vs0mg"},{"bike_id":"edbc0e87-faf3-4a8c-ba97-80b74e7fb7da","system_id":"levelo_inurba_marseille","lat":43.32336,"lon":5.40623,"is_reserved":false,"is_disabled":false,"rental_uris":{"android":"levelo://app?vid=edbc0e87-faf3-4a8c-ba97-80b74e7fb7da","ios":"levelo://app?vid=edbc0e87-faf3-4a8c-ba97-80b74e7fb7da"},"vehicle_type_id":"4","last_reported":1730076516,"current_range_meters":22000,"station_id":"ce4bhq92rcd13ifvqhjg","pricing_plan_id":"cebpf4jnsgd1na2vs0mg"},{"bike_id":"fb0fb3bd-9991-459b-b6be-e6c91b7de3e3","system_id":"levelo_inurba_marseille","lat":43.28104,"lon":5.37844,"is_reserved":false,"is_disabled":false,"rental_uris":{"android":"levelo://app?vid=fb0fb3bd-9991-459b-b6be-e6c91b7de3e3","ios":"levelo://app?vid=fb0fb3bd-9991-459b-b6be-e6c91b7de3e3"},"vehicle_type_id":"4","last_reported":1730076516,"current_range_meters":24800,"station_id":"ce4bha12rcd13ifvqee0","pricing_plan_id":"cebpf4jnsgd1na2vs0mg"},{"bike_id":"49d48a20-ca55-4e3a-abd2-6bef373d1253","system_id":"levelo_inurba_marseille","lat":43.23062,"lon":5.35495,"is_reserved":false,"is_disabled":false,"rental_uris":{"android":"levelo://app?vid=49d48a20-ca55-4e3a-abd2-6bef373d1253","ios":"levelo://app?vid=49d48a20-ca55-4e3a-abd2-6bef373d1253"},"vehicle_type_id":"4","last_reported":1730076516,"current_range_meters":38000,"station_id":"cpo3342slgdg3j2ifvpg","pricing_plan_id":"cebpf4jnsgd1na2vs0mg"},{"bike_id":"3be24ff9-183f-446d-8bd0-234596c20d95","system_id":"levelo_inurba_marseille","lat":43.31219,"lon":5.36868,"is_reserved":false,"is_disabled":false,"rental_uris":{"android":"levelo://app?vid=3be24ff9-183f-446d-8bd0-234596c20d95","ios":"levelo://app?vid=3be24ff9-183f-446d-8bd0-234596c20d95"},"vehicle_type_id":"4","last_reported":1730076516,"current_range_meters":26800,"station_id":"ce4bgl92rcd13ifvqbq0","pricing_plan_id":"cebpf4jnsgd1na2vs0mg"},{"bike_id":"6875a1a6-32b9-4783-93f5-84a3a0c85f67","system_id":"levelo_inurba_marseille","lat":43.23068,"lon":5.35499,"is_reserved":false,"is_disabled":false,"rental_uris":{"android":"levelo://app?vid=6875a1a6-32b9-4783-93f5-84a3a0c85f67","ios":"levelo://app?vid=6875a1a6-32b9-4783-93f5-84a3a0c85f67"},"vehicle_type_id":"4","last_reported":1730076516,"current_range_meters":22800,"station_id":"cpo3342slgdg3j2ifvpg","pricing_plan_id":"cebpf4jnsgd1na2vs0mg"},{"bike_id":"7daba550-57fa-427b-a443-0c724a890480","system_id":"levelo_inurba_marseille","lat":43.2997,"lon":5.37191,"is_reserved":false,"is_disabled":false,"rental_uris":{"android":"levelo://app?vid=7daba550-57fa-427b-a443-0c724a890480","ios":"levelo://app?vid=7daba550-57fa-427b-a443-0c724a890480"},"vehicle_type_id":"4","last_reported":1730076516,"current_range_meters":39200,"station_id":"ce4bgr92rcd13ifvqc7g","pricing_plan_id":"cebpf4jnsgd1na2vs0mg"},{"bike_id":"f406200b-1b02-486d-888c-3f73dcef085b","system_id":"levelo_inurba_marseille","lat":43.27834,"lon":5.39211,"is_reserved":false,"is_disabled":false,"rental_uris":{"android":"levelo://app?vid=f406200b-1b02-486d-888c-3f73dcef085b","ios":"levelo://app?vid=f406200b-1b02-486d-888c-3f73dcef085b"},"vehicle_type_id":"4","last_reported":1730076516,"current_range_meters":15200,"station_id":"ce4bhjp2rcd13ifvqga0","pricing_plan_id":"cebpf4jnsgd1na2vs0mg"},{"bike_id":"e89036ab-06cb-459b-91f1-830ff3435de6","system_id":"levelo_inurba_marseille","lat":43.2319,"lon":5.35548,"is_reserved":false,"is_disabled":false,"rental_uris":{"android":"levelo://app?vid=e89036ab-06cb-459b-91f1-830ff3435de6","ios":"levelo://app?vid=e89036ab-06cb-459b-91f1-830ff3435de6"},"vehicle_type_id":"4","last_reported":1730076516,"current_range_meters":38400,"station_id":"ce4bhu92rcd13ifvqi70","pricing_plan_id":"cebpf4jnsgd1na2vs0mg"},{"bike_id":"29e4d27e-c275-400d-963d-7448af940e61","system_id":"levelo_inurba_marseille","lat":43.32343,"lon":5.40623,"is_reserved":false,"is_disabled":false,"rental_uris":{"android":"levelo://app?vid=29e4d27e-c275-400d-963d-7448af940e61","ios":"levelo://app?vid=29e4d27e-c275-400d-963d-7448af940e61"},"vehicle_type_id":"4","last_reported":1730076516,"current_range_meters":21600,"station_id":"ce4bhq92rcd13ifvqhjg","pricing_plan_id":"cebpf4jnsgd1na2vs0mg"},{"bike_id":"66fb00a7-295c-492a-b5c9-538d3dea086f","system_id":"levelo_inurba_marseille","lat":43.23184,"lon":5.4372,"is_reserved":false,"is_disabled":false,"rental_uris":{"android":"levelo://app?vid=66fb00a7-295c-492a-b5c9-538d3dea086f","ios":"levelo://app?vid=66fb00a7-295c-492a-b5c9-538d3dea086f"},"vehicle_type_id":"4","last_reported":1730076516,"current_range_meters":24000,"station_id":"","pricing_plan_id":"cebpf4jnsgd1na2vs0mg"},{"bike_id":"f54ac4a4-b721-41ff-800d-9bd8d7cd93a8","system_id":"levelo_inurba_marseille","lat":43.29015,"lon":5.38149,"is_reserved":false,"is_disabled":false,"rental_uris":{"android":"levelo://app?vid=f54ac4a4-b721-41ff-800d-9bd8d7cd93a8","ios":"levelo://app?vid=f54ac4a4-b721-41ff-800d-9bd8d7cd93a8"},"vehicle_type_id":"4","last_reported":1730076516,"current_range_meters":39200,"station_id":"ce4bh4p2rcd13ifvqe1g","pricing_plan_id":"cebpf4jnsgd1na2vs0mg"},{"bike_id":"423b7481-04af-4526-aad6-5ce5cb05eabb","system_id":"levelo_inurba_marseille","lat":43.31119,"lon":5.37759,"is_reserved":false,"is_disabled":false,"rental_uris":{"android":"levelo://app?vid=423b7481-04af-4526-aad6-5ce5cb05eabb","ios":"levelo://app?vid=423b7481-04af-4526-aad6-5ce5cb05eabb"},"vehicle_type_id":"4","last_reported":1730076516,"current_range_meters":17600,"station_id":"ce4bgt92rcd13ifvqcg0","pricing_plan_id":"cebpf4jnsgd1na2vs0mg"},{"bike_id":"7fe76d9c-88a1-4c85-8e5f-9f86d7557849","system_id":"levelo_inurba_marseille","lat":43.23152,"lon":5.4372,"is_reserved":false,"is_disabled":false,"rental_uris":{"android":"levelo://app?vid=7fe76d9c-88a1-4c85-8e5f-9f86d7557849","ios":"levelo://app?vid=7fe76d9c-88a1-4c85-8e5f-9f86d7557849"},"vehicle_type_id":"4","last_reported":1730076516,"current_range_meters":30000,"station_id":"ce4bhmp2rcd13ifvqgog","pricing_plan_id":"cebpf4jnsgd1na2vs0mg"},{"bike_id":"5d013205-968f-46f0-8cb2-f55d13ad5ff4","system_id":"levelo_inurba_marseille","lat":43.32479,"lon":5.3657,"is_reserved":false,"is_disabled":false,"rental_uris":{"android":"levelo://app?vid=5d013205-968f-46f0-8cb2-f55d13ad5ff4","ios":"levelo://app?vid=5d013205-968f-46f0-8cb2-f55d13ad5ff4"},"vehicle_type_id":"4","last_reported":1730076516,"current_range_meters":38800,"station_id":"ce4bhs12rcd13ifvqhvg","pricing_plan_id":"cebpf4jnsgd1na2vs0mg"},{"bike_id":"84e46691-f2c1-4ca3-ae6d-46dfc81939ab","system_id":"levelo_inurba_marseille","lat":43.299163,"lon":5.381407,"is_reserved":false,"is_disabled":false,"rental_uris":{"android":"levelo://app?vid=84e46691-f2c1-4ca3-ae6d-46dfc81939ab","ios":"levelo://app?vid=84e46691-f2c1-4ca3-ae6d-46dfc81939ab"},"vehicle_type_id":"4","last_reported":1730076516,"current_range_meters":36800,"station_id":"ce4bgj12rcd13ifvqbc0","pricing_plan_id":"cebpf4jnsgd1na2vs0mg"},{"bike_id":"22dca55f-d5f5-4b3f-83a3-47072ff8d3bb","system_id":"levelo_inurba_marseille","lat":43.31323,"lon":5.36726,"is_reserved":false,"is_disabled":false,"rental_uris":{"android":"levelo://app?vid=22dca55f-d5f5-4b3f-83a3-47072ff8d3bb","ios":"levelo://app?vid=22dca55f-d5f5-4b3f-83a3-47072ff8d3bb"},"vehicle_type_id":"4","last_reported":1730076516,"current_range_meters":38000,"station_id":"ce4bgr92rcd13ifvqc6g","pricing_plan_id":"cebpf4jnsgd1na2vs0mg"},{"bike_id":"86f483fb-7146-45bb-9a75-9c8b7e96431b","system_id":"levelo_inurba_marseille","lat":43.30296,"lon":5.39211,"is_reserved":false,"is_disabled":false,"rental_uris":{"android":"levelo://app?vid=86f483fb-7146-45bb-9a75-9c8b7e96431b","ios":"levelo://app?vid=86f483fb-7146-45bb-9a75-9c8b7e96431b"},"vehicle_type_id":"4","last_reported":1730076516,"current_range_meters":25200,"station_id":"ce4bgkh2rcd13ifvqbk0","pricing_plan_id":"cebpf4jnsgd1na2vs0mg"},{"bike_id":"1cc74bec-44e2-4682-a38c-9a9389ec2ca9","system_id":"levelo_inurba_marseille","lat":43.29047,"lon":5.35921,"is_reserved":false,"is_disabled":false,"rental_uris":{"android":"levelo://app?vid=1cc74bec-44e2-4682-a38c-9a9389ec2ca9","ios":"levelo://app?vid=1cc74bec-44e2-4682-a38c-9a9389ec2ca9"},"vehicle_type_id":"4","last_reported":1730076516,"current_range_meters":14000,"station_id":"ce4bha92rcd13ifvqeg0","pricing_plan_id":"cebpf4jnsgd1na2vs0mg"},{"bike_id":"c9f299e7-44b3-4adc-a93d-769d4eadb8bd","system_id":"levelo_inurba_marseille","lat":43.23152,"lon":5.43723,"is_reserved":false,"is_disabled":false,"rental_uris":{"android":"levelo://app?vid=c9f299e7-44b3-4adc-a93d-769d4eadb8bd","ios":"levelo://app?vid=c9f299e7-44b3-4adc-a93d-769d4eadb8bd"},"vehicle_type_id":"4","last_reported":1730076516,"current_range_meters":10000,"station_id":"ce4bhmp2rcd13ifvqgog","pricing_plan_id":"cebpf4jnsgd1na2vs0mg"},{"bike_id":"dc408d0f-b451-4c96-9d06-39735057a541","system_id":"levelo_inurba_marseille","lat":43.28725,"lon":5.36084,"is_reserved":false,"is_disabled":false,"rental_uris":{"android":"levelo://app?vid=dc408d0f-b451-4c96-9d06-39735057a541","ios":"levelo://app?vid=dc408d0f-b451-4c96-9d06-39735057a541"},"vehicle_type_id":"4","last_reported":1730076516,"current_range_meters":38000,"station_id":"cki0cbj6b192h4jlfktg","pricing_plan_id":"cebpf4jnsgd1na2vs0mg"},{"bike_id":"eba855d6-bb86-4b54-87b1-b102aa1a672a","system_id":"levelo_inurba_marseille","lat":43.31755,"lon":5.3903,"is_reserved":false,"is_disabled":false,"rental_uris":{"android":"levelo://app?vid=eba855d6-bb86-4b54-87b1-b102aa1a672a","ios":"levelo://app?vid=eba855d6-bb86-4b54-87b1-b102aa1a672a"},"vehicle_type_id":"4","last_reported":1730076516,"current_range_meters":38800,"station_id":"ce4bhqp2rcd13ifvqhng","pricing_plan_id":"cebpf4jnsgd1na2vs0mg"},{"bike_id":"0d2a4df3-011a-4936-a9fd-1a74dc86478f","system_id":"levelo_inurba_marseille","lat":43.32367,"lon":5.38887,"is_reserved":false,"is_disabled":false,"rental_uris":{"android":"levelo://app?vid=0d2a4df3-011a-4936-a9fd-1a74dc86478f","ios":"levelo://app?vid=0d2a4df3-011a-4936-a9fd-1a74dc86478f"},"vehicle_type_id":"4","last_reported":1730076516,"current_range_meters":27200,"station_id":"ce4bhqp2rcd13ifvqhog","pricing_plan_id":"cebpf4jnsgd1na2vs0mg"},{"bike_id":"3d822701-cfd6-42b9-b711-72bd3e903ecb","system_id":"levelo_inurba_marseille","lat":43.25113,"lon":5.40321,"is_reserved":false,"is_disabled":false,"rental_uris":{"android":"levelo://app?vid=3d822701-cfd6-42b9-b711-72bd3e903ecb","ios":"levelo://app?vid=3d822701-cfd6-42b9-b711-72bd3e903ecb"},"vehicle_type_id":"4","last_reported":1730076516,"current_range_meters":13600,"station_id":"ce4bhlh2rcd13ifvqgig","pricing_plan_id":"cebpf4jnsgd1na2vs0mg"},{"bike_id":"f2510b72-7e55-4d25-ac93-c226c89cf60e","system_id":"levelo_inurba_marseille","lat":43.30317,"lon":5.36894,"is_reserved":false,"is_disabled":false,"rental_uris":{"android":"levelo://app?vid=f2510b72-7e55-4d25-ac93-c226c89cf60e","ios":"levelo://app?vid=f2510b72-7e55-4d25-ac93-c226c89cf60e"},"vehicle_type_id":"4","last_reported":1730076516,"current_range_meters":39200,"station_id":"ce4bgqh2rcd13ifvqc5g","pricing_plan_id":"cebpf4jnsgd1na2vs0mg"},{"bike_id":"6d79455d-54e0-49e1-b06e-03ce912563c9","system_id":"levelo_inurba_marseille","lat":43.31488,"lon":5.37304,"is_reserved":false,"is_disabled":false,"rental_uris":{"android":"levelo://app?vid=6d79455d-54e0-49e1-b06e-03ce912563c9","ios":"levelo://app?vid=6d79455d-54e0-49e1-b06e-03ce912563c9"},"vehicle_type_id":"4","last_reported":1730076516,"current_range_meters":8800,"station_id":"ce4bgt12rcd13ifvqcd0","pricing_plan_id":"cebpf4jnsgd1na2vs0mg"},{"bike_id":"ef915c69-a746-473b-bdc6-ca2cdbe5bac9","system_id":"levelo_inurba_marseille","lat":43.32286,"lon":5.38279,"is_reserved":false,"is_disabled":false,"rental_uris":{"android":"levelo://app?vid=ef915c69-a746-473b-bdc6-ca2cdbe5bac9","ios":"levelo://app?vid=ef915c69-a746-473b-bdc6-ca2cdbe5bac9"},"vehicle_type_id":"4","last_reported":1730076516,"current_range_meters":38000,"station_id":"ce4bhr12rcd13ifvqhqg","pricing_plan_id":"cebpf4jnsgd1na2vs0mg"},{"bike_id":"3d5a1e4f-9eaf-4518-a7d4-cd942bb61755","system_id":"levelo_inurba_marseille","lat":43.28704,"lon":5.39992,"is_reserved":false,"is_disabled":false,"rental_uris":{"android":"levelo://app?vid=3d5a1e4f-9eaf-4518-a7d4-cd942bb61755","ios":"levelo://app?vid=3d5a1e4f-9eaf-4518-a7d4-cd942bb61755"},"vehicle_type_id":"4","last_reported":1730076516,"current_range_meters":30400,"station_id":"ce4bho92rcd13ifvqh3g","pricing_plan_id":"cebpf4jnsgd1na2vs0mg"},{"bike_id":"cd8988cf-34e0-4cd8-92c1-67d3cd8c964e","system_id":"levelo_inurba_marseille","lat":43.23953,"lon":5.3664,"is_reserved":false,"is_disabled":false,"rental_uris":{"android":"levelo://app?vid=cd8988cf-34e0-4cd8-92c1-67d3cd8c964e","ios":"levelo://app?vid=cd8988cf-34e0-4cd8-92c1-67d3cd8c964e"},"vehicle_type_id":"4","last_reported":1730076516,"current_range_meters":12800,"station_id":"ce4bhi12rcd13ifvqfp0","pricing_plan_id":"cebpf4jnsgd1na2vs0mg"},{"bike_id":"4b4c881c-be97-49d5-9517-45cef8c368a3","system_id":"levelo_inurba_marseille","lat":43.3171,"lon":5.43714,"is_reserved":false,"is_disabled":false,"rental_uris":{"android":"levelo://app?vid=4b4c881c-be97-49d5-9517-45cef8c368a3","ios":"levelo://app?vid=4b4c881c-be97-49d5-9517-45cef8c368a3"},"vehicle_type_id":"4","last_reported":1730076516,"current_range_meters":39200,"station_id":"ce4bhp92rcd13ifvqhcg","pricing_plan_id":"cebpf4jnsgd1na2vs0mg"},{"bike_id":"ed40ab0f-ca23-4cf8-bad8-713b374e3242","system_id":"levelo_inurba_marseille","lat":43.30419,"lon":5.41279,"is_reserved":false,"is_disabled":false,"rental_uris":{"android":"levelo://app?vid=ed40ab0f-ca23-4cf8-bad8-713b374e3242","ios":"levelo://app?vid=ed40ab0f-ca23-4cf8-bad8-713b374e3242"},"vehicle_type_id":"4","last_reported":1730076516,"current_range_meters":36400,"station_id":"ce4bhop2rcd13ifvqh8g","pricing_plan_id":"cebpf4jnsgd1na2vs0mg"},{"bike_id":"1747cfa9-b040-4698-b581-4316c2e2fdf4","system_id":"levelo_inurba_marseille","lat":43.30204,"lon":5.39476,"is_reserved":false,"is_disabled":false,"rental_uris":{"android":"levelo://app?vid=1747cfa9-b040-4698-b581-4316c2e2fdf4","ios":"levelo://app?vid=1747cfa9-b040-4698-b581-4316c2e2fdf4"},"vehicle_type_id":"4","last_reported":1730076516,"current_range_meters":38400,"station_id":"ce4bh0p2rcd13ifvqd70","pricing_plan_id":"cebpf4jnsgd1na2vs0mg"},{"bike_id":"97aea651-a68f-4129-a1f2-0c368fe7bbe6","system_id":"levelo_inurba_marseille","lat":43.29782,"lon":5.37096,"is_reserved":false,"is_disabled":false,"rental_uris":{"android":"levelo://app?vid=97aea651-a68f-4129-a1f2-0c368fe7bbe6","ios":"levelo://app?vid=97aea651-a68f-4129-a1f2-0c368fe7bbe6"},"vehicle_type_id":"4","last_reported":1730076516,"current_range_meters":17200,"station_id":"ce4bgop2rcd13ifvqc1g","pricing_plan_id":"cebpf4jnsgd1na2vs0mg"},{"bike_id":"4461f702-9d41-45c6-b89e-9f584ce5f30d","system_id":"levelo_inurba_marseille","lat":43.28931,"lon":5.36399,"is_reserved":false,"is_disabled":false,"rental_uris":{"android":"levelo://app?vid=4461f702-9d41-45c6-b89e-9f584ce5f30d","ios":"levelo://app?vid=4461f702-9d41-45c6-b89e-9f584ce5f30d"},"vehicle_type_id":"4","last_reported":1730076516,"current_range_meters":28800,"station_id":"ce4bhc92rcd13ifvqetg","pricing_plan_id":"cebpf4jnsgd1na2vs0mg"},{"bike_id":"b8f5fc91-e16d-41a0-bc5b-bcf609afbb1e","system_id":"levelo_inurba_marseille","lat":43.31716,"lon":5.43708,"is_reserved":false,"is_disabled":false,"rental_uris":{"android":"levelo://app?vid=b8f5fc91-e16d-41a0-bc5b-bcf609afbb1e","ios":"levelo://app?vid=b8f5fc91-e16d-41a0-bc5b-bcf609afbb1e"},"vehicle_type_id":"4","last_reported":1730076516,"current_range_meters":14000,"station_id":"ce4bhp92rcd13ifvqhcg","pricing_plan_id":"cebpf4jnsgd1na2vs0mg"},{"bike_id":"794ba6d6-0939-4a62-85bd-50fe5ceff38c","system_id":"levelo_inurba_marseille","lat":43.2706,"lon":5.39969,"is_reserved":false,"is_disabled":false,"rental_uris":{"android":"levelo://app?vid=794ba6d6-0939-4a62-85bd-50fe5ceff38c","ios":"levelo://app?vid=794ba6d6-0939-4a62-85bd-50fe5ceff38c"},"vehicle_type_id":"4","last_reported":1730076516,"current_range_meters":37600,"station_id":"","pricing_plan_id":"cebpf4jnsgd1na2vs0mg"},{"bike_id":"9ac06857-e5cf-459f-87b4-75d0710bcab5","system_id":"levelo_inurba_marseille","lat":43.32336,"lon":5.40624,"is_reserved":false,"is_disabled":false,"rental_uris":{"android":"levelo://app?vid=9ac06857-e5cf-459f-87b4-75d0710bcab5","ios":"levelo://app?vid=9ac06857-e5cf-459f-87b4-75d0710bcab5"},"vehicle_type_id":"4","last_reported":1730076516,"current_range_meters":16400,"station_id":"ce4bhq92rcd13ifvqhjg","pricing_plan_id":"cebpf4jnsgd1na2vs0mg"},{"bike_id":"22ca0989-6470-4735-a8b1-883f9bf848b8","system_id":"levelo_inurba_marseille","lat":43.24548,"lon":5.39525,"is_reserved":false,"is_disabled":false,"rental_uris":{"android":"levelo://app?vid=22ca0989-6470-4735-a8b1-883f9bf848b8","ios":"levelo://app?vid=22ca0989-6470-4735-a8b1-883f9bf848b8"},"vehicle_type_id":"4","last_reported":1730076516,"current_range_meters":19200,"station_id":"ce4bhlp2rcd13ifvqgjg","pricing_plan_id":"cebpf4jnsgd1na2vs0mg"},{"bike_id":"aacb3cb6-ebb2-4c9a-9d59-1efc9a1b694e","system_id":"levelo_inurba_marseille","lat":43.25113,"lon":5.40322,"is_reserved":false,"is_disabled":false,"rental_uris":{"android":"levelo://app?vid=aacb3cb6-ebb2-4c9a-9d59-1efc9a1b694e","ios":"levelo://app?vid=aacb3cb6-ebb2-4c9a-9d59-1efc9a1b694e"},"vehicle_type_id":"4","last_reported":1730076516,"current_range_meters":11200,"station_id":"ce4bhlh2rcd13ifvqgig","pricing_plan_id":"cebpf4jnsgd1na2vs0mg"},{"bike_id":"9adafdd8-3240-48a9-a8cf-b77695dc96b2","system_id":"levelo_inurba_marseille","lat":43.32363,"lon":5.38896,"is_reserved":false,"is_disabled":false,"rental_uris":{"android":"levelo://app?vid=9adafdd8-3240-48a9-a8cf-b77695dc96b2","ios":"levelo://app?vid=9adafdd8-3240-48a9-a8cf-b77695dc96b2"},"vehicle_type_id":"4","last_reported":1730076516,"current_range_meters":38800,"station_id":"ce4bhqp2rcd13ifvqhog","pricing_plan_id":"cebpf4jnsgd1na2vs0mg"},{"bike_id":"8d66ba2e-e771-4c67-99ad-ef2d113002e3","system_id":"levelo_inurba_marseille","lat":43.25087,"lon":5.39523,"is_reserved":false,"is_disabled":false,"rental_uris":{"android":"levelo://app?vid=8d66ba2e-e771-4c67-99ad-ef2d113002e3","ios":"levelo://app?vid=8d66ba2e-e771-4c67-99ad-ef2d113002e3"},"vehicle_type_id":"4","last_reported":1730076516,"current_range_meters":40000,"station_id":"ce4bhm12rcd13ifvqgkg","pricing_plan_id":"cebpf4jnsgd1na2vs0mg"},{"bike_id":"6981206a-d30e-4a3d-914c-c893cef2a8e3","system_id":"levelo_inurba_marseille","lat":43.28696,"lon":5.39982,"is_reserved":false,"is_disabled":false,"rental_uris":{"android":"levelo://app?vid=6981206a-d30e-4a3d-914c-c893cef2a8e3","ios":"levelo://app?vid=6981206a-d30e-4a3d-914c-c893cef2a8e3"},"vehicle_type_id":"4","last_reported":1730076516,"current_range_meters":38800,"station_id":"ce4bho92rcd13ifvqh3g","pricing_plan_id":"cebpf4jnsgd1na2vs0mg"},{"bike_id":"b405e5c0-dac6-4fef-a8f7-2cca2eb8d718","system_id":"levelo_inurba_marseille","lat":43.30419,"lon":5.41281,"is_reserved":false,"is_disabled":false,"rental_uris":{"android":"levelo://app?vid=b405e5c0-dac6-4fef-a8f7-2cca2eb8d718","ios":"levelo://app?vid=b405e5c0-dac6-4fef-a8f7-2cca2eb8d718"},"vehicle_type_id":"4","last_reported":1730076516,"current_range_meters":26000,"station_id":"ce4bhop2rcd13ifvqh8g","pricing_plan_id":"cebpf4jnsgd1na2vs0mg"},{"bike_id":"bff575ca-c255-4a46-8a9d-4bac098e697d","system_id":"levelo_inurba_marseille","lat":43.2846,"lon":5.35883,"is_reserved":false,"is_disabled":false,"rental_uris":{"android":"levelo://app?vid=bff575ca-c255-4a46-8a9d-4bac098e697d","ios":"levelo://app?vid=bff575ca-c255-4a46-8a9d-4bac098e697d"},"vehicle_type_id":"4","last_reported":1730076516,"current_range_meters":20800,"station_id":"ce4bhah2rcd13ifvqei0","pricing_plan_id":"cebpf4jnsgd1na2vs0mg"},{"bike_id":"c8713419-a835-43b9-ac75-b05adb95bea9","system_id":"levelo_inurba_marseille","lat":43.29553,"lon":5.42293,"is_reserved":false,"is_disabled":false,"rental_uris":{"android":"levelo://app?vid=c8713419-a835-43b9-ac75-b05adb95bea9","ios":"levelo://app?vid=c8713419-a835-43b9-ac75-b05adb95bea9"},"vehicle_type_id":"4","last_reported":1730076516,"current_range_meters":39200,"station_id":"ce4bhph2rcd13ifvqhdg","pricing_plan_id":"cebpf4jnsgd1na2vs0mg"},{"bike_id":"0727f7fa-8959-4af5-8998-b27de5da9a6d","system_id":"levelo_inurba_marseille","lat":43.31368,"lon":5.38498,"is_reserved":false,"is_disabled":false,"rental_uris":{"android":"levelo://app?vid=0727f7fa-8959-4af5-8998-b27de5da9a6d","ios":"levelo://app?vid=0727f7fa-8959-4af5-8998-b27de5da9a6d"},"vehicle_type_id":"4","last_reported":1730076516,"current_range_meters":40000,"station_id":"ce4bgt92rcd13ifvqcf0","pricing_plan_id":"cebpf4jnsgd1na2vs0mg"},{"bike_id":"dd631912-a53f-412d-9cdc-5746d82ad43d","system_id":"levelo_inurba_marseille","lat":43.30949,"lon":5.39044,"is_reserved":false,"is_disabled":false,"rental_uris":{"android":"levelo://app?vid=dd631912-a53f-412d-9cdc-5746d82ad43d","ios":"levelo://app?vid=dd631912-a53f-412d-9cdc-5746d82ad43d"},"vehicle_type_id":"4","last_reported":1730076516,"current_range_meters":35200,"station_id":"ce4bgup2rcd13ifvqco0","pricing_plan_id":"cebpf4jnsgd1na2vs0mg"},{"bike_id":"36e9df11-871b-42b5-b413-0559282d5b19","system_id":"levelo_inurba_marseille","lat":43.28941,"lon":5.36637,"is_reserved":false,"is_disabled":false,"rental_uris":{"android":"levelo://app?vid=36e9df11-871b-42b5-b413-0559282d5b19","ios":"levelo://app?vid=36e9df11-871b-42b5-b413-0559282d5b19"},"vehicle_type_id":"4","last_reported":1730076516,"current_range_meters":38800,"station_id":"ce4bhap2rcd13ifvqek0","pricing_plan_id":"cebpf4jnsgd1na2vs0mg"},{"bike_id":"91d85bed-e01e-4c53-bef7-3f7b97da4ec7","system_id":"levelo_inurba_marseille","lat":43.30293,"lon":5.39211,"is_reserved":false,"is_disabled":false,"rental_uris":{"android":"levelo://app?vid=91d85bed-e01e-4c53-bef7-3f7b97da4ec7","ios":"levelo://app?vid=91d85bed-e01e-4c53-bef7-3f7b97da4ec7"},"vehicle_type_id":"4","last_reported":1730076516,"current_range_meters":27200,"station_id":"ce4bgkh2rcd13ifvqbk0","pricing_plan_id":"cebpf4jnsgd1na2vs0mg"},{"bike_id":"22e69140-bec2-4569-b1a2-bd6ec9c288e5","system_id":"levelo_inurba_marseille","lat":43.28153,"lon":5.42642,"is_reserved":false,"is_disabled":false,"rental_uris":{"android":"levelo://app?vid=22e69140-bec2-4569-b1a2-bd6ec9c288e5","ios":"levelo://app?vid=22e69140-bec2-4569-b1a2-bd6ec9c288e5"},"vehicle_type_id":"4","last_reported":1730076516,"current_range_meters":20800,"station_id":"ce4bhnh2rcd13ifvqgug","pricing_plan_id":"cebpf4jnsgd1na2vs0mg"},{"bike_id":"e113f747-4daa-44f7-a218-9e030daa2565","system_id":"levelo_inurba_marseille","lat":43.32104,"lon":5.36773,"is_reserved":false,"is_disabled":false,"rental_uris":{"android":"levelo://app?vid=e113f747-4daa-44f7-a218-9e030daa2565","ios":"levelo://app?vid=e113f747-4daa-44f7-a218-9e030daa2565"},"vehicle_type_id":"4","last_reported":1730076516,"current_range_meters":24400,"station_id":"ce4bhrh2rcd13ifvqhug","pricing_plan_id":"cebpf4jnsgd1na2vs0mg"},{"bike_id":"c83bf92a-895e-4031-90cc-0a4806604b3f","system_id":"levelo_inurba_marseille","lat":43.23053,"lon":5.35497,"is_reserved":false,"is_disabled":false,"rental_uris":{"android":"levelo://app?vid=c83bf92a-895e-4031-90cc-0a4806604b3f","ios":"levelo://app?vid=c83bf92a-895e-4031-90cc-0a4806604b3f"},"vehicle_type_id":"4","last_reported":1730076516,"current_range_meters":38800,"station_id":"cpo3342slgdg3j2ifvpg","pricing_plan_id":"cebpf4jnsgd1na2vs0mg"},{"bike_id":"7aa75f4f-6c54-422b-a13a-a6e764682ad2","system_id":"levelo_inurba_marseille","lat":43.29032,"lon":5.40004,"is_reserved":false,"is_disabled":false,"rental_uris":{"android":"levelo://app?vid=7aa75f4f-6c54-422b-a13a-a6e764682ad2","ios":"levelo://app?vid=7aa75f4f-6c54-422b-a13a-a6e764682ad2"},"vehicle_type_id":"4","last_reported":1730076516,"current_range_meters":34800,"station_id":"ce4bh392rcd13ifvqdm0","pricing_plan_id":"cebpf4jnsgd1na2vs0mg"},{"bike_id":"9fd56fad-5f3d-42b4-b491-7b57b76bc0cf","system_id":"levelo_inurba_marseille","lat":43.27821,"lon":5.40719,"is_reserved":false,"is_disabled":false,"rental_uris":{"android":"levelo://app?vid=9fd56fad-5f3d-42b4-b491-7b57b76bc0cf","ios":"levelo://app?vid=9fd56fad-5f3d-42b4-b491-7b57b76bc0cf"},"vehicle_type_id":"4","last_reported":1730076516,"current_range_meters":19600,"station_id":"ce4bhnh2rcd13ifvqgtg","pricing_plan_id":"cebpf4jnsgd1na2vs0mg"},{"bike_id":"bc75bc36-53c2-40d2-a77d-675682863779","system_id":"levelo_inurba_marseille","lat":43.30951,"lon":5.3905,"is_reserved":false,"is_disabled":false,"rental_uris":{"android":"levelo://app?vid=bc75bc36-53c2-40d2-a77d-675682863779","ios":"levelo://app?vid=bc75bc36-53c2-40d2-a77d-675682863779"},"vehicle_type_id":"4","last_reported":1730076516,"current_range_meters":8000,"station_id":"ce4bgup2rcd13ifvqco0","pricing_plan_id":"cebpf4jnsgd1na2vs0mg"},{"bike_id":"690b5d62-9810-4150-863e-35762f14a011","system_id":"levelo_inurba_marseille","lat":43.24804,"lon":5.37456,"is_reserved":false,"is_disabled":false,"rental_uris":{"android":"levelo://app?vid=690b5d62-9810-4150-863e-35762f14a011","ios":"levelo://app?vid=690b5d62-9810-4150-863e-35762f14a011"},"vehicle_type_id":"4","last_reported":1730076516,"current_range_meters":32800,"station_id":"ce4bhgh2rcd13ifvqfb0","pricing_plan_id":"cebpf4jnsgd1na2vs0mg"},{"bike_id":"1a6b642e-e085-4146-a0f3-57a2127d50e2","system_id":"levelo_inurba_marseille","lat":43.31852,"lon":5.38764,"is_reserved":false,"is_disabled":false,"rental_uris":{"android":"levelo://app?vid=1a6b642e-e085-4146-a0f3-57a2127d50e2","ios":"levelo://app?vid=1a6b642e-e085-4146-a0f3-57a2127d50e2"},"vehicle_type_id":"4","last_reported":1730076516,"current_range_meters":9200,"station_id":"ce4bhqp2rcd13ifvqhng","pricing_plan_id":"cebpf4jnsgd1na2vs0mg"},{"bike_id":"b502ad4f-4825-42a7-9380-4b1fe6eb7c94","system_id":"levelo_inurba_marseille","lat":43.29959,"lon":5.41323,"is_reserved":false,"is_disabled":false,"rental_uris":{"android":"levelo://app?vid=b502ad4f-4825-42a7-9380-4b1fe6eb7c94","ios":"levelo://app?vid=b502ad4f-4825-42a7-9380-4b1fe6eb7c94"},"vehicle_type_id":"4","last_reported":1730076516,"current_range_meters":37600,"station_id":"ce4bhp12rcd13ifvqh9g","pricing_plan_id":"cebpf4jnsgd1na2vs0mg"},{"bike_id":"b04efa54-544e-4d58-9594-ae7e10fe76cf","system_id":"levelo_inurba_marseille","lat":43.25872,"lon":5.39899,"is_reserved":false,"is_disabled":false,"rental_uris":{"android":"levelo://app?vid=b04efa54-544e-4d58-9594-ae7e10fe76cf","ios":"levelo://app?vid=b04efa54-544e-4d58-9594-ae7e10fe76cf"},"vehicle_type_id":"4","last_reported":1730076516,"current_range_meters":8800,"station_id":"ce4bhl92rcd13ifvqghg","pricing_plan_id":"cebpf4jnsgd1na2vs0mg"},{"bike_id":"16578466-81f3-472d-b079-b2e4ec231203","system_id":"levelo_inurba_marseille","lat":43.33603,"lon":5.41029,"is_reserved":false,"is_disabled":false,"rental_uris":{"android":"levelo://app?vid=16578466-81f3-472d-b079-b2e4ec231203","ios":"levelo://app?vid=16578466-81f3-472d-b079-b2e4ec231203"},"vehicle_type_id":"4","last_reported":1730076516,"current_range_meters":20000,"station_id":"ce4bhqh2rcd13ifvqhmg","pricing_plan_id":"cebpf4jnsgd1na2vs0mg"},{"bike_id":"1d0d92b7-f6c1-4ccd-8c1f-6182976eb675","system_id":"levelo_inurba_marseille","lat":43.26209,"lon":5.37928,"is_reserved":false,"is_disabled":false,"rental_uris":{"android":"levelo://app?vid=1d0d92b7-f6c1-4ccd-8c1f-6182976eb675","ios":"levelo://app?vid=1d0d92b7-f6c1-4ccd-8c1f-6182976eb675"},"vehicle_type_id":"4","last_reported":1730076516,"current_range_meters":36000,"station_id":"ce4bhjp2rcd13ifvqg90","pricing_plan_id":"cebpf4jnsgd1na2vs0mg"},{"bike_id":"a8f9e5f1-9109-4bb3-bf33-6f5251bd1cff","system_id":"levelo_inurba_marseille","lat":43.30602,"lon":5.37227,"is_reserved":false,"is_disabled":false,"rental_uris":{"android":"levelo://app?vid=a8f9e5f1-9109-4bb3-bf33-6f5251bd1cff","ios":"levelo://app?vid=a8f9e5f1-9109-4bb3-bf33-6f5251bd1cff"},"vehicle_type_id":"4","last_reported":1730076516,"current_range_meters":16400,"station_id":"ce4bgqh2rcd13ifvqc4g","pricing_plan_id":"cebpf4jnsgd1na2vs0mg"},{"bike_id":"f1704452-cc24-4a74-8351-c1aa1bec66cb","system_id":"levelo_inurba_marseille","lat":43.28854,"lon":5.35855,"is_reserved":false,"is_disabled":false,"rental_uris":{"android":"levelo://app?vid=f1704452-cc24-4a74-8351-c1aa1bec66cb","ios":"levelo://app?vid=f1704452-cc24-4a74-8351-c1aa1bec66cb"},"vehicle_type_id":"4","last_reported":1730076516,"current_range_meters":30000,"station_id":"ce4bhb12rcd13ifvqem0","pricing_plan_id":"cebpf4jnsgd1na2vs0mg"},{"bike_id":"bb43b68b-eba2-4125-9e9f-ebf8a22cffee","system_id":"levelo_inurba_marseille","lat":43.31759,"lon":5.39018,"is_reserved":false,"is_disabled":false,"rental_uris":{"android":"levelo://app?vid=bb43b68b-eba2-4125-9e9f-ebf8a22cffee","ios":"levelo://app?vid=bb43b68b-eba2-4125-9e9f-ebf8a22cffee"},"vehicle_type_id":"4","last_reported":1730076516,"current_range_meters":30800,"station_id":"ce4bhqp2rcd13ifvqhng","pricing_plan_id":"cebpf4jnsgd1na2vs0mg"},{"bike_id":"f3a14a79-d5fd-4be0-8f3b-cc8e587969dd","system_id":"levelo_inurba_marseille","lat":43.23151,"lon":5.43721,"is_reserved":false,"is_disabled":false,"rental_uris":{"android":"levelo://app?vid=f3a14a79-d5fd-4be0-8f3b-cc8e587969dd","ios":"levelo://app?vid=f3a14a79-d5fd-4be0-8f3b-cc8e587969dd"},"vehicle_type_id":"4","last_reported":1730076516,"current_range_meters":2800,"station_id":"ce4bhmp2rcd13ifvqgog","pricing_plan_id":"cebpf4jnsgd1na2vs0mg"},{"bike_id":"3528de46-0377-451a-8a44-997de482e404","system_id":"levelo_inurba_marseille","lat":43.30426,"lon":5.38897,"is_reserved":false,"is_disabled":false,"rental_uris":{"android":"levelo://app?vid=3528de46-0377-451a-8a44-997de482e404","ios":"levelo://app?vid=3528de46-0377-451a-8a44-997de482e404"},"vehicle_type_id":"4","last_reported":1730076516,"current_range_meters":39200,"station_id":"ce4bgk12rcd13ifvqbi0","pricing_plan_id":"cebpf4jnsgd1na2vs0mg"},{"bike_id":"630e8ee7-2ca4-4214-9e45-0804a2e1bf1d","system_id":"levelo_inurba_marseille","lat":43.31885,"lon":5.40734,"is_reserved":false,"is_disabled":false,"rental_uris":{"android":"levelo://app?vid=630e8ee7-2ca4-4214-9e45-0804a2e1bf1d","ios":"levelo://app?vid=630e8ee7-2ca4-4214-9e45-0804a2e1bf1d"},"vehicle_type_id":"4","last_reported":1730076516,"current_range_meters":8800,"station_id":"ce4bhq12rcd13ifvqhig","pricing_plan_id":"cebpf4jnsgd1na2vs0mg"},{"bike_id":"69d24c0a-401f-4b7f-a251-1bc8383a331f","system_id":"levelo_inurba_marseille","lat":43.27374,"lon":5.36255,"is_reserved":false,"is_disabled":false,"rental_uris":{"android":"levelo://app?vid=69d24c0a-401f-4b7f-a251-1bc8383a331f","ios":"levelo://app?vid=69d24c0a-401f-4b7f-a251-1bc8383a331f"},"vehicle_type_id":"4","last_reported":1730076516,"current_range_meters":14400,"station_id":"ce4bhbh2rcd13ifvqeo0","pricing_plan_id":"cebpf4jnsgd1na2vs0mg"},{"bike_id":"ba7ff12b-4fb3-47ea-b304-85ab8fca1364","system_id":"levelo_inurba_marseille","lat":43.32286,"lon":5.38283,"is_reserved":false,"is_disabled":false,"rental_uris":{"android":"levelo://app?vid=ba7ff12b-4fb3-47ea-b304-85ab8fca1364","ios":"levelo://app?vid=ba7ff12b-4fb3-47ea-b304-85ab8fca1364"},"vehicle_type_id":"4","last_reported":1730076516,"current_range_meters":39200,"station_id":"ce4bhr12rcd13ifvqhqg","pricing_plan_id":"cebpf4jnsgd1na2vs0mg"},{"bike_id":"0c8e91d5-48c5-48c3-9198-c07a15466f99","system_id":"levelo_inurba_marseille","lat":43.29567,"lon":5.39983,"is_reserved":false,"is_disabled":false,"rental_uris":{"android":"levelo://app?vid=0c8e91d5-48c5-48c3-9198-c07a15466f99","ios":"levelo://app?vid=0c8e91d5-48c5-48c3-9198-c07a15466f99"},"vehicle_type_id":"4","last_reported":1730076516,"current_range_meters":35600,"station_id":"ce4bh312rcd13ifvqdj0","pricing_plan_id":"cebpf4jnsgd1na2vs0mg"},{"bike_id":"3175915b-2fbf-4d22-8776-58128d4114a6","system_id":"levelo_inurba_marseille","lat":43.27996,"lon":5.41662,"is_reserved":false,"is_disabled":false,"rental_uris":{"android":"levelo://app?vid=3175915b-2fbf-4d22-8776-58128d4114a6","ios":"levelo://app?vid=3175915b-2fbf-4d22-8776-58128d4114a6"},"vehicle_type_id":"4","last_reported":1730076516,"current_range_meters":6000,"station_id":"ce4bho12rcd13ifvqh1g","pricing_plan_id":"cebpf4jnsgd1na2vs0mg"},{"bike_id":"2842f46d-2e4d-42ec-9460-60174175b404","system_id":"levelo_inurba_marseille","lat":43.25113,"lon":5.40317,"is_reserved":false,"is_disabled":false,"rental_uris":{"android":"levelo://app?vid=2842f46d-2e4d-42ec-9460-60174175b404","ios":"levelo://app?vid=2842f46d-2e4d-42ec-9460-60174175b404"},"vehicle_type_id":"4","last_reported":1730076516,"current_range_meters":30000,"station_id":"ce4bhlh2rcd13ifvqgig","pricing_plan_id":"cebpf4jnsgd1na2vs0mg"},{"bike_id":"771c3aab-3244-46b8-a348-ba752df5cec0","system_id":"levelo_inurba_marseille","lat":43.25866,"lon":5.39906,"is_reserved":false,"is_disabled":false,"rental_uris":{"android":"levelo://app?vid=771c3aab-3244-46b8-a348-ba752df5cec0","ios":"levelo://app?vid=771c3aab-3244-46b8-a348-ba752df5cec0"},"vehicle_type_id":"4","last_reported":1730076516,"current_range_meters":36000,"station_id":"ce4bhl92rcd13ifvqghg","pricing_plan_id":"cebpf4jnsgd1na2vs0mg"},{"bike_id":"f7a50275-88a4-4be4-ac33-5cce1242cfaa","system_id":"levelo_inurba_marseille","lat":43.31714,"lon":5.37758,"is_reserved":false,"is_disabled":false,"rental_uris":{"android":"levelo://app?vid=f7a50275-88a4-4be4-ac33-5cce1242cfaa","ios":"levelo://app?vid=f7a50275-88a4-4be4-ac33-5cce1242cfaa"},"vehicle_type_id":"4","last_reported":1730076516,"current_range_meters":40000,"station_id":"ce4bgth2rcd13ifvqch0","pricing_plan_id":"cebpf4jnsgd1na2vs0mg"},{"bike_id":"53e995e6-add3-40f6-8acb-cde71469a9f4","system_id":"levelo_inurba_marseille","lat":43.31173,"lon":5.38714,"is_reserved":false,"is_disabled":false,"rental_uris":{"android":"levelo://app?vid=53e995e6-add3-40f6-8acb-cde71469a9f4","ios":"levelo://app?vid=53e995e6-add3-40f6-8acb-cde71469a9f4"},"vehicle_type_id":"4","last_reported":1730076516,"current_range_meters":28400,"station_id":"ce4bgv12rcd13ifvqcp0","pricing_plan_id":"cebpf4jnsgd1na2vs0mg"},{"bike_id":"e20c89c8-49fc-48c0-8a85-ade3d59fe2fc","system_id":"levelo_inurba_marseille","lat":43.25105,"lon":5.40324,"is_reserved":false,"is_disabled":false,"rental_uris":{"android":"levelo://app?vid=e20c89c8-49fc-48c0-8a85-ade3d59fe2fc","ios":"levelo://app?vid=e20c89c8-49fc-48c0-8a85-ade3d59fe2fc"},"vehicle_type_id":"4","last_reported":1730076516,"current_range_meters":33600,"station_id":"ce4bhlh2rcd13ifvqgig","pricing_plan_id":"cebpf4jnsgd1na2vs0mg"},{"bike_id":"e1852f1a-b553-48e5-87af-e882bbea211c","system_id":"levelo_inurba_marseille","lat":43.30927,"lon":5.4015,"is_reserved":false,"is_disabled":false,"rental_uris":{"android":"levelo://app?vid=e1852f1a-b553-48e5-87af-e882bbea211c","ios":"levelo://app?vid=e1852f1a-b553-48e5-87af-e882bbea211c"},"vehicle_type_id":"4","last_reported":1730076516,"current_range_meters":38800,"station_id":"ce4bgvp2rcd13ifvqct0","pricing_plan_id":"cebpf4jnsgd1na2vs0mg"},{"bike_id":"59e82a4e-1841-4082-84ae-50a5176e85f8","system_id":"levelo_inurba_marseille","lat":43.296814,"lon":5.372837,"is_reserved":false,"is_disabled":false,"rental_uris":{"android":"levelo://app?vid=59e82a4e-1841-4082-84ae-50a5176e85f8","ios":"levelo://app?vid=59e82a4e-1841-4082-84ae-50a5176e85f8"},"vehicle_type_id":"4","last_reported":1730076516,"current_range_meters":38000,"station_id":"ce4bgk12rcd13ifvqbj0","pricing_plan_id":"cebpf4jnsgd1na2vs0mg"},{"bike_id":"abc5207f-d86f-4e31-9ce9-ca2d68d828ba","system_id":"levelo_inurba_marseille","lat":43.25005,"lon":5.38933,"is_reserved":false,"is_disabled":false,"rental_uris":{"android":"levelo://app?vid=abc5207f-d86f-4e31-9ce9-ca2d68d828ba","ios":"levelo://app?vid=abc5207f-d86f-4e31-9ce9-ca2d68d828ba"},"vehicle_type_id":"4","last_reported":1730076516,"current_range_meters":4400,"station_id":"ce4bhgp2rcd13ifvqfd0","pricing_plan_id":"cebpf4jnsgd1na2vs0mg"},{"bike_id":"7ca56edd-ab0f-42b5-b290-aff4cb25cb72","system_id":"levelo_inurba_marseille","lat":43.24389,"lon":5.37057,"is_reserved":false,"is_disabled":false,"rental_uris":{"android":"levelo://app?vid=7ca56edd-ab0f-42b5-b290-aff4cb25cb72","ios":"levelo://app?vid=7ca56edd-ab0f-42b5-b290-aff4cb25cb72"},"vehicle_type_id":"4","last_reported":1730076516,"current_range_meters":32400,"station_id":"ce4bhhh2rcd13ifvqfk0","pricing_plan_id":"cebpf4jnsgd1na2vs0mg"},{"bike_id":"4cf016cf-222a-4af0-b71c-5001d7c7e17d","system_id":"levelo_inurba_marseille","lat":43.25093,"lon":5.39511,"is_reserved":false,"is_disabled":false,"rental_uris":{"android":"levelo://app?vid=4cf016cf-222a-4af0-b71c-5001d7c7e17d","ios":"levelo://app?vid=4cf016cf-222a-4af0-b71c-5001d7c7e17d"},"vehicle_type_id":"4","last_reported":1730076516,"current_range_meters":34800,"station_id":"ce4bhm12rcd13ifvqgkg","pricing_plan_id":"cebpf4jnsgd1na2vs0mg"},{"bike_id":"d9b05aa4-1801-4ca3-bdd2-d173467b4dfe","system_id":"levelo_inurba_marseille","lat":43.2655,"lon":5.3729,"is_reserved":false,"is_disabled":false,"rental_uris":{"android":"levelo://app?vid=d9b05aa4-1801-4ca3-bdd2-d173467b4dfe","ios":"levelo://app?vid=d9b05aa4-1801-4ca3-bdd2-d173467b4dfe"},"vehicle_type_id":"4","last_reported":1730076516,"current_range_meters":24400,"station_id":"ce4bhg12rcd13ifvqf70","pricing_plan_id":"cebpf4jnsgd1na2vs0mg"},{"bike_id":"3ce017f1-d9d6-4c08-a41c-e5c11b0c4cdc","system_id":"levelo_inurba_marseille","lat":43.28701,"lon":5.37389,"is_reserved":false,"is_disabled":false,"rental_uris":{"android":"levelo://app?vid=3ce017f1-d9d6-4c08-a41c-e5c11b0c4cdc","ios":"levelo://app?vid=3ce017f1-d9d6-4c08-a41c-e5c11b0c4cdc"},"vehicle_type_id":"4","last_reported":1730076516,"current_range_meters":22000,"station_id":"ce4bh3p2rcd13ifvqdq0","pricing_plan_id":"cebpf4jnsgd1na2vs0mg"},{"bike_id":"d02e2892-3b43-44cc-af2b-0eba10956224","system_id":"levelo_inurba_marseille","lat":43.28614,"lon":5.37072,"is_reserved":false,"is_disabled":false,"rental_uris":{"android":"levelo://app?vid=d02e2892-3b43-44cc-af2b-0eba10956224","ios":"levelo://app?vid=d02e2892-3b43-44cc-af2b-0eba10956224"},"vehicle_type_id":"4","last_reported":1730076516,"current_range_meters":40000,"station_id":"ce4bht12rcd13ifvqi60","pricing_plan_id":"cebpf4jnsgd1na2vs0mg"},{"bike_id":"8d1224ea-8c67-414f-8e8e-8dff85dd0343","system_id":"levelo_inurba_marseille","lat":43.25001,"lon":5.38927,"is_reserved":false,"is_disabled":false,"rental_uris":{"android":"levelo://app?vid=8d1224ea-8c67-414f-8e8e-8dff85dd0343","ios":"levelo://app?vid=8d1224ea-8c67-414f-8e8e-8dff85dd0343"},"vehicle_type_id":"4","last_reported":1730076516,"current_range_meters":34800,"station_id":"ce4bhgp2rcd13ifvqfd0","pricing_plan_id":"cebpf4jnsgd1na2vs0mg"},{"bike_id":"9befed88-9f8c-464c-b07b-093bd97066bb","system_id":"levelo_inurba_marseille","lat":43.29805,"lon":5.37136,"is_reserved":false,"is_disabled":false,"rental_uris":{"android":"levelo://app?vid=9befed88-9f8c-464c-b07b-093bd97066bb","ios":"levelo://app?vid=9befed88-9f8c-464c-b07b-093bd97066bb"},"vehicle_type_id":"4","last_reported":1730076516,"current_range_meters":17600,"station_id":"","pricing_plan_id":"cebpf4jnsgd1na2vs0mg"},{"bike_id":"a136efbe-aa10-4490-8814-8c8ecc48a7d6","system_id":"levelo_inurba_marseille","lat":43.308957,"lon":5.396657,"is_reserved":false,"is_disabled":false,"rental_uris":{"android":"levelo://app?vid=a136efbe-aa10-4490-8814-8c8ecc48a7d6","ios":"levelo://app?vid=a136efbe-aa10-4490-8814-8c8ecc48a7d6"},"vehicle_type_id":"4","last_reported":1730076516,"current_range_meters":38800,"station_id":"ce4bh012rcd13ifvqcv0","pricing_plan_id":"cebpf4jnsgd1na2vs0mg"},{"bike_id":"f37e3b02-a49c-4c4e-b112-f9c8c24edf90","system_id":"levelo_inurba_marseille","lat":43.2319,"lon":5.35552,"is_reserved":false,"is_disabled":false,"rental_uris":{"android":"levelo://app?vid=f37e3b02-a49c-4c4e-b112-f9c8c24edf90","ios":"levelo://app?vid=f37e3b02-a49c-4c4e-b112-f9c8c24edf90"},"vehicle_type_id":"4","last_reported":1730076516,"current_range_meters":12400,"station_id":"ce4bhu92rcd13ifvqi70","pricing_plan_id":"cebpf4jnsgd1na2vs0mg"},{"bike_id":"c65ec850-e717-4601-9821-87b556c16011","system_id":"levelo_inurba_marseille","lat":43.31187,"lon":5.38708,"is_reserved":false,"is_disabled":false,"rental_uris":{"android":"levelo://app?vid=c65ec850-e717-4601-9821-87b556c16011","ios":"levelo://app?vid=c65ec850-e717-4601-9821-87b556c16011"},"vehicle_type_id":"4","last_reported":1730076516,"current_range_meters":38000,"station_id":"ce4bgv12rcd13ifvqcp0","pricing_plan_id":"cebpf4jnsgd1na2vs0mg"},{"bike_id":"07c11081-d335-45d1-ac0d-28860aa71140","system_id":"levelo_inurba_marseille","lat":43.27903,"lon":5.39589,"is_reserved":false,"is_disabled":false,"rental_uris":{"android":"levelo://app?vid=07c11081-d335-45d1-ac0d-28860aa71140","ios":"levelo://app?vid=07c11081-d335-45d1-ac0d-28860aa71140"},"vehicle_type_id":"4","last_reported":1730076516,"current_range_meters":24800,"station_id":"ce4bhf92rcd13ifvqf40","pricing_plan_id":"cebpf4jnsgd1na2vs0mg"},{"bike_id":"03c64661-ec20-42cc-aab2-b42dd87d524d","system_id":"levelo_inurba_marseille","lat":43.29524,"lon":5.39399,"is_reserved":false,"is_disabled":false,"rental_uris":{"android":"levelo://app?vid=03c64661-ec20-42cc-aab2-b42dd87d524d","ios":"levelo://app?vid=03c64661-ec20-42cc-aab2-b42dd87d524d"},"vehicle_type_id":"4","last_reported":1730076516,"current_range_meters":36800,"station_id":"ce4bh292rcd13ifvqdf0","pricing_plan_id":"cebpf4jnsgd1na2vs0mg"},{"bike_id":"8578dd61-d55b-4cb6-94b7-92b728be92e3","system_id":"levelo_inurba_marseille","lat":43.29298,"lon":5.37453,"is_reserved":false,"is_disabled":false,"rental_uris":{"android":"levelo://app?vid=8578dd61-d55b-4cb6-94b7-92b728be92e3","ios":"levelo://app?vid=8578dd61-d55b-4cb6-94b7-92b728be92e3"},"vehicle_type_id":"4","last_reported":1730076516,"current_range_meters":17600,"station_id":"ce4bgi12rcd13ifvqb70","pricing_plan_id":"cebpf4jnsgd1na2vs0mg"},{"bike_id":"861692e4-8878-4d12-a06f-bba82e5731c6","system_id":"levelo_inurba_marseille","lat":43.24543,"lon":5.39533,"is_reserved":false,"is_disabled":false,"rental_uris":{"android":"levelo://app?vid=861692e4-8878-4d12-a06f-bba82e5731c6","ios":"levelo://app?vid=861692e4-8878-4d12-a06f-bba82e5731c6"},"vehicle_type_id":"4","last_reported":1730076516,"current_range_meters":38000,"station_id":"ce4bhlp2rcd13ifvqgjg","pricing_plan_id":"cebpf4jnsgd1na2vs0mg"},{"bike_id":"1492a169-2d73-48b8-9767-d181153df6d9","system_id":"levelo_inurba_marseille","lat":43.31682,"lon":5.40476,"is_reserved":false,"is_disabled":false,"rental_uris":{"android":"levelo://app?vid=1492a169-2d73-48b8-9767-d181153df6d9","ios":"levelo://app?vid=1492a169-2d73-48b8-9767-d181153df6d9"},"vehicle_type_id":"4","last_reported":1730076516,"current_range_meters":38800,"station_id":"ce4bh012rcd13ifvqd00","pricing_plan_id":"cebpf4jnsgd1na2vs0mg"},{"bike_id":"0fc35ec4-d69e-455a-854d-9256f0d5a7e6","system_id":"levelo_inurba_marseille","lat":43.24071,"lon":5.37763,"is_reserved":false,"is_disabled":false,"rental_uris":{"android":"levelo://app?vid=0fc35ec4-d69e-455a-854d-9256f0d5a7e6","ios":"levelo://app?vid=0fc35ec4-d69e-455a-854d-9256f0d5a7e6"},"vehicle_type_id":"4","last_reported":1730076516,"current_range_meters":25200,"station_id":"ce4bhnp2rcd13ifvqgvg","pricing_plan_id":"cebpf4jnsgd1na2vs0mg"},{"bike_id":"9c975ea9-79b8-44be-86c3-0afb0514a4ca","system_id":"levelo_inurba_marseille","lat":43.28154,"lon":5.42654,"is_reserved":false,"is_disabled":false,"rental_uris":{"android":"levelo://app?vid=9c975ea9-79b8-44be-86c3-0afb0514a4ca","ios":"levelo://app?vid=9c975ea9-79b8-44be-86c3-0afb0514a4ca"},"vehicle_type_id":"4","last_reported":1730076516,"current_range_meters":23200,"station_id":"ce4bhnh2rcd13ifvqgug","pricing_plan_id":"cebpf4jnsgd1na2vs0mg"},{"bike_id":"095cb914-8282-46ed-8027-40460b9cac82","system_id":"levelo_inurba_marseille","lat":43.28848,"lon":5.39319,"is_reserved":false,"is_disabled":false,"rental_uris":{"android":"levelo://app?vid=095cb914-8282-46ed-8027-40460b9cac82","ios":"levelo://app?vid=095cb914-8282-46ed-8027-40460b9cac82"},"vehicle_type_id":"4","last_reported":1730076516,"current_range_meters":36000,"station_id":"ce4bh2p2rcd13ifvqdi0","pricing_plan_id":"cebpf4jnsgd1na2vs0mg"},{"bike_id":"9de4b6d1-b328-4924-9217-9f37e44a2c12","system_id":"levelo_inurba_marseille","lat":43.306,"lon":5.37239,"is_reserved":false,"is_disabled":false,"rental_uris":{"android":"levelo://app?vid=9de4b6d1-b328-4924-9217-9f37e44a2c12","ios":"levelo://app?vid=9de4b6d1-b328-4924-9217-9f37e44a2c12"},"vehicle_type_id":"4","last_reported":1730076516,"current_range_meters":35600,"station_id":"ce4bgqh2rcd13ifvqc4g","pricing_plan_id":"cebpf4jnsgd1na2vs0mg"},{"bike_id":"e39645c5-87ac-4e87-90ca-e4c6f3ff67ce","system_id":"levelo_inurba_marseille","lat":43.299341,"lon":5.365396,"is_reserved":false,"is_disabled":false,"rental_uris":{"android":"levelo://app?vid=e39645c5-87ac-4e87-90ca-e4c6f3ff67ce","ios":"levelo://app?vid=e39645c5-87ac-4e87-90ca-e4c6f3ff67ce"},"vehicle_type_id":"4","last_reported":1730076516,"current_range_meters":33200,"station_id":"ce4bgm92rcd13ifvqbr0","pricing_plan_id":"cebpf4jnsgd1na2vs0mg"},{"bike_id":"8eb293f7-0d62-4a49-8083-060e6405105e","system_id":"levelo_inurba_marseille","lat":43.26568,"lon":5.39007,"is_reserved":false,"is_disabled":false,"rental_uris":{"android":"levelo://app?vid=8eb293f7-0d62-4a49-8083-060e6405105e","ios":"levelo://app?vid=8eb293f7-0d62-4a49-8083-060e6405105e"},"vehicle_type_id":"4","last_reported":1730076516,"current_range_meters":16400,"station_id":"ce4bhe12rcd13ifvqf30","pricing_plan_id":"cebpf4jnsgd1na2vs0mg"},{"bike_id":"f8eea991-84b5-4a00-90d6-62c5a3dacdd5","system_id":"levelo_inurba_marseille","lat":43.29366,"lon":5.37851,"is_reserved":false,"is_disabled":false,"rental_uris":{"android":"levelo://app?vid=f8eea991-84b5-4a00-90d6-62c5a3dacdd5","ios":"levelo://app?vid=f8eea991-84b5-4a00-90d6-62c5a3dacdd5"},"vehicle_type_id":"4","last_reported":1730076516,"current_range_meters":26800,"station_id":"ce4bgjh2rcd13ifvqbf0","pricing_plan_id":"cebpf4jnsgd1na2vs0mg"},{"bike_id":"8a5799ec-e449-40ff-9cff-af399ca40c89","system_id":"levelo_inurba_marseille","lat":43.30802,"lon":5.38152,"is_reserved":false,"is_disabled":false,"rental_uris":{"android":"levelo://app?vid=8a5799ec-e449-40ff-9cff-af399ca40c89","ios":"levelo://app?vid=8a5799ec-e449-40ff-9cff-af399ca40c89"},"vehicle_type_id":"4","last_reported":1730076516,"current_range_meters":39200,"station_id":"ce4bgt12rcd13ifvqce0","pricing_plan_id":"cebpf4jnsgd1na2vs0mg"},{"bike_id":"78d67571-e9d2-47e1-9a66-e0891f29b559","system_id":"levelo_inurba_marseille","lat":43.29255,"lon":5.38446,"is_reserved":false,"is_disabled":false,"rental_uris":{"android":"levelo://app?vid=78d67571-e9d2-47e1-9a66-e0891f29b559","ios":"levelo://app?vid=78d67571-e9d2-47e1-9a66-e0891f29b559"},"vehicle_type_id":"4","last_reported":1730076516,"current_range_meters":37600,"station_id":"ce4bh692rcd13ifvqea0","pricing_plan_id":"cebpf4jnsgd1na2vs0mg"},{"bike_id":"efa4566a-b34e-47c4-8d83-b4c58c5f2896","system_id":"levelo_inurba_marseille","lat":43.30312,"lon":5.36887,"is_reserved":false,"is_disabled":false,"rental_uris":{"android":"levelo://app?vid=efa4566a-b34e-47c4-8d83-b4c58c5f2896","ios":"levelo://app?vid=efa4566a-b34e-47c4-8d83-b4c58c5f2896"},"vehicle_type_id":"4","last_reported":1730076516,"current_range_meters":39200,"station_id":"ce4bgqh2rcd13ifvqc5g","pricing_plan_id":"cebpf4jnsgd1na2vs0mg"},{"bike_id":"3d729504-3198-4bd2-a0c7-ff4fc02f56e0","system_id":"levelo_inurba_marseille","lat":43.31513,"lon":5.37426,"is_reserved":false,"is_disabled":false,"rental_uris":{"android":"levelo://app?vid=3d729504-3198-4bd2-a0c7-ff4fc02f56e0","ios":"levelo://app?vid=3d729504-3198-4bd2-a0c7-ff4fc02f56e0"},"vehicle_type_id":"4","last_reported":1730076516,"current_range_meters":14800,"station_id":"","pricing_plan_id":"cebpf4jnsgd1na2vs0mg"},{"bike_id":"a08296db-b3f4-4d7c-b368-674ac3a21b1e","system_id":"levelo_inurba_marseille","lat":43.23061,"lon":5.35494,"is_reserved":false,"is_disabled":false,"rental_uris":{"android":"levelo://app?vid=a08296db-b3f4-4d7c-b368-674ac3a21b1e","ios":"levelo://app?vid=a08296db-b3f4-4d7c-b368-674ac3a21b1e"},"vehicle_type_id":"4","last_reported":1730076516,"current_range_meters":38400,"station_id":"cpo3342slgdg3j2ifvpg","pricing_plan_id":"cebpf4jnsgd1na2vs0mg"},{"bike_id":"56fa48c3-db27-4e34-89de-464ed017462b","system_id":"levelo_inurba_marseille","lat":43.28464,"lon":5.35889,"is_reserved":false,"is_disabled":false,"rental_uris":{"android":"levelo://app?vid=56fa48c3-db27-4e34-89de-464ed017462b","ios":"levelo://app?vid=56fa48c3-db27-4e34-89de-464ed017462b"},"vehicle_type_id":"4","last_reported":1730076516,"current_range_meters":19600,"station_id":"ce4bhah2rcd13ifvqei0","pricing_plan_id":"cebpf4jnsgd1na2vs0mg"},{"bike_id":"a9b41ac2-66f9-4672-b6b9-87a024c562fe","system_id":"levelo_inurba_marseille","lat":43.2994,"lon":5.36548,"is_reserved":false,"is_disabled":false,"rental_uris":{"android":"levelo://app?vid=a9b41ac2-66f9-4672-b6b9-87a024c562fe","ios":"levelo://app?vid=a9b41ac2-66f9-4672-b6b9-87a024c562fe"},"vehicle_type_id":"4","last_reported":1730076516,"current_range_meters":8400,"station_id":"ce4bgm92rcd13ifvqbr0","pricing_plan_id":"cebpf4jnsgd1na2vs0mg"},{"bike_id":"a1320bbb-d1d6-4d70-823d-7f84b783bc00","system_id":"levelo_inurba_marseille","lat":43.29566,"lon":5.39981,"is_reserved":false,"is_disabled":false,"rental_uris":{"android":"levelo://app?vid=a1320bbb-d1d6-4d70-823d-7f84b783bc00","ios":"levelo://app?vid=a1320bbb-d1d6-4d70-823d-7f84b783bc00"},"vehicle_type_id":"4","last_reported":1730076516,"current_range_meters":33600,"station_id":"ce4bh312rcd13ifvqdj0","pricing_plan_id":"cebpf4jnsgd1na2vs0mg"},{"bike_id":"d0a949c6-8436-4a0e-abe5-eb07bb097f65","system_id":"levelo_inurba_marseille","lat":43.25119,"lon":5.40323,"is_reserved":false,"is_disabled":false,"rental_uris":{"android":"levelo://app?vid=d0a949c6-8436-4a0e-abe5-eb07bb097f65","ios":"levelo://app?vid=d0a949c6-8436-4a0e-abe5-eb07bb097f65"},"vehicle_type_id":"4","last_reported":1730076516,"current_range_meters":13600,"station_id":"ce4bhlh2rcd13ifvqgig","pricing_plan_id":"cebpf4jnsgd1na2vs0mg"},{"bike_id":"a5514b03-0f89-4554-ab5c-2e656009f2e6","system_id":"levelo_inurba_marseille","lat":43.2991,"lon":5.37456,"is_reserved":false,"is_disabled":false,"rental_uris":{"android":"levelo://app?vid=a5514b03-0f89-4554-ab5c-2e656009f2e6","ios":"levelo://app?vid=a5514b03-0f89-4554-ab5c-2e656009f2e6"},"vehicle_type_id":"4","last_reported":1730076516,"current_range_meters":38400,"station_id":"ce4bgjh2rcd13ifvqbg0","pricing_plan_id":"cebpf4jnsgd1na2vs0mg"},{"bike_id":"28513593-b70e-4462-b74c-8c32f307ccf0","system_id":"levelo_inurba_marseille","lat":43.2846,"lon":5.35895,"is_reserved":false,"is_disabled":false,"rental_uris":{"android":"levelo://app?vid=28513593-b70e-4462-b74c-8c32f307ccf0","ios":"levelo://app?vid=28513593-b70e-4462-b74c-8c32f307ccf0"},"vehicle_type_id":"4","last_reported":1730076516,"current_range_meters":36400,"station_id":"ce4bhah2rcd13ifvqei0","pricing_plan_id":"cebpf4jnsgd1na2vs0mg"},{"bike_id":"e20d3c69-3096-41fb-8abf-5b752c1ce0c2","system_id":"levelo_inurba_marseille","lat":43.28062,"lon":5.38723,"is_reserved":false,"is_disabled":false,"rental_uris":{"android":"levelo://app?vid=e20d3c69-3096-41fb-8abf-5b752c1ce0c2","ios":"levelo://app?vid=e20d3c69-3096-41fb-8abf-5b752c1ce0c2"},"vehicle_type_id":"4","last_reported":1730076516,"current_range_meters":25200,"station_id":"","pricing_plan_id":"cebpf4jnsgd1na2vs0mg"},{"bike_id":"c00d33d1-5862-4fe7-beaa-8286a2470427","system_id":"levelo_inurba_marseille","lat":43.30803,"lon":5.38166,"is_reserved":false,"is_disabled":false,"rental_uris":{"android":"levelo://app?vid=c00d33d1-5862-4fe7-beaa-8286a2470427","ios":"levelo://app?vid=c00d33d1-5862-4fe7-beaa-8286a2470427"},"vehicle_type_id":"4","last_reported":1730076516,"current_range_meters":16000,"station_id":"ce4bgt12rcd13ifvqce0","pricing_plan_id":"cebpf4jnsgd1na2vs0mg"},{"bike_id":"72f33990-5a0c-44ef-9d09-66d93400b4a5","system_id":"levelo_inurba_marseille","lat":43.31707,"lon":5.3776,"is_reserved":false,"is_disabled":false,"rental_uris":{"android":"levelo://app?vid=72f33990-5a0c-44ef-9d09-66d93400b4a5","ios":"levelo://app?vid=72f33990-5a0c-44ef-9d09-66d93400b4a5"},"vehicle_type_id":"4","last_reported":1730076516,"current_range_meters":36800,"station_id":"ce4bgth2rcd13ifvqch0","pricing_plan_id":"cebpf4jnsgd1na2vs0mg"},{"bike_id":"d9ead070-f92d-484d-a2b3-85bc14bf2435","system_id":"levelo_inurba_marseille","lat":43.2846,"lon":5.38417,"is_reserved":false,"is_disabled":false,"rental_uris":{"android":"levelo://app?vid=d9ead070-f92d-484d-a2b3-85bc14bf2435","ios":"levelo://app?vid=d9ead070-f92d-484d-a2b3-85bc14bf2435"},"vehicle_type_id":"4","last_reported":1730076516,"current_range_meters":22800,"station_id":"ce4bh512rcd13ifvqe3g","pricing_plan_id":"cebpf4jnsgd1na2vs0mg"},{"bike_id":"9d4cbb65-8739-4be6-aab3-9ac29382f529","system_id":"levelo_inurba_marseille","lat":43.310699,"lon":5.383556,"is_reserved":false,"is_disabled":false,"rental_uris":{"android":"levelo://app?vid=9d4cbb65-8739-4be6-aab3-9ac29382f529","ios":"levelo://app?vid=9d4cbb65-8739-4be6-aab3-9ac29382f529"},"vehicle_type_id":"4","last_reported":1730076516,"current_range_meters":30000,"station_id":"ce4bgv92rcd13ifvqcr0","pricing_plan_id":"cebpf4jnsgd1na2vs0mg"},{"bike_id":"d42cd8f1-be9f-4587-96dc-fd9d11f4d1a0","system_id":"levelo_inurba_marseille","lat":43.2511,"lon":5.40325,"is_reserved":false,"is_disabled":false,"rental_uris":{"android":"levelo://app?vid=d42cd8f1-be9f-4587-96dc-fd9d11f4d1a0","ios":"levelo://app?vid=d42cd8f1-be9f-4587-96dc-fd9d11f4d1a0"},"vehicle_type_id":"4","last_reported":1730076516,"current_range_meters":24400,"station_id":"ce4bhlh2rcd13ifvqgig","pricing_plan_id":"cebpf4jnsgd1na2vs0mg"},{"bike_id":"76588601-f0de-444c-8708-6d6ae74a37db","system_id":"levelo_inurba_marseille","lat":43.23964,"lon":5.36639,"is_reserved":false,"is_disabled":false,"rental_uris":{"android":"levelo://app?vid=76588601-f0de-444c-8708-6d6ae74a37db","ios":"levelo://app?vid=76588601-f0de-444c-8708-6d6ae74a37db"},"vehicle_type_id":"4","last_reported":1730076516,"current_range_meters":39200,"station_id":"ce4bhi12rcd13ifvqfp0","pricing_plan_id":"cebpf4jnsgd1na2vs0mg"},{"bike_id":"7cdd88d2-5824-40fa-8faf-90ef733261c2","system_id":"levelo_inurba_marseille","lat":43.23957,"lon":5.3665,"is_reserved":false,"is_disabled":false,"rental_uris":{"android":"levelo://app?vid=7cdd88d2-5824-40fa-8faf-90ef733261c2","ios":"levelo://app?vid=7cdd88d2-5824-40fa-8faf-90ef733261c2"},"vehicle_type_id":"4","last_reported":1730076516,"current_range_meters":12800,"station_id":"ce4bhi12rcd13ifvqfp0","pricing_plan_id":"cebpf4jnsgd1na2vs0mg"},{"bike_id":"14dd07aa-796b-49ac-82e8-2bb3f08c1790","system_id":"levelo_inurba_marseille","lat":43.28719,"lon":5.36093,"is_reserved":false,"is_disabled":false,"rental_uris":{"android":"levelo://app?vid=14dd07aa-796b-49ac-82e8-2bb3f08c1790","ios":"levelo://app?vid=14dd07aa-796b-49ac-82e8-2bb3f08c1790"},"vehicle_type_id":"4","last_reported":1730076516,"current_range_meters":40000,"station_id":"cki0cbj6b192h4jlfktg","pricing_plan_id":"cebpf4jnsgd1na2vs0mg"},{"bike_id":"9a599d39-93e1-4768-9001-e14667f53e65","system_id":"levelo_inurba_marseille","lat":43.30804,"lon":5.38155,"is_reserved":false,"is_disabled":false,"rental_uris":{"android":"levelo://app?vid=9a599d39-93e1-4768-9001-e14667f53e65","ios":"levelo://app?vid=9a599d39-93e1-4768-9001-e14667f53e65"},"vehicle_type_id":"4","last_reported":1730076516,"current_range_meters":36800,"station_id":"ce4bgt12rcd13ifvqce0","pricing_plan_id":"cebpf4jnsgd1na2vs0mg"},{"bike_id":"9403ad19-9050-4623-81ae-08b1b66bb37c","system_id":"levelo_inurba_marseille","lat":43.23189,"lon":5.39985,"is_reserved":false,"is_disabled":false,"rental_uris":{"android":"levelo://app?vid=9403ad19-9050-4623-81ae-08b1b66bb37c","ios":"levelo://app?vid=9403ad19-9050-4623-81ae-08b1b66bb37c"},"vehicle_type_id":"4","last_reported":1730076516,"current_range_meters":38400,"station_id":"ce4bhn12rcd13ifvqgqg","pricing_plan_id":"cebpf4jnsgd1na2vs0mg"},{"bike_id":"d5a1c7ae-9162-4121-b272-151b950895e5","system_id":"levelo_inurba_marseille","lat":43.27947,"lon":5.41043,"is_reserved":false,"is_disabled":false,"rental_uris":{"android":"levelo://app?vid=d5a1c7ae-9162-4121-b272-151b950895e5","ios":"levelo://app?vid=d5a1c7ae-9162-4121-b272-151b950895e5"},"vehicle_type_id":"4","last_reported":1730076516,"current_range_meters":17200,"station_id":"ce4bhnp2rcd13ifvqh0g","pricing_plan_id":"cebpf4jnsgd1na2vs0mg"},{"bike_id":"52ecacba-15ba-4ed7-b7e6-263a0a9ba727","system_id":"levelo_inurba_marseille","lat":43.28458,"lon":5.35889,"is_reserved":false,"is_disabled":false,"rental_uris":{"android":"levelo://app?vid=52ecacba-15ba-4ed7-b7e6-263a0a9ba727","ios":"levelo://app?vid=52ecacba-15ba-4ed7-b7e6-263a0a9ba727"},"vehicle_type_id":"4","last_reported":1730076516,"current_range_meters":7200,"station_id":"ce4bhah2rcd13ifvqei0","pricing_plan_id":"cebpf4jnsgd1na2vs0mg"},{"bike_id":"79b412b6-7504-41de-b13f-6567b5a9d93f","system_id":"levelo_inurba_marseille","lat":43.31534,"lon":5.38041,"is_reserved":false,"is_disabled":false,"rental_uris":{"android":"levelo://app?vid=79b412b6-7504-41de-b13f-6567b5a9d93f","ios":"levelo://app?vid=79b412b6-7504-41de-b13f-6567b5a9d93f"},"vehicle_type_id":"4","last_reported":1730076516,"current_range_meters":8000,"station_id":"ce4bhsp2rcd13ifvqi50","pricing_plan_id":"cebpf4jnsgd1na2vs0mg"},{"bike_id":"d6a732df-7d0a-4298-a50e-a9e78d4759b8","system_id":"levelo_inurba_marseille","lat":43.24548,"lon":5.39527,"is_reserved":false,"is_disabled":false,"rental_uris":{"android":"levelo://app?vid=d6a732df-7d0a-4298-a50e-a9e78d4759b8","ios":"levelo://app?vid=d6a732df-7d0a-4298-a50e-a9e78d4759b8"},"vehicle_type_id":"4","last_reported":1730076516,"current_range_meters":39200,"station_id":"ce4bhlp2rcd13ifvqgjg","pricing_plan_id":"cebpf4jnsgd1na2vs0mg"},{"bike_id":"02fd0614-a6c6-42e2-a6aa-0d2136f615e7","system_id":"levelo_inurba_marseille","lat":43.25104,"lon":5.40331,"is_reserved":false,"is_disabled":false,"rental_uris":{"android":"levelo://app?vid=02fd0614-a6c6-42e2-a6aa-0d2136f615e7","ios":"levelo://app?vid=02fd0614-a6c6-42e2-a6aa-0d2136f615e7"},"vehicle_type_id":"4","last_reported":1730076516,"current_range_meters":25200,"station_id":"ce4bhlh2rcd13ifvqgig","pricing_plan_id":"cebpf4jnsgd1na2vs0mg"},{"bike_id":"cd68f1dc-3134-4c22-9fa5-8490da02f071","system_id":"levelo_inurba_marseille","lat":43.2315,"lon":5.43717,"is_reserved":false,"is_disabled":false,"rental_uris":{"android":"levelo://app?vid=cd68f1dc-3134-4c22-9fa5-8490da02f071","ios":"levelo://app?vid=cd68f1dc-3134-4c22-9fa5-8490da02f071"},"vehicle_type_id":"4","last_reported":1730076516,"current_range_meters":12400,"station_id":"ce4bhmp2rcd13ifvqgog","pricing_plan_id":"cebpf4jnsgd1na2vs0mg"},{"bike_id":"42939b7f-8bb8-4020-9042-5a5f052537b7","system_id":"levelo_inurba_marseille","lat":43.28949,"lon":5.36392,"is_reserved":false,"is_disabled":false,"rental_uris":{"android":"levelo://app?vid=42939b7f-8bb8-4020-9042-5a5f052537b7","ios":"levelo://app?vid=42939b7f-8bb8-4020-9042-5a5f052537b7"},"vehicle_type_id":"4","last_reported":1730076516,"current_range_meters":26000,"station_id":"ce4bhc92rcd13ifvqetg","pricing_plan_id":"cebpf4jnsgd1na2vs0mg"},{"bike_id":"9df781dc-a17d-4c43-8d58-f238f2778b8b","system_id":"levelo_inurba_marseille","lat":43.25103,"lon":5.40331,"is_reserved":false,"is_disabled":false,"rental_uris":{"android":"levelo://app?vid=9df781dc-a17d-4c43-8d58-f238f2778b8b","ios":"levelo://app?vid=9df781dc-a17d-4c43-8d58-f238f2778b8b"},"vehicle_type_id":"4","last_reported":1730076516,"current_range_meters":14000,"station_id":"ce4bhlh2rcd13ifvqgig","pricing_plan_id":"cebpf4jnsgd1na2vs0mg"},{"bike_id":"33466152-8701-4ace-81b5-c2bf7c8025de","system_id":"levelo_inurba_marseille","lat":43.2587,"lon":5.39897,"is_reserved":false,"is_disabled":false,"rental_uris":{"android":"levelo://app?vid=33466152-8701-4ace-81b5-c2bf7c8025de","ios":"levelo://app?vid=33466152-8701-4ace-81b5-c2bf7c8025de"},"vehicle_type_id":"4","last_reported":1730076516,"current_range_meters":27600,"station_id":"ce4bhl92rcd13ifvqghg","pricing_plan_id":"cebpf4jnsgd1na2vs0mg"},{"bike_id":"ded3fa34-bd70-4208-8e12-be1d3f97a91f","system_id":"levelo_inurba_marseille","lat":43.28575,"lon":5.3951,"is_reserved":false,"is_disabled":false,"rental_uris":{"android":"levelo://app?vid=ded3fa34-bd70-4208-8e12-be1d3f97a91f","ios":"levelo://app?vid=ded3fa34-bd70-4208-8e12-be1d3f97a91f"},"vehicle_type_id":"4","last_reported":1730076516,"current_range_meters":40000,"station_id":"ce4bh292rcd13ifvqdg0","pricing_plan_id":"cebpf4jnsgd1na2vs0mg"},{"bike_id":"5ed2fff8-c3d4-4654-a668-3b57adf4f72b","system_id":"levelo_inurba_marseille","lat":43.27492,"lon":5.42453,"is_reserved":false,"is_disabled":false,"rental_uris":{"android":"levelo://app?vid=5ed2fff8-c3d4-4654-a668-3b57adf4f72b","ios":"levelo://app?vid=5ed2fff8-c3d4-4654-a668-3b57adf4f72b"},"vehicle_type_id":"4","last_reported":1730076516,"current_range_meters":22400,"station_id":"ce4bhn92rcd13ifvqgrg","pricing_plan_id":"cebpf4jnsgd1na2vs0mg"},{"bike_id":"a7c6eb8e-227c-4432-958d-8969596fd179","system_id":"levelo_inurba_marseille","lat":43.25727,"lon":5.41109,"is_reserved":false,"is_disabled":false,"rental_uris":{"android":"levelo://app?vid=a7c6eb8e-227c-4432-958d-8969596fd179","ios":"levelo://app?vid=a7c6eb8e-227c-4432-958d-8969596fd179"},"vehicle_type_id":"4","last_reported":1730076516,"current_range_meters":39200,"station_id":"ce4bhkp2rcd13ifvqgd0","pricing_plan_id":"cebpf4jnsgd1na2vs0mg"},{"bike_id":"1af1ace0-6d50-4670-9928-9bb4053befbf","system_id":"levelo_inurba_marseille","lat":43.25867,"lon":5.39904,"is_reserved":false,"is_disabled":false,"rental_uris":{"android":"levelo://app?vid=1af1ace0-6d50-4670-9928-9bb4053befbf","ios":"levelo://app?vid=1af1ace0-6d50-4670-9928-9bb4053befbf"},"vehicle_type_id":"4","last_reported":1730076516,"current_range_meters":38800,"station_id":"ce4bhl92rcd13ifvqghg","pricing_plan_id":"cebpf4jnsgd1na2vs0mg"},{"bike_id":"e89316dc-a19a-469f-a9cd-dc00b495757e","system_id":"levelo_inurba_marseille","lat":43.27438,"lon":5.40652,"is_reserved":false,"is_disabled":false,"rental_uris":{"android":"levelo://app?vid=e89316dc-a19a-469f-a9cd-dc00b495757e","ios":"levelo://app?vid=e89316dc-a19a-469f-a9cd-dc00b495757e"},"vehicle_type_id":"4","last_reported":1730076516,"current_range_meters":8000,"station_id":"","pricing_plan_id":"cebpf4jnsgd1na2vs0mg"},{"bike_id":"88d679ce-bf81-422c-88c5-977567915cf3","system_id":"levelo_inurba_marseille","lat":43.27496,"lon":5.42455,"is_reserved":false,"is_disabled":false,"rental_uris":{"android":"levelo://app?vid=88d679ce-bf81-422c-88c5-977567915cf3","ios":"levelo://app?vid=88d679ce-bf81-422c-88c5-977567915cf3"},"vehicle_type_id":"4","last_reported":1730076516,"current_range_meters":24400,"station_id":"ce4bhn92rcd13ifvqgrg","pricing_plan_id":"cebpf4jnsgd1na2vs0mg"},{"bike_id":"40cb860c-c6cd-4c15-b796-c88e99e4424d","system_id":"levelo_inurba_marseille","lat":43.25109,"lon":5.40324,"is_reserved":false,"is_disabled":false,"rental_uris":{"android":"levelo://app?vid=40cb860c-c6cd-4c15-b796-c88e99e4424d","ios":"levelo://app?vid=40cb860c-c6cd-4c15-b796-c88e99e4424d"},"vehicle_type_id":"4","last_reported":1730076516,"current_range_meters":18000,"station_id":"ce4bhlh2rcd13ifvqgig","pricing_plan_id":"cebpf4jnsgd1na2vs0mg"},{"bike_id":"04dd23bb-f238-4eba-90d1-d80bc6673779","system_id":"levelo_inurba_marseille","lat":43.31168,"lon":5.38713,"is_reserved":false,"is_disabled":false,"rental_uris":{"android":"levelo://app?vid=04dd23bb-f238-4eba-90d1-d80bc6673779","ios":"levelo://app?vid=04dd23bb-f238-4eba-90d1-d80bc6673779"},"vehicle_type_id":"4","last_reported":1730076516,"current_range_meters":33200,"station_id":"ce4bgv12rcd13ifvqcp0","pricing_plan_id":"cebpf4jnsgd1na2vs0mg"},{"bike_id":"81e500be-3ff6-45b1-af40-237783c8efb0","system_id":"levelo_inurba_marseille","lat":43.27815,"lon":5.40714,"is_reserved":false,"is_disabled":false,"rental_uris":{"android":"levelo://app?vid=81e500be-3ff6-45b1-af40-237783c8efb0","ios":"levelo://app?vid=81e500be-3ff6-45b1-af40-237783c8efb0"},"vehicle_type_id":"4","last_reported":1730076516,"current_range_meters":11200,"station_id":"ce4bhnh2rcd13ifvqgtg","pricing_plan_id":"cebpf4jnsgd1na2vs0mg"},{"bike_id":"5d820ce0-2d55-46e5-b74d-cc75a18e2e27","system_id":"levelo_inurba_marseille","lat":43.27003,"lon":5.39246,"is_reserved":false,"is_disabled":false,"rental_uris":{"android":"levelo://app?vid=5d820ce0-2d55-46e5-b74d-cc75a18e2e27","ios":"levelo://app?vid=5d820ce0-2d55-46e5-b74d-cc75a18e2e27"},"vehicle_type_id":"4","last_reported":1730076516,"current_range_meters":34800,"station_id":"ce4bgh92rcd13ifvqb40","pricing_plan_id":"cebpf4jnsgd1na2vs0mg"},{"bike_id":"3cf15f8a-e66b-431c-8ebb-b4fd8ccc5efd","system_id":"levelo_inurba_marseille","lat":43.28655,"lon":5.36352,"is_reserved":false,"is_disabled":false,"rental_uris":{"android":"levelo://app?vid=3cf15f8a-e66b-431c-8ebb-b4fd8ccc5efd","ios":"levelo://app?vid=3cf15f8a-e66b-431c-8ebb-b4fd8ccc5efd"},"vehicle_type_id":"4","last_reported":1730076516,"current_range_meters":28800,"station_id":"ce4bhah2rcd13ifvqej0","pricing_plan_id":"cebpf4jnsgd1na2vs0mg"},{"bike_id":"5d740240-5c8c-4416-9068-3eaec70c8525","system_id":"levelo_inurba_marseille","lat":43.28848,"lon":5.3585,"is_reserved":false,"is_disabled":false,"rental_uris":{"android":"levelo://app?vid=5d740240-5c8c-4416-9068-3eaec70c8525","ios":"levelo://app?vid=5d740240-5c8c-4416-9068-3eaec70c8525"},"vehicle_type_id":"4","last_reported":1730076516,"current_range_meters":36800,"station_id":"ce4bhb12rcd13ifvqem0","pricing_plan_id":"cebpf4jnsgd1na2vs0mg"},{"bike_id":"85954db0-0f95-4cab-bd1b-ba49cde47c67","system_id":"levelo_inurba_marseille","lat":43.31294,"lon":5.38304,"is_reserved":false,"is_disabled":false,"rental_uris":{"android":"levelo://app?vid=85954db0-0f95-4cab-bd1b-ba49cde47c67","ios":"levelo://app?vid=85954db0-0f95-4cab-bd1b-ba49cde47c67"},"vehicle_type_id":"4","last_reported":1730076516,"current_range_meters":18000,"station_id":"","pricing_plan_id":"cebpf4jnsgd1na2vs0mg"},{"bike_id":"08173270-7b13-401f-a0a1-8e7081818608","system_id":"levelo_inurba_marseille","lat":43.31485,"lon":5.3731,"is_reserved":false,"is_disabled":false,"rental_uris":{"android":"levelo://app?vid=08173270-7b13-401f-a0a1-8e7081818608","ios":"levelo://app?vid=08173270-7b13-401f-a0a1-8e7081818608"},"vehicle_type_id":"4","last_reported":1730076516,"current_range_meters":30000,"station_id":"ce4bgt12rcd13ifvqcd0","pricing_plan_id":"cebpf4jnsgd1na2vs0mg"},{"bike_id":"42dac13f-214f-4da4-918e-f2fe6ed3fc58","system_id":"levelo_inurba_marseille","lat":43.3118,"lon":5.38718,"is_reserved":false,"is_disabled":false,"rental_uris":{"android":"levelo://app?vid=42dac13f-214f-4da4-918e-f2fe6ed3fc58","ios":"levelo://app?vid=42dac13f-214f-4da4-918e-f2fe6ed3fc58"},"vehicle_type_id":"4","last_reported":1730076516,"current_range_meters":39200,"station_id":"ce4bgv12rcd13ifvqcp0","pricing_plan_id":"cebpf4jnsgd1na2vs0mg"},{"bike_id":"99cec95b-ba23-456c-896e-735765711003","system_id":"levelo_inurba_marseille","lat":43.29257,"lon":5.40911,"is_reserved":false,"is_disabled":false,"rental_uris":{"android":"levelo://app?vid=99cec95b-ba23-456c-896e-735765711003","ios":"levelo://app?vid=99cec95b-ba23-456c-896e-735765711003"},"vehicle_type_id":"4","last_reported":1730076516,"current_range_meters":28400,"station_id":"ce4bh192rcd13ifvqdc0","pricing_plan_id":"cebpf4jnsgd1na2vs0mg"},{"bike_id":"9dd449de-290c-4d16-8334-82c90c75800a","system_id":"levelo_inurba_marseille","lat":43.28846,"lon":5.39306,"is_reserved":false,"is_disabled":false,"rental_uris":{"android":"levelo://app?vid=9dd449de-290c-4d16-8334-82c90c75800a","ios":"levelo://app?vid=9dd449de-290c-4d16-8334-82c90c75800a"},"vehicle_type_id":"4","last_reported":1730076516,"current_range_meters":37600,"station_id":"ce4bh2p2rcd13ifvqdi0","pricing_plan_id":"cebpf4jnsgd1na2vs0mg"},{"bike_id":"5bfb23a9-8ee1-48b1-8fb8-a1d90d8e931b","system_id":"levelo_inurba_marseille","lat":43.2919,"lon":5.39331,"is_reserved":false,"is_disabled":false,"rental_uris":{"android":"levelo://app?vid=5bfb23a9-8ee1-48b1-8fb8-a1d90d8e931b","ios":"levelo://app?vid=5bfb23a9-8ee1-48b1-8fb8-a1d90d8e931b"},"vehicle_type_id":"4","last_reported":1730076516,"current_range_meters":36800,"station_id":"ce4bh192rcd13ifvqdd0","pricing_plan_id":"cebpf4jnsgd1na2vs0mg"},{"bike_id":"9013a3e1-f982-49e2-8d48-57870016015e","system_id":"levelo_inurba_marseille","lat":43.2885,"lon":5.35856,"is_reserved":false,"is_disabled":false,"rental_uris":{"android":"levelo://app?vid=9013a3e1-f982-49e2-8d48-57870016015e","ios":"levelo://app?vid=9013a3e1-f982-49e2-8d48-57870016015e"},"vehicle_type_id":"4","last_reported":1730076516,"current_range_meters":9200,"station_id":"ce4bhb12rcd13ifvqem0","pricing_plan_id":"cebpf4jnsgd1na2vs0mg"},{"bike_id":"8d875046-c003-4303-8d71-2434c9617cda","system_id":"levelo_inurba_marseille","lat":43.262047,"lon":5.37928,"is_reserved":false,"is_disabled":false,"rental_uris":{"android":"levelo://app?vid=8d875046-c003-4303-8d71-2434c9617cda","ios":"levelo://app?vid=8d875046-c003-4303-8d71-2434c9617cda"},"vehicle_type_id":"4","last_reported":1730076516,"current_range_meters":38400,"station_id":"ce4bhjp2rcd13ifvqg90","pricing_plan_id":"cebpf4jnsgd1na2vs0mg"},{"bike_id":"4f40e012-ea5b-4575-9527-1f943967bef1","system_id":"levelo_inurba_marseille","lat":43.23961,"lon":5.3666,"is_reserved":false,"is_disabled":false,"rental_uris":{"android":"levelo://app?vid=4f40e012-ea5b-4575-9527-1f943967bef1","ios":"levelo://app?vid=4f40e012-ea5b-4575-9527-1f943967bef1"},"vehicle_type_id":"4","last_reported":1730076516,"current_range_meters":8800,"station_id":"ce4bhi12rcd13ifvqfp0","pricing_plan_id":"cebpf4jnsgd1na2vs0mg"},{"bike_id":"5e8add12-0a2f-4ee0-a948-b3005ed38fe3","system_id":"levelo_inurba_marseille","lat":43.3248,"lon":5.36562,"is_reserved":false,"is_disabled":false,"rental_uris":{"android":"levelo://app?vid=5e8add12-0a2f-4ee0-a948-b3005ed38fe3","ios":"levelo://app?vid=5e8add12-0a2f-4ee0-a948-b3005ed38fe3"},"vehicle_type_id":"4","last_reported":1730076516,"current_range_meters":38000,"station_id":"ce4bhs12rcd13ifvqhvg","pricing_plan_id":"cebpf4jnsgd1na2vs0mg"},{"bike_id":"f9cee378-df1a-4dca-8961-74fa6d883443","system_id":"levelo_inurba_marseille","lat":43.32038,"lon":5.40745,"is_reserved":false,"is_disabled":false,"rental_uris":{"android":"levelo://app?vid=f9cee378-df1a-4dca-8961-74fa6d883443","ios":"levelo://app?vid=f9cee378-df1a-4dca-8961-74fa6d883443"},"vehicle_type_id":"4","last_reported":1730076516,"current_range_meters":6000,"station_id":"ce4bhq92rcd13ifvqhjg","pricing_plan_id":"cebpf4jnsgd1na2vs0mg"},{"bike_id":"58c29938-9a66-4cb0-80d8-96474a8212ec","system_id":"levelo_inurba_marseille","lat":43.23152,"lon":5.43732,"is_reserved":false,"is_disabled":false,"rental_uris":{"android":"levelo://app?vid=58c29938-9a66-4cb0-80d8-96474a8212ec","ios":"levelo://app?vid=58c29938-9a66-4cb0-80d8-96474a8212ec"},"vehicle_type_id":"4","last_reported":1730076516,"current_range_meters":25200,"station_id":"ce4bhmp2rcd13ifvqgog","pricing_plan_id":"cebpf4jnsgd1na2vs0mg"},{"bike_id":"fb45d249-4144-46f6-b7c5-60ca140f16a8","system_id":"levelo_inurba_marseille","lat":43.2901,"lon":5.35617,"is_reserved":false,"is_disabled":false,"rental_uris":{"android":"levelo://app?vid=fb45d249-4144-46f6-b7c5-60ca140f16a8","ios":"levelo://app?vid=fb45d249-4144-46f6-b7c5-60ca140f16a8"},"vehicle_type_id":"4","last_reported":1730076516,"current_range_meters":34000,"station_id":"ce4bhb92rcd13ifvqen0","pricing_plan_id":"cebpf4jnsgd1na2vs0mg"},{"bike_id":"1257c724-44cf-4bf9-b9f1-3ed2713a28c2","system_id":"levelo_inurba_marseille","lat":43.2903,"lon":5.39982,"is_reserved":false,"is_disabled":false,"rental_uris":{"android":"levelo://app?vid=1257c724-44cf-4bf9-b9f1-3ed2713a28c2","ios":"levelo://app?vid=1257c724-44cf-4bf9-b9f1-3ed2713a28c2"},"vehicle_type_id":"4","last_reported":1730076516,"current_range_meters":29600,"station_id":"ce4bh392rcd13ifvqdm0","pricing_plan_id":"cebpf4jnsgd1na2vs0mg"},{"bike_id":"6242fc62-a9ab-417b-89b0-6df54281ec5c","system_id":"levelo_inurba_marseille","lat":43.23185,"lon":5.39985,"is_reserved":false,"is_disabled":false,"rental_uris":{"android":"levelo://app?vid=6242fc62-a9ab-417b-89b0-6df54281ec5c","ios":"levelo://app?vid=6242fc62-a9ab-417b-89b0-6df54281ec5c"},"vehicle_type_id":"4","last_reported":1730076516,"current_range_meters":30000,"station_id":"ce4bhn12rcd13ifvqgqg","pricing_plan_id":"cebpf4jnsgd1na2vs0mg"},{"bike_id":"f52c26d6-ed5d-4930-9b5c-5cc93b8c8071","system_id":"levelo_inurba_marseille","lat":43.26549,"lon":5.37288,"is_reserved":false,"is_disabled":false,"rental_uris":{"android":"levelo://app?vid=f52c26d6-ed5d-4930-9b5c-5cc93b8c8071","ios":"levelo://app?vid=f52c26d6-ed5d-4930-9b5c-5cc93b8c8071"},"vehicle_type_id":"4","last_reported":1730076516,"current_range_meters":38800,"station_id":"ce4bhg12rcd13ifvqf70","pricing_plan_id":"cebpf4jnsgd1na2vs0mg"},{"bike_id":"397e19e1-70d1-4c1a-82ef-1ec9a560a69f","system_id":"levelo_inurba_marseille","lat":43.28612,"lon":5.35102,"is_reserved":false,"is_disabled":false,"rental_uris":{"android":"levelo://app?vid=397e19e1-70d1-4c1a-82ef-1ec9a560a69f","ios":"levelo://app?vid=397e19e1-70d1-4c1a-82ef-1ec9a560a69f"},"vehicle_type_id":"4","last_reported":1730076516,"current_range_meters":38800,"station_id":"ce4bhch2rcd13ifvqeug","pricing_plan_id":"cebpf4jnsgd1na2vs0mg"},{"bike_id":"7084f19b-9eec-410b-8a9b-580efdc667ed","system_id":"levelo_inurba_marseille","lat":43.28937,"lon":5.39631,"is_reserved":false,"is_disabled":false,"rental_uris":{"android":"levelo://app?vid=7084f19b-9eec-410b-8a9b-580efdc667ed","ios":"levelo://app?vid=7084f19b-9eec-410b-8a9b-580efdc667ed"},"vehicle_type_id":"4","last_reported":1730076516,"current_range_meters":38000,"station_id":"ce4bh3h2rcd13ifvqdn0","pricing_plan_id":"cebpf4jnsgd1na2vs0mg"},{"bike_id":"a792347a-d158-4403-9c48-1b4e0c6fc790","system_id":"levelo_inurba_marseille","lat":43.27069,"lon":5.42281,"is_reserved":false,"is_disabled":false,"rental_uris":{"android":"levelo://app?vid=a792347a-d158-4403-9c48-1b4e0c6fc790","ios":"levelo://app?vid=a792347a-d158-4403-9c48-1b4e0c6fc790"},"vehicle_type_id":"4","last_reported":1730076516,"current_range_meters":40000,"station_id":"ce4bhk92rcd13ifvqgb0","pricing_plan_id":"cebpf4jnsgd1na2vs0mg"},{"bike_id":"586c9364-d841-42a5-96f6-a227c2d19cf5","system_id":"levelo_inurba_marseille","lat":43.28661,"lon":5.36354,"is_reserved":false,"is_disabled":false,"rental_uris":{"android":"levelo://app?vid=586c9364-d841-42a5-96f6-a227c2d19cf5","ios":"levelo://app?vid=586c9364-d841-42a5-96f6-a227c2d19cf5"},"vehicle_type_id":"4","last_reported":1730076516,"current_range_meters":7200,"station_id":"ce4bhah2rcd13ifvqej0","pricing_plan_id":"cebpf4jnsgd1na2vs0mg"},{"bike_id":"c54ad764-6ee9-458d-b1fd-4ba2647c6a0a","system_id":"levelo_inurba_marseille","lat":43.32483,"lon":5.36557,"is_reserved":false,"is_disabled":false,"rental_uris":{"android":"levelo://app?vid=c54ad764-6ee9-458d-b1fd-4ba2647c6a0a","ios":"levelo://app?vid=c54ad764-6ee9-458d-b1fd-4ba2647c6a0a"},"vehicle_type_id":"4","last_reported":1730076516,"current_range_meters":38800,"station_id":"ce4bhs12rcd13ifvqhvg","pricing_plan_id":"cebpf4jnsgd1na2vs0mg"},{"bike_id":"b497d91c-1f87-4508-b462-50136e06ba9f","system_id":"levelo_inurba_marseille","lat":43.24182,"lon":5.3974,"is_reserved":false,"is_disabled":false,"rental_uris":{"android":"levelo://app?vid=b497d91c-1f87-4508-b462-50136e06ba9f","ios":"levelo://app?vid=b497d91c-1f87-4508-b462-50136e06ba9f"},"vehicle_type_id":"4","last_reported":1730076516,"current_range_meters":35200,"station_id":"ce4bhn12rcd13ifvqgpg","pricing_plan_id":"cebpf4jnsgd1na2vs0mg"},{"bike_id":"70b7791d-7ac6-4f16-a66f-4f718575b7d4","system_id":"levelo_inurba_marseille","lat":43.287445,"lon":5.386613,"is_reserved":false,"is_disabled":false,"rental_uris":{"android":"levelo://app?vid=70b7791d-7ac6-4f16-a66f-4f718575b7d4","ios":"levelo://app?vid=70b7791d-7ac6-4f16-a66f-4f718575b7d4"},"vehicle_type_id":"4","last_reported":1730076516,"current_range_meters":10800,"station_id":"","pricing_plan_id":"cebpf4jnsgd1na2vs0mg"},{"bike_id":"e0bf05b6-3eb6-4872-8e8d-82b38f035f72","system_id":"levelo_inurba_marseille","lat":43.23188,"lon":5.39983,"is_reserved":false,"is_disabled":false,"rental_uris":{"android":"levelo://app?vid=e0bf05b6-3eb6-4872-8e8d-82b38f035f72","ios":"levelo://app?vid=e0bf05b6-3eb6-4872-8e8d-82b38f035f72"},"vehicle_type_id":"4","last_reported":1730076516,"current_range_meters":40000,"station_id":"ce4bhn12rcd13ifvqgqg","pricing_plan_id":"cebpf4jnsgd1na2vs0mg"},{"bike_id":"dba8cbb6-488b-4476-81c2-22862d5ee384","system_id":"levelo_inurba_marseille","lat":43.30781,"lon":5.37653,"is_reserved":false,"is_disabled":false,"rental_uris":{"android":"levelo://app?vid=dba8cbb6-488b-4476-81c2-22862d5ee384","ios":"levelo://app?vid=dba8cbb6-488b-4476-81c2-22862d5ee384"},"vehicle_type_id":"4","last_reported":1730076516,"current_range_meters":38800,"station_id":"ce4bgv92rcd13ifvqcq0","pricing_plan_id":"cebpf4jnsgd1na2vs0mg"},{"bike_id":"870759aa-b4f1-410f-8dd7-8cce75f5dcfb","system_id":"levelo_inurba_marseille","lat":43.23152,"lon":5.43724,"is_reserved":false,"is_disabled":false,"rental_uris":{"android":"levelo://app?vid=870759aa-b4f1-410f-8dd7-8cce75f5dcfb","ios":"levelo://app?vid=870759aa-b4f1-410f-8dd7-8cce75f5dcfb"},"vehicle_type_id":"4","last_reported":1730076516,"current_range_meters":34800,"station_id":"ce4bhmp2rcd13ifvqgog","pricing_plan_id":"cebpf4jnsgd1na2vs0mg"},{"bike_id":"03ffeab1-71a3-48a9-9c51-d04215d91470","system_id":"levelo_inurba_marseille","lat":43.28148,"lon":5.42651,"is_reserved":false,"is_disabled":false,"rental_uris":{"android":"levelo://app?vid=03ffeab1-71a3-48a9-9c51-d04215d91470","ios":"levelo://app?vid=03ffeab1-71a3-48a9-9c51-d04215d91470"},"vehicle_type_id":"4","last_reported":1730076516,"current_range_meters":24000,"station_id":"ce4bhnh2rcd13ifvqgug","pricing_plan_id":"cebpf4jnsgd1na2vs0mg"},{"bike_id":"016fc884-44e1-4e58-afe4-7e18f6f1d442","system_id":"levelo_inurba_marseille","lat":43.27898,"lon":5.38014,"is_reserved":false,"is_disabled":false,"rental_uris":{"android":"levelo://app?vid=016fc884-44e1-4e58-afe4-7e18f6f1d442","ios":"levelo://app?vid=016fc884-44e1-4e58-afe4-7e18f6f1d442"},"vehicle_type_id":"4","last_reported":1730076516,"current_range_meters":39200,"station_id":"ce4bhf92rcd13ifvqf50","pricing_plan_id":"cebpf4jnsgd1na2vs0mg"},{"bike_id":"e2732363-8e1b-45e7-a618-8dda5d1a4482","system_id":"levelo_inurba_marseille","lat":43.23961,"lon":5.36645,"is_reserved":false,"is_disabled":false,"rental_uris":{"android":"levelo://app?vid=e2732363-8e1b-45e7-a618-8dda5d1a4482","ios":"levelo://app?vid=e2732363-8e1b-45e7-a618-8dda5d1a4482"},"vehicle_type_id":"4","last_reported":1730076516,"current_range_meters":8400,"station_id":"ce4bhi12rcd13ifvqfp0","pricing_plan_id":"cebpf4jnsgd1na2vs0mg"},{"bike_id":"4a7a540e-ad39-4ed2-95e3-93bb1da1620d","system_id":"levelo_inurba_marseille","lat":43.2971,"lon":5.36587,"is_reserved":false,"is_disabled":false,"rental_uris":{"android":"levelo://app?vid=4a7a540e-ad39-4ed2-95e3-93bb1da1620d","ios":"levelo://app?vid=4a7a540e-ad39-4ed2-95e3-93bb1da1620d"},"vehicle_type_id":"4","last_reported":1730076516,"current_range_meters":38800,"station_id":"ce4bgn12rcd13ifvqbt0","pricing_plan_id":"cebpf4jnsgd1na2vs0mg"},