{"last_updated":1718727012,"ttl":30,"version":"2.2","data":{"bikes":[{"bike_id":"7946072f-7941-421e-8d86-8ccebbfa0851","system_id":"levelo_inurba_marseille","lat":43.313391,"lon":5.36706,"is_reserved":false,"is_disabled":false,"rental_uris":{"android":"levelo://app?vid=7946072f-7941-421e-8d86-8ccebbfa0851","ios":"levelo://app?vid=7946072f-7941-421e-8d86-8ccebbfa0851"},"vehicle_type_id":"4","last_reported":1718727013,"current_range_meters":7200,"station_id":"ce4bgr92rcd13ifvqc6g","pricing_plan_id":"cebpf4jnsgd1na2vs0mg"},{"bike_id":"3b1bf77f-94f5-4843-9c1f-f5be9db08193","system_id":"levelo_inurba_marseille","lat":43.31513,"lon":5.37122,"is_reserved":false,"is_disabled":false,"rental_uris":{"android":"levelo://app?vid=3b1bf77f-94f5-4843-9c1f-f5be9db08193","ios":"levelo://app?vid=3b1bf77f-94f5-4843-9c1f-f5be9db08193"},"vehicle_type_id":"4","last_reported":1718727013,"current_range_meters":16400,"station_id":"","pricing_plan_id":"cebpf4jnsgd1na2vs0mg"},{"bike_id":"615b8c7c-34e1-44a8-9aa4-56c60cda1178","system_id":"levelo_inurba_marseille","lat":43.314811,"lon":5.373103,"is_reserved":false,"is_disabled":false,"rental_uris":{"android":"levelo://app?vid=615b8c7c-34e1-44a8-9aa4-56c60cda1178","ios":"levelo://app?vid=615b8c7c-34e1-44a8-9aa4-56c60cda1178"},"vehicle_type_id":"4","last_reported":1718727013,"current_range_meters":21600,"station_id":"ce4bgt12rcd13ifvqcd0","pricing_plan_id":"cebpf4jnsgd1na2vs0mg"},{"bike_id":"b9f18497-9977-4d2b-af55-6926ff2d8272","system_id":"levelo_inurba_marseille","lat":43.314811,"lon":5.373103,"is_reserved":false,"is_disabled":false,"rental_uris":{"android":"levelo://app?vid=b9f18497-9977-4d2b-af55-6926ff2d8272","ios":"levelo://app?vid=b9f18497-9977-4d2b-af55-6926ff2d8272"},"vehicle_type_id":"4","last_reported":1718727013,"current_range_meters":5200,"station_id":"ce4bgt12rcd13ifvqcd0","pricing_plan_id":"cebpf4jnsgd1na2vs0mg"},{"bike_id":"5b1a9f60-7bae-45f6-a74a-2d785aea057a","system_id":"levelo_inurba_marseille","lat":43.309034,"lon":5.371783,"is_reserved":false,"is_disabled":false,"rental_uris":{"android":"levelo://app?vid=5b1a9f60-7bae-45f6-a74a-2d785aea057a","ios":"levelo://app?vid=5b1a9f60-7bae-45f6-a74a-2d785aea057a"},"vehicle_type_id":"4","last_reported":1718727013,"current_range_meters":31200,"station_id":"ce4bguh2rcd13ifvqckg","pricing_plan_id":"cebpf4jnsgd1na2vs0mg"},{"bike_id":"e11c5d84-82c6-4625-9051-427601a1f05e","system_id":"levelo_inurba_marseille","lat":43.309039,"lon":5.371797,"is_reserved":false,"is_disabled":false,"rental_uris":{"android":"levelo://app?vid=e11c5d84-82c6-4625-9051-427601a1f05e","ios":"levelo://app?vid=e11c5d84-82c6-4625-9051-427601a1f05e"},"vehicle_type_id":"4","last_reported":1718727013,"current_range_meters":0,"station_id":"ce4bguh2rcd13ifvqckg","pricing_plan_id":"cebpf4jnsgd1na2vs0mg"},{"bike_id":"dc0002b9-c31a-4fb2-85a3-e56b5a206ef5","system_id":"levelo_inurba_marseille","lat":43.31491,"lon":5.374213,"is_reserved":false,"is_disabled":false,"rental_uris":{"android":"levelo://app?vid=dc0002b9-c31a-4fb2-85a3-e56b5a206ef5","ios":"levelo://app?vid=dc0002b9-c31a-4fb2-85a3-e56b5a206ef5"},"vehicle_type_id":"4","last_reported":1718727013,"current_range_meters":16000,"station_id":"","pricing_plan_id":"cebpf4jnsgd1na2vs0mg"},{"bike_id":"90599dcc-4dba-4c01-9d35-0e6f2e550c5b","system_id":"levelo_inurba_marseille","lat":43.31391,"lon":5.37524,"is_reserved":false,"is_disabled":false,"rental_uris":{"android":"levelo://app?vid=90599dcc-4dba-4c01-9d35-0e6f2e550c5b","ios":"levelo://app?vid=90599dcc-4dba-4c01-9d35-0e6f2e550c5b"},"vehicle_type_id":"4","last_reported":1718727013,"current_range_meters":0,"station_id":"","pricing_plan_id":"cebpf4jnsgd1na2vs0mg"},{"bike_id":"d3f9c4fa-648c-4151-9733-b733c951696f","system_id":"levelo_inurba_marseille","lat":43.311125,"lon":5.377624,"is_reserved":false,"is_disabled":false,"rental_uris":{"android":"levelo://app?vid=d3f9c4fa-648c-4151-9733-b733c951696f","ios":"levelo://app?vid=d3f9c4fa-648c-4151-9733-b733c951696f"},"vehicle_type_id":"4","last_reported":1718727013,"current_range_meters":0,"station_id":"ce4bgt92rcd13ifvqcg0","pricing_plan_id":"cebpf4jnsgd1na2vs0mg"},{"bike_id":"31ebcac8-eb45-4612-87da-f743855b0813","system_id":"levelo_inurba_marseille","lat":43.311125,"lon":5.377624,"is_reserved":false,"is_disabled":false,"rental_uris":{"android":"levelo://app?vid=31ebcac8-eb45-4612-87da-f743855b0813","ios":"levelo://app?vid=31ebcac8-eb45-4612-87da-f743855b0813"},"vehicle_type_id":"4","last_reported":1718727013,"current_range_meters":0,"station_id":"ce4bgt92rcd13ifvqcg0","pricing_plan_id":"cebpf4jnsgd1na2vs0mg"},{"bike_id":"a9bb3306-1672-40bb-b6ff-04655cd205ea","system_id":"levelo_inurba_marseille","lat":43.311131,"lon":5.377651,"is_reserved":false,"is_disabled":false,"rental_uris":{"android":"levelo://app?vid=a9bb3306-1672-40bb-b6ff-04655cd205ea","ios":"levelo://app?vid=a9bb3306-1672-40bb-b6ff-04655cd205ea"},"vehicle_type_id":"4","last_reported":1718727013,"current_range_meters":30000,"station_id":"ce4bgt92rcd13ifvqcg0","pricing_plan_id":"cebpf4jnsgd1na2vs0mg"},{"bike_id":"76611d59-226f-4647-9dec-24863a20c8f0","system_id":"levelo_inurba_marseille","lat":43.32009,"lon":5.37149,"is_reserved":false,"is_disabled":false,"rental_uris":{"android":"levelo://app?vid=76611d59-226f-4647-9dec-24863a20c8f0","ios":"levelo://app?vid=76611d59-226f-4647-9dec-24863a20c8f0"},"vehicle_type_id":"4","last_reported":1718727013,"current_range_meters":29600,"station_id":"","pricing_plan_id":"cebpf4jnsgd1na2vs0mg"},{"bike_id":"be1fd26b-b639-4dea-aa74-f1003f411236","system_id":"levelo_inurba_marseille","lat":43.30453,"lon":5.36839,"is_reserved":false,"is_disabled":false,"rental_uris":{"android":"levelo://app?vid=be1fd26b-b639-4dea-aa74-f1003f411236","ios":"levelo://app?vid=be1fd26b-b639-4dea-aa74-f1003f411236"},"vehicle_type_id":"4","last_reported":1718727013,"current_range_meters":2400,"station_id":"","pricing_plan_id":"cebpf4jnsgd1na2vs0mg"},{"bike_id":"ea5e98ed-3803-4fb8-92f0-124d2b299499","system_id":"levelo_inurba_marseille","lat":43.30781,"lon":5.37662,"is_reserved":false,"is_disabled":false,"rental_uris":{"android":"levelo://app?vid=ea5e98ed-3803-4fb8-92f0-124d2b299499","ios":"levelo://app?vid=ea5e98ed-3803-4fb8-92f0-124d2b299499"},"vehicle_type_id":"4","last_reported":1718727013,"current_range_meters":5200,"station_id":"ce4bgv92rcd13ifvqcq0","pricing_plan_id":"cebpf4jnsgd1na2vs0mg"},{"bike_id":"ab9c636e-691f-49ae-9bea-27e7f8ce67fc","system_id":"levelo_inurba_marseille","lat":43.317075,"lon":5.377367,"is_reserved":false,"is_disabled":false,"rental_uris":{"android":"levelo://app?vid=ab9c636e-691f-49ae-9bea-27e7f8ce67fc","ios":"levelo://app?vid=ab9c636e-691f-49ae-9bea-27e7f8ce67fc"},"vehicle_type_id":"4","last_reported":1718727013,"current_range_meters":23200,"station_id":"ce4bgth2rcd13ifvqch0","pricing_plan_id":"cebpf4jnsgd1na2vs0mg"},{"bike_id":"4919706e-6593-4a7e-a7a6-110f3a66ca81","system_id":"levelo_inurba_marseille","lat":43.317075,"lon":5.377367,"is_reserved":false,"is_disabled":false,"rental_uris":{"android":"levelo://app?vid=4919706e-6593-4a7e-a7a6-110f3a66ca81","ios":"levelo://app?vid=4919706e-6593-4a7e-a7a6-110f3a66ca81"},"vehicle_type_id":"4","last_reported":1718727013,"current_range_meters":3600,"station_id":"ce4bgth2rcd13ifvqch0","pricing_plan_id":"cebpf4jnsgd1na2vs0mg"},{"bike_id":"b0c52d6b-6d2e-4d70-bf00-871523b877ca","system_id":"levelo_inurba_marseille","lat":43.303046,"lon":5.368981,"is_reserved":false,"is_disabled":false,"rental_uris":{"android":"levelo://app?vid=b0c52d6b-6d2e-4d70-bf00-871523b877ca","ios":"levelo://app?vid=b0c52d6b-6d2e-4d70-bf00-871523b877ca"},"vehicle_type_id":"4","last_reported":1718727013,"current_range_meters":8800,"station_id":"ce4bgqh2rcd13ifvqc5g","pricing_plan_id":"cebpf4jnsgd1na2vs0mg"},{"bike_id":"fa10f7c4-5312-49da-8b22-7d68b6e3a67c","system_id":"levelo_inurba_marseille","lat":43.315289,"lon":5.380349,"is_reserved":false,"is_disabled":false,"rental_uris":{"android":"levelo://app?vid=fa10f7c4-5312-49da-8b22-7d68b6e3a67c","ios":"levelo://app?vid=fa10f7c4-5312-49da-8b22-7d68b6e3a67c"},"vehicle_type_id":"4","last_reported":1718727013,"current_range_meters":13600,"station_id":"ce4bhsp2rcd13ifvqi50","pricing_plan_id":"cebpf4jnsgd1na2vs0mg"},{"bike_id":"8644b274-cc96-40fa-b5e8-5fc9033af751","system_id":"levelo_inurba_marseille","lat":43.304593,"lon":5.378994,"is_reserved":false,"is_disabled":false,"rental_uris":{"android":"levelo://app?vid=8644b274-cc96-40fa-b5e8-5fc9033af751","ios":"levelo://app?vid=8644b274-cc96-40fa-b5e8-5fc9033af751"},"vehicle_type_id":"4","last_reported":1718727013,"current_range_meters":4000,"station_id":"","pricing_plan_id":"cebpf4jnsgd1na2vs0mg"},{"bike_id":"8c478d1d-ed67-442a-b005-defffb1e1f35","system_id":"levelo_inurba_marseille","lat":43.304606,"lon":5.379026,"is_reserved":false,"is_disabled":false,"rental_uris":{"android":"levelo://app?vid=8c478d1d-ed67-442a-b005-defffb1e1f35","ios":"levelo://app?vid=8c478d1d-ed67-442a-b005-defffb1e1f35"},"vehicle_type_id":"4","last_reported":1718727013,"current_range_meters":400,"station_id":"ce4bgup2rcd13ifvqcn0","pricing_plan_id":"cebpf4jnsgd1na2vs0mg"},{"bike_id":"95c8afab-48ea-4f47-a57b-d0a3ed4fc484","system_id":"levelo_inurba_marseille","lat":43.304606,"lon":5.379026,"is_reserved":false,"is_disabled":false,"rental_uris":{"android":"levelo://app?vid=95c8afab-48ea-4f47-a57b-d0a3ed4fc484","ios":"levelo://app?vid=95c8afab-48ea-4f47-a57b-d0a3ed4fc484"},"vehicle_type_id":"4","last_reported":1718727013,"current_range_meters":0,"station_id":"ce4bgup2rcd13ifvqcn0","pricing_plan_id":"cebpf4jnsgd1na2vs0mg"},{"bike_id":"1d9d7d83-2110-4b2b-9a76-19b7d85a2e7e","system_id":"levelo_inurba_marseille","lat":43.304606,"lon":5.379026,"is_reserved":false,"is_disabled":false,"rental_uris":{"android":"levelo://app?vid=1d9d7d83-2110-4b2b-9a76-19b7d85a2e7e","ios":"levelo://app?vid=1d9d7d83-2110-4b2b-9a76-19b7d85a2e7e"},"vehicle_type_id":"4","last_reported":1718727013,"current_range_meters":29600,"station_id":"ce4bgup2rcd13ifvqcn0","pricing_plan_id":"cebpf4jnsgd1na2vs0mg"},{"bike_id":"32aab616-2dc7-4e04-a0d6-534551220b39","system_id":"levelo_inurba_marseille","lat":43.324771,"lon":5.36557,"is_reserved":false,"is_disabled":false,"rental_uris":{"android":"levelo://app?vid=32aab616-2dc7-4e04-a0d6-534551220b39","ios":"levelo://app?vid=32aab616-2dc7-4e04-a0d6-534551220b39"},"vehicle_type_id":"4","last_reported":1718727013,"current_range_meters":30800,"station_id":"ce4bhs12rcd13ifvqhvg","pricing_plan_id":"cebpf4jnsgd1na2vs0mg"},{"bike_id":"3aa11f18-7a8a-4ab7-b13b-2bd5bd9e09b3","system_id":"levelo_inurba_marseille","lat":43.319935,"lon":5.381699,"is_reserved":false,"is_disabled":false,"rental_uris":{"android":"levelo://app?vid=3aa11f18-7a8a-4ab7-b13b-2bd5bd9e09b3","ios":"levelo://app?vid=3aa11f18-7a8a-4ab7-b13b-2bd5bd9e09b3"},"vehicle_type_id":"4","last_reported":1718727013,"current_range_meters":14400,"station_id":"ce4bhr12rcd13ifvqhpg","pricing_plan_id":"cebpf4jnsgd1na2vs0mg"},{"bike_id":"ea8760e3-2322-41bc-ad30-cfe03827a393","system_id":"levelo_inurba_marseille","lat":43.319935,"lon":5.381699,"is_reserved":false,"is_disabled":false,"rental_uris":{"android":"levelo://app?vid=ea8760e3-2322-41bc-ad30-cfe03827a393","ios":"levelo://app?vid=ea8760e3-2322-41bc-ad30-cfe03827a393"},"vehicle_type_id":"4","last_reported":1718727013,"current_range_meters":19600,"station_id":"ce4bhr12rcd13ifvqhpg","pricing_plan_id":"cebpf4jnsgd1na2vs0mg"},{"bike_id":"84ab7a69-e6e6-45d4-b50a-e9d3c85bc3df","system_id":"levelo_inurba_marseille","lat":43.299222,"lon":5.365554,"is_reserved":false,"is_disabled":false,"rental_uris":{"android":"levelo://app?vid=84ab7a69-e6e6-45d4-b50a-e9d3c85bc3df","ios":"levelo://app?vid=84ab7a69-e6e6-45d4-b50a-e9d3c85bc3df"},"vehicle_type_id":"4","last_reported":1718727013,"current_range_meters":29200,"station_id":"ce4bgm92rcd13ifvqbr0","pricing_plan_id":"cebpf4jnsgd1na2vs0mg"},{"bike_id":"1298bdc6-79ce-4c08-beae-4e9331c05e5c","system_id":"levelo_inurba_marseille","lat":43.298433,"lon":5.362774,"is_reserved":false,"is_disabled":false,"rental_uris":{"android":"levelo://app?vid=1298bdc6-79ce-4c08-beae-4e9331c05e5c","ios":"levelo://app?vid=1298bdc6-79ce-4c08-beae-4e9331c05e5c"},"vehicle_type_id":"4","last_reported":1718727013,"current_range_meters":12000,"station_id":"ce4bgpp2rcd13ifvqc3g","pricing_plan_id":"cebpf4jnsgd1na2vs0mg"},{"bike_id":"b145fa33-8cb1-4777-be57-9c7f3b521066","system_id":"levelo_inurba_marseille","lat":43.297774,"lon":5.370875,"is_reserved":false,"is_disabled":false,"rental_uris":{"android":"levelo://app?vid=b145fa33-8cb1-4777-be57-9c7f3b521066","ios":"levelo://app?vid=b145fa33-8cb1-4777-be57-9c7f3b521066"},"vehicle_type_id":"4","last_reported":1718727013,"current_range_meters":29600,"station_id":"ce4bgop2rcd13ifvqc1g","pricing_plan_id":"cebpf4jnsgd1na2vs0mg"},{"bike_id":"58c633ee-c106-451d-88ca-4fc810197566","system_id":"levelo_inurba_marseille","lat":43.29776,"lon":5.37095,"is_reserved":false,"is_disabled":false,"rental_uris":{"android":"levelo://app?vid=58c633ee-c106-451d-88ca-4fc810197566","ios":"levelo://app?vid=58c633ee-c106-451d-88ca-4fc810197566"},"vehicle_type_id":"4","last_reported":1718727013,"current_range_meters":0,"station_id":"ce4bgop2rcd13ifvqc1g","pricing_plan_id":"cebpf4jnsgd1na2vs0mg"},{"bike_id":"2df7b353-6c12-4ba8-8890-5a1d9ac39477","system_id":"levelo_inurba_marseille","lat":43.297163,"lon":5.365866,"is_reserved":false,"is_disabled":false,"rental_uris":{"android":"levelo://app?vid=2df7b353-6c12-4ba8-8890-5a1d9ac39477","ios":"levelo://app?vid=2df7b353-6c12-4ba8-8890-5a1d9ac39477"},"vehicle_type_id":"4","last_reported":1718727013,"current_range_meters":1200,"station_id":"ce4bgn12rcd13ifvqbt0","pricing_plan_id":"cebpf4jnsgd1na2vs0mg"},{"bike_id":"bc3f6586-4d96-446e-bb77-2007381cdad2","system_id":"levelo_inurba_marseille","lat":43.297163,"lon":5.365866,"is_reserved":false,"is_disabled":false,"rental_uris":{"android":"levelo://app?vid=bc3f6586-4d96-446e-bb77-2007381cdad2","ios":"levelo://app?vid=bc3f6586-4d96-446e-bb77-2007381cdad2"},"vehicle_type_id":"4","last_reported":1718727013,"current_range_meters":10000,"station_id":"ce4bgn12rcd13ifvqbt0","pricing_plan_id":"cebpf4jnsgd1na2vs0mg"},{"bike_id":"3f69358e-60b2-4984-a754-61e6689d32fe","system_id":"levelo_inurba_marseille","lat":43.297163,"lon":5.365866,"is_reserved":false,"is_disabled":false,"rental_uris":{"android":"levelo://app?vid=3f69358e-60b2-4984-a754-61e6689d32fe","ios":"levelo://app?vid=3f69358e-60b2-4984-a754-61e6689d32fe"},"vehicle_type_id":"4","last_reported":1718727013,"current_range_meters":26800,"station_id":"ce4bgn12rcd13ifvqbt0","pricing_plan_id":"cebpf4jnsgd1na2vs0mg"},{"bike_id":"36df3f90-5358-4fec-8db5-92d1dd23a820","system_id":"levelo_inurba_marseille","lat":43.297163,"lon":5.365866,"is_reserved":false,"is_disabled":false,"rental_uris":{"android":"levelo://app?vid=36df3f90-5358-4fec-8db5-92d1dd23a820","ios":"levelo://app?vid=36df3f90-5358-4fec-8db5-92d1dd23a820"},"vehicle_type_id":"4","last_reported":1718727013,"current_range_meters":23600,"station_id":"ce4bgn12rcd13ifvqbt0","pricing_plan_id":"cebpf4jnsgd1na2vs0mg"},{"bike_id":"2a42502e-4a26-4730-a36d-a07ad7c25a95","system_id":"levelo_inurba_marseille","lat":43.318393,"lon":5.387105,"is_reserved":false,"is_disabled":false,"rental_uris":{"android":"levelo://app?vid=2a42502e-4a26-4730-a36d-a07ad7c25a95","ios":"levelo://app?vid=2a42502e-4a26-4730-a36d-a07ad7c25a95"},"vehicle_type_id":"4","last_reported":1718727013,"current_range_meters":10400,"station_id":"","pricing_plan_id":"cebpf4jnsgd1na2vs0mg"},{"bike_id":"be253395-2fd3-4838-a586-08f5307834b4","system_id":"levelo_inurba_marseille","lat":43.297163,"lon":5.365866,"is_reserved":false,"is_disabled":false,"rental_uris":{"android":"levelo://app?vid=be253395-2fd3-4838-a586-08f5307834b4","ios":"levelo://app?vid=be253395-2fd3-4838-a586-08f5307834b4"},"vehicle_type_id":"4","last_reported":1718727013,"current_range_meters":24800,"station_id":"ce4bgn12rcd13ifvqbt0","pricing_plan_id":"cebpf4jnsgd1na2vs0mg"},{"bike_id":"39d91231-bd27-499d-bd6d-704689baedb1","system_id":"levelo_inurba_marseille","lat":43.296129,"lon":5.370777,"is_reserved":false,"is_disabled":false,"rental_uris":{"android":"levelo://app?vid=39d91231-bd27-499d-bd6d-704689baedb1","ios":"levelo://app?vid=39d91231-bd27-499d-bd6d-704689baedb1"},"vehicle_type_id":"4","last_reported":1718727013,"current_range_meters":16800,"station_id":"ce4bgnh2rcd13ifvqc0g","pricing_plan_id":"cebpf4jnsgd1na2vs0mg"},{"bike_id":"70bd7603-690c-4732-b8dd-4fb7d058f3d8","system_id":"levelo_inurba_marseille","lat":43.296129,"lon":5.370777,"is_reserved":false,"is_disabled":false,"rental_uris":{"android":"levelo://app?vid=70bd7603-690c-4732-b8dd-4fb7d058f3d8","ios":"levelo://app?vid=70bd7603-690c-4732-b8dd-4fb7d058f3d8"},"vehicle_type_id":"4","last_reported":1718727013,"current_range_meters":19600,"station_id":"ce4bgnh2rcd13ifvqc0g","pricing_plan_id":"cebpf4jnsgd1na2vs0mg"},{"bike_id":"0912afd9-f656-4a8e-b58f-d7f0485b348c","system_id":"levelo_inurba_marseille","lat":43.29573,"lon":5.367355,"is_reserved":false,"is_disabled":false,"rental_uris":{"android":"levelo://app?vid=0912afd9-f656-4a8e-b58f-d7f0485b348c","ios":"levelo://app?vid=0912afd9-f656-4a8e-b58f-d7f0485b348c"},"vehicle_type_id":"4","last_reported":1718727013,"current_range_meters":19200,"station_id":"ce4bgph2rcd13ifvqc2g","pricing_plan_id":"cebpf4jnsgd1na2vs0mg"},{"bike_id":"3083c1fa-3493-450c-8686-04c287948e7b","system_id":"levelo_inurba_marseille","lat":43.29573,"lon":5.367355,"is_reserved":false,"is_disabled":false,"rental_uris":{"android":"levelo://app?vid=3083c1fa-3493-450c-8686-04c287948e7b","ios":"levelo://app?vid=3083c1fa-3493-450c-8686-04c287948e7b"},"vehicle_type_id":"4","last_reported":1718727013,"current_range_meters":800,"station_id":"ce4bgph2rcd13ifvqc2g","pricing_plan_id":"cebpf4jnsgd1na2vs0mg"},{"bike_id":"733a2471-152f-4e0c-9cf3-10e11758b38a","system_id":"levelo_inurba_marseille","lat":43.29573,"lon":5.367355,"is_reserved":false,"is_disabled":false,"rental_uris":{"android":"levelo://app?vid=733a2471-152f-4e0c-9cf3-10e11758b38a","ios":"levelo://app?vid=733a2471-152f-4e0c-9cf3-10e11758b38a"},"vehicle_type_id":"4","last_reported":1718727013,"current_range_meters":31600,"station_id":"ce4bgph2rcd13ifvqc2g","pricing_plan_id":"cebpf4jnsgd1na2vs0mg"},{"bike_id":"e3875518-da13-4e21-8f24-a34055cb4801","system_id":"levelo_inurba_marseille","lat":43.299028,"lon":5.381509,"is_reserved":false,"is_disabled":false,"rental_uris":{"android":"levelo://app?vid=e3875518-da13-4e21-8f24-a34055cb4801","ios":"levelo://app?vid=e3875518-da13-4e21-8f24-a34055cb4801"},"vehicle_type_id":"4","last_reported":1718727013,"current_range_meters":13600,"station_id":"ce4bgj12rcd13ifvqbc0","pricing_plan_id":"cebpf4jnsgd1na2vs0mg"},{"bike_id":"740a8c30-0e68-4768-b2c4-99d931be0f98","system_id":"levelo_inurba_marseille","lat":43.298037,"lon":5.381066,"is_reserved":false,"is_disabled":false,"rental_uris":{"android":"levelo://app?vid=740a8c30-0e68-4768-b2c4-99d931be0f98","ios":"levelo://app?vid=740a8c30-0e68-4768-b2c4-99d931be0f98"},"vehicle_type_id":"4","last_reported":1718727013,"current_range_meters":0,"station_id":"ce4bgip2rcd13ifvqbb0","pricing_plan_id":"cebpf4jnsgd1na2vs0mg"},{"bike_id":"666e01e0-a10e-448d-b5f7-03492e63503c","system_id":"levelo_inurba_marseille","lat":43.298,"lon":5.38109,"is_reserved":false,"is_disabled":false,"rental_uris":{"android":"levelo://app?vid=666e01e0-a10e-448d-b5f7-03492e63503c","ios":"levelo://app?vid=666e01e0-a10e-448d-b5f7-03492e63503c"},"vehicle_type_id":"4","last_reported":1718727013,"current_range_meters":0,"station_id":"ce4bgip2rcd13ifvqbb0","pricing_plan_id":"cebpf4jnsgd1na2vs0mg"},{"bike_id":"a0bfa7d0-8d7b-4d26-8062-9b45cbe4c061","system_id":"levelo_inurba_marseille","lat":43.295748,"lon":5.37522,"is_reserved":false,"is_disabled":false,"rental_uris":{"android":"levelo://app?vid=a0bfa7d0-8d7b-4d26-8062-9b45cbe4c061","ios":"levelo://app?vid=a0bfa7d0-8d7b-4d26-8062-9b45cbe4c061"},"vehicle_type_id":"4","last_reported":1718727013,"current_range_meters":10800,"station_id":"ce4bgh92rcd13ifvqb50","pricing_plan_id":"cebpf4jnsgd1na2vs0mg"},{"bike_id":"688feb64-1a6e-4819-a1da-26f81b791dc2","system_id":"levelo_inurba_marseille","lat":43.30423,"lon":5.38886,"is_reserved":false,"is_disabled":false,"rental_uris":{"android":"levelo://app?vid=688feb64-1a6e-4819-a1da-26f81b791dc2","ios":"levelo://app?vid=688feb64-1a6e-4819-a1da-26f81b791dc2"},"vehicle_type_id":"4","last_reported":1718727013,"current_range_meters":24000,"station_id":"ce4bgk12rcd13ifvqbi0","pricing_plan_id":"cebpf4jnsgd1na2vs0mg"},{"bike_id":"4e76cce4-674c-4887-af26-06394b7446d2","system_id":"levelo_inurba_marseille","lat":43.323633,"lon":5.38877,"is_reserved":false,"is_disabled":false,"rental_uris":{"android":"levelo://app?vid=4e76cce4-674c-4887-af26-06394b7446d2","ios":"levelo://app?vid=4e76cce4-674c-4887-af26-06394b7446d2"},"vehicle_type_id":"4","last_reported":1718727013,"current_range_meters":10800,"station_id":"ce4bhqp2rcd13ifvqhog","pricing_plan_id":"cebpf4jnsgd1na2vs0mg"},{"bike_id":"0c73c083-1f9f-4c1a-8fe0-d1fa064c70e6","system_id":"levelo_inurba_marseille","lat":43.32365,"lon":5.3888,"is_reserved":false,"is_disabled":false,"rental_uris":{"android":"levelo://app?vid=0c73c083-1f9f-4c1a-8fe0-d1fa064c70e6","ios":"levelo://app?vid=0c73c083-1f9f-4c1a-8fe0-d1fa064c70e6"},"vehicle_type_id":"4","last_reported":1718727013,"current_range_meters":6000,"station_id":"ce4bhqp2rcd13ifvqhog","pricing_plan_id":"cebpf4jnsgd1na2vs0mg"},{"bike_id":"6e7d6a5a-7771-4222-94a4-c534a90ebaad","system_id":"levelo_inurba_marseille","lat":43.32366,"lon":5.38883,"is_reserved":false,"is_disabled":false,"rental_uris":{"android":"levelo://app?vid=6e7d6a5a-7771-4222-94a4-c534a90ebaad","ios":"levelo://app?vid=6e7d6a5a-7771-4222-94a4-c534a90ebaad"},"vehicle_type_id":"4","last_reported":1718727013,"current_range_meters":7200,"station_id":"ce4bhqp2rcd13ifvqhog","pricing_plan_id":"cebpf4jnsgd1na2vs0mg"},{"bike_id":"a31e0d58-d3ef-478b-a00a-9f3e050e7874","system_id":"levelo_inurba_marseille","lat":43.32367,"lon":5.38886,"is_reserved":false,"is_disabled":false,"rental_uris":{"android":"levelo://app?vid=a31e0d58-d3ef-478b-a00a-9f3e050e7874","ios":"levelo://app?vid=a31e0d58-d3ef-478b-a00a-9f3e050e7874"},"vehicle_type_id":"4","last_reported":1718727013,"current_range_meters":4000,"station_id":"ce4bhqp2rcd13ifvqhog","pricing_plan_id":"cebpf4jnsgd1na2vs0mg"},{"bike_id":"6eb76e05-f40a-4da8-9143-53f43df23f10","system_id":"levelo_inurba_marseille","lat":43.29602,"lon":5.381084,"is_reserved":false,"is_disabled":false,"rental_uris":{"android":"levelo://app?vid=6eb76e05-f40a-4da8-9143-53f43df23f10","ios":"levelo://app?vid=6eb76e05-f40a-4da8-9143-53f43df23f10"},"vehicle_type_id":"4","last_reported":1718727013,"current_range_meters":28000,"station_id":"ce4bgl12rcd13ifvqbo0","pricing_plan_id":"cebpf4jnsgd1na2vs0mg"},{"bike_id":"a4b22cdb-6d1b-4076-a232-cf6b99fa3b8d","system_id":"levelo_inurba_marseille","lat":43.29601,"lon":5.381084,"is_reserved":false,"is_disabled":false,"rental_uris":{"android":"levelo://app?vid=a4b22cdb-6d1b-4076-a232-cf6b99fa3b8d","ios":"levelo://app?vid=a4b22cdb-6d1b-4076-a232-cf6b99fa3b8d"},"vehicle_type_id":"4","last_reported":1718727013,"current_range_meters":9200,"station_id":"ce4bgl12rcd13ifvqbo0","pricing_plan_id":"cebpf4jnsgd1na2vs0mg"},{"bike_id":"9572c8f8-9add-467a-aa3a-6a4a2f5038c7","system_id":"levelo_inurba_marseille","lat":43.293045,"lon":5.37171,"is_reserved":false,"is_disabled":false,"rental_uris":{"android":"levelo://app?vid=9572c8f8-9add-467a-aa3a-6a4a2f5038c7","ios":"levelo://app?vid=9572c8f8-9add-467a-aa3a-6a4a2f5038c7"},"vehicle_type_id":"4","last_reported":1718727013,"current_range_meters":0,"station_id":"ce4bgh92rcd13ifvqb40","pricing_plan_id":"cebpf4jnsgd1na2vs0mg"},{"bike_id":"499d001c-ed0a-4eaf-a71d-08376a0151da","system_id":"levelo_inurba_marseille","lat":43.29274,"lon":5.36834,"is_reserved":false,"is_disabled":false,"rental_uris":{"android":"levelo://app?vid=499d001c-ed0a-4eaf-a71d-08376a0151da","ios":"levelo://app?vid=499d001c-ed0a-4eaf-a71d-08376a0151da"},"vehicle_type_id":"4","last_reported":1718727013,"current_range_meters":0,"station_id":"ce4bhbp2rcd13ifvqesg","pricing_plan_id":"cebpf4jnsgd1na2vs0mg"},{"bike_id":"b8364baa-fdd6-443e-9a13-b0ffbd395675","system_id":"levelo_inurba_marseille","lat":43.29272,"lon":5.368423,"is_reserved":false,"is_disabled":false,"rental_uris":{"android":"levelo://app?vid=b8364baa-fdd6-443e-9a13-b0ffbd395675","ios":"levelo://app?vid=b8364baa-fdd6-443e-9a13-b0ffbd395675"},"vehicle_type_id":"4","last_reported":1718727013,"current_range_meters":0,"station_id":"ce4bhbp2rcd13ifvqesg","pricing_plan_id":"cebpf4jnsgd1na2vs0mg"},{"bike_id":"6a7c413a-85b6-4bf5-afb2-e9144a9f22f7","system_id":"levelo_inurba_marseille","lat":43.29271,"lon":5.36836,"is_reserved":false,"is_disabled":false,"rental_uris":{"android":"levelo://app?vid=6a7c413a-85b6-4bf5-afb2-e9144a9f22f7","ios":"levelo://app?vid=6a7c413a-85b6-4bf5-afb2-e9144a9f22f7"},"vehicle_type_id":"4","last_reported":1718727013,"current_range_meters":27600,"station_id":"ce4bhbp2rcd13ifvqesg","pricing_plan_id":"cebpf4jnsgd1na2vs0mg"},{"bike_id":"5890792e-2070-4bdd-b0e2-e40c382f62a2","system_id":"levelo_inurba_marseille","lat":43.292749,"lon":5.368402,"is_reserved":false,"is_disabled":false,"rental_uris":{"android":"levelo://app?vid=5890792e-2070-4bdd-b0e2-e40c382f62a2","ios":"levelo://app?vid=5890792e-2070-4bdd-b0e2-e40c382f62a2"},"vehicle_type_id":"4","last_reported":1718727013,"current_range_meters":30000,"station_id":"ce4bhbp2rcd13ifvqesg","pricing_plan_id":"cebpf4jnsgd1na2vs0mg"},{"bike_id":"7c2f2c6d-e190-476f-9e42-c3ce6b63a733","system_id":"levelo_inurba_marseille","lat":43.29295,"lon":5.37454,"is_reserved":false,"is_disabled":false,"rental_uris":{"android":"levelo://app?vid=7c2f2c6d-e190-476f-9e42-c3ce6b63a733","ios":"levelo://app?vid=7c2f2c6d-e190-476f-9e42-c3ce6b63a733"},"vehicle_type_id":"4","last_reported":1718727013,"current_range_meters":0,"station_id":"ce4bgi12rcd13ifvqb70","pricing_plan_id":"cebpf4jnsgd1na2vs0mg"},{"bike_id":"e77a7eff-73f3-4879-8cd7-fa516be973d4","system_id":"levelo_inurba_marseille","lat":43.29297,"lon":5.37465,"is_reserved":false,"is_disabled":false,"rental_uris":{"android":"levelo://app?vid=e77a7eff-73f3-4879-8cd7-fa516be973d4","ios":"levelo://app?vid=e77a7eff-73f3-4879-8cd7-fa516be973d4"},"vehicle_type_id":"4","last_reported":1718727013,"current_range_meters":0,"station_id":"ce4bgi12rcd13ifvqb70","pricing_plan_id":"cebpf4jnsgd1na2vs0mg"},{"bike_id":"742b32f2-0501-40f4-aaa4-fbcd0c830882","system_id":"levelo_inurba_marseille","lat":43.29297,"lon":5.37466,"is_reserved":false,"is_disabled":false,"rental_uris":{"android":"levelo://app?vid=742b32f2-0501-40f4-aaa4-fbcd0c830882","ios":"levelo://app?vid=742b32f2-0501-40f4-aaa4-fbcd0c830882"},"vehicle_type_id":"4","last_reported":1718727013,"current_range_meters":0,"station_id":"ce4bgi12rcd13ifvqb70","pricing_plan_id":"cebpf4jnsgd1na2vs0mg"},{"bike_id":"a3d795be-a56a-465d-bfcf-9ba6c0dcbc8b","system_id":"levelo_inurba_marseille","lat":43.293009,"lon":5.374584,"is_reserved":false,"is_disabled":false,"rental_uris":{"android":"levelo://app?vid=a3d795be-a56a-465d-bfcf-9ba6c0dcbc8b","ios":"levelo://app?vid=a3d795be-a56a-465d-bfcf-9ba6c0dcbc8b"},"vehicle_type_id":"4","last_reported":1718727013,"current_range_meters":0,"station_id":"ce4bgi12rcd13ifvqb70","pricing_plan_id":"cebpf4jnsgd1na2vs0mg"},{"bike_id":"1de16215-0d39-495f-828c-fc9d098bbcac","system_id":"levelo_inurba_marseille","lat":43.29374,"lon":5.37845,"is_reserved":false,"is_disabled":false,"rental_uris":{"android":"levelo://app?vid=1de16215-0d39-495f-828c-fc9d098bbcac","ios":"levelo://app?vid=1de16215-0d39-495f-828c-fc9d098bbcac"},"vehicle_type_id":"4","last_reported":1718727013,"current_range_meters":26400,"station_id":"ce4bgjh2rcd13ifvqbf0","pricing_plan_id":"cebpf4jnsgd1na2vs0mg"},{"bike_id":"677d48fb-134f-4104-97e1-11fa1eda13dc","system_id":"levelo_inurba_marseille","lat":43.2936,"lon":5.37835,"is_reserved":false,"is_disabled":false,"rental_uris":{"android":"levelo://app?vid=677d48fb-134f-4104-97e1-11fa1eda13dc","ios":"levelo://app?vid=677d48fb-134f-4104-97e1-11fa1eda13dc"},"vehicle_type_id":"4","last_reported":1718727013,"current_range_meters":12400,"station_id":"ce4bgjh2rcd13ifvqbf0","pricing_plan_id":"cebpf4jnsgd1na2vs0mg"},{"bike_id":"e03275fa-fdea-4948-bd03-e9edbca503ae","system_id":"levelo_inurba_marseille","lat":43.292311,"lon":5.360731,"is_reserved":false,"is_disabled":false,"rental_uris":{"android":"levelo://app?vid=e03275fa-fdea-4948-bd03-e9edbca503ae","ios":"levelo://app?vid=e03275fa-fdea-4948-bd03-e9edbca503ae"},"vehicle_type_id":"4","last_reported":1718727013,"current_range_meters":27200,"station_id":"ce4bhbh2rcd13ifvqeqg","pricing_plan_id":"cebpf4jnsgd1na2vs0mg"},{"bike_id":"edec2aea-a1f2-490a-80bb-aea6fcb453c9","system_id":"levelo_inurba_marseille","lat":43.292311,"lon":5.360731,"is_reserved":false,"is_disabled":false,"rental_uris":{"android":"levelo://app?vid=edec2aea-a1f2-490a-80bb-aea6fcb453c9","ios":"levelo://app?vid=edec2aea-a1f2-490a-80bb-aea6fcb453c9"},"vehicle_type_id":"4","last_reported":1718727013,"current_range_meters":26800,"station_id":"ce4bhbh2rcd13ifvqeqg","pricing_plan_id":"cebpf4jnsgd1na2vs0mg"},{"bike_id":"13c2ff44-1b31-48ab-bcc4-4d4952f20921","system_id":"levelo_inurba_marseille","lat":43.292311,"lon":5.360731,"is_reserved":false,"is_disabled":false,"rental_uris":{"android":"levelo://app?vid=13c2ff44-1b31-48ab-bcc4-4d4952f20921","ios":"levelo://app?vid=13c2ff44-1b31-48ab-bcc4-4d4952f20921"},"vehicle_type_id":"4","last_reported":1718727013,"current_range_meters":0,"station_id":"ce4bhbh2rcd13ifvqeqg","pricing_plan_id":"cebpf4jnsgd1na2vs0mg"},{"bike_id":"966f791e-c2e9-4a5b-bb31-710dea5d6e90","system_id":"levelo_inurba_marseille","lat":43.30085,"lon":5.390856,"is_reserved":false,"is_disabled":false,"rental_uris":{"android":"levelo://app?vid=966f791e-c2e9-4a5b-bb31-710dea5d6e90","ios":"levelo://app?vid=966f791e-c2e9-4a5b-bb31-710dea5d6e90"},"vehicle_type_id":"4","last_reported":1718727013,"current_range_meters":21600,"station_id":"ce4bh192rcd13ifvqdb0","pricing_plan_id":"cebpf4jnsgd1na2vs0mg"},{"bike_id":"b5ec10ab-f15c-4584-8c74-dcad349740b8","system_id":"levelo_inurba_marseille","lat":43.30085,"lon":5.390856,"is_reserved":false,"is_disabled":false,"rental_uris":{"android":"levelo://app?vid=b5ec10ab-f15c-4584-8c74-dcad349740b8","ios":"levelo://app?vid=b5ec10ab-f15c-4584-8c74-dcad349740b8"},"vehicle_type_id":"4","last_reported":1718727013,"current_range_meters":14800,"station_id":"ce4bh192rcd13ifvqdb0","pricing_plan_id":"cebpf4jnsgd1na2vs0mg"},{"bike_id":"d679421a-36cf-471b-99f3-f423dea082d2","system_id":"levelo_inurba_marseille","lat":43.298764,"lon":5.388973,"is_reserved":false,"is_disabled":false,"rental_uris":{"android":"levelo://app?vid=d679421a-36cf-471b-99f3-f423dea082d2","ios":"levelo://app?vid=d679421a-36cf-471b-99f3-f423dea082d2"},"vehicle_type_id":"4","last_reported":1718727013,"current_range_meters":0,"station_id":"ce4bh392rcd13ifvqdl0","pricing_plan_id":"cebpf4jnsgd1na2vs0mg"},{"bike_id":"e9fe8bce-46bb-405a-bcab-af8405c298c5","system_id":"levelo_inurba_marseille","lat":43.291994,"lon":5.357886,"is_reserved":false,"is_disabled":false,"rental_uris":{"android":"levelo://app?vid=e9fe8bce-46bb-405a-bcab-af8405c298c5","ios":"levelo://app?vid=e9fe8bce-46bb-405a-bcab-af8405c298c5"},"vehicle_type_id":"4","last_reported":1718727013,"current_range_meters":0,"station_id":"ce4bhb12rcd13ifvqel0","pricing_plan_id":"cebpf4jnsgd1na2vs0mg"},{"bike_id":"3f2b6ab3-e459-4bc9-9003-7050bbb8f7c2","system_id":"levelo_inurba_marseille","lat":43.309038,"lon":5.396546,"is_reserved":false,"is_disabled":false,"rental_uris":{"android":"levelo://app?vid=3f2b6ab3-e459-4bc9-9003-7050bbb8f7c2","ios":"levelo://app?vid=3f2b6ab3-e459-4bc9-9003-7050bbb8f7c2"},"vehicle_type_id":"4","last_reported":1718727013,"current_range_meters":2800,"station_id":"ce4bh012rcd13ifvqcv0","pricing_plan_id":"cebpf4jnsgd1na2vs0mg"},{"bike_id":"c0bf9aed-e115-4b6f-b228-b67f624ac5bf","system_id":"levelo_inurba_marseille","lat":43.292005,"lon":5.357875,"is_reserved":false,"is_disabled":false,"rental_uris":{"android":"levelo://app?vid=c0bf9aed-e115-4b6f-b228-b67f624ac5bf","ios":"levelo://app?vid=c0bf9aed-e115-4b6f-b228-b67f624ac5bf"},"vehicle_type_id":"4","last_reported":1718727013,"current_range_meters":6800,"station_id":"ce4bhb12rcd13ifvqel0","pricing_plan_id":"cebpf4jnsgd1na2vs0mg"},{"bike_id":"3a8c068b-95a4-4f2b-b067-8940c55299a9","system_id":"levelo_inurba_marseille","lat":43.291994,"lon":5.357886,"is_reserved":false,"is_disabled":false,"rental_uris":{"android":"levelo://app?vid=3a8c068b-95a4-4f2b-b067-8940c55299a9","ios":"levelo://app?vid=3a8c068b-95a4-4f2b-b067-8940c55299a9"},"vehicle_type_id":"4","last_reported":1718727013,"current_range_meters":0,"station_id":"ce4bhb12rcd13ifvqel0","pricing_plan_id":"cebpf4jnsgd1na2vs0mg"},{"bike_id":"eb1c65af-b897-45c6-994f-3669d5b98edb","system_id":"levelo_inurba_marseille","lat":43.313291,"lon":5.396838,"is_reserved":false,"is_disabled":false,"rental_uris":{"android":"levelo://app?vid=eb1c65af-b897-45c6-994f-3669d5b98edb","ios":"levelo://app?vid=eb1c65af-b897-45c6-994f-3669d5b98edb"},"vehicle_type_id":"4","last_reported":1718727013,"current_range_meters":24000,"station_id":"ce4bgvp2rcd13ifvqcu0","pricing_plan_id":"cebpf4jnsgd1na2vs0mg"},{"bike_id":"b2a58b83-4d87-4e7a-b1dc-ad08c7d81a4f","system_id":"levelo_inurba_marseille","lat":43.313291,"lon":5.396838,"is_reserved":false,"is_disabled":false,"rental_uris":{"android":"levelo://app?vid=b2a58b83-4d87-4e7a-b1dc-ad08c7d81a4f","ios":"levelo://app?vid=b2a58b83-4d87-4e7a-b1dc-ad08c7d81a4f"},"vehicle_type_id":"4","last_reported":1718727013,"current_range_meters":15200,"station_id":"ce4bgvp2rcd13ifvqcu0","pricing_plan_id":"cebpf4jnsgd1na2vs0mg"},{"bike_id":"3e094341-906b-4b9c-b88a-f01f04db2841","system_id":"levelo_inurba_marseille","lat":43.313291,"lon":5.396838,"is_reserved":false,"is_disabled":false,"rental_uris":{"android":"levelo://app?vid=3e094341-906b-4b9c-b88a-f01f04db2841","ios":"levelo://app?vid=3e094341-906b-4b9c-b88a-f01f04db2841"},"vehicle_type_id":"4","last_reported":1718727013,"current_range_meters":1600,"station_id":"ce4bgvp2rcd13ifvqcu0","pricing_plan_id":"cebpf4jnsgd1na2vs0mg"},{"bike_id":"8d95a0ae-1d89-48e2-95f3-21fc7bd1dcf9","system_id":"levelo_inurba_marseille","lat":43.313291,"lon":5.396838,"is_reserved":false,"is_disabled":false,"rental_uris":{"android":"levelo://app?vid=8d95a0ae-1d89-48e2-95f3-21fc7bd1dcf9","ios":"levelo://app?vid=8d95a0ae-1d89-48e2-95f3-21fc7bd1dcf9"},"vehicle_type_id":"4","last_reported":1718727013,"current_range_meters":0,"station_id":"ce4bgvp2rcd13ifvqcu0","pricing_plan_id":"cebpf4jnsgd1na2vs0mg"},{"bike_id":"41ce04ef-0f21-4d02-aaf6-46e829ccaa2a","system_id":"levelo_inurba_marseille","lat":43.313291,"lon":5.396838,"is_reserved":false,"is_disabled":false,"rental_uris":{"android":"levelo://app?vid=41ce04ef-0f21-4d02-aaf6-46e829ccaa2a","ios":"levelo://app?vid=41ce04ef-0f21-4d02-aaf6-46e829ccaa2a"},"vehicle_type_id":"4","last_reported":1718727013,"current_range_meters":31600,"station_id":"ce4bgvp2rcd13ifvqcu0","pricing_plan_id":"cebpf4jnsgd1na2vs0mg"},{"bike_id":"69edb200-d195-4c45-a363-6b0fde35d638","system_id":"levelo_inurba_marseille","lat":43.313291,"lon":5.396838,"is_reserved":false,"is_disabled":false,"rental_uris":{"android":"levelo://app?vid=69edb200-d195-4c45-a363-6b0fde35d638","ios":"levelo://app?vid=69edb200-d195-4c45-a363-6b0fde35d638"},"vehicle_type_id":"4","last_reported":1718727013,"current_range_meters":12000,"station_id":"ce4bgvp2rcd13ifvqcu0","pricing_plan_id":"cebpf4jnsgd1na2vs0mg"},{"bike_id":"e20353d1-e46c-4450-a0ac-20c75c8fa03e","system_id":"levelo_inurba_marseille","lat":43.31326,"lon":5.39697,"is_reserved":false,"is_disabled":false,"rental_uris":{"android":"levelo://app?vid=e20353d1-e46c-4450-a0ac-20c75c8fa03e","ios":"levelo://app?vid=e20353d1-e46c-4450-a0ac-20c75c8fa03e"},"vehicle_type_id":"4","last_reported":1718727013,"current_range_meters":30800,"station_id":"ce4bgvp2rcd13ifvqcu0","pricing_plan_id":"cebpf4jnsgd1na2vs0mg"},{"bike_id":"3e4d913d-af7a-4f07-8ed8-102ca7543b11","system_id":"levelo_inurba_marseille","lat":43.313291,"lon":5.396838,"is_reserved":false,"is_disabled":false,"rental_uris":{"android":"levelo://app?vid=3e4d913d-af7a-4f07-8ed8-102ca7543b11","ios":"levelo://app?vid=3e4d913d-af7a-4f07-8ed8-102ca7543b11"},"vehicle_type_id":"4","last_reported":1718727013,"current_range_meters":16800,"station_id":"ce4bgvp2rcd13ifvqcu0","pricing_plan_id":"cebpf4jnsgd1na2vs0mg"},{"bike_id":"c5a3453a-295f-4555-89f1-041aacafc297","system_id":"levelo_inurba_marseille","lat":43.30892,"lon":5.39653,"is_reserved":false,"is_disabled":false,"rental_uris":{"android":"levelo://app?vid=c5a3453a-295f-4555-89f1-041aacafc297","ios":"levelo://app?vid=c5a3453a-295f-4555-89f1-041aacafc297"},"vehicle_type_id":"4","last_reported":1718727013,"current_range_meters":0,"station_id":"ce4bh012rcd13ifvqcv0","pricing_plan_id":"cebpf4jnsgd1na2vs0mg"},{"bike_id":"678bee64-1304-411e-a822-80de191f53b4","system_id":"levelo_inurba_marseille","lat":43.313291,"lon":5.396838,"is_reserved":false,"is_disabled":false,"rental_uris":{"android":"levelo://app?vid=678bee64-1304-411e-a822-80de191f53b4","ios":"levelo://app?vid=678bee64-1304-411e-a822-80de191f53b4"},"vehicle_type_id":"4","last_reported":1718727013,"current_range_meters":31200,"station_id":"ce4bgvp2rcd13ifvqcu0","pricing_plan_id":"cebpf4jnsgd1na2vs0mg"},{"bike_id":"fad847d7-f86b-495f-9756-39f4321bda67","system_id":"levelo_inurba_marseille","lat":43.29525,"lon":5.38536,"is_reserved":false,"is_disabled":false,"rental_uris":{"android":"levelo://app?vid=fad847d7-f86b-495f-9756-39f4321bda67","ios":"levelo://app?vid=fad847d7-f86b-495f-9756-39f4321bda67"},"vehicle_type_id":"4","last_reported":1718727013,"current_range_meters":20000,"station_id":"","pricing_plan_id":"cebpf4jnsgd1na2vs0mg"},{"bike_id":"fceac938-78a8-43ae-97de-1edc9e16b147","system_id":"levelo_inurba_marseille","lat":43.29529,"lon":5.385581,"is_reserved":false,"is_disabled":false,"rental_uris":{"android":"levelo://app?vid=fceac938-78a8-43ae-97de-1edc9e16b147","ios":"levelo://app?vid=fceac938-78a8-43ae-97de-1edc9e16b147"},"vehicle_type_id":"4","last_reported":1718727013,"current_range_meters":21200,"station_id":"ce4bgih2rcd13ifvqba0","pricing_plan_id":"cebpf4jnsgd1na2vs0mg"},{"bike_id":"0b412102-472f-47c2-9bed-e83d9ae2eee7","system_id":"levelo_inurba_marseille","lat":43.29529,"lon":5.385581,"is_reserved":false,"is_disabled":false,"rental_uris":{"android":"levelo://app?vid=0b412102-472f-47c2-9bed-e83d9ae2eee7","ios":"levelo://app?vid=0b412102-472f-47c2-9bed-e83d9ae2eee7"},"vehicle_type_id":"4","last_reported":1718727013,"current_range_meters":25600,"station_id":"ce4bgih2rcd13ifvqba0","pricing_plan_id":"cebpf4jnsgd1na2vs0mg"},{"bike_id":"ebcce1e0-679c-4837-a2c9-13efa3c9185b","system_id":"levelo_inurba_marseille","lat":43.290779,"lon":5.371482,"is_reserved":false,"is_disabled":false,"rental_uris":{"android":"levelo://app?vid=ebcce1e0-679c-4837-a2c9-13efa3c9185b","ios":"levelo://app?vid=ebcce1e0-679c-4837-a2c9-13efa3c9185b"},"vehicle_type_id":"4","last_reported":1718727013,"current_range_meters":9200,"station_id":"ce4bh5p2rcd13ifvqe4g","pricing_plan_id":"cebpf4jnsgd1na2vs0mg"},{"bike_id":"5136be88-cbcd-40d8-9db1-020eab172679","system_id":"levelo_inurba_marseille","lat":43.302008,"lon":5.394694,"is_reserved":false,"is_disabled":false,"rental_uris":{"android":"levelo://app?vid=5136be88-cbcd-40d8-9db1-020eab172679","ios":"levelo://app?vid=5136be88-cbcd-40d8-9db1-020eab172679"},"vehicle_type_id":"4","last_reported":1718727013,"current_range_meters":3600,"station_id":"ce4bh0p2rcd13ifvqd70","pricing_plan_id":"cebpf4jnsgd1na2vs0mg"},{"bike_id":"05c1c740-0332-4cf8-8fa4-b08ab16cba4c","system_id":"levelo_inurba_marseille","lat":43.292643,"lon":5.382575,"is_reserved":false,"is_disabled":false,"rental_uris":{"android":"levelo://app?vid=05c1c740-0332-4cf8-8fa4-b08ab16cba4c","ios":"levelo://app?vid=05c1c740-0332-4cf8-8fa4-b08ab16cba4c"},"vehicle_type_id":"4","last_reported":1718727013,"current_range_meters":22000,"station_id":"","pricing_plan_id":"cebpf4jnsgd1na2vs0mg"},{"bike_id":"24f55e1e-d69d-4972-8e5e-763271244448","system_id":"levelo_inurba_marseille","lat":43.29419,"lon":5.38619,"is_reserved":false,"is_disabled":false,"rental_uris":{"android":"levelo://app?vid=24f55e1e-d69d-4972-8e5e-763271244448","ios":"levelo://app?vid=24f55e1e-d69d-4972-8e5e-763271244448"},"vehicle_type_id":"4","last_reported":1718727013,"current_range_meters":4000,"station_id":"ce4bh2h2rcd13ifvqdh0","pricing_plan_id":"cebpf4jnsgd1na2vs0mg"},{"bike_id":"4ce5fa46-6c73-413f-8f7b-def1f4a4c0ed","system_id":"levelo_inurba_marseille","lat":43.294153,"lon":5.386305,"is_reserved":false,"is_disabled":false,"rental_uris":{"android":"levelo://app?vid=4ce5fa46-6c73-413f-8f7b-def1f4a4c0ed","ios":"levelo://app?vid=4ce5fa46-6c73-413f-8f7b-def1f4a4c0ed"},"vehicle_type_id":"4","last_reported":1718727013,"current_range_meters":29200,"station_id":"ce4bh2h2rcd13ifvqdh0","pricing_plan_id":"cebpf4jnsgd1na2vs0mg"},{"bike_id":"9dabaf04-5e49-4c88-9e94-5eb25adca355","system_id":"levelo_inurba_marseille","lat":43.29417,"lon":5.38618,"is_reserved":false,"is_disabled":false,"rental_uris":{"android":"levelo://app?vid=9dabaf04-5e49-4c88-9e94-5eb25adca355","ios":"levelo://app?vid=9dabaf04-5e49-4c88-9e94-5eb25adca355"},"vehicle_type_id":"4","last_reported":1718727013,"current_range_meters":3600,"station_id":"ce4bh2h2rcd13ifvqdh0","pricing_plan_id":"cebpf4jnsgd1na2vs0mg"},{"bike_id":"1f2f6b54-00ad-483d-8007-3e4486ad3a4a","system_id":"levelo_inurba_marseille","lat":43.294153,"lon":5.386305,"is_reserved":false,"is_disabled":false,"rental_uris":{"android":"levelo://app?vid=1f2f6b54-00ad-483d-8007-3e4486ad3a4a","ios":"levelo://app?vid=1f2f6b54-00ad-483d-8007-3e4486ad3a4a"},"vehicle_type_id":"4","last_reported":1718727013,"current_range_meters":0,"station_id":"ce4bh2h2rcd13ifvqdh0","pricing_plan_id":"cebpf4jnsgd1na2vs0mg"},{"bike_id":"6a419476-5024-4a0a-9941-6abdc46318fc","system_id":"levelo_inurba_marseille","lat":43.29418,"lon":5.38622,"is_reserved":false,"is_disabled":false,"rental_uris":{"android":"levelo://app?vid=6a419476-5024-4a0a-9941-6abdc46318fc","ios":"levelo://app?vid=6a419476-5024-4a0a-9941-6abdc46318fc"},"vehicle_type_id":"4","last_reported":1718727013,"current_range_meters":11600,"station_id":"ce4bh2h2rcd13ifvqdh0","pricing_plan_id":"cebpf4jnsgd1na2vs0mg"},{"bike_id":"c97a0977-70ed-4160-a21e-3f6c9051e949","system_id":"levelo_inurba_marseille","lat":43.294162,"lon":5.386292,"is_reserved":false,"is_disabled":false,"rental_uris":{"android":"levelo://app?vid=c97a0977-70ed-4160-a21e-3f6c9051e949","ios":"levelo://app?vid=c97a0977-70ed-4160-a21e-3f6c9051e949"},"vehicle_type_id":"4","last_reported":1718727013,"current_range_meters":4400,"station_id":"ce4bh2h2rcd13ifvqdh0","pricing_plan_id":"cebpf4jnsgd1na2vs0mg"},{"bike_id":"ec69be1e-ed97-43b1-ba55-09c2f2198a3a","system_id":"levelo_inurba_marseille","lat":43.289184,"lon":5.366408,"is_reserved":false,"is_disabled":false,"rental_uris":{"android":"levelo://app?vid=ec69be1e-ed97-43b1-ba55-09c2f2198a3a","ios":"levelo://app?vid=ec69be1e-ed97-43b1-ba55-09c2f2198a3a"},"vehicle_type_id":"4","last_reported":1718727013,"current_range_meters":23600,"station_id":"ce4bhap2rcd13ifvqek0","pricing_plan_id":"cebpf4jnsgd1na2vs0mg"},{"bike_id":"cc6b394b-b539-4c24-9ed0-221565226dfb","system_id":"levelo_inurba_marseille","lat":43.294162,"lon":5.386292,"is_reserved":false,"is_disabled":false,"rental_uris":{"android":"levelo://app?vid=cc6b394b-b539-4c24-9ed0-221565226dfb","ios":"levelo://app?vid=cc6b394b-b539-4c24-9ed0-221565226dfb"},"vehicle_type_id":"4","last_reported":1718727013,"current_range_meters":22400,"station_id":"ce4bh2h2rcd13ifvqdh0","pricing_plan_id":"cebpf4jnsgd1na2vs0mg"},{"bike_id":"1bc6b40d-8f5e-495b-8eab-09f3c4ef7b2b","system_id":"levelo_inurba_marseille","lat":43.289184,"lon":5.366408,"is_reserved":false,"is_disabled":false,"rental_uris":{"android":"levelo://app?vid=1bc6b40d-8f5e-495b-8eab-09f3c4ef7b2b","ios":"levelo://app?vid=1bc6b40d-8f5e-495b-8eab-09f3c4ef7b2b"},"vehicle_type_id":"4","last_reported":1718727013,"current_range_meters":31200,"station_id":"ce4bhap2rcd13ifvqek0","pricing_plan_id":"cebpf4jnsgd1na2vs0mg"},{"bike_id":"5aaec307-c438-471b-8838-a215cbd9d85f","system_id":"levelo_inurba_marseille","lat":43.29412,"lon":5.38626,"is_reserved":false,"is_disabled":false,"rental_uris":{"android":"levelo://app?vid=5aaec307-c438-471b-8838-a215cbd9d85f","ios":"levelo://app?vid=5aaec307-c438-471b-8838-a215cbd9d85f"},"vehicle_type_id":"4","last_reported":1718727013,"current_range_meters":0,"station_id":"ce4bh2h2rcd13ifvqdh0","pricing_plan_id":"cebpf4jnsgd1na2vs0mg"},{"bike_id":"b16b5b12-71e4-41b6-ae6b-52f93952fccd","system_id":"levelo_inurba_marseille","lat":43.29409,"lon":5.38621,"is_reserved":false,"is_disabled":false,"rental_uris":{"android":"levelo://app?vid=b16b5b12-71e4-41b6-ae6b-52f93952fccd","ios":"levelo://app?vid=b16b5b12-71e4-41b6-ae6b-52f93952fccd"},"vehicle_type_id":"4","last_reported":1718727013,"current_range_meters":17600,"station_id":"ce4bh2h2rcd13ifvqdh0","pricing_plan_id":"cebpf4jnsgd1na2vs0mg"},{"bike_id":"c8650b69-cc82-41a8-84fa-aaf2ee5e7d0c","system_id":"levelo_inurba_marseille","lat":43.289184,"lon":5.366408,"is_reserved":false,"is_disabled":false,"rental_uris":{"android":"levelo://app?vid=c8650b69-cc82-41a8-84fa-aaf2ee5e7d0c","ios":"levelo://app?vid=c8650b69-cc82-41a8-84fa-aaf2ee5e7d0c"},"vehicle_type_id":"4","last_reported":1718727013,"current_range_meters":3200,"station_id":"ce4bhap2rcd13ifvqek0","pricing_plan_id":"cebpf4jnsgd1na2vs0mg"},{"bike_id":"8fd7f293-8133-4b00-9688-6f33da7ba8cb","system_id":"levelo_inurba_marseille","lat":43.289184,"lon":5.366408,"is_reserved":false,"is_disabled":false,"rental_uris":{"android":"levelo://app?vid=8fd7f293-8133-4b00-9688-6f33da7ba8cb","ios":"levelo://app?vid=8fd7f293-8133-4b00-9688-6f33da7ba8cb"},"vehicle_type_id":"4","last_reported":1718727013,"current_range_meters":20800,"station_id":"ce4bhap2rcd13ifvqek0","pricing_plan_id":"cebpf4jnsgd1na2vs0mg"},{"bike_id":"381e62e4-4566-4f43-b452-66da1d9d5667","system_id":"levelo_inurba_marseille","lat":43.292644,"lon":5.384257,"is_reserved":false,"is_disabled":false,"rental_uris":{"android":"levelo://app?vid=381e62e4-4566-4f43-b452-66da1d9d5667","ios":"levelo://app?vid=381e62e4-4566-4f43-b452-66da1d9d5667"},"vehicle_type_id":"4","last_reported":1718727013,"current_range_meters":4400,"station_id":"ce4bh692rcd13ifvqea0","pricing_plan_id":"cebpf4jnsgd1na2vs0mg"},{"bike_id":"76c5f097-f6de-47ad-ba57-0a1eded65404","system_id":"levelo_inurba_marseille","lat":43.30425,"lon":5.39748,"is_reserved":false,"is_disabled":false,"rental_uris":{"android":"levelo://app?vid=76c5f097-f6de-47ad-ba57-0a1eded65404","ios":"levelo://app?vid=76c5f097-f6de-47ad-ba57-0a1eded65404"},"vehicle_type_id":"4","last_reported":1718727013,"current_range_meters":400,"station_id":"ce4bh092rcd13ifvqd20","pricing_plan_id":"cebpf4jnsgd1na2vs0mg"},{"bike_id":"1b539939-e133-4401-bb91-bd30391310e6","system_id":"levelo_inurba_marseille","lat":43.292644,"lon":5.384257,"is_reserved":false,"is_disabled":false,"rental_uris":{"android":"levelo://app?vid=1b539939-e133-4401-bb91-bd30391310e6","ios":"levelo://app?vid=1b539939-e133-4401-bb91-bd30391310e6"},"vehicle_type_id":"4","last_reported":1718727013,"current_range_meters":400,"station_id":"ce4bh692rcd13ifvqea0","pricing_plan_id":"cebpf4jnsgd1na2vs0mg"},{"bike_id":"a74ab90d-d301-4e68-ba59-0e989b983529","system_id":"levelo_inurba_marseille","lat":43.290104,"lon":5.356111,"is_reserved":false,"is_disabled":false,"rental_uris":{"android":"levelo://app?vid=a74ab90d-d301-4e68-ba59-0e989b983529","ios":"levelo://app?vid=a74ab90d-d301-4e68-ba59-0e989b983529"},"vehicle_type_id":"4","last_reported":1718727013,"current_range_meters":5200,"station_id":"ce4bhb92rcd13ifvqen0","pricing_plan_id":"cebpf4jnsgd1na2vs0mg"},{"bike_id":"267b9252-54e9-4f06-b24a-20fea47f6d40","system_id":"levelo_inurba_marseille","lat":43.290103,"lon":5.356114,"is_reserved":false,"is_disabled":false,"rental_uris":{"android":"levelo://app?vid=267b9252-54e9-4f06-b24a-20fea47f6d40","ios":"levelo://app?vid=267b9252-54e9-4f06-b24a-20fea47f6d40"},"vehicle_type_id":"4","last_reported":1718727013,"current_range_meters":10000,"station_id":"ce4bhb92rcd13ifvqen0","pricing_plan_id":"cebpf4jnsgd1na2vs0mg"},{"bike_id":"0236b567-87a2-4543-8724-b6f5bc7e1c6a","system_id":"levelo_inurba_marseille","lat":43.290104,"lon":5.356111,"is_reserved":false,"is_disabled":false,"rental_uris":{"android":"levelo://app?vid=0236b567-87a2-4543-8724-b6f5bc7e1c6a","ios":"levelo://app?vid=0236b567-87a2-4543-8724-b6f5bc7e1c6a"},"vehicle_type_id":"4","last_reported":1718727013,"current_range_meters":11600,"station_id":"ce4bhb92rcd13ifvqen0","pricing_plan_id":"cebpf4jnsgd1na2vs0mg"},{"bike_id":"103e3cb0-d5cd-43c8-b83e-2a58f233ff52","system_id":"levelo_inurba_marseille","lat":43.290103,"lon":5.356114,"is_reserved":false,"is_disabled":false,"rental_uris":{"android":"levelo://app?vid=103e3cb0-d5cd-43c8-b83e-2a58f233ff52","ios":"levelo://app?vid=103e3cb0-d5cd-43c8-b83e-2a58f233ff52"},"vehicle_type_id":"4","last_reported":1718727013,"current_range_meters":8400,"station_id":"ce4bhb92rcd13ifvqen0","pricing_plan_id":"cebpf4jnsgd1na2vs0mg"},{"bike_id":"d3a32d5a-5dd0-4433-a1ca-75972e0b9932","system_id":"levelo_inurba_marseille","lat":43.290104,"lon":5.356111,"is_reserved":false,"is_disabled":false,"rental_uris":{"android":"levelo://app?vid=d3a32d5a-5dd0-4433-a1ca-75972e0b9932","ios":"levelo://app?vid=d3a32d5a-5dd0-4433-a1ca-75972e0b9932"},"vehicle_type_id":"4","last_reported":1718727013,"current_range_meters":2000,"station_id":"ce4bhb92rcd13ifvqen0","pricing_plan_id":"cebpf4jnsgd1na2vs0mg"},{"bike_id":"d0e04984-87ab-4aba-a49c-9f088d143e0d","system_id":"levelo_inurba_marseille","lat":43.290104,"lon":5.356111,"is_reserved":false,"is_disabled":false,"rental_uris":{"android":"levelo://app?vid=d0e04984-87ab-4aba-a49c-9f088d143e0d","ios":"levelo://app?vid=d0e04984-87ab-4aba-a49c-9f088d143e0d"},"vehicle_type_id":"4","last_reported":1718727013,"current_range_meters":3200,"station_id":"ce4bhb92rcd13ifvqen0","pricing_plan_id":"cebpf4jnsgd1na2vs0mg"},{"bike_id":"7fbab62b-2ec8-4f0a-bc3e-1d29e9cfcc59","system_id":"levelo_inurba_marseille","lat":43.290103,"lon":5.356114,"is_reserved":false,"is_disabled":false,"rental_uris":{"android":"levelo://app?vid=7fbab62b-2ec8-4f0a-bc3e-1d29e9cfcc59","ios":"levelo://app?vid=7fbab62b-2ec8-4f0a-bc3e-1d29e9cfcc59"},"vehicle_type_id":"4","last_reported":1718727013,"current_range_meters":5600,"station_id":"ce4bhb92rcd13ifvqen0","pricing_plan_id":"cebpf4jnsgd1na2vs0mg"},{"bike_id":"1117d952-065d-4301-8334-e8b39183038d","system_id":"levelo_inurba_marseille","lat":43.290104,"lon":5.356111,"is_reserved":false,"is_disabled":false,"rental_uris":{"android":"levelo://app?vid=1117d952-065d-4301-8334-e8b39183038d","ios":"levelo://app?vid=1117d952-065d-4301-8334-e8b39183038d"},"vehicle_type_id":"4","last_reported":1718727013,"current_range_meters":3200,"station_id":"ce4bhb92rcd13ifvqen0","pricing_plan_id":"cebpf4jnsgd1na2vs0mg"},{"bike_id":"c355fe91-5060-45cf-b0f7-2c439860d0d3","system_id":"levelo_inurba_marseille","lat":43.290104,"lon":5.356111,"is_reserved":false,"is_disabled":false,"rental_uris":{"android":"levelo://app?vid=c355fe91-5060-45cf-b0f7-2c439860d0d3","ios":"levelo://app?vid=c355fe91-5060-45cf-b0f7-2c439860d0d3"},"vehicle_type_id":"4","last_reported":1718727013,"current_range_meters":31200,"station_id":"ce4bhb92rcd13ifvqen0","pricing_plan_id":"cebpf4jnsgd1na2vs0mg"},{"bike_id":"4bbb98bc-d045-408d-a9f6-5d7e4861daec","system_id":"levelo_inurba_marseille","lat":43.29097,"lon":5.38145,"is_reserved":false,"is_disabled":false,"rental_uris":{"android":"levelo://app?vid=4bbb98bc-d045-408d-a9f6-5d7e4861daec","ios":"levelo://app?vid=4bbb98bc-d045-408d-a9f6-5d7e4861daec"},"vehicle_type_id":"4","last_reported":1718727013,"current_range_meters":8800,"station_id":"ce4bh512rcd13ifvqe2g","pricing_plan_id":"cebpf4jnsgd1na2vs0mg"},{"bike_id":"a3c78861-8ad2-47b7-a7a7-ae68310353bd","system_id":"levelo_inurba_marseille","lat":43.330442,"lon":5.389148,"is_reserved":false,"is_disabled":false,"rental_uris":{"android":"levelo://app?vid=a3c78861-8ad2-47b7-a7a7-ae68310353bd","ios":"levelo://app?vid=a3c78861-8ad2-47b7-a7a7-ae68310353bd"},"vehicle_type_id":"4","last_reported":1718727013,"current_range_meters":19200,"station_id":"ce4bhr92rcd13ifvqhrg","pricing_plan_id":"cebpf4jnsgd1na2vs0mg"},{"bike_id":"e0d03a6f-2df2-48a9-b255-a2af5855c286","system_id":"levelo_inurba_marseille","lat":43.330442,"lon":5.389148,"is_reserved":false,"is_disabled":false,"rental_uris":{"android":"levelo://app?vid=e0d03a6f-2df2-48a9-b255-a2af5855c286","ios":"levelo://app?vid=e0d03a6f-2df2-48a9-b255-a2af5855c286"},"vehicle_type_id":"4","last_reported":1718727013,"current_range_meters":20400,"station_id":"ce4bhr92rcd13ifvqhrg","pricing_plan_id":"cebpf4jnsgd1na2vs0mg"},{"bike_id":"a00267b2-72e1-458d-9013-3032efe054c5","system_id":"levelo_inurba_marseille","lat":43.330442,"lon":5.389148,"is_reserved":false,"is_disabled":false,"rental_uris":{"android":"levelo://app?vid=a00267b2-72e1-458d-9013-3032efe054c5","ios":"levelo://app?vid=a00267b2-72e1-458d-9013-3032efe054c5"},"vehicle_type_id":"4","last_reported":1718727013,"current_range_meters":22000,"station_id":"ce4bhr92rcd13ifvqhrg","pricing_plan_id":"cebpf4jnsgd1na2vs0mg"},{"bike_id":"74e0b125-4ecf-4ac2-9cc0-804daedf1728","system_id":"levelo_inurba_marseille","lat":43.33025,"lon":5.39043,"is_reserved":false,"is_disabled":false,"rental_uris":{"android":"levelo://app?vid=74e0b125-4ecf-4ac2-9cc0-804daedf1728","ios":"levelo://app?vid=74e0b125-4ecf-4ac2-9cc0-804daedf1728"},"vehicle_type_id":"4","last_reported":1718727013,"current_range_meters":7200,"station_id":"ce4bhr92rcd13ifvqhrg","pricing_plan_id":"cebpf4jnsgd1na2vs0mg"},{"bike_id":"446a8c2c-2a83-4cd1-8bd9-a704417c55f2","system_id":"levelo_inurba_marseille","lat":43.330442,"lon":5.389148,"is_reserved":false,"is_disabled":false,"rental_uris":{"android":"levelo://app?vid=446a8c2c-2a83-4cd1-8bd9-a704417c55f2","ios":"levelo://app?vid=446a8c2c-2a83-4cd1-8bd9-a704417c55f2"},"vehicle_type_id":"4","last_reported":1718727013,"current_range_meters":25200,"station_id":"ce4bhr92rcd13ifvqhrg","pricing_plan_id":"cebpf4jnsgd1na2vs0mg"},{"bike_id":"2f1bddc2-b6cb-4983-9d57-d59e3d584d8f","system_id":"levelo_inurba_marseille","lat":43.2901,"lon":5.381269,"is_reserved":false,"is_disabled":false,"rental_uris":{"android":"levelo://app?vid=2f1bddc2-b6cb-4983-9d57-d59e3d584d8f","ios":"levelo://app?vid=2f1bddc2-b6cb-4983-9d57-d59e3d584d8f"},"vehicle_type_id":"4","last_reported":1718727013,"current_range_meters":0,"station_id":"ce4bh4p2rcd13ifvqe1g","pricing_plan_id":"cebpf4jnsgd1na2vs0mg"},{"bike_id":"91d942f0-8f0e-47af-b467-5fda5a3ba290","system_id":"levelo_inurba_marseille","lat":43.31076,"lon":5.400953,"is_reserved":false,"is_disabled":false,"rental_uris":{"android":"levelo://app?vid=91d942f0-8f0e-47af-b467-5fda5a3ba290","ios":"levelo://app?vid=91d942f0-8f0e-47af-b467-5fda5a3ba290"},"vehicle_type_id":"4","last_reported":1718727013,"current_range_meters":24400,"station_id":"","pricing_plan_id":"cebpf4jnsgd1na2vs0mg"},{"bike_id":"9c6dc001-0320-40d3-bb4b-5b621f1ae15a","system_id":"levelo_inurba_marseille","lat":43.28856,"lon":5.358371,"is_reserved":false,"is_disabled":false,"rental_uris":{"android":"levelo://app?vid=9c6dc001-0320-40d3-bb4b-5b621f1ae15a","ios":"levelo://app?vid=9c6dc001-0320-40d3-bb4b-5b621f1ae15a"},"vehicle_type_id":"4","last_reported":1718727013,"current_range_meters":7600,"station_id":"ce4bhb12rcd13ifvqem0","pricing_plan_id":"cebpf4jnsgd1na2vs0mg"},{"bike_id":"52080f11-18e3-4a1e-a5a8-9db954ce767d","system_id":"levelo_inurba_marseille","lat":43.28856,"lon":5.358371,"is_reserved":false,"is_disabled":false,"rental_uris":{"android":"levelo://app?vid=52080f11-18e3-4a1e-a5a8-9db954ce767d","ios":"levelo://app?vid=52080f11-18e3-4a1e-a5a8-9db954ce767d"},"vehicle_type_id":"4","last_reported":1718727013,"current_range_meters":3200,"station_id":"ce4bhb12rcd13ifvqem0","pricing_plan_id":"cebpf4jnsgd1na2vs0mg"},{"bike_id":"91c5d071-c590-4df0-b2b9-eab32bff53a4","system_id":"levelo_inurba_marseille","lat":43.33755,"lon":5.37455,"is_reserved":false,"is_disabled":false,"rental_uris":{"android":"levelo://app?vid=91c5d071-c590-4df0-b2b9-eab32bff53a4","ios":"levelo://app?vid=91c5d071-c590-4df0-b2b9-eab32bff53a4"},"vehicle_type_id":"4","last_reported":1718727013,"current_range_meters":26400,"station_id":"","pricing_plan_id":"cebpf4jnsgd1na2vs0mg"},{"bike_id":"2d35cd99-3935-4e97-be27-8e1d55c13a96","system_id":"levelo_inurba_marseille","lat":43.337601,"lon":5.374415,"is_reserved":false,"is_disabled":false,"rental_uris":{"android":"levelo://app?vid=2d35cd99-3935-4e97-be27-8e1d55c13a96","ios":"levelo://app?vid=2d35cd99-3935-4e97-be27-8e1d55c13a96"},"vehicle_type_id":"4","last_reported":1718727013,"current_range_meters":26400,"station_id":"","pricing_plan_id":"cebpf4jnsgd1na2vs0mg"},{"bike_id":"8883e7ae-ef4d-495d-897b-ed09cd3c83d9","system_id":"levelo_inurba_marseille","lat":43.337606,"lon":5.37471,"is_reserved":false,"is_disabled":false,"rental_uris":{"android":"levelo://app?vid=8883e7ae-ef4d-495d-897b-ed09cd3c83d9","ios":"levelo://app?vid=8883e7ae-ef4d-495d-897b-ed09cd3c83d9"},"vehicle_type_id":"4","last_reported":1718727013,"current_range_meters":10800,"station_id":"","pricing_plan_id":"cebpf4jnsgd1na2vs0mg"},{"bike_id":"5a50c5f3-e45e-4a92-9cab-42dd7a56b430","system_id":"levelo_inurba_marseille","lat":43.33762,"lon":5.37476,"is_reserved":false,"is_disabled":false,"rental_uris":{"android":"levelo://app?vid=5a50c5f3-e45e-4a92-9cab-42dd7a56b430","ios":"levelo://app?vid=5a50c5f3-e45e-4a92-9cab-42dd7a56b430"},"vehicle_type_id":"4","last_reported":1718727013,"current_range_meters":30800,"station_id":"","pricing_plan_id":"cebpf4jnsgd1na2vs0mg"},{"bike_id":"d610467e-0075-4911-b992-602ee1dc1cb0","system_id":"levelo_inurba_marseille","lat":43.28727,"lon":5.36078,"is_reserved":false,"is_disabled":false,"rental_uris":{"android":"levelo://app?vid=d610467e-0075-4911-b992-602ee1dc1cb0","ios":"levelo://app?vid=d610467e-0075-4911-b992-602ee1dc1cb0"},"vehicle_type_id":"4","last_reported":1718727013,"current_range_meters":25200,"station_id":"cki0cbj6b192h4jlfktg","pricing_plan_id":"cebpf4jnsgd1na2vs0mg"},{"bike_id":"76cf4430-e80c-4c83-8030-40ffc9ed6fa6","system_id":"levelo_inurba_marseille","lat":43.28727,"lon":5.36078,"is_reserved":false,"is_disabled":false,"rental_uris":{"android":"levelo://app?vid=76cf4430-e80c-4c83-8030-40ffc9ed6fa6","ios":"levelo://app?vid=76cf4430-e80c-4c83-8030-40ffc9ed6fa6"},"vehicle_type_id":"4","last_reported":1718727013,"current_range_meters":10800,"station_id":"cki0cbj6b192h4jlfktg","pricing_plan_id":"cebpf4jnsgd1na2vs0mg"},{"bike_id":"98265fff-fe13-48de-b5df-90749f9d02ba","system_id":"levelo_inurba_marseille","lat":43.298681,"lon":5.397225,"is_reserved":false,"is_disabled":false,"rental_uris":{"android":"levelo://app?vid=98265fff-fe13-48de-b5df-90749f9d02ba","ios":"levelo://app?vid=98265fff-fe13-48de-b5df-90749f9d02ba"},"vehicle_type_id":"4","last_reported":1718727013,"current_range_meters":30000,"station_id":"ce4bh0h2rcd13ifvqd50","pricing_plan_id":"cebpf4jnsgd1na2vs0mg"},{"bike_id":"d85224b4-9080-4243-b214-a3dde271be71","system_id":"levelo_inurba_marseille","lat":43.286591,"lon":5.363346,"is_reserved":false,"is_disabled":false,"rental_uris":{"android":"levelo://app?vid=d85224b4-9080-4243-b214-a3dde271be71","ios":"levelo://app?vid=d85224b4-9080-4243-b214-a3dde271be71"},"vehicle_type_id":"4","last_reported":1718727013,"current_range_meters":21600,"station_id":"ce4bhah2rcd13ifvqej0","pricing_plan_id":"cebpf4jnsgd1na2vs0mg"},{"bike_id":"c5064999-dbc1-4262-80f3-359aa0c79676","system_id":"levelo_inurba_marseille","lat":43.28662,"lon":5.36357,"is_reserved":false,"is_disabled":false,"rental_uris":{"android":"levelo://app?vid=c5064999-dbc1-4262-80f3-359aa0c79676","ios":"levelo://app?vid=c5064999-dbc1-4262-80f3-359aa0c79676"},"vehicle_type_id":"4","last_reported":1718727013,"current_range_meters":26400,"station_id":"ce4bhah2rcd13ifvqej0","pricing_plan_id":"cebpf4jnsgd1na2vs0mg"},{"bike_id":"20b8a628-d013-4206-8984-93854c4b16ce","system_id":"levelo_inurba_marseille","lat":43.286961,"lon":5.373785,"is_reserved":false,"is_disabled":false,"rental_uris":{"android":"levelo://app?vid=20b8a628-d013-4206-8984-93854c4b16ce","ios":"levelo://app?vid=20b8a628-d013-4206-8984-93854c4b16ce"},"vehicle_type_id":"4","last_reported":1718727013,"current_range_meters":0,"station_id":"ce4bh3p2rcd13ifvqdq0","pricing_plan_id":"cebpf4jnsgd1na2vs0mg"},{"bike_id":"1fca19b0-1cb7-4324-9e24-90285473a9a9","system_id":"levelo_inurba_marseille","lat":43.286593,"lon":5.363346,"is_reserved":false,"is_disabled":false,"rental_uris":{"android":"levelo://app?vid=1fca19b0-1cb7-4324-9e24-90285473a9a9","ios":"levelo://app?vid=1fca19b0-1cb7-4324-9e24-90285473a9a9"},"vehicle_type_id":"4","last_reported":1718727013,"current_range_meters":15200,"station_id":"ce4bhah2rcd13ifvqej0","pricing_plan_id":"cebpf4jnsgd1na2vs0mg"},{"bike_id":"5e282a1d-479b-4a81-aed1-582caf9ccb68","system_id":"levelo_inurba_marseille","lat":43.282744,"lon":5.350533,"is_reserved":false,"is_disabled":false,"rental_uris":{"android":"levelo://app?vid=5e282a1d-479b-4a81-aed1-582caf9ccb68","ios":"levelo://app?vid=5e282a1d-479b-4a81-aed1-582caf9ccb68"},"vehicle_type_id":"4","last_reported":1718727013,"current_range_meters":8400,"station_id":"ce4bhbp2rcd13ifvqerg","pricing_plan_id":"cebpf4jnsgd1na2vs0mg"},{"bike_id":"63bd21b0-e5e3-4d66-8459-19a66c513808","system_id":"levelo_inurba_marseille","lat":43.286593,"lon":5.363346,"is_reserved":false,"is_disabled":false,"rental_uris":{"android":"levelo://app?vid=63bd21b0-e5e3-4d66-8459-19a66c513808","ios":"levelo://app?vid=63bd21b0-e5e3-4d66-8459-19a66c513808"},"vehicle_type_id":"4","last_reported":1718727013,"current_range_meters":30400,"station_id":"ce4bhah2rcd13ifvqej0","pricing_plan_id":"cebpf4jnsgd1na2vs0mg"},{"bike_id":"4f3a88fb-c9bc-438d-9b80-b66d7fdf94be","system_id":"levelo_inurba_marseille","lat":43.286593,"lon":5.363346,"is_reserved":false,"is_disabled":false,"rental_uris":{"android":"levelo://app?vid=4f3a88fb-c9bc-438d-9b80-b66d7fdf94be","ios":"levelo://app?vid=4f3a88fb-c9bc-438d-9b80-b66d7fdf94be"},"vehicle_type_id":"4","last_reported":1718727013,"current_range_meters":30400,"station_id":"ce4bhah2rcd13ifvqej0","pricing_plan_id":"cebpf4jnsgd1na2vs0mg"},{"bike_id":"3f279007-76ce-48cd-8d6d-609dc6c63b92","system_id":"levelo_inurba_marseille","lat":43.286593,"lon":5.363346,"is_reserved":false,"is_disabled":false,"rental_uris":{"android":"levelo://app?vid=3f279007-76ce-48cd-8d6d-609dc6c63b92","ios":"levelo://app?vid=3f279007-76ce-48cd-8d6d-609dc6c63b92"},"vehicle_type_id":"4","last_reported":1718727013,"current_range_meters":30400,"station_id":"ce4bhah2rcd13ifvqej0","pricing_plan_id":"cebpf4jnsgd1na2vs0mg"},{"bike_id":"a137a1da-2455-4c3c-8bff-9b7f31b12f72","system_id":"levelo_inurba_marseille","lat":43.286593,"lon":5.363346,"is_reserved":false,"is_disabled":false,"rental_uris":{"android":"levelo://app?vid=a137a1da-2455-4c3c-8bff-9b7f31b12f72","ios":"levelo://app?vid=a137a1da-2455-4c3c-8bff-9b7f31b12f72"},"vehicle_type_id":"4","last_reported":1718727013,"current_range_meters":24000,"station_id":"ce4bhah2rcd13ifvqej0","pricing_plan_id":"cebpf4jnsgd1na2vs0mg"},{"bike_id":"91034cb4-c4ab-4d0d-88ef-7fe2216d1116","system_id":"levelo_inurba_marseille","lat":43.295196,"lon":5.39397,"is_reserved":false,"is_disabled":false,"rental_uris":{"android":"levelo://app?vid=91034cb4-c4ab-4d0d-88ef-7fe2216d1116","ios":"levelo://app?vid=91034cb4-c4ab-4d0d-88ef-7fe2216d1116"},"vehicle_type_id":"4","last_reported":1718727013,"current_range_meters":28400,"station_id":"ce4bh292rcd13ifvqdf0","pricing_plan_id":"cebpf4jnsgd1na2vs0mg"},{"bike_id":"c0612c94-9ee7-4b49-b4df-603431ce3e86","system_id":"levelo_inurba_marseille","lat":43.295196,"lon":5.39397,"is_reserved":false,"is_disabled":false,"rental_uris":{"android":"levelo://app?vid=c0612c94-9ee7-4b49-b4df-603431ce3e86","ios":"levelo://app?vid=c0612c94-9ee7-4b49-b4df-603431ce3e86"},"vehicle_type_id":"4","last_reported":1718727013,"current_range_meters":0,"station_id":"ce4bh292rcd13ifvqdf0","pricing_plan_id":"cebpf4jnsgd1na2vs0mg"},{"bike_id":"575cebd0-eefc-4612-b3de-9fd913f9abb7","system_id":"levelo_inurba_marseille","lat":43.290345,"lon":5.38646,"is_reserved":false,"is_disabled":false,"rental_uris":{"android":"levelo://app?vid=575cebd0-eefc-4612-b3de-9fd913f9abb7","ios":"levelo://app?vid=575cebd0-eefc-4612-b3de-9fd913f9abb7"},"vehicle_type_id":"4","last_reported":1718727013,"current_range_meters":32000,"station_id":"ce4bh4p2rcd13ifvqe0g","pricing_plan_id":"cebpf4jnsgd1na2vs0mg"},{"bike_id":"877d07bf-842f-4b08-b729-a8403385c04b","system_id":"levelo_inurba_marseille","lat":43.302759,"lon":5.400793,"is_reserved":false,"is_disabled":false,"rental_uris":{"android":"levelo://app?vid=877d07bf-842f-4b08-b729-a8403385c04b","ios":"levelo://app?vid=877d07bf-842f-4b08-b729-a8403385c04b"},"vehicle_type_id":"4","last_reported":1718727013,"current_range_meters":4400,"station_id":"ce4bgvh2rcd13ifvqcs0","pricing_plan_id":"cebpf4jnsgd1na2vs0mg"},{"bike_id":"81a3a477-6bf2-45f7-8004-35f486b5f649","system_id":"levelo_inurba_marseille","lat":43.29029,"lon":5.38656,"is_reserved":false,"is_disabled":false,"rental_uris":{"android":"levelo://app?vid=81a3a477-6bf2-45f7-8004-35f486b5f649","ios":"levelo://app?vid=81a3a477-6bf2-45f7-8004-35f486b5f649"},"vehicle_type_id":"4","last_reported":1718727013,"current_range_meters":1600,"station_id":"ce4bh4p2rcd13ifvqe0g","pricing_plan_id":"cebpf4jnsgd1na2vs0mg"},{"bike_id":"6ca12e33-b4ed-4d9d-b179-312aec38c55e","system_id":"levelo_inurba_marseille","lat":43.290345,"lon":5.38646,"is_reserved":false,"is_disabled":false,"rental_uris":{"android":"levelo://app?vid=6ca12e33-b4ed-4d9d-b179-312aec38c55e","ios":"levelo://app?vid=6ca12e33-b4ed-4d9d-b179-312aec38c55e"},"vehicle_type_id":"4","last_reported":1718727013,"current_range_meters":5600,"station_id":"ce4bh4p2rcd13ifvqe0g","pricing_plan_id":"cebpf4jnsgd1na2vs0mg"},{"bike_id":"9195714b-3753-4980-9f01-5e39cd8980de","system_id":"levelo_inurba_marseille","lat":43.286961,"lon":5.373785,"is_reserved":false,"is_disabled":false,"rental_uris":{"android":"levelo://app?vid=9195714b-3753-4980-9f01-5e39cd8980de","ios":"levelo://app?vid=9195714b-3753-4980-9f01-5e39cd8980de"},"vehicle_type_id":"4","last_reported":1718727013,"current_range_meters":2800,"station_id":"ce4bh3p2rcd13ifvqdq0","pricing_plan_id":"cebpf4jnsgd1na2vs0mg"},{"bike_id":"cbd9b34e-694a-4745-af18-f4744bce8a6f","system_id":"levelo_inurba_marseille","lat":43.286039,"lon":5.370679,"is_reserved":false,"is_disabled":false,"rental_uris":{"android":"levelo://app?vid=cbd9b34e-694a-4745-af18-f4744bce8a6f","ios":"levelo://app?vid=cbd9b34e-694a-4745-af18-f4744bce8a6f"},"vehicle_type_id":"4","last_reported":1718727013,"current_range_meters":15200,"station_id":"ce4bht12rcd13ifvqi60","pricing_plan_id":"cebpf4jnsgd1na2vs0mg"},{"bike_id":"3f64fd84-7050-45b5-9c37-71ad77320555","system_id":"levelo_inurba_marseille","lat":43.286039,"lon":5.370679,"is_reserved":false,"is_disabled":false,"rental_uris":{"android":"levelo://app?vid=3f64fd84-7050-45b5-9c37-71ad77320555","ios":"levelo://app?vid=3f64fd84-7050-45b5-9c37-71ad77320555"},"vehicle_type_id":"4","last_reported":1718727013,"current_range_meters":31200,"station_id":"ce4bht12rcd13ifvqi60","pricing_plan_id":"cebpf4jnsgd1na2vs0mg"},{"bike_id":"1471b971-ca46-40fb-9b45-4a903fd931a6","system_id":"levelo_inurba_marseille","lat":43.286039,"lon":5.370681,"is_reserved":false,"is_disabled":false,"rental_uris":{"android":"levelo://app?vid=1471b971-ca46-40fb-9b45-4a903fd931a6","ios":"levelo://app?vid=1471b971-ca46-40fb-9b45-4a903fd931a6"},"vehicle_type_id":"4","last_reported":1718727013,"current_range_meters":30800,"station_id":"ce4bht12rcd13ifvqi60","pricing_plan_id":"cebpf4jnsgd1na2vs0mg"},{"bike_id":"0f866516-4f04-46b1-9106-97f440f4ae16","system_id":"levelo_inurba_marseille","lat":43.290345,"lon":5.38646,"is_reserved":false,"is_disabled":false,"rental_uris":{"android":"levelo://app?vid=0f866516-4f04-46b1-9106-97f440f4ae16","ios":"levelo://app?vid=0f866516-4f04-46b1-9106-97f440f4ae16"},"vehicle_type_id":"4","last_reported":1718727013,"current_range_meters":22400,"station_id":"ce4bh4p2rcd13ifvqe0g","pricing_plan_id":"cebpf4jnsgd1na2vs0mg"},{"bike_id":"76b8893d-252e-4369-b8c6-cdeb3f6e733d","system_id":"levelo_inurba_marseille","lat":43.287184,"lon":5.37937,"is_reserved":false,"is_disabled":false,"rental_uris":{"android":"levelo://app?vid=76b8893d-252e-4369-b8c6-cdeb3f6e733d","ios":"levelo://app?vid=76b8893d-252e-4369-b8c6-cdeb3f6e733d"},"vehicle_type_id":"4","last_reported":1718727013,"current_range_meters":0,"station_id":"ce4bh9p2rcd13ifvqec0","pricing_plan_id":"cebpf4jnsgd1na2vs0mg"},{"bike_id":"c55dc252-2e56-407c-8d50-445cc9026bd0","system_id":"levelo_inurba_marseille","lat":43.316828,"lon":5.404723,"is_reserved":false,"is_disabled":false,"rental_uris":{"android":"levelo://app?vid=c55dc252-2e56-407c-8d50-445cc9026bd0","ios":"levelo://app?vid=c55dc252-2e56-407c-8d50-445cc9026bd0"},"vehicle_type_id":"4","last_reported":1718727013,"current_range_meters":4000,"station_id":"ce4bh012rcd13ifvqd00","pricing_plan_id":"cebpf4jnsgd1na2vs0mg"},{"bike_id":"aa7fc5b7-2612-4273-a932-1f4288ae65c1","system_id":"levelo_inurba_marseille","lat":43.31688,"lon":5.40479,"is_reserved":false,"is_disabled":false,"rental_uris":{"android":"levelo://app?vid=aa7fc5b7-2612-4273-a932-1f4288ae65c1","ios":"levelo://app?vid=aa7fc5b7-2612-4273-a932-1f4288ae65c1"},"vehicle_type_id":"4","last_reported":1718727013,"current_range_meters":0,"station_id":"ce4bh012rcd13ifvqd00","pricing_plan_id":"cebpf4jnsgd1na2vs0mg"},{"bike_id":"fa9def6d-f207-4343-9602-58fc64b5f98e","system_id":"levelo_inurba_marseille","lat":43.30296,"lon":5.403144,"is_reserved":false,"is_disabled":false,"rental_uris":{"android":"levelo://app?vid=fa9def6d-f207-4343-9602-58fc64b5f98e","ios":"levelo://app?vid=fa9def6d-f207-4343-9602-58fc64b5f98e"},"vehicle_type_id":"4","last_reported":1718727013,"current_range_meters":13600,"station_id":"","pricing_plan_id":"cebpf4jnsgd1na2vs0mg"},{"bike_id":"dd85d147-0cdd-4868-821a-bd888d276a6e","system_id":"levelo_inurba_marseille","lat":43.291994,"lon":5.392907,"is_reserved":false,"is_disabled":false,"rental_uris":{"android":"levelo://app?vid=dd85d147-0cdd-4868-821a-bd888d276a6e","ios":"levelo://app?vid=dd85d147-0cdd-4868-821a-bd888d276a6e"},"vehicle_type_id":"4","last_reported":1718727013,"current_range_meters":0,"station_id":"ce4bh192rcd13ifvqdd0","pricing_plan_id":"cebpf4jnsgd1na2vs0mg"},{"bike_id":"ae6aea05-ba4a-4faa-b2ea-09023fbf8c41","system_id":"levelo_inurba_marseille","lat":43.291994,"lon":5.392907,"is_reserved":false,"is_disabled":false,"rental_uris":{"android":"levelo://app?vid=ae6aea05-ba4a-4faa-b2ea-09023fbf8c41","ios":"levelo://app?vid=ae6aea05-ba4a-4faa-b2ea-09023fbf8c41"},"vehicle_type_id":"4","last_reported":1718727013,"current_range_meters":19200,"station_id":"ce4bh192rcd13ifvqdd0","pricing_plan_id":"cebpf4jnsgd1na2vs0mg"},{"bike_id":"6069d55c-d1e0-4844-ba86-0dcb2cf73691","system_id":"levelo_inurba_marseille","lat":43.284538,"lon":5.358657,"is_reserved":false,"is_disabled":false,"rental_uris":{"android":"levelo://app?vid=6069d55c-d1e0-4844-ba86-0dcb2cf73691","ios":"levelo://app?vid=6069d55c-d1e0-4844-ba86-0dcb2cf73691"},"vehicle_type_id":"4","last_reported":1718727013,"current_range_meters":31200,"station_id":"ce4bhah2rcd13ifvqei0","pricing_plan_id":"cebpf4jnsgd1na2vs0mg"},{"bike_id":"66cd351d-6779-49c3-a819-3b68a9191fba","system_id":"levelo_inurba_marseille","lat":43.284534,"lon":5.358662,"is_reserved":false,"is_disabled":false,"rental_uris":{"android":"levelo://app?vid=66cd351d-6779-49c3-a819-3b68a9191fba","ios":"levelo://app?vid=66cd351d-6779-49c3-a819-3b68a9191fba"},"vehicle_type_id":"4","last_reported":1718727013,"current_range_meters":24400,"station_id":"ce4bhah2rcd13ifvqei0","pricing_plan_id":"cebpf4jnsgd1na2vs0mg"},{"bike_id":"853c8ec2-e50d-43e4-b1cd-7c0ddfdf502b","system_id":"levelo_inurba_marseille","lat":43.284538,"lon":5.358657,"is_reserved":false,"is_disabled":false,"rental_uris":{"android":"levelo://app?vid=853c8ec2-e50d-43e4-b1cd-7c0ddfdf502b","ios":"levelo://app?vid=853c8ec2-e50d-43e4-b1cd-7c0ddfdf502b"},"vehicle_type_id":"4","last_reported":1718727013,"current_range_meters":16800,"station_id":"ce4bhah2rcd13ifvqei0","pricing_plan_id":"cebpf4jnsgd1na2vs0mg"},{"bike_id":"7e8530f0-055b-4ef4-945c-d1bf59935b01","system_id":"levelo_inurba_marseille","lat":43.284534,"lon":5.358662,"is_reserved":false,"is_disabled":false,"rental_uris":{"android":"levelo://app?vid=7e8530f0-055b-4ef4-945c-d1bf59935b01","ios":"levelo://app?vid=7e8530f0-055b-4ef4-945c-d1bf59935b01"},"vehicle_type_id":"4","last_reported":1718727013,"current_range_meters":5600,"station_id":"ce4bhah2rcd13ifvqei0","pricing_plan_id":"cebpf4jnsgd1na2vs0mg"},{"bike_id":"3ff7ad67-3145-47ae-95ed-029a95c6489f","system_id":"levelo_inurba_marseille","lat":43.28461,"lon":5.35883,"is_reserved":false,"is_disabled":false,"rental_uris":{"android":"levelo://app?vid=3ff7ad67-3145-47ae-95ed-029a95c6489f","ios":"levelo://app?vid=3ff7ad67-3145-47ae-95ed-029a95c6489f"},"vehicle_type_id":"4","last_reported":1718727013,"current_range_meters":4400,"station_id":"ce4bhah2rcd13ifvqei0","pricing_plan_id":"cebpf4jnsgd1na2vs0mg"},{"bike_id":"e215cd5c-13ac-40c6-8bbd-ff17cd19b687","system_id":"levelo_inurba_marseille","lat":43.284534,"lon":5.358662,"is_reserved":false,"is_disabled":false,"rental_uris":{"android":"levelo://app?vid=e215cd5c-13ac-40c6-8bbd-ff17cd19b687","ios":"levelo://app?vid=e215cd5c-13ac-40c6-8bbd-ff17cd19b687"},"vehicle_type_id":"4","last_reported":1718727013,"current_range_meters":10400,"station_id":"ce4bhah2rcd13ifvqei0","pricing_plan_id":"cebpf4jnsgd1na2vs0mg"},{"bike_id":"2283da69-70d5-4817-95fb-dfb3778c8abc","system_id":"levelo_inurba_marseille","lat":43.284534,"lon":5.358662,"is_reserved":false,"is_disabled":false,"rental_uris":{"android":"levelo://app?vid=2283da69-70d5-4817-95fb-dfb3778c8abc","ios":"levelo://app?vid=2283da69-70d5-4817-95fb-dfb3778c8abc"},"vehicle_type_id":"4","last_reported":1718727013,"current_range_meters":32000,"station_id":"ce4bhah2rcd13ifvqei0","pricing_plan_id":"cebpf4jnsgd1na2vs0mg"},{"bike_id":"8031cfc1-f0b6-4ece-acd9-a91aebe1488e","system_id":"levelo_inurba_marseille","lat":43.284538,"lon":5.358657,"is_reserved":false,"is_disabled":false,"rental_uris":{"android":"levelo://app?vid=8031cfc1-f0b6-4ece-acd9-a91aebe1488e","ios":"levelo://app?vid=8031cfc1-f0b6-4ece-acd9-a91aebe1488e"},"vehicle_type_id":"4","last_reported":1718727013,"current_range_meters":2800,"station_id":"ce4bhah2rcd13ifvqei0","pricing_plan_id":"cebpf4jnsgd1na2vs0mg"},{"bike_id":"588def05-70aa-4a98-b11a-bc17ed229e8a","system_id":"levelo_inurba_marseille","lat":43.284538,"lon":5.358657,"is_reserved":false,"is_disabled":false,"rental_uris":{"android":"levelo://app?vid=588def05-70aa-4a98-b11a-bc17ed229e8a","ios":"levelo://app?vid=588def05-70aa-4a98-b11a-bc17ed229e8a"},"vehicle_type_id":"4","last_reported":1718727013,"current_range_meters":26400,"station_id":"ce4bhah2rcd13ifvqei0","pricing_plan_id":"cebpf4jnsgd1na2vs0mg"},{"bike_id":"0d8e71f9-7398-4005-aa55-a851981ab06d","system_id":"levelo_inurba_marseille","lat":43.295748,"lon":5.37522,"is_reserved":false,"is_disabled":false,"rental_uris":{"android":"levelo://app?vid=0d8e71f9-7398-4005-aa55-a851981ab06d","ios":"levelo://app?vid=0d8e71f9-7398-4005-aa55-a851981ab06d"},"vehicle_type_id":"4","last_reported":1718727013,"current_range_meters":14400,"station_id":"ce4bgh92rcd13ifvqb50","pricing_plan_id":"cebpf4jnsgd1na2vs0mg"},{"bike_id":"37f8f60c-0979-4ae0-8e74-e224157451a4","system_id":"levelo_inurba_marseille","lat":43.284534,"lon":5.358662,"is_reserved":false,"is_disabled":false,"rental_uris":{"android":"levelo://app?vid=37f8f60c-0979-4ae0-8e74-e224157451a4","ios":"levelo://app?vid=37f8f60c-0979-4ae0-8e74-e224157451a4"},"vehicle_type_id":"4","last_reported":1718727013,"current_range_meters":4000,"station_id":"ce4bhah2rcd13ifvqei0","pricing_plan_id":"cebpf4jnsgd1na2vs0mg"},{"bike_id":"edc2bc19-c5ff-460b-bbfa-38d0b4917eae","system_id":"levelo_inurba_marseille","lat":43.284534,"lon":5.358662,"is_reserved":false,"is_disabled":false,"rental_uris":{"android":"levelo://app?vid=edc2bc19-c5ff-460b-bbfa-38d0b4917eae","ios":"levelo://app?vid=edc2bc19-c5ff-460b-bbfa-38d0b4917eae"},"vehicle_type_id":"4","last_reported":1718727013,"current_range_meters":14000,"station_id":"ce4bhah2rcd13ifvqei0","pricing_plan_id":"cebpf4jnsgd1na2vs0mg"},{"bike_id":"d7ebfcde-5dd0-41c2-a4d6-26006eef3123","system_id":"levelo_inurba_marseille","lat":43.28448,"lon":5.35886,"is_reserved":false,"is_disabled":false,"rental_uris":{"android":"levelo://app?vid=d7ebfcde-5dd0-41c2-a4d6-26006eef3123","ios":"levelo://app?vid=d7ebfcde-5dd0-41c2-a4d6-26006eef3123"},"vehicle_type_id":"4","last_reported":1718727013,"current_range_meters":17200,"station_id":"ce4bhah2rcd13ifvqei0","pricing_plan_id":"cebpf4jnsgd1na2vs0mg"},{"bike_id":"79950b47-6ea7-44f7-a951-a8f9bb4b365a","system_id":"levelo_inurba_marseille","lat":43.285856,"lon":5.350771,"is_reserved":false,"is_disabled":false,"rental_uris":{"android":"levelo://app?vid=79950b47-6ea7-44f7-a951-a8f9bb4b365a","ios":"levelo://app?vid=79950b47-6ea7-44f7-a951-a8f9bb4b365a"},"vehicle_type_id":"4","last_reported":1718727013,"current_range_meters":30400,"station_id":"ce4bhch2rcd13ifvqeug","pricing_plan_id":"cebpf4jnsgd1na2vs0mg"},{"bike_id":"62130360-c22f-4598-957a-a538e4f47127","system_id":"levelo_inurba_marseille","lat":43.285856,"lon":5.350771,"is_reserved":false,"is_disabled":false,"rental_uris":{"android":"levelo://app?vid=62130360-c22f-4598-957a-a538e4f47127","ios":"levelo://app?vid=62130360-c22f-4598-957a-a538e4f47127"},"vehicle_type_id":"4","last_reported":1718727013,"current_range_meters":28000,"station_id":"ce4bhch2rcd13ifvqeug","pricing_plan_id":"cebpf4jnsgd1na2vs0mg"},{"bike_id":"73bd1372-d575-44b4-b42d-685bb0a2a0ec","system_id":"levelo_inurba_marseille","lat":43.285856,"lon":5.350771,"is_reserved":false,"is_disabled":false,"rental_uris":{"android":"levelo://app?vid=73bd1372-d575-44b4-b42d-685bb0a2a0ec","ios":"levelo://app?vid=73bd1372-d575-44b4-b42d-685bb0a2a0ec"},"vehicle_type_id":"4","last_reported":1718727013,"current_range_meters":15200,"station_id":"ce4bhch2rcd13ifvqeug","pricing_plan_id":"cebpf4jnsgd1na2vs0mg"},{"bike_id":"e98b2a95-50bb-435a-a9f7-53f505671800","system_id":"levelo_inurba_marseille","lat":43.285856,"lon":5.350771,"is_reserved":false,"is_disabled":false,"rental_uris":{"android":"levelo://app?vid=e98b2a95-50bb-435a-a9f7-53f505671800","ios":"levelo://app?vid=e98b2a95-50bb-435a-a9f7-53f505671800"},"vehicle_type_id":"4","last_reported":1718727013,"current_range_meters":27200,"station_id":"ce4bhch2rcd13ifvqeug","pricing_plan_id":"cebpf4jnsgd1na2vs0mg"},{"bike_id":"b71e822e-3d55-4125-ae66-5a74a429c8ea","system_id":"levelo_inurba_marseille","lat":43.285856,"lon":5.350771,"is_reserved":false,"is_disabled":false,"rental_uris":{"android":"levelo://app?vid=b71e822e-3d55-4125-ae66-5a74a429c8ea","ios":"levelo://app?vid=b71e822e-3d55-4125-ae66-5a74a429c8ea"},"vehicle_type_id":"4","last_reported":1718727013,"current_range_meters":25600,"station_id":"ce4bhch2rcd13ifvqeug","pricing_plan_id":"cebpf4jnsgd1na2vs0mg"},{"bike_id":"5343371c-a3cf-412b-9361-8e6ea2ebc27d","system_id":"levelo_inurba_marseille","lat":43.285856,"lon":5.350771,"is_reserved":false,"is_disabled":false,"rental_uris":{"android":"levelo://app?vid=5343371c-a3cf-412b-9361-8e6ea2ebc27d","ios":"levelo://app?vid=5343371c-a3cf-412b-9361-8e6ea2ebc27d"},"vehicle_type_id":"4","last_reported":1718727013,"current_range_meters":25200,"station_id":"ce4bhch2rcd13ifvqeug","pricing_plan_id":"cebpf4jnsgd1na2vs0mg"},{"bike_id":"fccdd937-38ce-44c8-9e8c-5d4840c6f35e","system_id":"levelo_inurba_marseille","lat":43.285856,"lon":5.350771,"is_reserved":false,"is_disabled":false,"rental_uris":{"android":"levelo://app?vid=fccdd937-38ce-44c8-9e8c-5d4840c6f35e","ios":"levelo://app?vid=fccdd937-38ce-44c8-9e8c-5d4840c6f35e"},"vehicle_type_id":"4","last_reported":1718727013,"current_range_meters":31200,"station_id":"ce4bhch2rcd13ifvqeug","pricing_plan_id":"cebpf4jnsgd1na2vs0mg"},{"bike_id":"86ea7f55-75ea-4c5c-a5a8-fdca048f85ff","system_id":"levelo_inurba_marseille","lat":43.28618,"lon":5.35096,"is_reserved":false,"is_disabled":false,"rental_uris":{"android":"levelo://app?vid=86ea7f55-75ea-4c5c-a5a8-fdca048f85ff","ios":"levelo://app?vid=86ea7f55-75ea-4c5c-a5a8-fdca048f85ff"},"vehicle_type_id":"4","last_reported":1718727013,"current_range_meters":24800,"station_id":"ce4bhch2rcd13ifvqeug","pricing_plan_id":"cebpf4jnsgd1na2vs0mg"},{"bike_id":"ce2c0f76-362d-4f95-957a-ae7352565041","system_id":"levelo_inurba_marseille","lat":43.285856,"lon":5.350771,"is_reserved":false,"is_disabled":false,"rental_uris":{"android":"levelo://app?vid=ce2c0f76-362d-4f95-957a-ae7352565041","ios":"levelo://app?vid=ce2c0f76-362d-4f95-957a-ae7352565041"},"vehicle_type_id":"4","last_reported":1718727013,"current_range_meters":15600,"station_id":"ce4bhch2rcd13ifvqeug","pricing_plan_id":"cebpf4jnsgd1na2vs0mg"},{"bike_id":"15c4466c-d83c-49ed-9841-29d69d75a33a","system_id":"levelo_inurba_marseille","lat":43.28614,"lon":5.35106,"is_reserved":false,"is_disabled":false,"rental_uris":{"android":"levelo://app?vid=15c4466c-d83c-49ed-9841-29d69d75a33a","ios":"levelo://app?vid=15c4466c-d83c-49ed-9841-29d69d75a33a"},"vehicle_type_id":"4","last_reported":1718727013,"current_range_meters":30400,"station_id":"ce4bhch2rcd13ifvqeug","pricing_plan_id":"cebpf4jnsgd1na2vs0mg"},{"bike_id":"9a0e838e-568b-4ee9-a26d-a6d4187768fe","system_id":"levelo_inurba_marseille","lat":43.285848,"lon":5.350787,"is_reserved":false,"is_disabled":false,"rental_uris":{"android":"levelo://app?vid=9a0e838e-568b-4ee9-a26d-a6d4187768fe","ios":"levelo://app?vid=9a0e838e-568b-4ee9-a26d-a6d4187768fe"},"vehicle_type_id":"4","last_reported":1718727013,"current_range_meters":0,"station_id":"ce4bhch2rcd13ifvqeug","pricing_plan_id":"cebpf4jnsgd1na2vs0mg"},{"bike_id":"d382151d-83c1-4698-b9d4-1f454ab5c55e","system_id":"levelo_inurba_marseille","lat":43.285848,"lon":5.350787,"is_reserved":false,"is_disabled":false,"rental_uris":{"android":"levelo://app?vid=d382151d-83c1-4698-b9d4-1f454ab5c55e","ios":"levelo://app?vid=d382151d-83c1-4698-b9d4-1f454ab5c55e"},"vehicle_type_id":"4","last_reported":1718727013,"current_range_meters":22800,"station_id":"ce4bhch2rcd13ifvqeug","pricing_plan_id":"cebpf4jnsgd1na2vs0mg"},{"bike_id":"11bb4986-2e07-4cac-9101-a6e586879882","system_id":"levelo_inurba_marseille","lat":43.28614,"lon":5.35102,"is_reserved":false,"is_disabled":false,"rental_uris":{"android":"levelo://app?vid=11bb4986-2e07-4cac-9101-a6e586879882","ios":"levelo://app?vid=11bb4986-2e07-4cac-9101-a6e586879882"},"vehicle_type_id":"4","last_reported":1718727013,"current_range_meters":0,"station_id":"ce4bhch2rcd13ifvqeug","pricing_plan_id":"cebpf4jnsgd1na2vs0mg"},{"bike_id":"1189f08d-c58e-4d0d-8c36-3bdbd89895b3","system_id":"levelo_inurba_marseille","lat":43.285848,"lon":5.350787,"is_reserved":false,"is_disabled":false,"rental_uris":{"android":"levelo://app?vid=1189f08d-c58e-4d0d-8c36-3bdbd89895b3","ios":"levelo://app?vid=1189f08d-c58e-4d0d-8c36-3bdbd89895b3"},"vehicle_type_id":"4","last_reported":1718727013,"current_range_meters":25600,"station_id":"ce4bhch2rcd13ifvqeug","pricing_plan_id":"cebpf4jnsgd1na2vs0mg"},{"bike_id":"65eea447-385d-4a26-b17c-ca1e2705fab5","system_id":"levelo_inurba_marseille","lat":43.28612,"lon":5.35099,"is_reserved":false,"is_disabled":false,"rental_uris":{"android":"levelo://app?vid=65eea447-385d-4a26-b17c-ca1e2705fab5","ios":"levelo://app?vid=65eea447-385d-4a26-b17c-ca1e2705fab5"},"vehicle_type_id":"4","last_reported":1718727013,"current_range_meters":20000,"station_id":"ce4bhch2rcd13ifvqeug","pricing_plan_id":"cebpf4jnsgd1na2vs0mg"},{"bike_id":"7990bb25-375a-48ae-8cc6-fd8269f362f3","system_id":"levelo_inurba_marseille","lat":43.2861,"lon":5.35104,"is_reserved":false,"is_disabled":false,"rental_uris":{"android":"levelo://app?vid=7990bb25-375a-48ae-8cc6-fd8269f362f3","ios":"levelo://app?vid=7990bb25-375a-48ae-8cc6-fd8269f362f3"},"vehicle_type_id":"4","last_reported":1718727013,"current_range_meters":20000,"station_id":"ce4bhch2rcd13ifvqeug","pricing_plan_id":"cebpf4jnsgd1na2vs0mg"},{"bike_id":"eb0dea54-9557-4c5b-b28c-9a366b0cff6a","system_id":"levelo_inurba_marseille","lat":43.28612,"lon":5.35094,"is_reserved":false,"is_disabled":false,"rental_uris":{"android":"levelo://app?vid=eb0dea54-9557-4c5b-b28c-9a366b0cff6a","ios":"levelo://app?vid=eb0dea54-9557-4c5b-b28c-9a366b0cff6a"},"vehicle_type_id":"4","last_reported":1718727013,"current_range_meters":20000,"station_id":"ce4bhch2rcd13ifvqeug","pricing_plan_id":"cebpf4jnsgd1na2vs0mg"},{"bike_id":"da72e510-1710-4334-9179-b9a465f4bb21","system_id":"levelo_inurba_marseille","lat":43.28609,"lon":5.35097,"is_reserved":false,"is_disabled":false,"rental_uris":{"android":"levelo://app?vid=da72e510-1710-4334-9179-b9a465f4bb21","ios":"levelo://app?vid=da72e510-1710-4334-9179-b9a465f4bb21"},"vehicle_type_id":"4","last_reported":1718727013,"current_range_meters":26000,"station_id":"ce4bhch2rcd13ifvqeug","pricing_plan_id":"cebpf4jnsgd1na2vs0mg"},{"bike_id":"623bf7bf-ee04-4e68-9f10-9419b4aafd90","system_id":"levelo_inurba_marseille","lat":43.28608,"lon":5.35098,"is_reserved":false,"is_disabled":false,"rental_uris":{"android":"levelo://app?vid=623bf7bf-ee04-4e68-9f10-9419b4aafd90","ios":"levelo://app?vid=623bf7bf-ee04-4e68-9f10-9419b4aafd90"},"vehicle_type_id":"4","last_reported":1718727013,"current_range_meters":31200,"station_id":"ce4bhch2rcd13ifvqeug","pricing_plan_id":"cebpf4jnsgd1na2vs0mg"},{"bike_id":"552e5e9f-1935-46e0-a6be-be964b321cc5","system_id":"levelo_inurba_marseille","lat":43.28607,"lon":5.351,"is_reserved":false,"is_disabled":false,"rental_uris":{"android":"levelo://app?vid=552e5e9f-1935-46e0-a6be-be964b321cc5","ios":"levelo://app?vid=552e5e9f-1935-46e0-a6be-be964b321cc5"},"vehicle_type_id":"4","last_reported":1718727013,"current_range_meters":3200,"station_id":"ce4bhch2rcd13ifvqeug","pricing_plan_id":"cebpf4jnsgd1na2vs0mg"},{"bike_id":"f65e64ce-06f9-41be-be8b-ba54d19f70ff","system_id":"levelo_inurba_marseille","lat":43.29488,"lon":5.39906,"is_reserved":false,"is_disabled":false,"rental_uris":{"android":"levelo://app?vid=f65e64ce-06f9-41be-be8b-ba54d19f70ff","ios":"levelo://app?vid=f65e64ce-06f9-41be-be8b-ba54d19f70ff"},"vehicle_type_id":"4","last_reported":1718727013,"current_range_meters":20800,"station_id":"","pricing_plan_id":"cebpf4jnsgd1na2vs0mg"},{"bike_id":"e39bd5c3-6b9c-4325-a6c6-8426935deab9","system_id":"levelo_inurba_marseille","lat":43.28587,"lon":5.38391,"is_reserved":false,"is_disabled":false,"rental_uris":{"android":"levelo://app?vid=e39bd5c3-6b9c-4325-a6c6-8426935deab9","ios":"levelo://app?vid=e39bd5c3-6b9c-4325-a6c6-8426935deab9"},"vehicle_type_id":"4","last_reported":1718727013,"current_range_meters":8800,"station_id":"","pricing_plan_id":"cebpf4jnsgd1na2vs0mg"},{"bike_id":"7bf38843-26ec-417e-bc2a-2ed098bf9711","system_id":"levelo_inurba_marseille","lat":43.286595,"lon":5.386795,"is_reserved":false,"is_disabled":false,"rental_uris":{"android":"levelo://app?vid=7bf38843-26ec-417e-bc2a-2ed098bf9711","ios":"levelo://app?vid=7bf38843-26ec-417e-bc2a-2ed098bf9711"},"vehicle_type_id":"4","last_reported":1718727013,"current_range_meters":0,"station_id":"ce4bh492rcd13ifvqdug","pricing_plan_id":"cebpf4jnsgd1na2vs0mg"},{"bike_id":"ec249148-418f-456d-83bb-95cc94d1a4a7","system_id":"levelo_inurba_marseille","lat":43.286595,"lon":5.386795,"is_reserved":false,"is_disabled":false,"rental_uris":{"android":"levelo://app?vid=ec249148-418f-456d-83bb-95cc94d1a4a7","ios":"levelo://app?vid=ec249148-418f-456d-83bb-95cc94d1a4a7"},"vehicle_type_id":"4","last_reported":1718727013,"current_range_meters":0,"station_id":"ce4bh492rcd13ifvqdug","pricing_plan_id":"cebpf4jnsgd1na2vs0mg"},{"bike_id":"bcf582fe-ecb7-499f-97c9-c326e5b30562","system_id":"levelo_inurba_marseille","lat":43.286595,"lon":5.386795,"is_reserved":false,"is_disabled":false,"rental_uris":{"android":"levelo://app?vid=bcf582fe-ecb7-499f-97c9-c326e5b30562","ios":"levelo://app?vid=bcf582fe-ecb7-499f-97c9-c326e5b30562"},"vehicle_type_id":"4","last_reported":1718727013,"current_range_meters":0,"station_id":"ce4bh492rcd13ifvqdug","pricing_plan_id":"cebpf4jnsgd1na2vs0mg"},{"bike_id":"0ce19550-1d7a-4bef-87b5-8c492030bcd2","system_id":"levelo_inurba_marseille","lat":43.33717,"lon":5.391857,"is_reserved":false,"is_disabled":false,"rental_uris":{"android":"levelo://app?vid=0ce19550-1d7a-4bef-87b5-8c492030bcd2","ios":"levelo://app?vid=0ce19550-1d7a-4bef-87b5-8c492030bcd2"},"vehicle_type_id":"4","last_reported":1718727013,"current_range_meters":11600,"station_id":"ce4bhr92rcd13ifvqhsg","pricing_plan_id":"cebpf4jnsgd1na2vs0mg"},{"bike_id":"03d645c0-b622-4f06-bfab-15c9f87058dc","system_id":"levelo_inurba_marseille","lat":43.32343,"lon":5.40619,"is_reserved":false,"is_disabled":false,"rental_uris":{"android":"levelo://app?vid=03d645c0-b622-4f06-bfab-15c9f87058dc","ios":"levelo://app?vid=03d645c0-b622-4f06-bfab-15c9f87058dc"},"vehicle_type_id":"4","last_reported":1718727013,"current_range_meters":17600,"station_id":"ce4bhq92rcd13ifvqhjg","pricing_plan_id":"cebpf4jnsgd1na2vs0mg"},{"bike_id":"aca5e9d5-d1e8-4189-8347-e2b417a845e7","system_id":"levelo_inurba_marseille","lat":43.28474,"lon":5.38416,"is_reserved":false,"is_disabled":false,"rental_uris":{"android":"levelo://app?vid=aca5e9d5-d1e8-4189-8347-e2b417a845e7","ios":"levelo://app?vid=aca5e9d5-d1e8-4189-8347-e2b417a845e7"},"vehicle_type_id":"4","last_reported":1718727013,"current_range_meters":0,"station_id":"ce4bh512rcd13ifvqe3g","pricing_plan_id":"cebpf4jnsgd1na2vs0mg"},{"bike_id":"1caebde0-a339-4da6-b288-e37c8fd5043a","system_id":"levelo_inurba_marseille","lat":43.288497,"lon":5.393089,"is_reserved":false,"is_disabled":false,"rental_uris":{"android":"levelo://app?vid=1caebde0-a339-4da6-b288-e37c8fd5043a","ios":"levelo://app?vid=1caebde0-a339-4da6-b288-e37c8fd5043a"},"vehicle_type_id":"4","last_reported":1718727013,"current_range_meters":5600,"station_id":"ce4bh2p2rcd13ifvqdi0","pricing_plan_id":"cebpf4jnsgd1na2vs0mg"},{"bike_id":"e7e8d42d-c14b-4ef6-82b7-f3e8f9f369ca","system_id":"levelo_inurba_marseille","lat":43.284793,"lon":5.384119,"is_reserved":false,"is_disabled":false,"rental_uris":{"android":"levelo://app?vid=e7e8d42d-c14b-4ef6-82b7-f3e8f9f369ca","ios":"levelo://app?vid=e7e8d42d-c14b-4ef6-82b7-f3e8f9f369ca"},"vehicle_type_id":"4","last_reported":1718727013,"current_range_meters":18800,"station_id":"ce4bh512rcd13ifvqe3g","pricing_plan_id":"cebpf4jnsgd1na2vs0mg"},{"bike_id":"80d9b299-b9b7-4e5b-a9b0-8cae34511100","system_id":"levelo_inurba_marseille","lat":43.28352,"lon":5.38112,"is_reserved":false,"is_disabled":false,"rental_uris":{"android":"levelo://app?vid=80d9b299-b9b7-4e5b-a9b0-8cae34511100","ios":"levelo://app?vid=80d9b299-b9b7-4e5b-a9b0-8cae34511100"},"vehicle_type_id":"4","last_reported":1718727013,"current_range_meters":0,"station_id":"ce4bh412rcd13ifvqdr0","pricing_plan_id":"cebpf4jnsgd1na2vs0mg"},{"bike_id":"85bbadd6-e3c5-45a6-9f6b-9a629ac9bf94","system_id":"levelo_inurba_marseille","lat":43.28428,"lon":5.35003,"is_reserved":false,"is_disabled":false,"rental_uris":{"android":"levelo://app?vid=85bbadd6-e3c5-45a6-9f6b-9a629ac9bf94","ios":"levelo://app?vid=85bbadd6-e3c5-45a6-9f6b-9a629ac9bf94"},"vehicle_type_id":"4","last_reported":1718727013,"current_range_meters":19200,"station_id":"ce4bhbh2rcd13ifvqepg","pricing_plan_id":"cebpf4jnsgd1na2vs0mg"},{"bike_id":"85df25a7-21ea-403c-a1a2-87c7455e740e","system_id":"levelo_inurba_marseille","lat":43.283498,"lon":5.380948,"is_reserved":false,"is_disabled":false,"rental_uris":{"android":"levelo://app?vid=85df25a7-21ea-403c-a1a2-87c7455e740e","ios":"levelo://app?vid=85df25a7-21ea-403c-a1a2-87c7455e740e"},"vehicle_type_id":"4","last_reported":1718727013,"current_range_meters":0,"station_id":"ce4bh412rcd13ifvqdr0","pricing_plan_id":"cebpf4jnsgd1na2vs0mg"},{"bike_id":"d8f8cb83-614d-4f27-abc2-8a5bbc14c2a3","system_id":"levelo_inurba_marseille","lat":43.28426,"lon":5.34988,"is_reserved":false,"is_disabled":false,"rental_uris":{"android":"levelo://app?vid=d8f8cb83-614d-4f27-abc2-8a5bbc14c2a3","ios":"levelo://app?vid=d8f8cb83-614d-4f27-abc2-8a5bbc14c2a3"},"vehicle_type_id":"4","last_reported":1718727013,"current_range_meters":20000,"station_id":"ce4bhbh2rcd13ifvqepg","pricing_plan_id":"cebpf4jnsgd1na2vs0mg"},{"bike_id":"1ab7ac71-b9ee-404e-91b5-1405ee05ee88","system_id":"levelo_inurba_marseille","lat":43.28418,"lon":5.35004,"is_reserved":false,"is_disabled":false,"rental_uris":{"android":"levelo://app?vid=1ab7ac71-b9ee-404e-91b5-1405ee05ee88","ios":"levelo://app?vid=1ab7ac71-b9ee-404e-91b5-1405ee05ee88"},"vehicle_type_id":"4","last_reported":1718727013,"current_range_meters":18800,"station_id":"ce4bhbh2rcd13ifvqepg","pricing_plan_id":"cebpf4jnsgd1na2vs0mg"},{"bike_id":"b4843cab-c350-44d7-bf0f-ee4804bb9544","system_id":"levelo_inurba_marseille","lat":43.284229,"lon":5.349872,"is_reserved":false,"is_disabled":false,"rental_uris":{"android":"levelo://app?vid=b4843cab-c350-44d7-bf0f-ee4804bb9544","ios":"levelo://app?vid=b4843cab-c350-44d7-bf0f-ee4804bb9544"},"vehicle_type_id":"4","last_reported":1718727013,"current_range_meters":13200,"station_id":"ce4bhbh2rcd13ifvqepg","pricing_plan_id":"cebpf4jnsgd1na2vs0mg"},{"bike_id":"ae69dff2-c6ef-4c85-a66b-2c8f5aa8ffbf","system_id":"levelo_inurba_marseille","lat":43.284229,"lon":5.349865,"is_reserved":false,"is_disabled":false,"rental_uris":{"android":"levelo://app?vid=ae69dff2-c6ef-4c85-a66b-2c8f5aa8ffbf","ios":"levelo://app?vid=ae69dff2-c6ef-4c85-a66b-2c8f5aa8ffbf"},"vehicle_type_id":"4","last_reported":1718727013,"current_range_meters":22000,"station_id":"ce4bhbh2rcd13ifvqepg","pricing_plan_id":"cebpf4jnsgd1na2vs0mg"},{"bike_id":"237d4d12-2aca-4f24-9283-6417abf84def","system_id":"levelo_inurba_marseille","lat":43.284228,"lon":5.349858,"is_reserved":false,"is_disabled":false,"rental_uris":{"android":"levelo://app?vid=237d4d12-2aca-4f24-9283-6417abf84def","ios":"levelo://app?vid=237d4d12-2aca-4f24-9283-6417abf84def"},"vehicle_type_id":"4","last_reported":1718727013,"current_range_meters":13600,"station_id":"ce4bhbh2rcd13ifvqepg","pricing_plan_id":"cebpf4jnsgd1na2vs0mg"},{"bike_id":"965bf5c1-acd9-408b-9cf0-afc22c7a8e20","system_id":"levelo_inurba_marseille","lat":43.28419,"lon":5.34997,"is_reserved":false,"is_disabled":false,"rental_uris":{"android":"levelo://app?vid=965bf5c1-acd9-408b-9cf0-afc22c7a8e20","ios":"levelo://app?vid=965bf5c1-acd9-408b-9cf0-afc22c7a8e20"},"vehicle_type_id":"4","last_reported":1718727013,"current_range_meters":8800,"station_id":"ce4bhbh2rcd13ifvqepg","pricing_plan_id":"cebpf4jnsgd1na2vs0mg"},{"bike_id":"8214cd35-cdff-40d8-b487-ab17a7cba638","system_id":"levelo_inurba_marseille","lat":43.28421,"lon":5.34989,"is_reserved":false,"is_disabled":false,"rental_uris":{"android":"levelo://app?vid=8214cd35-cdff-40d8-b487-ab17a7cba638","ios":"levelo://app?vid=8214cd35-cdff-40d8-b487-ab17a7cba638"},"vehicle_type_id":"4","last_reported":1718727013,"current_range_meters":24000,"station_id":"ce4bhbh2rcd13ifvqepg","pricing_plan_id":"cebpf4jnsgd1na2vs0mg"},{"bike_id":"7a32a388-21e0-4e88-b357-7a3ae4b21bcc","system_id":"levelo_inurba_marseille","lat":43.28419,"lon":5.34995,"is_reserved":false,"is_disabled":false,"rental_uris":{"android":"levelo://app?vid=7a32a388-21e0-4e88-b357-7a3ae4b21bcc","ios":"levelo://app?vid=7a32a388-21e0-4e88-b357-7a3ae4b21bcc"},"vehicle_type_id":"4","last_reported":1718727013,"current_range_meters":20800,"station_id":"ce4bhbh2rcd13ifvqepg","pricing_plan_id":"cebpf4jnsgd1na2vs0mg"},{"bike_id":"713e9479-e7db-44e9-894a-857a552ad203","system_id":"levelo_inurba_marseille","lat":43.28424,"lon":5.349791,"is_reserved":false,"is_disabled":false,"rental_uris":{"android":"levelo://app?vid=713e9479-e7db-44e9-894a-857a552ad203","ios":"levelo://app?vid=713e9479-e7db-44e9-894a-857a552ad203"},"vehicle_type_id":"4","last_reported":1718727013,"current_range_meters":31200,"station_id":"ce4bhbh2rcd13ifvqepg","pricing_plan_id":"cebpf4jnsgd1na2vs0mg"},{"bike_id":"096adb0c-22dc-48c0-a1a5-3c723a67a52d","system_id":"levelo_inurba_marseille","lat":43.28419,"lon":5.34993,"is_reserved":false,"is_disabled":false,"rental_uris":{"android":"levelo://app?vid=096adb0c-22dc-48c0-a1a5-3c723a67a52d","ios":"levelo://app?vid=096adb0c-22dc-48c0-a1a5-3c723a67a52d"},"vehicle_type_id":"4","last_reported":1718727013,"current_range_meters":13200,"station_id":"ce4bhbh2rcd13ifvqepg","pricing_plan_id":"cebpf4jnsgd1na2vs0mg"},{"bike_id":"7797fbd6-1759-465f-a86b-72b9814ec850","system_id":"levelo_inurba_marseille","lat":43.2842,"lon":5.34985,"is_reserved":false,"is_disabled":false,"rental_uris":{"android":"levelo://app?vid=7797fbd6-1759-465f-a86b-72b9814ec850","ios":"levelo://app?vid=7797fbd6-1759-465f-a86b-72b9814ec850"},"vehicle_type_id":"4","last_reported":1718727013,"current_range_meters":23600,"station_id":"ce4bhbh2rcd13ifvqepg","pricing_plan_id":"cebpf4jnsgd1na2vs0mg"},{"bike_id":"ac435d7c-615f-4c76-bb74-23b6b1465097","system_id":"levelo_inurba_marseille","lat":43.284198,"lon":5.349852,"is_reserved":false,"is_disabled":false,"rental_uris":{"android":"levelo://app?vid=ac435d7c-615f-4c76-bb74-23b6b1465097","ios":"levelo://app?vid=ac435d7c-615f-4c76-bb74-23b6b1465097"},"vehicle_type_id":"4","last_reported":1718727013,"current_range_meters":26400,"station_id":"ce4bhbh2rcd13ifvqepg","pricing_plan_id":"cebpf4jnsgd1na2vs0mg"},{"bike_id":"1ea01109-9a6c-49c0-ba4f-4db1bcd8f689","system_id":"levelo_inurba_marseille","lat":43.284167,"lon":5.349933,"is_reserved":false,"is_disabled":false,"rental_uris":{"android":"levelo://app?vid=1ea01109-9a6c-49c0-ba4f-4db1bcd8f689","ios":"levelo://app?vid=1ea01109-9a6c-49c0-ba4f-4db1bcd8f689"},"vehicle_type_id":"4","last_reported":1718727013,"current_range_meters":10000,"station_id":"ce4bhbh2rcd13ifvqepg","pricing_plan_id":"cebpf4jnsgd1na2vs0mg"},{"bike_id":"375fd184-5ba1-4677-b3c7-5aa9256e79a2","system_id":"levelo_inurba_marseille","lat":43.28413,"lon":5.35002,"is_reserved":false,"is_disabled":false,"rental_uris":{"android":"levelo://app?vid=375fd184-5ba1-4677-b3c7-5aa9256e79a2","ios":"levelo://app?vid=375fd184-5ba1-4677-b3c7-5aa9256e79a2"},"vehicle_type_id":"4","last_reported":1718727013,"current_range_meters":19600,"station_id":"ce4bhbh2rcd13ifvqepg","pricing_plan_id":"cebpf4jnsgd1na2vs0mg"},{"bike_id":"ac714d0a-980a-40eb-b3e8-f9afc3c532b5","system_id":"levelo_inurba_marseille","lat":43.28414,"lon":5.34998,"is_reserved":false,"is_disabled":false,"rental_uris":{"android":"levelo://app?vid=ac714d0a-980a-40eb-b3e8-f9afc3c532b5","ios":"levelo://app?vid=ac714d0a-980a-40eb-b3e8-f9afc3c532b5"},"vehicle_type_id":"4","last_reported":1718727013,"current_range_meters":28000,"station_id":"ce4bhbh2rcd13ifvqepg","pricing_plan_id":"cebpf4jnsgd1na2vs0mg"},{"bike_id":"19c6f5ff-504c-44fb-b590-abf3a2691e4e","system_id":"levelo_inurba_marseille","lat":43.28416,"lon":5.34991,"is_reserved":false,"is_disabled":false,"rental_uris":{"android":"levelo://app?vid=19c6f5ff-504c-44fb-b590-abf3a2691e4e","ios":"levelo://app?vid=19c6f5ff-504c-44fb-b590-abf3a2691e4e"},"vehicle_type_id":"4","last_reported":1718727013,"current_range_meters":18400,"station_id":"ce4bhbh2rcd13ifvqepg","pricing_plan_id":"cebpf4jnsgd1na2vs0mg"},{"bike_id":"eb11d910-1367-4acf-8008-c2c9c1361d88","system_id":"levelo_inurba_marseille","lat":43.28417,"lon":5.34987,"is_reserved":false,"is_disabled":false,"rental_uris":{"android":"levelo://app?vid=eb11d910-1367-4acf-8008-c2c9c1361d88","ios":"levelo://app?vid=eb11d910-1367-4acf-8008-c2c9c1361d88"},"vehicle_type_id":"4","last_reported":1718727013,"current_range_meters":2400,"station_id":"ce4bhbh2rcd13ifvqepg","pricing_plan_id":"cebpf4jnsgd1na2vs0mg"},