{"last_updated":1717330397,"ttl":30,"version":"2.2","data":{"bikes":[{"bike_id":"be74d19b-be56-4bfc-9840-10bf9dcae8b1","system_id":"levelo_inurba_marseille","lat":43.312239,"lon":5.368562,"is_reserved":false,"is_disabled":false,"rental_uris":{"android":"levelo://app?vid=be74d19b-be56-4bfc-9840-10bf9dcae8b1","ios":"levelo://app?vid=be74d19b-be56-4bfc-9840-10bf9dcae8b1"},"vehicle_type_id":"4","last_reported":1717330397,"current_range_meters":14000,"station_id":"ce4bgl92rcd13ifvqbq0","pricing_plan_id":"cebpf4jnsgd1na2vs0mg"},{"bike_id":"9577c840-7e58-4f1d-89d1-381eadd61ac1","system_id":"levelo_inurba_marseille","lat":43.309076,"lon":5.368465,"is_reserved":false,"is_disabled":false,"rental_uris":{"android":"levelo://app?vid=9577c840-7e58-4f1d-89d1-381eadd61ac1","ios":"levelo://app?vid=9577c840-7e58-4f1d-89d1-381eadd61ac1"},"vehicle_type_id":"4","last_reported":1717330397,"current_range_meters":5600,"station_id":"ce4bgn92rcd13ifvqbvg","pricing_plan_id":"cebpf4jnsgd1na2vs0mg"},{"bike_id":"0e0e94ce-8b80-4d23-9152-4d3e070f4361","system_id":"levelo_inurba_marseille","lat":43.314811,"lon":5.373103,"is_reserved":false,"is_disabled":false,"rental_uris":{"android":"levelo://app?vid=0e0e94ce-8b80-4d23-9152-4d3e070f4361","ios":"levelo://app?vid=0e0e94ce-8b80-4d23-9152-4d3e070f4361"},"vehicle_type_id":"4","last_reported":1717330397,"current_range_meters":7600,"station_id":"ce4bgt12rcd13ifvqcd0","pricing_plan_id":"cebpf4jnsgd1na2vs0mg"},{"bike_id":"6e9580b8-95f9-499b-b03b-4fe8b8c404d7","system_id":"levelo_inurba_marseille","lat":43.314811,"lon":5.373103,"is_reserved":false,"is_disabled":false,"rental_uris":{"android":"levelo://app?vid=6e9580b8-95f9-499b-b03b-4fe8b8c404d7","ios":"levelo://app?vid=6e9580b8-95f9-499b-b03b-4fe8b8c404d7"},"vehicle_type_id":"4","last_reported":1717330397,"current_range_meters":22400,"station_id":"ce4bgt12rcd13ifvqcd0","pricing_plan_id":"cebpf4jnsgd1na2vs0mg"},{"bike_id":"af6f0762-2d84-4a97-8c22-70240a027741","system_id":"levelo_inurba_marseille","lat":43.31497,"lon":5.37299,"is_reserved":false,"is_disabled":false,"rental_uris":{"android":"levelo://app?vid=af6f0762-2d84-4a97-8c22-70240a027741","ios":"levelo://app?vid=af6f0762-2d84-4a97-8c22-70240a027741"},"vehicle_type_id":"4","last_reported":1717330397,"current_range_meters":24000,"station_id":"ce4bgt12rcd13ifvqcd0","pricing_plan_id":"cebpf4jnsgd1na2vs0mg"},{"bike_id":"6c70390f-d508-4a46-93d2-1831ed4a7f2b","system_id":"levelo_inurba_marseille","lat":43.314811,"lon":5.373103,"is_reserved":false,"is_disabled":false,"rental_uris":{"android":"levelo://app?vid=6c70390f-d508-4a46-93d2-1831ed4a7f2b","ios":"levelo://app?vid=6c70390f-d508-4a46-93d2-1831ed4a7f2b"},"vehicle_type_id":"4","last_reported":1717330397,"current_range_meters":31200,"station_id":"ce4bgt12rcd13ifvqcd0","pricing_plan_id":"cebpf4jnsgd1na2vs0mg"},{"bike_id":"4d59ea44-70d6-47d6-b351-e5f763dc4d65","system_id":"levelo_inurba_marseille","lat":43.314811,"lon":5.373104,"is_reserved":false,"is_disabled":false,"rental_uris":{"android":"levelo://app?vid=4d59ea44-70d6-47d6-b351-e5f763dc4d65","ios":"levelo://app?vid=4d59ea44-70d6-47d6-b351-e5f763dc4d65"},"vehicle_type_id":"4","last_reported":1717330397,"current_range_meters":15600,"station_id":"ce4bgt12rcd13ifvqcd0","pricing_plan_id":"cebpf4jnsgd1na2vs0mg"},{"bike_id":"6e38b8be-2bd0-4dba-8ab1-3d6b7ecb4e8b","system_id":"levelo_inurba_marseille","lat":43.309039,"lon":5.371797,"is_reserved":false,"is_disabled":false,"rental_uris":{"android":"levelo://app?vid=6e38b8be-2bd0-4dba-8ab1-3d6b7ecb4e8b","ios":"levelo://app?vid=6e38b8be-2bd0-4dba-8ab1-3d6b7ecb4e8b"},"vehicle_type_id":"4","last_reported":1717330397,"current_range_meters":22800,"station_id":"ce4bguh2rcd13ifvqckg","pricing_plan_id":"cebpf4jnsgd1na2vs0mg"},{"bike_id":"12d50172-82da-4d50-b867-eff339d31410","system_id":"levelo_inurba_marseille","lat":43.309034,"lon":5.371783,"is_reserved":false,"is_disabled":false,"rental_uris":{"android":"levelo://app?vid=12d50172-82da-4d50-b867-eff339d31410","ios":"levelo://app?vid=12d50172-82da-4d50-b867-eff339d31410"},"vehicle_type_id":"4","last_reported":1717330397,"current_range_meters":28000,"station_id":"ce4bguh2rcd13ifvqckg","pricing_plan_id":"cebpf4jnsgd1na2vs0mg"},{"bike_id":"7dee20fd-136d-4c6f-a700-75423026f6f9","system_id":"levelo_inurba_marseille","lat":43.311131,"lon":5.377651,"is_reserved":false,"is_disabled":false,"rental_uris":{"android":"levelo://app?vid=7dee20fd-136d-4c6f-a700-75423026f6f9","ios":"levelo://app?vid=7dee20fd-136d-4c6f-a700-75423026f6f9"},"vehicle_type_id":"4","last_reported":1717330397,"current_range_meters":14400,"station_id":"ce4bgt92rcd13ifvqcg0","pricing_plan_id":"cebpf4jnsgd1na2vs0mg"},{"bike_id":"7992d061-162e-4115-b082-ff7e701e221d","system_id":"levelo_inurba_marseille","lat":43.305435,"lon":5.365529,"is_reserved":false,"is_disabled":false,"rental_uris":{"android":"levelo://app?vid=7992d061-162e-4115-b082-ff7e701e221d","ios":"levelo://app?vid=7992d061-162e-4115-b082-ff7e701e221d"},"vehicle_type_id":"4","last_reported":1717330397,"current_range_meters":24400,"station_id":"ce4bgs12rcd13ifvqcag","pricing_plan_id":"cebpf4jnsgd1na2vs0mg"},{"bike_id":"19350470-b81b-4d44-8adc-397442627ab7","system_id":"levelo_inurba_marseille","lat":43.305706,"lon":5.365654,"is_reserved":false,"is_disabled":false,"rental_uris":{"android":"levelo://app?vid=19350470-b81b-4d44-8adc-397442627ab7","ios":"levelo://app?vid=19350470-b81b-4d44-8adc-397442627ab7"},"vehicle_type_id":"4","last_reported":1717330397,"current_range_meters":12800,"station_id":"ce4bgs12rcd13ifvqcag","pricing_plan_id":"cebpf4jnsgd1na2vs0mg"},{"bike_id":"71c1beee-0bd3-48e6-8612-76bbe61131fa","system_id":"levelo_inurba_marseille","lat":43.311213,"lon":5.377723,"is_reserved":false,"is_disabled":false,"rental_uris":{"android":"levelo://app?vid=71c1beee-0bd3-48e6-8612-76bbe61131fa","ios":"levelo://app?vid=71c1beee-0bd3-48e6-8612-76bbe61131fa"},"vehicle_type_id":"4","last_reported":1717330397,"current_range_meters":28400,"station_id":"ce4bgt92rcd13ifvqcg0","pricing_plan_id":"cebpf4jnsgd1na2vs0mg"},{"bike_id":"e102737c-9b55-42c6-b4a4-aafd02ba7213","system_id":"levelo_inurba_marseille","lat":43.307945,"lon":5.376487,"is_reserved":false,"is_disabled":false,"rental_uris":{"android":"levelo://app?vid=e102737c-9b55-42c6-b4a4-aafd02ba7213","ios":"levelo://app?vid=e102737c-9b55-42c6-b4a4-aafd02ba7213"},"vehicle_type_id":"4","last_reported":1717330397,"current_range_meters":27600,"station_id":"ce4bgv92rcd13ifvqcq0","pricing_plan_id":"cebpf4jnsgd1na2vs0mg"},{"bike_id":"b32e9c6c-0edb-45ba-b376-25a092ffb558","system_id":"levelo_inurba_marseille","lat":43.307829,"lon":5.376561,"is_reserved":false,"is_disabled":false,"rental_uris":{"android":"levelo://app?vid=b32e9c6c-0edb-45ba-b376-25a092ffb558","ios":"levelo://app?vid=b32e9c6c-0edb-45ba-b376-25a092ffb558"},"vehicle_type_id":"4","last_reported":1717330397,"current_range_meters":28800,"station_id":"ce4bgv92rcd13ifvqcq0","pricing_plan_id":"cebpf4jnsgd1na2vs0mg"},{"bike_id":"775f302f-9a20-42f1-b88c-0c13cca55b15","system_id":"levelo_inurba_marseille","lat":43.307945,"lon":5.376487,"is_reserved":false,"is_disabled":false,"rental_uris":{"android":"levelo://app?vid=775f302f-9a20-42f1-b88c-0c13cca55b15","ios":"levelo://app?vid=775f302f-9a20-42f1-b88c-0c13cca55b15"},"vehicle_type_id":"4","last_reported":1717330397,"current_range_meters":31200,"station_id":"ce4bgv92rcd13ifvqcq0","pricing_plan_id":"cebpf4jnsgd1na2vs0mg"},{"bike_id":"6831711f-87e9-47c6-8e57-d77755db5ae9","system_id":"levelo_inurba_marseille","lat":43.307811,"lon":5.376577,"is_reserved":false,"is_disabled":false,"rental_uris":{"android":"levelo://app?vid=6831711f-87e9-47c6-8e57-d77755db5ae9","ios":"levelo://app?vid=6831711f-87e9-47c6-8e57-d77755db5ae9"},"vehicle_type_id":"4","last_reported":1717330397,"current_range_meters":22400,"station_id":"ce4bgv92rcd13ifvqcq0","pricing_plan_id":"cebpf4jnsgd1na2vs0mg"},{"bike_id":"f1c190d8-955e-4bad-882c-39f5d34408ae","system_id":"levelo_inurba_marseille","lat":43.307945,"lon":5.376487,"is_reserved":false,"is_disabled":false,"rental_uris":{"android":"levelo://app?vid=f1c190d8-955e-4bad-882c-39f5d34408ae","ios":"levelo://app?vid=f1c190d8-955e-4bad-882c-39f5d34408ae"},"vehicle_type_id":"4","last_reported":1717330397,"current_range_meters":31200,"station_id":"ce4bgv92rcd13ifvqcq0","pricing_plan_id":"cebpf4jnsgd1na2vs0mg"},{"bike_id":"dd7cd4c7-9fa9-44c7-90bc-4bbf3329b53b","system_id":"levelo_inurba_marseille","lat":43.307945,"lon":5.376487,"is_reserved":false,"is_disabled":false,"rental_uris":{"android":"levelo://app?vid=dd7cd4c7-9fa9-44c7-90bc-4bbf3329b53b","ios":"levelo://app?vid=dd7cd4c7-9fa9-44c7-90bc-4bbf3329b53b"},"vehicle_type_id":"4","last_reported":1717330397,"current_range_meters":30400,"station_id":"ce4bgv92rcd13ifvqcq0","pricing_plan_id":"cebpf4jnsgd1na2vs0mg"},{"bike_id":"8f0b6a0e-aa78-45dc-bd51-c01b815f041f","system_id":"levelo_inurba_marseille","lat":43.31771,"lon":5.37783,"is_reserved":false,"is_disabled":false,"rental_uris":{"android":"levelo://app?vid=8f0b6a0e-aa78-45dc-bd51-c01b815f041f","ios":"levelo://app?vid=8f0b6a0e-aa78-45dc-bd51-c01b815f041f"},"vehicle_type_id":"4","last_reported":1717330397,"current_range_meters":30800,"station_id":"","pricing_plan_id":"cebpf4jnsgd1na2vs0mg"},{"bike_id":"8e8ef016-9778-480b-9a19-aec94a4bdcc4","system_id":"levelo_inurba_marseille","lat":43.315289,"lon":5.380349,"is_reserved":false,"is_disabled":false,"rental_uris":{"android":"levelo://app?vid=8e8ef016-9778-480b-9a19-aec94a4bdcc4","ios":"levelo://app?vid=8e8ef016-9778-480b-9a19-aec94a4bdcc4"},"vehicle_type_id":"4","last_reported":1717330397,"current_range_meters":27600,"station_id":"ce4bhsp2rcd13ifvqi50","pricing_plan_id":"cebpf4jnsgd1na2vs0mg"},{"bike_id":"34fab2a2-a379-4135-9b4f-a183f4eee736","system_id":"levelo_inurba_marseille","lat":43.315268,"lon":5.380296,"is_reserved":false,"is_disabled":false,"rental_uris":{"android":"levelo://app?vid=34fab2a2-a379-4135-9b4f-a183f4eee736","ios":"levelo://app?vid=34fab2a2-a379-4135-9b4f-a183f4eee736"},"vehicle_type_id":"4","last_reported":1717330397,"current_range_meters":22000,"station_id":"ce4bhsp2rcd13ifvqi50","pricing_plan_id":"cebpf4jnsgd1na2vs0mg"},{"bike_id":"1d1ace44-2e8f-42cf-9f06-228a95cd915a","system_id":"levelo_inurba_marseille","lat":43.315293,"lon":5.380349,"is_reserved":false,"is_disabled":false,"rental_uris":{"android":"levelo://app?vid=1d1ace44-2e8f-42cf-9f06-228a95cd915a","ios":"levelo://app?vid=1d1ace44-2e8f-42cf-9f06-228a95cd915a"},"vehicle_type_id":"4","last_reported":1717330397,"current_range_meters":22000,"station_id":"ce4bhsp2rcd13ifvqi50","pricing_plan_id":"cebpf4jnsgd1na2vs0mg"},{"bike_id":"25be3973-7316-49c1-a8ab-b282652d204b","system_id":"levelo_inurba_marseille","lat":43.315293,"lon":5.380349,"is_reserved":false,"is_disabled":false,"rental_uris":{"android":"levelo://app?vid=25be3973-7316-49c1-a8ab-b282652d204b","ios":"levelo://app?vid=25be3973-7316-49c1-a8ab-b282652d204b"},"vehicle_type_id":"4","last_reported":1717330397,"current_range_meters":24800,"station_id":"ce4bhsp2rcd13ifvqi50","pricing_plan_id":"cebpf4jnsgd1na2vs0mg"},{"bike_id":"54800af4-95dd-429c-8cf0-d798cb532867","system_id":"levelo_inurba_marseille","lat":43.315287,"lon":5.380355,"is_reserved":false,"is_disabled":false,"rental_uris":{"android":"levelo://app?vid=54800af4-95dd-429c-8cf0-d798cb532867","ios":"levelo://app?vid=54800af4-95dd-429c-8cf0-d798cb532867"},"vehicle_type_id":"4","last_reported":1717330397,"current_range_meters":20000,"station_id":"ce4bhsp2rcd13ifvqi50","pricing_plan_id":"cebpf4jnsgd1na2vs0mg"},{"bike_id":"61ce56f3-8c27-423d-bbf1-b00ccc6cf763","system_id":"levelo_inurba_marseille","lat":43.315293,"lon":5.380349,"is_reserved":false,"is_disabled":false,"rental_uris":{"android":"levelo://app?vid=61ce56f3-8c27-423d-bbf1-b00ccc6cf763","ios":"levelo://app?vid=61ce56f3-8c27-423d-bbf1-b00ccc6cf763"},"vehicle_type_id":"4","last_reported":1717330397,"current_range_meters":800,"station_id":"ce4bhsp2rcd13ifvqi50","pricing_plan_id":"cebpf4jnsgd1na2vs0mg"},{"bike_id":"2ceb6f95-ebab-408c-b557-cf303a6ed56b","system_id":"levelo_inurba_marseille","lat":43.31533,"lon":5.38035,"is_reserved":false,"is_disabled":false,"rental_uris":{"android":"levelo://app?vid=2ceb6f95-ebab-408c-b557-cf303a6ed56b","ios":"levelo://app?vid=2ceb6f95-ebab-408c-b557-cf303a6ed56b"},"vehicle_type_id":"4","last_reported":1717330397,"current_range_meters":24800,"station_id":"ce4bhsp2rcd13ifvqi50","pricing_plan_id":"cebpf4jnsgd1na2vs0mg"},{"bike_id":"760a3dff-4fd3-478b-bcb8-a8df2ebdcda7","system_id":"levelo_inurba_marseille","lat":43.32477,"lon":5.36566,"is_reserved":false,"is_disabled":false,"rental_uris":{"android":"levelo://app?vid=760a3dff-4fd3-478b-bcb8-a8df2ebdcda7","ios":"levelo://app?vid=760a3dff-4fd3-478b-bcb8-a8df2ebdcda7"},"vehicle_type_id":"4","last_reported":1717330397,"current_range_meters":17600,"station_id":"ce4bhs12rcd13ifvqhvg","pricing_plan_id":"cebpf4jnsgd1na2vs0mg"},{"bike_id":"42c7a295-36d5-4ecb-a515-edff7e61f781","system_id":"levelo_inurba_marseille","lat":43.324771,"lon":5.36557,"is_reserved":false,"is_disabled":false,"rental_uris":{"android":"levelo://app?vid=42c7a295-36d5-4ecb-a515-edff7e61f781","ios":"levelo://app?vid=42c7a295-36d5-4ecb-a515-edff7e61f781"},"vehicle_type_id":"4","last_reported":1717330397,"current_range_meters":25200,"station_id":"ce4bhs12rcd13ifvqhvg","pricing_plan_id":"cebpf4jnsgd1na2vs0mg"},{"bike_id":"8cbc0fc6-918d-4c69-8fdd-df42854ea7e1","system_id":"levelo_inurba_marseille","lat":43.32479,"lon":5.36562,"is_reserved":false,"is_disabled":false,"rental_uris":{"android":"levelo://app?vid=8cbc0fc6-918d-4c69-8fdd-df42854ea7e1","ios":"levelo://app?vid=8cbc0fc6-918d-4c69-8fdd-df42854ea7e1"},"vehicle_type_id":"4","last_reported":1717330397,"current_range_meters":16800,"station_id":"ce4bhs12rcd13ifvqhvg","pricing_plan_id":"cebpf4jnsgd1na2vs0mg"},{"bike_id":"801f355f-f800-4b1e-bb6c-d1fe46e1a5b0","system_id":"levelo_inurba_marseille","lat":43.324771,"lon":5.36557,"is_reserved":false,"is_disabled":false,"rental_uris":{"android":"levelo://app?vid=801f355f-f800-4b1e-bb6c-d1fe46e1a5b0","ios":"levelo://app?vid=801f355f-f800-4b1e-bb6c-d1fe46e1a5b0"},"vehicle_type_id":"4","last_reported":1717330397,"current_range_meters":22400,"station_id":"ce4bhs12rcd13ifvqhvg","pricing_plan_id":"cebpf4jnsgd1na2vs0mg"},{"bike_id":"64ec3637-4ea2-4e44-9b1e-112fe7054b9d","system_id":"levelo_inurba_marseille","lat":43.324771,"lon":5.36557,"is_reserved":false,"is_disabled":false,"rental_uris":{"android":"levelo://app?vid=64ec3637-4ea2-4e44-9b1e-112fe7054b9d","ios":"levelo://app?vid=64ec3637-4ea2-4e44-9b1e-112fe7054b9d"},"vehicle_type_id":"4","last_reported":1717330397,"current_range_meters":2000,"station_id":"ce4bhs12rcd13ifvqhvg","pricing_plan_id":"cebpf4jnsgd1na2vs0mg"},{"bike_id":"220430cd-8ab4-49f4-8f65-c39ce03ff766","system_id":"levelo_inurba_marseille","lat":43.310804,"lon":5.38359,"is_reserved":false,"is_disabled":false,"rental_uris":{"android":"levelo://app?vid=220430cd-8ab4-49f4-8f65-c39ce03ff766","ios":"levelo://app?vid=220430cd-8ab4-49f4-8f65-c39ce03ff766"},"vehicle_type_id":"4","last_reported":1717330397,"current_range_meters":9200,"station_id":"ce4bgv92rcd13ifvqcr0","pricing_plan_id":"cebpf4jnsgd1na2vs0mg"},{"bike_id":"8dde367c-0550-4e3d-a5aa-00e9a5689daa","system_id":"levelo_inurba_marseille","lat":43.30154,"lon":5.37405,"is_reserved":false,"is_disabled":false,"rental_uris":{"android":"levelo://app?vid=8dde367c-0550-4e3d-a5aa-00e9a5689daa","ios":"levelo://app?vid=8dde367c-0550-4e3d-a5aa-00e9a5689daa"},"vehicle_type_id":"4","last_reported":1717330397,"current_range_meters":26000,"station_id":"ce4bgs92rcd13ifvqcc0","pricing_plan_id":"cebpf4jnsgd1na2vs0mg"},{"bike_id":"8fbbd7a8-22e0-4c12-9bc5-2692a259a1ba","system_id":"levelo_inurba_marseille","lat":43.30143,"lon":5.37413,"is_reserved":false,"is_disabled":false,"rental_uris":{"android":"levelo://app?vid=8fbbd7a8-22e0-4c12-9bc5-2692a259a1ba","ios":"levelo://app?vid=8fbbd7a8-22e0-4c12-9bc5-2692a259a1ba"},"vehicle_type_id":"4","last_reported":1717330397,"current_range_meters":31600,"station_id":"ce4bgs92rcd13ifvqcc0","pricing_plan_id":"cebpf4jnsgd1na2vs0mg"},{"bike_id":"bf8e68b6-4284-454a-9d73-2ecb3ddaee3f","system_id":"levelo_inurba_marseille","lat":43.30143,"lon":5.37413,"is_reserved":false,"is_disabled":false,"rental_uris":{"android":"levelo://app?vid=bf8e68b6-4284-454a-9d73-2ecb3ddaee3f","ios":"levelo://app?vid=bf8e68b6-4284-454a-9d73-2ecb3ddaee3f"},"vehicle_type_id":"4","last_reported":1717330397,"current_range_meters":24000,"station_id":"ce4bgs92rcd13ifvqcc0","pricing_plan_id":"cebpf4jnsgd1na2vs0mg"},{"bike_id":"790f31e8-bffa-4ead-9190-750c6bf6a1d2","system_id":"levelo_inurba_marseille","lat":43.30143,"lon":5.37413,"is_reserved":false,"is_disabled":false,"rental_uris":{"android":"levelo://app?vid=790f31e8-bffa-4ead-9190-750c6bf6a1d2","ios":"levelo://app?vid=790f31e8-bffa-4ead-9190-750c6bf6a1d2"},"vehicle_type_id":"4","last_reported":1717330397,"current_range_meters":20400,"station_id":"ce4bgs92rcd13ifvqcc0","pricing_plan_id":"cebpf4jnsgd1na2vs0mg"},{"bike_id":"a6bd5c9f-e7f9-49a0-87fc-c73c82e1d866","system_id":"levelo_inurba_marseille","lat":43.301429,"lon":5.37413,"is_reserved":false,"is_disabled":false,"rental_uris":{"android":"levelo://app?vid=a6bd5c9f-e7f9-49a0-87fc-c73c82e1d866","ios":"levelo://app?vid=a6bd5c9f-e7f9-49a0-87fc-c73c82e1d866"},"vehicle_type_id":"4","last_reported":1717330397,"current_range_meters":14400,"station_id":"ce4bgs92rcd13ifvqcc0","pricing_plan_id":"cebpf4jnsgd1na2vs0mg"},{"bike_id":"deafab9a-43ac-4f22-9606-343f90da8457","system_id":"levelo_inurba_marseille","lat":43.301429,"lon":5.37413,"is_reserved":false,"is_disabled":false,"rental_uris":{"android":"levelo://app?vid=deafab9a-43ac-4f22-9606-343f90da8457","ios":"levelo://app?vid=deafab9a-43ac-4f22-9606-343f90da8457"},"vehicle_type_id":"4","last_reported":1717330397,"current_range_meters":30400,"station_id":"ce4bgs92rcd13ifvqcc0","pricing_plan_id":"cebpf4jnsgd1na2vs0mg"},{"bike_id":"0a183b83-e9d0-4c2b-b384-00e80132025a","system_id":"levelo_inurba_marseille","lat":43.319854,"lon":5.38143,"is_reserved":false,"is_disabled":false,"rental_uris":{"android":"levelo://app?vid=0a183b83-e9d0-4c2b-b384-00e80132025a","ios":"levelo://app?vid=0a183b83-e9d0-4c2b-b384-00e80132025a"},"vehicle_type_id":"4","last_reported":1717330397,"current_range_meters":10000,"station_id":"ce4bhr12rcd13ifvqhpg","pricing_plan_id":"cebpf4jnsgd1na2vs0mg"},{"bike_id":"a1b324c3-4672-4178-8f46-8f15d360dea8","system_id":"levelo_inurba_marseille","lat":43.30326,"lon":5.37931,"is_reserved":false,"is_disabled":false,"rental_uris":{"android":"levelo://app?vid=a1b324c3-4672-4178-8f46-8f15d360dea8","ios":"levelo://app?vid=a1b324c3-4672-4178-8f46-8f15d360dea8"},"vehicle_type_id":"4","last_reported":1717330397,"current_range_meters":17200,"station_id":"","pricing_plan_id":"cebpf4jnsgd1na2vs0mg"},{"bike_id":"b1ff9e8b-0fa4-4fef-a32e-8ac0796b52e7","system_id":"levelo_inurba_marseille","lat":43.311722,"lon":5.387247,"is_reserved":false,"is_disabled":false,"rental_uris":{"android":"levelo://app?vid=b1ff9e8b-0fa4-4fef-a32e-8ac0796b52e7","ios":"levelo://app?vid=b1ff9e8b-0fa4-4fef-a32e-8ac0796b52e7"},"vehicle_type_id":"4","last_reported":1717330397,"current_range_meters":24400,"station_id":"ce4bgv12rcd13ifvqcp0","pricing_plan_id":"cebpf4jnsgd1na2vs0mg"},{"bike_id":"7c0279c4-785e-41cc-9875-11b1aa5697b0","system_id":"levelo_inurba_marseille","lat":43.298433,"lon":5.362774,"is_reserved":false,"is_disabled":false,"rental_uris":{"android":"levelo://app?vid=7c0279c4-785e-41cc-9875-11b1aa5697b0","ios":"levelo://app?vid=7c0279c4-785e-41cc-9875-11b1aa5697b0"},"vehicle_type_id":"4","last_reported":1717330397,"current_range_meters":30000,"station_id":"ce4bgpp2rcd13ifvqc3g","pricing_plan_id":"cebpf4jnsgd1na2vs0mg"},{"bike_id":"10f9e40d-bbdc-4f05-bbb9-8d38b137ae75","system_id":"levelo_inurba_marseille","lat":43.298433,"lon":5.362774,"is_reserved":false,"is_disabled":false,"rental_uris":{"android":"levelo://app?vid=10f9e40d-bbdc-4f05-bbb9-8d38b137ae75","ios":"levelo://app?vid=10f9e40d-bbdc-4f05-bbb9-8d38b137ae75"},"vehicle_type_id":"4","last_reported":1717330397,"current_range_meters":9200,"station_id":"ce4bgpp2rcd13ifvqc3g","pricing_plan_id":"cebpf4jnsgd1na2vs0mg"},{"bike_id":"0298be6f-cc9b-414d-b9a8-de220b12f542","system_id":"levelo_inurba_marseille","lat":43.29846,"lon":5.36289,"is_reserved":false,"is_disabled":false,"rental_uris":{"android":"levelo://app?vid=0298be6f-cc9b-414d-b9a8-de220b12f542","ios":"levelo://app?vid=0298be6f-cc9b-414d-b9a8-de220b12f542"},"vehicle_type_id":"4","last_reported":1717330397,"current_range_meters":26000,"station_id":"ce4bgpp2rcd13ifvqc3g","pricing_plan_id":"cebpf4jnsgd1na2vs0mg"},{"bike_id":"c796a2ba-c594-404f-a02b-ea0f05147938","system_id":"levelo_inurba_marseille","lat":43.299243,"lon":5.374807,"is_reserved":false,"is_disabled":false,"rental_uris":{"android":"levelo://app?vid=c796a2ba-c594-404f-a02b-ea0f05147938","ios":"levelo://app?vid=c796a2ba-c594-404f-a02b-ea0f05147938"},"vehicle_type_id":"4","last_reported":1717330397,"current_range_meters":13600,"station_id":"ce4bgjh2rcd13ifvqbg0","pricing_plan_id":"cebpf4jnsgd1na2vs0mg"},{"bike_id":"e0c1a81f-4494-4d3e-b977-e9bd1a4e8dfb","system_id":"levelo_inurba_marseille","lat":43.299243,"lon":5.374807,"is_reserved":false,"is_disabled":false,"rental_uris":{"android":"levelo://app?vid=e0c1a81f-4494-4d3e-b977-e9bd1a4e8dfb","ios":"levelo://app?vid=e0c1a81f-4494-4d3e-b977-e9bd1a4e8dfb"},"vehicle_type_id":"4","last_reported":1717330397,"current_range_meters":12000,"station_id":"ce4bgjh2rcd13ifvqbg0","pricing_plan_id":"cebpf4jnsgd1na2vs0mg"},{"bike_id":"513f31c4-d402-4042-bfd6-c10400419574","system_id":"levelo_inurba_marseille","lat":43.298433,"lon":5.362774,"is_reserved":false,"is_disabled":false,"rental_uris":{"android":"levelo://app?vid=513f31c4-d402-4042-bfd6-c10400419574","ios":"levelo://app?vid=513f31c4-d402-4042-bfd6-c10400419574"},"vehicle_type_id":"4","last_reported":1717330397,"current_range_meters":16000,"station_id":"ce4bgpp2rcd13ifvqc3g","pricing_plan_id":"cebpf4jnsgd1na2vs0mg"},{"bike_id":"f288f4a7-2b7e-4482-a4d5-89af689afbe6","system_id":"levelo_inurba_marseille","lat":43.309589,"lon":5.390258,"is_reserved":false,"is_disabled":false,"rental_uris":{"android":"levelo://app?vid=f288f4a7-2b7e-4482-a4d5-89af689afbe6","ios":"levelo://app?vid=f288f4a7-2b7e-4482-a4d5-89af689afbe6"},"vehicle_type_id":"4","last_reported":1717330397,"current_range_meters":24800,"station_id":"ce4bgup2rcd13ifvqco0","pricing_plan_id":"cebpf4jnsgd1na2vs0mg"},{"bike_id":"72f163b3-88a9-43aa-9898-85e4b5589800","system_id":"levelo_inurba_marseille","lat":43.30136,"lon":5.38057,"is_reserved":false,"is_disabled":false,"rental_uris":{"android":"levelo://app?vid=72f163b3-88a9-43aa-9898-85e4b5589800","ios":"levelo://app?vid=72f163b3-88a9-43aa-9898-85e4b5589800"},"vehicle_type_id":"4","last_reported":1717330397,"current_range_meters":6400,"station_id":"","pricing_plan_id":"cebpf4jnsgd1na2vs0mg"},{"bike_id":"eb78d9d0-3fa3-44fa-afdb-c1d24cd94be4","system_id":"levelo_inurba_marseille","lat":43.297794,"lon":5.370888,"is_reserved":false,"is_disabled":false,"rental_uris":{"android":"levelo://app?vid=eb78d9d0-3fa3-44fa-afdb-c1d24cd94be4","ios":"levelo://app?vid=eb78d9d0-3fa3-44fa-afdb-c1d24cd94be4"},"vehicle_type_id":"4","last_reported":1717330397,"current_range_meters":3200,"station_id":"ce4bgop2rcd13ifvqc1g","pricing_plan_id":"cebpf4jnsgd1na2vs0mg"},{"bike_id":"10fb4334-c940-4455-979b-d3f1ca32e262","system_id":"levelo_inurba_marseille","lat":43.297774,"lon":5.370875,"is_reserved":false,"is_disabled":false,"rental_uris":{"android":"levelo://app?vid=10fb4334-c940-4455-979b-d3f1ca32e262","ios":"levelo://app?vid=10fb4334-c940-4455-979b-d3f1ca32e262"},"vehicle_type_id":"4","last_reported":1717330397,"current_range_meters":29200,"station_id":"ce4bgop2rcd13ifvqc1g","pricing_plan_id":"cebpf4jnsgd1na2vs0mg"},{"bike_id":"76e6eb83-1b25-4814-8ab5-24fbf614c711","system_id":"levelo_inurba_marseille","lat":43.322872,"lon":5.382756,"is_reserved":false,"is_disabled":false,"rental_uris":{"android":"levelo://app?vid=76e6eb83-1b25-4814-8ab5-24fbf614c711","ios":"levelo://app?vid=76e6eb83-1b25-4814-8ab5-24fbf614c711"},"vehicle_type_id":"4","last_reported":1717330397,"current_range_meters":2000,"station_id":"ce4bhr12rcd13ifvqhqg","pricing_plan_id":"cebpf4jnsgd1na2vs0mg"},{"bike_id":"4edec551-a8f6-4933-a26e-96400b6a7313","system_id":"levelo_inurba_marseille","lat":43.322872,"lon":5.382756,"is_reserved":false,"is_disabled":false,"rental_uris":{"android":"levelo://app?vid=4edec551-a8f6-4933-a26e-96400b6a7313","ios":"levelo://app?vid=4edec551-a8f6-4933-a26e-96400b6a7313"},"vehicle_type_id":"4","last_reported":1717330397,"current_range_meters":20800,"station_id":"ce4bhr12rcd13ifvqhqg","pricing_plan_id":"cebpf4jnsgd1na2vs0mg"},{"bike_id":"a790525d-6866-4a3a-b87b-14f665fab019","system_id":"levelo_inurba_marseille","lat":43.322872,"lon":5.382756,"is_reserved":false,"is_disabled":false,"rental_uris":{"android":"levelo://app?vid=a790525d-6866-4a3a-b87b-14f665fab019","ios":"levelo://app?vid=a790525d-6866-4a3a-b87b-14f665fab019"},"vehicle_type_id":"4","last_reported":1717330397,"current_range_meters":15600,"station_id":"ce4bhr12rcd13ifvqhqg","pricing_plan_id":"cebpf4jnsgd1na2vs0mg"},{"bike_id":"17949ec0-95ae-45c0-a2ec-b6cc99314cbe","system_id":"levelo_inurba_marseille","lat":43.322872,"lon":5.382756,"is_reserved":false,"is_disabled":false,"rental_uris":{"android":"levelo://app?vid=17949ec0-95ae-45c0-a2ec-b6cc99314cbe","ios":"levelo://app?vid=17949ec0-95ae-45c0-a2ec-b6cc99314cbe"},"vehicle_type_id":"4","last_reported":1717330397,"current_range_meters":28800,"station_id":"ce4bhr12rcd13ifvqhqg","pricing_plan_id":"cebpf4jnsgd1na2vs0mg"},{"bike_id":"02ab29b3-e154-485f-86d5-17711359b8f2","system_id":"levelo_inurba_marseille","lat":43.322872,"lon":5.382756,"is_reserved":false,"is_disabled":false,"rental_uris":{"android":"levelo://app?vid=02ab29b3-e154-485f-86d5-17711359b8f2","ios":"levelo://app?vid=02ab29b3-e154-485f-86d5-17711359b8f2"},"vehicle_type_id":"4","last_reported":1717330397,"current_range_meters":30000,"station_id":"ce4bhr12rcd13ifvqhqg","pricing_plan_id":"cebpf4jnsgd1na2vs0mg"},{"bike_id":"49dbd1f5-a43b-49dd-a87c-4d35e63b9cea","system_id":"levelo_inurba_marseille","lat":43.32287,"lon":5.38277,"is_reserved":false,"is_disabled":false,"rental_uris":{"android":"levelo://app?vid=49dbd1f5-a43b-49dd-a87c-4d35e63b9cea","ios":"levelo://app?vid=49dbd1f5-a43b-49dd-a87c-4d35e63b9cea"},"vehicle_type_id":"4","last_reported":1717330397,"current_range_meters":26000,"station_id":"ce4bhr12rcd13ifvqhqg","pricing_plan_id":"cebpf4jnsgd1na2vs0mg"},{"bike_id":"1e87e18e-446b-43a9-b16f-354f75bd19da","system_id":"levelo_inurba_marseille","lat":43.297163,"lon":5.365866,"is_reserved":false,"is_disabled":false,"rental_uris":{"android":"levelo://app?vid=1e87e18e-446b-43a9-b16f-354f75bd19da","ios":"levelo://app?vid=1e87e18e-446b-43a9-b16f-354f75bd19da"},"vehicle_type_id":"4","last_reported":1717330397,"current_range_meters":11200,"station_id":"ce4bgn12rcd13ifvqbt0","pricing_plan_id":"cebpf4jnsgd1na2vs0mg"},{"bike_id":"546ded91-8a60-46d9-84ab-4c855b5bfa25","system_id":"levelo_inurba_marseille","lat":43.296131,"lon":5.370791,"is_reserved":false,"is_disabled":false,"rental_uris":{"android":"levelo://app?vid=546ded91-8a60-46d9-84ab-4c855b5bfa25","ios":"levelo://app?vid=546ded91-8a60-46d9-84ab-4c855b5bfa25"},"vehicle_type_id":"4","last_reported":1717330397,"current_range_meters":6800,"station_id":"ce4bgnh2rcd13ifvqc0g","pricing_plan_id":"cebpf4jnsgd1na2vs0mg"},{"bike_id":"76746c68-b06b-4d7b-917a-08234b055514","system_id":"levelo_inurba_marseille","lat":43.296131,"lon":5.370773,"is_reserved":false,"is_disabled":false,"rental_uris":{"android":"levelo://app?vid=76746c68-b06b-4d7b-917a-08234b055514","ios":"levelo://app?vid=76746c68-b06b-4d7b-917a-08234b055514"},"vehicle_type_id":"4","last_reported":1717330397,"current_range_meters":18000,"station_id":"ce4bgnh2rcd13ifvqc0g","pricing_plan_id":"cebpf4jnsgd1na2vs0mg"},{"bike_id":"0424381c-b50c-4fd6-9f56-1acf6ea7eba6","system_id":"levelo_inurba_marseille","lat":43.296131,"lon":5.370773,"is_reserved":false,"is_disabled":false,"rental_uris":{"android":"levelo://app?vid=0424381c-b50c-4fd6-9f56-1acf6ea7eba6","ios":"levelo://app?vid=0424381c-b50c-4fd6-9f56-1acf6ea7eba6"},"vehicle_type_id":"4","last_reported":1717330397,"current_range_meters":12400,"station_id":"ce4bgnh2rcd13ifvqc0g","pricing_plan_id":"cebpf4jnsgd1na2vs0mg"},{"bike_id":"cd135018-a86f-4c05-a4c7-6de33ba94c42","system_id":"levelo_inurba_marseille","lat":43.296131,"lon":5.370773,"is_reserved":false,"is_disabled":false,"rental_uris":{"android":"levelo://app?vid=cd135018-a86f-4c05-a4c7-6de33ba94c42","ios":"levelo://app?vid=cd135018-a86f-4c05-a4c7-6de33ba94c42"},"vehicle_type_id":"4","last_reported":1717330397,"current_range_meters":20800,"station_id":"ce4bgnh2rcd13ifvqc0g","pricing_plan_id":"cebpf4jnsgd1na2vs0mg"},{"bike_id":"4e920693-4a72-4543-8c62-fe888d7dad90","system_id":"levelo_inurba_marseille","lat":43.29573,"lon":5.367355,"is_reserved":false,"is_disabled":false,"rental_uris":{"android":"levelo://app?vid=4e920693-4a72-4543-8c62-fe888d7dad90","ios":"levelo://app?vid=4e920693-4a72-4543-8c62-fe888d7dad90"},"vehicle_type_id":"4","last_reported":1717330397,"current_range_meters":30000,"station_id":"ce4bgph2rcd13ifvqc2g","pricing_plan_id":"cebpf4jnsgd1na2vs0mg"},{"bike_id":"f3622c1b-d3d5-4c52-81b6-31688b4cbaf4","system_id":"levelo_inurba_marseille","lat":43.29584,"lon":5.37498,"is_reserved":false,"is_disabled":false,"rental_uris":{"android":"levelo://app?vid=f3622c1b-d3d5-4c52-81b6-31688b4cbaf4","ios":"levelo://app?vid=f3622c1b-d3d5-4c52-81b6-31688b4cbaf4"},"vehicle_type_id":"4","last_reported":1717330397,"current_range_meters":0,"station_id":"ce4bgh92rcd13ifvqb50","pricing_plan_id":"cebpf4jnsgd1na2vs0mg"},{"bike_id":"0fa8f438-ecca-44f8-8e52-c0cd3a1bae2f","system_id":"levelo_inurba_marseille","lat":43.295748,"lon":5.37522,"is_reserved":false,"is_disabled":false,"rental_uris":{"android":"levelo://app?vid=0fa8f438-ecca-44f8-8e52-c0cd3a1bae2f","ios":"levelo://app?vid=0fa8f438-ecca-44f8-8e52-c0cd3a1bae2f"},"vehicle_type_id":"4","last_reported":1717330397,"current_range_meters":0,"station_id":"ce4bgh92rcd13ifvqb50","pricing_plan_id":"cebpf4jnsgd1na2vs0mg"},{"bike_id":"4c62adaa-ad95-4b04-98b4-3089f8c0fcf5","system_id":"levelo_inurba_marseille","lat":43.295748,"lon":5.37522,"is_reserved":false,"is_disabled":false,"rental_uris":{"android":"levelo://app?vid=4c62adaa-ad95-4b04-98b4-3089f8c0fcf5","ios":"levelo://app?vid=4c62adaa-ad95-4b04-98b4-3089f8c0fcf5"},"vehicle_type_id":"4","last_reported":1717330397,"current_range_meters":18000,"station_id":"ce4bgh92rcd13ifvqb50","pricing_plan_id":"cebpf4jnsgd1na2vs0mg"},{"bike_id":"daffa6d8-8c67-4465-a529-69658238bd6e","system_id":"levelo_inurba_marseille","lat":43.296277,"lon":5.377108,"is_reserved":false,"is_disabled":false,"rental_uris":{"android":"levelo://app?vid=daffa6d8-8c67-4465-a529-69658238bd6e","ios":"levelo://app?vid=daffa6d8-8c67-4465-a529-69658238bd6e"},"vehicle_type_id":"4","last_reported":1717330397,"current_range_meters":24400,"station_id":"ce4bgi92rcd13ifvqb90","pricing_plan_id":"cebpf4jnsgd1na2vs0mg"},{"bike_id":"c7a4513b-a250-4974-836e-341796c7a07c","system_id":"levelo_inurba_marseille","lat":43.300614,"lon":5.385563,"is_reserved":false,"is_disabled":false,"rental_uris":{"android":"levelo://app?vid=c7a4513b-a250-4974-836e-341796c7a07c","ios":"levelo://app?vid=c7a4513b-a250-4974-836e-341796c7a07c"},"vehicle_type_id":"4","last_reported":1717330397,"current_range_meters":20400,"station_id":"","pricing_plan_id":"cebpf4jnsgd1na2vs0mg"},{"bike_id":"59d10ae2-a5af-413b-8b84-b79a559e9a04","system_id":"levelo_inurba_marseille","lat":43.295389,"lon":5.374957,"is_reserved":false,"is_disabled":false,"rental_uris":{"android":"levelo://app?vid=59d10ae2-a5af-413b-8b84-b79a559e9a04","ios":"levelo://app?vid=59d10ae2-a5af-413b-8b84-b79a559e9a04"},"vehicle_type_id":"4","last_reported":1717330397,"current_range_meters":0,"station_id":"ce4bgkp2rcd13ifvqbmg","pricing_plan_id":"cebpf4jnsgd1na2vs0mg"},{"bike_id":"df5b0ea4-5448-43cc-b2e5-76b587ecea26","system_id":"levelo_inurba_marseille","lat":43.299717,"lon":5.384845,"is_reserved":false,"is_disabled":false,"rental_uris":{"android":"levelo://app?vid=df5b0ea4-5448-43cc-b2e5-76b587ecea26","ios":"levelo://app?vid=df5b0ea4-5448-43cc-b2e5-76b587ecea26"},"vehicle_type_id":"4","last_reported":1717330397,"current_range_meters":22000,"station_id":"ce4bgj92rcd13ifvqbd0","pricing_plan_id":"cebpf4jnsgd1na2vs0mg"},{"bike_id":"20e438c8-f9ca-4df4-9c6e-c2fcf80cbcb4","system_id":"levelo_inurba_marseille","lat":43.299717,"lon":5.384845,"is_reserved":false,"is_disabled":false,"rental_uris":{"android":"levelo://app?vid=20e438c8-f9ca-4df4-9c6e-c2fcf80cbcb4","ios":"levelo://app?vid=20e438c8-f9ca-4df4-9c6e-c2fcf80cbcb4"},"vehicle_type_id":"4","last_reported":1717330397,"current_range_meters":30400,"station_id":"ce4bgj92rcd13ifvqbd0","pricing_plan_id":"cebpf4jnsgd1na2vs0mg"},{"bike_id":"d74f4cea-8fa7-4ab3-8980-c4e7862665e2","system_id":"levelo_inurba_marseille","lat":43.299717,"lon":5.384845,"is_reserved":false,"is_disabled":false,"rental_uris":{"android":"levelo://app?vid=d74f4cea-8fa7-4ab3-8980-c4e7862665e2","ios":"levelo://app?vid=d74f4cea-8fa7-4ab3-8980-c4e7862665e2"},"vehicle_type_id":"4","last_reported":1717330397,"current_range_meters":25200,"station_id":"ce4bgj92rcd13ifvqbd0","pricing_plan_id":"cebpf4jnsgd1na2vs0mg"},{"bike_id":"692b8a9a-8db0-47c5-85aa-e1ef463b3b22","system_id":"levelo_inurba_marseille","lat":43.299717,"lon":5.384845,"is_reserved":false,"is_disabled":false,"rental_uris":{"android":"levelo://app?vid=692b8a9a-8db0-47c5-85aa-e1ef463b3b22","ios":"levelo://app?vid=692b8a9a-8db0-47c5-85aa-e1ef463b3b22"},"vehicle_type_id":"4","last_reported":1717330397,"current_range_meters":19600,"station_id":"ce4bgj92rcd13ifvqbd0","pricing_plan_id":"cebpf4jnsgd1na2vs0mg"},{"bike_id":"3a887730-673b-4edb-9b7c-dc8bb5589e27","system_id":"levelo_inurba_marseille","lat":43.29529,"lon":5.385581,"is_reserved":false,"is_disabled":false,"rental_uris":{"android":"levelo://app?vid=3a887730-673b-4edb-9b7c-dc8bb5589e27","ios":"levelo://app?vid=3a887730-673b-4edb-9b7c-dc8bb5589e27"},"vehicle_type_id":"4","last_reported":1717330397,"current_range_meters":16400,"station_id":"ce4bgih2rcd13ifvqba0","pricing_plan_id":"cebpf4jnsgd1na2vs0mg"},{"bike_id":"9acb491e-1894-4897-a5ff-a493317cbe92","system_id":"levelo_inurba_marseille","lat":43.32365,"lon":5.38879,"is_reserved":false,"is_disabled":false,"rental_uris":{"android":"levelo://app?vid=9acb491e-1894-4897-a5ff-a493317cbe92","ios":"levelo://app?vid=9acb491e-1894-4897-a5ff-a493317cbe92"},"vehicle_type_id":"4","last_reported":1717330397,"current_range_meters":0,"station_id":"ce4bhqp2rcd13ifvqhog","pricing_plan_id":"cebpf4jnsgd1na2vs0mg"},{"bike_id":"23bdb68e-5bb5-4624-ae9b-bd67c966a445","system_id":"levelo_inurba_marseille","lat":43.32367,"lon":5.388836,"is_reserved":false,"is_disabled":false,"rental_uris":{"android":"levelo://app?vid=23bdb68e-5bb5-4624-ae9b-bd67c966a445","ios":"levelo://app?vid=23bdb68e-5bb5-4624-ae9b-bd67c966a445"},"vehicle_type_id":"4","last_reported":1717330397,"current_range_meters":6000,"station_id":"ce4bhqp2rcd13ifvqhog","pricing_plan_id":"cebpf4jnsgd1na2vs0mg"},{"bike_id":"802c0a8a-49e7-4e39-988d-ffff292403f0","system_id":"levelo_inurba_marseille","lat":43.292749,"lon":5.368402,"is_reserved":false,"is_disabled":false,"rental_uris":{"android":"levelo://app?vid=802c0a8a-49e7-4e39-988d-ffff292403f0","ios":"levelo://app?vid=802c0a8a-49e7-4e39-988d-ffff292403f0"},"vehicle_type_id":"4","last_reported":1717330397,"current_range_meters":23600,"station_id":"ce4bhbp2rcd13ifvqesg","pricing_plan_id":"cebpf4jnsgd1na2vs0mg"},{"bike_id":"e9a3a017-bba8-4064-83b2-0bdbaeedbfe7","system_id":"levelo_inurba_marseille","lat":43.292749,"lon":5.368402,"is_reserved":false,"is_disabled":false,"rental_uris":{"android":"levelo://app?vid=e9a3a017-bba8-4064-83b2-0bdbaeedbfe7","ios":"levelo://app?vid=e9a3a017-bba8-4064-83b2-0bdbaeedbfe7"},"vehicle_type_id":"4","last_reported":1717330397,"current_range_meters":26000,"station_id":"ce4bhbp2rcd13ifvqesg","pricing_plan_id":"cebpf4jnsgd1na2vs0mg"},{"bike_id":"690f0ad1-00a2-4215-84fe-5e4c203f3fc5","system_id":"levelo_inurba_marseille","lat":43.292749,"lon":5.368402,"is_reserved":false,"is_disabled":false,"rental_uris":{"android":"levelo://app?vid=690f0ad1-00a2-4215-84fe-5e4c203f3fc5","ios":"levelo://app?vid=690f0ad1-00a2-4215-84fe-5e4c203f3fc5"},"vehicle_type_id":"4","last_reported":1717330397,"current_range_meters":17200,"station_id":"ce4bhbp2rcd13ifvqesg","pricing_plan_id":"cebpf4jnsgd1na2vs0mg"},{"bike_id":"5231c963-2434-49d1-ade5-400ecd31e788","system_id":"levelo_inurba_marseille","lat":43.293005,"lon":5.374587,"is_reserved":false,"is_disabled":false,"rental_uris":{"android":"levelo://app?vid=5231c963-2434-49d1-ade5-400ecd31e788","ios":"levelo://app?vid=5231c963-2434-49d1-ade5-400ecd31e788"},"vehicle_type_id":"4","last_reported":1717330397,"current_range_meters":0,"station_id":"ce4bgi12rcd13ifvqb70","pricing_plan_id":"cebpf4jnsgd1na2vs0mg"},{"bike_id":"10c55566-6446-47e2-a7d5-91e77df346de","system_id":"levelo_inurba_marseille","lat":43.30607,"lon":5.39362,"is_reserved":false,"is_disabled":false,"rental_uris":{"android":"levelo://app?vid=10c55566-6446-47e2-a7d5-91e77df346de","ios":"levelo://app?vid=10c55566-6446-47e2-a7d5-91e77df346de"},"vehicle_type_id":"4","last_reported":1717330397,"current_range_meters":20800,"station_id":"ce4bh0p2rcd13ifvqd80","pricing_plan_id":"cebpf4jnsgd1na2vs0mg"},{"bike_id":"4511c857-bb01-4374-bb6e-e1b361c28021","system_id":"levelo_inurba_marseille","lat":43.303002,"lon":5.392142,"is_reserved":false,"is_disabled":false,"rental_uris":{"android":"levelo://app?vid=4511c857-bb01-4374-bb6e-e1b361c28021","ios":"levelo://app?vid=4511c857-bb01-4374-bb6e-e1b361c28021"},"vehicle_type_id":"4","last_reported":1717330397,"current_range_meters":4400,"station_id":"ce4bgkh2rcd13ifvqbk0","pricing_plan_id":"cebpf4jnsgd1na2vs0mg"},{"bike_id":"4e0e55f2-b70d-4223-8227-b3eb4e34ab6c","system_id":"levelo_inurba_marseille","lat":43.2936,"lon":5.37835,"is_reserved":false,"is_disabled":false,"rental_uris":{"android":"levelo://app?vid=4e0e55f2-b70d-4223-8227-b3eb4e34ab6c","ios":"levelo://app?vid=4e0e55f2-b70d-4223-8227-b3eb4e34ab6c"},"vehicle_type_id":"4","last_reported":1717330397,"current_range_meters":16000,"station_id":"ce4bgjh2rcd13ifvqbf0","pricing_plan_id":"cebpf4jnsgd1na2vs0mg"},{"bike_id":"a1c925ae-ef58-41f3-b8a3-71745073a351","system_id":"levelo_inurba_marseille","lat":43.2936,"lon":5.37835,"is_reserved":false,"is_disabled":false,"rental_uris":{"android":"levelo://app?vid=a1c925ae-ef58-41f3-b8a3-71745073a351","ios":"levelo://app?vid=a1c925ae-ef58-41f3-b8a3-71745073a351"},"vehicle_type_id":"4","last_reported":1717330397,"current_range_meters":4800,"station_id":"ce4bgjh2rcd13ifvqbf0","pricing_plan_id":"cebpf4jnsgd1na2vs0mg"},{"bike_id":"4477a2a7-f1ce-4623-af58-c6adff9fbcd6","system_id":"levelo_inurba_marseille","lat":43.2936,"lon":5.37835,"is_reserved":false,"is_disabled":false,"rental_uris":{"android":"levelo://app?vid=4477a2a7-f1ce-4623-af58-c6adff9fbcd6","ios":"levelo://app?vid=4477a2a7-f1ce-4623-af58-c6adff9fbcd6"},"vehicle_type_id":"4","last_reported":1717330397,"current_range_meters":3600,"station_id":"ce4bgjh2rcd13ifvqbf0","pricing_plan_id":"cebpf4jnsgd1na2vs0mg"},{"bike_id":"26e2391a-531a-4d60-8844-04407c297fd4","system_id":"levelo_inurba_marseille","lat":43.292311,"lon":5.360731,"is_reserved":false,"is_disabled":false,"rental_uris":{"android":"levelo://app?vid=26e2391a-531a-4d60-8844-04407c297fd4","ios":"levelo://app?vid=26e2391a-531a-4d60-8844-04407c297fd4"},"vehicle_type_id":"4","last_reported":1717330397,"current_range_meters":10800,"station_id":"ce4bhbh2rcd13ifvqeqg","pricing_plan_id":"cebpf4jnsgd1na2vs0mg"},{"bike_id":"08dcd096-3db8-4d05-bc99-a0da2b4a2b1c","system_id":"levelo_inurba_marseille","lat":43.292311,"lon":5.360731,"is_reserved":false,"is_disabled":false,"rental_uris":{"android":"levelo://app?vid=08dcd096-3db8-4d05-bc99-a0da2b4a2b1c","ios":"levelo://app?vid=08dcd096-3db8-4d05-bc99-a0da2b4a2b1c"},"vehicle_type_id":"4","last_reported":1717330397,"current_range_meters":5200,"station_id":"ce4bhbh2rcd13ifvqeqg","pricing_plan_id":"cebpf4jnsgd1na2vs0mg"},{"bike_id":"bf494df1-de87-4fc1-b2ed-0e47a6155d07","system_id":"levelo_inurba_marseille","lat":43.29226,"lon":5.36045,"is_reserved":false,"is_disabled":false,"rental_uris":{"android":"levelo://app?vid=bf494df1-de87-4fc1-b2ed-0e47a6155d07","ios":"levelo://app?vid=bf494df1-de87-4fc1-b2ed-0e47a6155d07"},"vehicle_type_id":"4","last_reported":1717330397,"current_range_meters":24800,"station_id":"ce4bhbh2rcd13ifvqeqg","pricing_plan_id":"cebpf4jnsgd1na2vs0mg"},{"bike_id":"f3292a79-a56b-4e0b-9a30-195d1614c9dd","system_id":"levelo_inurba_marseille","lat":43.292311,"lon":5.360731,"is_reserved":false,"is_disabled":false,"rental_uris":{"android":"levelo://app?vid=f3292a79-a56b-4e0b-9a30-195d1614c9dd","ios":"levelo://app?vid=f3292a79-a56b-4e0b-9a30-195d1614c9dd"},"vehicle_type_id":"4","last_reported":1717330397,"current_range_meters":25600,"station_id":"ce4bhbh2rcd13ifvqeqg","pricing_plan_id":"cebpf4jnsgd1na2vs0mg"},{"bike_id":"7b67df80-ff98-4790-9c6a-3ba602799884","system_id":"levelo_inurba_marseille","lat":43.292311,"lon":5.360731,"is_reserved":false,"is_disabled":false,"rental_uris":{"android":"levelo://app?vid=7b67df80-ff98-4790-9c6a-3ba602799884","ios":"levelo://app?vid=7b67df80-ff98-4790-9c6a-3ba602799884"},"vehicle_type_id":"4","last_reported":1717330397,"current_range_meters":21200,"station_id":"ce4bhbh2rcd13ifvqeqg","pricing_plan_id":"cebpf4jnsgd1na2vs0mg"},{"bike_id":"11f5ce76-26d5-41b4-a3c9-e90c5eac3ba3","system_id":"levelo_inurba_marseille","lat":43.29218,"lon":5.36056,"is_reserved":false,"is_disabled":false,"rental_uris":{"android":"levelo://app?vid=11f5ce76-26d5-41b4-a3c9-e90c5eac3ba3","ios":"levelo://app?vid=11f5ce76-26d5-41b4-a3c9-e90c5eac3ba3"},"vehicle_type_id":"4","last_reported":1717330397,"current_range_meters":20000,"station_id":"ce4bhbh2rcd13ifvqeqg","pricing_plan_id":"cebpf4jnsgd1na2vs0mg"},{"bike_id":"adbaf821-a242-4171-8354-fab49093beb2","system_id":"levelo_inurba_marseille","lat":43.298764,"lon":5.388973,"is_reserved":false,"is_disabled":false,"rental_uris":{"android":"levelo://app?vid=adbaf821-a242-4171-8354-fab49093beb2","ios":"levelo://app?vid=adbaf821-a242-4171-8354-fab49093beb2"},"vehicle_type_id":"4","last_reported":1717330397,"current_range_meters":13600,"station_id":"ce4bh392rcd13ifvqdl0","pricing_plan_id":"cebpf4jnsgd1na2vs0mg"},{"bike_id":"79b7212d-85f2-45a1-9722-c26ff4dc1b9c","system_id":"levelo_inurba_marseille","lat":43.298764,"lon":5.388973,"is_reserved":false,"is_disabled":false,"rental_uris":{"android":"levelo://app?vid=79b7212d-85f2-45a1-9722-c26ff4dc1b9c","ios":"levelo://app?vid=79b7212d-85f2-45a1-9722-c26ff4dc1b9c"},"vehicle_type_id":"4","last_reported":1717330397,"current_range_meters":15600,"station_id":"ce4bh392rcd13ifvqdl0","pricing_plan_id":"cebpf4jnsgd1na2vs0mg"},{"bike_id":"ffde0504-c76a-4ff3-aef8-7933d31b501c","system_id":"levelo_inurba_marseille","lat":43.291994,"lon":5.357886,"is_reserved":false,"is_disabled":false,"rental_uris":{"android":"levelo://app?vid=ffde0504-c76a-4ff3-aef8-7933d31b501c","ios":"levelo://app?vid=ffde0504-c76a-4ff3-aef8-7933d31b501c"},"vehicle_type_id":"4","last_reported":1717330397,"current_range_meters":28000,"station_id":"ce4bhb12rcd13ifvqel0","pricing_plan_id":"cebpf4jnsgd1na2vs0mg"},{"bike_id":"c79b26a2-17ae-4f64-84b2-ed9b2024e020","system_id":"levelo_inurba_marseille","lat":43.291994,"lon":5.357886,"is_reserved":false,"is_disabled":false,"rental_uris":{"android":"levelo://app?vid=c79b26a2-17ae-4f64-84b2-ed9b2024e020","ios":"levelo://app?vid=c79b26a2-17ae-4f64-84b2-ed9b2024e020"},"vehicle_type_id":"4","last_reported":1717330397,"current_range_meters":4000,"station_id":"ce4bhb12rcd13ifvqel0","pricing_plan_id":"cebpf4jnsgd1na2vs0mg"},{"bike_id":"5e775000-11bc-465e-aa92-c43cfa5364e7","system_id":"levelo_inurba_marseille","lat":43.292005,"lon":5.357875,"is_reserved":false,"is_disabled":false,"rental_uris":{"android":"levelo://app?vid=5e775000-11bc-465e-aa92-c43cfa5364e7","ios":"levelo://app?vid=5e775000-11bc-465e-aa92-c43cfa5364e7"},"vehicle_type_id":"4","last_reported":1717330397,"current_range_meters":16000,"station_id":"ce4bhb12rcd13ifvqel0","pricing_plan_id":"cebpf4jnsgd1na2vs0mg"},{"bike_id":"180b2d4b-1559-4460-b3cd-c33d04fca494","system_id":"levelo_inurba_marseille","lat":43.292005,"lon":5.357875,"is_reserved":false,"is_disabled":false,"rental_uris":{"android":"levelo://app?vid=180b2d4b-1559-4460-b3cd-c33d04fca494","ios":"levelo://app?vid=180b2d4b-1559-4460-b3cd-c33d04fca494"},"vehicle_type_id":"4","last_reported":1717330397,"current_range_meters":4800,"station_id":"ce4bhb12rcd13ifvqel0","pricing_plan_id":"cebpf4jnsgd1na2vs0mg"},{"bike_id":"88d85188-9462-4941-8600-f60d2bfd0bdf","system_id":"levelo_inurba_marseille","lat":43.3132,"lon":5.39688,"is_reserved":false,"is_disabled":false,"rental_uris":{"android":"levelo://app?vid=88d85188-9462-4941-8600-f60d2bfd0bdf","ios":"levelo://app?vid=88d85188-9462-4941-8600-f60d2bfd0bdf"},"vehicle_type_id":"4","last_reported":1717330397,"current_range_meters":19200,"station_id":"","pricing_plan_id":"cebpf4jnsgd1na2vs0mg"},{"bike_id":"d05795d6-a7fc-4617-8435-007b556f6a84","system_id":"levelo_inurba_marseille","lat":43.292005,"lon":5.357875,"is_reserved":false,"is_disabled":false,"rental_uris":{"android":"levelo://app?vid=d05795d6-a7fc-4617-8435-007b556f6a84","ios":"levelo://app?vid=d05795d6-a7fc-4617-8435-007b556f6a84"},"vehicle_type_id":"4","last_reported":1717330397,"current_range_meters":18400,"station_id":"ce4bhb12rcd13ifvqel0","pricing_plan_id":"cebpf4jnsgd1na2vs0mg"},{"bike_id":"ec8cb121-d69e-43b4-a1a5-ba214a0aba55","system_id":"levelo_inurba_marseille","lat":43.292005,"lon":5.357875,"is_reserved":false,"is_disabled":false,"rental_uris":{"android":"levelo://app?vid=ec8cb121-d69e-43b4-a1a5-ba214a0aba55","ios":"levelo://app?vid=ec8cb121-d69e-43b4-a1a5-ba214a0aba55"},"vehicle_type_id":"4","last_reported":1717330397,"current_range_meters":16400,"station_id":"ce4bhb12rcd13ifvqel0","pricing_plan_id":"cebpf4jnsgd1na2vs0mg"},{"bike_id":"07dc17ca-a3d9-46b6-8684-adbfc5f9e2bd","system_id":"levelo_inurba_marseille","lat":43.313291,"lon":5.396838,"is_reserved":false,"is_disabled":false,"rental_uris":{"android":"levelo://app?vid=07dc17ca-a3d9-46b6-8684-adbfc5f9e2bd","ios":"levelo://app?vid=07dc17ca-a3d9-46b6-8684-adbfc5f9e2bd"},"vehicle_type_id":"4","last_reported":1717330397,"current_range_meters":8400,"station_id":"ce4bgvp2rcd13ifvqcu0","pricing_plan_id":"cebpf4jnsgd1na2vs0mg"},{"bike_id":"4d3c82a3-c6c6-4d5c-a61a-301f82f9bcdc","system_id":"levelo_inurba_marseille","lat":43.313291,"lon":5.396838,"is_reserved":false,"is_disabled":false,"rental_uris":{"android":"levelo://app?vid=4d3c82a3-c6c6-4d5c-a61a-301f82f9bcdc","ios":"levelo://app?vid=4d3c82a3-c6c6-4d5c-a61a-301f82f9bcdc"},"vehicle_type_id":"4","last_reported":1717330397,"current_range_meters":28400,"station_id":"ce4bgvp2rcd13ifvqcu0","pricing_plan_id":"cebpf4jnsgd1na2vs0mg"},{"bike_id":"f2a17545-c231-4813-a9e4-a3fa92e0c141","system_id":"levelo_inurba_marseille","lat":43.309038,"lon":5.396546,"is_reserved":false,"is_disabled":false,"rental_uris":{"android":"levelo://app?vid=f2a17545-c231-4813-a9e4-a3fa92e0c141","ios":"levelo://app?vid=f2a17545-c231-4813-a9e4-a3fa92e0c141"},"vehicle_type_id":"4","last_reported":1717330397,"current_range_meters":19200,"station_id":"ce4bh012rcd13ifvqcv0","pricing_plan_id":"cebpf4jnsgd1na2vs0mg"},{"bike_id":"b234367e-9283-4fc6-aeb9-3ded05c7f6c6","system_id":"levelo_inurba_marseille","lat":43.29191,"lon":5.3576,"is_reserved":false,"is_disabled":false,"rental_uris":{"android":"levelo://app?vid=b234367e-9283-4fc6-aeb9-3ded05c7f6c6","ios":"levelo://app?vid=b234367e-9283-4fc6-aeb9-3ded05c7f6c6"},"vehicle_type_id":"4","last_reported":1717330397,"current_range_meters":15200,"station_id":"ce4bhhh2rcd13ifvqfk0","pricing_plan_id":"cebpf4jnsgd1na2vs0mg"},{"bike_id":"0f15ea4f-2dbf-4061-971f-c28433ff3ea5","system_id":"levelo_inurba_marseille","lat":43.29529,"lon":5.385581,"is_reserved":false,"is_disabled":false,"rental_uris":{"android":"levelo://app?vid=0f15ea4f-2dbf-4061-971f-c28433ff3ea5","ios":"levelo://app?vid=0f15ea4f-2dbf-4061-971f-c28433ff3ea5"},"vehicle_type_id":"4","last_reported":1717330397,"current_range_meters":8800,"station_id":"ce4bgih2rcd13ifvqba0","pricing_plan_id":"cebpf4jnsgd1na2vs0mg"},{"bike_id":"4f202f24-459c-4582-890b-d6af5008bf5f","system_id":"levelo_inurba_marseille","lat":43.30213,"lon":5.39457,"is_reserved":false,"is_disabled":false,"rental_uris":{"android":"levelo://app?vid=4f202f24-459c-4582-890b-d6af5008bf5f","ios":"levelo://app?vid=4f202f24-459c-4582-890b-d6af5008bf5f"},"vehicle_type_id":"4","last_reported":1717330397,"current_range_meters":0,"station_id":"ce4bh0p2rcd13ifvqd70","pricing_plan_id":"cebpf4jnsgd1na2vs0mg"},{"bike_id":"7f78e6ab-d456-4ce2-a5ab-aedbb8aaa384","system_id":"levelo_inurba_marseille","lat":43.290624,"lon":5.359245,"is_reserved":false,"is_disabled":false,"rental_uris":{"android":"levelo://app?vid=7f78e6ab-d456-4ce2-a5ab-aedbb8aaa384","ios":"levelo://app?vid=7f78e6ab-d456-4ce2-a5ab-aedbb8aaa384"},"vehicle_type_id":"4","last_reported":1717330397,"current_range_meters":6000,"station_id":"ce4bha92rcd13ifvqeg0","pricing_plan_id":"cebpf4jnsgd1na2vs0mg"},{"bike_id":"61c17fc2-7e88-4e05-b551-e6c462ec2b51","system_id":"levelo_inurba_marseille","lat":43.290624,"lon":5.359245,"is_reserved":false,"is_disabled":false,"rental_uris":{"android":"levelo://app?vid=61c17fc2-7e88-4e05-b551-e6c462ec2b51","ios":"levelo://app?vid=61c17fc2-7e88-4e05-b551-e6c462ec2b51"},"vehicle_type_id":"4","last_reported":1717330397,"current_range_meters":12400,"station_id":"ce4bha92rcd13ifvqeg0","pricing_plan_id":"cebpf4jnsgd1na2vs0mg"},{"bike_id":"974798a7-8ca6-46a9-8b5a-8449975505f8","system_id":"levelo_inurba_marseille","lat":43.290631,"lon":5.359244,"is_reserved":false,"is_disabled":false,"rental_uris":{"android":"levelo://app?vid=974798a7-8ca6-46a9-8b5a-8449975505f8","ios":"levelo://app?vid=974798a7-8ca6-46a9-8b5a-8449975505f8"},"vehicle_type_id":"4","last_reported":1717330397,"current_range_meters":25600,"station_id":"ce4bha92rcd13ifvqeg0","pricing_plan_id":"cebpf4jnsgd1na2vs0mg"},{"bike_id":"89e1b178-e2df-41fd-8b5d-17361dba6ab3","system_id":"levelo_inurba_marseille","lat":43.290631,"lon":5.359244,"is_reserved":false,"is_disabled":false,"rental_uris":{"android":"levelo://app?vid=89e1b178-e2df-41fd-8b5d-17361dba6ab3","ios":"levelo://app?vid=89e1b178-e2df-41fd-8b5d-17361dba6ab3"},"vehicle_type_id":"4","last_reported":1717330397,"current_range_meters":17600,"station_id":"ce4bha92rcd13ifvqeg0","pricing_plan_id":"cebpf4jnsgd1na2vs0mg"},{"bike_id":"76f6672f-4d66-440c-885b-38c9d75cc355","system_id":"levelo_inurba_marseille","lat":43.289184,"lon":5.366408,"is_reserved":false,"is_disabled":false,"rental_uris":{"android":"levelo://app?vid=76f6672f-4d66-440c-885b-38c9d75cc355","ios":"levelo://app?vid=76f6672f-4d66-440c-885b-38c9d75cc355"},"vehicle_type_id":"4","last_reported":1717330397,"current_range_meters":2400,"station_id":"ce4bhap2rcd13ifvqek0","pricing_plan_id":"cebpf4jnsgd1na2vs0mg"},{"bike_id":"0978995d-ff04-4924-920e-281338c49ec3","system_id":"levelo_inurba_marseille","lat":43.290767,"lon":5.35604,"is_reserved":false,"is_disabled":false,"rental_uris":{"android":"levelo://app?vid=0978995d-ff04-4924-920e-281338c49ec3","ios":"levelo://app?vid=0978995d-ff04-4924-920e-281338c49ec3"},"vehicle_type_id":"4","last_reported":1717330397,"current_range_meters":2400,"station_id":"ce4bhb92rcd13ifvqen0","pricing_plan_id":"cebpf4jnsgd1na2vs0mg"},{"bike_id":"0a7ad729-2ce1-4d35-ae0c-1b7d252df111","system_id":"levelo_inurba_marseille","lat":43.313291,"lon":5.396838,"is_reserved":false,"is_disabled":false,"rental_uris":{"android":"levelo://app?vid=0a7ad729-2ce1-4d35-ae0c-1b7d252df111","ios":"levelo://app?vid=0a7ad729-2ce1-4d35-ae0c-1b7d252df111"},"vehicle_type_id":"4","last_reported":1717330397,"current_range_meters":800,"station_id":"ce4bgvp2rcd13ifvqcu0","pricing_plan_id":"cebpf4jnsgd1na2vs0mg"},{"bike_id":"1d50cbaa-4009-44c3-8550-b4dd8e5d71be","system_id":"levelo_inurba_marseille","lat":43.292852,"lon":5.384699,"is_reserved":false,"is_disabled":false,"rental_uris":{"android":"levelo://app?vid=1d50cbaa-4009-44c3-8550-b4dd8e5d71be","ios":"levelo://app?vid=1d50cbaa-4009-44c3-8550-b4dd8e5d71be"},"vehicle_type_id":"4","last_reported":1717330397,"current_range_meters":0,"station_id":"ce4bh692rcd13ifvqea0","pricing_plan_id":"cebpf4jnsgd1na2vs0mg"},{"bike_id":"af9b92c9-4764-4d17-a29a-86ec983509df","system_id":"levelo_inurba_marseille","lat":43.290103,"lon":5.356114,"is_reserved":false,"is_disabled":false,"rental_uris":{"android":"levelo://app?vid=af9b92c9-4764-4d17-a29a-86ec983509df","ios":"levelo://app?vid=af9b92c9-4764-4d17-a29a-86ec983509df"},"vehicle_type_id":"4","last_reported":1717330397,"current_range_meters":14000,"station_id":"ce4bhb92rcd13ifvqen0","pricing_plan_id":"cebpf4jnsgd1na2vs0mg"},{"bike_id":"c597ca23-9dd9-46ae-bf83-db35c91e6eb2","system_id":"levelo_inurba_marseille","lat":43.290084,"lon":5.356159,"is_reserved":false,"is_disabled":false,"rental_uris":{"android":"levelo://app?vid=c597ca23-9dd9-46ae-bf83-db35c91e6eb2","ios":"levelo://app?vid=c597ca23-9dd9-46ae-bf83-db35c91e6eb2"},"vehicle_type_id":"4","last_reported":1717330397,"current_range_meters":25200,"station_id":"ce4bhb92rcd13ifvqen0","pricing_plan_id":"cebpf4jnsgd1na2vs0mg"},{"bike_id":"97edb003-826e-4aad-8430-26d1d41d022a","system_id":"levelo_inurba_marseille","lat":43.290104,"lon":5.356111,"is_reserved":false,"is_disabled":false,"rental_uris":{"android":"levelo://app?vid=97edb003-826e-4aad-8430-26d1d41d022a","ios":"levelo://app?vid=97edb003-826e-4aad-8430-26d1d41d022a"},"vehicle_type_id":"4","last_reported":1717330397,"current_range_meters":2800,"station_id":"ce4bhb92rcd13ifvqen0","pricing_plan_id":"cebpf4jnsgd1na2vs0mg"},{"bike_id":"e164f054-a0ac-43a9-88fa-639dd20a3239","system_id":"levelo_inurba_marseille","lat":43.290103,"lon":5.356114,"is_reserved":false,"is_disabled":false,"rental_uris":{"android":"levelo://app?vid=e164f054-a0ac-43a9-88fa-639dd20a3239","ios":"levelo://app?vid=e164f054-a0ac-43a9-88fa-639dd20a3239"},"vehicle_type_id":"4","last_reported":1717330397,"current_range_meters":0,"station_id":"ce4bhb92rcd13ifvqen0","pricing_plan_id":"cebpf4jnsgd1na2vs0mg"},{"bike_id":"ff5a4b7c-c27b-4adb-a892-2c012dc25bb2","system_id":"levelo_inurba_marseille","lat":43.290103,"lon":5.356114,"is_reserved":false,"is_disabled":false,"rental_uris":{"android":"levelo://app?vid=ff5a4b7c-c27b-4adb-a892-2c012dc25bb2","ios":"levelo://app?vid=ff5a4b7c-c27b-4adb-a892-2c012dc25bb2"},"vehicle_type_id":"4","last_reported":1717330397,"current_range_meters":800,"station_id":"ce4bhb92rcd13ifvqen0","pricing_plan_id":"cebpf4jnsgd1na2vs0mg"},{"bike_id":"74b5dc04-e7e2-47ce-8387-5a722cf34592","system_id":"levelo_inurba_marseille","lat":43.29007,"lon":5.3561,"is_reserved":false,"is_disabled":false,"rental_uris":{"android":"levelo://app?vid=74b5dc04-e7e2-47ce-8387-5a722cf34592","ios":"levelo://app?vid=74b5dc04-e7e2-47ce-8387-5a722cf34592"},"vehicle_type_id":"4","last_reported":1717330397,"current_range_meters":9200,"station_id":"ce4bhb92rcd13ifvqen0","pricing_plan_id":"cebpf4jnsgd1na2vs0mg"},{"bike_id":"cada6192-73d0-4760-8172-2adb1979aa0b","system_id":"levelo_inurba_marseille","lat":43.290104,"lon":5.356111,"is_reserved":false,"is_disabled":false,"rental_uris":{"android":"levelo://app?vid=cada6192-73d0-4760-8172-2adb1979aa0b","ios":"levelo://app?vid=cada6192-73d0-4760-8172-2adb1979aa0b"},"vehicle_type_id":"4","last_reported":1717330397,"current_range_meters":21600,"station_id":"ce4bhb92rcd13ifvqen0","pricing_plan_id":"cebpf4jnsgd1na2vs0mg"},{"bike_id":"cbedc61d-24fb-4948-881b-ab4eb3619bf7","system_id":"levelo_inurba_marseille","lat":43.290103,"lon":5.356114,"is_reserved":false,"is_disabled":false,"rental_uris":{"android":"levelo://app?vid=cbedc61d-24fb-4948-881b-ab4eb3619bf7","ios":"levelo://app?vid=cbedc61d-24fb-4948-881b-ab4eb3619bf7"},"vehicle_type_id":"4","last_reported":1717330397,"current_range_meters":400,"station_id":"ce4bhb92rcd13ifvqen0","pricing_plan_id":"cebpf4jnsgd1na2vs0mg"},{"bike_id":"71dd503a-5b9a-44b0-9a44-77fd7dc47423","system_id":"levelo_inurba_marseille","lat":43.29004,"lon":5.35616,"is_reserved":false,"is_disabled":false,"rental_uris":{"android":"levelo://app?vid=71dd503a-5b9a-44b0-9a44-77fd7dc47423","ios":"levelo://app?vid=71dd503a-5b9a-44b0-9a44-77fd7dc47423"},"vehicle_type_id":"4","last_reported":1717330397,"current_range_meters":0,"station_id":"ce4bhb92rcd13ifvqen0","pricing_plan_id":"cebpf4jnsgd1na2vs0mg"},{"bike_id":"56384678-ef3f-4434-9c7b-8e69a7b8571e","system_id":"levelo_inurba_marseille","lat":43.290104,"lon":5.356111,"is_reserved":false,"is_disabled":false,"rental_uris":{"android":"levelo://app?vid=56384678-ef3f-4434-9c7b-8e69a7b8571e","ios":"levelo://app?vid=56384678-ef3f-4434-9c7b-8e69a7b8571e"},"vehicle_type_id":"4","last_reported":1717330397,"current_range_meters":0,"station_id":"ce4bhb92rcd13ifvqen0","pricing_plan_id":"cebpf4jnsgd1na2vs0mg"},{"bike_id":"7844c091-1bc2-4b98-987b-dc5f819e02df","system_id":"levelo_inurba_marseille","lat":43.29004,"lon":5.3561,"is_reserved":false,"is_disabled":false,"rental_uris":{"android":"levelo://app?vid=7844c091-1bc2-4b98-987b-dc5f819e02df","ios":"levelo://app?vid=7844c091-1bc2-4b98-987b-dc5f819e02df"},"vehicle_type_id":"4","last_reported":1717330397,"current_range_meters":22800,"station_id":"ce4bhb92rcd13ifvqen0","pricing_plan_id":"cebpf4jnsgd1na2vs0mg"},{"bike_id":"d21b7cab-1678-4eb9-872a-4dea3a5eb47b","system_id":"levelo_inurba_marseille","lat":43.29001,"lon":5.35621,"is_reserved":false,"is_disabled":false,"rental_uris":{"android":"levelo://app?vid=d21b7cab-1678-4eb9-872a-4dea3a5eb47b","ios":"levelo://app?vid=d21b7cab-1678-4eb9-872a-4dea3a5eb47b"},"vehicle_type_id":"4","last_reported":1717330397,"current_range_meters":22400,"station_id":"ce4bhb92rcd13ifvqen0","pricing_plan_id":"cebpf4jnsgd1na2vs0mg"},{"bike_id":"024a687e-e617-41f7-9281-67aefe279814","system_id":"levelo_inurba_marseille","lat":43.290104,"lon":5.356111,"is_reserved":false,"is_disabled":false,"rental_uris":{"android":"levelo://app?vid=024a687e-e617-41f7-9281-67aefe279814","ios":"levelo://app?vid=024a687e-e617-41f7-9281-67aefe279814"},"vehicle_type_id":"4","last_reported":1717330397,"current_range_meters":9600,"station_id":"ce4bhb92rcd13ifvqen0","pricing_plan_id":"cebpf4jnsgd1na2vs0mg"},{"bike_id":"f76a9841-94d0-4614-aeea-074bfe0d9c6e","system_id":"levelo_inurba_marseille","lat":43.290104,"lon":5.356111,"is_reserved":false,"is_disabled":false,"rental_uris":{"android":"levelo://app?vid=f76a9841-94d0-4614-aeea-074bfe0d9c6e","ios":"levelo://app?vid=f76a9841-94d0-4614-aeea-074bfe0d9c6e"},"vehicle_type_id":"4","last_reported":1717330397,"current_range_meters":2800,"station_id":"ce4bhb92rcd13ifvqen0","pricing_plan_id":"cebpf4jnsgd1na2vs0mg"},{"bike_id":"24fc5f4e-bc09-4e8e-b7c0-028a397effa2","system_id":"levelo_inurba_marseille","lat":43.330442,"lon":5.389148,"is_reserved":false,"is_disabled":false,"rental_uris":{"android":"levelo://app?vid=24fc5f4e-bc09-4e8e-b7c0-028a397effa2","ios":"levelo://app?vid=24fc5f4e-bc09-4e8e-b7c0-028a397effa2"},"vehicle_type_id":"4","last_reported":1717330397,"current_range_meters":24000,"station_id":"ce4bhr92rcd13ifvqhrg","pricing_plan_id":"cebpf4jnsgd1na2vs0mg"},{"bike_id":"88fb9920-0950-4a77-b3aa-ee89c9258253","system_id":"levelo_inurba_marseille","lat":43.330442,"lon":5.389148,"is_reserved":false,"is_disabled":false,"rental_uris":{"android":"levelo://app?vid=88fb9920-0950-4a77-b3aa-ee89c9258253","ios":"levelo://app?vid=88fb9920-0950-4a77-b3aa-ee89c9258253"},"vehicle_type_id":"4","last_reported":1717330397,"current_range_meters":12800,"station_id":"ce4bhr92rcd13ifvqhrg","pricing_plan_id":"cebpf4jnsgd1na2vs0mg"},{"bike_id":"5f7b7019-2ba7-4120-b116-71e7e080ed85","system_id":"levelo_inurba_marseille","lat":43.330442,"lon":5.389148,"is_reserved":false,"is_disabled":false,"rental_uris":{"android":"levelo://app?vid=5f7b7019-2ba7-4120-b116-71e7e080ed85","ios":"levelo://app?vid=5f7b7019-2ba7-4120-b116-71e7e080ed85"},"vehicle_type_id":"4","last_reported":1717330397,"current_range_meters":10800,"station_id":"ce4bhr92rcd13ifvqhrg","pricing_plan_id":"cebpf4jnsgd1na2vs0mg"},{"bike_id":"6de3de0d-3643-4211-80de-9cb8097479b1","system_id":"levelo_inurba_marseille","lat":43.2901,"lon":5.381269,"is_reserved":false,"is_disabled":false,"rental_uris":{"android":"levelo://app?vid=6de3de0d-3643-4211-80de-9cb8097479b1","ios":"levelo://app?vid=6de3de0d-3643-4211-80de-9cb8097479b1"},"vehicle_type_id":"4","last_reported":1717330397,"current_range_meters":29600,"station_id":"ce4bh4p2rcd13ifvqe1g","pricing_plan_id":"cebpf4jnsgd1na2vs0mg"},{"bike_id":"ba7f4007-486d-45d4-902b-2043a00bd51e","system_id":"levelo_inurba_marseille","lat":43.28856,"lon":5.358371,"is_reserved":false,"is_disabled":false,"rental_uris":{"android":"levelo://app?vid=ba7f4007-486d-45d4-902b-2043a00bd51e","ios":"levelo://app?vid=ba7f4007-486d-45d4-902b-2043a00bd51e"},"vehicle_type_id":"4","last_reported":1717330397,"current_range_meters":20400,"station_id":"ce4bhb12rcd13ifvqem0","pricing_plan_id":"cebpf4jnsgd1na2vs0mg"},{"bike_id":"30ad26ce-b8a7-4bf2-b807-6cb972b78d47","system_id":"levelo_inurba_marseille","lat":43.28856,"lon":5.358371,"is_reserved":false,"is_disabled":false,"rental_uris":{"android":"levelo://app?vid=30ad26ce-b8a7-4bf2-b807-6cb972b78d47","ios":"levelo://app?vid=30ad26ce-b8a7-4bf2-b807-6cb972b78d47"},"vehicle_type_id":"4","last_reported":1717330397,"current_range_meters":17600,"station_id":"ce4bhb12rcd13ifvqem0","pricing_plan_id":"cebpf4jnsgd1na2vs0mg"},{"bike_id":"c812960d-831c-4855-a2f3-900170b76aef","system_id":"levelo_inurba_marseille","lat":43.28856,"lon":5.358371,"is_reserved":false,"is_disabled":false,"rental_uris":{"android":"levelo://app?vid=c812960d-831c-4855-a2f3-900170b76aef","ios":"levelo://app?vid=c812960d-831c-4855-a2f3-900170b76aef"},"vehicle_type_id":"4","last_reported":1717330397,"current_range_meters":7200,"station_id":"ce4bhb12rcd13ifvqem0","pricing_plan_id":"cebpf4jnsgd1na2vs0mg"},{"bike_id":"94241b89-be14-4ed4-9e17-e498b3a99b2f","system_id":"levelo_inurba_marseille","lat":43.33148,"lon":5.38987,"is_reserved":false,"is_disabled":false,"rental_uris":{"android":"levelo://app?vid=94241b89-be14-4ed4-9e17-e498b3a99b2f","ios":"levelo://app?vid=94241b89-be14-4ed4-9e17-e498b3a99b2f"},"vehicle_type_id":"4","last_reported":1717330397,"current_range_meters":6400,"station_id":"","pricing_plan_id":"cebpf4jnsgd1na2vs0mg"},{"bike_id":"4aa79431-920e-422d-8a07-a9c84a5ca538","system_id":"levelo_inurba_marseille","lat":43.28919,"lon":5.35448,"is_reserved":false,"is_disabled":false,"rental_uris":{"android":"levelo://app?vid=4aa79431-920e-422d-8a07-a9c84a5ca538","ios":"levelo://app?vid=4aa79431-920e-422d-8a07-a9c84a5ca538"},"vehicle_type_id":"4","last_reported":1717330397,"current_range_meters":8400,"station_id":"ce4bhbh2rcd13ifvqepg","pricing_plan_id":"cebpf4jnsgd1na2vs0mg"},{"bike_id":"07b9d623-a7a4-4368-b222-7de7766e7c41","system_id":"levelo_inurba_marseille","lat":43.309371,"lon":5.401449,"is_reserved":false,"is_disabled":false,"rental_uris":{"android":"levelo://app?vid=07b9d623-a7a4-4368-b222-7de7766e7c41","ios":"levelo://app?vid=07b9d623-a7a4-4368-b222-7de7766e7c41"},"vehicle_type_id":"4","last_reported":1717330397,"current_range_meters":22400,"station_id":"ce4bgvp2rcd13ifvqct0","pricing_plan_id":"cebpf4jnsgd1na2vs0mg"},{"bike_id":"70336684-2491-47b8-934e-07935dc3c5bf","system_id":"levelo_inurba_marseille","lat":43.309371,"lon":5.401449,"is_reserved":false,"is_disabled":false,"rental_uris":{"android":"levelo://app?vid=70336684-2491-47b8-934e-07935dc3c5bf","ios":"levelo://app?vid=70336684-2491-47b8-934e-07935dc3c5bf"},"vehicle_type_id":"4","last_reported":1717330397,"current_range_meters":20800,"station_id":"ce4bgvp2rcd13ifvqct0","pricing_plan_id":"cebpf4jnsgd1na2vs0mg"},{"bike_id":"b52ae11e-259d-44a3-8075-16f3bbfc428c","system_id":"levelo_inurba_marseille","lat":43.312609,"lon":5.401662,"is_reserved":false,"is_disabled":false,"rental_uris":{"android":"levelo://app?vid=b52ae11e-259d-44a3-8075-16f3bbfc428c","ios":"levelo://app?vid=b52ae11e-259d-44a3-8075-16f3bbfc428c"},"vehicle_type_id":"4","last_reported":1717330397,"current_range_meters":23200,"station_id":"ce4bh092rcd13ifvqd30","pricing_plan_id":"cebpf4jnsgd1na2vs0mg"},{"bike_id":"1f693dbf-7bf2-4d4d-a9cc-ac440e8341b6","system_id":"levelo_inurba_marseille","lat":43.309371,"lon":5.401449,"is_reserved":false,"is_disabled":false,"rental_uris":{"android":"levelo://app?vid=1f693dbf-7bf2-4d4d-a9cc-ac440e8341b6","ios":"levelo://app?vid=1f693dbf-7bf2-4d4d-a9cc-ac440e8341b6"},"vehicle_type_id":"4","last_reported":1717330397,"current_range_meters":0,"station_id":"ce4bgvp2rcd13ifvqct0","pricing_plan_id":"cebpf4jnsgd1na2vs0mg"},{"bike_id":"26e88c15-1ebf-4978-814d-f8bc280f73dc","system_id":"levelo_inurba_marseille","lat":43.33743,"lon":5.37483,"is_reserved":false,"is_disabled":false,"rental_uris":{"android":"levelo://app?vid=26e88c15-1ebf-4978-814d-f8bc280f73dc","ios":"levelo://app?vid=26e88c15-1ebf-4978-814d-f8bc280f73dc"},"vehicle_type_id":"4","last_reported":1717330397,"current_range_meters":27600,"station_id":"","pricing_plan_id":"cebpf4jnsgd1na2vs0mg"},{"bike_id":"5e4a7bbd-79ec-4d01-b4bd-a67b4f24cdb1","system_id":"levelo_inurba_marseille","lat":43.28875,"lon":5.35551,"is_reserved":false,"is_disabled":false,"rental_uris":{"android":"levelo://app?vid=5e4a7bbd-79ec-4d01-b4bd-a67b4f24cdb1","ios":"levelo://app?vid=5e4a7bbd-79ec-4d01-b4bd-a67b4f24cdb1"},"vehicle_type_id":"4","last_reported":1717330397,"current_range_meters":30000,"station_id":"","pricing_plan_id":"cebpf4jnsgd1na2vs0mg"},{"bike_id":"2eebedf4-d79f-4dab-9c8b-143eb3c80330","system_id":"levelo_inurba_marseille","lat":43.306412,"lon":5.401035,"is_reserved":false,"is_disabled":false,"rental_uris":{"android":"levelo://app?vid=2eebedf4-d79f-4dab-9c8b-143eb3c80330","ios":"levelo://app?vid=2eebedf4-d79f-4dab-9c8b-143eb3c80330"},"vehicle_type_id":"4","last_reported":1717330397,"current_range_meters":24400,"station_id":"ce4bh112rcd13ifvqda0","pricing_plan_id":"cebpf4jnsgd1na2vs0mg"},{"bike_id":"cacd2949-8b2e-41e9-bda3-e7f113b2f452","system_id":"levelo_inurba_marseille","lat":43.30642,"lon":5.401031,"is_reserved":false,"is_disabled":false,"rental_uris":{"android":"levelo://app?vid=cacd2949-8b2e-41e9-bda3-e7f113b2f452","ios":"levelo://app?vid=cacd2949-8b2e-41e9-bda3-e7f113b2f452"},"vehicle_type_id":"4","last_reported":1717330397,"current_range_meters":0,"station_id":"ce4bh112rcd13ifvqda0","pricing_plan_id":"cebpf4jnsgd1na2vs0mg"},{"bike_id":"cb720985-b9b8-40bf-8a40-ec43abc31800","system_id":"levelo_inurba_marseille","lat":43.301117,"lon":5.398795,"is_reserved":false,"is_disabled":false,"rental_uris":{"android":"levelo://app?vid=cb720985-b9b8-40bf-8a40-ec43abc31800","ios":"levelo://app?vid=cb720985-b9b8-40bf-8a40-ec43abc31800"},"vehicle_type_id":"4","last_reported":1717330397,"current_range_meters":10000,"station_id":"ce4bh0h2rcd13ifvqd40","pricing_plan_id":"cebpf4jnsgd1na2vs0mg"},{"bike_id":"d2544132-74e5-4ded-a654-d299b86c3783","system_id":"levelo_inurba_marseille","lat":43.298681,"lon":5.397225,"is_reserved":false,"is_disabled":false,"rental_uris":{"android":"levelo://app?vid=d2544132-74e5-4ded-a654-d299b86c3783","ios":"levelo://app?vid=d2544132-74e5-4ded-a654-d299b86c3783"},"vehicle_type_id":"4","last_reported":1717330397,"current_range_meters":400,"station_id":"ce4bh0h2rcd13ifvqd50","pricing_plan_id":"cebpf4jnsgd1na2vs0mg"},{"bike_id":"4128b5ef-4ccb-4136-ab2d-d6e5ae481212","system_id":"levelo_inurba_marseille","lat":43.286961,"lon":5.373785,"is_reserved":false,"is_disabled":false,"rental_uris":{"android":"levelo://app?vid=4128b5ef-4ccb-4136-ab2d-d6e5ae481212","ios":"levelo://app?vid=4128b5ef-4ccb-4136-ab2d-d6e5ae481212"},"vehicle_type_id":"4","last_reported":1717330397,"current_range_meters":0,"station_id":"ce4bh3p2rcd13ifvqdq0","pricing_plan_id":"cebpf4jnsgd1na2vs0mg"},{"bike_id":"6a8a1337-5c66-40df-8f09-7382bcc4ecf3","system_id":"levelo_inurba_marseille","lat":43.286591,"lon":5.363346,"is_reserved":false,"is_disabled":false,"rental_uris":{"android":"levelo://app?vid=6a8a1337-5c66-40df-8f09-7382bcc4ecf3","ios":"levelo://app?vid=6a8a1337-5c66-40df-8f09-7382bcc4ecf3"},"vehicle_type_id":"4","last_reported":1717330397,"current_range_meters":0,"station_id":"ce4bhah2rcd13ifvqej0","pricing_plan_id":"cebpf4jnsgd1na2vs0mg"},{"bike_id":"a96361e9-89a0-4086-8089-a5a683bca096","system_id":"levelo_inurba_marseille","lat":43.290345,"lon":5.38646,"is_reserved":false,"is_disabled":false,"rental_uris":{"android":"levelo://app?vid=a96361e9-89a0-4086-8089-a5a683bca096","ios":"levelo://app?vid=a96361e9-89a0-4086-8089-a5a683bca096"},"vehicle_type_id":"4","last_reported":1717330397,"current_range_meters":18000,"station_id":"ce4bh4p2rcd13ifvqe0g","pricing_plan_id":"cebpf4jnsgd1na2vs0mg"},{"bike_id":"193d958b-a222-494d-a8ad-5ecaee1b46b8","system_id":"levelo_inurba_marseille","lat":43.302759,"lon":5.400793,"is_reserved":false,"is_disabled":false,"rental_uris":{"android":"levelo://app?vid=193d958b-a222-494d-a8ad-5ecaee1b46b8","ios":"levelo://app?vid=193d958b-a222-494d-a8ad-5ecaee1b46b8"},"vehicle_type_id":"4","last_reported":1717330397,"current_range_meters":29200,"station_id":"ce4bgvh2rcd13ifvqcs0","pricing_plan_id":"cebpf4jnsgd1na2vs0mg"},{"bike_id":"83544758-30a2-4306-8dcd-b0e9ec0bcd47","system_id":"levelo_inurba_marseille","lat":43.286039,"lon":5.370679,"is_reserved":false,"is_disabled":false,"rental_uris":{"android":"levelo://app?vid=83544758-30a2-4306-8dcd-b0e9ec0bcd47","ios":"levelo://app?vid=83544758-30a2-4306-8dcd-b0e9ec0bcd47"},"vehicle_type_id":"4","last_reported":1717330397,"current_range_meters":20000,"station_id":"ce4bht12rcd13ifvqi60","pricing_plan_id":"cebpf4jnsgd1na2vs0mg"},{"bike_id":"5ccbdcf9-5e91-4994-9581-9c54c8e11afc","system_id":"levelo_inurba_marseille","lat":43.290336,"lon":5.386425,"is_reserved":false,"is_disabled":false,"rental_uris":{"android":"levelo://app?vid=5ccbdcf9-5e91-4994-9581-9c54c8e11afc","ios":"levelo://app?vid=5ccbdcf9-5e91-4994-9581-9c54c8e11afc"},"vehicle_type_id":"4","last_reported":1717330397,"current_range_meters":7600,"station_id":"ce4bh4p2rcd13ifvqe0g","pricing_plan_id":"cebpf4jnsgd1na2vs0mg"},{"bike_id":"3084f16f-0fc9-442f-a939-02ec1cdc20a0","system_id":"levelo_inurba_marseille","lat":43.28727,"lon":5.37933,"is_reserved":false,"is_disabled":false,"rental_uris":{"android":"levelo://app?vid=3084f16f-0fc9-442f-a939-02ec1cdc20a0","ios":"levelo://app?vid=3084f16f-0fc9-442f-a939-02ec1cdc20a0"},"vehicle_type_id":"4","last_reported":1717330397,"current_range_meters":21200,"station_id":"ce4bh9p2rcd13ifvqec0","pricing_plan_id":"cebpf4jnsgd1na2vs0mg"},{"bike_id":"c18a8a98-a85e-4ae9-9f6c-6183f8ea2f3c","system_id":"levelo_inurba_marseille","lat":43.307497,"lon":5.403496,"is_reserved":false,"is_disabled":false,"rental_uris":{"android":"levelo://app?vid=c18a8a98-a85e-4ae9-9f6c-6183f8ea2f3c","ios":"levelo://app?vid=c18a8a98-a85e-4ae9-9f6c-6183f8ea2f3c"},"vehicle_type_id":"4","last_reported":1717330397,"current_range_meters":12400,"station_id":"","pricing_plan_id":"cebpf4jnsgd1na2vs0mg"},{"bike_id":"a8702027-ec03-4c69-b1d9-662e2bc5936e","system_id":"levelo_inurba_marseille","lat":43.287184,"lon":5.37937,"is_reserved":false,"is_disabled":false,"rental_uris":{"android":"levelo://app?vid=a8702027-ec03-4c69-b1d9-662e2bc5936e","ios":"levelo://app?vid=a8702027-ec03-4c69-b1d9-662e2bc5936e"},"vehicle_type_id":"4","last_reported":1717330397,"current_range_meters":0,"station_id":"ce4bh9p2rcd13ifvqec0","pricing_plan_id":"cebpf4jnsgd1na2vs0mg"},{"bike_id":"3b46e088-2e8b-453f-802e-181d8d8b3d44","system_id":"levelo_inurba_marseille","lat":43.316828,"lon":5.404723,"is_reserved":false,"is_disabled":false,"rental_uris":{"android":"levelo://app?vid=3b46e088-2e8b-453f-802e-181d8d8b3d44","ios":"levelo://app?vid=3b46e088-2e8b-453f-802e-181d8d8b3d44"},"vehicle_type_id":"4","last_reported":1717330397,"current_range_meters":18400,"station_id":"ce4bh012rcd13ifvqd00","pricing_plan_id":"cebpf4jnsgd1na2vs0mg"},{"bike_id":"1eaf0101-196a-4752-a328-7e8adf1c67e2","system_id":"levelo_inurba_marseille","lat":43.284703,"lon":5.358977,"is_reserved":false,"is_disabled":false,"rental_uris":{"android":"levelo://app?vid=1eaf0101-196a-4752-a328-7e8adf1c67e2","ios":"levelo://app?vid=1eaf0101-196a-4752-a328-7e8adf1c67e2"},"vehicle_type_id":"4","last_reported":1717330397,"current_range_meters":12000,"station_id":"ce4bhah2rcd13ifvqei0","pricing_plan_id":"cebpf4jnsgd1na2vs0mg"},{"bike_id":"255e6b58-d3ba-47fc-9ca9-1cfa3592ea00","system_id":"levelo_inurba_marseille","lat":43.28465,"lon":5.35899,"is_reserved":false,"is_disabled":false,"rental_uris":{"android":"levelo://app?vid=255e6b58-d3ba-47fc-9ca9-1cfa3592ea00","ios":"levelo://app?vid=255e6b58-d3ba-47fc-9ca9-1cfa3592ea00"},"vehicle_type_id":"4","last_reported":1717330397,"current_range_meters":2400,"station_id":"ce4bhah2rcd13ifvqei0","pricing_plan_id":"cebpf4jnsgd1na2vs0mg"},{"bike_id":"08ed50df-d886-4187-8b58-dd10b4ff7942","system_id":"levelo_inurba_marseille","lat":43.28465,"lon":5.35891,"is_reserved":false,"is_disabled":false,"rental_uris":{"android":"levelo://app?vid=08ed50df-d886-4187-8b58-dd10b4ff7942","ios":"levelo://app?vid=08ed50df-d886-4187-8b58-dd10b4ff7942"},"vehicle_type_id":"4","last_reported":1717330397,"current_range_meters":22400,"station_id":"ce4bhah2rcd13ifvqei0","pricing_plan_id":"cebpf4jnsgd1na2vs0mg"},{"bike_id":"57f609bc-a9e7-4885-86ee-87bcbab940e5","system_id":"levelo_inurba_marseille","lat":43.284534,"lon":5.358662,"is_reserved":false,"is_disabled":false,"rental_uris":{"android":"levelo://app?vid=57f609bc-a9e7-4885-86ee-87bcbab940e5","ios":"levelo://app?vid=57f609bc-a9e7-4885-86ee-87bcbab940e5"},"vehicle_type_id":"4","last_reported":1717330397,"current_range_meters":13200,"station_id":"ce4bhah2rcd13ifvqei0","pricing_plan_id":"cebpf4jnsgd1na2vs0mg"},{"bike_id":"19c4e313-ac11-4478-bf2a-1046e95faf80","system_id":"levelo_inurba_marseille","lat":43.28462,"lon":5.358852,"is_reserved":false,"is_disabled":false,"rental_uris":{"android":"levelo://app?vid=19c4e313-ac11-4478-bf2a-1046e95faf80","ios":"levelo://app?vid=19c4e313-ac11-4478-bf2a-1046e95faf80"},"vehicle_type_id":"4","last_reported":1717330397,"current_range_meters":17600,"station_id":"ce4bhah2rcd13ifvqei0","pricing_plan_id":"cebpf4jnsgd1na2vs0mg"},{"bike_id":"693ee0b8-8056-4da3-9cd7-a4f2df4f81ff","system_id":"levelo_inurba_marseille","lat":43.284534,"lon":5.358662,"is_reserved":false,"is_disabled":false,"rental_uris":{"android":"levelo://app?vid=693ee0b8-8056-4da3-9cd7-a4f2df4f81ff","ios":"levelo://app?vid=693ee0b8-8056-4da3-9cd7-a4f2df4f81ff"},"vehicle_type_id":"4","last_reported":1717330397,"current_range_meters":24800,"station_id":"ce4bhah2rcd13ifvqei0","pricing_plan_id":"cebpf4jnsgd1na2vs0mg"},{"bike_id":"0de5b622-4227-47ee-8100-8297a9760772","system_id":"levelo_inurba_marseille","lat":43.284538,"lon":5.358657,"is_reserved":false,"is_disabled":false,"rental_uris":{"android":"levelo://app?vid=0de5b622-4227-47ee-8100-8297a9760772","ios":"levelo://app?vid=0de5b622-4227-47ee-8100-8297a9760772"},"vehicle_type_id":"4","last_reported":1717330397,"current_range_meters":14400,"station_id":"ce4bhah2rcd13ifvqei0","pricing_plan_id":"cebpf4jnsgd1na2vs0mg"},{"bike_id":"9d84993d-3e13-4e65-b4c8-22941471d10f","system_id":"levelo_inurba_marseille","lat":43.28458,"lon":5.35889,"is_reserved":false,"is_disabled":false,"rental_uris":{"android":"levelo://app?vid=9d84993d-3e13-4e65-b4c8-22941471d10f","ios":"levelo://app?vid=9d84993d-3e13-4e65-b4c8-22941471d10f"},"vehicle_type_id":"4","last_reported":1717330397,"current_range_meters":15200,"station_id":"ce4bhah2rcd13ifvqei0","pricing_plan_id":"cebpf4jnsgd1na2vs0mg"},{"bike_id":"3fcc40c0-436f-4b8a-8191-410cdcdbbb01","system_id":"levelo_inurba_marseille","lat":43.284589,"lon":5.358499,"is_reserved":false,"is_disabled":false,"rental_uris":{"android":"levelo://app?vid=3fcc40c0-436f-4b8a-8191-410cdcdbbb01","ios":"levelo://app?vid=3fcc40c0-436f-4b8a-8191-410cdcdbbb01"},"vehicle_type_id":"4","last_reported":1717330397,"current_range_meters":0,"station_id":"ce4bhah2rcd13ifvqei0","pricing_plan_id":"cebpf4jnsgd1na2vs0mg"},{"bike_id":"9fb7ebdc-c7b2-41bf-84d2-c38bfef7b7a4","system_id":"levelo_inurba_marseille","lat":43.284534,"lon":5.358662,"is_reserved":false,"is_disabled":false,"rental_uris":{"android":"levelo://app?vid=9fb7ebdc-c7b2-41bf-84d2-c38bfef7b7a4","ios":"levelo://app?vid=9fb7ebdc-c7b2-41bf-84d2-c38bfef7b7a4"},"vehicle_type_id":"4","last_reported":1717330397,"current_range_meters":12000,"station_id":"ce4bhah2rcd13ifvqei0","pricing_plan_id":"cebpf4jnsgd1na2vs0mg"},{"bike_id":"51d7b1ee-9c40-4c71-8432-447634def497","system_id":"levelo_inurba_marseille","lat":43.285848,"lon":5.350787,"is_reserved":false,"is_disabled":false,"rental_uris":{"android":"levelo://app?vid=51d7b1ee-9c40-4c71-8432-447634def497","ios":"levelo://app?vid=51d7b1ee-9c40-4c71-8432-447634def497"},"vehicle_type_id":"4","last_reported":1717330397,"current_range_meters":1600,"station_id":"ce4bhch2rcd13ifvqeug","pricing_plan_id":"cebpf4jnsgd1na2vs0mg"},{"bike_id":"e193ecfc-304e-4ce6-955e-67265292d888","system_id":"levelo_inurba_marseille","lat":43.285856,"lon":5.350771,"is_reserved":false,"is_disabled":false,"rental_uris":{"android":"levelo://app?vid=e193ecfc-304e-4ce6-955e-67265292d888","ios":"levelo://app?vid=e193ecfc-304e-4ce6-955e-67265292d888"},"vehicle_type_id":"4","last_reported":1717330397,"current_range_meters":800,"station_id":"ce4bhch2rcd13ifvqeug","pricing_plan_id":"cebpf4jnsgd1na2vs0mg"},{"bike_id":"7634485b-3e1e-4b10-a57b-4d11bf17924e","system_id":"levelo_inurba_marseille","lat":43.28621,"lon":5.35101,"is_reserved":false,"is_disabled":false,"rental_uris":{"android":"levelo://app?vid=7634485b-3e1e-4b10-a57b-4d11bf17924e","ios":"levelo://app?vid=7634485b-3e1e-4b10-a57b-4d11bf17924e"},"vehicle_type_id":"4","last_reported":1717330397,"current_range_meters":28400,"station_id":"ce4bhch2rcd13ifvqeug","pricing_plan_id":"cebpf4jnsgd1na2vs0mg"},{"bike_id":"c89ce84d-bbfa-468c-8477-3a8cf1b43674","system_id":"levelo_inurba_marseille","lat":43.28619,"lon":5.35107,"is_reserved":false,"is_disabled":false,"rental_uris":{"android":"levelo://app?vid=c89ce84d-bbfa-468c-8477-3a8cf1b43674","ios":"levelo://app?vid=c89ce84d-bbfa-468c-8477-3a8cf1b43674"},"vehicle_type_id":"4","last_reported":1717330397,"current_range_meters":24000,"station_id":"ce4bhch2rcd13ifvqeug","pricing_plan_id":"cebpf4jnsgd1na2vs0mg"},{"bike_id":"2c924206-eeb7-42b9-8d5c-0f247f5294da","system_id":"levelo_inurba_marseille","lat":43.285856,"lon":5.350771,"is_reserved":false,"is_disabled":false,"rental_uris":{"android":"levelo://app?vid=2c924206-eeb7-42b9-8d5c-0f247f5294da","ios":"levelo://app?vid=2c924206-eeb7-42b9-8d5c-0f247f5294da"},"vehicle_type_id":"4","last_reported":1717330397,"current_range_meters":8400,"station_id":"ce4bhch2rcd13ifvqeug","pricing_plan_id":"cebpf4jnsgd1na2vs0mg"},{"bike_id":"3d0705c8-ecbb-486a-93cb-71e4a9793e30","system_id":"levelo_inurba_marseille","lat":43.285856,"lon":5.350771,"is_reserved":false,"is_disabled":false,"rental_uris":{"android":"levelo://app?vid=3d0705c8-ecbb-486a-93cb-71e4a9793e30","ios":"levelo://app?vid=3d0705c8-ecbb-486a-93cb-71e4a9793e30"},"vehicle_type_id":"4","last_reported":1717330397,"current_range_meters":30000,"station_id":"ce4bhch2rcd13ifvqeug","pricing_plan_id":"cebpf4jnsgd1na2vs0mg"},{"bike_id":"1187821c-bae3-4a5c-b01b-7e17dce3ce0f","system_id":"levelo_inurba_marseille","lat":43.285848,"lon":5.350787,"is_reserved":false,"is_disabled":false,"rental_uris":{"android":"levelo://app?vid=1187821c-bae3-4a5c-b01b-7e17dce3ce0f","ios":"levelo://app?vid=1187821c-bae3-4a5c-b01b-7e17dce3ce0f"},"vehicle_type_id":"4","last_reported":1717330397,"current_range_meters":19600,"station_id":"ce4bhch2rcd13ifvqeug","pricing_plan_id":"cebpf4jnsgd1na2vs0mg"},{"bike_id":"a94f8cd7-bdce-4799-b00a-3192e9289802","system_id":"levelo_inurba_marseille","lat":43.28617,"lon":5.35103,"is_reserved":false,"is_disabled":false,"rental_uris":{"android":"levelo://app?vid=a94f8cd7-bdce-4799-b00a-3192e9289802","ios":"levelo://app?vid=a94f8cd7-bdce-4799-b00a-3192e9289802"},"vehicle_type_id":"4","last_reported":1717330397,"current_range_meters":2800,"station_id":"ce4bhch2rcd13ifvqeug","pricing_plan_id":"cebpf4jnsgd1na2vs0mg"},{"bike_id":"28114e40-3091-4c04-8c28-866d88da48bd","system_id":"levelo_inurba_marseille","lat":43.285856,"lon":5.350771,"is_reserved":false,"is_disabled":false,"rental_uris":{"android":"levelo://app?vid=28114e40-3091-4c04-8c28-866d88da48bd","ios":"levelo://app?vid=28114e40-3091-4c04-8c28-866d88da48bd"},"vehicle_type_id":"4","last_reported":1717330397,"current_range_meters":13200,"station_id":"ce4bhch2rcd13ifvqeug","pricing_plan_id":"cebpf4jnsgd1na2vs0mg"},{"bike_id":"6fc873d8-628e-4869-b460-376788698e01","system_id":"levelo_inurba_marseille","lat":43.28617,"lon":5.351,"is_reserved":false,"is_disabled":false,"rental_uris":{"android":"levelo://app?vid=6fc873d8-628e-4869-b460-376788698e01","ios":"levelo://app?vid=6fc873d8-628e-4869-b460-376788698e01"},"vehicle_type_id":"4","last_reported":1717330397,"current_range_meters":21200,"station_id":"ce4bhch2rcd13ifvqeug","pricing_plan_id":"cebpf4jnsgd1na2vs0mg"},{"bike_id":"6d42a9e5-192f-44d2-817d-e9fe22defcf3","system_id":"levelo_inurba_marseille","lat":43.28616,"lon":5.35101,"is_reserved":false,"is_disabled":false,"rental_uris":{"android":"levelo://app?vid=6d42a9e5-192f-44d2-817d-e9fe22defcf3","ios":"levelo://app?vid=6d42a9e5-192f-44d2-817d-e9fe22defcf3"},"vehicle_type_id":"4","last_reported":1717330397,"current_range_meters":24400,"station_id":"ce4bhch2rcd13ifvqeug","pricing_plan_id":"cebpf4jnsgd1na2vs0mg"},{"bike_id":"cfdb482c-5c54-4195-b787-228467c4f6ec","system_id":"levelo_inurba_marseille","lat":43.28614,"lon":5.35106,"is_reserved":false,"is_disabled":false,"rental_uris":{"android":"levelo://app?vid=cfdb482c-5c54-4195-b787-228467c4f6ec","ios":"levelo://app?vid=cfdb482c-5c54-4195-b787-228467c4f6ec"},"vehicle_type_id":"4","last_reported":1717330397,"current_range_meters":1600,"station_id":"ce4bhch2rcd13ifvqeug","pricing_plan_id":"cebpf4jnsgd1na2vs0mg"},{"bike_id":"f3407cb6-2638-4158-977c-c9cdb29b9efc","system_id":"levelo_inurba_marseille","lat":43.28614,"lon":5.35106,"is_reserved":false,"is_disabled":false,"rental_uris":{"android":"levelo://app?vid=f3407cb6-2638-4158-977c-c9cdb29b9efc","ios":"levelo://app?vid=f3407cb6-2638-4158-977c-c9cdb29b9efc"},"vehicle_type_id":"4","last_reported":1717330397,"current_range_meters":22400,"station_id":"ce4bhch2rcd13ifvqeug","pricing_plan_id":"cebpf4jnsgd1na2vs0mg"},{"bike_id":"7f53cfd9-8b12-4eb9-9aa6-4bb6dd9f58fe","system_id":"levelo_inurba_marseille","lat":43.285848,"lon":5.350787,"is_reserved":false,"is_disabled":false,"rental_uris":{"android":"levelo://app?vid=7f53cfd9-8b12-4eb9-9aa6-4bb6dd9f58fe","ios":"levelo://app?vid=7f53cfd9-8b12-4eb9-9aa6-4bb6dd9f58fe"},"vehicle_type_id":"4","last_reported":1717330397,"current_range_meters":6800,"station_id":"ce4bhch2rcd13ifvqeug","pricing_plan_id":"cebpf4jnsgd1na2vs0mg"},{"bike_id":"d39fc1c8-72ee-40f0-a603-cd09cfc9f4b9","system_id":"levelo_inurba_marseille","lat":43.285856,"lon":5.350771,"is_reserved":false,"is_disabled":false,"rental_uris":{"android":"levelo://app?vid=d39fc1c8-72ee-40f0-a603-cd09cfc9f4b9","ios":"levelo://app?vid=d39fc1c8-72ee-40f0-a603-cd09cfc9f4b9"},"vehicle_type_id":"4","last_reported":1717330397,"current_range_meters":14800,"station_id":"ce4bhch2rcd13ifvqeug","pricing_plan_id":"cebpf4jnsgd1na2vs0mg"},{"bike_id":"5afb4f27-0c9f-4d38-915e-ad1567b9debd","system_id":"levelo_inurba_marseille","lat":43.28613,"lon":5.35105,"is_reserved":false,"is_disabled":false,"rental_uris":{"android":"levelo://app?vid=5afb4f27-0c9f-4d38-915e-ad1567b9debd","ios":"levelo://app?vid=5afb4f27-0c9f-4d38-915e-ad1567b9debd"},"vehicle_type_id":"4","last_reported":1717330397,"current_range_meters":12800,"station_id":"ce4bhch2rcd13ifvqeug","pricing_plan_id":"cebpf4jnsgd1na2vs0mg"},{"bike_id":"a75784df-54a8-41de-9e36-2da9b5f0f3f3","system_id":"levelo_inurba_marseille","lat":43.28615,"lon":5.35098,"is_reserved":false,"is_disabled":false,"rental_uris":{"android":"levelo://app?vid=a75784df-54a8-41de-9e36-2da9b5f0f3f3","ios":"levelo://app?vid=a75784df-54a8-41de-9e36-2da9b5f0f3f3"},"vehicle_type_id":"4","last_reported":1717330397,"current_range_meters":30400,"station_id":"ce4bhch2rcd13ifvqeug","pricing_plan_id":"cebpf4jnsgd1na2vs0mg"},{"bike_id":"7741ea42-8029-450e-9364-f12871b2a372","system_id":"levelo_inurba_marseille","lat":43.28614,"lon":5.35101,"is_reserved":false,"is_disabled":false,"rental_uris":{"android":"levelo://app?vid=7741ea42-8029-450e-9364-f12871b2a372","ios":"levelo://app?vid=7741ea42-8029-450e-9364-f12871b2a372"},"vehicle_type_id":"4","last_reported":1717330397,"current_range_meters":0,"station_id":"ce4bhch2rcd13ifvqeug","pricing_plan_id":"cebpf4jnsgd1na2vs0mg"},{"bike_id":"5741ef87-836d-448a-86da-62f886ef7889","system_id":"levelo_inurba_marseille","lat":43.286137,"lon":5.351015,"is_reserved":false,"is_disabled":false,"rental_uris":{"android":"levelo://app?vid=5741ef87-836d-448a-86da-62f886ef7889","ios":"levelo://app?vid=5741ef87-836d-448a-86da-62f886ef7889"},"vehicle_type_id":"4","last_reported":1717330397,"current_range_meters":31200,"station_id":"ce4bhch2rcd13ifvqeug","pricing_plan_id":"cebpf4jnsgd1na2vs0mg"},{"bike_id":"916b707c-8ad5-4957-94cd-9fc64f20b52e","system_id":"levelo_inurba_marseille","lat":43.28612,"lon":5.35106,"is_reserved":false,"is_disabled":false,"rental_uris":{"android":"levelo://app?vid=916b707c-8ad5-4957-94cd-9fc64f20b52e","ios":"levelo://app?vid=916b707c-8ad5-4957-94cd-9fc64f20b52e"},"vehicle_type_id":"4","last_reported":1717330397,"current_range_meters":16000,"station_id":"ce4bhch2rcd13ifvqeug","pricing_plan_id":"cebpf4jnsgd1na2vs0mg"},{"bike_id":"24668d0e-c1c2-42f7-b31b-a570736f4d71","system_id":"levelo_inurba_marseille","lat":43.285856,"lon":5.350771,"is_reserved":false,"is_disabled":false,"rental_uris":{"android":"levelo://app?vid=24668d0e-c1c2-42f7-b31b-a570736f4d71","ios":"levelo://app?vid=24668d0e-c1c2-42f7-b31b-a570736f4d71"},"vehicle_type_id":"4","last_reported":1717330397,"current_range_meters":3200,"station_id":"ce4bhch2rcd13ifvqeug","pricing_plan_id":"cebpf4jnsgd1na2vs0mg"},{"bike_id":"99813ea3-522e-4cf9-8af1-eb59c929f643","system_id":"levelo_inurba_marseille","lat":43.285856,"lon":5.350771,"is_reserved":false,"is_disabled":false,"rental_uris":{"android":"levelo://app?vid=99813ea3-522e-4cf9-8af1-eb59c929f643","ios":"levelo://app?vid=99813ea3-522e-4cf9-8af1-eb59c929f643"},"vehicle_type_id":"4","last_reported":1717330397,"current_range_meters":24400,"station_id":"ce4bhch2rcd13ifvqeug","pricing_plan_id":"cebpf4jnsgd1na2vs0mg"},{"bike_id":"522d2fdb-f6c5-4e44-bb6d-cbb0a5e5ff14","system_id":"levelo_inurba_marseille","lat":43.285856,"lon":5.350771,"is_reserved":false,"is_disabled":false,"rental_uris":{"android":"levelo://app?vid=522d2fdb-f6c5-4e44-bb6d-cbb0a5e5ff14","ios":"levelo://app?vid=522d2fdb-f6c5-4e44-bb6d-cbb0a5e5ff14"},"vehicle_type_id":"4","last_reported":1717330397,"current_range_meters":21600,"station_id":"ce4bhch2rcd13ifvqeug","pricing_plan_id":"cebpf4jnsgd1na2vs0mg"},{"bike_id":"9d805381-d4b4-4a74-b176-a6cc32845f44","system_id":"levelo_inurba_marseille","lat":43.28612,"lon":5.35099,"is_reserved":false,"is_disabled":false,"rental_uris":{"android":"levelo://app?vid=9d805381-d4b4-4a74-b176-a6cc32845f44","ios":"levelo://app?vid=9d805381-d4b4-4a74-b176-a6cc32845f44"},"vehicle_type_id":"4","last_reported":1717330397,"current_range_meters":8400,"station_id":"ce4bhch2rcd13ifvqeug","pricing_plan_id":"cebpf4jnsgd1na2vs0mg"},{"bike_id":"4e64a555-f4f0-413e-81b8-f3ab31b7bd28","system_id":"levelo_inurba_marseille","lat":43.28612,"lon":5.35099,"is_reserved":false,"is_disabled":false,"rental_uris":{"android":"levelo://app?vid=4e64a555-f4f0-413e-81b8-f3ab31b7bd28","ios":"levelo://app?vid=4e64a555-f4f0-413e-81b8-f3ab31b7bd28"},"vehicle_type_id":"4","last_reported":1717330397,"current_range_meters":26000,"station_id":"ce4bhch2rcd13ifvqeug","pricing_plan_id":"cebpf4jnsgd1na2vs0mg"},{"bike_id":"6d7f0e12-a780-47d5-9a20-3e12dd6bbbd7","system_id":"levelo_inurba_marseille","lat":43.28612,"lon":5.35098,"is_reserved":false,"is_disabled":false,"rental_uris":{"android":"levelo://app?vid=6d7f0e12-a780-47d5-9a20-3e12dd6bbbd7","ios":"levelo://app?vid=6d7f0e12-a780-47d5-9a20-3e12dd6bbbd7"},"vehicle_type_id":"4","last_reported":1717330397,"current_range_meters":7600,"station_id":"ce4bhch2rcd13ifvqeug","pricing_plan_id":"cebpf4jnsgd1na2vs0mg"},{"bike_id":"5725381d-5dc2-4c7d-a753-58d3ae6855ed","system_id":"levelo_inurba_marseille","lat":43.286123,"lon":5.35097,"is_reserved":false,"is_disabled":false,"rental_uris":{"android":"levelo://app?vid=5725381d-5dc2-4c7d-a753-58d3ae6855ed","ios":"levelo://app?vid=5725381d-5dc2-4c7d-a753-58d3ae6855ed"},"vehicle_type_id":"4","last_reported":1717330397,"current_range_meters":13600,"station_id":"ce4bhch2rcd13ifvqeug","pricing_plan_id":"cebpf4jnsgd1na2vs0mg"},{"bike_id":"29245abf-d2c3-4d56-a533-a2e83d11cfb0","system_id":"levelo_inurba_marseille","lat":43.2861,"lon":5.35101,"is_reserved":false,"is_disabled":false,"rental_uris":{"android":"levelo://app?vid=29245abf-d2c3-4d56-a533-a2e83d11cfb0","ios":"levelo://app?vid=29245abf-d2c3-4d56-a533-a2e83d11cfb0"},"vehicle_type_id":"4","last_reported":1717330397,"current_range_meters":9200,"station_id":"ce4bhch2rcd13ifvqeug","pricing_plan_id":"cebpf4jnsgd1na2vs0mg"},{"bike_id":"cee611c5-3508-49bc-a55e-0a3228240562","system_id":"levelo_inurba_marseille","lat":43.286021,"lon":5.351223,"is_reserved":false,"is_disabled":false,"rental_uris":{"android":"levelo://app?vid=cee611c5-3508-49bc-a55e-0a3228240562","ios":"levelo://app?vid=cee611c5-3508-49bc-a55e-0a3228240562"},"vehicle_type_id":"4","last_reported":1717330397,"current_range_meters":27200,"station_id":"ce4bhch2rcd13ifvqeug","pricing_plan_id":"cebpf4jnsgd1na2vs0mg"},{"bike_id":"cc338114-2089-40ad-91d0-95b5ed33d3b1","system_id":"levelo_inurba_marseille","lat":43.316821,"lon":5.404737,"is_reserved":false,"is_disabled":false,"rental_uris":{"android":"levelo://app?vid=cc338114-2089-40ad-91d0-95b5ed33d3b1","ios":"levelo://app?vid=cc338114-2089-40ad-91d0-95b5ed33d3b1"},"vehicle_type_id":"4","last_reported":1717330397,"current_range_meters":30400,"station_id":"ce4bh012rcd13ifvqd00","pricing_plan_id":"cebpf4jnsgd1na2vs0mg"},{"bike_id":"16a7b80d-ae82-4f5b-9403-5eb22fbf52e2","system_id":"levelo_inurba_marseille","lat":43.28676,"lon":5.386488,"is_reserved":false,"is_disabled":false,"rental_uris":{"android":"levelo://app?vid=16a7b80d-ae82-4f5b-9403-5eb22fbf52e2","ios":"levelo://app?vid=16a7b80d-ae82-4f5b-9403-5eb22fbf52e2"},"vehicle_type_id":"4","last_reported":1717330397,"current_range_meters":0,"station_id":"ce4bh492rcd13ifvqdug","pricing_plan_id":"cebpf4jnsgd1na2vs0mg"},{"bike_id":"8dd1c20a-9276-46bc-a1ce-c6a559e1b171","system_id":"levelo_inurba_marseille","lat":43.31887,"lon":5.40728,"is_reserved":false,"is_disabled":false,"rental_uris":{"android":"levelo://app?vid=8dd1c20a-9276-46bc-a1ce-c6a559e1b171","ios":"levelo://app?vid=8dd1c20a-9276-46bc-a1ce-c6a559e1b171"},"vehicle_type_id":"4","last_reported":1717330397,"current_range_meters":21600,"station_id":"ce4bhq12rcd13ifvqhig","pricing_plan_id":"cebpf4jnsgd1na2vs0mg"},{"bike_id":"1b0fc7c0-9415-4be7-b111-ce2272ec0127","system_id":"levelo_inurba_marseille","lat":43.31885,"lon":5.40731,"is_reserved":false,"is_disabled":false,"rental_uris":{"android":"levelo://app?vid=1b0fc7c0-9415-4be7-b111-ce2272ec0127","ios":"levelo://app?vid=1b0fc7c0-9415-4be7-b111-ce2272ec0127"},"vehicle_type_id":"4","last_reported":1717330397,"current_range_meters":10000,"station_id":"ce4bhq12rcd13ifvqhig","pricing_plan_id":"cebpf4jnsgd1na2vs0mg"},{"bike_id":"369106d9-4488-4c8e-96d8-32054535205a","system_id":"levelo_inurba_marseille","lat":43.33654,"lon":5.39212,"is_reserved":false,"is_disabled":false,"rental_uris":{"android":"levelo://app?vid=369106d9-4488-4c8e-96d8-32054535205a","ios":"levelo://app?vid=369106d9-4488-4c8e-96d8-32054535205a"},"vehicle_type_id":"4","last_reported":1717330397,"current_range_meters":29600,"station_id":"","pricing_plan_id":"cebpf4jnsgd1na2vs0mg"},{"bike_id":"21a51ed3-dde5-476e-ae4b-9d89be466537","system_id":"levelo_inurba_marseille","lat":43.337168,"lon":5.391825,"is_reserved":false,"is_disabled":false,"rental_uris":{"android":"levelo://app?vid=21a51ed3-dde5-476e-ae4b-9d89be466537","ios":"levelo://app?vid=21a51ed3-dde5-476e-ae4b-9d89be466537"},"vehicle_type_id":"4","last_reported":1717330397,"current_range_meters":27600,"station_id":"ce4bhr92rcd13ifvqhsg","pricing_plan_id":"cebpf4jnsgd1na2vs0mg"},{"bike_id":"69376af1-5810-4843-a6b5-e685972794d8","system_id":"levelo_inurba_marseille","lat":43.323464,"lon":5.406297,"is_reserved":false,"is_disabled":false,"rental_uris":{"android":"levelo://app?vid=69376af1-5810-4843-a6b5-e685972794d8","ios":"levelo://app?vid=69376af1-5810-4843-a6b5-e685972794d8"},"vehicle_type_id":"4","last_reported":1717330397,"current_range_meters":15200,"station_id":"ce4bhq92rcd13ifvqhjg","pricing_plan_id":"cebpf4jnsgd1na2vs0mg"},{"bike_id":"cbcbb52a-89ae-4e47-913a-6da32d68fd05","system_id":"levelo_inurba_marseille","lat":43.323464,"lon":5.406297,"is_reserved":false,"is_disabled":false,"rental_uris":{"android":"levelo://app?vid=cbcbb52a-89ae-4e47-913a-6da32d68fd05","ios":"levelo://app?vid=cbcbb52a-89ae-4e47-913a-6da32d68fd05"},"vehicle_type_id":"4","last_reported":1717330397,"current_range_meters":32000,"station_id":"ce4bhq92rcd13ifvqhjg","pricing_plan_id":"cebpf4jnsgd1na2vs0mg"},{"bike_id":"78d78c77-334a-466a-abb0-2a06ca729cd6","system_id":"levelo_inurba_marseille","lat":43.288621,"lon":5.392648,"is_reserved":false,"is_disabled":false,"rental_uris":{"android":"levelo://app?vid=78d78c77-334a-466a-abb0-2a06ca729cd6","ios":"levelo://app?vid=78d78c77-334a-466a-abb0-2a06ca729cd6"},"vehicle_type_id":"4","last_reported":1717330397,"current_range_meters":21600,"station_id":"","pricing_plan_id":"cebpf4jnsgd1na2vs0mg"},{"bike_id":"b8fa993f-27b1-47f1-a02e-5f8a5b5f429d","system_id":"levelo_inurba_marseille","lat":43.32339,"lon":5.40628,"is_reserved":false,"is_disabled":false,"rental_uris":{"android":"levelo://app?vid=b8fa993f-27b1-47f1-a02e-5f8a5b5f429d","ios":"levelo://app?vid=b8fa993f-27b1-47f1-a02e-5f8a5b5f429d"},"vehicle_type_id":"4","last_reported":1717330397,"current_range_meters":400,"station_id":"ce4bhq92rcd13ifvqhjg","pricing_plan_id":"cebpf4jnsgd1na2vs0mg"},{"bike_id":"095a4809-8f15-4f7f-85c4-b9607eff4ef7","system_id":"levelo_inurba_marseille","lat":43.29431,"lon":5.400413,"is_reserved":false,"is_disabled":false,"rental_uris":{"android":"levelo://app?vid=095a4809-8f15-4f7f-85c4-b9607eff4ef7","ios":"levelo://app?vid=095a4809-8f15-4f7f-85c4-b9607eff4ef7"},"vehicle_type_id":"4","last_reported":1717330397,"current_range_meters":6400,"station_id":"","pricing_plan_id":"cebpf4jnsgd1na2vs0mg"},{"bike_id":"f89d02ae-a1c4-4da5-93fe-9888c353ad52","system_id":"levelo_inurba_marseille","lat":43.284793,"lon":5.384119,"is_reserved":false,"is_disabled":false,"rental_uris":{"android":"levelo://app?vid=f89d02ae-a1c4-4da5-93fe-9888c353ad52","ios":"levelo://app?vid=f89d02ae-a1c4-4da5-93fe-9888c353ad52"},"vehicle_type_id":"4","last_reported":1717330397,"current_range_meters":1200,"station_id":"ce4bh512rcd13ifvqe3g","pricing_plan_id":"cebpf4jnsgd1na2vs0mg"},{"bike_id":"3509e009-35f1-4540-8a1d-35af99f4f085","system_id":"levelo_inurba_marseille","lat":43.284787,"lon":5.384116,"is_reserved":false,"is_disabled":false,"rental_uris":{"android":"levelo://app?vid=3509e009-35f1-4540-8a1d-35af99f4f085","ios":"levelo://app?vid=3509e009-35f1-4540-8a1d-35af99f4f085"},"vehicle_type_id":"4","last_reported":1717330397,"current_range_meters":0,"station_id":"ce4bh512rcd13ifvqe3g","pricing_plan_id":"cebpf4jnsgd1na2vs0mg"},{"bike_id":"f57bab33-8135-4186-b2c5-dfee5f67123e","system_id":"levelo_inurba_marseille","lat":43.284219,"lon":5.3497,"is_reserved":false,"is_disabled":false,"rental_uris":{"android":"levelo://app?vid=f57bab33-8135-4186-b2c5-dfee5f67123e","ios":"levelo://app?vid=f57bab33-8135-4186-b2c5-dfee5f67123e"},"vehicle_type_id":"4","last_reported":1717330397,"current_range_meters":3200,"station_id":"ce4bhbh2rcd13ifvqepg","pricing_plan_id":"cebpf4jnsgd1na2vs0mg"},{"bike_id":"c493b7b3-5866-4fd9-a756-e1a87aa99930","system_id":"levelo_inurba_marseille","lat":43.284331,"lon":5.349775,"is_reserved":false,"is_disabled":false,"rental_uris":{"android":"levelo://app?vid=c493b7b3-5866-4fd9-a756-e1a87aa99930","ios":"levelo://app?vid=c493b7b3-5866-4fd9-a756-e1a87aa99930"},"vehicle_type_id":"4","last_reported":1717330397,"current_range_meters":0,"station_id":"ce4bhbh2rcd13ifvqepg","pricing_plan_id":"cebpf4jnsgd1na2vs0mg"},{"bike_id":"86009cfb-3072-4350-b201-19cb3584a13d","system_id":"levelo_inurba_marseille","lat":43.284302,"lon":5.349758,"is_reserved":false,"is_disabled":false,"rental_uris":{"android":"levelo://app?vid=86009cfb-3072-4350-b201-19cb3584a13d","ios":"levelo://app?vid=86009cfb-3072-4350-b201-19cb3584a13d"},"vehicle_type_id":"4","last_reported":1717330397,"current_range_meters":8400,"station_id":"ce4bhbh2rcd13ifvqepg","pricing_plan_id":"cebpf4jnsgd1na2vs0mg"},{"bike_id":"65fe5214-afd7-40ef-85b0-97553ce1b3e3","system_id":"levelo_inurba_marseille","lat":43.284219,"lon":5.3497,"is_reserved":false,"is_disabled":false,"rental_uris":{"android":"levelo://app?vid=65fe5214-afd7-40ef-85b0-97553ce1b3e3","ios":"levelo://app?vid=65fe5214-afd7-40ef-85b0-97553ce1b3e3"},"vehicle_type_id":"4","last_reported":1717330397,"current_range_meters":20800,"station_id":"ce4bhbh2rcd13ifvqepg","pricing_plan_id":"cebpf4jnsgd1na2vs0mg"},{"bike_id":"03db7d48-ad6a-40c3-9463-7a1c676452ea","system_id":"levelo_inurba_marseille","lat":43.28422,"lon":5.34998,"is_reserved":false,"is_disabled":false,"rental_uris":{"android":"levelo://app?vid=03db7d48-ad6a-40c3-9463-7a1c676452ea","ios":"levelo://app?vid=03db7d48-ad6a-40c3-9463-7a1c676452ea"},"vehicle_type_id":"4","last_reported":1717330397,"current_range_meters":8800,"station_id":"ce4bhbh2rcd13ifvqepg","pricing_plan_id":"cebpf4jnsgd1na2vs0mg"},{"bike_id":"0565dcf4-203f-4a16-8dec-b25b42d5d3d4","system_id":"levelo_inurba_marseille","lat":43.284219,"lon":5.3497,"is_reserved":false,"is_disabled":false,"rental_uris":{"android":"levelo://app?vid=0565dcf4-203f-4a16-8dec-b25b42d5d3d4","ios":"levelo://app?vid=0565dcf4-203f-4a16-8dec-b25b42d5d3d4"},"vehicle_type_id":"4","last_reported":1717330397,"current_range_meters":20400,"station_id":"ce4bhbh2rcd13ifvqepg","pricing_plan_id":"cebpf4jnsgd1na2vs0mg"},{"bike_id":"e12a97bd-fb38-466d-b53c-2a7f7edba1d1","system_id":"levelo_inurba_marseille","lat":43.284214,"lon":5.349978,"is_reserved":false,"is_disabled":false,"rental_uris":{"android":"levelo://app?vid=e12a97bd-fb38-466d-b53c-2a7f7edba1d1","ios":"levelo://app?vid=e12a97bd-fb38-466d-b53c-2a7f7edba1d1"},"vehicle_type_id":"4","last_reported":1717330397,"current_range_meters":2800,"station_id":"ce4bhbh2rcd13ifvqepg","pricing_plan_id":"cebpf4jnsgd1na2vs0mg"},{"bike_id":"72ac409e-a87b-4286-bc81-7007d05b83e5","system_id":"levelo_inurba_marseille","lat":43.284219,"lon":5.3497,"is_reserved":false,"is_disabled":false,"rental_uris":{"android":"levelo://app?vid=72ac409e-a87b-4286-bc81-7007d05b83e5","ios":"levelo://app?vid=72ac409e-a87b-4286-bc81-7007d05b83e5"},"vehicle_type_id":"4","last_reported":1717330397,"current_range_meters":4800,"station_id":"ce4bhbh2rcd13ifvqepg","pricing_plan_id":"cebpf4jnsgd1na2vs0mg"},{"bike_id":"d44daae6-549e-4fa6-ad41-d033922393c4","system_id":"levelo_inurba_marseille","lat":43.284219,"lon":5.3497,"is_reserved":false,"is_disabled":false,"rental_uris":{"android":"levelo://app?vid=d44daae6-549e-4fa6-ad41-d033922393c4","ios":"levelo://app?vid=d44daae6-549e-4fa6-ad41-d033922393c4"},