{"last_updated":1680462251,"ttl":30,"version":"2.2","data":{"bikes":[{"bike_id":"253532b3-5e6e-4f81-be0f-603dea34fe3f","system_id":"levelo_inurba_marseille","lat":43.312239,"lon":5.368562,"is_reserved":false,"is_disabled":false,"rental_uris":{"android":"levelo://app?vid=253532b3-5e6e-4f81-be0f-603dea34fe3f","ios":"levelo://app?vid=253532b3-5e6e-4f81-be0f-603dea34fe3f"},"vehicle_type_id":"4","last_reported":1680462252,"current_range_meters":0,"station_id":"ce4bgl92rcd13ifvqbq0","pricing_plan_id":"free"},{"bike_id":"b17cb671-498d-40f2-b202-2cc7d74a50f9","system_id":"levelo_inurba_marseille","lat":43.312239,"lon":5.368562,"is_reserved":false,"is_disabled":false,"rental_uris":{"android":"levelo://app?vid=b17cb671-498d-40f2-b202-2cc7d74a50f9","ios":"levelo://app?vid=b17cb671-498d-40f2-b202-2cc7d74a50f9"},"vehicle_type_id":"4","last_reported":1680462252,"current_range_meters":17600,"station_id":"ce4bgl92rcd13ifvqbq0","pricing_plan_id":"free"},{"bike_id":"31715ead-76ac-4a12-857c-bd7187900244","system_id":"levelo_inurba_marseille","lat":43.30535,"lon":5.36707,"is_reserved":false,"is_disabled":false,"rental_uris":{"android":"levelo://app?vid=31715ead-76ac-4a12-857c-bd7187900244","ios":"levelo://app?vid=31715ead-76ac-4a12-857c-bd7187900244"},"vehicle_type_id":"4","last_reported":1680462252,"current_range_meters":8000,"station_id":"ce4bgrp2rcd13ifvqc9g","pricing_plan_id":"free"},{"bike_id":"80109117-3863-4bc6-b30b-a3d53826d1db","system_id":"levelo_inurba_marseille","lat":43.31677,"lon":5.3761,"is_reserved":false,"is_disabled":false,"rental_uris":{"android":"levelo://app?vid=80109117-3863-4bc6-b30b-a3d53826d1db","ios":"levelo://app?vid=80109117-3863-4bc6-b30b-a3d53826d1db"},"vehicle_type_id":"4","last_reported":1680462252,"current_range_meters":0,"station_id":"","pricing_plan_id":"free"},{"bike_id":"d1b4a2f9-29d3-48f5-8eb3-727e33a0a88a","system_id":"levelo_inurba_marseille","lat":43.3049,"lon":5.36711,"is_reserved":false,"is_disabled":false,"rental_uris":{"android":"levelo://app?vid=d1b4a2f9-29d3-48f5-8eb3-727e33a0a88a","ios":"levelo://app?vid=d1b4a2f9-29d3-48f5-8eb3-727e33a0a88a"},"vehicle_type_id":"4","last_reported":1680462252,"current_range_meters":0,"station_id":"ce4bgh92rcd13ifvqb50","pricing_plan_id":"free"},{"bike_id":"b0027caa-41ed-4e29-ad09-18e3f4334466","system_id":"levelo_inurba_marseille","lat":43.3084,"lon":5.37659,"is_reserved":false,"is_disabled":false,"rental_uris":{"android":"levelo://app?vid=b0027caa-41ed-4e29-ad09-18e3f4334466","ios":"levelo://app?vid=b0027caa-41ed-4e29-ad09-18e3f4334466"},"vehicle_type_id":"4","last_reported":1680462252,"current_range_meters":20400,"station_id":"","pricing_plan_id":"free"},{"bike_id":"fc6c162a-3f51-44d9-928f-b6f3b0412c45","system_id":"levelo_inurba_marseille","lat":43.31707,"lon":5.37728,"is_reserved":false,"is_disabled":false,"rental_uris":{"android":"levelo://app?vid=fc6c162a-3f51-44d9-928f-b6f3b0412c45","ios":"levelo://app?vid=fc6c162a-3f51-44d9-928f-b6f3b0412c45"},"vehicle_type_id":"4","last_reported":1680462252,"current_range_meters":10400,"station_id":"ce4bgth2rcd13ifvqch0","pricing_plan_id":"free"},{"bike_id":"f426b641-1d31-4c19-9eff-22597774c7e4","system_id":"levelo_inurba_marseille","lat":43.3042,"lon":5.37001,"is_reserved":false,"is_disabled":false,"rental_uris":{"android":"levelo://app?vid=f426b641-1d31-4c19-9eff-22597774c7e4","ios":"levelo://app?vid=f426b641-1d31-4c19-9eff-22597774c7e4"},"vehicle_type_id":"4","last_reported":1680462252,"current_range_meters":0,"station_id":"","pricing_plan_id":"free"},{"bike_id":"eca57ce8-97af-469e-b314-e0e28a35a070","system_id":"levelo_inurba_marseille","lat":43.302818,"lon":5.368972,"is_reserved":false,"is_disabled":false,"rental_uris":{"android":"levelo://app?vid=eca57ce8-97af-469e-b314-e0e28a35a070","ios":"levelo://app?vid=eca57ce8-97af-469e-b314-e0e28a35a070"},"vehicle_type_id":"4","last_reported":1680462252,"current_range_meters":12800,"station_id":"ce4bhk92rcd13ifvqgb0","pricing_plan_id":"free"},{"bike_id":"86331de7-3cd7-499a-a4ef-46e1381317f6","system_id":"levelo_inurba_marseille","lat":43.301939,"lon":5.366286,"is_reserved":false,"is_disabled":false,"rental_uris":{"android":"levelo://app?vid=86331de7-3cd7-499a-a4ef-46e1381317f6","ios":"levelo://app?vid=86331de7-3cd7-499a-a4ef-46e1381317f6"},"vehicle_type_id":"4","last_reported":1680462252,"current_range_meters":8800,"station_id":"ce4bgrh2rcd13ifvqc8g","pricing_plan_id":"free"},{"bike_id":"cff3532b-1adb-4225-97a3-7ed99179678f","system_id":"levelo_inurba_marseille","lat":43.3135,"lon":5.38257,"is_reserved":false,"is_disabled":false,"rental_uris":{"android":"levelo://app?vid=cff3532b-1adb-4225-97a3-7ed99179678f","ios":"levelo://app?vid=cff3532b-1adb-4225-97a3-7ed99179678f"},"vehicle_type_id":"4","last_reported":1680462252,"current_range_meters":16000,"station_id":"","pricing_plan_id":"free"},{"bike_id":"6e49ce5b-f53e-4eaa-bfcf-a5e04eb1bb47","system_id":"levelo_inurba_marseille","lat":43.299094,"lon":5.365415,"is_reserved":false,"is_disabled":false,"rental_uris":{"android":"levelo://app?vid=6e49ce5b-f53e-4eaa-bfcf-a5e04eb1bb47","ios":"levelo://app?vid=6e49ce5b-f53e-4eaa-bfcf-a5e04eb1bb47"},"vehicle_type_id":"4","last_reported":1680462252,"current_range_meters":31200,"station_id":"ce4bgm92rcd13ifvqbr0","pricing_plan_id":"free"},{"bike_id":"414692ba-d54c-4699-addb-6050c4c35bd5","system_id":"levelo_inurba_marseille","lat":43.29986,"lon":5.37293,"is_reserved":false,"is_disabled":false,"rental_uris":{"android":"levelo://app?vid=414692ba-d54c-4699-addb-6050c4c35bd5","ios":"levelo://app?vid=414692ba-d54c-4699-addb-6050c4c35bd5"},"vehicle_type_id":"4","last_reported":1680462252,"current_range_meters":0,"station_id":"","pricing_plan_id":"free"},{"bike_id":"d28eaaa0-99c9-4f81-b2b0-64937bbd36b9","system_id":"levelo_inurba_marseille","lat":43.31895,"lon":5.38436,"is_reserved":false,"is_disabled":false,"rental_uris":{"android":"levelo://app?vid=d28eaaa0-99c9-4f81-b2b0-64937bbd36b9","ios":"levelo://app?vid=d28eaaa0-99c9-4f81-b2b0-64937bbd36b9"},"vehicle_type_id":"4","last_reported":1680462252,"current_range_meters":14400,"station_id":"","pricing_plan_id":"free"},{"bike_id":"ad7ae4f1-95b6-4a50-b0a9-fc487e4fb8e4","system_id":"levelo_inurba_marseille","lat":43.299243,"lon":5.374807,"is_reserved":false,"is_disabled":false,"rental_uris":{"android":"levelo://app?vid=ad7ae4f1-95b6-4a50-b0a9-fc487e4fb8e4","ios":"levelo://app?vid=ad7ae4f1-95b6-4a50-b0a9-fc487e4fb8e4"},"vehicle_type_id":"4","last_reported":1680462252,"current_range_meters":0,"station_id":"ce4bgjh2rcd13ifvqbg0","pricing_plan_id":"free"},{"bike_id":"0ed61355-5e72-4997-9f22-4b5bbaf66e2a","system_id":"levelo_inurba_marseille","lat":43.311722,"lon":5.387247,"is_reserved":false,"is_disabled":false,"rental_uris":{"android":"levelo://app?vid=0ed61355-5e72-4997-9f22-4b5bbaf66e2a","ios":"levelo://app?vid=0ed61355-5e72-4997-9f22-4b5bbaf66e2a"},"vehicle_type_id":"4","last_reported":1680462252,"current_range_meters":4400,"station_id":"ce4bgv12rcd13ifvqcp0","pricing_plan_id":"free"},{"bike_id":"93397470-033b-4e9b-b879-3cc365e43f62","system_id":"levelo_inurba_marseille","lat":43.32251,"lon":5.38749,"is_reserved":false,"is_disabled":false,"rental_uris":{"android":"levelo://app?vid=93397470-033b-4e9b-b879-3cc365e43f62","ios":"levelo://app?vid=93397470-033b-4e9b-b879-3cc365e43f62"},"vehicle_type_id":"4","last_reported":1680462252,"current_range_meters":400,"station_id":"","pricing_plan_id":"free"},{"bike_id":"a765eab5-3607-455c-85df-fa1752afcc1f","system_id":"levelo_inurba_marseille","lat":43.296277,"lon":5.377108,"is_reserved":false,"is_disabled":false,"rental_uris":{"android":"levelo://app?vid=a765eab5-3607-455c-85df-fa1752afcc1f","ios":"levelo://app?vid=a765eab5-3607-455c-85df-fa1752afcc1f"},"vehicle_type_id":"4","last_reported":1680462252,"current_range_meters":800,"station_id":"ce4bgi92rcd13ifvqb90","pricing_plan_id":"free"},{"bike_id":"e9664c56-3902-4dfc-b779-39e81a19b5c3","system_id":"levelo_inurba_marseille","lat":43.32367,"lon":5.388836,"is_reserved":false,"is_disabled":false,"rental_uris":{"android":"levelo://app?vid=e9664c56-3902-4dfc-b779-39e81a19b5c3","ios":"levelo://app?vid=e9664c56-3902-4dfc-b779-39e81a19b5c3"},"vehicle_type_id":"4","last_reported":1680462252,"current_range_meters":10400,"station_id":"ce4bhqp2rcd13ifvqhog","pricing_plan_id":"free"},{"bike_id":"b13b0d78-9fa5-49ae-97bf-f3196e94b0c0","system_id":"levelo_inurba_marseille","lat":43.32396,"lon":5.38929,"is_reserved":false,"is_disabled":false,"rental_uris":{"android":"levelo://app?vid=b13b0d78-9fa5-49ae-97bf-f3196e94b0c0","ios":"levelo://app?vid=b13b0d78-9fa5-49ae-97bf-f3196e94b0c0"},"vehicle_type_id":"4","last_reported":1680462252,"current_range_meters":4000,"station_id":"","pricing_plan_id":"free"},{"bike_id":"0ac9fdc4-c0f8-4ffd-887d-046e38e296b3","system_id":"levelo_inurba_marseille","lat":43.293259,"lon":5.371586,"is_reserved":false,"is_disabled":false,"rental_uris":{"android":"levelo://app?vid=0ac9fdc4-c0f8-4ffd-887d-046e38e296b3","ios":"levelo://app?vid=0ac9fdc4-c0f8-4ffd-887d-046e38e296b3"},"vehicle_type_id":"4","last_reported":1680462252,"current_range_meters":7200,"station_id":"ce4bgh92rcd13ifvqb40","pricing_plan_id":"free"},{"bike_id":"57377da2-1f5a-4d6e-bc55-077245b153bd","system_id":"levelo_inurba_marseille","lat":43.293009,"lon":5.374584,"is_reserved":false,"is_disabled":false,"rental_uris":{"android":"levelo://app?vid=57377da2-1f5a-4d6e-bc55-077245b153bd","ios":"levelo://app?vid=57377da2-1f5a-4d6e-bc55-077245b153bd"},"vehicle_type_id":"4","last_reported":1680462252,"current_range_meters":400,"station_id":"ce4bgi12rcd13ifvqb70","pricing_plan_id":"free"},{"bike_id":"aef2f924-4333-4bed-aa8c-c352d192ebcb","system_id":"levelo_inurba_marseille","lat":43.293772,"lon":5.378583,"is_reserved":false,"is_disabled":false,"rental_uris":{"android":"levelo://app?vid=aef2f924-4333-4bed-aa8c-c352d192ebcb","ios":"levelo://app?vid=aef2f924-4333-4bed-aa8c-c352d192ebcb"},"vehicle_type_id":"4","last_reported":1680462252,"current_range_meters":1200,"station_id":"ce4bhg12rcd13ifvqf80","pricing_plan_id":"free"},{"bike_id":"c56ec433-3ce0-4c9f-8a78-6997dd15535b","system_id":"levelo_inurba_marseille","lat":43.30102,"lon":5.39071,"is_reserved":false,"is_disabled":false,"rental_uris":{"android":"levelo://app?vid=c56ec433-3ce0-4c9f-8a78-6997dd15535b","ios":"levelo://app?vid=c56ec433-3ce0-4c9f-8a78-6997dd15535b"},"vehicle_type_id":"4","last_reported":1680462252,"current_range_meters":4400,"station_id":"ce4bh192rcd13ifvqdb0","pricing_plan_id":"free"},{"bike_id":"ebf2e533-0900-4a53-b44a-772b61c56bfd","system_id":"levelo_inurba_marseille","lat":43.300852,"lon":5.390859,"is_reserved":false,"is_disabled":false,"rental_uris":{"android":"levelo://app?vid=ebf2e533-0900-4a53-b44a-772b61c56bfd","ios":"levelo://app?vid=ebf2e533-0900-4a53-b44a-772b61c56bfd"},"vehicle_type_id":"4","last_reported":1680462252,"current_range_meters":16400,"station_id":"ce4bh192rcd13ifvqdb0","pricing_plan_id":"free"},{"bike_id":"d32a0082-b63f-4fcb-95b9-29ce244c95ae","system_id":"levelo_inurba_marseille","lat":43.292311,"lon":5.360731,"is_reserved":false,"is_disabled":false,"rental_uris":{"android":"levelo://app?vid=d32a0082-b63f-4fcb-95b9-29ce244c95ae","ios":"levelo://app?vid=d32a0082-b63f-4fcb-95b9-29ce244c95ae"},"vehicle_type_id":"4","last_reported":1680462252,"current_range_meters":0,"station_id":"ce4bhbh2rcd13ifvqeqg","pricing_plan_id":"free"},{"bike_id":"f8016897-b32c-470a-a803-25c40e0a6017","system_id":"levelo_inurba_marseille","lat":43.290779,"lon":5.371482,"is_reserved":false,"is_disabled":false,"rental_uris":{"android":"levelo://app?vid=f8016897-b32c-470a-a803-25c40e0a6017","ios":"levelo://app?vid=f8016897-b32c-470a-a803-25c40e0a6017"},"vehicle_type_id":"4","last_reported":1680462252,"current_range_meters":15600,"station_id":"ce4bh5p2rcd13ifvqe4g","pricing_plan_id":"free"},{"bike_id":"498156bb-f9dd-47b4-88f9-14c48de36846","system_id":"levelo_inurba_marseille","lat":43.289184,"lon":5.366408,"is_reserved":false,"is_disabled":false,"rental_uris":{"android":"levelo://app?vid=498156bb-f9dd-47b4-88f9-14c48de36846","ios":"levelo://app?vid=498156bb-f9dd-47b4-88f9-14c48de36846"},"vehicle_type_id":"4","last_reported":1680462252,"current_range_meters":1600,"station_id":"ce4bhap2rcd13ifvqek0","pricing_plan_id":"free"},{"bike_id":"30cead8a-c80c-4307-8038-72b1aae1398e","system_id":"levelo_inurba_marseille","lat":43.29279,"lon":5.38439,"is_reserved":false,"is_disabled":false,"rental_uris":{"android":"levelo://app?vid=30cead8a-c80c-4307-8038-72b1aae1398e","ios":"levelo://app?vid=30cead8a-c80c-4307-8038-72b1aae1398e"},"vehicle_type_id":"4","last_reported":1680462252,"current_range_meters":0,"station_id":"ce4bh692rcd13ifvqea0","pricing_plan_id":"free"},{"bike_id":"d363f1b8-719b-4e67-bb45-a642105a5987","system_id":"levelo_inurba_marseille","lat":43.292644,"lon":5.384257,"is_reserved":false,"is_disabled":false,"rental_uris":{"android":"levelo://app?vid=d363f1b8-719b-4e67-bb45-a642105a5987","ios":"levelo://app?vid=d363f1b8-719b-4e67-bb45-a642105a5987"},"vehicle_type_id":"4","last_reported":1680462252,"current_range_meters":2000,"station_id":"ce4bh692rcd13ifvqea0","pricing_plan_id":"free"},{"bike_id":"cdb10667-e80d-44a7-83ac-ad16c83bde86","system_id":"levelo_inurba_marseille","lat":43.292644,"lon":5.384257,"is_reserved":false,"is_disabled":false,"rental_uris":{"android":"levelo://app?vid=cdb10667-e80d-44a7-83ac-ad16c83bde86","ios":"levelo://app?vid=cdb10667-e80d-44a7-83ac-ad16c83bde86"},"vehicle_type_id":"4","last_reported":1680462252,"current_range_meters":800,"station_id":"ce4bh692rcd13ifvqea0","pricing_plan_id":"free"},{"bike_id":"b13617e2-6e83-4bbc-9a8d-bedf93319c7a","system_id":"levelo_inurba_marseille","lat":43.292644,"lon":5.384257,"is_reserved":false,"is_disabled":false,"rental_uris":{"android":"levelo://app?vid=b13617e2-6e83-4bbc-9a8d-bedf93319c7a","ios":"levelo://app?vid=b13617e2-6e83-4bbc-9a8d-bedf93319c7a"},"vehicle_type_id":"4","last_reported":1680462252,"current_range_meters":4000,"station_id":"ce4bh692rcd13ifvqea0","pricing_plan_id":"free"},{"bike_id":"18224f97-905a-4084-817e-f4e6b1f18d7b","system_id":"levelo_inurba_marseille","lat":43.28877,"lon":5.3608,"is_reserved":false,"is_disabled":false,"rental_uris":{"android":"levelo://app?vid=18224f97-905a-4084-817e-f4e6b1f18d7b","ios":"levelo://app?vid=18224f97-905a-4084-817e-f4e6b1f18d7b"},"vehicle_type_id":"4","last_reported":1680462252,"current_range_meters":0,"station_id":"","pricing_plan_id":"free"},{"bike_id":"3e59c340-f288-4a34-8810-3133e0a93473","system_id":"levelo_inurba_marseille","lat":43.295169,"lon":5.390426,"is_reserved":false,"is_disabled":false,"rental_uris":{"android":"levelo://app?vid=3e59c340-f288-4a34-8810-3133e0a93473","ios":"levelo://app?vid=3e59c340-f288-4a34-8810-3133e0a93473"},"vehicle_type_id":"4","last_reported":1680462252,"current_range_meters":2000,"station_id":"ce4bh3p2rcd13ifvqdp0","pricing_plan_id":"free"},{"bike_id":"5fa29c0b-2eac-4d7e-8528-fa4d8924666f","system_id":"levelo_inurba_marseille","lat":43.309314,"lon":5.400459,"is_reserved":false,"is_disabled":false,"rental_uris":{"android":"levelo://app?vid=5fa29c0b-2eac-4d7e-8528-fa4d8924666f","ios":"levelo://app?vid=5fa29c0b-2eac-4d7e-8528-fa4d8924666f"},"vehicle_type_id":"4","last_reported":1680462252,"current_range_meters":0,"station_id":"","pricing_plan_id":"free"},{"bike_id":"9f2a98a3-8046-4298-99dc-579e1cd8c033","system_id":"levelo_inurba_marseille","lat":43.30996,"lon":5.40083,"is_reserved":false,"is_disabled":false,"rental_uris":{"android":"levelo://app?vid=9f2a98a3-8046-4298-99dc-579e1cd8c033","ios":"levelo://app?vid=9f2a98a3-8046-4298-99dc-579e1cd8c033"},"vehicle_type_id":"4","last_reported":1680462252,"current_range_meters":14400,"station_id":"","pricing_plan_id":"free"},{"bike_id":"6c78f3b6-3bbe-4e01-857e-6588297006de","system_id":"levelo_inurba_marseille","lat":43.28856,"lon":5.358371,"is_reserved":false,"is_disabled":false,"rental_uris":{"android":"levelo://app?vid=6c78f3b6-3bbe-4e01-857e-6588297006de","ios":"levelo://app?vid=6c78f3b6-3bbe-4e01-857e-6588297006de"},"vehicle_type_id":"4","last_reported":1680462252,"current_range_meters":4000,"station_id":"ce4bhb12rcd13ifvqem0","pricing_plan_id":"free"},{"bike_id":"6274e74e-e4b8-494c-9625-add9298072c0","system_id":"levelo_inurba_marseille","lat":43.30739,"lon":5.40103,"is_reserved":false,"is_disabled":false,"rental_uris":{"android":"levelo://app?vid=6274e74e-e4b8-494c-9625-add9298072c0","ios":"levelo://app?vid=6274e74e-e4b8-494c-9625-add9298072c0"},"vehicle_type_id":"4","last_reported":1680462252,"current_range_meters":2800,"station_id":"","pricing_plan_id":"free"},{"bike_id":"8da554b7-a47d-4580-b62d-82b554803b69","system_id":"levelo_inurba_marseille","lat":43.33764,"lon":5.37457,"is_reserved":false,"is_disabled":false,"rental_uris":{"android":"levelo://app?vid=8da554b7-a47d-4580-b62d-82b554803b69","ios":"levelo://app?vid=8da554b7-a47d-4580-b62d-82b554803b69"},"vehicle_type_id":"4","last_reported":1680462252,"current_range_meters":22800,"station_id":"","pricing_plan_id":"free"},{"bike_id":"008c876a-ff80-4bda-9c26-4de804d955ae","system_id":"levelo_inurba_marseille","lat":43.31575,"lon":5.40254,"is_reserved":false,"is_disabled":false,"rental_uris":{"android":"levelo://app?vid=008c876a-ff80-4bda-9c26-4de804d955ae","ios":"levelo://app?vid=008c876a-ff80-4bda-9c26-4de804d955ae"},"vehicle_type_id":"4","last_reported":1680462252,"current_range_meters":9200,"station_id":"","pricing_plan_id":"free"},{"bike_id":"bce5674c-138c-4d80-8802-8472d08b899f","system_id":"levelo_inurba_marseille","lat":43.291,"lon":5.3895,"is_reserved":false,"is_disabled":false,"rental_uris":{"android":"levelo://app?vid=bce5674c-138c-4d80-8802-8472d08b899f","ios":"levelo://app?vid=bce5674c-138c-4d80-8802-8472d08b899f"},"vehicle_type_id":"4","last_reported":1680462252,"current_range_meters":14800,"station_id":"","pricing_plan_id":"free"},{"bike_id":"191d4680-ccae-4935-9436-9cf60e922340","system_id":"levelo_inurba_marseille","lat":43.284534,"lon":5.358662,"is_reserved":false,"is_disabled":false,"rental_uris":{"android":"levelo://app?vid=191d4680-ccae-4935-9436-9cf60e922340","ios":"levelo://app?vid=191d4680-ccae-4935-9436-9cf60e922340"},"vehicle_type_id":"4","last_reported":1680462252,"current_range_meters":1600,"station_id":"ce4bhah2rcd13ifvqei0","pricing_plan_id":"free"},{"bike_id":"faedd159-a06f-4dbf-bac4-5a885da2ec04","system_id":"levelo_inurba_marseille","lat":43.284534,"lon":5.358662,"is_reserved":false,"is_disabled":false,"rental_uris":{"android":"levelo://app?vid=faedd159-a06f-4dbf-bac4-5a885da2ec04","ios":"levelo://app?vid=faedd159-a06f-4dbf-bac4-5a885da2ec04"},"vehicle_type_id":"4","last_reported":1680462252,"current_range_meters":0,"station_id":"ce4bhah2rcd13ifvqei0","pricing_plan_id":"free"},{"bike_id":"8c7dbc56-9ee3-42bf-b6aa-6494a5275b03","system_id":"levelo_inurba_marseille","lat":43.29433,"lon":5.39792,"is_reserved":false,"is_disabled":false,"rental_uris":{"android":"levelo://app?vid=8c7dbc56-9ee3-42bf-b6aa-6494a5275b03","ios":"levelo://app?vid=8c7dbc56-9ee3-42bf-b6aa-6494a5275b03"},"vehicle_type_id":"4","last_reported":1680462252,"current_range_meters":4000,"station_id":"","pricing_plan_id":"free"},{"bike_id":"fab75fff-55b8-48d5-85e7-4a09e089b745","system_id":"levelo_inurba_marseille","lat":43.29563,"lon":5.39971,"is_reserved":false,"is_disabled":false,"rental_uris":{"android":"levelo://app?vid=fab75fff-55b8-48d5-85e7-4a09e089b745","ios":"levelo://app?vid=fab75fff-55b8-48d5-85e7-4a09e089b745"},"vehicle_type_id":"4","last_reported":1680462252,"current_range_meters":0,"station_id":"","pricing_plan_id":"free"},{"bike_id":"cfaea9e0-96bf-41ba-a96d-aaa161010bfa","system_id":"levelo_inurba_marseille","lat":43.28528,"lon":5.38387,"is_reserved":false,"is_disabled":false,"rental_uris":{"android":"levelo://app?vid=cfaea9e0-96bf-41ba-a96d-aaa161010bfa","ios":"levelo://app?vid=cfaea9e0-96bf-41ba-a96d-aaa161010bfa"},"vehicle_type_id":"4","last_reported":1680462252,"current_range_meters":6400,"station_id":"","pricing_plan_id":"free"},{"bike_id":"9623d4ec-61a1-4b34-a069-bae77bb911b7","system_id":"levelo_inurba_marseille","lat":43.284793,"lon":5.384113,"is_reserved":false,"is_disabled":false,"rental_uris":{"android":"levelo://app?vid=9623d4ec-61a1-4b34-a069-bae77bb911b7","ios":"levelo://app?vid=9623d4ec-61a1-4b34-a069-bae77bb911b7"},"vehicle_type_id":"4","last_reported":1680462252,"current_range_meters":0,"station_id":"ce4bh512rcd13ifvqe3g","pricing_plan_id":"free"},{"bike_id":"f136a4a0-46e8-4ad4-8dfc-672cf0eb14d4","system_id":"levelo_inurba_marseille","lat":43.30819,"lon":5.408971,"is_reserved":false,"is_disabled":false,"rental_uris":{"android":"levelo://app?vid=f136a4a0-46e8-4ad4-8dfc-672cf0eb14d4","ios":"levelo://app?vid=f136a4a0-46e8-4ad4-8dfc-672cf0eb14d4"},"vehicle_type_id":"4","last_reported":1680462252,"current_range_meters":10400,"station_id":"","pricing_plan_id":"free"},{"bike_id":"eb838cb9-f927-4b71-a03b-5c3a2add866a","system_id":"levelo_inurba_marseille","lat":43.280952,"lon":5.368881,"is_reserved":false,"is_disabled":false,"rental_uris":{"android":"levelo://app?vid=eb838cb9-f927-4b71-a03b-5c3a2add866a","ios":"levelo://app?vid=eb838cb9-f927-4b71-a03b-5c3a2add866a"},"vehicle_type_id":"4","last_reported":1680462252,"current_range_meters":20000,"station_id":"ce4bha12rcd13ifvqef0","pricing_plan_id":"free"},{"bike_id":"05ae36ae-3e08-40a8-b19f-76ff5b0e7113","system_id":"levelo_inurba_marseille","lat":43.28385,"lon":5.38641,"is_reserved":false,"is_disabled":false,"rental_uris":{"android":"levelo://app?vid=05ae36ae-3e08-40a8-b19f-76ff5b0e7113","ios":"levelo://app?vid=05ae36ae-3e08-40a8-b19f-76ff5b0e7113"},"vehicle_type_id":"4","last_reported":1680462252,"current_range_meters":1200,"station_id":"","pricing_plan_id":"free"},{"bike_id":"ca3a6354-70b6-4f84-9556-60e1a83e4241","system_id":"levelo_inurba_marseille","lat":43.28368,"lon":5.38627,"is_reserved":false,"is_disabled":false,"rental_uris":{"android":"levelo://app?vid=ca3a6354-70b6-4f84-9556-60e1a83e4241","ios":"levelo://app?vid=ca3a6354-70b6-4f84-9556-60e1a83e4241"},"vehicle_type_id":"4","last_reported":1680462252,"current_range_meters":7600,"station_id":"ce4bh492rcd13ifvqdvg","pricing_plan_id":"free"},{"bike_id":"d4d476ae-3cd7-4164-bf9c-828ca6647367","system_id":"levelo_inurba_marseille","lat":43.283502,"lon":5.386471,"is_reserved":false,"is_disabled":false,"rental_uris":{"android":"levelo://app?vid=d4d476ae-3cd7-4164-bf9c-828ca6647367","ios":"levelo://app?vid=d4d476ae-3cd7-4164-bf9c-828ca6647367"},"vehicle_type_id":"4","last_reported":1680462252,"current_range_meters":1600,"station_id":"ce4bh492rcd13ifvqdvg","pricing_plan_id":"free"},{"bike_id":"77744a42-33cc-4dc6-b9bd-dcdb7a3e4261","system_id":"levelo_inurba_marseille","lat":43.283502,"lon":5.386471,"is_reserved":false,"is_disabled":false,"rental_uris":{"android":"levelo://app?vid=77744a42-33cc-4dc6-b9bd-dcdb7a3e4261","ios":"levelo://app?vid=77744a42-33cc-4dc6-b9bd-dcdb7a3e4261"},"vehicle_type_id":"4","last_reported":1680462252,"current_range_meters":2800,"station_id":"ce4bh492rcd13ifvqdvg","pricing_plan_id":"free"},{"bike_id":"18dabaa1-3d93-413c-ad26-0258c7aaad12","system_id":"levelo_inurba_marseille","lat":43.28036,"lon":5.36951,"is_reserved":false,"is_disabled":false,"rental_uris":{"android":"levelo://app?vid=18dabaa1-3d93-413c-ad26-0258c7aaad12","ios":"levelo://app?vid=18dabaa1-3d93-413c-ad26-0258c7aaad12"},"vehicle_type_id":"4","last_reported":1680462252,"current_range_meters":1200,"station_id":"","pricing_plan_id":"free"},{"bike_id":"aecee3a3-a98d-4fdb-b360-8fdd7634838b","system_id":"levelo_inurba_marseille","lat":43.283502,"lon":5.386471,"is_reserved":false,"is_disabled":false,"rental_uris":{"android":"levelo://app?vid=aecee3a3-a98d-4fdb-b360-8fdd7634838b","ios":"levelo://app?vid=aecee3a3-a98d-4fdb-b360-8fdd7634838b"},"vehicle_type_id":"4","last_reported":1680462252,"current_range_meters":24400,"station_id":"ce4bh492rcd13ifvqdvg","pricing_plan_id":"free"},{"bike_id":"139c297b-da50-48ac-b9f0-bf377f0022e2","system_id":"levelo_inurba_marseille","lat":43.279742,"lon":5.38744,"is_reserved":false,"is_disabled":false,"rental_uris":{"android":"levelo://app?vid=139c297b-da50-48ac-b9f0-bf377f0022e2","ios":"levelo://app?vid=139c297b-da50-48ac-b9f0-bf377f0022e2"},"vehicle_type_id":"4","last_reported":1680462252,"current_range_meters":1600,"station_id":"ce4bhg12rcd13ifvqf80","pricing_plan_id":"free"},{"bike_id":"a5f08844-aad2-4d0c-8fcb-a36ac9182669","system_id":"levelo_inurba_marseille","lat":43.279742,"lon":5.38744,"is_reserved":false,"is_disabled":false,"rental_uris":{"android":"levelo://app?vid=a5f08844-aad2-4d0c-8fcb-a36ac9182669","ios":"levelo://app?vid=a5f08844-aad2-4d0c-8fcb-a36ac9182669"},"vehicle_type_id":"4","last_reported":1680462252,"current_range_meters":4400,"station_id":"ce4bhg12rcd13ifvqf80","pricing_plan_id":"free"},{"bike_id":"f3ffea93-a659-42c8-8c79-10d7791a4d7f","system_id":"levelo_inurba_marseille","lat":43.320045,"lon":5.415048,"is_reserved":false,"is_disabled":false,"rental_uris":{"android":"levelo://app?vid=f3ffea93-a659-42c8-8c79-10d7791a4d7f","ios":"levelo://app?vid=f3ffea93-a659-42c8-8c79-10d7791a4d7f"},"vehicle_type_id":"4","last_reported":1680462252,"current_range_meters":0,"station_id":"ce4bhq92rcd13ifvqhkg","pricing_plan_id":"free"},{"bike_id":"3a5b5772-7be0-4b92-9fc2-ddbdba331754","system_id":"levelo_inurba_marseille","lat":43.287184,"lon":5.37937,"is_reserved":false,"is_disabled":false,"rental_uris":{"android":"levelo://app?vid=3a5b5772-7be0-4b92-9fc2-ddbdba331754","ios":"levelo://app?vid=3a5b5772-7be0-4b92-9fc2-ddbdba331754"},"vehicle_type_id":"4","last_reported":1680462252,"current_range_meters":2000,"station_id":"ce4bh9p2rcd13ifvqec0","pricing_plan_id":"free"},{"bike_id":"19f80003-2878-4f67-936c-dab0c3153eba","system_id":"levelo_inurba_marseille","lat":43.280784,"lon":5.396622,"is_reserved":false,"is_disabled":false,"rental_uris":{"android":"levelo://app?vid=19f80003-2878-4f67-936c-dab0c3153eba","ios":"levelo://app?vid=19f80003-2878-4f67-936c-dab0c3153eba"},"vehicle_type_id":"4","last_reported":1680462252,"current_range_meters":7200,"station_id":"ce4bho12rcd13ifvqh2g","pricing_plan_id":"free"},{"bike_id":"3dbfff54-c6c6-4d49-ba15-2c4dcf453013","system_id":"levelo_inurba_marseille","lat":43.27667,"lon":5.38907,"is_reserved":false,"is_disabled":false,"rental_uris":{"android":"levelo://app?vid=3dbfff54-c6c6-4d49-ba15-2c4dcf453013","ios":"levelo://app?vid=3dbfff54-c6c6-4d49-ba15-2c4dcf453013"},"vehicle_type_id":"4","last_reported":1680462252,"current_range_meters":0,"station_id":"ce4bhi12rcd13ifvqfo0","pricing_plan_id":"free"},{"bike_id":"2d7be923-12ac-4b5d-bcb5-2603fad4bf1b","system_id":"levelo_inurba_marseille","lat":43.317121,"lon":5.423936,"is_reserved":false,"is_disabled":false,"rental_uris":{"android":"levelo://app?vid=2d7be923-12ac-4b5d-bcb5-2603fad4bf1b","ios":"levelo://app?vid=2d7be923-12ac-4b5d-bcb5-2603fad4bf1b"},"vehicle_type_id":"4","last_reported":1680462252,"current_range_meters":13200,"station_id":"ce4bhp92rcd13ifvqhbg","pricing_plan_id":"free"},{"bike_id":"e823df88-a2cb-4012-a2ce-9efc54f6a445","system_id":"levelo_inurba_marseille","lat":43.30414,"lon":5.42539,"is_reserved":false,"is_disabled":false,"rental_uris":{"android":"levelo://app?vid=e823df88-a2cb-4012-a2ce-9efc54f6a445","ios":"levelo://app?vid=e823df88-a2cb-4012-a2ce-9efc54f6a445"},"vehicle_type_id":"4","last_reported":1680462252,"current_range_meters":0,"station_id":"","pricing_plan_id":"free"},{"bike_id":"29e0905b-b5c5-4e7e-81ae-34a1b02d6c11","system_id":"levelo_inurba_marseille","lat":43.278128,"lon":5.407195,"is_reserved":false,"is_disabled":false,"rental_uris":{"android":"levelo://app?vid=29e0905b-b5c5-4e7e-81ae-34a1b02d6c11","ios":"levelo://app?vid=29e0905b-b5c5-4e7e-81ae-34a1b02d6c11"},"vehicle_type_id":"4","last_reported":1680462252,"current_range_meters":12800,"station_id":"ce4bhnh2rcd13ifvqgtg","pricing_plan_id":"free"},{"bike_id":"1a0c6be5-99a3-4a9f-b407-7df72aa0b6a6","system_id":"levelo_inurba_marseille","lat":43.29183,"lon":5.42259,"is_reserved":false,"is_disabled":false,"rental_uris":{"android":"levelo://app?vid=1a0c6be5-99a3-4a9f-b407-7df72aa0b6a6","ios":"levelo://app?vid=1a0c6be5-99a3-4a9f-b407-7df72aa0b6a6"},"vehicle_type_id":"4","last_reported":1680462252,"current_range_meters":15600,"station_id":"","pricing_plan_id":"free"},{"bike_id":"cd203ceb-3c43-4561-b2ab-ee9266b8ada5","system_id":"levelo_inurba_marseille","lat":43.267966,"lon":5.393976,"is_reserved":false,"is_disabled":false,"rental_uris":{"android":"levelo://app?vid=cd203ceb-3c43-4561-b2ab-ee9266b8ada5","ios":"levelo://app?vid=cd203ceb-3c43-4561-b2ab-ee9266b8ada5"},"vehicle_type_id":"4","last_reported":1680462252,"current_range_meters":3600,"station_id":"ce4bhh12rcd13ifvqfg0","pricing_plan_id":"free"},{"bike_id":"7a904073-465b-4216-8bfb-8d77ab4901ea","system_id":"levelo_inurba_marseille","lat":43.26567,"lon":5.39009,"is_reserved":false,"is_disabled":false,"rental_uris":{"android":"levelo://app?vid=7a904073-465b-4216-8bfb-8d77ab4901ea","ios":"levelo://app?vid=7a904073-465b-4216-8bfb-8d77ab4901ea"},"vehicle_type_id":"4","last_reported":1680462252,"current_range_meters":13600,"station_id":"ce4bhe12rcd13ifvqf30","pricing_plan_id":"free"},{"bike_id":"b68a9be2-d645-4086-834b-ec06d43363fa","system_id":"levelo_inurba_marseille","lat":43.265569,"lon":5.390047,"is_reserved":false,"is_disabled":false,"rental_uris":{"android":"levelo://app?vid=b68a9be2-d645-4086-834b-ec06d43363fa","ios":"levelo://app?vid=b68a9be2-d645-4086-834b-ec06d43363fa"},"vehicle_type_id":"4","last_reported":1680462252,"current_range_meters":20400,"station_id":"ce4bhe12rcd13ifvqf30","pricing_plan_id":"free"},{"bike_id":"31072f9a-0cfd-4cae-a723-ec401b29c984","system_id":"levelo_inurba_marseille","lat":43.26565,"lon":5.39003,"is_reserved":false,"is_disabled":false,"rental_uris":{"android":"levelo://app?vid=31072f9a-0cfd-4cae-a723-ec401b29c984","ios":"levelo://app?vid=31072f9a-0cfd-4cae-a723-ec401b29c984"},"vehicle_type_id":"4","last_reported":1680462252,"current_range_meters":1200,"station_id":"ce4bhe12rcd13ifvqf30","pricing_plan_id":"free"},{"bike_id":"fe6b02fb-4b4b-44f3-ab93-315275670c33","system_id":"levelo_inurba_marseille","lat":43.26185,"lon":5.37447,"is_reserved":false,"is_disabled":false,"rental_uris":{"android":"levelo://app?vid=fe6b02fb-4b4b-44f3-ab93-315275670c33","ios":"levelo://app?vid=fe6b02fb-4b4b-44f3-ab93-315275670c33"},"vehicle_type_id":"4","last_reported":1680462252,"current_range_meters":0,"station_id":"ce4bhgp2rcd13ifvqfc0","pricing_plan_id":"free"},{"bike_id":"6e8c92ff-1587-43d6-a056-5aac48918100","system_id":"levelo_inurba_marseille","lat":43.26185,"lon":5.37448,"is_reserved":false,"is_disabled":false,"rental_uris":{"android":"levelo://app?vid=6e8c92ff-1587-43d6-a056-5aac48918100","ios":"levelo://app?vid=6e8c92ff-1587-43d6-a056-5aac48918100"},"vehicle_type_id":"4","last_reported":1680462252,"current_range_meters":0,"station_id":"ce4bhgp2rcd13ifvqfc0","pricing_plan_id":"free"},{"bike_id":"79d8e33c-6155-4c61-b21a-c1eaf4a168ee","system_id":"levelo_inurba_marseille","lat":43.2607,"lon":5.393983,"is_reserved":false,"is_disabled":false,"rental_uris":{"android":"levelo://app?vid=79d8e33c-6155-4c61-b21a-c1eaf4a168ee","ios":"levelo://app?vid=79d8e33c-6155-4c61-b21a-c1eaf4a168ee"},"vehicle_type_id":"4","last_reported":1680462252,"current_range_meters":10400,"station_id":"ce4bhh92rcd13ifvqfj0","pricing_plan_id":"free"},{"bike_id":"b163fb88-6e41-424a-8409-0f3a5633b5f7","system_id":"levelo_inurba_marseille","lat":43.258658,"lon":5.398935,"is_reserved":false,"is_disabled":false,"rental_uris":{"android":"levelo://app?vid=b163fb88-6e41-424a-8409-0f3a5633b5f7","ios":"levelo://app?vid=b163fb88-6e41-424a-8409-0f3a5633b5f7"},"vehicle_type_id":"4","last_reported":1680462252,"current_range_meters":10800,"station_id":"ce4bhl92rcd13ifvqghg","pricing_plan_id":"free"},{"bike_id":"2a9fbed7-8c36-4551-bc3e-c09a23551b4f","system_id":"levelo_inurba_marseille","lat":43.25424,"lon":5.38149,"is_reserved":false,"is_disabled":false,"rental_uris":{"android":"levelo://app?vid=2a9fbed7-8c36-4551-bc3e-c09a23551b4f","ios":"levelo://app?vid=2a9fbed7-8c36-4551-bc3e-c09a23551b4f"},"vehicle_type_id":"4","last_reported":1680462252,"current_range_meters":15600,"station_id":"","pricing_plan_id":"free"},{"bike_id":"7fe6e462-697e-4a5a-b59f-781bab6ba83e","system_id":"levelo_inurba_marseille","lat":43.27294,"lon":5.43119,"is_reserved":false,"is_disabled":false,"rental_uris":{"android":"levelo://app?vid=7fe6e462-697e-4a5a-b59f-781bab6ba83e","ios":"levelo://app?vid=7fe6e462-697e-4a5a-b59f-781bab6ba83e"},"vehicle_type_id":"4","last_reported":1680462252,"current_range_meters":22400,"station_id":"","pricing_plan_id":"free"},{"bike_id":"59d8950e-c35e-4b93-8bb4-30777d5c69c4","system_id":"levelo_inurba_marseille","lat":43.2805,"lon":5.44063,"is_reserved":false,"is_disabled":false,"rental_uris":{"android":"levelo://app?vid=59d8950e-c35e-4b93-8bb4-30777d5c69c4","ios":"levelo://app?vid=59d8950e-c35e-4b93-8bb4-30777d5c69c4"},"vehicle_type_id":"4","last_reported":1680462252,"current_range_meters":2400,"station_id":"","pricing_plan_id":"free"},{"bike_id":"043e825f-9ea2-4978-be87-020ace181c29","system_id":"levelo_inurba_marseille","lat":43.28016,"lon":5.44294,"is_reserved":false,"is_disabled":false,"rental_uris":{"android":"levelo://app?vid=043e825f-9ea2-4978-be87-020ace181c29","ios":"levelo://app?vid=043e825f-9ea2-4978-be87-020ace181c29"},"vehicle_type_id":"4","last_reported":1680462252,"current_range_meters":8000,"station_id":"","pricing_plan_id":"free"},{"bike_id":"861fceda-f9b5-4489-a832-6d99a74a4d3a","system_id":"levelo_inurba_marseille","lat":43.2479,"lon":5.374457,"is_reserved":false,"is_disabled":false,"rental_uris":{"android":"levelo://app?vid=861fceda-f9b5-4489-a832-6d99a74a4d3a","ios":"levelo://app?vid=861fceda-f9b5-4489-a832-6d99a74a4d3a"},"vehicle_type_id":"4","last_reported":1680462252,"current_range_meters":18800,"station_id":"ce4bhgh2rcd13ifvqfb0","pricing_plan_id":"free"},{"bike_id":"5a953ba8-23cf-464c-8f14-925558334a64","system_id":"levelo_inurba_marseille","lat":43.25129,"lon":5.40283,"is_reserved":false,"is_disabled":false,"rental_uris":{"android":"levelo://app?vid=5a953ba8-23cf-464c-8f14-925558334a64","ios":"levelo://app?vid=5a953ba8-23cf-464c-8f14-925558334a64"},"vehicle_type_id":"4","last_reported":1680462252,"current_range_meters":0,"station_id":"","pricing_plan_id":"free"},{"bike_id":"3d215131-40b8-40e9-a242-0f282409f371","system_id":"levelo_inurba_marseille","lat":43.23968,"lon":5.36635,"is_reserved":false,"is_disabled":false,"rental_uris":{"android":"levelo://app?vid=3d215131-40b8-40e9-a242-0f282409f371","ios":"levelo://app?vid=3d215131-40b8-40e9-a242-0f282409f371"},"vehicle_type_id":"4","last_reported":1680462252,"current_range_meters":0,"station_id":"ce4bhi12rcd13ifvqfp0","pricing_plan_id":"free"}]}}