{"last_updated":1740146832,"ttl":60,"version":"2.2","data":{"bikes":[{"bike_id":"2a6c5be6-b83f-4b03-8d5a-afb46f513bf3","system_id":"levelo_inurba_marseille","lat":43.22916,"lon":5.35379,"is_reserved":false,"is_disabled":false,"rental_uris":{"android":"levelo://app?vid=2a6c5be6-b83f-4b03-8d5a-afb46f513bf3","ios":"levelo://app?vid=2a6c5be6-b83f-4b03-8d5a-afb46f513bf3"},"vehicle_type_id":"4","last_reported":1740146832,"current_range_meters":2800,"station_id":"cpo3532slgdg3j2ikp40","pricing_plan_id":"cebpf4jnsgd1na2vs0mg"},{"bike_id":"d0f85df7-db61-4d19-85a3-03c479e478c8","system_id":"levelo_inurba_marseille","lat":43.31371,"lon":5.3672,"is_reserved":false,"is_disabled":false,"rental_uris":{"android":"levelo://app?vid=d0f85df7-db61-4d19-85a3-03c479e478c8","ios":"levelo://app?vid=d0f85df7-db61-4d19-85a3-03c479e478c8"},"vehicle_type_id":"4","last_reported":1740146832,"current_range_meters":2800,"station_id":"ce4bgr92rcd13ifvqc6g","pricing_plan_id":"cebpf4jnsgd1na2vs0mg"},{"bike_id":"789fdf0c-3889-4227-94d6-76c57bf373a6","system_id":"levelo_inurba_marseille","lat":43.229237,"lon":5.353742,"is_reserved":false,"is_disabled":false,"rental_uris":{"android":"levelo://app?vid=789fdf0c-3889-4227-94d6-76c57bf373a6","ios":"levelo://app?vid=789fdf0c-3889-4227-94d6-76c57bf373a6"},"vehicle_type_id":"4","last_reported":1740146832,"current_range_meters":3200,"station_id":"cpo3532slgdg3j2ikp40","pricing_plan_id":"cebpf4jnsgd1na2vs0mg"},{"bike_id":"40f1d59a-7049-41ab-acb4-3d83fde97e22","system_id":"levelo_inurba_marseille","lat":43.30608,"lon":5.3934,"is_reserved":false,"is_disabled":false,"rental_uris":{"android":"levelo://app?vid=40f1d59a-7049-41ab-acb4-3d83fde97e22","ios":"levelo://app?vid=40f1d59a-7049-41ab-acb4-3d83fde97e22"},"vehicle_type_id":"4","last_reported":1740146832,"current_range_meters":3200,"station_id":"ce4bh0p2rcd13ifvqd80","pricing_plan_id":"cebpf4jnsgd1na2vs0mg"},{"bike_id":"cb734c23-de83-4b55-ae84-2f317b3bd069","system_id":"levelo_inurba_marseille","lat":43.30807,"lon":5.43526,"is_reserved":false,"is_disabled":false,"rental_uris":{"android":"levelo://app?vid=cb734c23-de83-4b55-ae84-2f317b3bd069","ios":"levelo://app?vid=cb734c23-de83-4b55-ae84-2f317b3bd069"},"vehicle_type_id":"4","last_reported":1740146832,"current_range_meters":3600,"station_id":"ce4bhph2rcd13ifvqheg","pricing_plan_id":"cebpf4jnsgd1na2vs0mg"},{"bike_id":"2eb5a37f-ee39-4965-acff-82b82601a564","system_id":"levelo_inurba_marseille","lat":43.23043,"lon":5.35507,"is_reserved":false,"is_disabled":false,"rental_uris":{"android":"levelo://app?vid=2eb5a37f-ee39-4965-acff-82b82601a564","ios":"levelo://app?vid=2eb5a37f-ee39-4965-acff-82b82601a564"},"vehicle_type_id":"4","last_reported":1740146832,"current_range_meters":3600,"station_id":"cpo3342slgdg3j2ifvpg","pricing_plan_id":"cebpf4jnsgd1na2vs0mg"},{"bike_id":"549e66e1-0629-4b47-8fcb-52b230450be6","system_id":"levelo_inurba_marseille","lat":43.25002,"lon":5.38923,"is_reserved":false,"is_disabled":false,"rental_uris":{"android":"levelo://app?vid=549e66e1-0629-4b47-8fcb-52b230450be6","ios":"levelo://app?vid=549e66e1-0629-4b47-8fcb-52b230450be6"},"vehicle_type_id":"4","last_reported":1740146832,"current_range_meters":3600,"station_id":"ce4bhgp2rcd13ifvqfd0","pricing_plan_id":"cebpf4jnsgd1na2vs0mg"},{"bike_id":"fa937476-825f-4449-9967-b36e68b22767","system_id":"levelo_inurba_marseille","lat":43.2318,"lon":5.39989,"is_reserved":false,"is_disabled":false,"rental_uris":{"android":"levelo://app?vid=fa937476-825f-4449-9967-b36e68b22767","ios":"levelo://app?vid=fa937476-825f-4449-9967-b36e68b22767"},"vehicle_type_id":"4","last_reported":1740146832,"current_range_meters":4000,"station_id":"ce4bhn12rcd13ifvqgqg","pricing_plan_id":"cebpf4jnsgd1na2vs0mg"},{"bike_id":"f661ef40-e370-4e30-97d2-c82af19d3ae3","system_id":"levelo_inurba_marseille","lat":43.23962,"lon":5.36635,"is_reserved":false,"is_disabled":false,"rental_uris":{"android":"levelo://app?vid=f661ef40-e370-4e30-97d2-c82af19d3ae3","ios":"levelo://app?vid=f661ef40-e370-4e30-97d2-c82af19d3ae3"},"vehicle_type_id":"4","last_reported":1740146832,"current_range_meters":4000,"station_id":"ce4bhi12rcd13ifvqfp0","pricing_plan_id":"cebpf4jnsgd1na2vs0mg"},{"bike_id":"1b0b4b24-2a8d-47ce-80c7-ed96fb2361ba","system_id":"levelo_inurba_marseille","lat":43.299251,"lon":5.374787,"is_reserved":false,"is_disabled":false,"rental_uris":{"android":"levelo://app?vid=1b0b4b24-2a8d-47ce-80c7-ed96fb2361ba","ios":"levelo://app?vid=1b0b4b24-2a8d-47ce-80c7-ed96fb2361ba"},"vehicle_type_id":"4","last_reported":1740146832,"current_range_meters":4000,"station_id":"ce4bh192rcd13ifvqdd0","pricing_plan_id":"cebpf4jnsgd1na2vs0mg"},{"bike_id":"71ced3ad-94a9-46d2-85ff-ad42eb8241b1","system_id":"levelo_inurba_marseille","lat":43.30197,"lon":5.37378,"is_reserved":false,"is_disabled":false,"rental_uris":{"android":"levelo://app?vid=71ced3ad-94a9-46d2-85ff-ad42eb8241b1","ios":"levelo://app?vid=71ced3ad-94a9-46d2-85ff-ad42eb8241b1"},"vehicle_type_id":"4","last_reported":1740146832,"current_range_meters":4000,"station_id":"","pricing_plan_id":"cebpf4jnsgd1na2vs0mg"},{"bike_id":"1ec919ae-2b25-4afb-8056-850644e69f35","system_id":"levelo_inurba_marseille","lat":43.29353,"lon":5.3795,"is_reserved":false,"is_disabled":false,"rental_uris":{"android":"levelo://app?vid=1ec919ae-2b25-4afb-8056-850644e69f35","ios":"levelo://app?vid=1ec919ae-2b25-4afb-8056-850644e69f35"},"vehicle_type_id":"4","last_reported":1740146832,"current_range_meters":4400,"station_id":"","pricing_plan_id":"cebpf4jnsgd1na2vs0mg"},{"bike_id":"529574f9-cde9-4588-8de0-5311878fc8ef","system_id":"levelo_inurba_marseille","lat":43.3088,"lon":5.3965,"is_reserved":false,"is_disabled":false,"rental_uris":{"android":"levelo://app?vid=529574f9-cde9-4588-8de0-5311878fc8ef","ios":"levelo://app?vid=529574f9-cde9-4588-8de0-5311878fc8ef"},"vehicle_type_id":"4","last_reported":1740146832,"current_range_meters":4400,"station_id":"ce4bh012rcd13ifvqcv0","pricing_plan_id":"cebpf4jnsgd1na2vs0mg"},{"bike_id":"66d08779-a0b7-4cf7-8e2b-b1ba8aace6d8","system_id":"levelo_inurba_marseille","lat":43.30427,"lon":5.38904,"is_reserved":false,"is_disabled":false,"rental_uris":{"android":"levelo://app?vid=66d08779-a0b7-4cf7-8e2b-b1ba8aace6d8","ios":"levelo://app?vid=66d08779-a0b7-4cf7-8e2b-b1ba8aace6d8"},"vehicle_type_id":"4","last_reported":1740146832,"current_range_meters":4800,"station_id":"ce4bgk12rcd13ifvqbi0","pricing_plan_id":"cebpf4jnsgd1na2vs0mg"},{"bike_id":"0006b5fa-8ad1-430f-9b98-af8c1f3be4c8","system_id":"levelo_inurba_marseille","lat":43.25004,"lon":5.3893,"is_reserved":false,"is_disabled":false,"rental_uris":{"android":"levelo://app?vid=0006b5fa-8ad1-430f-9b98-af8c1f3be4c8","ios":"levelo://app?vid=0006b5fa-8ad1-430f-9b98-af8c1f3be4c8"},"vehicle_type_id":"4","last_reported":1740146832,"current_range_meters":4800,"station_id":"ce4bhgp2rcd13ifvqfd0","pricing_plan_id":"cebpf4jnsgd1na2vs0mg"},{"bike_id":"570ca427-4ebb-4e6e-ac7c-bf43daf98d1b","system_id":"levelo_inurba_marseille","lat":43.25936,"lon":5.40903,"is_reserved":false,"is_disabled":false,"rental_uris":{"android":"levelo://app?vid=570ca427-4ebb-4e6e-ac7c-bf43daf98d1b","ios":"levelo://app?vid=570ca427-4ebb-4e6e-ac7c-bf43daf98d1b"},"vehicle_type_id":"4","last_reported":1740146832,"current_range_meters":5600,"station_id":"ce4bhm92rcd13ifvqglg","pricing_plan_id":"cebpf4jnsgd1na2vs0mg"},{"bike_id":"a1320c2c-f188-4722-ad49-f63cc86fcbda","system_id":"levelo_inurba_marseille","lat":43.31368,"lon":5.36713,"is_reserved":false,"is_disabled":false,"rental_uris":{"android":"levelo://app?vid=a1320c2c-f188-4722-ad49-f63cc86fcbda","ios":"levelo://app?vid=a1320c2c-f188-4722-ad49-f63cc86fcbda"},"vehicle_type_id":"4","last_reported":1740146832,"current_range_meters":5600,"station_id":"ce4bgr92rcd13ifvqc6g","pricing_plan_id":"cebpf4jnsgd1na2vs0mg"},{"bike_id":"ca726b34-b6ae-47d7-85a7-2d80b8b50572","system_id":"levelo_inurba_marseille","lat":43.23195,"lon":5.35561,"is_reserved":false,"is_disabled":false,"rental_uris":{"android":"levelo://app?vid=ca726b34-b6ae-47d7-85a7-2d80b8b50572","ios":"levelo://app?vid=ca726b34-b6ae-47d7-85a7-2d80b8b50572"},"vehicle_type_id":"4","last_reported":1740146832,"current_range_meters":5600,"station_id":"ce4bhu92rcd13ifvqi70","pricing_plan_id":"cebpf4jnsgd1na2vs0mg"},{"bike_id":"0555ed46-e79c-4f7f-991f-9acdd94e87da","system_id":"levelo_inurba_marseille","lat":43.26809,"lon":5.402653,"is_reserved":false,"is_disabled":false,"rental_uris":{"android":"levelo://app?vid=0555ed46-e79c-4f7f-991f-9acdd94e87da","ios":"levelo://app?vid=0555ed46-e79c-4f7f-991f-9acdd94e87da"},"vehicle_type_id":"4","last_reported":1740146832,"current_range_meters":6000,"station_id":"ce501612rcd8frsf0b60","pricing_plan_id":"cebpf4jnsgd1na2vs0mg"},{"bike_id":"843c8993-eb89-48c0-bc46-978aec656ac8","system_id":"levelo_inurba_marseille","lat":43.27954,"lon":5.40857,"is_reserved":false,"is_disabled":false,"rental_uris":{"android":"levelo://app?vid=843c8993-eb89-48c0-bc46-978aec656ac8","ios":"levelo://app?vid=843c8993-eb89-48c0-bc46-978aec656ac8"},"vehicle_type_id":"4","last_reported":1740146832,"current_range_meters":6000,"station_id":"","pricing_plan_id":"cebpf4jnsgd1na2vs0mg"},{"bike_id":"d85edc5d-153e-4ebe-bf6a-fc07837290ad","system_id":"levelo_inurba_marseille","lat":43.29034,"lon":5.37577,"is_reserved":false,"is_disabled":false,"rental_uris":{"android":"levelo://app?vid=d85edc5d-153e-4ebe-bf6a-fc07837290ad","ios":"levelo://app?vid=d85edc5d-153e-4ebe-bf6a-fc07837290ad"},"vehicle_type_id":"4","last_reported":1740146832,"current_range_meters":6000,"station_id":"ce4bh692rcd13ifvqe90","pricing_plan_id":"cebpf4jnsgd1na2vs0mg"},{"bike_id":"34efc9d3-b5ff-4861-b6b7-2ea31af42151","system_id":"levelo_inurba_marseille","lat":43.2958,"lon":5.36737,"is_reserved":false,"is_disabled":false,"rental_uris":{"android":"levelo://app?vid=34efc9d3-b5ff-4861-b6b7-2ea31af42151","ios":"levelo://app?vid=34efc9d3-b5ff-4861-b6b7-2ea31af42151"},"vehicle_type_id":"4","last_reported":1740146832,"current_range_meters":6000,"station_id":"ce4bgph2rcd13ifvqc2g","pricing_plan_id":"cebpf4jnsgd1na2vs0mg"},{"bike_id":"a91e9203-e2c4-41a8-ae25-a131bf8da8e9","system_id":"levelo_inurba_marseille","lat":43.29188,"lon":5.35813,"is_reserved":false,"is_disabled":false,"rental_uris":{"android":"levelo://app?vid=a91e9203-e2c4-41a8-ae25-a131bf8da8e9","ios":"levelo://app?vid=a91e9203-e2c4-41a8-ae25-a131bf8da8e9"},"vehicle_type_id":"4","last_reported":1740146832,"current_range_meters":6000,"station_id":"","pricing_plan_id":"cebpf4jnsgd1na2vs0mg"},{"bike_id":"0103d481-45cf-46ab-b256-6091acc801f7","system_id":"levelo_inurba_marseille","lat":43.27945,"lon":5.39556,"is_reserved":false,"is_disabled":false,"rental_uris":{"android":"levelo://app?vid=0103d481-45cf-46ab-b256-6091acc801f7","ios":"levelo://app?vid=0103d481-45cf-46ab-b256-6091acc801f7"},"vehicle_type_id":"4","last_reported":1740146832,"current_range_meters":6000,"station_id":"ce4bhf92rcd13ifvqf40","pricing_plan_id":"cebpf4jnsgd1na2vs0mg"},{"bike_id":"10f14cdd-976f-4036-affd-35be4beb171e","system_id":"levelo_inurba_marseille","lat":43.270533,"lon":5.402638,"is_reserved":false,"is_disabled":false,"rental_uris":{"android":"levelo://app?vid=10f14cdd-976f-4036-affd-35be4beb171e","ios":"levelo://app?vid=10f14cdd-976f-4036-affd-35be4beb171e"},"vehicle_type_id":"4","last_reported":1740146832,"current_range_meters":6400,"station_id":"ce4bhk92rcd13ifvqgc0","pricing_plan_id":"cebpf4jnsgd1na2vs0mg"},{"bike_id":"767ec2f5-a3c6-44f4-b21b-2c3b976984cf","system_id":"levelo_inurba_marseille","lat":43.23186,"lon":5.39984,"is_reserved":false,"is_disabled":false,"rental_uris":{"android":"levelo://app?vid=767ec2f5-a3c6-44f4-b21b-2c3b976984cf","ios":"levelo://app?vid=767ec2f5-a3c6-44f4-b21b-2c3b976984cf"},"vehicle_type_id":"4","last_reported":1740146832,"current_range_meters":6400,"station_id":"ce4bhn12rcd13ifvqgqg","pricing_plan_id":"cebpf4jnsgd1na2vs0mg"},{"bike_id":"c188b9cd-3a5b-4bc4-a7ab-601460c7850c","system_id":"levelo_inurba_marseille","lat":43.27204,"lon":5.39185,"is_reserved":false,"is_disabled":false,"rental_uris":{"android":"levelo://app?vid=c188b9cd-3a5b-4bc4-a7ab-601460c7850c","ios":"levelo://app?vid=c188b9cd-3a5b-4bc4-a7ab-601460c7850c"},"vehicle_type_id":"4","last_reported":1740146832,"current_range_meters":6400,"station_id":"ce4bhhp2rcd13ifvqfm0","pricing_plan_id":"cebpf4jnsgd1na2vs0mg"},{"bike_id":"77ff63e8-b5ae-48d0-8725-3fc2e7c2e786","system_id":"levelo_inurba_marseille","lat":43.32106,"lon":5.36782,"is_reserved":false,"is_disabled":false,"rental_uris":{"android":"levelo://app?vid=77ff63e8-b5ae-48d0-8725-3fc2e7c2e786","ios":"levelo://app?vid=77ff63e8-b5ae-48d0-8725-3fc2e7c2e786"},"vehicle_type_id":"4","last_reported":1740146832,"current_range_meters":6400,"station_id":"ce4bhrh2rcd13ifvqhug","pricing_plan_id":"cebpf4jnsgd1na2vs0mg"},{"bike_id":"f9fb781c-093a-4626-81d7-b95df7303bb1","system_id":"levelo_inurba_marseille","lat":43.24818,"lon":5.37453,"is_reserved":false,"is_disabled":true,"rental_uris":{"android":"levelo://app?vid=f9fb781c-093a-4626-81d7-b95df7303bb1","ios":"levelo://app?vid=f9fb781c-093a-4626-81d7-b95df7303bb1"},"vehicle_type_id":"4","last_reported":1740146832,"current_range_meters":6400,"station_id":"ce4bhgh2rcd13ifvqfb0","pricing_plan_id":"cebpf4jnsgd1na2vs0mg"},{"bike_id":"5516853e-78cf-4be2-9f26-f0cbb736d267","system_id":"levelo_inurba_marseille","lat":43.29893,"lon":5.4366,"is_reserved":false,"is_disabled":false,"rental_uris":{"android":"levelo://app?vid=5516853e-78cf-4be2-9f26-f0cbb736d267","ios":"levelo://app?vid=5516853e-78cf-4be2-9f26-f0cbb736d267"},"vehicle_type_id":"4","last_reported":1740146832,"current_range_meters":6400,"station_id":"ce4bhpp2rcd13ifvqhfg","pricing_plan_id":"cebpf4jnsgd1na2vs0mg"},{"bike_id":"022e93f2-12d7-4213-b8ad-98afa8da1efe","system_id":"levelo_inurba_marseille","lat":43.26805,"lon":5.40267,"is_reserved":false,"is_disabled":false,"rental_uris":{"android":"levelo://app?vid=022e93f2-12d7-4213-b8ad-98afa8da1efe","ios":"levelo://app?vid=022e93f2-12d7-4213-b8ad-98afa8da1efe"},"vehicle_type_id":"4","last_reported":1740146832,"current_range_meters":6400,"station_id":"ce501612rcd8frsf0b60","pricing_plan_id":"cebpf4jnsgd1na2vs0mg"},{"bike_id":"e07d7381-9639-4623-a587-7fbd840bfc02","system_id":"levelo_inurba_marseille","lat":43.23185,"lon":5.35551,"is_reserved":false,"is_disabled":false,"rental_uris":{"android":"levelo://app?vid=e07d7381-9639-4623-a587-7fbd840bfc02","ios":"levelo://app?vid=e07d7381-9639-4623-a587-7fbd840bfc02"},"vehicle_type_id":"4","last_reported":1740146832,"current_range_meters":6800,"station_id":"","pricing_plan_id":"cebpf4jnsgd1na2vs0mg"},{"bike_id":"21d22a66-8579-4cf3-923f-22cf3cc043bf","system_id":"levelo_inurba_marseille","lat":43.23186,"lon":5.39991,"is_reserved":false,"is_disabled":false,"rental_uris":{"android":"levelo://app?vid=21d22a66-8579-4cf3-923f-22cf3cc043bf","ios":"levelo://app?vid=21d22a66-8579-4cf3-923f-22cf3cc043bf"},"vehicle_type_id":"4","last_reported":1740146832,"current_range_meters":6000,"station_id":"ce4bhn12rcd13ifvqgqg","pricing_plan_id":"cebpf4jnsgd1na2vs0mg"},{"bike_id":"7d932747-8fa4-4a65-94af-ec8450f17c5c","system_id":"levelo_inurba_marseille","lat":43.270556,"lon":5.40263,"is_reserved":false,"is_disabled":false,"rental_uris":{"android":"levelo://app?vid=7d932747-8fa4-4a65-94af-ec8450f17c5c","ios":"levelo://app?vid=7d932747-8fa4-4a65-94af-ec8450f17c5c"},"vehicle_type_id":"4","last_reported":1740146832,"current_range_meters":6800,"station_id":"ce4bhk92rcd13ifvqgc0","pricing_plan_id":"cebpf4jnsgd1na2vs0mg"},{"bike_id":"d4ac9080-89f9-4d04-ab03-22b0f0a4e5be","system_id":"levelo_inurba_marseille","lat":43.2319,"lon":5.35565,"is_reserved":false,"is_disabled":false,"rental_uris":{"android":"levelo://app?vid=d4ac9080-89f9-4d04-ab03-22b0f0a4e5be","ios":"levelo://app?vid=d4ac9080-89f9-4d04-ab03-22b0f0a4e5be"},"vehicle_type_id":"4","last_reported":1740146832,"current_range_meters":6800,"station_id":"ce4bhu92rcd13ifvqi70","pricing_plan_id":"cebpf4jnsgd1na2vs0mg"},{"bike_id":"96a1fcc0-1023-4a4d-be7c-4b21f83028aa","system_id":"levelo_inurba_marseille","lat":43.23191,"lon":5.35562,"is_reserved":false,"is_disabled":true,"rental_uris":{"android":"levelo://app?vid=96a1fcc0-1023-4a4d-be7c-4b21f83028aa","ios":"levelo://app?vid=96a1fcc0-1023-4a4d-be7c-4b21f83028aa"},"vehicle_type_id":"4","last_reported":1740146832,"current_range_meters":7200,"station_id":"ce4bhu92rcd13ifvqi70","pricing_plan_id":"cebpf4jnsgd1na2vs0mg"},{"bike_id":"4b36c34a-44d7-4576-a586-133eb49e8bb4","system_id":"levelo_inurba_marseille","lat":43.29708,"lon":5.377,"is_reserved":false,"is_disabled":false,"rental_uris":{"android":"levelo://app?vid=4b36c34a-44d7-4576-a586-133eb49e8bb4","ios":"levelo://app?vid=4b36c34a-44d7-4576-a586-133eb49e8bb4"},"vehicle_type_id":"4","last_reported":1740146832,"current_range_meters":7200,"station_id":"ce4bgkh2rcd13ifvqbl0","pricing_plan_id":"cebpf4jnsgd1na2vs0mg"},{"bike_id":"96307813-755c-4419-b456-caacc08486ec","system_id":"levelo_inurba_marseille","lat":43.30276,"lon":5.37716,"is_reserved":false,"is_disabled":false,"rental_uris":{"android":"levelo://app?vid=96307813-755c-4419-b456-caacc08486ec","ios":"levelo://app?vid=96307813-755c-4419-b456-caacc08486ec"},"vehicle_type_id":"4","last_reported":1740146832,"current_range_meters":7200,"station_id":"ce4bguh2rcd13ifvqcj0","pricing_plan_id":"cebpf4jnsgd1na2vs0mg"},{"bike_id":"fda78285-e99f-4369-89c2-f956ed217f9b","system_id":"levelo_inurba_marseille","lat":43.24814,"lon":5.37449,"is_reserved":false,"is_disabled":false,"rental_uris":{"android":"levelo://app?vid=fda78285-e99f-4369-89c2-f956ed217f9b","ios":"levelo://app?vid=fda78285-e99f-4369-89c2-f956ed217f9b"},"vehicle_type_id":"4","last_reported":1740146832,"current_range_meters":7200,"station_id":"ce4bhgh2rcd13ifvqfb0","pricing_plan_id":"cebpf4jnsgd1na2vs0mg"},{"bike_id":"27c7d1fa-e2c9-4f7f-9f8f-aeaa78071df0","system_id":"levelo_inurba_marseille","lat":43.28158,"lon":5.42641,"is_reserved":false,"is_disabled":false,"rental_uris":{"android":"levelo://app?vid=27c7d1fa-e2c9-4f7f-9f8f-aeaa78071df0","ios":"levelo://app?vid=27c7d1fa-e2c9-4f7f-9f8f-aeaa78071df0"},"vehicle_type_id":"4","last_reported":1740146832,"current_range_meters":7200,"station_id":"ce4bhnh2rcd13ifvqgug","pricing_plan_id":"cebpf4jnsgd1na2vs0mg"},{"bike_id":"9fbf478e-59a5-411e-a379-f517842dee7d","system_id":"levelo_inurba_marseille","lat":43.31073,"lon":5.38356,"is_reserved":false,"is_disabled":false,"rental_uris":{"android":"levelo://app?vid=9fbf478e-59a5-411e-a379-f517842dee7d","ios":"levelo://app?vid=9fbf478e-59a5-411e-a379-f517842dee7d"},"vehicle_type_id":"4","last_reported":1740146832,"current_range_meters":8000,"station_id":"ce4bgv92rcd13ifvqcr0","pricing_plan_id":"cebpf4jnsgd1na2vs0mg"},{"bike_id":"d4d7201e-8a9f-4276-80c3-a187d6287e7b","system_id":"levelo_inurba_marseille","lat":43.31072,"lon":5.38355,"is_reserved":false,"is_disabled":false,"rental_uris":{"android":"levelo://app?vid=d4d7201e-8a9f-4276-80c3-a187d6287e7b","ios":"levelo://app?vid=d4d7201e-8a9f-4276-80c3-a187d6287e7b"},"vehicle_type_id":"4","last_reported":1740146832,"current_range_meters":8000,"station_id":"ce4bgv92rcd13ifvqcr0","pricing_plan_id":"cebpf4jnsgd1na2vs0mg"},{"bike_id":"aa492b88-26a3-4fe3-9574-8ddb328e3ffa","system_id":"levelo_inurba_marseille","lat":43.26938,"lon":5.40263,"is_reserved":false,"is_disabled":false,"rental_uris":{"android":"levelo://app?vid=aa492b88-26a3-4fe3-9574-8ddb328e3ffa","ios":"levelo://app?vid=aa492b88-26a3-4fe3-9574-8ddb328e3ffa"},"vehicle_type_id":"4","last_reported":1740146832,"current_range_meters":8000,"station_id":"cjm6bp8fraef2m0cb0m0","pricing_plan_id":"cebpf4jnsgd1na2vs0mg"},{"bike_id":"9e3d076f-7956-432a-8a82-7fe6899cde79","system_id":"levelo_inurba_marseille","lat":43.27999,"lon":5.40008,"is_reserved":false,"is_disabled":false,"rental_uris":{"android":"levelo://app?vid=9e3d076f-7956-432a-8a82-7fe6899cde79","ios":"levelo://app?vid=9e3d076f-7956-432a-8a82-7fe6899cde79"},"vehicle_type_id":"4","last_reported":1740146832,"current_range_meters":5600,"station_id":"ce4bho92rcd13ifvqh4g","pricing_plan_id":"cebpf4jnsgd1na2vs0mg"},{"bike_id":"45528c36-0352-462f-a5df-dcf6e64ae67e","system_id":"levelo_inurba_marseille","lat":43.27375,"lon":5.36253,"is_reserved":false,"is_disabled":false,"rental_uris":{"android":"levelo://app?vid=45528c36-0352-462f-a5df-dcf6e64ae67e","ios":"levelo://app?vid=45528c36-0352-462f-a5df-dcf6e64ae67e"},"vehicle_type_id":"4","last_reported":1740146832,"current_range_meters":8000,"station_id":"ce4bhbh2rcd13ifvqeo0","pricing_plan_id":"cebpf4jnsgd1na2vs0mg"},{"bike_id":"db041e8d-4c01-4fa9-80d2-564af19c0ebc","system_id":"levelo_inurba_marseille","lat":43.26204,"lon":5.37459,"is_reserved":false,"is_disabled":false,"rental_uris":{"android":"levelo://app?vid=db041e8d-4c01-4fa9-80d2-564af19c0ebc","ios":"levelo://app?vid=db041e8d-4c01-4fa9-80d2-564af19c0ebc"},"vehicle_type_id":"4","last_reported":1740146832,"current_range_meters":8000,"station_id":"ce4bhgp2rcd13ifvqfc0","pricing_plan_id":"cebpf4jnsgd1na2vs0mg"},{"bike_id":"563d52de-e585-4e7f-8850-0e01e570b0ca","system_id":"levelo_inurba_marseille","lat":43.30454,"lon":5.3791,"is_reserved":false,"is_disabled":false,"rental_uris":{"android":"levelo://app?vid=563d52de-e585-4e7f-8850-0e01e570b0ca","ios":"levelo://app?vid=563d52de-e585-4e7f-8850-0e01e570b0ca"},"vehicle_type_id":"4","last_reported":1740146832,"current_range_meters":8000,"station_id":"ce4bgup2rcd13ifvqcn0","pricing_plan_id":"cebpf4jnsgd1na2vs0mg"},{"bike_id":"6b6e1059-5264-45b9-9cb9-d24cf5205f2a","system_id":"levelo_inurba_marseille","lat":43.23971,"lon":5.36647,"is_reserved":false,"is_disabled":true,"rental_uris":{"android":"levelo://app?vid=6b6e1059-5264-45b9-9cb9-d24cf5205f2a","ios":"levelo://app?vid=6b6e1059-5264-45b9-9cb9-d24cf5205f2a"},"vehicle_type_id":"4","last_reported":1740146832,"current_range_meters":8400,"station_id":"","pricing_plan_id":"cebpf4jnsgd1na2vs0mg"},{"bike_id":"948ca15e-dd0e-4b24-9dae-3803d237a65d","system_id":"levelo_inurba_marseille","lat":43.23951,"lon":5.36648,"is_reserved":false,"is_disabled":false,"rental_uris":{"android":"levelo://app?vid=948ca15e-dd0e-4b24-9dae-3803d237a65d","ios":"levelo://app?vid=948ca15e-dd0e-4b24-9dae-3803d237a65d"},"vehicle_type_id":"4","last_reported":1740146832,"current_range_meters":8400,"station_id":"ce4bhi12rcd13ifvqfp0","pricing_plan_id":"cebpf4jnsgd1na2vs0mg"},{"bike_id":"fc0349de-a96b-4e9e-88b6-f49bf89d84ae","system_id":"levelo_inurba_marseille","lat":43.27996,"lon":5.40005,"is_reserved":false,"is_disabled":false,"rental_uris":{"android":"levelo://app?vid=fc0349de-a96b-4e9e-88b6-f49bf89d84ae","ios":"levelo://app?vid=fc0349de-a96b-4e9e-88b6-f49bf89d84ae"},"vehicle_type_id":"4","last_reported":1740146832,"current_range_meters":8400,"station_id":"ce4bho92rcd13ifvqh4g","pricing_plan_id":"cebpf4jnsgd1na2vs0mg"},{"bike_id":"87590419-9431-46cd-a562-7648976d855a","system_id":"levelo_inurba_marseille","lat":43.2791,"lon":5.41206,"is_reserved":false,"is_disabled":false,"rental_uris":{"android":"levelo://app?vid=87590419-9431-46cd-a562-7648976d855a","ios":"levelo://app?vid=87590419-9431-46cd-a562-7648976d855a"},"vehicle_type_id":"4","last_reported":1740146832,"current_range_meters":8400,"station_id":"","pricing_plan_id":"cebpf4jnsgd1na2vs0mg"},{"bike_id":"7a1258ce-7554-4074-a831-a026656b4f80","system_id":"levelo_inurba_marseille","lat":43.271834,"lon":5.409818,"is_reserved":false,"is_disabled":false,"rental_uris":{"android":"levelo://app?vid=7a1258ce-7554-4074-a831-a026656b4f80","ios":"levelo://app?vid=7a1258ce-7554-4074-a831-a026656b4f80"},"vehicle_type_id":"4","last_reported":1740146832,"current_range_meters":8400,"station_id":"","pricing_plan_id":"cebpf4jnsgd1na2vs0mg"},{"bike_id":"153a40a0-7698-4631-988c-ae7506f2569f","system_id":"levelo_inurba_marseille","lat":43.28857,"lon":5.39317,"is_reserved":false,"is_disabled":false,"rental_uris":{"android":"levelo://app?vid=153a40a0-7698-4631-988c-ae7506f2569f","ios":"levelo://app?vid=153a40a0-7698-4631-988c-ae7506f2569f"},"vehicle_type_id":"4","last_reported":1740146832,"current_range_meters":8400,"station_id":"ce4bh2p2rcd13ifvqdi0","pricing_plan_id":"cebpf4jnsgd1na2vs0mg"},{"bike_id":"3023515d-e7d8-40ec-bd38-081dd7cb4a39","system_id":"levelo_inurba_marseille","lat":43.28276,"lon":5.3507,"is_reserved":false,"is_disabled":false,"rental_uris":{"android":"levelo://app?vid=3023515d-e7d8-40ec-bd38-081dd7cb4a39","ios":"levelo://app?vid=3023515d-e7d8-40ec-bd38-081dd7cb4a39"},"vehicle_type_id":"4","last_reported":1740146832,"current_range_meters":8800,"station_id":"ce4bhbp2rcd13ifvqerg","pricing_plan_id":"cebpf4jnsgd1na2vs0mg"},{"bike_id":"876e8a71-d39f-43f2-9b88-0847d65a898d","system_id":"levelo_inurba_marseille","lat":43.26208,"lon":5.3744,"is_reserved":false,"is_disabled":false,"rental_uris":{"android":"levelo://app?vid=876e8a71-d39f-43f2-9b88-0847d65a898d","ios":"levelo://app?vid=876e8a71-d39f-43f2-9b88-0847d65a898d"},"vehicle_type_id":"4","last_reported":1740146832,"current_range_meters":8800,"station_id":"ce4bhgp2rcd13ifvqfc0","pricing_plan_id":"cebpf4jnsgd1na2vs0mg"},{"bike_id":"c2c9e96d-fb24-4f9e-9cc1-5c25f812e5fe","system_id":"levelo_inurba_marseille","lat":43.26198,"lon":5.37455,"is_reserved":false,"is_disabled":false,"rental_uris":{"android":"levelo://app?vid=c2c9e96d-fb24-4f9e-9cc1-5c25f812e5fe","ios":"levelo://app?vid=c2c9e96d-fb24-4f9e-9cc1-5c25f812e5fe"},"vehicle_type_id":"4","last_reported":1740146832,"current_range_meters":8800,"station_id":"ce4bhgp2rcd13ifvqfc0","pricing_plan_id":"cebpf4jnsgd1na2vs0mg"},{"bike_id":"19884315-f9bd-4438-b9fb-5c3e9bc50f18","system_id":"levelo_inurba_marseille","lat":43.26228,"lon":5.3742,"is_reserved":false,"is_disabled":false,"rental_uris":{"android":"levelo://app?vid=19884315-f9bd-4438-b9fb-5c3e9bc50f18","ios":"levelo://app?vid=19884315-f9bd-4438-b9fb-5c3e9bc50f18"},"vehicle_type_id":"4","last_reported":1740146832,"current_range_meters":8800,"station_id":"ce4bhgp2rcd13ifvqfc0","pricing_plan_id":"cebpf4jnsgd1na2vs0mg"},{"bike_id":"7e4267bc-bf82-40ff-bec1-d1864901c315","system_id":"levelo_inurba_marseille","lat":43.26206,"lon":5.37444,"is_reserved":false,"is_disabled":false,"rental_uris":{"android":"levelo://app?vid=7e4267bc-bf82-40ff-bec1-d1864901c315","ios":"levelo://app?vid=7e4267bc-bf82-40ff-bec1-d1864901c315"},"vehicle_type_id":"4","last_reported":1740146832,"current_range_meters":8800,"station_id":"ce4bhgp2rcd13ifvqfc0","pricing_plan_id":"cebpf4jnsgd1na2vs0mg"},{"bike_id":"6571a070-e4ae-45f9-826e-def1aba364b4","system_id":"levelo_inurba_marseille","lat":43.28846,"lon":5.39307,"is_reserved":false,"is_disabled":false,"rental_uris":{"android":"levelo://app?vid=6571a070-e4ae-45f9-826e-def1aba364b4","ios":"levelo://app?vid=6571a070-e4ae-45f9-826e-def1aba364b4"},"vehicle_type_id":"4","last_reported":1740146832,"current_range_meters":8800,"station_id":"ce4bh2p2rcd13ifvqdi0","pricing_plan_id":"cebpf4jnsgd1na2vs0mg"},{"bike_id":"9f135b41-4c61-4edf-a68c-79f4ea142a0f","system_id":"levelo_inurba_marseille","lat":43.291932,"lon":5.393235,"is_reserved":false,"is_disabled":false,"rental_uris":{"android":"levelo://app?vid=9f135b41-4c61-4edf-a68c-79f4ea142a0f","ios":"levelo://app?vid=9f135b41-4c61-4edf-a68c-79f4ea142a0f"},"vehicle_type_id":"4","last_reported":1740146832,"current_range_meters":8800,"station_id":"ce4bh192rcd13ifvqdd0","pricing_plan_id":"cebpf4jnsgd1na2vs0mg"},{"bike_id":"954a7086-ccc9-41c5-a809-228e82a24fb2","system_id":"levelo_inurba_marseille","lat":43.28722,"lon":5.39995,"is_reserved":false,"is_disabled":true,"rental_uris":{"android":"levelo://app?vid=954a7086-ccc9-41c5-a809-228e82a24fb2","ios":"levelo://app?vid=954a7086-ccc9-41c5-a809-228e82a24fb2"},"vehicle_type_id":"4","last_reported":1740146832,"current_range_meters":8800,"station_id":"ce4bho92rcd13ifvqh3g","pricing_plan_id":"cebpf4jnsgd1na2vs0mg"},{"bike_id":"097686fc-b08a-40a8-aaaf-539cdfdb8c4a","system_id":"levelo_inurba_marseille","lat":43.27826,"lon":5.40693,"is_reserved":false,"is_disabled":false,"rental_uris":{"android":"levelo://app?vid=097686fc-b08a-40a8-aaaf-539cdfdb8c4a","ios":"levelo://app?vid=097686fc-b08a-40a8-aaaf-539cdfdb8c4a"},"vehicle_type_id":"4","last_reported":1740146832,"current_range_meters":9200,"station_id":"ce4bhnh2rcd13ifvqgtg","pricing_plan_id":"cebpf4jnsgd1na2vs0mg"},{"bike_id":"d5e7b54b-e932-4925-b97c-360094f3da64","system_id":"levelo_inurba_marseille","lat":43.27386,"lon":5.3627,"is_reserved":false,"is_disabled":false,"rental_uris":{"android":"levelo://app?vid=d5e7b54b-e932-4925-b97c-360094f3da64","ios":"levelo://app?vid=d5e7b54b-e932-4925-b97c-360094f3da64"},"vehicle_type_id":"4","last_reported":1740146832,"current_range_meters":9200,"station_id":"","pricing_plan_id":"cebpf4jnsgd1na2vs0mg"},{"bike_id":"6500f17d-4165-4e9d-8ddd-c5b75c56cbb0","system_id":"levelo_inurba_marseille","lat":43.28674,"lon":5.38674,"is_reserved":false,"is_disabled":false,"rental_uris":{"android":"levelo://app?vid=6500f17d-4165-4e9d-8ddd-c5b75c56cbb0","ios":"levelo://app?vid=6500f17d-4165-4e9d-8ddd-c5b75c56cbb0"},"vehicle_type_id":"4","last_reported":1740146832,"current_range_meters":9600,"station_id":"ce4bh492rcd13ifvqdug","pricing_plan_id":"cebpf4jnsgd1na2vs0mg"},{"bike_id":"a7e57524-7096-4476-8d9d-8e8806b1c3d0","system_id":"levelo_inurba_marseille","lat":43.23145,"lon":5.43694,"is_reserved":false,"is_disabled":true,"rental_uris":{"android":"levelo://app?vid=a7e57524-7096-4476-8d9d-8e8806b1c3d0","ios":"levelo://app?vid=a7e57524-7096-4476-8d9d-8e8806b1c3d0"},"vehicle_type_id":"4","last_reported":1740146832,"current_range_meters":9600,"station_id":"ce4bhmp2rcd13ifvqgog","pricing_plan_id":"cebpf4jnsgd1na2vs0mg"},{"bike_id":"38b074d6-295e-406b-b6f8-13f66b237242","system_id":"levelo_inurba_marseille","lat":43.30091,"lon":5.39086,"is_reserved":false,"is_disabled":false,"rental_uris":{"android":"levelo://app?vid=38b074d6-295e-406b-b6f8-13f66b237242","ios":"levelo://app?vid=38b074d6-295e-406b-b6f8-13f66b237242"},"vehicle_type_id":"4","last_reported":1740146832,"current_range_meters":9600,"station_id":"ce4bh192rcd13ifvqdb0","pricing_plan_id":"cebpf4jnsgd1na2vs0mg"},{"bike_id":"e93b71ae-eb32-4a1d-9682-e9edaba76334","system_id":"levelo_inurba_marseille","lat":43.24558,"lon":5.39519,"is_reserved":false,"is_disabled":false,"rental_uris":{"android":"levelo://app?vid=e93b71ae-eb32-4a1d-9682-e9edaba76334","ios":"levelo://app?vid=e93b71ae-eb32-4a1d-9682-e9edaba76334"},"vehicle_type_id":"4","last_reported":1740146832,"current_range_meters":9600,"station_id":"ce4bhlp2rcd13ifvqgjg","pricing_plan_id":"cebpf4jnsgd1na2vs0mg"},{"bike_id":"9a8e6324-462d-476d-ae8b-81702c07646c","system_id":"levelo_inurba_marseille","lat":43.257171,"lon":5.411091,"is_reserved":false,"is_disabled":false,"rental_uris":{"android":"levelo://app?vid=9a8e6324-462d-476d-ae8b-81702c07646c","ios":"levelo://app?vid=9a8e6324-462d-476d-ae8b-81702c07646c"},"vehicle_type_id":"4","last_reported":1740146832,"current_range_meters":9600,"station_id":"ce4bhkp2rcd13ifvqgd0","pricing_plan_id":"cebpf4jnsgd1na2vs0mg"},{"bike_id":"e080c45a-a05d-4297-8995-86678422b056","system_id":"levelo_inurba_marseille","lat":43.34441,"lon":5.38093,"is_reserved":false,"is_disabled":false,"rental_uris":{"android":"levelo://app?vid=e080c45a-a05d-4297-8995-86678422b056","ios":"levelo://app?vid=e080c45a-a05d-4297-8995-86678422b056"},"vehicle_type_id":"4","last_reported":1740146832,"current_range_meters":9600,"station_id":"","pricing_plan_id":"cebpf4jnsgd1na2vs0mg"},{"bike_id":"8ba5b1d1-d90c-45d7-a40c-999fdb03b7e5","system_id":"levelo_inurba_marseille","lat":43.255,"lon":5.37647,"is_reserved":false,"is_disabled":false,"rental_uris":{"android":"levelo://app?vid=8ba5b1d1-d90c-45d7-a40c-999fdb03b7e5","ios":"levelo://app?vid=8ba5b1d1-d90c-45d7-a40c-999fdb03b7e5"},"vehicle_type_id":"4","last_reported":1740146832,"current_range_meters":10000,"station_id":"ce4bhh12rcd13ifvqff0","pricing_plan_id":"cebpf4jnsgd1na2vs0mg"},{"bike_id":"d0109f8e-c695-44b8-83b5-050518c2c6c9","system_id":"levelo_inurba_marseille","lat":43.23067,"lon":5.35487,"is_reserved":false,"is_disabled":false,"rental_uris":{"android":"levelo://app?vid=d0109f8e-c695-44b8-83b5-050518c2c6c9","ios":"levelo://app?vid=d0109f8e-c695-44b8-83b5-050518c2c6c9"},"vehicle_type_id":"4","last_reported":1740146832,"current_range_meters":10000,"station_id":"cpo3342slgdg3j2ifvpg","pricing_plan_id":"cebpf4jnsgd1na2vs0mg"},{"bike_id":"78006544-6e6b-4855-82e3-aa455b2e6ac1","system_id":"levelo_inurba_marseille","lat":43.29926,"lon":5.36531,"is_reserved":false,"is_disabled":false,"rental_uris":{"android":"levelo://app?vid=78006544-6e6b-4855-82e3-aa455b2e6ac1","ios":"levelo://app?vid=78006544-6e6b-4855-82e3-aa455b2e6ac1"},"vehicle_type_id":"4","last_reported":1740146832,"current_range_meters":10000,"station_id":"ce4bgm92rcd13ifvqbr0","pricing_plan_id":"cebpf4jnsgd1na2vs0mg"},{"bike_id":"849d245a-be14-47ff-9742-f234bf067745","system_id":"levelo_inurba_marseille","lat":43.29751,"lon":5.3791,"is_reserved":false,"is_disabled":false,"rental_uris":{"android":"levelo://app?vid=849d245a-be14-47ff-9742-f234bf067745","ios":"levelo://app?vid=849d245a-be14-47ff-9742-f234bf067745"},"vehicle_type_id":"4","last_reported":1740146832,"current_range_meters":10000,"station_id":"ce4bguh2rcd13ifvqckg","pricing_plan_id":"cebpf4jnsgd1na2vs0mg"},{"bike_id":"e2605be6-729f-4263-a772-380592b3879d","system_id":"levelo_inurba_marseille","lat":43.30462,"lon":5.38071,"is_reserved":false,"is_disabled":false,"rental_uris":{"android":"levelo://app?vid=e2605be6-729f-4263-a772-380592b3879d","ios":"levelo://app?vid=e2605be6-729f-4263-a772-380592b3879d"},"vehicle_type_id":"4","last_reported":1740146832,"current_range_meters":10000,"station_id":"","pricing_plan_id":"cebpf4jnsgd1na2vs0mg"},{"bike_id":"5c24a800-a337-4061-8236-708b58a81e50","system_id":"levelo_inurba_marseille","lat":43.29895,"lon":5.43658,"is_reserved":false,"is_disabled":false,"rental_uris":{"android":"levelo://app?vid=5c24a800-a337-4061-8236-708b58a81e50","ios":"levelo://app?vid=5c24a800-a337-4061-8236-708b58a81e50"},"vehicle_type_id":"4","last_reported":1740146832,"current_range_meters":10800,"station_id":"ce4bhpp2rcd13ifvqhfg","pricing_plan_id":"cebpf4jnsgd1na2vs0mg"},{"bike_id":"4f0ef863-f524-405b-aa36-ecd26a861e38","system_id":"levelo_inurba_marseille","lat":43.308807,"lon":5.371712,"is_reserved":false,"is_disabled":false,"rental_uris":{"android":"levelo://app?vid=4f0ef863-f524-405b-aa36-ecd26a861e38","ios":"levelo://app?vid=4f0ef863-f524-405b-aa36-ecd26a861e38"},"vehicle_type_id":"4","last_reported":1740146832,"current_range_meters":10800,"station_id":"ce4bguh2rcd13ifvqckg","pricing_plan_id":"cebpf4jnsgd1na2vs0mg"},{"bike_id":"fcf05276-5672-4dac-8856-1899d9412c8c","system_id":"levelo_inurba_marseille","lat":43.25939,"lon":5.40895,"is_reserved":false,"is_disabled":false,"rental_uris":{"android":"levelo://app?vid=fcf05276-5672-4dac-8856-1899d9412c8c","ios":"levelo://app?vid=fcf05276-5672-4dac-8856-1899d9412c8c"},"vehicle_type_id":"4","last_reported":1740146832,"current_range_meters":10800,"station_id":"ce4bhm92rcd13ifvqglg","pricing_plan_id":"cebpf4jnsgd1na2vs0mg"},{"bike_id":"790cfa54-bdcc-41c4-8baa-91e17f96f535","system_id":"levelo_inurba_marseille","lat":43.25005,"lon":5.38903,"is_reserved":false,"is_disabled":false,"rental_uris":{"android":"levelo://app?vid=790cfa54-bdcc-41c4-8baa-91e17f96f535","ios":"levelo://app?vid=790cfa54-bdcc-41c4-8baa-91e17f96f535"},"vehicle_type_id":"4","last_reported":1740146832,"current_range_meters":10800,"station_id":"ce4bhgp2rcd13ifvqfd0","pricing_plan_id":"cebpf4jnsgd1na2vs0mg"},{"bike_id":"daaf5ed1-b747-416f-ab9f-21193f360aa6","system_id":"levelo_inurba_marseille","lat":43.29572,"lon":5.39976,"is_reserved":false,"is_disabled":false,"rental_uris":{"android":"levelo://app?vid=daaf5ed1-b747-416f-ab9f-21193f360aa6","ios":"levelo://app?vid=daaf5ed1-b747-416f-ab9f-21193f360aa6"},"vehicle_type_id":"4","last_reported":1740146832,"current_range_meters":10800,"station_id":"ce4bh312rcd13ifvqdj0","pricing_plan_id":"cebpf4jnsgd1na2vs0mg"},{"bike_id":"d414c500-f227-4efb-aabd-f7246cca81bc","system_id":"levelo_inurba_marseille","lat":43.23039,"lon":5.35524,"is_reserved":false,"is_disabled":false,"rental_uris":{"android":"levelo://app?vid=d414c500-f227-4efb-aabd-f7246cca81bc","ios":"levelo://app?vid=d414c500-f227-4efb-aabd-f7246cca81bc"},"vehicle_type_id":"4","last_reported":1740146832,"current_range_meters":10800,"station_id":"cpo3342slgdg3j2ifvpg","pricing_plan_id":"cebpf4jnsgd1na2vs0mg"},{"bike_id":"04ab2724-af2a-46db-abe5-425ccd7efbf6","system_id":"levelo_inurba_marseille","lat":43.2606,"lon":5.39405,"is_reserved":false,"is_disabled":false,"rental_uris":{"android":"levelo://app?vid=04ab2724-af2a-46db-abe5-425ccd7efbf6","ios":"levelo://app?vid=04ab2724-af2a-46db-abe5-425ccd7efbf6"},"vehicle_type_id":"4","last_reported":1740146832,"current_range_meters":10800,"station_id":"ce4bhh92rcd13ifvqfj0","pricing_plan_id":"cebpf4jnsgd1na2vs0mg"},{"bike_id":"f3feea2e-5bf7-41f6-a6d2-c494ec11d6a2","system_id":"levelo_inurba_marseille","lat":43.23056,"lon":5.35489,"is_reserved":false,"is_disabled":false,"rental_uris":{"android":"levelo://app?vid=f3feea2e-5bf7-41f6-a6d2-c494ec11d6a2","ios":"levelo://app?vid=f3feea2e-5bf7-41f6-a6d2-c494ec11d6a2"},"vehicle_type_id":"4","last_reported":1740146832,"current_range_meters":10800,"station_id":"cpo3342slgdg3j2ifvpg","pricing_plan_id":"cebpf4jnsgd1na2vs0mg"},{"bike_id":"886cbb26-0a51-4954-a91c-94a53bda050a","system_id":"levelo_inurba_marseille","lat":43.26803,"lon":5.40262,"is_reserved":false,"is_disabled":false,"rental_uris":{"android":"levelo://app?vid=886cbb26-0a51-4954-a91c-94a53bda050a","ios":"levelo://app?vid=886cbb26-0a51-4954-a91c-94a53bda050a"},"vehicle_type_id":"4","last_reported":1740146832,"current_range_meters":11200,"station_id":"ce501612rcd8frsf0b60","pricing_plan_id":"cebpf4jnsgd1na2vs0mg"},{"bike_id":"580a1da8-87ce-4f92-bf13-927c60ed9a1d","system_id":"levelo_inurba_marseille","lat":43.28271,"lon":5.35079,"is_reserved":false,"is_disabled":false,"rental_uris":{"android":"levelo://app?vid=580a1da8-87ce-4f92-bf13-927c60ed9a1d","ios":"levelo://app?vid=580a1da8-87ce-4f92-bf13-927c60ed9a1d"},"vehicle_type_id":"4","last_reported":1740146832,"current_range_meters":11200,"station_id":"ce4bhbp2rcd13ifvqerg","pricing_plan_id":"cebpf4jnsgd1na2vs0mg"},{"bike_id":"73471586-1b72-44b9-a304-d389adf13c2f","system_id":"levelo_inurba_marseille","lat":43.30426,"lon":5.3975,"is_reserved":false,"is_disabled":false,"rental_uris":{"android":"levelo://app?vid=73471586-1b72-44b9-a304-d389adf13c2f","ios":"levelo://app?vid=73471586-1b72-44b9-a304-d389adf13c2f"},"vehicle_type_id":"4","last_reported":1740146832,"current_range_meters":11200,"station_id":"ce4bh092rcd13ifvqd20","pricing_plan_id":"cebpf4jnsgd1na2vs0mg"},{"bike_id":"f2cdf9b3-27db-4f2e-a44a-9891c95db95b","system_id":"levelo_inurba_marseille","lat":43.26103,"lon":5.39349,"is_reserved":false,"is_disabled":false,"rental_uris":{"android":"levelo://app?vid=f2cdf9b3-27db-4f2e-a44a-9891c95db95b","ios":"levelo://app?vid=f2cdf9b3-27db-4f2e-a44a-9891c95db95b"},"vehicle_type_id":"4","last_reported":1740146832,"current_range_meters":11200,"station_id":"ce4bhh92rcd13ifvqfj0","pricing_plan_id":"cebpf4jnsgd1na2vs0mg"},{"bike_id":"c5b688e1-8c47-446f-bf4c-fe0f7a0e2b63","system_id":"levelo_inurba_marseille","lat":43.29268,"lon":5.36852,"is_reserved":false,"is_disabled":false,"rental_uris":{"android":"levelo://app?vid=c5b688e1-8c47-446f-bf4c-fe0f7a0e2b63","ios":"levelo://app?vid=c5b688e1-8c47-446f-bf4c-fe0f7a0e2b63"},"vehicle_type_id":"4","last_reported":1740146832,"current_range_meters":11600,"station_id":"ce4bhbp2rcd13ifvqesg","pricing_plan_id":"cebpf4jnsgd1na2vs0mg"},{"bike_id":"f5734ca5-3bd8-41e3-9519-4bd8408036b3","system_id":"levelo_inurba_marseille","lat":43.2792,"lon":5.39573,"is_reserved":false,"is_disabled":false,"rental_uris":{"android":"levelo://app?vid=f5734ca5-3bd8-41e3-9519-4bd8408036b3","ios":"levelo://app?vid=f5734ca5-3bd8-41e3-9519-4bd8408036b3"},"vehicle_type_id":"4","last_reported":1740146832,"current_range_meters":11600,"station_id":"ce4bhf92rcd13ifvqf40","pricing_plan_id":"cebpf4jnsgd1na2vs0mg"},{"bike_id":"86e5fce8-667c-4a4f-9730-cc0f3ade0cf8","system_id":"levelo_inurba_marseille","lat":43.27943,"lon":5.41051,"is_reserved":false,"is_disabled":false,"rental_uris":{"android":"levelo://app?vid=86e5fce8-667c-4a4f-9730-cc0f3ade0cf8","ios":"levelo://app?vid=86e5fce8-667c-4a4f-9730-cc0f3ade0cf8"},"vehicle_type_id":"4","last_reported":1740146832,"current_range_meters":11600,"station_id":"ce4bhnp2rcd13ifvqh0g","pricing_plan_id":"cebpf4jnsgd1na2vs0mg"},{"bike_id":"1445e25f-9332-44f5-8183-e6d6a71cd6ce","system_id":"levelo_inurba_marseille","lat":43.268042,"lon":5.402678,"is_reserved":false,"is_disabled":false,"rental_uris":{"android":"levelo://app?vid=1445e25f-9332-44f5-8183-e6d6a71cd6ce","ios":"levelo://app?vid=1445e25f-9332-44f5-8183-e6d6a71cd6ce"},"vehicle_type_id":"4","last_reported":1740146832,"current_range_meters":11600,"station_id":"ce501612rcd8frsf0b60","pricing_plan_id":"cebpf4jnsgd1na2vs0mg"},{"bike_id":"4f70764e-42f6-4024-8302-119ba9b534c0","system_id":"levelo_inurba_marseille","lat":43.31712,"lon":5.3773,"is_reserved":false,"is_disabled":false,"rental_uris":{"android":"levelo://app?vid=4f70764e-42f6-4024-8302-119ba9b534c0","ios":"levelo://app?vid=4f70764e-42f6-4024-8302-119ba9b534c0"},"vehicle_type_id":"4","last_reported":1740146832,"current_range_meters":12000,"station_id":"ce4bgth2rcd13ifvqch0","pricing_plan_id":"cebpf4jnsgd1na2vs0mg"},{"bike_id":"66023030-f689-4300-9ecf-d7b148b70c3c","system_id":"levelo_inurba_marseille","lat":43.26561,"lon":5.37306,"is_reserved":false,"is_disabled":false,"rental_uris":{"android":"levelo://app?vid=66023030-f689-4300-9ecf-d7b148b70c3c","ios":"levelo://app?vid=66023030-f689-4300-9ecf-d7b148b70c3c"},"vehicle_type_id":"4","last_reported":1740146832,"current_range_meters":12000,"station_id":"ce4bhg12rcd13ifvqf70","pricing_plan_id":"cebpf4jnsgd1na2vs0mg"},{"bike_id":"ece000d4-661c-4b73-9213-ce0ed97eff8c","system_id":"levelo_inurba_marseille","lat":43.27031,"lon":5.4019,"is_reserved":false,"is_disabled":false,"rental_uris":{"android":"levelo://app?vid=ece000d4-661c-4b73-9213-ce0ed97eff8c","ios":"levelo://app?vid=ece000d4-661c-4b73-9213-ce0ed97eff8c"},"vehicle_type_id":"4","last_reported":1740146832,"current_range_meters":12800,"station_id":"","pricing_plan_id":"cebpf4jnsgd1na2vs0mg"},{"bike_id":"7c8f3d05-5401-4545-847e-9fcee9ea83d5","system_id":"levelo_inurba_marseille","lat":43.26574,"lon":5.39873,"is_reserved":false,"is_disabled":false,"rental_uris":{"android":"levelo://app?vid=7c8f3d05-5401-4545-847e-9fcee9ea83d5","ios":"levelo://app?vid=7c8f3d05-5401-4545-847e-9fcee9ea83d5"},"vehicle_type_id":"4","last_reported":1740146832,"current_range_meters":12800,"station_id":"","pricing_plan_id":"cebpf4jnsgd1na2vs0mg"},{"bike_id":"5430f19d-decf-40d0-b27a-f8b5ae2c2133","system_id":"levelo_inurba_marseille","lat":43.30928,"lon":5.40144,"is_reserved":false,"is_disabled":false,"rental_uris":{"android":"levelo://app?vid=5430f19d-decf-40d0-b27a-f8b5ae2c2133","ios":"levelo://app?vid=5430f19d-decf-40d0-b27a-f8b5ae2c2133"},"vehicle_type_id":"4","last_reported":1740146832,"current_range_meters":12800,"station_id":"ce4bgvp2rcd13ifvqct0","pricing_plan_id":"cebpf4jnsgd1na2vs0mg"},{"bike_id":"b5e909ce-69fe-4340-9406-8791db159546","system_id":"levelo_inurba_marseille","lat":43.292281,"lon":5.360597,"is_reserved":false,"is_disabled":false,"rental_uris":{"android":"levelo://app?vid=b5e909ce-69fe-4340-9406-8791db159546","ios":"levelo://app?vid=b5e909ce-69fe-4340-9406-8791db159546"},"vehicle_type_id":"4","last_reported":1740146832,"current_range_meters":12800,"station_id":"ce4bhbh2rcd13ifvqeqg","pricing_plan_id":"cebpf4jnsgd1na2vs0mg"},{"bike_id":"b46f0a5a-f98d-4994-81f6-db648f912264","system_id":"levelo_inurba_marseille","lat":43.27819,"lon":5.39205,"is_reserved":false,"is_disabled":false,"rental_uris":{"android":"levelo://app?vid=b46f0a5a-f98d-4994-81f6-db648f912264","ios":"levelo://app?vid=b46f0a5a-f98d-4994-81f6-db648f912264"},"vehicle_type_id":"4","last_reported":1740146832,"current_range_meters":14000,"station_id":"ce4bhjp2rcd13ifvqga0","pricing_plan_id":"cebpf4jnsgd1na2vs0mg"},{"bike_id":"a404738f-d592-4923-bb7f-8cad6bf8fec4","system_id":"levelo_inurba_marseille","lat":43.27949,"lon":5.38495,"is_reserved":false,"is_disabled":false,"rental_uris":{"android":"levelo://app?vid=a404738f-d592-4923-bb7f-8cad6bf8fec4","ios":"levelo://app?vid=a404738f-d592-4923-bb7f-8cad6bf8fec4"},"vehicle_type_id":"4","last_reported":1740146832,"current_range_meters":14000,"station_id":"","pricing_plan_id":"cebpf4jnsgd1na2vs0mg"},{"bike_id":"af99980f-9f11-4e95-9d5d-c71a251b1742","system_id":"levelo_inurba_marseille","lat":43.30146,"lon":5.37437,"is_reserved":false,"is_disabled":false,"rental_uris":{"android":"levelo://app?vid=af99980f-9f11-4e95-9d5d-c71a251b1742","ios":"levelo://app?vid=af99980f-9f11-4e95-9d5d-c71a251b1742"},"vehicle_type_id":"4","last_reported":1740146832,"current_range_meters":14000,"station_id":"ce4bgs92rcd13ifvqcc0","pricing_plan_id":"cebpf4jnsgd1na2vs0mg"},{"bike_id":"54b45f3b-f685-44dd-8b79-1a758bf759d2","system_id":"levelo_inurba_marseille","lat":43.337444,"lon":5.374475,"is_reserved":false,"is_disabled":true,"rental_uris":{"android":"levelo://app?vid=54b45f3b-f685-44dd-8b79-1a758bf759d2","ios":"levelo://app?vid=54b45f3b-f685-44dd-8b79-1a758bf759d2"},"vehicle_type_id":"4","last_reported":1740146832,"current_range_meters":14000,"station_id":"","pricing_plan_id":"cebpf4jnsgd1na2vs0mg"},{"bike_id":"9c2c21b5-d834-4095-b581-8b4aeac25c4a","system_id":"levelo_inurba_marseille","lat":43.289783,"lon":5.378373,"is_reserved":false,"is_disabled":false,"rental_uris":{"android":"levelo://app?vid=9c2c21b5-d834-4095-b581-8b4aeac25c4a","ios":"levelo://app?vid=9c2c21b5-d834-4095-b581-8b4aeac25c4a"},"vehicle_type_id":"4","last_reported":1740146832,"current_range_meters":14000,"station_id":"ce4bgvp2rcd13ifvqcu0","pricing_plan_id":"cebpf4jnsgd1na2vs0mg"},{"bike_id":"5902af95-411b-49ba-8f1f-17df4e3c9aac","system_id":"levelo_inurba_marseille","lat":43.30135,"lon":5.37414,"is_reserved":false,"is_disabled":false,"rental_uris":{"android":"levelo://app?vid=5902af95-411b-49ba-8f1f-17df4e3c9aac","ios":"levelo://app?vid=5902af95-411b-49ba-8f1f-17df4e3c9aac"},"vehicle_type_id":"4","last_reported":1740146832,"current_range_meters":14000,"station_id":"ce4bgs92rcd13ifvqcc0","pricing_plan_id":"cebpf4jnsgd1na2vs0mg"},{"bike_id":"78ccc1b5-e05d-4c30-bc5b-473f9d97e2cd","system_id":"levelo_inurba_marseille","lat":43.3012,"lon":5.37792,"is_reserved":false,"is_disabled":false,"rental_uris":{"android":"levelo://app?vid=78ccc1b5-e05d-4c30-bc5b-473f9d97e2cd","ios":"levelo://app?vid=78ccc1b5-e05d-4c30-bc5b-473f9d97e2cd"},"vehicle_type_id":"4","last_reported":1740146832,"current_range_meters":14400,"station_id":"","pricing_plan_id":"cebpf4jnsgd1na2vs0mg"},{"bike_id":"7284105a-e1cc-48df-b647-4f9c4cc3e5fa","system_id":"levelo_inurba_marseille","lat":43.29764,"lon":5.37103,"is_reserved":false,"is_disabled":false,"rental_uris":{"android":"levelo://app?vid=7284105a-e1cc-48df-b647-4f9c4cc3e5fa","ios":"levelo://app?vid=7284105a-e1cc-48df-b647-4f9c4cc3e5fa"},"vehicle_type_id":"4","last_reported":1740146832,"current_range_meters":14400,"station_id":"ce4bgop2rcd13ifvqc1g","pricing_plan_id":"cebpf4jnsgd1na2vs0mg"},{"bike_id":"5a78585f-c2b4-4d6f-8e49-272e3edb09df","system_id":"levelo_inurba_marseille","lat":43.31685,"lon":5.40478,"is_reserved":false,"is_disabled":false,"rental_uris":{"android":"levelo://app?vid=5a78585f-c2b4-4d6f-8e49-272e3edb09df","ios":"levelo://app?vid=5a78585f-c2b4-4d6f-8e49-272e3edb09df"},"vehicle_type_id":"4","last_reported":1740146832,"current_range_meters":14400,"station_id":"ce4bh012rcd13ifvqd00","pricing_plan_id":"cebpf4jnsgd1na2vs0mg"},{"bike_id":"c0a936dd-8b78-4344-b0ca-0e19fa1b2ac4","system_id":"levelo_inurba_marseille","lat":43.27811,"lon":5.40704,"is_reserved":false,"is_disabled":false,"rental_uris":{"android":"levelo://app?vid=c0a936dd-8b78-4344-b0ca-0e19fa1b2ac4","ios":"levelo://app?vid=c0a936dd-8b78-4344-b0ca-0e19fa1b2ac4"},"vehicle_type_id":"4","last_reported":1740146832,"current_range_meters":14400,"station_id":"ce4bhnh2rcd13ifvqgtg","pricing_plan_id":"cebpf4jnsgd1na2vs0mg"},{"bike_id":"e5b97541-8b4b-4dbf-a29f-c1c2d6ee4195","system_id":"levelo_inurba_marseille","lat":43.26579,"lon":5.39031,"is_reserved":false,"is_disabled":false,"rental_uris":{"android":"levelo://app?vid=e5b97541-8b4b-4dbf-a29f-c1c2d6ee4195","ios":"levelo://app?vid=e5b97541-8b4b-4dbf-a29f-c1c2d6ee4195"},"vehicle_type_id":"4","last_reported":1740146832,"current_range_meters":14400,"station_id":"ce4bhe12rcd13ifvqf30","pricing_plan_id":"cebpf4jnsgd1na2vs0mg"},{"bike_id":"e501be99-a171-4e91-9e5b-ac547e4c06f2","system_id":"levelo_inurba_marseille","lat":43.23202,"lon":5.35541,"is_reserved":false,"is_disabled":false,"rental_uris":{"android":"levelo://app?vid=e501be99-a171-4e91-9e5b-ac547e4c06f2","ios":"levelo://app?vid=e501be99-a171-4e91-9e5b-ac547e4c06f2"},"vehicle_type_id":"4","last_reported":1740146832,"current_range_meters":14400,"station_id":"ce4bhu92rcd13ifvqi70","pricing_plan_id":"cebpf4jnsgd1na2vs0mg"},{"bike_id":"6a54112d-ddf6-4a0d-b088-7b565f8589e8","system_id":"levelo_inurba_marseille","lat":43.2649,"lon":5.39101,"is_reserved":false,"is_disabled":false,"rental_uris":{"android":"levelo://app?vid=6a54112d-ddf6-4a0d-b088-7b565f8589e8","ios":"levelo://app?vid=6a54112d-ddf6-4a0d-b088-7b565f8589e8"},"vehicle_type_id":"4","last_reported":1740146832,"current_range_meters":14400,"station_id":"ce4bhi12rcd13ifvqfq0","pricing_plan_id":"cebpf4jnsgd1na2vs0mg"},{"bike_id":"d9ad877c-b205-456f-a12c-d3722a6b87c3","system_id":"levelo_inurba_marseille","lat":43.25005,"lon":5.38922,"is_reserved":false,"is_disabled":false,"rental_uris":{"android":"levelo://app?vid=d9ad877c-b205-456f-a12c-d3722a6b87c3","ios":"levelo://app?vid=d9ad877c-b205-456f-a12c-d3722a6b87c3"},"vehicle_type_id":"4","last_reported":1740146832,"current_range_meters":14400,"station_id":"ce4bhgp2rcd13ifvqfd0","pricing_plan_id":"cebpf4jnsgd1na2vs0mg"},{"bike_id":"deb5fb64-e833-4cc1-8623-964157e87372","system_id":"levelo_inurba_marseille","lat":43.23152,"lon":5.43707,"is_reserved":false,"is_disabled":false,"rental_uris":{"android":"levelo://app?vid=deb5fb64-e833-4cc1-8623-964157e87372","ios":"levelo://app?vid=deb5fb64-e833-4cc1-8623-964157e87372"},"vehicle_type_id":"4","last_reported":1740146832,"current_range_meters":14000,"station_id":"ce4bhmp2rcd13ifvqgog","pricing_plan_id":"cebpf4jnsgd1na2vs0mg"},{"bike_id":"2ddd61c2-14d6-4ba1-9e52-50cc829eb74d","system_id":"levelo_inurba_marseille","lat":43.29277,"lon":5.40132,"is_reserved":false,"is_disabled":false,"rental_uris":{"android":"levelo://app?vid=2ddd61c2-14d6-4ba1-9e52-50cc829eb74d","ios":"levelo://app?vid=2ddd61c2-14d6-4ba1-9e52-50cc829eb74d"},"vehicle_type_id":"4","last_reported":1740146832,"current_range_meters":14800,"station_id":"ce4bh312rcd13ifvqdk0","pricing_plan_id":"cebpf4jnsgd1na2vs0mg"},{"bike_id":"41c5f921-1096-4520-8fbe-2f4d010727e4","system_id":"levelo_inurba_marseille","lat":43.24167,"lon":5.36388,"is_reserved":false,"is_disabled":false,"rental_uris":{"android":"levelo://app?vid=41c5f921-1096-4520-8fbe-2f4d010727e4","ios":"levelo://app?vid=41c5f921-1096-4520-8fbe-2f4d010727e4"},"vehicle_type_id":"4","last_reported":1740146832,"current_range_meters":14800,"station_id":"cpo36qri1sfpv3e86is0","pricing_plan_id":"cebpf4jnsgd1na2vs0mg"},{"bike_id":"de936cf6-a8ec-4c7d-8fdd-a5ab4cf7366d","system_id":"levelo_inurba_marseille","lat":43.262,"lon":5.37928,"is_reserved":false,"is_disabled":false,"rental_uris":{"android":"levelo://app?vid=de936cf6-a8ec-4c7d-8fdd-a5ab4cf7366d","ios":"levelo://app?vid=de936cf6-a8ec-4c7d-8fdd-a5ab4cf7366d"},"vehicle_type_id":"4","last_reported":1740146832,"current_range_meters":14800,"station_id":"ce4bhjp2rcd13ifvqg90","pricing_plan_id":"cebpf4jnsgd1na2vs0mg"},{"bike_id":"b985ad1f-1942-453b-b5eb-7462cafd1e31","system_id":"levelo_inurba_marseille","lat":43.23206,"lon":5.35547,"is_reserved":false,"is_disabled":false,"rental_uris":{"android":"levelo://app?vid=b985ad1f-1942-453b-b5eb-7462cafd1e31","ios":"levelo://app?vid=b985ad1f-1942-453b-b5eb-7462cafd1e31"},"vehicle_type_id":"4","last_reported":1740146832,"current_range_meters":14800,"station_id":"ce4bhu92rcd13ifvqi70","pricing_plan_id":"cebpf4jnsgd1na2vs0mg"},{"bike_id":"7f7048f2-c728-47fe-87be-563fb47dadce","system_id":"levelo_inurba_marseille","lat":43.272,"lon":5.39185,"is_reserved":false,"is_disabled":false,"rental_uris":{"android":"levelo://app?vid=7f7048f2-c728-47fe-87be-563fb47dadce","ios":"levelo://app?vid=7f7048f2-c728-47fe-87be-563fb47dadce"},"vehicle_type_id":"4","last_reported":1740146832,"current_range_meters":14800,"station_id":"ce4bhhp2rcd13ifvqfm0","pricing_plan_id":"cebpf4jnsgd1na2vs0mg"},{"bike_id":"e8a1e1f5-b474-4f67-aaf9-e92874b81e6f","system_id":"levelo_inurba_marseille","lat":43.30296,"lon":5.39221,"is_reserved":false,"is_disabled":false,"rental_uris":{"android":"levelo://app?vid=e8a1e1f5-b474-4f67-aaf9-e92874b81e6f","ios":"levelo://app?vid=e8a1e1f5-b474-4f67-aaf9-e92874b81e6f"},"vehicle_type_id":"4","last_reported":1740146832,"current_range_meters":15200,"station_id":"ce4bgkh2rcd13ifvqbk0","pricing_plan_id":"cebpf4jnsgd1na2vs0mg"},{"bike_id":"a68ba5dc-f1c3-4fd9-a124-9529abb5304d","system_id":"levelo_inurba_marseille","lat":43.293033,"lon":5.37465,"is_reserved":false,"is_disabled":false,"rental_uris":{"android":"levelo://app?vid=a68ba5dc-f1c3-4fd9-a124-9529abb5304d","ios":"levelo://app?vid=a68ba5dc-f1c3-4fd9-a124-9529abb5304d"},"vehicle_type_id":"4","last_reported":1740146832,"current_range_meters":16000,"station_id":"ce4bhh92rcd13ifvqfi0","pricing_plan_id":"cebpf4jnsgd1na2vs0mg"},{"bike_id":"3d05e17e-afc9-4558-9645-ca782e707b3c","system_id":"levelo_inurba_marseille","lat":43.28274,"lon":5.35079,"is_reserved":false,"is_disabled":false,"rental_uris":{"android":"levelo://app?vid=3d05e17e-afc9-4558-9645-ca782e707b3c","ios":"levelo://app?vid=3d05e17e-afc9-4558-9645-ca782e707b3c"},"vehicle_type_id":"4","last_reported":1740146832,"current_range_meters":16000,"station_id":"ce4bhbp2rcd13ifvqerg","pricing_plan_id":"cebpf4jnsgd1na2vs0mg"},{"bike_id":"40e91629-029c-4327-9312-f5ab3195d75a","system_id":"levelo_inurba_marseille","lat":43.28458,"lon":5.35893,"is_reserved":false,"is_disabled":false,"rental_uris":{"android":"levelo://app?vid=40e91629-029c-4327-9312-f5ab3195d75a","ios":"levelo://app?vid=40e91629-029c-4327-9312-f5ab3195d75a"},"vehicle_type_id":"4","last_reported":1740146832,"current_range_meters":16000,"station_id":"ce4bhah2rcd13ifvqei0","pricing_plan_id":"cebpf4jnsgd1na2vs0mg"},{"bike_id":"46400c70-c5b8-4a3d-bb5b-1d182c4ac75b","system_id":"levelo_inurba_marseille","lat":43.27945,"lon":5.41037,"is_reserved":false,"is_disabled":false,"rental_uris":{"android":"levelo://app?vid=46400c70-c5b8-4a3d-bb5b-1d182c4ac75b","ios":"levelo://app?vid=46400c70-c5b8-4a3d-bb5b-1d182c4ac75b"},"vehicle_type_id":"4","last_reported":1740146832,"current_range_meters":16000,"station_id":"ce4bhnp2rcd13ifvqh0g","pricing_plan_id":"cebpf4jnsgd1na2vs0mg"},{"bike_id":"661fdff0-f0ad-4cb8-b5b0-dc2395fe1e67","system_id":"levelo_inurba_marseille","lat":43.3054,"lon":5.36711,"is_reserved":false,"is_disabled":false,"rental_uris":{"android":"levelo://app?vid=661fdff0-f0ad-4cb8-b5b0-dc2395fe1e67","ios":"levelo://app?vid=661fdff0-f0ad-4cb8-b5b0-dc2395fe1e67"},"vehicle_type_id":"4","last_reported":1740146832,"current_range_meters":16000,"station_id":"ce4bgrp2rcd13ifvqc9g","pricing_plan_id":"cebpf4jnsgd1na2vs0mg"},{"bike_id":"4deb363e-d0c0-4572-8bbd-91957ef33c11","system_id":"levelo_inurba_marseille","lat":43.27802,"lon":5.40698,"is_reserved":false,"is_disabled":false,"rental_uris":{"android":"levelo://app?vid=4deb363e-d0c0-4572-8bbd-91957ef33c11","ios":"levelo://app?vid=4deb363e-d0c0-4572-8bbd-91957ef33c11"},"vehicle_type_id":"4","last_reported":1740146832,"current_range_meters":16000,"station_id":"ce4bhnh2rcd13ifvqgtg","pricing_plan_id":"cebpf4jnsgd1na2vs0mg"},{"bike_id":"023e5748-add3-4a48-8812-46cb61e23201","system_id":"levelo_inurba_marseille","lat":43.29956,"lon":5.37184,"is_reserved":false,"is_disabled":false,"rental_uris":{"android":"levelo://app?vid=023e5748-add3-4a48-8812-46cb61e23201","ios":"levelo://app?vid=023e5748-add3-4a48-8812-46cb61e23201"},"vehicle_type_id":"4","last_reported":1740146832,"current_range_meters":16000,"station_id":"ce4bgr92rcd13ifvqc7g","pricing_plan_id":"cebpf4jnsgd1na2vs0mg"},{"bike_id":"8245ad9a-c13a-4fcf-928f-d7efdf6ba676","system_id":"levelo_inurba_marseille","lat":43.302483,"lon":5.400742,"is_reserved":false,"is_disabled":false,"rental_uris":{"android":"levelo://app?vid=8245ad9a-c13a-4fcf-928f-d7efdf6ba676","ios":"levelo://app?vid=8245ad9a-c13a-4fcf-928f-d7efdf6ba676"},"vehicle_type_id":"4","last_reported":1740146832,"current_range_meters":16000,"station_id":"ce4bhap2rcd13ifvqek0","pricing_plan_id":"cebpf4jnsgd1na2vs0mg"},{"bike_id":"889f7320-04a7-4b12-bdff-f8cdb622640c","system_id":"levelo_inurba_marseille","lat":43.30947,"lon":5.39033,"is_reserved":false,"is_disabled":false,"rental_uris":{"android":"levelo://app?vid=889f7320-04a7-4b12-bdff-f8cdb622640c","ios":"levelo://app?vid=889f7320-04a7-4b12-bdff-f8cdb622640c"},"vehicle_type_id":"4","last_reported":1740146832,"current_range_meters":16000,"station_id":"ce4bgup2rcd13ifvqco0","pricing_plan_id":"cebpf4jnsgd1na2vs0mg"},{"bike_id":"65761836-8da8-4de1-bad6-837edc0f06ac","system_id":"levelo_inurba_marseille","lat":43.23066,"lon":5.35496,"is_reserved":false,"is_disabled":false,"rental_uris":{"android":"levelo://app?vid=65761836-8da8-4de1-bad6-837edc0f06ac","ios":"levelo://app?vid=65761836-8da8-4de1-bad6-837edc0f06ac"},"vehicle_type_id":"4","last_reported":1740146832,"current_range_meters":16400,"station_id":"cpo3342slgdg3j2ifvpg","pricing_plan_id":"cebpf4jnsgd1na2vs0mg"},{"bike_id":"8e105087-38a9-466f-9921-981374774092","system_id":"levelo_inurba_marseille","lat":43.30305,"lon":5.36894,"is_reserved":false,"is_disabled":false,"rental_uris":{"android":"levelo://app?vid=8e105087-38a9-466f-9921-981374774092","ios":"levelo://app?vid=8e105087-38a9-466f-9921-981374774092"},"vehicle_type_id":"4","last_reported":1740146832,"current_range_meters":16400,"station_id":"ce4bgqh2rcd13ifvqc5g","pricing_plan_id":"cebpf4jnsgd1na2vs0mg"},{"bike_id":"8e73348d-2ac3-4f12-9042-0bc436195ceb","system_id":"levelo_inurba_marseille","lat":43.27183,"lon":5.40985,"is_reserved":false,"is_disabled":false,"rental_uris":{"android":"levelo://app?vid=8e73348d-2ac3-4f12-9042-0bc436195ceb","ios":"levelo://app?vid=8e73348d-2ac3-4f12-9042-0bc436195ceb"},"vehicle_type_id":"4","last_reported":1740146832,"current_range_meters":16400,"station_id":"ce4bhl12rcd13ifvqgf0","pricing_plan_id":"cebpf4jnsgd1na2vs0mg"},{"bike_id":"3d936617-2e4f-4622-ac6a-5e56a6bf04b5","system_id":"levelo_inurba_marseille","lat":43.30212,"lon":5.39475,"is_reserved":false,"is_disabled":false,"rental_uris":{"android":"levelo://app?vid=3d936617-2e4f-4622-ac6a-5e56a6bf04b5","ios":"levelo://app?vid=3d936617-2e4f-4622-ac6a-5e56a6bf04b5"},"vehicle_type_id":"4","last_reported":1740146832,"current_range_meters":16400,"station_id":"ce4bh0p2rcd13ifvqd70","pricing_plan_id":"cebpf4jnsgd1na2vs0mg"},{"bike_id":"35331f57-b06c-41f1-8224-4eb3668702eb","system_id":"levelo_inurba_marseille","lat":43.23047,"lon":5.35494,"is_reserved":false,"is_disabled":false,"rental_uris":{"android":"levelo://app?vid=35331f57-b06c-41f1-8224-4eb3668702eb","ios":"levelo://app?vid=35331f57-b06c-41f1-8224-4eb3668702eb"},"vehicle_type_id":"4","last_reported":1740146832,"current_range_meters":16400,"station_id":"cpo3342slgdg3j2ifvpg","pricing_plan_id":"cebpf4jnsgd1na2vs0mg"},{"bike_id":"f425829c-8a82-408b-94e6-78ab3c436636","system_id":"levelo_inurba_marseille","lat":43.28405,"lon":5.37507,"is_reserved":false,"is_disabled":false,"rental_uris":{"android":"levelo://app?vid=f425829c-8a82-408b-94e6-78ab3c436636","ios":"levelo://app?vid=f425829c-8a82-408b-94e6-78ab3c436636"},"vehicle_type_id":"4","last_reported":1740146832,"current_range_meters":16800,"station_id":"ce4bh412rcd13ifvqds0","pricing_plan_id":"cebpf4jnsgd1na2vs0mg"},{"bike_id":"c10e3ef8-8a9c-4f21-8d33-5a11cdfaa9a9","system_id":"levelo_inurba_marseille","lat":43.31365,"lon":5.38494,"is_reserved":false,"is_disabled":false,"rental_uris":{"android":"levelo://app?vid=c10e3ef8-8a9c-4f21-8d33-5a11cdfaa9a9","ios":"levelo://app?vid=c10e3ef8-8a9c-4f21-8d33-5a11cdfaa9a9"},"vehicle_type_id":"4","last_reported":1740146832,"current_range_meters":16800,"station_id":"ce4bgt92rcd13ifvqcf0","pricing_plan_id":"cebpf4jnsgd1na2vs0mg"},{"bike_id":"af8ff698-ab81-4c86-a7ce-22784a2884dd","system_id":"levelo_inurba_marseille","lat":43.30591,"lon":5.39371,"is_reserved":false,"is_disabled":false,"rental_uris":{"android":"levelo://app?vid=af8ff698-ab81-4c86-a7ce-22784a2884dd","ios":"levelo://app?vid=af8ff698-ab81-4c86-a7ce-22784a2884dd"},"vehicle_type_id":"4","last_reported":1740146832,"current_range_meters":16800,"station_id":"ce4bh0p2rcd13ifvqd80","pricing_plan_id":"cebpf4jnsgd1na2vs0mg"},{"bike_id":"45f8c2a5-218b-4833-8215-e1c9fc1bcf54","system_id":"levelo_inurba_marseille","lat":43.29575,"lon":5.37507,"is_reserved":false,"is_disabled":false,"rental_uris":{"android":"levelo://app?vid=45f8c2a5-218b-4833-8215-e1c9fc1bcf54","ios":"levelo://app?vid=45f8c2a5-218b-4833-8215-e1c9fc1bcf54"},"vehicle_type_id":"4","last_reported":1740146832,"current_range_meters":16800,"station_id":"ce4bgh92rcd13ifvqb50","pricing_plan_id":"cebpf4jnsgd1na2vs0mg"},{"bike_id":"288b21fa-df88-4bcb-8727-c0d1e9566f32","system_id":"levelo_inurba_marseille","lat":43.28712,"lon":5.37933,"is_reserved":false,"is_disabled":false,"rental_uris":{"android":"levelo://app?vid=288b21fa-df88-4bcb-8727-c0d1e9566f32","ios":"levelo://app?vid=288b21fa-df88-4bcb-8727-c0d1e9566f32"},"vehicle_type_id":"4","last_reported":1740146832,"current_range_meters":16800,"station_id":"ce4bh9p2rcd13ifvqec0","pricing_plan_id":"cebpf4jnsgd1na2vs0mg"},{"bike_id":"d3efcdc9-d77d-46fa-a2e0-693e9d33eec4","system_id":"levelo_inurba_marseille","lat":43.30953,"lon":5.39037,"is_reserved":false,"is_disabled":false,"rental_uris":{"android":"levelo://app?vid=d3efcdc9-d77d-46fa-a2e0-693e9d33eec4","ios":"levelo://app?vid=d3efcdc9-d77d-46fa-a2e0-693e9d33eec4"},"vehicle_type_id":"4","last_reported":1740146832,"current_range_meters":16800,"station_id":"ce4bgup2rcd13ifvqco0","pricing_plan_id":"cebpf4jnsgd1na2vs0mg"},{"bike_id":"e297894e-9654-4d80-87c5-92e5d1d23aba","system_id":"levelo_inurba_marseille","lat":43.27488,"lon":5.42467,"is_reserved":false,"is_disabled":false,"rental_uris":{"android":"levelo://app?vid=e297894e-9654-4d80-87c5-92e5d1d23aba","ios":"levelo://app?vid=e297894e-9654-4d80-87c5-92e5d1d23aba"},"vehicle_type_id":"4","last_reported":1740146832,"current_range_meters":16800,"station_id":"ce4bhn92rcd13ifvqgrg","pricing_plan_id":"cebpf4jnsgd1na2vs0mg"},{"bike_id":"4c65a4d2-5d16-4388-bea7-74a37620dae9","system_id":"levelo_inurba_marseille","lat":43.28852,"lon":5.39309,"is_reserved":false,"is_disabled":false,"rental_uris":{"android":"levelo://app?vid=4c65a4d2-5d16-4388-bea7-74a37620dae9","ios":"levelo://app?vid=4c65a4d2-5d16-4388-bea7-74a37620dae9"},"vehicle_type_id":"4","last_reported":1740146832,"current_range_meters":16800,"station_id":"ce4bh2p2rcd13ifvqdi0","pricing_plan_id":"cebpf4jnsgd1na2vs0mg"},{"bike_id":"dcf7789d-7727-4758-88c7-d8069e3bf948","system_id":"levelo_inurba_marseille","lat":43.292002,"lon":5.393227,"is_reserved":false,"is_disabled":false,"rental_uris":{"android":"levelo://app?vid=dcf7789d-7727-4758-88c7-d8069e3bf948","ios":"levelo://app?vid=dcf7789d-7727-4758-88c7-d8069e3bf948"},"vehicle_type_id":"4","last_reported":1740146832,"current_range_meters":17200,"station_id":"ce4bh192rcd13ifvqdd0","pricing_plan_id":"cebpf4jnsgd1na2vs0mg"},{"bike_id":"a1044c2c-501c-40ba-8279-a99721b05815","system_id":"levelo_inurba_marseille","lat":43.28274,"lon":5.35085,"is_reserved":false,"is_disabled":false,"rental_uris":{"android":"levelo://app?vid=a1044c2c-501c-40ba-8279-a99721b05815","ios":"levelo://app?vid=a1044c2c-501c-40ba-8279-a99721b05815"},"vehicle_type_id":"4","last_reported":1740146832,"current_range_meters":17200,"station_id":"ce4bhbp2rcd13ifvqerg","pricing_plan_id":"cebpf4jnsgd1na2vs0mg"},{"bike_id":"6aae2628-7e82-4994-932d-3a75da849689","system_id":"levelo_inurba_marseille","lat":43.30296,"lon":5.39214,"is_reserved":false,"is_disabled":false,"rental_uris":{"android":"levelo://app?vid=6aae2628-7e82-4994-932d-3a75da849689","ios":"levelo://app?vid=6aae2628-7e82-4994-932d-3a75da849689"},"vehicle_type_id":"4","last_reported":1740146832,"current_range_meters":17600,"station_id":"ce4bgkh2rcd13ifvqbk0","pricing_plan_id":"cebpf4jnsgd1na2vs0mg"},{"bike_id":"e776853d-0662-466e-b6c8-aece83517590","system_id":"levelo_inurba_marseille","lat":43.2407,"lon":5.37763,"is_reserved":false,"is_disabled":false,"rental_uris":{"android":"levelo://app?vid=e776853d-0662-466e-b6c8-aece83517590","ios":"levelo://app?vid=e776853d-0662-466e-b6c8-aece83517590"},"vehicle_type_id":"4","last_reported":1740146832,"current_range_meters":17600,"station_id":"","pricing_plan_id":"cebpf4jnsgd1na2vs0mg"},{"bike_id":"326ef99d-28f6-4a94-bdac-6a0045ab4dad","system_id":"levelo_inurba_marseille","lat":43.262543,"lon":5.378658,"is_reserved":false,"is_disabled":false,"rental_uris":{"android":"levelo://app?vid=326ef99d-28f6-4a94-bdac-6a0045ab4dad","ios":"levelo://app?vid=326ef99d-28f6-4a94-bdac-6a0045ab4dad"},"vehicle_type_id":"4","last_reported":1740146832,"current_range_meters":17200,"station_id":"ce4bhjp2rcd13ifvqg90","pricing_plan_id":"cebpf4jnsgd1na2vs0mg"},{"bike_id":"0b35ef10-1d1d-4e8a-949e-c3122c5e3874","system_id":"levelo_inurba_marseille","lat":43.23967,"lon":5.36621,"is_reserved":false,"is_disabled":false,"rental_uris":{"android":"levelo://app?vid=0b35ef10-1d1d-4e8a-949e-c3122c5e3874","ios":"levelo://app?vid=0b35ef10-1d1d-4e8a-949e-c3122c5e3874"},"vehicle_type_id":"4","last_reported":1740146832,"current_range_meters":17600,"station_id":"ce4bhi12rcd13ifvqfp0","pricing_plan_id":"cebpf4jnsgd1na2vs0mg"},{"bike_id":"6f26ddfb-7358-4345-ae8a-bb3b16150901","system_id":"levelo_inurba_marseille","lat":43.29621,"lon":5.37155,"is_reserved":false,"is_disabled":false,"rental_uris":{"android":"levelo://app?vid=6f26ddfb-7358-4345-ae8a-bb3b16150901","ios":"levelo://app?vid=6f26ddfb-7358-4345-ae8a-bb3b16150901"},"vehicle_type_id":"4","last_reported":1740146832,"current_range_meters":17600,"station_id":"ce4bgnh2rcd13ifvqc0g","pricing_plan_id":"cebpf4jnsgd1na2vs0mg"},{"bike_id":"52e8a53d-220f-4e9b-be1e-4b0193df95e3","system_id":"levelo_inurba_marseille","lat":43.28565,"lon":5.39506,"is_reserved":false,"is_disabled":false,"rental_uris":{"android":"levelo://app?vid=52e8a53d-220f-4e9b-be1e-4b0193df95e3","ios":"levelo://app?vid=52e8a53d-220f-4e9b-be1e-4b0193df95e3"},"vehicle_type_id":"4","last_reported":1740146832,"current_range_meters":17600,"station_id":"ce4bh292rcd13ifvqdg0","pricing_plan_id":"cebpf4jnsgd1na2vs0mg"},{"bike_id":"06b5b92e-20c2-4581-8ccf-06307578ea44","system_id":"levelo_inurba_marseille","lat":43.2719,"lon":5.41022,"is_reserved":false,"is_disabled":false,"rental_uris":{"android":"levelo://app?vid=06b5b92e-20c2-4581-8ccf-06307578ea44","ios":"levelo://app?vid=06b5b92e-20c2-4581-8ccf-06307578ea44"},"vehicle_type_id":"4","last_reported":1740146832,"current_range_meters":17600,"station_id":"ce4bhl12rcd13ifvqgf0","pricing_plan_id":"cebpf4jnsgd1na2vs0mg"},{"bike_id":"a588dbc4-e3f0-43a8-beff-c7d841595765","system_id":"levelo_inurba_marseille","lat":43.30135,"lon":5.39888,"is_reserved":false,"is_disabled":false,"rental_uris":{"android":"levelo://app?vid=a588dbc4-e3f0-43a8-beff-c7d841595765","ios":"levelo://app?vid=a588dbc4-e3f0-43a8-beff-c7d841595765"},"vehicle_type_id":"4","last_reported":1740146832,"current_range_meters":17600,"station_id":"ce4bh0h2rcd13ifvqd40","pricing_plan_id":"cebpf4jnsgd1na2vs0mg"},{"bike_id":"fccdd9e5-af64-47a6-b713-a2b0cd084875","system_id":"levelo_inurba_marseille","lat":43.30944,"lon":5.3904,"is_reserved":false,"is_disabled":false,"rental_uris":{"android":"levelo://app?vid=fccdd9e5-af64-47a6-b713-a2b0cd084875","ios":"levelo://app?vid=fccdd9e5-af64-47a6-b713-a2b0cd084875"},"vehicle_type_id":"4","last_reported":1740146832,"current_range_meters":17600,"station_id":"ce4bgup2rcd13ifvqco0","pricing_plan_id":"cebpf4jnsgd1na2vs0mg"},{"bike_id":"24b87019-ab18-4324-874c-b55bcb0b0a7a","system_id":"levelo_inurba_marseille","lat":43.28036,"lon":5.36959,"is_reserved":false,"is_disabled":false,"rental_uris":{"android":"levelo://app?vid=24b87019-ab18-4324-874c-b55bcb0b0a7a","ios":"levelo://app?vid=24b87019-ab18-4324-874c-b55bcb0b0a7a"},"vehicle_type_id":"4","last_reported":1740146832,"current_range_meters":17600,"station_id":"ce4bha12rcd13ifvqef0","pricing_plan_id":"cebpf4jnsgd1na2vs0mg"},{"bike_id":"68a52a99-b26a-4071-ae7c-1db9e783ca9a","system_id":"levelo_inurba_marseille","lat":43.30532,"lon":5.36543,"is_reserved":false,"is_disabled":false,"rental_uris":{"android":"levelo://app?vid=68a52a99-b26a-4071-ae7c-1db9e783ca9a","ios":"levelo://app?vid=68a52a99-b26a-4071-ae7c-1db9e783ca9a"},"vehicle_type_id":"4","last_reported":1740146832,"current_range_meters":17600,"station_id":"ce4bgs12rcd13ifvqcag","pricing_plan_id":"cebpf4jnsgd1na2vs0mg"},{"bike_id":"398e2710-eb3d-44fe-a958-bc6962f7bbab","system_id":"levelo_inurba_marseille","lat":43.32379,"lon":5.38885,"is_reserved":false,"is_disabled":false,"rental_uris":{"android":"levelo://app?vid=398e2710-eb3d-44fe-a958-bc6962f7bbab","ios":"levelo://app?vid=398e2710-eb3d-44fe-a958-bc6962f7bbab"},"vehicle_type_id":"4","last_reported":1740146832,"current_range_meters":18000,"station_id":"ce4bhqp2rcd13ifvqhog","pricing_plan_id":"cebpf4jnsgd1na2vs0mg"},{"bike_id":"d11825b8-23fc-47b2-84b9-7b315e040508","system_id":"levelo_inurba_marseille","lat":43.3031,"lon":5.36896,"is_reserved":false,"is_disabled":false,"rental_uris":{"android":"levelo://app?vid=d11825b8-23fc-47b2-84b9-7b315e040508","ios":"levelo://app?vid=d11825b8-23fc-47b2-84b9-7b315e040508"},"vehicle_type_id":"4","last_reported":1740146832,"current_range_meters":18000,"station_id":"ce4bgqh2rcd13ifvqc5g","pricing_plan_id":"cebpf4jnsgd1na2vs0mg"},{"bike_id":"2dd4c48b-2a0c-40f5-a353-fc4262c5e9a1","system_id":"levelo_inurba_marseille","lat":43.27374,"lon":5.36256,"is_reserved":false,"is_disabled":false,"rental_uris":{"android":"levelo://app?vid=2dd4c48b-2a0c-40f5-a353-fc4262c5e9a1","ios":"levelo://app?vid=2dd4c48b-2a0c-40f5-a353-fc4262c5e9a1"},"vehicle_type_id":"4","last_reported":1740146832,"current_range_meters":18000,"station_id":"ce4bhbh2rcd13ifvqeo0","pricing_plan_id":"cebpf4jnsgd1na2vs0mg"},{"bike_id":"4dca8f0f-b528-4efc-bbc2-e7637ee24b3d","system_id":"levelo_inurba_marseille","lat":43.23964,"lon":5.36633,"is_reserved":false,"is_disabled":false,"rental_uris":{"android":"levelo://app?vid=4dca8f0f-b528-4efc-bbc2-e7637ee24b3d","ios":"levelo://app?vid=4dca8f0f-b528-4efc-bbc2-e7637ee24b3d"},"vehicle_type_id":"4","last_reported":1740146832,"current_range_meters":18000,"station_id":"ce4bhi12rcd13ifvqfp0","pricing_plan_id":"cebpf4jnsgd1na2vs0mg"},{"bike_id":"d3859d4a-fe23-43fd-8158-d43bd543d2ac","system_id":"levelo_inurba_marseille","lat":43.28469,"lon":5.38406,"is_reserved":false,"is_disabled":false,"rental_uris":{"android":"levelo://app?vid=d3859d4a-fe23-43fd-8158-d43bd543d2ac","ios":"levelo://app?vid=d3859d4a-fe23-43fd-8158-d43bd543d2ac"},"vehicle_type_id":"4","last_reported":1740146832,"current_range_meters":18000,"station_id":"ce4bh512rcd13ifvqe3g","pricing_plan_id":"cebpf4jnsgd1na2vs0mg"},{"bike_id":"4dac98bb-d744-47be-a481-760a1397e82e","system_id":"levelo_inurba_marseille","lat":43.29917,"lon":5.37473,"is_reserved":false,"is_disabled":false,"rental_uris":{"android":"levelo://app?vid=4dac98bb-d744-47be-a481-760a1397e82e","ios":"levelo://app?vid=4dac98bb-d744-47be-a481-760a1397e82e"},"vehicle_type_id":"4","last_reported":1740146832,"current_range_meters":18000,"station_id":"ce4bgjh2rcd13ifvqbg0","pricing_plan_id":"cebpf4jnsgd1na2vs0mg"},{"bike_id":"39940612-fe23-4001-9207-6b95c3963a35","system_id":"levelo_inurba_marseille","lat":43.272,"lon":5.40989,"is_reserved":false,"is_disabled":false,"rental_uris":{"android":"levelo://app?vid=39940612-fe23-4001-9207-6b95c3963a35","ios":"levelo://app?vid=39940612-fe23-4001-9207-6b95c3963a35"},"vehicle_type_id":"4","last_reported":1740146832,"current_range_meters":18000,"station_id":"ce4bhl12rcd13ifvqgf0","pricing_plan_id":"cebpf4jnsgd1na2vs0mg"},{"bike_id":"ad467f16-d084-4403-a073-900cc427d325","system_id":"levelo_inurba_marseille","lat":43.29985,"lon":5.37182,"is_reserved":false,"is_disabled":false,"rental_uris":{"android":"levelo://app?vid=ad467f16-d084-4403-a073-900cc427d325","ios":"levelo://app?vid=ad467f16-d084-4403-a073-900cc427d325"},"vehicle_type_id":"4","last_reported":1740146832,"current_range_meters":18000,"station_id":"ce4bgr92rcd13ifvqc7g","pricing_plan_id":"cebpf4jnsgd1na2vs0mg"},{"bike_id":"99db1a06-6939-4d08-9e75-21b5fc33356a","system_id":"levelo_inurba_marseille","lat":43.231494,"lon":5.43715,"is_reserved":false,"is_disabled":false,"rental_uris":{"android":"levelo://app?vid=99db1a06-6939-4d08-9e75-21b5fc33356a","ios":"levelo://app?vid=99db1a06-6939-4d08-9e75-21b5fc33356a"},"vehicle_type_id":"4","last_reported":1740146832,"current_range_meters":18000,"station_id":"ce4bhmp2rcd13ifvqgog","pricing_plan_id":"cebpf4jnsgd1na2vs0mg"},{"bike_id":"84a48ed6-4bba-4c3d-a5e3-cd61b579c40c","system_id":"levelo_inurba_marseille","lat":43.29707,"lon":5.36605,"is_reserved":false,"is_disabled":false,"rental_uris":{"android":"levelo://app?vid=84a48ed6-4bba-4c3d-a5e3-cd61b579c40c","ios":"levelo://app?vid=84a48ed6-4bba-4c3d-a5e3-cd61b579c40c"},"vehicle_type_id":"4","last_reported":1740146832,"current_range_meters":18000,"station_id":"ce4bgn12rcd13ifvqbt0","pricing_plan_id":"cebpf4jnsgd1na2vs0mg"},{"bike_id":"4c1c44ca-a891-4cc7-8ab3-3d500286eb78","system_id":"levelo_inurba_marseille","lat":43.28038,"lon":5.36956,"is_reserved":false,"is_disabled":false,"rental_uris":{"android":"levelo://app?vid=4c1c44ca-a891-4cc7-8ab3-3d500286eb78","ios":"levelo://app?vid=4c1c44ca-a891-4cc7-8ab3-3d500286eb78"},"vehicle_type_id":"4","last_reported":1740146832,"current_range_meters":18000,"station_id":"ce4bha12rcd13ifvqef0","pricing_plan_id":"cebpf4jnsgd1na2vs0mg"},{"bike_id":"d38f7746-aaf5-4dfa-ae1d-eaa8a3558301","system_id":"levelo_inurba_marseille","lat":43.2782,"lon":5.40696,"is_reserved":false,"is_disabled":false,"rental_uris":{"android":"levelo://app?vid=d38f7746-aaf5-4dfa-ae1d-eaa8a3558301","ios":"levelo://app?vid=d38f7746-aaf5-4dfa-ae1d-eaa8a3558301"},"vehicle_type_id":"4","last_reported":1740146832,"current_range_meters":18000,"station_id":"ce4bhnh2rcd13ifvqgtg","pricing_plan_id":"cebpf4jnsgd1na2vs0mg"},{"bike_id":"3af4f6a0-95a4-46b5-a3a7-3f63eacdcc7d","system_id":"levelo_inurba_marseille","lat":43.30524,"lon":5.36711,"is_reserved":false,"is_disabled":false,"rental_uris":{"android":"levelo://app?vid=3af4f6a0-95a4-46b5-a3a7-3f63eacdcc7d","ios":"levelo://app?vid=3af4f6a0-95a4-46b5-a3a7-3f63eacdcc7d"},"vehicle_type_id":"4","last_reported":1740146832,"current_range_meters":18000,"station_id":"ce4bgrp2rcd13ifvqc9g","pricing_plan_id":"cebpf4jnsgd1na2vs0mg"},{"bike_id":"519c0d90-c598-4074-9c80-d5e1565ff705","system_id":"levelo_inurba_marseille","lat":43.23068,"lon":5.35493,"is_reserved":false,"is_disabled":false,"rental_uris":{"android":"levelo://app?vid=519c0d90-c598-4074-9c80-d5e1565ff705","ios":"levelo://app?vid=519c0d90-c598-4074-9c80-d5e1565ff705"},"vehicle_type_id":"4","last_reported":1740146832,"current_range_meters":18800,"station_id":"cpo3342slgdg3j2ifvpg","pricing_plan_id":"cebpf4jnsgd1na2vs0mg"},{"bike_id":"58d73dba-defa-4360-b88e-b08c23a17f5c","system_id":"levelo_inurba_marseille","lat":43.23963,"lon":5.36629,"is_reserved":false,"is_disabled":false,"rental_uris":{"android":"levelo://app?vid=58d73dba-defa-4360-b88e-b08c23a17f5c","ios":"levelo://app?vid=58d73dba-defa-4360-b88e-b08c23a17f5c"},"vehicle_type_id":"4","last_reported":1740146832,"current_range_meters":18800,"station_id":"ce4bhi12rcd13ifvqfp0","pricing_plan_id":"cebpf4jnsgd1na2vs0mg"},{"bike_id":"817af31a-af02-4ae6-b49d-c9fe669faa18","system_id":"levelo_inurba_marseille","lat":43.26206,"lon":5.37448,"is_reserved":false,"is_disabled":false,"rental_uris":{"android":"levelo://app?vid=817af31a-af02-4ae6-b49d-c9fe669faa18","ios":"levelo://app?vid=817af31a-af02-4ae6-b49d-c9fe669faa18"},"vehicle_type_id":"4","last_reported":1740146832,"current_range_meters":18800,"station_id":"ce4bhgp2rcd13ifvqfc0","pricing_plan_id":"cebpf4jnsgd1na2vs0mg"},{"bike_id":"1deaa002-5243-48d8-8779-82891264a102","system_id":"levelo_inurba_marseille","lat":43.24812,"lon":5.37452,"is_reserved":false,"is_disabled":false,"rental_uris":{"android":"levelo://app?vid=1deaa002-5243-48d8-8779-82891264a102","ios":"levelo://app?vid=1deaa002-5243-48d8-8779-82891264a102"},"vehicle_type_id":"4","last_reported":1740146832,"current_range_meters":18800,"station_id":"ce4bhgh2rcd13ifvqfb0","pricing_plan_id":"cebpf4jnsgd1na2vs0mg"},{"bike_id":"d98e29be-7c7a-4ebc-95ae-cd403abc761b","system_id":"levelo_inurba_marseille","lat":43.30804,"lon":5.43523,"is_reserved":false,"is_disabled":false,"rental_uris":{"android":"levelo://app?vid=d98e29be-7c7a-4ebc-95ae-cd403abc761b","ios":"levelo://app?vid=d98e29be-7c7a-4ebc-95ae-cd403abc761b"},"vehicle_type_id":"4","last_reported":1740146832,"current_range_meters":18800,"station_id":"ce4bhph2rcd13ifvqheg","pricing_plan_id":"cebpf4jnsgd1na2vs0mg"},{"bike_id":"84e364eb-0bd3-4a3c-8233-6ea88f117d5c","system_id":"levelo_inurba_marseille","lat":43.30162,"lon":5.38086,"is_reserved":false,"is_disabled":false,"rental_uris":{"android":"levelo://app?vid=84e364eb-0bd3-4a3c-8233-6ea88f117d5c","ios":"levelo://app?vid=84e364eb-0bd3-4a3c-8233-6ea88f117d5c"},"vehicle_type_id":"4","last_reported":1740146832,"current_range_meters":19200,"station_id":"ce4bgjp2rcd13ifvqbh0","pricing_plan_id":"cebpf4jnsgd1na2vs0mg"},{"bike_id":"c6f14f15-88d2-4d8a-a040-90a14ad29265","system_id":"levelo_inurba_marseille","lat":43.27363,"lon":5.36254,"is_reserved":false,"is_disabled":false,"rental_uris":{"android":"levelo://app?vid=c6f14f15-88d2-4d8a-a040-90a14ad29265","ios":"levelo://app?vid=c6f14f15-88d2-4d8a-a040-90a14ad29265"},"vehicle_type_id":"4","last_reported":1740146832,"current_range_meters":18800,"station_id":"ce4bhbh2rcd13ifvqeo0","pricing_plan_id":"cebpf4jnsgd1na2vs0mg"},{"bike_id":"c1b2df81-f5a3-4e61-99b1-5d7fcc858717","system_id":"levelo_inurba_marseille","lat":43.266937,"lon":5.389601,"is_reserved":false,"is_disabled":false,"rental_uris":{"android":"levelo://app?vid=c1b2df81-f5a3-4e61-99b1-5d7fcc858717","ios":"levelo://app?vid=c1b2df81-f5a3-4e61-99b1-5d7fcc858717"},"vehicle_type_id":"4","last_reported":1740146832,"current_range_meters":18800,"station_id":"ce4bhgp2rcd13ifvqfe0","pricing_plan_id":"cebpf4jnsgd1na2vs0mg"},{"bike_id":"46bfb48e-1bd6-4675-8665-fe5c6b1cdb8e","system_id":"levelo_inurba_marseille","lat":43.25108,"lon":5.4033,"is_reserved":false,"is_disabled":false,"rental_uris":{"android":"levelo://app?vid=46bfb48e-1bd6-4675-8665-fe5c6b1cdb8e","ios":"levelo://app?vid=46bfb48e-1bd6-4675-8665-fe5c6b1cdb8e"},"vehicle_type_id":"4","last_reported":1740146832,"current_range_meters":19200,"station_id":"","pricing_plan_id":"cebpf4jnsgd1na2vs0mg"},{"bike_id":"467a0ac7-872c-4bb6-8ee3-3c6f458a51d9","system_id":"levelo_inurba_marseille","lat":43.27894,"lon":5.41254,"is_reserved":false,"is_disabled":false,"rental_uris":{"android":"levelo://app?vid=467a0ac7-872c-4bb6-8ee3-3c6f458a51d9","ios":"levelo://app?vid=467a0ac7-872c-4bb6-8ee3-3c6f458a51d9"},"vehicle_type_id":"4","last_reported":1740146832,"current_range_meters":19200,"station_id":"","pricing_plan_id":"cebpf4jnsgd1na2vs0mg"},{"bike_id":"ba0bce3c-2f0f-4319-a7aa-4f3727bd81ea","system_id":"levelo_inurba_marseille","lat":43.32131,"lon":5.36769,"is_reserved":false,"is_disabled":false,"rental_uris":{"android":"levelo://app?vid=ba0bce3c-2f0f-4319-a7aa-4f3727bd81ea","ios":"levelo://app?vid=ba0bce3c-2f0f-4319-a7aa-4f3727bd81ea"},"vehicle_type_id":"4","last_reported":1740146832,"current_range_meters":19200,"station_id":"ce4bhrh2rcd13ifvqhug","pricing_plan_id":"cebpf4jnsgd1na2vs0mg"},{"bike_id":"ecb792ba-e590-4d62-97cc-1e9b429064df","system_id":"levelo_inurba_marseille","lat":43.25006,"lon":5.38912,"is_reserved":false,"is_disabled":false,"rental_uris":{"android":"levelo://app?vid=ecb792ba-e590-4d62-97cc-1e9b429064df","ios":"levelo://app?vid=ecb792ba-e590-4d62-97cc-1e9b429064df"},"vehicle_type_id":"4","last_reported":1740146832,"current_range_meters":19200,"station_id":"ce4bhgp2rcd13ifvqfd0","pricing_plan_id":"cebpf4jnsgd1na2vs0mg"},{"bike_id":"e63cbd10-cd77-4ed0-a39a-9be005a5c0e8","system_id":"levelo_inurba_marseille","lat":43.335937,"lon":5.40982,"is_reserved":false,"is_disabled":false,"rental_uris":{"android":"levelo://app?vid=e63cbd10-cd77-4ed0-a39a-9be005a5c0e8","ios":"levelo://app?vid=e63cbd10-cd77-4ed0-a39a-9be005a5c0e8"},"vehicle_type_id":"4","last_reported":1740146832,"current_range_meters":19200,"station_id":"ce4bhqh2rcd13ifvqhmg","pricing_plan_id":"cebpf4jnsgd1na2vs0mg"},{"bike_id":"d5566d2e-78e8-488f-b3e7-c9c338cd491f","system_id":"levelo_inurba_marseille","lat":43.27504,"lon":5.42452,"is_reserved":false,"is_disabled":false,"rental_uris":{"android":"levelo://app?vid=d5566d2e-78e8-488f-b3e7-c9c338cd491f","ios":"levelo://app?vid=d5566d2e-78e8-488f-b3e7-c9c338cd491f"},"vehicle_type_id":"4","last_reported":1740146832,"current_range_meters":19200,"station_id":"ce4bhn92rcd13ifvqgrg","pricing_plan_id":"cebpf4jnsgd1na2vs0mg"},{"bike_id":"62506eed-d825-41d6-a23c-80b0c450076d","system_id":"levelo_inurba_marseille","lat":43.2695,"lon":5.38621,"is_reserved":false,"is_disabled":false,"rental_uris":{"android":"levelo://app?vid=62506eed-d825-41d6-a23c-80b0c450076d","ios":"levelo://app?vid=62506eed-d825-41d6-a23c-80b0c450076d"},"vehicle_type_id":"4","last_reported":1740146832,"current_range_meters":19200,"station_id":"ce4bhh92rcd13ifvqfh0","pricing_plan_id":"cebpf4jnsgd1na2vs0mg"},{"bike_id":"9208364c-258f-4d53-93f1-1f0b0b77dca1","system_id":"levelo_inurba_marseille","lat":43.31107,"lon":5.37768,"is_reserved":false,"is_disabled":false,"rental_uris":{"android":"levelo://app?vid=9208364c-258f-4d53-93f1-1f0b0b77dca1","ios":"levelo://app?vid=9208364c-258f-4d53-93f1-1f0b0b77dca1"},"vehicle_type_id":"4","last_reported":1740146832,"current_range_meters":19200,"station_id":"ce4bgt92rcd13ifvqcg0","pricing_plan_id":"cebpf4jnsgd1na2vs0mg"},{"bike_id":"9eb76a76-4d91-4fa9-8be0-964eb6834628","system_id":"levelo_inurba_marseille","lat":43.29555,"lon":5.42279,"is_reserved":false,"is_disabled":false,"rental_uris":{"android":"levelo://app?vid=9eb76a76-4d91-4fa9-8be0-964eb6834628","ios":"levelo://app?vid=9eb76a76-4d91-4fa9-8be0-964eb6834628"},"vehicle_type_id":"4","last_reported":1740146832,"current_range_meters":19200,"station_id":"ce4bhph2rcd13ifvqhdg","pricing_plan_id":"cebpf4jnsgd1na2vs0mg"},{"bike_id":"8cb8d0a7-0b45-4709-acf5-7f424c30d828","system_id":"levelo_inurba_marseille","lat":43.29708,"lon":5.36614,"is_reserved":false,"is_disabled":false,"rental_uris":{"android":"levelo://app?vid=8cb8d0a7-0b45-4709-acf5-7f424c30d828","ios":"levelo://app?vid=8cb8d0a7-0b45-4709-acf5-7f424c30d828"},"vehicle_type_id":"4","last_reported":1740146832,"current_range_meters":19200,"station_id":"ce4bgn12rcd13ifvqbt0","pricing_plan_id":"cebpf4jnsgd1na2vs0mg"},{"bike_id":"dab960d9-1ede-46dd-ade3-a5360c9021cf","system_id":"levelo_inurba_marseille","lat":43.23188,"lon":5.35559,"is_reserved":false,"is_disabled":false,"rental_uris":{"android":"levelo://app?vid=dab960d9-1ede-46dd-ade3-a5360c9021cf","ios":"levelo://app?vid=dab960d9-1ede-46dd-ade3-a5360c9021cf"},"vehicle_type_id":"4","last_reported":1740146832,"current_range_meters":19200,"station_id":"ce4bhu92rcd13ifvqi70","pricing_plan_id":"cebpf4jnsgd1na2vs0mg"},{"bike_id":"418204bb-d845-489c-a63c-8be02144db94","system_id":"levelo_inurba_marseille","lat":43.31458,"lon":5.37379,"is_reserved":false,"is_disabled":false,"rental_uris":{"android":"levelo://app?vid=418204bb-d845-489c-a63c-8be02144db94","ios":"levelo://app?vid=418204bb-d845-489c-a63c-8be02144db94"},"vehicle_type_id":"4","last_reported":1740146832,"current_range_meters":19200,"station_id":"","pricing_plan_id":"cebpf4jnsgd1na2vs0mg"},{"bike_id":"4d8a26e5-8617-425b-92ac-4fc969f57842","system_id":"levelo_inurba_marseille","lat":43.33723,"lon":5.39179,"is_reserved":false,"is_disabled":false,"rental_uris":{"android":"levelo://app?vid=4d8a26e5-8617-425b-92ac-4fc969f57842","ios":"levelo://app?vid=4d8a26e5-8617-425b-92ac-4fc969f57842"},"vehicle_type_id":"4","last_reported":1740146832,"current_range_meters":19200,"station_id":"ce4bhr92rcd13ifvqhsg","pricing_plan_id":"cebpf4jnsgd1na2vs0mg"},{"bike_id":"330d64ce-5713-4328-9727-7f6f0bc2e963","system_id":"levelo_inurba_marseille","lat":43.24057,"lon":5.3777,"is_reserved":false,"is_disabled":false,"rental_uris":{"android":"levelo://app?vid=330d64ce-5713-4328-9727-7f6f0bc2e963","ios":"levelo://app?vid=330d64ce-5713-4328-9727-7f6f0bc2e963"},"vehicle_type_id":"4","last_reported":1740146832,"current_range_meters":19200,"station_id":"ce4bhnp2rcd13ifvqgvg","pricing_plan_id":"cebpf4jnsgd1na2vs0mg"},{"bike_id":"7962d863-1f38-42ab-ae86-da1aa00d5013","system_id":"levelo_inurba_marseille","lat":43.30179,"lon":5.37375,"is_reserved":false,"is_disabled":false,"rental_uris":{"android":"levelo://app?vid=7962d863-1f38-42ab-ae86-da1aa00d5013","ios":"levelo://app?vid=7962d863-1f38-42ab-ae86-da1aa00d5013"},"vehicle_type_id":"4","last_reported":1740146832,"current_range_meters":19200,"station_id":"ce4bgs92rcd13ifvqcc0","pricing_plan_id":"cebpf4jnsgd1na2vs0mg"},{"bike_id":"7881e654-43f4-49a0-bd31-5bf130c6a3eb","system_id":"levelo_inurba_marseille","lat":43.29851,"lon":5.36274,"is_reserved":false,"is_disabled":false,"rental_uris":{"android":"levelo://app?vid=7881e654-43f4-49a0-bd31-5bf130c6a3eb","ios":"levelo://app?vid=7881e654-43f4-49a0-bd31-5bf130c6a3eb"},"vehicle_type_id":"4","last_reported":1740146832,"current_range_meters":19200,"station_id":"ce4bgpp2rcd13ifvqc3g","pricing_plan_id":"cebpf4jnsgd1na2vs0mg"},{"bike_id":"af04c52e-64bc-4b40-9c5d-f4b0968fc255","system_id":"levelo_inurba_marseille","lat":43.24085,"lon":5.37716,"is_reserved":false,"is_disabled":false,"rental_uris":{"android":"levelo://app?vid=af04c52e-64bc-4b40-9c5d-f4b0968fc255","ios":"levelo://app?vid=af04c52e-64bc-4b40-9c5d-f4b0968fc255"},"vehicle_type_id":"4","last_reported":1740146832,"current_range_meters":19200,"station_id":"ce4bhnp2rcd13ifvqgvg","pricing_plan_id":"cebpf4jnsgd1na2vs0mg"},{"bike_id":"9920a4df-abc9-4d83-957e-2d54137f7ffb","system_id":"levelo_inurba_marseille","lat":43.26937,"lon":5.40256,"is_reserved":false,"is_disabled":false,"rental_uris":{"android":"levelo://app?vid=9920a4df-abc9-4d83-957e-2d54137f7ffb","ios":"levelo://app?vid=9920a4df-abc9-4d83-957e-2d54137f7ffb"},"vehicle_type_id":"4","last_reported":1740146832,"current_range_meters":19200,"station_id":"cjm6bp8fraef2m0cb0m0","pricing_plan_id":"cebpf4jnsgd1na2vs0mg"},{"bike_id":"a7c4fa13-c21c-42ce-82ab-11370de54a3d","system_id":"levelo_inurba_marseille","lat":43.28006,"lon":5.40028,"is_reserved":false,"is_disabled":false,"rental_uris":{"android":"levelo://app?vid=a7c4fa13-c21c-42ce-82ab-11370de54a3d","ios":"levelo://app?vid=a7c4fa13-c21c-42ce-82ab-11370de54a3d"},"vehicle_type_id":"4","last_reported":1740146832,"current_range_meters":19600,"station_id":"ce4bho92rcd13ifvqh4g","pricing_plan_id":"cebpf4jnsgd1na2vs0mg"},{"bike_id":"fe41fd16-501e-42b5-98f2-2908d3195e6c","system_id":"levelo_inurba_marseille","lat":43.30242,"lon":5.40054,"is_reserved":false,"is_disabled":false,"rental_uris":{"android":"levelo://app?vid=fe41fd16-501e-42b5-98f2-2908d3195e6c","ios":"levelo://app?vid=fe41fd16-501e-42b5-98f2-2908d3195e6c"},"vehicle_type_id":"4","last_reported":1740146832,"current_range_meters":19600,"station_id":"ce4bgvh2rcd13ifvqcs0","pricing_plan_id":"cebpf4jnsgd1na2vs0mg"},{"bike_id":"364f3e51-fd29-4ae7-837e-e9b95d49470c","system_id":"levelo_inurba_marseille","lat":43.30147,"lon":5.38079,"is_reserved":false,"is_disabled":false,"rental_uris":{"android":"levelo://app?vid=364f3e51-fd29-4ae7-837e-e9b95d49470c","ios":"levelo://app?vid=364f3e51-fd29-4ae7-837e-e9b95d49470c"},"vehicle_type_id":"4","last_reported":1740146832,"current_range_meters":19600,"station_id":"ce4bgjp2rcd13ifvqbh0","pricing_plan_id":"cebpf4jnsgd1na2vs0mg"},{"bike_id":"8c20ab15-f04e-4e58-be71-0abf1d05d250","system_id":"levelo_inurba_marseille","lat":43.239598,"lon":5.366262,"is_reserved":false,"is_disabled":false,"rental_uris":{"android":"levelo://app?vid=8c20ab15-f04e-4e58-be71-0abf1d05d250","ios":"levelo://app?vid=8c20ab15-f04e-4e58-be71-0abf1d05d250"},"vehicle_type_id":"4","last_reported":1740146832,"current_range_meters":19600,"station_id":"ce4bhi12rcd13ifvqfp0","pricing_plan_id":"cebpf4jnsgd1na2vs0mg"},{"bike_id":"655461b4-a378-4488-adf6-8ee5f09ad70a","system_id":"levelo_inurba_marseille","lat":43.31373,"lon":5.38505,"is_reserved":false,"is_disabled":false,"rental_uris":{"android":"levelo://app?vid=655461b4-a378-4488-adf6-8ee5f09ad70a","ios":"levelo://app?vid=655461b4-a378-4488-adf6-8ee5f09ad70a"},"vehicle_type_id":"4","last_reported":1740146832,"current_range_meters":19600,"station_id":"ce4bgt92rcd13ifvqcf0","pricing_plan_id":"cebpf4jnsgd1na2vs0mg"},{"bike_id":"6897935d-90c4-4aaa-81bd-a334d1112cb3","system_id":"levelo_inurba_marseille","lat":43.246626,"lon":5.381747,"is_reserved":false,"is_disabled":false,"rental_uris":{"android":"levelo://app?vid=6897935d-90c4-4aaa-81bd-a334d1112cb3","ios":"levelo://app?vid=6897935d-90c4-4aaa-81bd-a334d1112cb3"},"vehicle_type_id":"4","last_reported":1740146832,"current_range_meters":20000,"station_id":"ce4bhih2rcd13ifvqfr0","pricing_plan_id":"cebpf4jnsgd1na2vs0mg"},{"bike_id":"88579592-469b-4af7-8cf5-3635eba2a16e","system_id":"levelo_inurba_marseille","lat":43.212616,"lon":5.352859,"is_reserved":false,"is_disabled":false,"rental_uris":{"android":"levelo://app?vid=88579592-469b-4af7-8cf5-3635eba2a16e","ios":"levelo://app?vid=88579592-469b-4af7-8cf5-3635eba2a16e"},"vehicle_type_id":"4","last_reported":1740146832,"current_range_meters":20000,"station_id":"ce4bhhh2rcd13ifvqfk0","pricing_plan_id":"cebpf4jnsgd1na2vs0mg"},{"bike_id":"8b52c24a-60e9-4f95-8f6d-a404db75239c","system_id":"levelo_inurba_marseille","lat":43.27374,"lon":5.36246,"is_reserved":false,"is_disabled":false,"rental_uris":{"android":"levelo://app?vid=8b52c24a-60e9-4f95-8f6d-a404db75239c","ios":"levelo://app?vid=8b52c24a-60e9-4f95-8f6d-a404db75239c"},"vehicle_type_id":"4","last_reported":1740146832,"current_range_meters":20000,"station_id":"ce4bhbh2rcd13ifvqeo0","pricing_plan_id":"cebpf4jnsgd1na2vs0mg"},{"bike_id":"26f5b672-2587-4297-886f-1bb72311e49f","system_id":"levelo_inurba_marseille","lat":43.30154,"lon":5.38089,"is_reserved":false,"is_disabled":false,"rental_uris":{"android":"levelo://app?vid=26f5b672-2587-4297-886f-1bb72311e49f","ios":"levelo://app?vid=26f5b672-2587-4297-886f-1bb72311e49f"},"vehicle_type_id":"4","last_reported":1740146832,"current_range_meters":20000,"station_id":"ce4bgjp2rcd13ifvqbh0","pricing_plan_id":"cebpf4jnsgd1na2vs0mg"},{"bike_id":"eeb074fc-117d-457a-a47f-8e4fd1c083a1","system_id":"levelo_inurba_marseille","lat":43.27208,"lon":5.39191,"is_reserved":false,"is_disabled":false,"rental_uris":{"android":"levelo://app?vid=eeb074fc-117d-457a-a47f-8e4fd1c083a1","ios":"levelo://app?vid=eeb074fc-117d-457a-a47f-8e4fd1c083a1"},"vehicle_type_id":"4","last_reported":1740146832,"current_range_meters":20000,"station_id":"ce4bhhp2rcd13ifvqfm0","pricing_plan_id":"cebpf4jnsgd1na2vs0mg"},{"bike_id":"43d0292c-0783-4657-9327-3f75ecd6df82","system_id":"levelo_inurba_marseille","lat":43.30203,"lon":5.38125,"is_reserved":false,"is_disabled":false,"rental_uris":{"android":"levelo://app?vid=43d0292c-0783-4657-9327-3f75ecd6df82","ios":"levelo://app?vid=43d0292c-0783-4657-9327-3f75ecd6df82"},"vehicle_type_id":"4","last_reported":1740146832,"current_range_meters":20000,"station_id":"ce4bgk12rcd13ifvqbi0","pricing_plan_id":"cebpf4jnsgd1na2vs0mg"},{"bike_id":"7186cff8-21e1-430b-8fc0-1df2beefcfd9","system_id":"levelo_inurba_marseille","lat":43.27957,"lon":5.41029,"is_reserved":false,"is_disabled":false,"rental_uris":{"android":"levelo://app?vid=7186cff8-21e1-430b-8fc0-1df2beefcfd9","ios":"levelo://app?vid=7186cff8-21e1-430b-8fc0-1df2beefcfd9"},"vehicle_type_id":"4","last_reported":1740146832,"current_range_meters":20000,"station_id":"ce4bhnp2rcd13ifvqh0g","pricing_plan_id":"cebpf4jnsgd1na2vs0mg"},{"bike_id":"38f9bc40-639e-4f64-87e9-15092cc7344e","system_id":"levelo_inurba_marseille","lat":43.34403,"lon":5.38175,"is_reserved":false,"is_disabled":false,"rental_uris":{"android":"levelo://app?vid=38f9bc40-639e-4f64-87e9-15092cc7344e","ios":"levelo://app?vid=38f9bc40-639e-4f64-87e9-15092cc7344e"},"vehicle_type_id":"4","last_reported":1740146832,"current_range_meters":20000,"station_id":"","pricing_plan_id":"cebpf4jnsgd1na2vs0mg"},{"bike_id":"ab46b189-6bae-4129-a7fd-10b3ccd5a48e","system_id":"levelo_inurba_marseille","lat":43.27196,"lon":5.39995,"is_reserved":false,"is_disabled":false,"rental_uris":{"android":"levelo://app?vid=ab46b189-6bae-4129-a7fd-10b3ccd5a48e","ios":"levelo://app?vid=ab46b189-6bae-4129-a7fd-10b3ccd5a48e"},"vehicle_type_id":"4","last_reported":1740146832,"current_range_meters":20000,"station_id":"","pricing_plan_id":"cebpf4jnsgd1na2vs0mg"},{"bike_id":"522deade-2596-4a48-b761-5ad7b70093cd","system_id":"levelo_inurba_marseille","lat":43.23959,"lon":5.36618,"is_reserved":false,"is_disabled":true,"rental_uris":{"android":"levelo://app?vid=522deade-2596-4a48-b761-5ad7b70093cd","ios":"levelo://app?vid=522deade-2596-4a48-b761-5ad7b70093cd"},"vehicle_type_id":"4","last_reported":1740146832,"current_range_meters":20000,"station_id":"ce4bhi12rcd13ifvqfp0","pricing_plan_id":"cebpf4jnsgd1na2vs0mg"},{"bike_id":"f5298310-14cd-4aed-bc3f-841e7d37dcf5","system_id":"levelo_inurba_marseille","lat":43.32666,"lon":5.40979,"is_reserved":false,"is_disabled":true,"rental_uris":{"android":"levelo://app?vid=f5298310-14cd-4aed-bc3f-841e7d37dcf5","ios":"levelo://app?vid=f5298310-14cd-4aed-bc3f-841e7d37dcf5"},"vehicle_type_id":"4","last_reported":1740146832,"current_range_meters":20000,"station_id":"ce4bhpp2rcd13ifvqhgg","pricing_plan_id":"cebpf4jnsgd1na2vs0mg"},{"bike_id":"3307539e-16e5-457c-9daf-1311bdad1b6a","system_id":"levelo_inurba_marseille","lat":43.299,"lon":5.43675,"is_reserved":false,"is_disabled":false,"rental_uris":{"android":"levelo://app?vid=3307539e-16e5-457c-9daf-1311bdad1b6a","ios":"levelo://app?vid=3307539e-16e5-457c-9daf-1311bdad1b6a"},"vehicle_type_id":"4","last_reported":1740146832,"current_range_meters":20000,"station_id":"ce4bhpp2rcd13ifvqhfg","pricing_plan_id":"cebpf4jnsgd1na2vs0mg"},{"bike_id":"74e18a98-658e-4d29-83ca-d6f26d64a221","system_id":"levelo_inurba_marseille","lat":43.2827,"lon":5.35068,"is_reserved":false,"is_disabled":false,"rental_uris":{"android":"levelo://app?vid=74e18a98-658e-4d29-83ca-d6f26d64a221","ios":"levelo://app?vid=74e18a98-658e-4d29-83ca-d6f26d64a221"},"vehicle_type_id":"4","last_reported":1740146832,"current_range_meters":20000,"station_id":"ce4bhbp2rcd13ifvqerg","pricing_plan_id":"cebpf4jnsgd1na2vs0mg"},{"bike_id":"e045b1b2-0ef3-4756-aacb-ca0086b6e283","system_id":"levelo_inurba_marseille","lat":43.28669,"lon":5.36354,"is_reserved":false,"is_disabled":false,"rental_uris":{"android":"levelo://app?vid=e045b1b2-0ef3-4756-aacb-ca0086b6e283","ios":"levelo://app?vid=e045b1b2-0ef3-4756-aacb-ca0086b6e283"},"vehicle_type_id":"4","last_reported":1740146832,"current_range_meters":20400,"station_id":"ce4bhah2rcd13ifvqej0","pricing_plan_id":"cebpf4jnsgd1na2vs0mg"},{"bike_id":"3bd3e656-41ba-4c4e-a459-b18961e4cb0d","system_id":"levelo_inurba_marseille","lat":43.30927,"lon":5.40142,"is_reserved":false,"is_disabled":false,"rental_uris":{"android":"levelo://app?vid=3bd3e656-41ba-4c4e-a459-b18961e4cb0d","ios":"levelo://app?vid=3bd3e656-41ba-4c4e-a459-b18961e4cb0d"},"vehicle_type_id":"4","last_reported":1740146832,"current_range_meters":20400,"station_id":"ce4bgvp2rcd13ifvqct0","pricing_plan_id":"cebpf4jnsgd1na2vs0mg"},{"bike_id":"503982b2-2ba7-4482-aa5e-307a7c3ca8e4","system_id":"levelo_inurba_marseille","lat":43.31706,"lon":5.404,"is_reserved":false,"is_disabled":false,"rental_uris":{"android":"levelo://app?vid=503982b2-2ba7-4482-aa5e-307a7c3ca8e4","ios":"levelo://app?vid=503982b2-2ba7-4482-aa5e-307a7c3ca8e4"},"vehicle_type_id":"4","last_reported":1740146832,"current_range_meters":20400,"station_id":"","pricing_plan_id":"cebpf4jnsgd1na2vs0mg"},{"bike_id":"22b7568b-0f07-43ed-aa35-a6160ebeb5fa","system_id":"levelo_inurba_marseille","lat":43.30298,"lon":5.39213,"is_reserved":false,"is_disabled":false,"rental_uris":{"android":"levelo://app?vid=22b7568b-0f07-43ed-aa35-a6160ebeb5fa","ios":"levelo://app?vid=22b7568b-0f07-43ed-aa35-a6160ebeb5fa"},"vehicle_type_id":"4","last_reported":1740146832,"current_range_meters":20400,"station_id":"ce4bgkh2rcd13ifvqbk0","pricing_plan_id":"cebpf4jnsgd1na2vs0mg"},{"bike_id":"1b34faa4-a592-4e9c-8183-46ceb41d7473","system_id":"levelo_inurba_marseille","lat":43.31181,"lon":5.38697,"is_reserved":false,"is_disabled":false,"rental_uris":{"android":"levelo://app?vid=1b34faa4-a592-4e9c-8183-46ceb41d7473","ios":"levelo://app?vid=1b34faa4-a592-4e9c-8183-46ceb41d7473"},"vehicle_type_id":"4","last_reported":1740146832,"current_range_meters":20400,"station_id":"ce4bgv12rcd13ifvqcp0","pricing_plan_id":"cebpf4jnsgd1na2vs0mg"},{"bike_id":"4351ab8f-102b-4040-9744-2d51484d7921","system_id":"levelo_inurba_marseille","lat":43.24399,"lon":5.37053,"is_reserved":false,"is_disabled":true,"rental_uris":{"android":"levelo://app?vid=4351ab8f-102b-4040-9744-2d51484d7921","ios":"levelo://app?vid=4351ab8f-102b-4040-9744-2d51484d7921"},"vehicle_type_id":"4","last_reported":1740146832,"current_range_meters":20400,"station_id":"ce4bhhh2rcd13ifvqfk0","pricing_plan_id":"cebpf4jnsgd1na2vs0mg"},{"bike_id":"17b2ebc3-0553-4166-bc89-f646218cb5d5","system_id":"levelo_inurba_marseille","lat":43.24799,"lon":5.37452,"is_reserved":false,"is_disabled":false,"rental_uris":{"android":"levelo://app?vid=17b2ebc3-0553-4166-bc89-f646218cb5d5","ios":"levelo://app?vid=17b2ebc3-0553-4166-bc89-f646218cb5d5"},"vehicle_type_id":"4","last_reported":1740146832,"current_range_meters":20400,"station_id":"ce4bhgh2rcd13ifvqfb0","pricing_plan_id":"cebpf4jnsgd1na2vs0mg"},{"bike_id":"620b8c9d-6568-45dd-8d61-8cf21a79ab46","system_id":"levelo_inurba_marseille","lat":43.32101,"lon":5.36769,"is_reserved":false,"is_disabled":false,"rental_uris":{"android":"levelo://app?vid=620b8c9d-6568-45dd-8d61-8cf21a79ab46","ios":"levelo://app?vid=620b8c9d-6568-45dd-8d61-8cf21a79ab46"},"vehicle_type_id":"4","last_reported":1740146832,"current_range_meters":20400,"station_id":"ce4bhrh2rcd13ifvqhug","pricing_plan_id":"cebpf4jnsgd1na2vs0mg"},{"bike_id":"3956cc44-fc75-4f94-89d5-9c133698b60d","system_id":"levelo_inurba_marseille","lat":43.29985,"lon":5.37166,"is_reserved":false,"is_disabled":false,"rental_uris":{"android":"levelo://app?vid=3956cc44-fc75-4f94-89d5-9c133698b60d","ios":"levelo://app?vid=3956cc44-fc75-4f94-89d5-9c133698b60d"},"vehicle_type_id":"4","last_reported":1740146832,"current_range_meters":20400,"station_id":"ce4bgr92rcd13ifvqc7g","pricing_plan_id":"cebpf4jnsgd1na2vs0mg"},{"bike_id":"16e1b5fd-23f2-4e1b-a128-71b1c53f1f7b","system_id":"levelo_inurba_marseille","lat":43.273,"lon":5.3907,"is_reserved":false,"is_disabled":false,"rental_uris":{"android":"levelo://app?vid=16e1b5fd-23f2-4e1b-a128-71b1c53f1f7b","ios":"levelo://app?vid=16e1b5fd-23f2-4e1b-a128-71b1c53f1f7b"},"vehicle_type_id":"4","last_reported":1740146832,"current_range_meters":20800,"station_id":"ce4bhgp2rcd13ifvqfe0","pricing_plan_id":"cebpf4jnsgd1na2vs0mg"},{"bike_id":"853bb3c3-1036-4a3f-aa99-525f1a1eb473","system_id":"levelo_inurba_marseille","lat":43.30808,"lon":5.38144,"is_reserved":false,"is_disabled":false,"rental_uris":{"android":"levelo://app?vid=853bb3c3-1036-4a3f-aa99-525f1a1eb473","ios":"levelo://app?vid=853bb3c3-1036-4a3f-aa99-525f1a1eb473"},