{"last_updated":1776852629,"ttl":60,"version":"2.2","data":{"bikes":[{"bike_id":"255ef345-0563-469b-bb5f-1d87398cf514","system_id":"levelo_inurba_marseille","lat":43.337444,"lon":5.374475,"is_reserved":false,"is_disabled":false,"rental_uris":{"android":"levelo://app?vid=255ef345-0563-469b-bb5f-1d87398cf514","ios":"levelo://app?vid=255ef345-0563-469b-bb5f-1d87398cf514"},"vehicle_type_id":"4","last_reported":1776852630,"current_range_meters":0,"station_id":"","pricing_plan_id":"cebpf4jnsgd1na2vs0mg"},{"bike_id":"58ed09d9-0aa1-471f-818a-54c432b83970","system_id":"levelo_inurba_marseille","lat":43.26604,"lon":5.4282,"is_reserved":false,"is_disabled":false,"rental_uris":{"android":"levelo://app?vid=58ed09d9-0aa1-471f-818a-54c432b83970","ios":"levelo://app?vid=58ed09d9-0aa1-471f-818a-54c432b83970"},"vehicle_type_id":"4","last_reported":1776852630,"current_range_meters":2800,"station_id":"","pricing_plan_id":"cebpf4jnsgd1na2vs0mg"},{"bike_id":"0bbddeab-79a7-4ee1-8ee9-7b449e9b0d0d","system_id":"levelo_inurba_marseille","lat":43.29248,"lon":5.38777,"is_reserved":false,"is_disabled":false,"rental_uris":{"android":"levelo://app?vid=0bbddeab-79a7-4ee1-8ee9-7b449e9b0d0d","ios":"levelo://app?vid=0bbddeab-79a7-4ee1-8ee9-7b449e9b0d0d"},"vehicle_type_id":"4","last_reported":1776852630,"current_range_meters":2800,"station_id":"","pricing_plan_id":"cebpf4jnsgd1na2vs0mg"},{"bike_id":"bb1c4c2b-c3ea-448f-8049-8fa792f834ce","system_id":"levelo_inurba_marseille","lat":43.24955,"lon":5.40488,"is_reserved":false,"is_disabled":false,"rental_uris":{"android":"levelo://app?vid=bb1c4c2b-c3ea-448f-8049-8fa792f834ce","ios":"levelo://app?vid=bb1c4c2b-c3ea-448f-8049-8fa792f834ce"},"vehicle_type_id":"4","last_reported":1776852630,"current_range_meters":2800,"station_id":"st_d2ngiaodas8pm72gd1h0","pricing_plan_id":"cebpf4jnsgd1na2vs0mg"},{"bike_id":"49fd91f1-255d-454b-bb36-9d45b10d8dd4","system_id":"levelo_inurba_marseille","lat":43.31113,"lon":5.37751,"is_reserved":false,"is_disabled":false,"rental_uris":{"android":"levelo://app?vid=49fd91f1-255d-454b-bb36-9d45b10d8dd4","ios":"levelo://app?vid=49fd91f1-255d-454b-bb36-9d45b10d8dd4"},"vehicle_type_id":"4","last_reported":1776852630,"current_range_meters":2800,"station_id":"ce4bgt92rcd13ifvqcg0","pricing_plan_id":"cebpf4jnsgd1na2vs0mg"},{"bike_id":"7278eae4-9ede-4ee2-afa4-5aef54634e43","system_id":"levelo_inurba_marseille","lat":43.30153,"lon":5.37396,"is_reserved":false,"is_disabled":false,"rental_uris":{"android":"levelo://app?vid=7278eae4-9ede-4ee2-afa4-5aef54634e43","ios":"levelo://app?vid=7278eae4-9ede-4ee2-afa4-5aef54634e43"},"vehicle_type_id":"4","last_reported":1776852630,"current_range_meters":3200,"station_id":"ce4bgs92rcd13ifvqcc0","pricing_plan_id":"cebpf4jnsgd1na2vs0mg"},{"bike_id":"e9c1c731-1912-4153-abf3-120b800b8c67","system_id":"levelo_inurba_marseille","lat":43.27219,"lon":5.39183,"is_reserved":false,"is_disabled":true,"rental_uris":{"android":"levelo://app?vid=e9c1c731-1912-4153-abf3-120b800b8c67","ios":"levelo://app?vid=e9c1c731-1912-4153-abf3-120b800b8c67"},"vehicle_type_id":"4","last_reported":1776852630,"current_range_meters":3200,"station_id":"ce4bhhp2rcd13ifvqfm0","pricing_plan_id":"cebpf4jnsgd1na2vs0mg"},{"bike_id":"a68b9ea8-6631-4b0f-8aad-29aaec312572","system_id":"levelo_inurba_marseille","lat":43.3056,"lon":5.36624,"is_reserved":false,"is_disabled":false,"rental_uris":{"android":"levelo://app?vid=a68b9ea8-6631-4b0f-8aad-29aaec312572","ios":"levelo://app?vid=a68b9ea8-6631-4b0f-8aad-29aaec312572"},"vehicle_type_id":"4","last_reported":1776852630,"current_range_meters":3200,"station_id":"","pricing_plan_id":"cebpf4jnsgd1na2vs0mg"},{"bike_id":"09b2ffa3-7889-438d-a8e4-f8148acd5b69","system_id":"levelo_inurba_marseille","lat":43.26176,"lon":5.38755,"is_reserved":false,"is_disabled":false,"rental_uris":{"android":"levelo://app?vid=09b2ffa3-7889-438d-a8e4-f8148acd5b69","ios":"levelo://app?vid=09b2ffa3-7889-438d-a8e4-f8148acd5b69"},"vehicle_type_id":"4","last_reported":1776852630,"current_range_meters":3200,"station_id":"","pricing_plan_id":"cebpf4jnsgd1na2vs0mg"},{"bike_id":"14290775-1809-431a-89de-994574cdc895","system_id":"levelo_inurba_marseille","lat":43.27583,"lon":5.38634,"is_reserved":false,"is_disabled":false,"rental_uris":{"android":"levelo://app?vid=14290775-1809-431a-89de-994574cdc895","ios":"levelo://app?vid=14290775-1809-431a-89de-994574cdc895"},"vehicle_type_id":"4","last_reported":1776852630,"current_range_meters":3600,"station_id":"","pricing_plan_id":"cebpf4jnsgd1na2vs0mg"},{"bike_id":"509f6606-854e-4ace-8e50-002c526c2bf8","system_id":"levelo_inurba_marseille","lat":43.29368,"lon":5.37853,"is_reserved":false,"is_disabled":false,"rental_uris":{"android":"levelo://app?vid=509f6606-854e-4ace-8e50-002c526c2bf8","ios":"levelo://app?vid=509f6606-854e-4ace-8e50-002c526c2bf8"},"vehicle_type_id":"4","last_reported":1776852630,"current_range_meters":4000,"station_id":"ce4bgjh2rcd13ifvqbf0","pricing_plan_id":"cebpf4jnsgd1na2vs0mg"},{"bike_id":"1fd10be9-0a9a-46a4-9d74-69cc8527ad5b","system_id":"levelo_inurba_marseille","lat":43.2848,"lon":5.484,"is_reserved":false,"is_disabled":false,"rental_uris":{"android":"levelo://app?vid=1fd10be9-0a9a-46a4-9d74-69cc8527ad5b","ios":"levelo://app?vid=1fd10be9-0a9a-46a4-9d74-69cc8527ad5b"},"vehicle_type_id":"4","last_reported":1776852630,"current_range_meters":4000,"station_id":"","pricing_plan_id":"cebpf4jnsgd1na2vs0mg"},{"bike_id":"9fa7d6f9-51ef-4a3e-8221-68e4ce27839e","system_id":"levelo_inurba_marseille","lat":43.26212,"lon":5.37445,"is_reserved":false,"is_disabled":false,"rental_uris":{"android":"levelo://app?vid=9fa7d6f9-51ef-4a3e-8221-68e4ce27839e","ios":"levelo://app?vid=9fa7d6f9-51ef-4a3e-8221-68e4ce27839e"},"vehicle_type_id":"4","last_reported":1776852630,"current_range_meters":4000,"station_id":"ce4bhgp2rcd13ifvqfc0","pricing_plan_id":"cebpf4jnsgd1na2vs0mg"},{"bike_id":"8b669b15-9ae7-4af7-b6a3-2f3e48d6fc9d","system_id":"levelo_inurba_marseille","lat":43.27618,"lon":5.36109,"is_reserved":false,"is_disabled":false,"rental_uris":{"android":"levelo://app?vid=8b669b15-9ae7-4af7-b6a3-2f3e48d6fc9d","ios":"levelo://app?vid=8b669b15-9ae7-4af7-b6a3-2f3e48d6fc9d"},"vehicle_type_id":"4","last_reported":1776852630,"current_range_meters":4000,"station_id":"ce4bgj92rcd13ifvqbe0","pricing_plan_id":"cebpf4jnsgd1na2vs0mg"},{"bike_id":"1a49d93e-ac52-4f35-b205-bdb4147d5398","system_id":"levelo_inurba_marseille","lat":43.29563,"lon":5.37512,"is_reserved":false,"is_disabled":false,"rental_uris":{"android":"levelo://app?vid=1a49d93e-ac52-4f35-b205-bdb4147d5398","ios":"levelo://app?vid=1a49d93e-ac52-4f35-b205-bdb4147d5398"},"vehicle_type_id":"4","last_reported":1776852630,"current_range_meters":4000,"station_id":"ce4bgh92rcd13ifvqb50","pricing_plan_id":"cebpf4jnsgd1na2vs0mg"},{"bike_id":"f8886bac-06e6-4f4e-b567-d0f4cd2b25d3","system_id":"levelo_inurba_marseille","lat":43.27505,"lon":5.42436,"is_reserved":false,"is_disabled":false,"rental_uris":{"android":"levelo://app?vid=f8886bac-06e6-4f4e-b567-d0f4cd2b25d3","ios":"levelo://app?vid=f8886bac-06e6-4f4e-b567-d0f4cd2b25d3"},"vehicle_type_id":"4","last_reported":1776852630,"current_range_meters":4400,"station_id":"ce4bhn92rcd13ifvqgrg","pricing_plan_id":"cebpf4jnsgd1na2vs0mg"},{"bike_id":"415e0658-223c-4fe0-abd1-f3287f2893c2","system_id":"levelo_inurba_marseille","lat":43.31913,"lon":5.36812,"is_reserved":false,"is_disabled":false,"rental_uris":{"android":"levelo://app?vid=415e0658-223c-4fe0-abd1-f3287f2893c2","ios":"levelo://app?vid=415e0658-223c-4fe0-abd1-f3287f2893c2"},"vehicle_type_id":"4","last_reported":1776852630,"current_range_meters":4400,"station_id":"st_d6o2h0d0559c73evc1b0","pricing_plan_id":"cebpf4jnsgd1na2vs0mg"},{"bike_id":"fa67c282-4320-4694-9944-d25f35222a9c","system_id":"levelo_inurba_marseille","lat":43.30917,"lon":5.37171,"is_reserved":false,"is_disabled":false,"rental_uris":{"android":"levelo://app?vid=fa67c282-4320-4694-9944-d25f35222a9c","ios":"levelo://app?vid=fa67c282-4320-4694-9944-d25f35222a9c"},"vehicle_type_id":"4","last_reported":1776852630,"current_range_meters":4400,"station_id":"ce4bguh2rcd13ifvqckg","pricing_plan_id":"cebpf4jnsgd1na2vs0mg"},{"bike_id":"04d9f990-ead5-466c-adb0-472dbaea3d8d","system_id":"levelo_inurba_marseille","lat":43.26817,"lon":5.40227,"is_reserved":false,"is_disabled":false,"rental_uris":{"android":"levelo://app?vid=04d9f990-ead5-466c-adb0-472dbaea3d8d","ios":"levelo://app?vid=04d9f990-ead5-466c-adb0-472dbaea3d8d"},"vehicle_type_id":"4","last_reported":1776852630,"current_range_meters":4400,"station_id":"ce501612rcd8frsf0b60","pricing_plan_id":"cebpf4jnsgd1na2vs0mg"},{"bike_id":"afe6c9ff-8c7f-40d2-96bc-86354113b443","system_id":"levelo_inurba_marseille","lat":43.28493,"lon":5.48387,"is_reserved":false,"is_disabled":false,"rental_uris":{"android":"levelo://app?vid=afe6c9ff-8c7f-40d2-96bc-86354113b443","ios":"levelo://app?vid=afe6c9ff-8c7f-40d2-96bc-86354113b443"},"vehicle_type_id":"4","last_reported":1776852630,"current_range_meters":4400,"station_id":"","pricing_plan_id":"cebpf4jnsgd1na2vs0mg"},{"bike_id":"65e45c12-87d5-4317-974f-69f1aef0f736","system_id":"levelo_inurba_marseille","lat":43.29939,"lon":5.36529,"is_reserved":false,"is_disabled":false,"rental_uris":{"android":"levelo://app?vid=65e45c12-87d5-4317-974f-69f1aef0f736","ios":"levelo://app?vid=65e45c12-87d5-4317-974f-69f1aef0f736"},"vehicle_type_id":"4","last_reported":1776852630,"current_range_meters":4400,"station_id":"ce4bgm92rcd13ifvqbr0","pricing_plan_id":"cebpf4jnsgd1na2vs0mg"},{"bike_id":"ef91534f-0d0e-4809-9a35-4375555ab2b5","system_id":"levelo_inurba_marseille","lat":43.31916,"lon":5.36808,"is_reserved":false,"is_disabled":false,"rental_uris":{"android":"levelo://app?vid=ef91534f-0d0e-4809-9a35-4375555ab2b5","ios":"levelo://app?vid=ef91534f-0d0e-4809-9a35-4375555ab2b5"},"vehicle_type_id":"4","last_reported":1776852630,"current_range_meters":4400,"station_id":"st_d6o2h0d0559c73evc1b0","pricing_plan_id":"cebpf4jnsgd1na2vs0mg"},{"bike_id":"4dd90c3a-c53a-454b-ad3a-8e2561f63203","system_id":"levelo_inurba_marseille","lat":43.312301,"lon":5.36869,"is_reserved":false,"is_disabled":false,"rental_uris":{"android":"levelo://app?vid=4dd90c3a-c53a-454b-ad3a-8e2561f63203","ios":"levelo://app?vid=4dd90c3a-c53a-454b-ad3a-8e2561f63203"},"vehicle_type_id":"4","last_reported":1776852630,"current_range_meters":4400,"station_id":"","pricing_plan_id":"cebpf4jnsgd1na2vs0mg"},{"bike_id":"d0e220b8-26c6-4649-85da-36389bb1c0c1","system_id":"levelo_inurba_marseille","lat":43.30132,"lon":5.43087,"is_reserved":false,"is_disabled":false,"rental_uris":{"android":"levelo://app?vid=d0e220b8-26c6-4649-85da-36389bb1c0c1","ios":"levelo://app?vid=d0e220b8-26c6-4649-85da-36389bb1c0c1"},"vehicle_type_id":"4","last_reported":1776852630,"current_range_meters":4400,"station_id":"st_d3js3co5814s73ftftug","pricing_plan_id":"cebpf4jnsgd1na2vs0mg"},{"bike_id":"2d40a836-133e-4df4-8e94-64278280c4e2","system_id":"levelo_inurba_marseille","lat":43.28487,"lon":5.48376,"is_reserved":false,"is_disabled":false,"rental_uris":{"android":"levelo://app?vid=2d40a836-133e-4df4-8e94-64278280c4e2","ios":"levelo://app?vid=2d40a836-133e-4df4-8e94-64278280c4e2"},"vehicle_type_id":"4","last_reported":1776852630,"current_range_meters":4400,"station_id":"","pricing_plan_id":"cebpf4jnsgd1na2vs0mg"},{"bike_id":"b79dabe7-3b43-4999-bc7f-510b5ebe7b35","system_id":"levelo_inurba_marseille","lat":43.33147,"lon":5.37714,"is_reserved":false,"is_disabled":false,"rental_uris":{"android":"levelo://app?vid=b79dabe7-3b43-4999-bc7f-510b5ebe7b35","ios":"levelo://app?vid=b79dabe7-3b43-4999-bc7f-510b5ebe7b35"},"vehicle_type_id":"4","last_reported":1776852630,"current_range_meters":4400,"station_id":"st_d46cu089ee8s73dldbu0","pricing_plan_id":"cebpf4jnsgd1na2vs0mg"},{"bike_id":"9850b058-325e-4905-a17d-9cdf719b7a8a","system_id":"levelo_inurba_marseille","lat":43.293,"lon":5.3745,"is_reserved":false,"is_disabled":false,"rental_uris":{"android":"levelo://app?vid=9850b058-325e-4905-a17d-9cdf719b7a8a","ios":"levelo://app?vid=9850b058-325e-4905-a17d-9cdf719b7a8a"},"vehicle_type_id":"4","last_reported":1776852630,"current_range_meters":4800,"station_id":"ce4bgi12rcd13ifvqb70","pricing_plan_id":"cebpf4jnsgd1na2vs0mg"},{"bike_id":"17a218ae-0cbc-4023-80f0-9ffddf1324e3","system_id":"levelo_inurba_marseille","lat":43.26031,"lon":5.39792,"is_reserved":false,"is_disabled":false,"rental_uris":{"android":"levelo://app?vid=17a218ae-0cbc-4023-80f0-9ffddf1324e3","ios":"levelo://app?vid=17a218ae-0cbc-4023-80f0-9ffddf1324e3"},"vehicle_type_id":"4","last_reported":1776852630,"current_range_meters":4800,"station_id":"","pricing_plan_id":"cebpf4jnsgd1na2vs0mg"},{"bike_id":"7eb5b8b2-0b53-4a86-8f66-a5c1ffb8ee40","system_id":"levelo_inurba_marseille","lat":43.2439,"lon":5.37063,"is_reserved":false,"is_disabled":false,"rental_uris":{"android":"levelo://app?vid=7eb5b8b2-0b53-4a86-8f66-a5c1ffb8ee40","ios":"levelo://app?vid=7eb5b8b2-0b53-4a86-8f66-a5c1ffb8ee40"},"vehicle_type_id":"4","last_reported":1776852630,"current_range_meters":4800,"station_id":"ce4bhhh2rcd13ifvqfk0","pricing_plan_id":"cebpf4jnsgd1na2vs0mg"},{"bike_id":"53398df8-835b-4ed2-bf08-039bd71fda25","system_id":"levelo_inurba_marseille","lat":43.25928,"lon":5.38592,"is_reserved":false,"is_disabled":false,"rental_uris":{"android":"levelo://app?vid=53398df8-835b-4ed2-bf08-039bd71fda25","ios":"levelo://app?vid=53398df8-835b-4ed2-bf08-039bd71fda25"},"vehicle_type_id":"4","last_reported":1776852630,"current_range_meters":4800,"station_id":"","pricing_plan_id":"cebpf4jnsgd1na2vs0mg"},{"bike_id":"b7ea334a-6d0f-42c9-b222-95e9061f9b3d","system_id":"levelo_inurba_marseille","lat":43.21191,"lon":5.3508,"is_reserved":false,"is_disabled":false,"rental_uris":{"android":"levelo://app?vid=b7ea334a-6d0f-42c9-b222-95e9061f9b3d","ios":"levelo://app?vid=b7ea334a-6d0f-42c9-b222-95e9061f9b3d"},"vehicle_type_id":"4","last_reported":1776852630,"current_range_meters":4800,"station_id":"st_cvj6sg6p6f1abm77japg","pricing_plan_id":"cebpf4jnsgd1na2vs0mg"},{"bike_id":"37eae820-b39c-4a10-b9f1-bbf6af567e33","system_id":"levelo_inurba_marseille","lat":43.29605,"lon":5.37722,"is_reserved":false,"is_disabled":false,"rental_uris":{"android":"levelo://app?vid=37eae820-b39c-4a10-b9f1-bbf6af567e33","ios":"levelo://app?vid=37eae820-b39c-4a10-b9f1-bbf6af567e33"},"vehicle_type_id":"4","last_reported":1776852630,"current_range_meters":5600,"station_id":"ce4bgi92rcd13ifvqb90","pricing_plan_id":"cebpf4jnsgd1na2vs0mg"},{"bike_id":"0cf9c7d1-4ff6-4885-afdb-1945ed4e0993","system_id":"levelo_inurba_marseille","lat":43.29628,"lon":5.40616,"is_reserved":false,"is_disabled":false,"rental_uris":{"android":"levelo://app?vid=0cf9c7d1-4ff6-4885-afdb-1945ed4e0993","ios":"levelo://app?vid=0cf9c7d1-4ff6-4885-afdb-1945ed4e0993"},"vehicle_type_id":"4","last_reported":1776852630,"current_range_meters":5600,"station_id":"ce4bh0h2rcd13ifvqd60","pricing_plan_id":"cebpf4jnsgd1na2vs0mg"},{"bike_id":"e84eb726-9c74-4a4b-be02-5d5f9968392a","system_id":"levelo_inurba_marseille","lat":43.30553,"lon":5.36523,"is_reserved":false,"is_disabled":false,"rental_uris":{"android":"levelo://app?vid=e84eb726-9c74-4a4b-be02-5d5f9968392a","ios":"levelo://app?vid=e84eb726-9c74-4a4b-be02-5d5f9968392a"},"vehicle_type_id":"4","last_reported":1776852630,"current_range_meters":5600,"station_id":"ce4bgs12rcd13ifvqcag","pricing_plan_id":"cebpf4jnsgd1na2vs0mg"},{"bike_id":"69904aa1-60b2-4195-a1ba-9cd611f8d3ea","system_id":"levelo_inurba_marseille","lat":43.29845,"lon":5.36274,"is_reserved":false,"is_disabled":false,"rental_uris":{"android":"levelo://app?vid=69904aa1-60b2-4195-a1ba-9cd611f8d3ea","ios":"levelo://app?vid=69904aa1-60b2-4195-a1ba-9cd611f8d3ea"},"vehicle_type_id":"4","last_reported":1776852630,"current_range_meters":5600,"station_id":"ce4bgpp2rcd13ifvqc3g","pricing_plan_id":"cebpf4jnsgd1na2vs0mg"},{"bike_id":"909929ad-6150-4e90-9010-fc5021f6e58c","system_id":"levelo_inurba_marseille","lat":43.27239,"lon":5.40112,"is_reserved":false,"is_disabled":false,"rental_uris":{"android":"levelo://app?vid=909929ad-6150-4e90-9010-fc5021f6e58c","ios":"levelo://app?vid=909929ad-6150-4e90-9010-fc5021f6e58c"},"vehicle_type_id":"4","last_reported":1776852630,"current_range_meters":6000,"station_id":"","pricing_plan_id":"cebpf4jnsgd1na2vs0mg"},{"bike_id":"dcea024f-97b1-48db-99db-04932a6072bf","system_id":"levelo_inurba_marseille","lat":43.30548,"lon":5.36687,"is_reserved":false,"is_disabled":false,"rental_uris":{"android":"levelo://app?vid=dcea024f-97b1-48db-99db-04932a6072bf","ios":"levelo://app?vid=dcea024f-97b1-48db-99db-04932a6072bf"},"vehicle_type_id":"4","last_reported":1776852630,"current_range_meters":6000,"station_id":"ce4bgrp2rcd13ifvqc9g","pricing_plan_id":"cebpf4jnsgd1na2vs0mg"},{"bike_id":"af8a1ef7-3bce-462c-8983-73c0060888a3","system_id":"levelo_inurba_marseille","lat":43.29057,"lon":5.38152,"is_reserved":false,"is_disabled":true,"rental_uris":{"android":"levelo://app?vid=af8a1ef7-3bce-462c-8983-73c0060888a3","ios":"levelo://app?vid=af8a1ef7-3bce-462c-8983-73c0060888a3"},"vehicle_type_id":"4","last_reported":1776852630,"current_range_meters":6000,"station_id":"ce4bh512rcd13ifvqe2g","pricing_plan_id":"cebpf4jnsgd1na2vs0mg"},{"bike_id":"a569b2de-9f86-4587-9f18-489017634274","system_id":"levelo_inurba_marseille","lat":43.29072,"lon":5.35921,"is_reserved":false,"is_disabled":false,"rental_uris":{"android":"levelo://app?vid=a569b2de-9f86-4587-9f18-489017634274","ios":"levelo://app?vid=a569b2de-9f86-4587-9f18-489017634274"},"vehicle_type_id":"4","last_reported":1776852630,"current_range_meters":6000,"station_id":"ce4bha92rcd13ifvqeg0","pricing_plan_id":"cebpf4jnsgd1na2vs0mg"},{"bike_id":"aaa9bcab-2e99-4917-8217-8ba8dd906366","system_id":"levelo_inurba_marseille","lat":43.28707,"lon":5.37938,"is_reserved":false,"is_disabled":false,"rental_uris":{"android":"levelo://app?vid=aaa9bcab-2e99-4917-8217-8ba8dd906366","ios":"levelo://app?vid=aaa9bcab-2e99-4917-8217-8ba8dd906366"},"vehicle_type_id":"4","last_reported":1776852630,"current_range_meters":6000,"station_id":"ce4bh9p2rcd13ifvqec0","pricing_plan_id":"cebpf4jnsgd1na2vs0mg"},{"bike_id":"3448f0f4-d448-4b78-8559-0a980538ebbf","system_id":"levelo_inurba_marseille","lat":43.29493,"lon":5.433,"is_reserved":false,"is_disabled":false,"rental_uris":{"android":"levelo://app?vid=3448f0f4-d448-4b78-8559-0a980538ebbf","ios":"levelo://app?vid=3448f0f4-d448-4b78-8559-0a980538ebbf"},"vehicle_type_id":"4","last_reported":1776852630,"current_range_meters":6000,"station_id":"st_d3j5ugp08ojc73fj9d10","pricing_plan_id":"cebpf4jnsgd1na2vs0mg"},{"bike_id":"5dca9a8e-83e7-4e4f-baef-b39340f4d785","system_id":"levelo_inurba_marseille","lat":43.29572,"lon":5.39961,"is_reserved":false,"is_disabled":true,"rental_uris":{"android":"levelo://app?vid=5dca9a8e-83e7-4e4f-baef-b39340f4d785","ios":"levelo://app?vid=5dca9a8e-83e7-4e4f-baef-b39340f4d785"},"vehicle_type_id":"4","last_reported":1776852630,"current_range_meters":6000,"station_id":"ce4bh312rcd13ifvqdj0","pricing_plan_id":"cebpf4jnsgd1na2vs0mg"},{"bike_id":"f7929ab2-501a-485f-b6ee-6be9e68c272b","system_id":"levelo_inurba_marseille","lat":43.23155,"lon":5.43708,"is_reserved":false,"is_disabled":false,"rental_uris":{"android":"levelo://app?vid=f7929ab2-501a-485f-b6ee-6be9e68c272b","ios":"levelo://app?vid=f7929ab2-501a-485f-b6ee-6be9e68c272b"},"vehicle_type_id":"4","last_reported":1776852630,"current_range_meters":6000,"station_id":"ce4bhmp2rcd13ifvqgog","pricing_plan_id":"cebpf4jnsgd1na2vs0mg"},{"bike_id":"3a696f3b-cb93-42f6-97fb-27cfcc82f5e5","system_id":"levelo_inurba_marseille","lat":43.30368,"lon":5.42505,"is_reserved":false,"is_disabled":false,"rental_uris":{"android":"levelo://app?vid=3a696f3b-cb93-42f6-97fb-27cfcc82f5e5","ios":"levelo://app?vid=3a696f3b-cb93-42f6-97fb-27cfcc82f5e5"},"vehicle_type_id":"4","last_reported":1776852630,"current_range_meters":6000,"station_id":"ce4bhoh2rcd13ifvqh6g","pricing_plan_id":"cebpf4jnsgd1na2vs0mg"},{"bike_id":"259873a5-a1ea-41b3-8200-d0477284c8f2","system_id":"levelo_inurba_marseille","lat":43.28538,"lon":5.44086,"is_reserved":false,"is_disabled":false,"rental_uris":{"android":"levelo://app?vid=259873a5-a1ea-41b3-8200-d0477284c8f2","ios":"levelo://app?vid=259873a5-a1ea-41b3-8200-d0477284c8f2"},"vehicle_type_id":"4","last_reported":1776852630,"current_range_meters":6000,"station_id":"st_d3j3df2ikq2c7380ej80","pricing_plan_id":"cebpf4jnsgd1na2vs0mg"},{"bike_id":"d9be86bb-6c4e-4c05-bc60-e02431cbb916","system_id":"levelo_inurba_marseille","lat":43.3189,"lon":5.36787,"is_reserved":false,"is_disabled":false,"rental_uris":{"android":"levelo://app?vid=d9be86bb-6c4e-4c05-bc60-e02431cbb916","ios":"levelo://app?vid=d9be86bb-6c4e-4c05-bc60-e02431cbb916"},"vehicle_type_id":"4","last_reported":1776852630,"current_range_meters":6400,"station_id":"st_d6o2h0d0559c73evc1b0","pricing_plan_id":"cebpf4jnsgd1na2vs0mg"},{"bike_id":"d204400f-8745-41a5-b8f3-30b0d4c8bfb2","system_id":"levelo_inurba_marseille","lat":43.31906,"lon":5.36806,"is_reserved":false,"is_disabled":false,"rental_uris":{"android":"levelo://app?vid=d204400f-8745-41a5-b8f3-30b0d4c8bfb2","ios":"levelo://app?vid=d204400f-8745-41a5-b8f3-30b0d4c8bfb2"},"vehicle_type_id":"4","last_reported":1776852630,"current_range_meters":6400,"station_id":"st_d6o2h0d0559c73evc1b0","pricing_plan_id":"cebpf4jnsgd1na2vs0mg"},{"bike_id":"882e84be-aff7-44fe-8e03-e10b9edfe543","system_id":"levelo_inurba_marseille","lat":43.29789,"lon":5.38099,"is_reserved":false,"is_disabled":true,"rental_uris":{"android":"levelo://app?vid=882e84be-aff7-44fe-8e03-e10b9edfe543","ios":"levelo://app?vid=882e84be-aff7-44fe-8e03-e10b9edfe543"},"vehicle_type_id":"4","last_reported":1776852630,"current_range_meters":6400,"station_id":"","pricing_plan_id":"cebpf4jnsgd1na2vs0mg"},{"bike_id":"8993e082-dc75-4f50-a4f5-d811e59833be","system_id":"levelo_inurba_marseille","lat":43.23185,"lon":5.43696,"is_reserved":false,"is_disabled":false,"rental_uris":{"android":"levelo://app?vid=8993e082-dc75-4f50-a4f5-d811e59833be","ios":"levelo://app?vid=8993e082-dc75-4f50-a4f5-d811e59833be"},"vehicle_type_id":"4","last_reported":1776852630,"current_range_meters":6800,"station_id":"ce4bhmp2rcd13ifvqgog","pricing_plan_id":"cebpf4jnsgd1na2vs0mg"},{"bike_id":"be5c4907-57d0-4c67-8ff7-ac26938c6076","system_id":"levelo_inurba_marseille","lat":43.28287,"lon":5.40654,"is_reserved":false,"is_disabled":false,"rental_uris":{"android":"levelo://app?vid=be5c4907-57d0-4c67-8ff7-ac26938c6076","ios":"levelo://app?vid=be5c4907-57d0-4c67-8ff7-ac26938c6076"},"vehicle_type_id":"4","last_reported":1776852630,"current_range_meters":6800,"station_id":"","pricing_plan_id":"cebpf4jnsgd1na2vs0mg"},{"bike_id":"9722310c-fef7-48fb-ab23-f20467cb2e54","system_id":"levelo_inurba_marseille","lat":43.31333,"lon":5.36729,"is_reserved":false,"is_disabled":false,"rental_uris":{"android":"levelo://app?vid=9722310c-fef7-48fb-ab23-f20467cb2e54","ios":"levelo://app?vid=9722310c-fef7-48fb-ab23-f20467cb2e54"},"vehicle_type_id":"4","last_reported":1776852630,"current_range_meters":6800,"station_id":"ce4bgr92rcd13ifvqc6g","pricing_plan_id":"cebpf4jnsgd1na2vs0mg"},{"bike_id":"283c8d6a-0748-4da7-abf0-9b33fa13f363","system_id":"levelo_inurba_marseille","lat":43.30968,"lon":5.39035,"is_reserved":false,"is_disabled":false,"rental_uris":{"android":"levelo://app?vid=283c8d6a-0748-4da7-abf0-9b33fa13f363","ios":"levelo://app?vid=283c8d6a-0748-4da7-abf0-9b33fa13f363"},"vehicle_type_id":"4","last_reported":1776852630,"current_range_meters":6800,"station_id":"ce4bgup2rcd13ifvqco0","pricing_plan_id":"cebpf4jnsgd1na2vs0mg"},{"bike_id":"a7020a93-7c00-4fec-b1a2-4f1670bbc6d7","system_id":"levelo_inurba_marseille","lat":43.2383,"lon":5.41368,"is_reserved":false,"is_disabled":false,"rental_uris":{"android":"levelo://app?vid=a7020a93-7c00-4fec-b1a2-4f1670bbc6d7","ios":"levelo://app?vid=a7020a93-7c00-4fec-b1a2-4f1670bbc6d7"},"vehicle_type_id":"4","last_reported":1776852630,"current_range_meters":6800,"station_id":"","pricing_plan_id":"cebpf4jnsgd1na2vs0mg"},{"bike_id":"d5b7eec9-706d-4774-a075-06e80d3b73ed","system_id":"levelo_inurba_marseille","lat":43.27901,"lon":5.38022,"is_reserved":false,"is_disabled":false,"rental_uris":{"android":"levelo://app?vid=d5b7eec9-706d-4774-a075-06e80d3b73ed","ios":"levelo://app?vid=d5b7eec9-706d-4774-a075-06e80d3b73ed"},"vehicle_type_id":"4","last_reported":1776852630,"current_range_meters":6800,"station_id":"ce4bhf92rcd13ifvqf50","pricing_plan_id":"cebpf4jnsgd1na2vs0mg"},{"bike_id":"a5932d33-7fe4-4ab5-ab73-558a4a420627","system_id":"levelo_inurba_marseille","lat":43.2444,"lon":5.40052,"is_reserved":false,"is_disabled":false,"rental_uris":{"android":"levelo://app?vid=a5932d33-7fe4-4ab5-ab73-558a4a420627","ios":"levelo://app?vid=a5932d33-7fe4-4ab5-ab73-558a4a420627"},"vehicle_type_id":"4","last_reported":1776852630,"current_range_meters":6800,"station_id":"","pricing_plan_id":"cebpf4jnsgd1na2vs0mg"},{"bike_id":"e261df61-89d2-4650-902b-b1d91334c29f","system_id":"levelo_inurba_marseille","lat":43.28414,"lon":5.37508,"is_reserved":false,"is_disabled":false,"rental_uris":{"android":"levelo://app?vid=e261df61-89d2-4650-902b-b1d91334c29f","ios":"levelo://app?vid=e261df61-89d2-4650-902b-b1d91334c29f"},"vehicle_type_id":"4","last_reported":1776852630,"current_range_meters":6800,"station_id":"ce4bh412rcd13ifvqds0","pricing_plan_id":"cebpf4jnsgd1na2vs0mg"},{"bike_id":"5089905c-d243-49d7-b433-87bc8bf87afd","system_id":"levelo_inurba_marseille","lat":43.292,"lon":5.35791,"is_reserved":false,"is_disabled":false,"rental_uris":{"android":"levelo://app?vid=5089905c-d243-49d7-b433-87bc8bf87afd","ios":"levelo://app?vid=5089905c-d243-49d7-b433-87bc8bf87afd"},"vehicle_type_id":"4","last_reported":1776852630,"current_range_meters":7200,"station_id":"ce4bhb12rcd13ifvqel0","pricing_plan_id":"cebpf4jnsgd1na2vs0mg"},{"bike_id":"badf4622-8d39-4c6d-8e74-cdbf9e168f9d","system_id":"levelo_inurba_marseille","lat":43.25115,"lon":5.40324,"is_reserved":false,"is_disabled":false,"rental_uris":{"android":"levelo://app?vid=badf4622-8d39-4c6d-8e74-cdbf9e168f9d","ios":"levelo://app?vid=badf4622-8d39-4c6d-8e74-cdbf9e168f9d"},"vehicle_type_id":"4","last_reported":1776852630,"current_range_meters":7200,"station_id":"ce4bhlh2rcd13ifvqgig","pricing_plan_id":"cebpf4jnsgd1na2vs0mg"},{"bike_id":"bacd3fe4-f48a-4afe-8c9c-99f0f1f340a2","system_id":"levelo_inurba_marseille","lat":43.27495,"lon":5.42467,"is_reserved":false,"is_disabled":false,"rental_uris":{"android":"levelo://app?vid=bacd3fe4-f48a-4afe-8c9c-99f0f1f340a2","ios":"levelo://app?vid=bacd3fe4-f48a-4afe-8c9c-99f0f1f340a2"},"vehicle_type_id":"4","last_reported":1776852630,"current_range_meters":7200,"station_id":"ce4bhn92rcd13ifvqgrg","pricing_plan_id":"cebpf4jnsgd1na2vs0mg"},{"bike_id":"156a9278-c7f8-442d-9b54-2a52d275e0c5","system_id":"levelo_inurba_marseille","lat":43.2862,"lon":5.35097,"is_reserved":false,"is_disabled":true,"rental_uris":{"android":"levelo://app?vid=156a9278-c7f8-442d-9b54-2a52d275e0c5","ios":"levelo://app?vid=156a9278-c7f8-442d-9b54-2a52d275e0c5"},"vehicle_type_id":"4","last_reported":1776852630,"current_range_meters":7200,"station_id":"ce4bhch2rcd13ifvqeug","pricing_plan_id":"cebpf4jnsgd1na2vs0mg"},{"bike_id":"04257b95-4499-46e1-a4e3-88ab526291ba","system_id":"levelo_inurba_marseille","lat":43.28482,"lon":5.48392,"is_reserved":false,"is_disabled":false,"rental_uris":{"android":"levelo://app?vid=04257b95-4499-46e1-a4e3-88ab526291ba","ios":"levelo://app?vid=04257b95-4499-46e1-a4e3-88ab526291ba"},"vehicle_type_id":"4","last_reported":1776852630,"current_range_meters":7200,"station_id":"","pricing_plan_id":"cebpf4jnsgd1na2vs0mg"},{"bike_id":"ab441cdc-9cd1-4c8e-b69e-34bb46fece34","system_id":"levelo_inurba_marseille","lat":43.29391,"lon":5.363,"is_reserved":false,"is_disabled":false,"rental_uris":{"android":"levelo://app?vid=ab441cdc-9cd1-4c8e-b69e-34bb46fece34","ios":"levelo://app?vid=ab441cdc-9cd1-4c8e-b69e-34bb46fece34"},"vehicle_type_id":"4","last_reported":1776852630,"current_range_meters":7200,"station_id":"","pricing_plan_id":"cebpf4jnsgd1na2vs0mg"},{"bike_id":"8194a0ff-2824-43c5-8a22-527fdaa0a136","system_id":"levelo_inurba_marseille","lat":43.27356,"lon":5.40897,"is_reserved":false,"is_disabled":false,"rental_uris":{"android":"levelo://app?vid=8194a0ff-2824-43c5-8a22-527fdaa0a136","ios":"levelo://app?vid=8194a0ff-2824-43c5-8a22-527fdaa0a136"},"vehicle_type_id":"4","last_reported":1776852630,"current_range_meters":7200,"station_id":"","pricing_plan_id":"cebpf4jnsgd1na2vs0mg"},{"bike_id":"d97f2487-a982-4f00-8cb0-145f2f11cfcb","system_id":"levelo_inurba_marseille","lat":43.29547,"lon":5.37488,"is_reserved":false,"is_disabled":true,"rental_uris":{"android":"levelo://app?vid=d97f2487-a982-4f00-8cb0-145f2f11cfcb","ios":"levelo://app?vid=d97f2487-a982-4f00-8cb0-145f2f11cfcb"},"vehicle_type_id":"4","last_reported":1776852630,"current_range_meters":7200,"station_id":"ce4bgkp2rcd13ifvqbmg","pricing_plan_id":"cebpf4jnsgd1na2vs0mg"},{"bike_id":"b96727fb-fa52-44ab-847a-281a9a9755b2","system_id":"levelo_inurba_marseille","lat":43.25014,"lon":5.38926,"is_reserved":false,"is_disabled":false,"rental_uris":{"android":"levelo://app?vid=b96727fb-fa52-44ab-847a-281a9a9755b2","ios":"levelo://app?vid=b96727fb-fa52-44ab-847a-281a9a9755b2"},"vehicle_type_id":"4","last_reported":1776852630,"current_range_meters":7200,"station_id":"ce4bhgp2rcd13ifvqfd0","pricing_plan_id":"cebpf4jnsgd1na2vs0mg"},{"bike_id":"422e278e-2c8a-4b1f-bb04-debae7fe1583","system_id":"levelo_inurba_marseille","lat":43.29611,"lon":5.37738,"is_reserved":false,"is_disabled":false,"rental_uris":{"android":"levelo://app?vid=422e278e-2c8a-4b1f-bb04-debae7fe1583","ios":"levelo://app?vid=422e278e-2c8a-4b1f-bb04-debae7fe1583"},"vehicle_type_id":"4","last_reported":1776852630,"current_range_meters":7200,"station_id":"ce4bgi92rcd13ifvqb90","pricing_plan_id":"cebpf4jnsgd1na2vs0mg"},{"bike_id":"468b098b-8742-43b6-94e4-77df021ec20c","system_id":"levelo_inurba_marseille","lat":43.30731,"lon":5.42446,"is_reserved":false,"is_disabled":false,"rental_uris":{"android":"levelo://app?vid=468b098b-8742-43b6-94e4-77df021ec20c","ios":"levelo://app?vid=468b098b-8742-43b6-94e4-77df021ec20c"},"vehicle_type_id":"4","last_reported":1776852630,"current_range_meters":7200,"station_id":"st_cvj6ca6bvosntc0bfgr0","pricing_plan_id":"cebpf4jnsgd1na2vs0mg"},{"bike_id":"8039cb9a-48d0-4777-8a7e-f7f4b18a83eb","system_id":"levelo_inurba_marseille","lat":43.28861,"lon":5.42524,"is_reserved":false,"is_disabled":false,"rental_uris":{"android":"levelo://app?vid=8039cb9a-48d0-4777-8a7e-f7f4b18a83eb","ios":"levelo://app?vid=8039cb9a-48d0-4777-8a7e-f7f4b18a83eb"},"vehicle_type_id":"4","last_reported":1776852630,"current_range_meters":7200,"station_id":"st_d3b462108ojc7389ooeg","pricing_plan_id":"cebpf4jnsgd1na2vs0mg"},{"bike_id":"36d4b845-dc91-444c-8c71-647922599c31","system_id":"levelo_inurba_marseille","lat":43.30977,"lon":5.39015,"is_reserved":false,"is_disabled":false,"rental_uris":{"android":"levelo://app?vid=36d4b845-dc91-444c-8c71-647922599c31","ios":"levelo://app?vid=36d4b845-dc91-444c-8c71-647922599c31"},"vehicle_type_id":"4","last_reported":1776852630,"current_range_meters":7200,"station_id":"ce4bgup2rcd13ifvqco0","pricing_plan_id":"cebpf4jnsgd1na2vs0mg"},{"bike_id":"1c4db81e-e54e-450a-b910-a202dc639503","system_id":"levelo_inurba_marseille","lat":43.28474,"lon":5.48406,"is_reserved":false,"is_disabled":true,"rental_uris":{"android":"levelo://app?vid=1c4db81e-e54e-450a-b910-a202dc639503","ios":"levelo://app?vid=1c4db81e-e54e-450a-b910-a202dc639503"},"vehicle_type_id":"4","last_reported":1776852630,"current_range_meters":8000,"station_id":"","pricing_plan_id":"cebpf4jnsgd1na2vs0mg"},{"bike_id":"73d436be-8bb5-400c-b5b8-edfd7e8d5913","system_id":"levelo_inurba_marseille","lat":43.337444,"lon":5.374475,"is_reserved":false,"is_disabled":false,"rental_uris":{"android":"levelo://app?vid=73d436be-8bb5-400c-b5b8-edfd7e8d5913","ios":"levelo://app?vid=73d436be-8bb5-400c-b5b8-edfd7e8d5913"},"vehicle_type_id":"4","last_reported":1776852630,"current_range_meters":8000,"station_id":"ce4bhgp2rcd13ifvqfc0","pricing_plan_id":"cebpf4jnsgd1na2vs0mg"},{"bike_id":"ba8faadf-6c0c-429c-910a-dff36b3ef975","system_id":"levelo_inurba_marseille","lat":43.26277,"lon":5.3873,"is_reserved":false,"is_disabled":false,"rental_uris":{"android":"levelo://app?vid=ba8faadf-6c0c-429c-910a-dff36b3ef975","ios":"levelo://app?vid=ba8faadf-6c0c-429c-910a-dff36b3ef975"},"vehicle_type_id":"4","last_reported":1776852630,"current_range_meters":8000,"station_id":"","pricing_plan_id":"cebpf4jnsgd1na2vs0mg"},{"bike_id":"fc83597b-c92a-4d6b-9ec3-85cccb5b70a7","system_id":"levelo_inurba_marseille","lat":43.3195,"lon":5.3682,"is_reserved":false,"is_disabled":false,"rental_uris":{"android":"levelo://app?vid=fc83597b-c92a-4d6b-9ec3-85cccb5b70a7","ios":"levelo://app?vid=fc83597b-c92a-4d6b-9ec3-85cccb5b70a7"},"vehicle_type_id":"4","last_reported":1776852630,"current_range_meters":8000,"station_id":"","pricing_plan_id":"cebpf4jnsgd1na2vs0mg"},{"bike_id":"ff422c07-4472-471c-ab0d-dcb023acae97","system_id":"levelo_inurba_marseille","lat":43.30594,"lon":5.37237,"is_reserved":false,"is_disabled":false,"rental_uris":{"android":"levelo://app?vid=ff422c07-4472-471c-ab0d-dcb023acae97","ios":"levelo://app?vid=ff422c07-4472-471c-ab0d-dcb023acae97"},"vehicle_type_id":"4","last_reported":1776852630,"current_range_meters":8000,"station_id":"ce4bgqh2rcd13ifvqc4g","pricing_plan_id":"cebpf4jnsgd1na2vs0mg"},{"bike_id":"36e7aa08-bcb4-4084-bd85-f41ade11c368","system_id":"levelo_inurba_marseille","lat":43.28881,"lon":5.42531,"is_reserved":false,"is_disabled":false,"rental_uris":{"android":"levelo://app?vid=36e7aa08-bcb4-4084-bd85-f41ade11c368","ios":"levelo://app?vid=36e7aa08-bcb4-4084-bd85-f41ade11c368"},"vehicle_type_id":"4","last_reported":1776852630,"current_range_meters":8000,"station_id":"st_d3b462108ojc7389ooeg","pricing_plan_id":"cebpf4jnsgd1na2vs0mg"},{"bike_id":"747314a1-d922-494b-b494-5021441d8ddd","system_id":"levelo_inurba_marseille","lat":43.30549,"lon":5.36527,"is_reserved":false,"is_disabled":false,"rental_uris":{"android":"levelo://app?vid=747314a1-d922-494b-b494-5021441d8ddd","ios":"levelo://app?vid=747314a1-d922-494b-b494-5021441d8ddd"},"vehicle_type_id":"4","last_reported":1776852630,"current_range_meters":8000,"station_id":"ce4bgs12rcd13ifvqcag","pricing_plan_id":"cebpf4jnsgd1na2vs0mg"},{"bike_id":"930fda1e-cfbe-43ad-bfc6-924046a6e04a","system_id":"levelo_inurba_marseille","lat":43.27433,"lon":5.39418,"is_reserved":false,"is_disabled":false,"rental_uris":{"android":"levelo://app?vid=930fda1e-cfbe-43ad-bfc6-924046a6e04a","ios":"levelo://app?vid=930fda1e-cfbe-43ad-bfc6-924046a6e04a"},"vehicle_type_id":"4","last_reported":1776852630,"current_range_meters":8000,"station_id":"ce4bhdp2rcd13ifvqf20","pricing_plan_id":"cebpf4jnsgd1na2vs0mg"},{"bike_id":"53ac9b94-d2b8-401a-8133-9009372f217e","system_id":"levelo_inurba_marseille","lat":43.28474,"lon":5.48392,"is_reserved":false,"is_disabled":false,"rental_uris":{"android":"levelo://app?vid=53ac9b94-d2b8-401a-8133-9009372f217e","ios":"levelo://app?vid=53ac9b94-d2b8-401a-8133-9009372f217e"},"vehicle_type_id":"4","last_reported":1776852630,"current_range_meters":8000,"station_id":"","pricing_plan_id":"cebpf4jnsgd1na2vs0mg"},{"bike_id":"51e7d8cf-63e3-43c5-b2d1-971f18e79ea6","system_id":"levelo_inurba_marseille","lat":43.30941,"lon":5.40117,"is_reserved":false,"is_disabled":true,"rental_uris":{"android":"levelo://app?vid=51e7d8cf-63e3-43c5-b2d1-971f18e79ea6","ios":"levelo://app?vid=51e7d8cf-63e3-43c5-b2d1-971f18e79ea6"},"vehicle_type_id":"4","last_reported":1776852630,"current_range_meters":8000,"station_id":"ce4bgvp2rcd13ifvqct0","pricing_plan_id":"cebpf4jnsgd1na2vs0mg"},{"bike_id":"c9c1a884-0494-49db-9628-0ceb15fdb145","system_id":"levelo_inurba_marseille","lat":43.30943,"lon":5.39097,"is_reserved":false,"is_disabled":false,"rental_uris":{"android":"levelo://app?vid=c9c1a884-0494-49db-9628-0ceb15fdb145","ios":"levelo://app?vid=c9c1a884-0494-49db-9628-0ceb15fdb145"},"vehicle_type_id":"4","last_reported":1776852630,"current_range_meters":8000,"station_id":"","pricing_plan_id":"cebpf4jnsgd1na2vs0mg"},{"bike_id":"2a093ce3-851a-4b30-9445-c398140d0514","system_id":"levelo_inurba_marseille","lat":43.25009,"lon":5.38933,"is_reserved":false,"is_disabled":false,"rental_uris":{"android":"levelo://app?vid=2a093ce3-851a-4b30-9445-c398140d0514","ios":"levelo://app?vid=2a093ce3-851a-4b30-9445-c398140d0514"},"vehicle_type_id":"4","last_reported":1776852630,"current_range_meters":8000,"station_id":"ce4bhgp2rcd13ifvqfd0","pricing_plan_id":"cebpf4jnsgd1na2vs0mg"},{"bike_id":"059b4ad8-665d-46df-9a3f-e9b9a20a1c99","system_id":"levelo_inurba_marseille","lat":43.33575,"lon":5.37388,"is_reserved":false,"is_disabled":false,"rental_uris":{"android":"levelo://app?vid=059b4ad8-665d-46df-9a3f-e9b9a20a1c99","ios":"levelo://app?vid=059b4ad8-665d-46df-9a3f-e9b9a20a1c99"},"vehicle_type_id":"4","last_reported":1776852630,"current_range_meters":8000,"station_id":"","pricing_plan_id":"cebpf4jnsgd1na2vs0mg"},{"bike_id":"9dd1ab3b-abad-4e6e-b8ff-9acbcbf73916","system_id":"levelo_inurba_marseille","lat":43.23155,"lon":5.43718,"is_reserved":false,"is_disabled":false,"rental_uris":{"android":"levelo://app?vid=9dd1ab3b-abad-4e6e-b8ff-9acbcbf73916","ios":"levelo://app?vid=9dd1ab3b-abad-4e6e-b8ff-9acbcbf73916"},"vehicle_type_id":"4","last_reported":1776852630,"current_range_meters":8000,"station_id":"ce4bhmp2rcd13ifvqgog","pricing_plan_id":"cebpf4jnsgd1na2vs0mg"},{"bike_id":"3b91f882-219d-4945-9f5a-84a4b39e29fb","system_id":"levelo_inurba_marseille","lat":43.29261,"lon":5.3762,"is_reserved":false,"is_disabled":false,"rental_uris":{"android":"levelo://app?vid=3b91f882-219d-4945-9f5a-84a4b39e29fb","ios":"levelo://app?vid=3b91f882-219d-4945-9f5a-84a4b39e29fb"},"vehicle_type_id":"4","last_reported":1776852630,"current_range_meters":8400,"station_id":"ce4bgi12rcd13ifvqb80","pricing_plan_id":"cebpf4jnsgd1na2vs0mg"},{"bike_id":"0314d703-439a-4d24-aa77-23665c947c59","system_id":"levelo_inurba_marseille","lat":43.289719,"lon":5.378353,"is_reserved":false,"is_disabled":true,"rental_uris":{"android":"levelo://app?vid=0314d703-439a-4d24-aa77-23665c947c59","ios":"levelo://app?vid=0314d703-439a-4d24-aa77-23665c947c59"},"vehicle_type_id":"4","last_reported":1776852630,"current_range_meters":8400,"station_id":"ce4bh9p2rcd13ifvqed0","pricing_plan_id":"cebpf4jnsgd1na2vs0mg"},{"bike_id":"ac881409-e7c1-4dc7-868f-5470aa726fd2","system_id":"levelo_inurba_marseille","lat":43.29834,"lon":5.44051,"is_reserved":false,"is_disabled":false,"rental_uris":{"android":"levelo://app?vid=ac881409-e7c1-4dc7-868f-5470aa726fd2","ios":"levelo://app?vid=ac881409-e7c1-4dc7-868f-5470aa726fd2"},"vehicle_type_id":"4","last_reported":1776852630,"current_range_meters":8400,"station_id":"","pricing_plan_id":"cebpf4jnsgd1na2vs0mg"},{"bike_id":"923b87f1-b066-476c-9dac-fbfbdd7a8e12","system_id":"levelo_inurba_marseille","lat":43.27659,"lon":5.39383,"is_reserved":false,"is_disabled":false,"rental_uris":{"android":"levelo://app?vid=923b87f1-b066-476c-9dac-fbfbdd7a8e12","ios":"levelo://app?vid=923b87f1-b066-476c-9dac-fbfbdd7a8e12"},"vehicle_type_id":"4","last_reported":1776852630,"current_range_meters":8400,"station_id":"","pricing_plan_id":"cebpf4jnsgd1na2vs0mg"},{"bike_id":"50918bbe-8b4a-4832-b89d-ffef40c798ba","system_id":"levelo_inurba_marseille","lat":43.32363,"lon":5.36719,"is_reserved":false,"is_disabled":false,"rental_uris":{"android":"levelo://app?vid=50918bbe-8b4a-4832-b89d-ffef40c798ba","ios":"levelo://app?vid=50918bbe-8b4a-4832-b89d-ffef40c798ba"},"vehicle_type_id":"4","last_reported":1776852630,"current_range_meters":8400,"station_id":"ce4bhsh2rcd13ifvqi2g","pricing_plan_id":"cebpf4jnsgd1na2vs0mg"},{"bike_id":"f5c3a6a6-3609-40ad-9c49-87232dad5958","system_id":"levelo_inurba_marseille","lat":43.30163,"lon":5.38096,"is_reserved":false,"is_disabled":false,"rental_uris":{"android":"levelo://app?vid=f5c3a6a6-3609-40ad-9c49-87232dad5958","ios":"levelo://app?vid=f5c3a6a6-3609-40ad-9c49-87232dad5958"},"vehicle_type_id":"4","last_reported":1776852630,"current_range_meters":8400,"station_id":"ce4bgjp2rcd13ifvqbh0","pricing_plan_id":"cebpf4jnsgd1na2vs0mg"},{"bike_id":"c7ff1d8c-9f80-4101-92ef-2f0b68fb525f","system_id":"levelo_inurba_marseille","lat":43.27572,"lon":5.39496,"is_reserved":false,"is_disabled":false,"rental_uris":{"android":"levelo://app?vid=c7ff1d8c-9f80-4101-92ef-2f0b68fb525f","ios":"levelo://app?vid=c7ff1d8c-9f80-4101-92ef-2f0b68fb525f"},"vehicle_type_id":"4","last_reported":1776852630,"current_range_meters":8400,"station_id":"","pricing_plan_id":"cebpf4jnsgd1na2vs0mg"},{"bike_id":"6d46e1f6-5ab1-4f49-b7cb-da265d024fd5","system_id":"levelo_inurba_marseille","lat":43.25115,"lon":5.40318,"is_reserved":false,"is_disabled":false,"rental_uris":{"android":"levelo://app?vid=6d46e1f6-5ab1-4f49-b7cb-da265d024fd5","ios":"levelo://app?vid=6d46e1f6-5ab1-4f49-b7cb-da265d024fd5"},"vehicle_type_id":"4","last_reported":1776852630,"current_range_meters":8400,"station_id":"ce4bhlh2rcd13ifvqgig","pricing_plan_id":"cebpf4jnsgd1na2vs0mg"},{"bike_id":"d1fda486-70ba-4609-b998-7713b50defe1","system_id":"levelo_inurba_marseille","lat":43.27063,"lon":5.4002,"is_reserved":false,"is_disabled":false,"rental_uris":{"android":"levelo://app?vid=d1fda486-70ba-4609-b998-7713b50defe1","ios":"levelo://app?vid=d1fda486-70ba-4609-b998-7713b50defe1"},"vehicle_type_id":"4","last_reported":1776852630,"current_range_meters":8400,"station_id":"","pricing_plan_id":"cebpf4jnsgd1na2vs0mg"},{"bike_id":"12d4166e-2b50-4206-bee8-a669b8ee33a0","system_id":"levelo_inurba_marseille","lat":43.31604,"lon":5.3646,"is_reserved":false,"is_disabled":false,"rental_uris":{"android":"levelo://app?vid=12d4166e-2b50-4206-bee8-a669b8ee33a0","ios":"levelo://app?vid=12d4166e-2b50-4206-bee8-a669b8ee33a0"},"vehicle_type_id":"4","last_reported":1776852630,"current_range_meters":8400,"station_id":"","pricing_plan_id":"cebpf4jnsgd1na2vs0mg"},{"bike_id":"a94d236d-eba8-4733-81ef-6d7a05120d94","system_id":"levelo_inurba_marseille","lat":43.24893,"lon":5.39432,"is_reserved":false,"is_disabled":false,"rental_uris":{"android":"levelo://app?vid=a94d236d-eba8-4733-81ef-6d7a05120d94","ios":"levelo://app?vid=a94d236d-eba8-4733-81ef-6d7a05120d94"},"vehicle_type_id":"4","last_reported":1776852630,"current_range_meters":8400,"station_id":"","pricing_plan_id":"cebpf4jnsgd1na2vs0mg"},{"bike_id":"7cf9fb1b-7aaa-47be-85d2-7745d8fd9026","system_id":"levelo_inurba_marseille","lat":43.25943,"lon":5.40882,"is_reserved":false,"is_disabled":false,"rental_uris":{"android":"levelo://app?vid=7cf9fb1b-7aaa-47be-85d2-7745d8fd9026","ios":"levelo://app?vid=7cf9fb1b-7aaa-47be-85d2-7745d8fd9026"},"vehicle_type_id":"4","last_reported":1776852630,"current_range_meters":8400,"station_id":"ce4bhm92rcd13ifvqglg","pricing_plan_id":"cebpf4jnsgd1na2vs0mg"},{"bike_id":"97640678-22eb-456e-8a6b-8940edbd10ca","system_id":"levelo_inurba_marseille","lat":43.23906,"lon":5.41519,"is_reserved":false,"is_disabled":false,"rental_uris":{"android":"levelo://app?vid=97640678-22eb-456e-8a6b-8940edbd10ca","ios":"levelo://app?vid=97640678-22eb-456e-8a6b-8940edbd10ca"},"vehicle_type_id":"4","last_reported":1776852630,"current_range_meters":8400,"station_id":"","pricing_plan_id":"cebpf4jnsgd1na2vs0mg"},{"bike_id":"e0e6a07f-23e1-4637-a09e-f939446f08c6","system_id":"levelo_inurba_marseille","lat":43.266778,"lon":5.382702,"is_reserved":false,"is_disabled":false,"rental_uris":{"android":"levelo://app?vid=e0e6a07f-23e1-4637-a09e-f939446f08c6","ios":"levelo://app?vid=e0e6a07f-23e1-4637-a09e-f939446f08c6"},"vehicle_type_id":"4","last_reported":1776852630,"current_range_meters":8400,"station_id":"ce4bhg92rcd13ifvqf90","pricing_plan_id":"cebpf4jnsgd1na2vs0mg"},{"bike_id":"82bcc0e6-14a4-4c90-93f5-0c68b5821945","system_id":"levelo_inurba_marseille","lat":43.28615,"lon":5.39878,"is_reserved":false,"is_disabled":false,"rental_uris":{"android":"levelo://app?vid=82bcc0e6-14a4-4c90-93f5-0c68b5821945","ios":"levelo://app?vid=82bcc0e6-14a4-4c90-93f5-0c68b5821945"},"vehicle_type_id":"4","last_reported":1776852630,"current_range_meters":8400,"station_id":"st_d4a7ka997mjs738ck50g","pricing_plan_id":"cebpf4jnsgd1na2vs0mg"},{"bike_id":"1ab25768-bc23-4ea7-b3d9-cf825ed9a029","system_id":"levelo_inurba_marseille","lat":43.30926,"lon":5.36839,"is_reserved":false,"is_disabled":false,"rental_uris":{"android":"levelo://app?vid=1ab25768-bc23-4ea7-b3d9-cf825ed9a029","ios":"levelo://app?vid=1ab25768-bc23-4ea7-b3d9-cf825ed9a029"},"vehicle_type_id":"4","last_reported":1776852630,"current_range_meters":8400,"station_id":"ce4bgn92rcd13ifvqbvg","pricing_plan_id":"cebpf4jnsgd1na2vs0mg"},{"bike_id":"b255c82c-7d13-42b6-bf33-eaab1db77bce","system_id":"levelo_inurba_marseille","lat":43.30928,"lon":5.39039,"is_reserved":false,"is_disabled":false,"rental_uris":{"android":"levelo://app?vid=b255c82c-7d13-42b6-bf33-eaab1db77bce","ios":"levelo://app?vid=b255c82c-7d13-42b6-bf33-eaab1db77bce"},"vehicle_type_id":"4","last_reported":1776852630,"current_range_meters":8400,"station_id":"ce4bgup2rcd13ifvqco0","pricing_plan_id":"cebpf4jnsgd1na2vs0mg"},{"bike_id":"cfcc8dcf-6816-46a1-945d-fdf5ccf50752","system_id":"levelo_inurba_marseille","lat":43.30963,"lon":5.41153,"is_reserved":false,"is_disabled":false,"rental_uris":{"android":"levelo://app?vid=cfcc8dcf-6816-46a1-945d-fdf5ccf50752","ios":"levelo://app?vid=cfcc8dcf-6816-46a1-945d-fdf5ccf50752"},"vehicle_type_id":"4","last_reported":1776852630,"current_range_meters":8400,"station_id":"","pricing_plan_id":"cebpf4jnsgd1na2vs0mg"},{"bike_id":"6ee75b1e-3389-452c-805f-052a7231f6b2","system_id":"levelo_inurba_marseille","lat":43.28882,"lon":5.42507,"is_reserved":false,"is_disabled":false,"rental_uris":{"android":"levelo://app?vid=6ee75b1e-3389-452c-805f-052a7231f6b2","ios":"levelo://app?vid=6ee75b1e-3389-452c-805f-052a7231f6b2"},"vehicle_type_id":"4","last_reported":1776852630,"current_range_meters":8800,"station_id":"st_d3b462108ojc7389ooeg","pricing_plan_id":"cebpf4jnsgd1na2vs0mg"},{"bike_id":"65c32566-4c7f-4dee-ae0b-f2830e9e2ab9","system_id":"levelo_inurba_marseille","lat":43.2982,"lon":5.44067,"is_reserved":false,"is_disabled":false,"rental_uris":{"android":"levelo://app?vid=65c32566-4c7f-4dee-ae0b-f2830e9e2ab9","ios":"levelo://app?vid=65c32566-4c7f-4dee-ae0b-f2830e9e2ab9"},"vehicle_type_id":"4","last_reported":1776852630,"current_range_meters":8800,"station_id":"st_d3jp68qikq2c7381ktn0","pricing_plan_id":"cebpf4jnsgd1na2vs0mg"},{"bike_id":"09b15e2b-76b8-4be7-a4e8-1a58aef5540e","system_id":"levelo_inurba_marseille","lat":43.29908,"lon":5.38158,"is_reserved":false,"is_disabled":false,"rental_uris":{"android":"levelo://app?vid=09b15e2b-76b8-4be7-a4e8-1a58aef5540e","ios":"levelo://app?vid=09b15e2b-76b8-4be7-a4e8-1a58aef5540e"},"vehicle_type_id":"4","last_reported":1776852630,"current_range_meters":8800,"station_id":"ce4bgj12rcd13ifvqbc0","pricing_plan_id":"cebpf4jnsgd1na2vs0mg"},{"bike_id":"54158463-085c-499f-9d12-01f94070f32c","system_id":"levelo_inurba_marseille","lat":43.238,"lon":5.36586,"is_reserved":false,"is_disabled":false,"rental_uris":{"android":"levelo://app?vid=54158463-085c-499f-9d12-01f94070f32c","ios":"levelo://app?vid=54158463-085c-499f-9d12-01f94070f32c"},"vehicle_type_id":"4","last_reported":1776852630,"current_range_meters":8800,"station_id":"st_d3nk18o9ro0c73en2l3g","pricing_plan_id":"cebpf4jnsgd1na2vs0mg"},{"bike_id":"4b93ce64-eeff-4ea5-b6d7-5f4311a5471f","system_id":"levelo_inurba_marseille","lat":43.30552,"lon":5.36677,"is_reserved":false,"is_disabled":false,"rental_uris":{"android":"levelo://app?vid=4b93ce64-eeff-4ea5-b6d7-5f4311a5471f","ios":"levelo://app?vid=4b93ce64-eeff-4ea5-b6d7-5f4311a5471f"},"vehicle_type_id":"4","last_reported":1776852630,"current_range_meters":8800,"station_id":"ce4bgrp2rcd13ifvqc9g","pricing_plan_id":"cebpf4jnsgd1na2vs0mg"},{"bike_id":"b0292b57-bc6e-4d3d-855f-2c85d8c85123","system_id":"levelo_inurba_marseille","lat":43.29321,"lon":5.36256,"is_reserved":false,"is_disabled":false,"rental_uris":{"android":"levelo://app?vid=b0292b57-bc6e-4d3d-855f-2c85d8c85123","ios":"levelo://app?vid=b0292b57-bc6e-4d3d-855f-2c85d8c85123"},"vehicle_type_id":"4","last_reported":1776852630,"current_range_meters":8800,"station_id":"","pricing_plan_id":"cebpf4jnsgd1na2vs0mg"},{"bike_id":"a05bfb6f-02f3-41c0-be48-84958ecb07a4","system_id":"levelo_inurba_marseille","lat":43.25967,"lon":5.40869,"is_reserved":false,"is_disabled":false,"rental_uris":{"android":"levelo://app?vid=a05bfb6f-02f3-41c0-be48-84958ecb07a4","ios":"levelo://app?vid=a05bfb6f-02f3-41c0-be48-84958ecb07a4"},"vehicle_type_id":"4","last_reported":1776852630,"current_range_meters":8800,"station_id":"","pricing_plan_id":"cebpf4jnsgd1na2vs0mg"},{"bike_id":"d3ded5dd-684f-4bcc-861a-76a959da5727","system_id":"levelo_inurba_marseille","lat":43.31341,"lon":5.36731,"is_reserved":false,"is_disabled":false,"rental_uris":{"android":"levelo://app?vid=d3ded5dd-684f-4bcc-861a-76a959da5727","ios":"levelo://app?vid=d3ded5dd-684f-4bcc-861a-76a959da5727"},"vehicle_type_id":"4","last_reported":1776852630,"current_range_meters":8800,"station_id":"ce4bgr92rcd13ifvqc6g","pricing_plan_id":"cebpf4jnsgd1na2vs0mg"},{"bike_id":"12d1ddb5-1e2c-4b2d-a0d4-dafdec917212","system_id":"levelo_inurba_marseille","lat":43.28492,"lon":5.48396,"is_reserved":false,"is_disabled":false,"rental_uris":{"android":"levelo://app?vid=12d1ddb5-1e2c-4b2d-a0d4-dafdec917212","ios":"levelo://app?vid=12d1ddb5-1e2c-4b2d-a0d4-dafdec917212"},"vehicle_type_id":"4","last_reported":1776852630,"current_range_meters":8800,"station_id":"","pricing_plan_id":"cebpf4jnsgd1na2vs0mg"},{"bike_id":"b07df4a8-3a84-4a6f-8930-a25b3ebe2fc3","system_id":"levelo_inurba_marseille","lat":43.3102,"lon":5.37718,"is_reserved":false,"is_disabled":false,"rental_uris":{"android":"levelo://app?vid=b07df4a8-3a84-4a6f-8930-a25b3ebe2fc3","ios":"levelo://app?vid=b07df4a8-3a84-4a6f-8930-a25b3ebe2fc3"},"vehicle_type_id":"4","last_reported":1776852630,"current_range_meters":8800,"station_id":"","pricing_plan_id":"cebpf4jnsgd1na2vs0mg"},{"bike_id":"f8d46f57-68ae-42a5-9479-ae67d8834276","system_id":"levelo_inurba_marseille","lat":43.29996,"lon":5.37065,"is_reserved":false,"is_disabled":false,"rental_uris":{"android":"levelo://app?vid=f8d46f57-68ae-42a5-9479-ae67d8834276","ios":"levelo://app?vid=f8d46f57-68ae-42a5-9479-ae67d8834276"},"vehicle_type_id":"4","last_reported":1776852630,"current_range_meters":8800,"station_id":"","pricing_plan_id":"cebpf4jnsgd1na2vs0mg"},{"bike_id":"13e8a1fb-acbf-4743-869e-4ec5f0dc6c5b","system_id":"levelo_inurba_marseille","lat":43.27067,"lon":5.4227,"is_reserved":false,"is_disabled":false,"rental_uris":{"android":"levelo://app?vid=13e8a1fb-acbf-4743-869e-4ec5f0dc6c5b","ios":"levelo://app?vid=13e8a1fb-acbf-4743-869e-4ec5f0dc6c5b"},"vehicle_type_id":"4","last_reported":1776852630,"current_range_meters":8800,"station_id":"ce4bhk92rcd13ifvqgb0","pricing_plan_id":"cebpf4jnsgd1na2vs0mg"},{"bike_id":"2ac15ea7-1904-4a69-9f5e-f4cb7754354f","system_id":"levelo_inurba_marseille","lat":43.24076,"lon":5.37754,"is_reserved":false,"is_disabled":false,"rental_uris":{"android":"levelo://app?vid=2ac15ea7-1904-4a69-9f5e-f4cb7754354f","ios":"levelo://app?vid=2ac15ea7-1904-4a69-9f5e-f4cb7754354f"},"vehicle_type_id":"4","last_reported":1776852630,"current_range_meters":8800,"station_id":"ce4bhnp2rcd13ifvqgvg","pricing_plan_id":"cebpf4jnsgd1na2vs0mg"},{"bike_id":"6b23908a-27fc-400a-b1b6-9daa8d6ab014","system_id":"levelo_inurba_marseille","lat":43.33707,"lon":5.39819,"is_reserved":false,"is_disabled":false,"rental_uris":{"android":"levelo://app?vid=6b23908a-27fc-400a-b1b6-9daa8d6ab014","ios":"levelo://app?vid=6b23908a-27fc-400a-b1b6-9daa8d6ab014"},"vehicle_type_id":"4","last_reported":1776852630,"current_range_meters":8800,"station_id":"","pricing_plan_id":"cebpf4jnsgd1na2vs0mg"},{"bike_id":"dc0b7bda-7a5b-41ed-a9e6-c062ebb882e2","system_id":"levelo_inurba_marseille","lat":43.28342,"lon":5.38095,"is_reserved":false,"is_disabled":false,"rental_uris":{"android":"levelo://app?vid=dc0b7bda-7a5b-41ed-a9e6-c062ebb882e2","ios":"levelo://app?vid=dc0b7bda-7a5b-41ed-a9e6-c062ebb882e2"},"vehicle_type_id":"4","last_reported":1776852630,"current_range_meters":8800,"station_id":"ce4bh412rcd13ifvqdr0","pricing_plan_id":"cebpf4jnsgd1na2vs0mg"},{"bike_id":"b4f74c97-3f91-4820-ad7f-9c6dd916e9f6","system_id":"levelo_inurba_marseille","lat":43.3136,"lon":5.36712,"is_reserved":false,"is_disabled":false,"rental_uris":{"android":"levelo://app?vid=b4f74c97-3f91-4820-ad7f-9c6dd916e9f6","ios":"levelo://app?vid=b4f74c97-3f91-4820-ad7f-9c6dd916e9f6"},"vehicle_type_id":"4","last_reported":1776852630,"current_range_meters":8800,"station_id":"ce4bgr92rcd13ifvqc6g","pricing_plan_id":"cebpf4jnsgd1na2vs0mg"},{"bike_id":"4ec0d99f-069f-4343-a14e-06b28059e112","system_id":"levelo_inurba_marseille","lat":43.31363,"lon":5.3672,"is_reserved":false,"is_disabled":false,"rental_uris":{"android":"levelo://app?vid=4ec0d99f-069f-4343-a14e-06b28059e112","ios":"levelo://app?vid=4ec0d99f-069f-4343-a14e-06b28059e112"},"vehicle_type_id":"4","last_reported":1776852630,"current_range_meters":8800,"station_id":"ce4bgr92rcd13ifvqc6g","pricing_plan_id":"cebpf4jnsgd1na2vs0mg"},{"bike_id":"3683449e-cc5e-43ac-a116-4d4611c6af06","system_id":"levelo_inurba_marseille","lat":43.29535,"lon":5.39398,"is_reserved":false,"is_disabled":false,"rental_uris":{"android":"levelo://app?vid=3683449e-cc5e-43ac-a116-4d4611c6af06","ios":"levelo://app?vid=3683449e-cc5e-43ac-a116-4d4611c6af06"},"vehicle_type_id":"4","last_reported":1776852630,"current_range_meters":8800,"station_id":"ce4bh292rcd13ifvqdf0","pricing_plan_id":"cebpf4jnsgd1na2vs0mg"},{"bike_id":"2a043756-cf7b-4982-be3f-7f5485ea3789","system_id":"levelo_inurba_marseille","lat":43.29505,"lon":5.38762,"is_reserved":false,"is_disabled":false,"rental_uris":{"android":"levelo://app?vid=2a043756-cf7b-4982-be3f-7f5485ea3789","ios":"levelo://app?vid=2a043756-cf7b-4982-be3f-7f5485ea3789"},"vehicle_type_id":"4","last_reported":1776852630,"current_range_meters":9200,"station_id":"","pricing_plan_id":"cebpf4jnsgd1na2vs0mg"},{"bike_id":"09012acd-7e2a-4e46-b00e-3df38d87fafc","system_id":"levelo_inurba_marseille","lat":43.24864,"lon":5.40649,"is_reserved":false,"is_disabled":false,"rental_uris":{"android":"levelo://app?vid=09012acd-7e2a-4e46-b00e-3df38d87fafc","ios":"levelo://app?vid=09012acd-7e2a-4e46-b00e-3df38d87fafc"},"vehicle_type_id":"4","last_reported":1776852630,"current_range_meters":9200,"station_id":"","pricing_plan_id":"cebpf4jnsgd1na2vs0mg"},{"bike_id":"f9f4dea5-fb5a-48a1-a672-5e571cae2d66","system_id":"levelo_inurba_marseille","lat":43.30162,"lon":5.38089,"is_reserved":false,"is_disabled":false,"rental_uris":{"android":"levelo://app?vid=f9f4dea5-fb5a-48a1-a672-5e571cae2d66","ios":"levelo://app?vid=f9f4dea5-fb5a-48a1-a672-5e571cae2d66"},"vehicle_type_id":"4","last_reported":1776852630,"current_range_meters":9200,"station_id":"ce4bgjp2rcd13ifvqbh0","pricing_plan_id":"cebpf4jnsgd1na2vs0mg"},{"bike_id":"f073afee-cba8-40f3-8cbe-a4d3aba602f4","system_id":"levelo_inurba_marseille","lat":43.28281,"lon":5.35075,"is_reserved":false,"is_disabled":true,"rental_uris":{"android":"levelo://app?vid=f073afee-cba8-40f3-8cbe-a4d3aba602f4","ios":"levelo://app?vid=f073afee-cba8-40f3-8cbe-a4d3aba602f4"},"vehicle_type_id":"4","last_reported":1776852630,"current_range_meters":9200,"station_id":"ce4bhbp2rcd13ifvqerg","pricing_plan_id":"cebpf4jnsgd1na2vs0mg"},{"bike_id":"16f7fe35-694a-4eb9-9cc6-4679694d07e2","system_id":"levelo_inurba_marseille","lat":43.31258,"lon":5.37897,"is_reserved":false,"is_disabled":false,"rental_uris":{"android":"levelo://app?vid=16f7fe35-694a-4eb9-9cc6-4679694d07e2","ios":"levelo://app?vid=16f7fe35-694a-4eb9-9cc6-4679694d07e2"},"vehicle_type_id":"4","last_reported":1776852630,"current_range_meters":9200,"station_id":"","pricing_plan_id":"cebpf4jnsgd1na2vs0mg"},{"bike_id":"226ece2b-87fc-494b-b9b1-29d4f3a23456","system_id":"levelo_inurba_marseille","lat":43.28331,"lon":5.42641,"is_reserved":false,"is_disabled":false,"rental_uris":{"android":"levelo://app?vid=226ece2b-87fc-494b-b9b1-29d4f3a23456","ios":"levelo://app?vid=226ece2b-87fc-494b-b9b1-29d4f3a23456"},"vehicle_type_id":"4","last_reported":1776852630,"current_range_meters":9200,"station_id":"","pricing_plan_id":"cebpf4jnsgd1na2vs0mg"},{"bike_id":"feed4a04-c5ce-43b3-ad36-3ec210ca31bb","system_id":"levelo_inurba_marseille","lat":43.26562,"lon":5.37293,"is_reserved":false,"is_disabled":false,"rental_uris":{"android":"levelo://app?vid=feed4a04-c5ce-43b3-ad36-3ec210ca31bb","ios":"levelo://app?vid=feed4a04-c5ce-43b3-ad36-3ec210ca31bb"},"vehicle_type_id":"4","last_reported":1776852630,"current_range_meters":9200,"station_id":"ce4bhg12rcd13ifvqf70","pricing_plan_id":"cebpf4jnsgd1na2vs0mg"},{"bike_id":"0d8738c8-efd5-4f83-bedf-81eb9a1d6096","system_id":"levelo_inurba_marseille","lat":43.33166,"lon":5.36172,"is_reserved":false,"is_disabled":false,"rental_uris":{"android":"levelo://app?vid=0d8738c8-efd5-4f83-bedf-81eb9a1d6096","ios":"levelo://app?vid=0d8738c8-efd5-4f83-bedf-81eb9a1d6096"},"vehicle_type_id":"4","last_reported":1776852630,"current_range_meters":9200,"station_id":"","pricing_plan_id":"cebpf4jnsgd1na2vs0mg"},{"bike_id":"38faf73f-c72d-4bb9-9220-f1d22f4c16ad","system_id":"levelo_inurba_marseille","lat":43.25206,"lon":5.37436,"is_reserved":false,"is_disabled":false,"rental_uris":{"android":"levelo://app?vid=38faf73f-c72d-4bb9-9220-f1d22f4c16ad","ios":"levelo://app?vid=38faf73f-c72d-4bb9-9220-f1d22f4c16ad"},"vehicle_type_id":"4","last_reported":1776852630,"current_range_meters":9200,"station_id":"","pricing_plan_id":"cebpf4jnsgd1na2vs0mg"},{"bike_id":"6f061c2d-e294-44c5-a556-1fdc3d57ab50","system_id":"levelo_inurba_marseille","lat":43.31696,"lon":5.40472,"is_reserved":false,"is_disabled":false,"rental_uris":{"android":"levelo://app?vid=6f061c2d-e294-44c5-a556-1fdc3d57ab50","ios":"levelo://app?vid=6f061c2d-e294-44c5-a556-1fdc3d57ab50"},"vehicle_type_id":"4","last_reported":1776852630,"current_range_meters":9600,"station_id":"ce4bh012rcd13ifvqd00","pricing_plan_id":"cebpf4jnsgd1na2vs0mg"},{"bike_id":"0a3f04e7-cf02-4e3f-b938-54cbd3c1d649","system_id":"levelo_inurba_marseille","lat":43.2988,"lon":5.36277,"is_reserved":false,"is_disabled":false,"rental_uris":{"android":"levelo://app?vid=0a3f04e7-cf02-4e3f-b938-54cbd3c1d649","ios":"levelo://app?vid=0a3f04e7-cf02-4e3f-b938-54cbd3c1d649"},"vehicle_type_id":"4","last_reported":1776852630,"current_range_meters":9600,"station_id":"ce4bgpp2rcd13ifvqc3g","pricing_plan_id":"cebpf4jnsgd1na2vs0mg"},{"bike_id":"a53ca8dd-6661-4e2c-b703-27d0bb7c3113","system_id":"levelo_inurba_marseille","lat":43.29166,"lon":5.37156,"is_reserved":false,"is_disabled":false,"rental_uris":{"android":"levelo://app?vid=a53ca8dd-6661-4e2c-b703-27d0bb7c3113","ios":"levelo://app?vid=a53ca8dd-6661-4e2c-b703-27d0bb7c3113"},"vehicle_type_id":"4","last_reported":1776852630,"current_range_meters":9600,"station_id":"ce4bha92rcd13ifvqeh0","pricing_plan_id":"cebpf4jnsgd1na2vs0mg"},{"bike_id":"6ffc15b8-1554-41c5-bb1b-9ba599c4e6bd","system_id":"levelo_inurba_marseille","lat":43.28144,"lon":5.36355,"is_reserved":false,"is_disabled":false,"rental_uris":{"android":"levelo://app?vid=6ffc15b8-1554-41c5-bb1b-9ba599c4e6bd","ios":"levelo://app?vid=6ffc15b8-1554-41c5-bb1b-9ba599c4e6bd"},"vehicle_type_id":"4","last_reported":1776852630,"current_range_meters":9600,"station_id":"","pricing_plan_id":"cebpf4jnsgd1na2vs0mg"},{"bike_id":"0d30d1ee-6910-4aa6-9fbb-9e4f13b5fea9","system_id":"levelo_inurba_marseille","lat":43.32093,"lon":5.36812,"is_reserved":false,"is_disabled":false,"rental_uris":{"android":"levelo://app?vid=0d30d1ee-6910-4aa6-9fbb-9e4f13b5fea9","ios":"levelo://app?vid=0d30d1ee-6910-4aa6-9fbb-9e4f13b5fea9"},"vehicle_type_id":"4","last_reported":1776852630,"current_range_meters":9600,"station_id":"ce4bhrh2rcd13ifvqhug","pricing_plan_id":"cebpf4jnsgd1na2vs0mg"},{"bike_id":"1c21b5e4-18ba-4d77-b990-0019b8294ddb","system_id":"levelo_inurba_marseille","lat":43.26573,"lon":5.3962,"is_reserved":false,"is_disabled":false,"rental_uris":{"android":"levelo://app?vid=1c21b5e4-18ba-4d77-b990-0019b8294ddb","ios":"levelo://app?vid=1c21b5e4-18ba-4d77-b990-0019b8294ddb"},"vehicle_type_id":"4","last_reported":1776852630,"current_range_meters":9600,"station_id":"","pricing_plan_id":"cebpf4jnsgd1na2vs0mg"},{"bike_id":"7af19307-88ba-4f26-8f95-a2adf190dff7","system_id":"levelo_inurba_marseille","lat":43.30429,"lon":5.40108,"is_reserved":false,"is_disabled":false,"rental_uris":{"android":"levelo://app?vid=7af19307-88ba-4f26-8f95-a2adf190dff7","ios":"levelo://app?vid=7af19307-88ba-4f26-8f95-a2adf190dff7"},"vehicle_type_id":"4","last_reported":1776852630,"current_range_meters":9600,"station_id":"","pricing_plan_id":"cebpf4jnsgd1na2vs0mg"},{"bike_id":"a68bae85-b095-45f0-8fd7-26846d013930","system_id":"levelo_inurba_marseille","lat":43.30796,"lon":5.37624,"is_reserved":false,"is_disabled":false,"rental_uris":{"android":"levelo://app?vid=a68bae85-b095-45f0-8fd7-26846d013930","ios":"levelo://app?vid=a68bae85-b095-45f0-8fd7-26846d013930"},"vehicle_type_id":"4","last_reported":1776852630,"current_range_meters":9600,"station_id":"ce4bgv92rcd13ifvqcq0","pricing_plan_id":"cebpf4jnsgd1na2vs0mg"},{"bike_id":"a56889e7-37d7-487e-a661-9c8461fe50da","system_id":"levelo_inurba_marseille","lat":43.30937,"lon":5.36841,"is_reserved":false,"is_disabled":false,"rental_uris":{"android":"levelo://app?vid=a56889e7-37d7-487e-a661-9c8461fe50da","ios":"levelo://app?vid=a56889e7-37d7-487e-a661-9c8461fe50da"},"vehicle_type_id":"4","last_reported":1776852630,"current_range_meters":9600,"station_id":"ce4bgn92rcd13ifvqbvg","pricing_plan_id":"cebpf4jnsgd1na2vs0mg"},{"bike_id":"c4ce6f17-ac36-4f95-9d2a-b2f1cc934876","system_id":"levelo_inurba_marseille","lat":43.26362,"lon":5.41101,"is_reserved":false,"is_disabled":false,"rental_uris":{"android":"levelo://app?vid=c4ce6f17-ac36-4f95-9d2a-b2f1cc934876","ios":"levelo://app?vid=c4ce6f17-ac36-4f95-9d2a-b2f1cc934876"},"vehicle_type_id":"4","last_reported":1776852630,"current_range_meters":9600,"station_id":"st_d4e5ca6na9uc73bfl5fg","pricing_plan_id":"cebpf4jnsgd1na2vs0mg"},{"bike_id":"fb495226-2c6e-4c6b-b095-ab9f9fc7ab62","system_id":"levelo_inurba_marseille","lat":43.26208,"lon":5.37923,"is_reserved":false,"is_disabled":false,"rental_uris":{"android":"levelo://app?vid=fb495226-2c6e-4c6b-b095-ab9f9fc7ab62","ios":"levelo://app?vid=fb495226-2c6e-4c6b-b095-ab9f9fc7ab62"},"vehicle_type_id":"4","last_reported":1776852630,"current_range_meters":9600,"station_id":"ce4bhjp2rcd13ifvqg90","pricing_plan_id":"cebpf4jnsgd1na2vs0mg"},{"bike_id":"7c2d4cbd-4710-4158-8d5e-3ef9174bf26f","system_id":"levelo_inurba_marseille","lat":43.28143,"lon":5.42279,"is_reserved":false,"is_disabled":true,"rental_uris":{"android":"levelo://app?vid=7c2d4cbd-4710-4158-8d5e-3ef9174bf26f","ios":"levelo://app?vid=7c2d4cbd-4710-4158-8d5e-3ef9174bf26f"},"vehicle_type_id":"4","last_reported":1776852630,"current_range_meters":9600,"station_id":"","pricing_plan_id":"cebpf4jnsgd1na2vs0mg"},{"bike_id":"25931435-472d-4946-9b9a-fc67e50f018d","system_id":"levelo_inurba_marseille","lat":43.23026,"lon":5.44468,"is_reserved":false,"is_disabled":false,"rental_uris":{"android":"levelo://app?vid=25931435-472d-4946-9b9a-fc67e50f018d","ios":"levelo://app?vid=25931435-472d-4946-9b9a-fc67e50f018d"},"vehicle_type_id":"4","last_reported":1776852630,"current_range_meters":9600,"station_id":"","pricing_plan_id":"cebpf4jnsgd1na2vs0mg"},{"bike_id":"772652df-39a3-4a7d-ab76-86683fdc6511","system_id":"levelo_inurba_marseille","lat":43.28926,"lon":5.3687,"is_reserved":false,"is_disabled":false,"rental_uris":{"android":"levelo://app?vid=772652df-39a3-4a7d-ab76-86683fdc6511","ios":"levelo://app?vid=772652df-39a3-4a7d-ab76-86683fdc6511"},"vehicle_type_id":"4","last_reported":1776852630,"current_range_meters":9600,"station_id":"","pricing_plan_id":"cebpf4jnsgd1na2vs0mg"},{"bike_id":"56d043eb-92e5-4d83-92b2-43d89d143595","system_id":"levelo_inurba_marseille","lat":43.33606,"lon":5.410367,"is_reserved":false,"is_disabled":false,"rental_uris":{"android":"levelo://app?vid=56d043eb-92e5-4d83-92b2-43d89d143595","ios":"levelo://app?vid=56d043eb-92e5-4d83-92b2-43d89d143595"},"vehicle_type_id":"4","last_reported":1776852630,"current_range_meters":10000,"station_id":"ce4bhqh2rcd13ifvqhmg","pricing_plan_id":"cebpf4jnsgd1na2vs0mg"},{"bike_id":"bf2a9420-01b1-4fa6-8cfb-6a413e6e2a7a","system_id":"levelo_inurba_marseille","lat":43.30962,"lon":5.39032,"is_reserved":false,"is_disabled":false,"rental_uris":{"android":"levelo://app?vid=bf2a9420-01b1-4fa6-8cfb-6a413e6e2a7a","ios":"levelo://app?vid=bf2a9420-01b1-4fa6-8cfb-6a413e6e2a7a"},"vehicle_type_id":"4","last_reported":1776852630,"current_range_meters":10000,"station_id":"ce4bgup2rcd13ifvqco0","pricing_plan_id":"cebpf4jnsgd1na2vs0mg"},{"bike_id":"22c69b68-edc4-48a9-b662-28d0bd175ac6","system_id":"levelo_inurba_marseille","lat":43.29006,"lon":5.35613,"is_reserved":false,"is_disabled":false,"rental_uris":{"android":"levelo://app?vid=22c69b68-edc4-48a9-b662-28d0bd175ac6","ios":"levelo://app?vid=22c69b68-edc4-48a9-b662-28d0bd175ac6"},"vehicle_type_id":"4","last_reported":1776852630,"current_range_meters":10000,"station_id":"ce4bhb92rcd13ifvqen0","pricing_plan_id":"cebpf4jnsgd1na2vs0mg"},{"bike_id":"3f50794c-c430-4b89-94ad-5c0aa9eea65c","system_id":"levelo_inurba_marseille","lat":43.27822,"lon":5.40725,"is_reserved":false,"is_disabled":true,"rental_uris":{"android":"levelo://app?vid=3f50794c-c430-4b89-94ad-5c0aa9eea65c","ios":"levelo://app?vid=3f50794c-c430-4b89-94ad-5c0aa9eea65c"},"vehicle_type_id":"4","last_reported":1776852630,"current_range_meters":10000,"station_id":"ce4bhnh2rcd13ifvqgtg","pricing_plan_id":"cebpf4jnsgd1na2vs0mg"},{"bike_id":"500638d0-cf5c-4061-b413-99b5dc6f2377","system_id":"levelo_inurba_marseille","lat":43.27452,"lon":5.42473,"is_reserved":false,"is_disabled":false,"rental_uris":{"android":"levelo://app?vid=500638d0-cf5c-4061-b413-99b5dc6f2377","ios":"levelo://app?vid=500638d0-cf5c-4061-b413-99b5dc6f2377"},"vehicle_type_id":"4","last_reported":1776852630,"current_range_meters":10000,"station_id":"","pricing_plan_id":"cebpf4jnsgd1na2vs0mg"},{"bike_id":"4504c983-313c-479b-96f0-2ba73db53511","system_id":"levelo_inurba_marseille","lat":43.29205,"lon":5.39326,"is_reserved":false,"is_disabled":false,"rental_uris":{"android":"levelo://app?vid=4504c983-313c-479b-96f0-2ba73db53511","ios":"levelo://app?vid=4504c983-313c-479b-96f0-2ba73db53511"},"vehicle_type_id":"4","last_reported":1776852630,"current_range_meters":10000,"station_id":"ce4bh192rcd13ifvqdd0","pricing_plan_id":"cebpf4jnsgd1na2vs0mg"},{"bike_id":"52d848d3-e124-40a2-855d-fb7f07415aa4","system_id":"levelo_inurba_marseille","lat":43.2843,"lon":5.37512,"is_reserved":false,"is_disabled":true,"rental_uris":{"android":"levelo://app?vid=52d848d3-e124-40a2-855d-fb7f07415aa4","ios":"levelo://app?vid=52d848d3-e124-40a2-855d-fb7f07415aa4"},"vehicle_type_id":"4","last_reported":1776852630,"current_range_meters":10000,"station_id":"ce4bh412rcd13ifvqds0","pricing_plan_id":"cebpf4jnsgd1na2vs0mg"},{"bike_id":"cb74c37c-0349-47b3-85df-080ebdd748d7","system_id":"levelo_inurba_marseille","lat":43.26769,"lon":5.37465,"is_reserved":false,"is_disabled":false,"rental_uris":{"android":"levelo://app?vid=cb74c37c-0349-47b3-85df-080ebdd748d7","ios":"levelo://app?vid=cb74c37c-0349-47b3-85df-080ebdd748d7"},"vehicle_type_id":"4","last_reported":1776852630,"current_range_meters":10000,"station_id":"","pricing_plan_id":"cebpf4jnsgd1na2vs0mg"},{"bike_id":"76f79e84-4e82-417e-b9f7-586af1328d81","system_id":"levelo_inurba_marseille","lat":43.24603,"lon":5.42072,"is_reserved":false,"is_disabled":false,"rental_uris":{"android":"levelo://app?vid=76f79e84-4e82-417e-b9f7-586af1328d81","ios":"levelo://app?vid=76f79e84-4e82-417e-b9f7-586af1328d81"},"vehicle_type_id":"4","last_reported":1776852630,"current_range_meters":10000,"station_id":"","pricing_plan_id":"cebpf4jnsgd1na2vs0mg"},{"bike_id":"deb2231e-0861-4602-8eeb-c5067b2ff42f","system_id":"levelo_inurba_marseille","lat":43.27498,"lon":5.42441,"is_reserved":false,"is_disabled":false,"rental_uris":{"android":"levelo://app?vid=deb2231e-0861-4602-8eeb-c5067b2ff42f","ios":"levelo://app?vid=deb2231e-0861-4602-8eeb-c5067b2ff42f"},"vehicle_type_id":"4","last_reported":1776852630,"current_range_meters":10000,"station_id":"ce4bhn92rcd13ifvqgrg","pricing_plan_id":"cebpf4jnsgd1na2vs0mg"},{"bike_id":"f1e17ef2-58da-4c6a-aab7-1db097bb104c","system_id":"levelo_inurba_marseille","lat":43.27103,"lon":5.36313,"is_reserved":false,"is_disabled":true,"rental_uris":{"android":"levelo://app?vid=f1e17ef2-58da-4c6a-aab7-1db097bb104c","ios":"levelo://app?vid=f1e17ef2-58da-4c6a-aab7-1db097bb104c"},"vehicle_type_id":"4","last_reported":1776852630,"current_range_meters":10000,"station_id":"","pricing_plan_id":"cebpf4jnsgd1na2vs0mg"},{"bike_id":"c196994c-5fc4-40ae-9a40-dd553c13c77b","system_id":"levelo_inurba_marseille","lat":43.31162,"lon":5.36932,"is_reserved":false,"is_disabled":false,"rental_uris":{"android":"levelo://app?vid=c196994c-5fc4-40ae-9a40-dd553c13c77b","ios":"levelo://app?vid=c196994c-5fc4-40ae-9a40-dd553c13c77b"},"vehicle_type_id":"4","last_reported":1776852630,"current_range_meters":10000,"station_id":"ce4bgl92rcd13ifvqbq0","pricing_plan_id":"cebpf4jnsgd1na2vs0mg"},{"bike_id":"aa7306d2-389f-4893-83a1-c3d059a2e452","system_id":"levelo_inurba_marseille","lat":43.30948,"lon":5.40119,"is_reserved":false,"is_disabled":false,"rental_uris":{"android":"levelo://app?vid=aa7306d2-389f-4893-83a1-c3d059a2e452","ios":"levelo://app?vid=aa7306d2-389f-4893-83a1-c3d059a2e452"},"vehicle_type_id":"4","last_reported":1776852630,"current_range_meters":10000,"station_id":"ce4bgvp2rcd13ifvqct0","pricing_plan_id":"cebpf4jnsgd1na2vs0mg"},{"bike_id":"46335186-6bd7-4461-9e78-da17046593c8","system_id":"levelo_inurba_marseille","lat":43.28399,"lon":5.38474,"is_reserved":false,"is_disabled":false,"rental_uris":{"android":"levelo://app?vid=46335186-6bd7-4461-9e78-da17046593c8","ios":"levelo://app?vid=46335186-6bd7-4461-9e78-da17046593c8"},"vehicle_type_id":"4","last_reported":1776852630,"current_range_meters":10000,"station_id":"","pricing_plan_id":"cebpf4jnsgd1na2vs0mg"},{"bike_id":"608fa9b0-9a88-453f-a7e7-35fdba098462","system_id":"levelo_inurba_marseille","lat":43.25598,"lon":5.38234,"is_reserved":false,"is_disabled":false,"rental_uris":{"android":"levelo://app?vid=608fa9b0-9a88-453f-a7e7-35fdba098462","ios":"levelo://app?vid=608fa9b0-9a88-453f-a7e7-35fdba098462"},"vehicle_type_id":"4","last_reported":1776852630,"current_range_meters":10800,"station_id":"ce4bhih2rcd13ifvqfs0","pricing_plan_id":"cebpf4jnsgd1na2vs0mg"},{"bike_id":"75c669ce-119a-4544-99c1-1f6e693f670b","system_id":"levelo_inurba_marseille","lat":43.30163,"lon":5.38078,"is_reserved":false,"is_disabled":false,"rental_uris":{"android":"levelo://app?vid=75c669ce-119a-4544-99c1-1f6e693f670b","ios":"levelo://app?vid=75c669ce-119a-4544-99c1-1f6e693f670b"},"vehicle_type_id":"4","last_reported":1776852630,"current_range_meters":10800,"station_id":"ce4bgjp2rcd13ifvqbh0","pricing_plan_id":"cebpf4jnsgd1na2vs0mg"},{"bike_id":"248c2459-1730-4e4d-bb17-cb0e8065c55f","system_id":"levelo_inurba_marseille","lat":43.29025,"lon":5.38135,"is_reserved":false,"is_disabled":false,"rental_uris":{"android":"levelo://app?vid=248c2459-1730-4e4d-bb17-cb0e8065c55f","ios":"levelo://app?vid=248c2459-1730-4e4d-bb17-cb0e8065c55f"},"vehicle_type_id":"4","last_reported":1776852630,"current_range_meters":10800,"station_id":"ce4bh4p2rcd13ifvqe1g","pricing_plan_id":"cebpf4jnsgd1na2vs0mg"},{"bike_id":"205eefac-f379-49f9-b02e-ad048a493b05","system_id":"levelo_inurba_marseille","lat":43.27125,"lon":5.42554,"is_reserved":false,"is_disabled":false,"rental_uris":{"android":"levelo://app?vid=205eefac-f379-49f9-b02e-ad048a493b05","ios":"levelo://app?vid=205eefac-f379-49f9-b02e-ad048a493b05"},"vehicle_type_id":"4","last_reported":1776852630,"current_range_meters":10800,"station_id":"","pricing_plan_id":"cebpf4jnsgd1na2vs0mg"},{"bike_id":"68e86292-e11d-49d5-888c-58848729cc3c","system_id":"levelo_inurba_marseille","lat":43.28318,"lon":5.3873,"is_reserved":false,"is_disabled":false,"rental_uris":{"android":"levelo://app?vid=68e86292-e11d-49d5-888c-58848729cc3c","ios":"levelo://app?vid=68e86292-e11d-49d5-888c-58848729cc3c"},"vehicle_type_id":"4","last_reported":1776852630,"current_range_meters":10800,"station_id":"","pricing_plan_id":"cebpf4jnsgd1na2vs0mg"},{"bike_id":"9199cdeb-5b5d-47c6-a6ba-9aaa1a8a318e","system_id":"levelo_inurba_marseille","lat":43.33722,"lon":5.39186,"is_reserved":false,"is_disabled":false,"rental_uris":{"android":"levelo://app?vid=9199cdeb-5b5d-47c6-a6ba-9aaa1a8a318e","ios":"levelo://app?vid=9199cdeb-5b5d-47c6-a6ba-9aaa1a8a318e"},"vehicle_type_id":"4","last_reported":1776852630,"current_range_meters":10800,"station_id":"ce4bhr92rcd13ifvqhsg","pricing_plan_id":"cebpf4jnsgd1na2vs0mg"},{"bike_id":"6e367a0f-b124-4be0-ab94-a2b919d5b10d","system_id":"levelo_inurba_marseille","lat":43.27059,"lon":5.40252,"is_reserved":false,"is_disabled":false,"rental_uris":{"android":"levelo://app?vid=6e367a0f-b124-4be0-ab94-a2b919d5b10d","ios":"levelo://app?vid=6e367a0f-b124-4be0-ab94-a2b919d5b10d"},"vehicle_type_id":"4","last_reported":1776852630,"current_range_meters":10800,"station_id":"ce4bhk92rcd13ifvqgc0","pricing_plan_id":"cebpf4jnsgd1na2vs0mg"},{"bike_id":"cf6006cd-b52f-419a-8a97-563f9a7a9362","system_id":"levelo_inurba_marseille","lat":43.31362,"lon":5.36691,"is_reserved":false,"is_disabled":false,"rental_uris":{"android":"levelo://app?vid=cf6006cd-b52f-419a-8a97-563f9a7a9362","ios":"levelo://app?vid=cf6006cd-b52f-419a-8a97-563f9a7a9362"},"vehicle_type_id":"4","last_reported":1776852630,"current_range_meters":10800,"station_id":"ce4bgr92rcd13ifvqc6g","pricing_plan_id":"cebpf4jnsgd1na2vs0mg"},{"bike_id":"55a854f9-1bcb-4c93-aa25-81b551294ada","system_id":"levelo_inurba_marseille","lat":43.29005,"lon":5.35621,"is_reserved":false,"is_disabled":false,"rental_uris":{"android":"levelo://app?vid=55a854f9-1bcb-4c93-aa25-81b551294ada","ios":"levelo://app?vid=55a854f9-1bcb-4c93-aa25-81b551294ada"},"vehicle_type_id":"4","last_reported":1776852630,"current_range_meters":10800,"station_id":"ce4bhb92rcd13ifvqen0","pricing_plan_id":"cebpf4jnsgd1na2vs0mg"},{"bike_id":"9c3677d0-627f-49f8-bd9c-64ba96ef4fce","system_id":"levelo_inurba_marseille","lat":43.28474,"lon":5.48402,"is_reserved":false,"is_disabled":false,"rental_uris":{"android":"levelo://app?vid=9c3677d0-627f-49f8-bd9c-64ba96ef4fce","ios":"levelo://app?vid=9c3677d0-627f-49f8-bd9c-64ba96ef4fce"},"vehicle_type_id":"4","last_reported":1776852630,"current_range_meters":10800,"station_id":"","pricing_plan_id":"cebpf4jnsgd1na2vs0mg"},{"bike_id":"dfa9056e-9f33-4218-90b6-c4a06d8b3910","system_id":"levelo_inurba_marseille","lat":43.3189,"lon":5.36814,"is_reserved":false,"is_disabled":false,"rental_uris":{"android":"levelo://app?vid=dfa9056e-9f33-4218-90b6-c4a06d8b3910","ios":"levelo://app?vid=dfa9056e-9f33-4218-90b6-c4a06d8b3910"},"vehicle_type_id":"4","last_reported":1776852630,"current_range_meters":10800,"station_id":"st_d6o2h0d0559c73evc1b0","pricing_plan_id":"cebpf4jnsgd1na2vs0mg"},{"bike_id":"002acae9-09e4-4bde-9cf6-b46a6976aff9","system_id":"levelo_inurba_marseille","lat":43.2799,"lon":5.41638,"is_reserved":false,"is_disabled":false,"rental_uris":{"android":"levelo://app?vid=002acae9-09e4-4bde-9cf6-b46a6976aff9","ios":"levelo://app?vid=002acae9-09e4-4bde-9cf6-b46a6976aff9"},"vehicle_type_id":"4","last_reported":1776852630,"current_range_meters":10800,"station_id":"ce4bho12rcd13ifvqh1g","pricing_plan_id":"cebpf4jnsgd1na2vs0mg"},{"bike_id":"48ff8779-6221-4f57-83b2-6b16c84f3d03","system_id":"levelo_inurba_marseille","lat":43.23394,"lon":5.41222,"is_reserved":false,"is_disabled":false,"rental_uris":{"android":"levelo://app?vid=48ff8779-6221-4f57-83b2-6b16c84f3d03","ios":"levelo://app?vid=48ff8779-6221-4f57-83b2-6b16c84f3d03"},"vehicle_type_id":"4","last_reported":1776852630,"current_range_meters":10800,"station_id":"st_d75pvndhf9lc73cqq3eg","pricing_plan_id":"cebpf4jnsgd1na2vs0mg"},{"bike_id":"75da28ab-8813-4425-829f-ceaedfe0d4f6","system_id":"levelo_inurba_marseille","lat":43.23068,"lon":5.3549,"is_reserved":false,"is_disabled":false,"rental_uris":{"android":"levelo://app?vid=75da28ab-8813-4425-829f-ceaedfe0d4f6","ios":"levelo://app?vid=75da28ab-8813-4425-829f-ceaedfe0d4f6"},"vehicle_type_id":"4","last_reported":1776852630,"current_range_meters":10800,"station_id":"cpo3342slgdg3j2ifvpg","pricing_plan_id":"cebpf4jnsgd1na2vs0mg"},{"bike_id":"4a4a0df8-5f31-45c3-a76c-fd61c25cab78","system_id":"levelo_inurba_marseille","lat":43.31278,"lon":5.4015,"is_reserved":false,"is_disabled":false,"rental_uris":{"android":"levelo://app?vid=4a4a0df8-5f31-45c3-a76c-fd61c25cab78","ios":"levelo://app?vid=4a4a0df8-5f31-45c3-a76c-fd61c25cab78"},"vehicle_type_id":"4","last_reported":1776852630,"current_range_meters":11200,"station_id":"ce4bh092rcd13ifvqd30","pricing_plan_id":"cebpf4jnsgd1na2vs0mg"},{"bike_id":"97563811-de7e-4fb9-bbc8-59c1cb66a0eb","system_id":"levelo_inurba_marseille","lat":43.243839,"lon":5.370514,"is_reserved":false,"is_disabled":false,"rental_uris":{"android":"levelo://app?vid=97563811-de7e-4fb9-bbc8-59c1cb66a0eb","ios":"levelo://app?vid=97563811-de7e-4fb9-bbc8-59c1cb66a0eb"},"vehicle_type_id":"4","last_reported":1776852630,"current_range_meters":11200,"station_id":"ce4bhhh2rcd13ifvqfk0","pricing_plan_id":"cebpf4jnsgd1na2vs0mg"},{"bike_id":"9e49397d-b15f-42ca-b438-81f289c696f0","system_id":"levelo_inurba_marseille","lat":43.23124,"lon":5.43753,"is_reserved":false,"is_disabled":true,"rental_uris":{"android":"levelo://app?vid=9e49397d-b15f-42ca-b438-81f289c696f0","ios":"levelo://app?vid=9e49397d-b15f-42ca-b438-81f289c696f0"},"vehicle_type_id":"4","last_reported":1776852630,"current_range_meters":11200,"station_id":"","pricing_plan_id":"cebpf4jnsgd1na2vs0mg"},{"bike_id":"f13ecd57-6258-4e4c-bbcc-3ea8e22e9f09","system_id":"levelo_inurba_marseille","lat":43.23157,"lon":5.43728,"is_reserved":false,"is_disabled":false,"rental_uris":{"android":"levelo://app?vid=f13ecd57-6258-4e4c-bbcc-3ea8e22e9f09","ios":"levelo://app?vid=f13ecd57-6258-4e4c-bbcc-3ea8e22e9f09"},"vehicle_type_id":"4","last_reported":1776852630,"current_range_meters":11200,"station_id":"ce4bhmp2rcd13ifvqgog","pricing_plan_id":"cebpf4jnsgd1na2vs0mg"},{"bike_id":"b99fd440-7493-4c02-9198-87b6e5b1261c","system_id":"levelo_inurba_marseille","lat":43.23191,"lon":5.35558,"is_reserved":false,"is_disabled":false,"rental_uris":{"android":"levelo://app?vid=b99fd440-7493-4c02-9198-87b6e5b1261c","ios":"levelo://app?vid=b99fd440-7493-4c02-9198-87b6e5b1261c"},"vehicle_type_id":"4","last_reported":1776852630,"current_range_meters":11200,"station_id":"ce4bhu92rcd13ifvqi70","pricing_plan_id":"cebpf4jnsgd1na2vs0mg"},{"bike_id":"0923929c-d272-4fa1-a3d9-8f4c7a6f830d","system_id":"levelo_inurba_marseille","lat":43.29958,"lon":5.39889,"is_reserved":false,"is_disabled":false,"rental_uris":{"android":"levelo://app?vid=0923929c-d272-4fa1-a3d9-8f4c7a6f830d","ios":"levelo://app?vid=0923929c-d272-4fa1-a3d9-8f4c7a6f830d"},"vehicle_type_id":"4","last_reported":1776852630,"current_range_meters":11200,"station_id":"","pricing_plan_id":"cebpf4jnsgd1na2vs0mg"},{"bike_id":"2352d752-797d-4001-bdca-663ce0d901b0","system_id":"levelo_inurba_marseille","lat":43.28722,"lon":5.3792,"is_reserved":false,"is_disabled":false,"rental_uris":{"android":"levelo://app?vid=2352d752-797d-4001-bdca-663ce0d901b0","ios":"levelo://app?vid=2352d752-797d-4001-bdca-663ce0d901b0"},"vehicle_type_id":"4","last_reported":1776852630,"current_range_meters":11200,"station_id":"ce4bh9p2rcd13ifvqec0","pricing_plan_id":"cebpf4jnsgd1na2vs0mg"},{"bike_id":"dc9c2d18-358e-4616-a589-636e5e2c1512","system_id":"levelo_inurba_marseille","lat":43.30558,"lon":5.3668,"is_reserved":false,"is_disabled":false,"rental_uris":{"android":"levelo://app?vid=dc9c2d18-358e-4616-a589-636e5e2c1512","ios":"levelo://app?vid=dc9c2d18-358e-4616-a589-636e5e2c1512"},"vehicle_type_id":"4","last_reported":1776852630,"current_range_meters":11200,"station_id":"","pricing_plan_id":"cebpf4jnsgd1na2vs0mg"},{"bike_id":"286127ee-0e7a-446a-9589-26c86ff47100","system_id":"levelo_inurba_marseille","lat":43.28937,"lon":5.39619,"is_reserved":false,"is_disabled":false,"rental_uris":{"android":"levelo://app?vid=286127ee-0e7a-446a-9589-26c86ff47100","ios":"levelo://app?vid=286127ee-0e7a-446a-9589-26c86ff47100"},"vehicle_type_id":"4","last_reported":1776852630,"current_range_meters":11200,"station_id":"ce4bh3h2rcd13ifvqdn0","pricing_plan_id":"cebpf4jnsgd1na2vs0mg"},{"bike_id":"8331af0f-100e-470f-9e36-7657fa113fe2","system_id":"levelo_inurba_marseille","lat":43.31227,"lon":5.36883,"is_reserved":false,"is_disabled":false,"rental_uris":{"android":"levelo://app?vid=8331af0f-100e-470f-9e36-7657fa113fe2","ios":"levelo://app?vid=8331af0f-100e-470f-9e36-7657fa113fe2"},"vehicle_type_id":"4","last_reported":1776852630,"current_range_meters":11200,"station_id":"ce4bgl92rcd13ifvqbq0","pricing_plan_id":"cebpf4jnsgd1na2vs0mg"},{"bike_id":"f24987a9-7014-42ac-a1a2-4fce2ecd898e","system_id":"levelo_inurba_marseille","lat":43.26772,"lon":5.39418,"is_reserved":false,"is_disabled":false,"rental_uris":{"android":"levelo://app?vid=f24987a9-7014-42ac-a1a2-4fce2ecd898e","ios":"levelo://app?vid=f24987a9-7014-42ac-a1a2-4fce2ecd898e"},"vehicle_type_id":"4","last_reported":1776852630,"current_range_meters":11200,"station_id":"ce4bhh12rcd13ifvqfg0","pricing_plan_id":"cebpf4jnsgd1na2vs0mg"},{"bike_id":"f850b6c8-0749-4e01-ba82-a6372c598ffe","system_id":"levelo_inurba_marseille","lat":43.3056,"lon":5.36675,"is_reserved":false,"is_disabled":false,"rental_uris":{"android":"levelo://app?vid=f850b6c8-0749-4e01-ba82-a6372c598ffe","ios":"levelo://app?vid=f850b6c8-0749-4e01-ba82-a6372c598ffe"},"vehicle_type_id":"4","last_reported":1776852630,"current_range_meters":11200,"station_id":"","pricing_plan_id":"cebpf4jnsgd1na2vs0mg"},{"bike_id":"b71566b6-96af-41e6-a0d0-296c6899fcd5","system_id":"levelo_inurba_marseille","lat":43.28868,"lon":5.42514,"is_reserved":false,"is_disabled":false,"rental_uris":{"android":"levelo://app?vid=b71566b6-96af-41e6-a0d0-296c6899fcd5","ios":"levelo://app?vid=b71566b6-96af-41e6-a0d0-296c6899fcd5"},"vehicle_type_id":"4","last_reported":1776852630,"current_range_meters":11200,"station_id":"st_d3b462108ojc7389ooeg","pricing_plan_id":"cebpf4jnsgd1na2vs0mg"},{"bike_id":"cce9e933-3790-4ced-9eef-b5ac537ec700","system_id":"levelo_inurba_marseille","lat":43.28623,"lon":5.3834,"is_reserved":false,"is_disabled":false,"rental_uris":{"android":"levelo://app?vid=cce9e933-3790-4ced-9eef-b5ac537ec700","ios":"levelo://app?vid=cce9e933-3790-4ced-9eef-b5ac537ec700"},"vehicle_type_id":"4","last_reported":1776852630,"current_range_meters":11200,"station_id":"","pricing_plan_id":"cebpf4jnsgd1na2vs0mg"},{"bike_id":"ce592dee-14cf-4975-837f-871405aceb21","system_id":"levelo_inurba_marseille","lat":43.29554,"lon":5.42274,"is_reserved":false,"is_disabled":false,"rental_uris":{"android":"levelo://app?vid=ce592dee-14cf-4975-837f-871405aceb21","ios":"levelo://app?vid=ce592dee-14cf-4975-837f-871405aceb21"},"vehicle_type_id":"4","last_reported":1776852630,"current_range_meters":11600,"station_id":"ce4bhph2rcd13ifvqhdg","pricing_plan_id":"cebpf4jnsgd1na2vs0mg"},{"bike_id":"6fcc3500-37fc-45c9-892f-71261525ddbd","system_id":"levelo_inurba_marseille","lat":43.30152,"lon":5.37394,"is_reserved":false,"is_disabled":false,"rental_uris":{"android":"levelo://app?vid=6fcc3500-37fc-45c9-892f-71261525ddbd","ios":"levelo://app?vid=6fcc3500-37fc-45c9-892f-71261525ddbd"},"vehicle_type_id":"4","last_reported":1776852630,"current_range_meters":11600,"station_id":"ce4bgs92rcd13ifvqcc0","pricing_plan_id":"cebpf4jnsgd1na2vs0mg"},{"bike_id":"d486e5ae-c501-4cc2-94cd-d03ead7b7702","system_id":"levelo_inurba_marseille","lat":43.28041,"lon":5.37506,"is_reserved":false,"is_disabled":false,"rental_uris":{"android":"levelo://app?vid=d486e5ae-c501-4cc2-94cd-d03ead7b7702","ios":"levelo://app?vid=d486e5ae-c501-4cc2-94cd-d03ead7b7702"},"vehicle_type_id":"4","last_reported":1776852630,"current_range_meters":11600,"station_id":"","pricing_plan_id":"cebpf4jnsgd1na2vs0mg"},{"bike_id":"a22050df-25c3-4424-8c45-565af661de82","system_id":"levelo_inurba_marseille","lat":43.28493,"lon":5.48372,"is_reserved":false,"is_disabled":false,"rental_uris":{"android":"levelo://app?vid=a22050df-25c3-4424-8c45-565af661de82","ios":"levelo://app?vid=a22050df-25c3-4424-8c45-565af661de82"},"vehicle_type_id":"4","last_reported":1776852630,"current_range_meters":11600,"station_id":"","pricing_plan_id":"cebpf4jnsgd1na2vs0mg"},{"bike_id":"89cb976b-df3a-46fc-a9ef-0025de561630","system_id":"levelo_inurba_marseille","lat":43.29427,"lon":5.43372,"is_reserved":false,"is_disabled":false,"rental_uris":{"android":"levelo://app?vid=89cb976b-df3a-46fc-a9ef-0025de561630","ios":"levelo://app?vid=89cb976b-df3a-46fc-a9ef-0025de561630"},"vehicle_type_id":"4","last_reported":1776852630,"current_range_meters":11600,"station_id":"","pricing_plan_id":"cebpf4jnsgd1na2vs0mg"},{"bike_id":"c3e0702e-4cd9-4eab-9e41-0d17750466d8","system_id":"levelo_inurba_marseille","lat":43.29318,"lon":5.37315,"is_reserved":false,"is_disabled":false,"rental_uris":{"android":"levelo://app?vid=c3e0702e-4cd9-4eab-9e41-0d17750466d8","ios":"levelo://app?vid=c3e0702e-4cd9-4eab-9e41-0d17750466d8"},"vehicle_type_id":"4","last_reported":1776852630,"current_range_meters":11600,"station_id":"","pricing_plan_id":"cebpf4jnsgd1na2vs0mg"},{"bike_id":"eaa56526-29a5-4cc4-abc0-c621dd30f9a4","system_id":"levelo_inurba_marseille","lat":43.29262,"lon":5.4268,"is_reserved":false,"is_disabled":false,"rental_uris":{"android":"levelo://app?vid=eaa56526-29a5-4cc4-abc0-c621dd30f9a4","ios":"levelo://app?vid=eaa56526-29a5-4cc4-abc0-c621dd30f9a4"},"vehicle_type_id":"4","last_reported":1776852630,"current_range_meters":12000,"station_id":"","pricing_plan_id":"cebpf4jnsgd1na2vs0mg"},{"bike_id":"b931f0d1-3013-4c17-8ebb-3b2a9366e817","system_id":"levelo_inurba_marseille","lat":43.28947,"lon":5.39629,"is_reserved":false,"is_disabled":false,"rental_uris":{"android":"levelo://app?vid=b931f0d1-3013-4c17-8ebb-3b2a9366e817","ios":"levelo://app?vid=b931f0d1-3013-4c17-8ebb-3b2a9366e817"},"vehicle_type_id":"4","last_reported":1776852630,"current_range_meters":12000,"station_id":"ce4bh3h2rcd13ifvqdn0","pricing_plan_id":"cebpf4jnsgd1na2vs0mg"},{"bike_id":"6efae23b-4853-4978-a046-e2118aa389db","system_id":"levelo_inurba_marseille","lat":43.29477,"lon":5.38227,"is_reserved":false,"is_disabled":false,"rental_uris":{"android":"levelo://app?vid=6efae23b-4853-4978-a046-e2118aa389db","ios":"levelo://app?vid=6efae23b-4853-4978-a046-e2118aa389db"},"vehicle_type_id":"4","last_reported":1776852630,"current_range_meters":12000,"station_id":"","pricing_plan_id":"cebpf4jnsgd1na2vs0mg"},{"bike_id":"2051a548-575d-42c5-a065-3edd896e936a","system_id":"levelo_inurba_marseille","lat":43.25587,"lon":5.38212,"is_reserved":false,"is_disabled":false,"rental_uris":{"android":"levelo://app?vid=2051a548-575d-42c5-a065-3edd896e936a","ios":"levelo://app?vid=2051a548-575d-42c5-a065-3edd896e936a"},"vehicle_type_id":"4","last_reported":1776852630,"current_range_meters":12000,"station_id":"ce4bhih2rcd13ifvqfs0","pricing_plan_id":"cebpf4jnsgd1na2vs0mg"},{"bike_id":"143bf3fc-9aa7-4cae-a415-6f08dbc4d645","system_id":"levelo_inurba_marseille","lat":43.2976,"lon":5.37084,"is_reserved":false,"is_disabled":false,"rental_uris":{"android":"levelo://app?vid=143bf3fc-9aa7-4cae-a415-6f08dbc4d645","ios":"levelo://app?vid=143bf3fc-9aa7-4cae-a415-6f08dbc4d645"},"vehicle_type_id":"4","last_reported":1776852630,"current_range_meters":12400,"station_id":"ce4bgop2rcd13ifvqc1g","pricing_plan_id":"cebpf4jnsgd1na2vs0mg"},{"bike_id":"d631e900-dfa3-4793-ae60-8d1b488cc410","system_id":"levelo_inurba_marseille","lat":43.25106,"lon":5.40317,"is_reserved":false,"is_disabled":false,"rental_uris":{"android":"levelo://app?vid=d631e900-dfa3-4793-ae60-8d1b488cc410","ios":"levelo://app?vid=d631e900-dfa3-4793-ae60-8d1b488cc410"},"vehicle_type_id":"4","last_reported":1776852630,"current_range_meters":12400,"station_id":"ce4bhlh2rcd13ifvqgig","pricing_plan_id":"cebpf4jnsgd1na2vs0mg"},{"bike_id":"05a0ea56-1254-4a06-86da-6c24629017b3","system_id":"levelo_inurba_marseille","lat":43.29914,"lon":5.36495,"is_reserved":false,"is_disabled":false,"rental_uris":{"android":"levelo://app?vid=05a0ea56-1254-4a06-86da-6c24629017b3","ios":"levelo://app?vid=05a0ea56-1254-4a06-86da-6c24629017b3"},"vehicle_type_id":"4","last_reported":1776852630,"current_range_meters":12400,"station_id":"ce4bgm92rcd13ifvqbr0","pricing_plan_id":"cebpf4jnsgd1na2vs0mg"},{"bike_id":"e3b4fd49-4e80-4084-ac93-a72364d5e7c4","system_id":"levelo_inurba_marseille","lat":43.30189,"lon":5.36615,"is_reserved":false,"is_disabled":true,"rental_uris":{"android":"levelo://app?vid=e3b4fd49-4e80-4084-ac93-a72364d5e7c4","ios":"levelo://app?vid=e3b4fd49-4e80-4084-ac93-a72364d5e7c4"},"vehicle_type_id":"4","last_reported":1776852630,"current_range_meters":12400,"station_id":"ce4bgrh2rcd13ifvqc8g","pricing_plan_id":"cebpf4jnsgd1na2vs0mg"},{"bike_id":"ae1a0ce0-3e2e-4cf2-b858-405a12aeabc1","system_id":"levelo_inurba_marseille","lat":43.27084,"lon":5.42283,"is_reserved":false,"is_disabled":false,"rental_uris":{"android":"levelo://app?vid=ae1a0ce0-3e2e-4cf2-b858-405a12aeabc1","ios":"levelo://app?vid=ae1a0ce0-3e2e-4cf2-b858-405a12aeabc1"},"vehicle_type_id":"4","last_reported":1776852630,"current_range_meters":12400,"station_id":"ce4bhk92rcd13ifvqgb0","pricing_plan_id":"cebpf4jnsgd1na2vs0mg"},{"bike_id":"6b8323cd-4eb4-4770-997a-162c1c7a7be3","system_id":"levelo_inurba_marseille","lat":43.30545,"lon":5.38403,"is_reserved":false,"is_disabled":false,"rental_uris":{"android":"levelo://app?vid=6b8323cd-4eb4-4770-997a-162c1c7a7be3","ios":"levelo://app?vid=6b8323cd-4eb4-4770-997a-162c1c7a7be3"},"vehicle_type_id":"4","last_reported":1776852630,"current_range_meters":12400,"station_id":"ce4bgg92rcd13ifvqb30","pricing_plan_id":"cebpf4jnsgd1na2vs0mg"},{"bike_id":"e447e26e-fe69-4852-9ea3-a0199b370d70","system_id":"levelo_inurba_marseille","lat":43.26369,"lon":5.41062,"is_reserved":false,"is_disabled":false,"rental_uris":{"android":"levelo://app?vid=e447e26e-fe69-4852-9ea3-a0199b370d70","ios":"levelo://app?vid=e447e26e-fe69-4852-9ea3-a0199b370d70"},"vehicle_type_id":"4","last_reported":1776852630,"current_range_meters":12400,"station_id":"st_d4e5ca6na9uc73bfl5fg","pricing_plan_id":"cebpf4jnsgd1na2vs0mg"},{"bike_id":"c63bf01f-c8aa-4bd3-9d87-83816deb0a88","system_id":"levelo_inurba_marseille","lat":43.330238,"lon":5.390502,"is_reserved":false,"is_disabled":false,"rental_uris":{"android":"levelo://app?vid=c63bf01f-c8aa-4bd3-9d87-83816deb0a88","ios":"levelo://app?vid=c63bf01f-c8aa-4bd3-9d87-83816deb0a88"},"vehicle_type_id":"4","last_reported":1776852630,"current_range_meters":12400,"station_id":"","pricing_plan_id":"cebpf4jnsgd1na2vs0mg"},{"bike_id":"109cd283-8437-4776-8da8-559461356b84","system_id":"levelo_inurba_marseille","lat":43.31489,"lon":5.37291,"is_reserved":false,"is_disabled":false,"rental_uris":{"android":"levelo://app?vid=109cd283-8437-4776-8da8-559461356b84","ios":"levelo://app?vid=109cd283-8437-4776-8da8-559461356b84"},"vehicle_type_id":"4","last_reported":1776852630,"current_range_meters":12400,"station_id":"ce4bgt12rcd13ifvqcd0","pricing_plan_id":"cebpf4jnsgd1na2vs0mg"},{"bike_id":"7db8e5f3-3982-4808-8fb4-746a2f23f4b1","system_id":"levelo_inurba_marseille","lat":43.29342,"lon":5.4389,"is_reserved":false,"is_disabled":false,"rental_uris":{"android":"levelo://app?vid=7db8e5f3-3982-4808-8fb4-746a2f23f4b1","ios":"levelo://app?vid=7db8e5f3-3982-4808-8fb4-746a2f23f4b1"},"vehicle_type_id":"4","last_reported":1776852630,"current_range_meters":12800,"station_id":"","pricing_plan_id":"cebpf4jnsgd1na2vs0mg"},{"bike_id":"cd285a54-80e5-426d-b421-a3c7298e7154","system_id":"levelo_inurba_marseille","lat":43.30571,"lon":5.38419,"is_reserved":false,"is_disabled":false,"rental_uris":{"android":"levelo://app?vid=cd285a54-80e5-426d-b421-a3c7298e7154","ios":"levelo://app?vid=cd285a54-80e5-426d-b421-a3c7298e7154"},"vehicle_type_id":"4","last_reported":1776852630,"current_range_meters":12800,"station_id":"ce4bgg92rcd13ifvqb30","pricing_plan_id":"cebpf4jnsgd1na2vs0mg"},{"bike_id":"9c2266e2-c638-40ee-997a-17f26690daf5","system_id":"levelo_inurba_marseille","lat":43.25114,"lon":5.40346,"is_reserved":false,"is_disabled":false,"rental_uris":{"android":"levelo://app?vid=9c2266e2-c638-40ee-997a-17f26690daf5","ios":"levelo://app?vid=9c2266e2-c638-40ee-997a-17f26690daf5"},"vehicle_type_id":"4","last_reported":1776852630,"current_range_meters":12800,"station_id":"ce4bhlh2rcd13ifvqgig","pricing_plan_id":"cebpf4jnsgd1na2vs0mg"},{"bike_id":"299de186-8ca3-4383-9d50-73201c21bf7d","system_id":"levelo_inurba_marseille","lat":43.30778,"lon":5.37651,"is_reserved":false,"is_disabled":false,"rental_uris":{"android":"levelo://app?vid=299de186-8ca3-4383-9d50-73201c21bf7d","ios":"levelo://app?vid=299de186-8ca3-4383-9d50-73201c21bf7d"},"vehicle_type_id":"4","last_reported":1776852630,"current_range_meters":12800,"station_id":"ce4bgv92rcd13ifvqcq0","pricing_plan_id":"cebpf4jnsgd1na2vs0mg"},{"bike_id":"07af0fc0-5c2c-490f-8109-3b4d1d294a59","system_id":"levelo_inurba_marseille","lat":43.24147,"lon":5.39706,"is_reserved":false,"is_disabled":false,"rental_uris":{"android":"levelo://app?vid=07af0fc0-5c2c-490f-8109-3b4d1d294a59","ios":"levelo://app?vid=07af0fc0-5c2c-490f-8109-3b4d1d294a59"},"vehicle_type_id":"4","last_reported":1776852630,"current_range_meters":12800,"station_id":"ce4bhn12rcd13ifvqgpg","pricing_plan_id":"cebpf4jnsgd1na2vs0mg"},{"bike_id":"5b58d0ab-93da-4de4-afce-441320c4e75a","system_id":"levelo_inurba_marseille","lat":43.30574,"lon":5.36546,"is_reserved":false,"is_disabled":false,"rental_uris":{"android":"levelo://app?vid=5b58d0ab-93da-4de4-afce-441320c4e75a","ios":"levelo://app?vid=5b58d0ab-93da-4de4-afce-441320c4e75a"},"vehicle_type_id":"4","last_reported":1776852630,"current_range_meters":12800,"station_id":"ce4bgs12rcd13ifvqcag","pricing_plan_id":"cebpf4jnsgd1na2vs0mg"},{"bike_id":"3acd42bc-5d52-4bb4-8ca2-3fdc69d705f4","system_id":"levelo_inurba_marseille","lat":43.30544,"lon":5.36708,"is_reserved":false,"is_disabled":false,"rental_uris":{"android":"levelo://app?vid=3acd42bc-5d52-4bb4-8ca2-3fdc69d705f4","ios":"levelo://app?vid=3acd42bc-5d52-4bb4-8ca2-3fdc69d705f4"},"vehicle_type_id":"4","last_reported":1776852630,"current_range_meters":12800,"station_id":"ce4bgrp2rcd13ifvqc9g","pricing_plan_id":"cebpf4jnsgd1na2vs0mg"},{"bike_id":"e39b2d53-d713-4e3c-9016-eb8f6f0d7811","system_id":"levelo_inurba_marseille","lat":43.2998,"lon":5.38502,"is_reserved":false,"is_disabled":false,"rental_uris":{"android":"levelo://app?vid=e39b2d53-d713-4e3c-9016-eb8f6f0d7811","ios":"levelo://app?vid=e39b2d53-d713-4e3c-9016-eb8f6f0d7811"},"vehicle_type_id":"4","last_reported":1776852630,"current_range_meters":12800,"station_id":"ce4bgj92rcd13ifvqbd0","pricing_plan_id":"cebpf4jnsgd1na2vs0mg"},{"bike_id":"3d887139-fed5-46c6-9043-d7638647cd8f","system_id":"levelo_inurba_marseille","lat":43.25118,"lon":5.40312,"is_reserved":false,"is_disabled":false,"rental_uris":{"android":"levelo://app?vid=3d887139-fed5-46c6-9043-d7638647cd8f","ios":"levelo://app?vid=3d887139-fed5-46c6-9043-d7638647cd8f"},"vehicle_type_id":"4","last_reported":1776852630,"current_range_meters":12800,"station_id":"ce4bhlh2rcd13ifvqgig","pricing_plan_id":"cebpf4jnsgd1na2vs0mg"},{"bike_id":"0d92b367-f5b2-46f2-a799-2ed212a6ebea","system_id":"levelo_inurba_marseille","lat":43.24657,"lon":5.43141,"is_reserved":false,"is_disabled":false,"rental_uris":{"android":"levelo://app?vid=0d92b367-f5b2-46f2-a799-2ed212a6ebea","ios":"levelo://app?vid=0d92b367-f5b2-46f2-a799-2ed212a6ebea"},"vehicle_type_id":"4","last_reported":1776852630,"current_range_meters":12800,"station_id":"st_d2m6c4gdas8pm72e190g","pricing_plan_id":"cebpf4jnsgd1na2vs0mg"},{"bike_id":"aa95c0f3-f393-4b68-86c4-5318c9d5e2fa","system_id":"levelo_inurba_marseille","lat":43.30554,"lon":5.38415,"is_reserved":false,"is_disabled":false,"rental_uris":{"android":"levelo://app?vid=aa95c0f3-f393-4b68-86c4-5318c9d5e2fa","ios":"levelo://app?vid=aa95c0f3-f393-4b68-86c4-5318c9d5e2fa"},"vehicle_type_id":"4","last_reported":1776852630,"current_range_meters":12800,"station_id":"ce4bgg92rcd13ifvqb30","pricing_plan_id":"cebpf4jnsgd1na2vs0mg"},{"bike_id":"ccf9364e-5060-405b-9427-da49c47aa005","system_id":"levelo_inurba_marseille","lat":43.33165,"lon":5.37663,"is_reserved":false,"is_disabled":false,"rental_uris":{"android":"levelo://app?vid=ccf9364e-5060-405b-9427-da49c47aa005","ios":"levelo://app?vid=ccf9364e-5060-405b-9427-da49c47aa005"},"vehicle_type_id":"4","last_reported":1776852630,"current_range_meters":13600,"station_id":"st_d46cu089ee8s73dldbu0","pricing_plan_id":"cebpf4jnsgd1na2vs0mg"},{"bike_id":"78b21494-130d-4b55-89f7-03ae5d7b6f59","system_id":"levelo_inurba_marseille","lat":43.29711,"lon":5.36612,"is_reserved":false,"is_disabled":false,"rental_uris":{"android":"levelo://app?vid=78b21494-130d-4b55-89f7-03ae5d7b6f59","ios":"levelo://app?vid=78b21494-130d-4b55-89f7-03ae5d7b6f59"},"vehicle_type_id":"4","last_reported":1776852630,"current_range_meters":13600,"station_id":"ce4bgn12rcd13ifvqbt0","pricing_plan_id":"cebpf4jnsgd1na2vs0mg"},{"bike_id":"60892342-f534-4f6e-9175-cb3c08b4f303","system_id":"levelo_inurba_marseille","lat":43.2418,"lon":5.39735,"is_reserved":false,"is_disabled":false,"rental_uris":{"android":"levelo://app?vid=60892342-f534-4f6e-9175-cb3c08b4f303","ios":"levelo://app?vid=60892342-f534-4f6e-9175-cb3c08b4f303"},"vehicle_type_id":"4","last_reported":1776852630,"current_range_meters":13600,"station_id":"ce4bhn12rcd13ifvqgpg","pricing_plan_id":"cebpf4jnsgd1na2vs0mg"},{"bike_id":"b10e388b-a119-4b7b-87b2-c9ca007b4026","system_id":"levelo_inurba_marseille","lat":43.32603,"lon":5.35893,"is_reserved":false,"is_disabled":false,"rental_uris":{"android":"levelo://app?vid=b10e388b-a119-4b7b-87b2-c9ca007b4026","ios":"levelo://app?vid=b10e388b-a119-4b7b-87b2-c9ca007b4026"},"vehicle_type_id":"4","last_reported":1776852630,"current_range_meters":13600,"station_id":"","pricing_plan_id":"cebpf4jnsgd1na2vs0mg"},{"bike_id":"ed6c751d-11aa-4980-9be5-d32dd24768fe","system_id":"levelo_inurba_marseille","lat":43.33181,"lon":5.37677,"is_reserved":false,"is_disabled":false,"rental_uris":{"android":"levelo://app?vid=ed6c751d-11aa-4980-9be5-d32dd24768fe","ios":"levelo://app?vid=ed6c751d-11aa-4980-9be5-d32dd24768fe"},"vehicle_type_id":"4","last_reported":1776852630,"current_range_meters":13600,"station_id":"st_d46cu089ee8s73dldbu0","pricing_plan_id":"cebpf4jnsgd1na2vs0mg"},{"bike_id":"be3fb69e-f5f0-48c0-b2f7-a275d9255455","system_id":"levelo_inurba_marseille","lat":43.30194,"lon":5.36611,"is_reserved":false,"is_disabled":false,"rental_uris":{"android":"levelo://app?vid=be3fb69e-f5f0-48c0-b2f7-a275d9255455","ios":"levelo://app?vid=be3fb69e-f5f0-48c0-b2f7-a275d9255455"},"vehicle_type_id":"4","last_reported":1776852630,"current_range_meters":13600,"station_id":"ce4bgrh2rcd13ifvqc8g","pricing_plan_id":"cebpf4jnsgd1na2vs0mg"},{"bike_id":"35a9c97c-b85e-449d-99bb-1116c761abbd","system_id":"levelo_inurba_marseille","lat":43.32361,"lon":5.36743,"is_reserved":false,"is_disabled":false,"rental_uris":{"android":"levelo://app?vid=35a9c97c-b85e-449d-99bb-1116c761abbd","ios":"levelo://app?vid=35a9c97c-b85e-449d-99bb-1116c761abbd"},"vehicle_type_id":"4","last_reported":1776852630,"current_range_meters":13600,"station_id":"ce4bhsh2rcd13ifvqi2g","pricing_plan_id":"cebpf4jnsgd1na2vs0mg"},{"bike_id":"12239090-857c-4622-9fe8-2dffc739322c","system_id":"levelo_inurba_marseille","lat":43.27494,"lon":5.4244,"is_reserved":false,"is_disabled":false,"rental_uris":{"android":"levelo://app?vid=12239090-857c-4622-9fe8-2dffc739322c","ios":"levelo://app?vid=12239090-857c-4622-9fe8-2dffc739322c"},"vehicle_type_id":"4","last_reported":1776852630,"current_range_meters":13600,"station_id":"ce4bhn92rcd13ifvqgrg","pricing_plan_id":"cebpf4jnsgd1na2vs0mg"},