{"last_updated":1742998234,"ttl":60,"version":"2.2","data":{"bikes":[{"bike_id":"2c82882e-febc-42a7-9e87-06a149c85b57","system_id":"levelo_inurba_marseille","lat":43.30308,"lon":5.36911,"is_reserved":false,"is_disabled":false,"rental_uris":{"android":"levelo://app?vid=2c82882e-febc-42a7-9e87-06a149c85b57","ios":"levelo://app?vid=2c82882e-febc-42a7-9e87-06a149c85b57"},"vehicle_type_id":"4","last_reported":1742998234,"current_range_meters":2800,"station_id":"ce4bgqh2rcd13ifvqc5g","pricing_plan_id":"cebpf4jnsgd1na2vs0mg"},{"bike_id":"a83d2307-e4c7-4a85-8698-7c634d4aa616","system_id":"levelo_inurba_marseille","lat":43.28076,"lon":5.39663,"is_reserved":false,"is_disabled":false,"rental_uris":{"android":"levelo://app?vid=a83d2307-e4c7-4a85-8698-7c634d4aa616","ios":"levelo://app?vid=a83d2307-e4c7-4a85-8698-7c634d4aa616"},"vehicle_type_id":"4","last_reported":1742998234,"current_range_meters":2800,"station_id":"ce4bho12rcd13ifvqh2g","pricing_plan_id":"cebpf4jnsgd1na2vs0mg"},{"bike_id":"8cf47f8a-0d0f-4d1e-960b-687b712e3a1f","system_id":"levelo_inurba_marseille","lat":43.309372,"lon":5.396488,"is_reserved":false,"is_disabled":false,"rental_uris":{"android":"levelo://app?vid=8cf47f8a-0d0f-4d1e-960b-687b712e3a1f","ios":"levelo://app?vid=8cf47f8a-0d0f-4d1e-960b-687b712e3a1f"},"vehicle_type_id":"4","last_reported":1742998234,"current_range_meters":3200,"station_id":"ce4bh012rcd13ifvqcv0","pricing_plan_id":"cebpf4jnsgd1na2vs0mg"},{"bike_id":"05693afd-7e6a-4eb8-9ac3-b617840b700a","system_id":"levelo_inurba_marseille","lat":43.2407,"lon":5.37766,"is_reserved":false,"is_disabled":false,"rental_uris":{"android":"levelo://app?vid=05693afd-7e6a-4eb8-9ac3-b617840b700a","ios":"levelo://app?vid=05693afd-7e6a-4eb8-9ac3-b617840b700a"},"vehicle_type_id":"4","last_reported":1742998234,"current_range_meters":3200,"station_id":"ce4bhnp2rcd13ifvqgvg","pricing_plan_id":"cebpf4jnsgd1na2vs0mg"},{"bike_id":"02c642d0-bab7-4205-b1fb-4419adeb4af1","system_id":"levelo_inurba_marseille","lat":43.29042,"lon":5.356,"is_reserved":false,"is_disabled":true,"rental_uris":{"android":"levelo://app?vid=02c642d0-bab7-4205-b1fb-4419adeb4af1","ios":"levelo://app?vid=02c642d0-bab7-4205-b1fb-4419adeb4af1"},"vehicle_type_id":"4","last_reported":1742998234,"current_range_meters":3200,"station_id":"","pricing_plan_id":"cebpf4jnsgd1na2vs0mg"},{"bike_id":"e478d5ff-5228-4fc3-8cb3-b9572ffc9059","system_id":"levelo_inurba_marseille","lat":43.28034,"lon":5.36949,"is_reserved":false,"is_disabled":false,"rental_uris":{"android":"levelo://app?vid=e478d5ff-5228-4fc3-8cb3-b9572ffc9059","ios":"levelo://app?vid=e478d5ff-5228-4fc3-8cb3-b9572ffc9059"},"vehicle_type_id":"4","last_reported":1742998234,"current_range_meters":3600,"station_id":"ce4bha12rcd13ifvqef0","pricing_plan_id":"cebpf4jnsgd1na2vs0mg"},{"bike_id":"2b687f82-373b-40ae-a229-dc921ae13fc3","system_id":"levelo_inurba_marseille","lat":43.29024,"lon":5.38648,"is_reserved":false,"is_disabled":false,"rental_uris":{"android":"levelo://app?vid=2b687f82-373b-40ae-a229-dc921ae13fc3","ios":"levelo://app?vid=2b687f82-373b-40ae-a229-dc921ae13fc3"},"vehicle_type_id":"4","last_reported":1742998234,"current_range_meters":3600,"station_id":"ce4bh4p2rcd13ifvqe0g","pricing_plan_id":"cebpf4jnsgd1na2vs0mg"},{"bike_id":"e1ee3aa7-9b34-4529-8338-dfd8425a5eb6","system_id":"levelo_inurba_marseille","lat":43.26776,"lon":5.39427,"is_reserved":false,"is_disabled":false,"rental_uris":{"android":"levelo://app?vid=e1ee3aa7-9b34-4529-8338-dfd8425a5eb6","ios":"levelo://app?vid=e1ee3aa7-9b34-4529-8338-dfd8425a5eb6"},"vehicle_type_id":"4","last_reported":1742998234,"current_range_meters":3600,"station_id":"ce4bhh12rcd13ifvqfg0","pricing_plan_id":"cebpf4jnsgd1na2vs0mg"},{"bike_id":"48fb31a8-b84c-4381-8d46-377e59e64c65","system_id":"levelo_inurba_marseille","lat":43.31346,"lon":5.37935,"is_reserved":false,"is_disabled":true,"rental_uris":{"android":"levelo://app?vid=48fb31a8-b84c-4381-8d46-377e59e64c65","ios":"levelo://app?vid=48fb31a8-b84c-4381-8d46-377e59e64c65"},"vehicle_type_id":"4","last_reported":1742998234,"current_range_meters":3600,"station_id":"","pricing_plan_id":"cebpf4jnsgd1na2vs0mg"},{"bike_id":"0730edc8-5fc9-4572-8593-a12a3caf01f7","system_id":"levelo_inurba_marseille","lat":43.29924,"lon":5.36522,"is_reserved":false,"is_disabled":false,"rental_uris":{"android":"levelo://app?vid=0730edc8-5fc9-4572-8593-a12a3caf01f7","ios":"levelo://app?vid=0730edc8-5fc9-4572-8593-a12a3caf01f7"},"vehicle_type_id":"4","last_reported":1742998234,"current_range_meters":3600,"station_id":"ce4bgm92rcd13ifvqbr0","pricing_plan_id":"cebpf4jnsgd1na2vs0mg"},{"bike_id":"49a77b57-0e61-4a5d-bd8d-3f7e3a8cf2fb","system_id":"levelo_inurba_marseille","lat":43.27438,"lon":5.39442,"is_reserved":false,"is_disabled":true,"rental_uris":{"android":"levelo://app?vid=49a77b57-0e61-4a5d-bd8d-3f7e3a8cf2fb","ios":"levelo://app?vid=49a77b57-0e61-4a5d-bd8d-3f7e3a8cf2fb"},"vehicle_type_id":"4","last_reported":1742998234,"current_range_meters":4000,"station_id":"ce4bhdp2rcd13ifvqf20","pricing_plan_id":"cebpf4jnsgd1na2vs0mg"},{"bike_id":"a0d4632a-7a87-4031-aeeb-061ca0feaca6","system_id":"levelo_inurba_marseille","lat":43.23961,"lon":5.3663,"is_reserved":false,"is_disabled":false,"rental_uris":{"android":"levelo://app?vid=a0d4632a-7a87-4031-aeeb-061ca0feaca6","ios":"levelo://app?vid=a0d4632a-7a87-4031-aeeb-061ca0feaca6"},"vehicle_type_id":"4","last_reported":1742998234,"current_range_meters":4000,"station_id":"ce4bhi12rcd13ifvqfp0","pricing_plan_id":"cebpf4jnsgd1na2vs0mg"},{"bike_id":"4d6d8a3e-5cdb-4d7b-bbad-abcfee7897a7","system_id":"levelo_inurba_marseille","lat":43.28034,"lon":5.3695,"is_reserved":false,"is_disabled":false,"rental_uris":{"android":"levelo://app?vid=4d6d8a3e-5cdb-4d7b-bbad-abcfee7897a7","ios":"levelo://app?vid=4d6d8a3e-5cdb-4d7b-bbad-abcfee7897a7"},"vehicle_type_id":"4","last_reported":1742998234,"current_range_meters":4000,"station_id":"ce4bha12rcd13ifvqef0","pricing_plan_id":"cebpf4jnsgd1na2vs0mg"},{"bike_id":"24085f34-05bd-4b7a-8394-6d0759c976a2","system_id":"levelo_inurba_marseille","lat":43.33021,"lon":5.39037,"is_reserved":false,"is_disabled":false,"rental_uris":{"android":"levelo://app?vid=24085f34-05bd-4b7a-8394-6d0759c976a2","ios":"levelo://app?vid=24085f34-05bd-4b7a-8394-6d0759c976a2"},"vehicle_type_id":"4","last_reported":1742998234,"current_range_meters":4000,"station_id":"ce4bhr92rcd13ifvqhrg","pricing_plan_id":"cebpf4jnsgd1na2vs0mg"},{"bike_id":"66f69882-9bc0-4f69-af42-1e4faa3ed134","system_id":"levelo_inurba_marseille","lat":43.29897,"lon":5.43672,"is_reserved":false,"is_disabled":false,"rental_uris":{"android":"levelo://app?vid=66f69882-9bc0-4f69-af42-1e4faa3ed134","ios":"levelo://app?vid=66f69882-9bc0-4f69-af42-1e4faa3ed134"},"vehicle_type_id":"4","last_reported":1742998234,"current_range_meters":4400,"station_id":"ce4bhpp2rcd13ifvqhfg","pricing_plan_id":"cebpf4jnsgd1na2vs0mg"},{"bike_id":"6e38dec4-9f97-48ce-aeaf-8ff8c2a020e9","system_id":"levelo_inurba_marseille","lat":43.25924,"lon":5.40905,"is_reserved":false,"is_disabled":false,"rental_uris":{"android":"levelo://app?vid=6e38dec4-9f97-48ce-aeaf-8ff8c2a020e9","ios":"levelo://app?vid=6e38dec4-9f97-48ce-aeaf-8ff8c2a020e9"},"vehicle_type_id":"4","last_reported":1742998234,"current_range_meters":4400,"station_id":"ce4bhm92rcd13ifvqglg","pricing_plan_id":"cebpf4jnsgd1na2vs0mg"},{"bike_id":"e3162120-725a-4663-8148-e797ab7d76d4","system_id":"levelo_inurba_marseille","lat":43.30419,"lon":5.36998,"is_reserved":false,"is_disabled":false,"rental_uris":{"android":"levelo://app?vid=e3162120-725a-4663-8148-e797ab7d76d4","ios":"levelo://app?vid=e3162120-725a-4663-8148-e797ab7d76d4"},"vehicle_type_id":"4","last_reported":1742998234,"current_range_meters":4400,"station_id":"","pricing_plan_id":"cebpf4jnsgd1na2vs0mg"},{"bike_id":"85f740ce-b25c-4f01-a4d0-1cb1211ec32c","system_id":"levelo_inurba_marseille","lat":43.27107,"lon":5.40888,"is_reserved":false,"is_disabled":false,"rental_uris":{"android":"levelo://app?vid=85f740ce-b25c-4f01-a4d0-1cb1211ec32c","ios":"levelo://app?vid=85f740ce-b25c-4f01-a4d0-1cb1211ec32c"},"vehicle_type_id":"4","last_reported":1742998234,"current_range_meters":4400,"station_id":"","pricing_plan_id":"cebpf4jnsgd1na2vs0mg"},{"bike_id":"e496e251-dce7-493c-8409-0f453662741f","system_id":"levelo_inurba_marseille","lat":43.24178,"lon":5.39735,"is_reserved":false,"is_disabled":false,"rental_uris":{"android":"levelo://app?vid=e496e251-dce7-493c-8409-0f453662741f","ios":"levelo://app?vid=e496e251-dce7-493c-8409-0f453662741f"},"vehicle_type_id":"4","last_reported":1742998234,"current_range_meters":4400,"station_id":"ce4bhn12rcd13ifvqgpg","pricing_plan_id":"cebpf4jnsgd1na2vs0mg"},{"bike_id":"c1f97478-5242-4a1f-acf8-c4d848d79cea","system_id":"levelo_inurba_marseille","lat":43.29269,"lon":5.37652,"is_reserved":false,"is_disabled":false,"rental_uris":{"android":"levelo://app?vid=c1f97478-5242-4a1f-acf8-c4d848d79cea","ios":"levelo://app?vid=c1f97478-5242-4a1f-acf8-c4d848d79cea"},"vehicle_type_id":"4","last_reported":1742998234,"current_range_meters":4400,"station_id":"ce4bgi12rcd13ifvqb80","pricing_plan_id":"cebpf4jnsgd1na2vs0mg"},{"bike_id":"8e2b8c0a-a008-424a-ab55-0a4f53ab0308","system_id":"levelo_inurba_marseille","lat":43.298531,"lon":5.383318,"is_reserved":false,"is_disabled":false,"rental_uris":{"android":"levelo://app?vid=8e2b8c0a-a008-424a-ab55-0a4f53ab0308","ios":"levelo://app?vid=8e2b8c0a-a008-424a-ab55-0a4f53ab0308"},"vehicle_type_id":"4","last_reported":1742998234,"current_range_meters":4400,"station_id":"ce4bgj92rcd13ifvqbd0","pricing_plan_id":"cebpf4jnsgd1na2vs0mg"},{"bike_id":"6bd88d55-6d53-438a-91e9-61eab3df29d7","system_id":"levelo_inurba_marseille","lat":43.305239,"lon":5.365684,"is_reserved":false,"is_disabled":false,"rental_uris":{"android":"levelo://app?vid=6bd88d55-6d53-438a-91e9-61eab3df29d7","ios":"levelo://app?vid=6bd88d55-6d53-438a-91e9-61eab3df29d7"},"vehicle_type_id":"4","last_reported":1742998234,"current_range_meters":4400,"station_id":"ce4bgs12rcd13ifvqcag","pricing_plan_id":"cebpf4jnsgd1na2vs0mg"},{"bike_id":"a3615d32-576f-402c-9e8f-1ab7f44ce1fc","system_id":"levelo_inurba_marseille","lat":43.26216,"lon":5.37447,"is_reserved":false,"is_disabled":false,"rental_uris":{"android":"levelo://app?vid=a3615d32-576f-402c-9e8f-1ab7f44ce1fc","ios":"levelo://app?vid=a3615d32-576f-402c-9e8f-1ab7f44ce1fc"},"vehicle_type_id":"4","last_reported":1742998234,"current_range_meters":4400,"station_id":"ce4bhgp2rcd13ifvqfc0","pricing_plan_id":"cebpf4jnsgd1na2vs0mg"},{"bike_id":"f3223e47-c1a4-40d3-b276-f1b49a83a5ca","system_id":"levelo_inurba_marseille","lat":43.26026,"lon":5.37562,"is_reserved":false,"is_disabled":false,"rental_uris":{"android":"levelo://app?vid=f3223e47-c1a4-40d3-b276-f1b49a83a5ca","ios":"levelo://app?vid=f3223e47-c1a4-40d3-b276-f1b49a83a5ca"},"vehicle_type_id":"4","last_reported":1742998234,"current_range_meters":4400,"station_id":"ce4bhgh2rcd13ifvqfa0","pricing_plan_id":"cebpf4jnsgd1na2vs0mg"},{"bike_id":"b25b1667-115a-4160-a4d3-d77d2861bfeb","system_id":"levelo_inurba_marseille","lat":43.274461,"lon":5.361199,"is_reserved":false,"is_disabled":false,"rental_uris":{"android":"levelo://app?vid=b25b1667-115a-4160-a4d3-d77d2861bfeb","ios":"levelo://app?vid=b25b1667-115a-4160-a4d3-d77d2861bfeb"},"vehicle_type_id":"4","last_reported":1742998234,"current_range_meters":4800,"station_id":"ce4bhb92rcd13ifvqen0","pricing_plan_id":"cebpf4jnsgd1na2vs0mg"},{"bike_id":"67b2c6e5-2f47-40cc-8a0e-7f6e49240f3d","system_id":"levelo_inurba_marseille","lat":43.26551,"lon":5.37288,"is_reserved":false,"is_disabled":false,"rental_uris":{"android":"levelo://app?vid=67b2c6e5-2f47-40cc-8a0e-7f6e49240f3d","ios":"levelo://app?vid=67b2c6e5-2f47-40cc-8a0e-7f6e49240f3d"},"vehicle_type_id":"4","last_reported":1742998234,"current_range_meters":4800,"station_id":"ce4bhg12rcd13ifvqf70","pricing_plan_id":"cebpf4jnsgd1na2vs0mg"},{"bike_id":"baf54f68-2ee3-4016-951c-6d2104656a49","system_id":"levelo_inurba_marseille","lat":43.26546,"lon":5.3728,"is_reserved":false,"is_disabled":false,"rental_uris":{"android":"levelo://app?vid=baf54f68-2ee3-4016-951c-6d2104656a49","ios":"levelo://app?vid=baf54f68-2ee3-4016-951c-6d2104656a49"},"vehicle_type_id":"4","last_reported":1742998234,"current_range_meters":4800,"station_id":"ce4bhg12rcd13ifvqf70","pricing_plan_id":"cebpf4jnsgd1na2vs0mg"},{"bike_id":"50a7d87c-f84b-4d68-8960-e8e601955e15","system_id":"levelo_inurba_marseille","lat":43.28469,"lon":5.38426,"is_reserved":false,"is_disabled":false,"rental_uris":{"android":"levelo://app?vid=50a7d87c-f84b-4d68-8960-e8e601955e15","ios":"levelo://app?vid=50a7d87c-f84b-4d68-8960-e8e601955e15"},"vehicle_type_id":"4","last_reported":1742998234,"current_range_meters":4800,"station_id":"ce4bh512rcd13ifvqe3g","pricing_plan_id":"cebpf4jnsgd1na2vs0mg"},{"bike_id":"661ad638-f20a-4099-990d-7e316fc20bf4","system_id":"levelo_inurba_marseille","lat":43.26942,"lon":5.40246,"is_reserved":false,"is_disabled":false,"rental_uris":{"android":"levelo://app?vid=661ad638-f20a-4099-990d-7e316fc20bf4","ios":"levelo://app?vid=661ad638-f20a-4099-990d-7e316fc20bf4"},"vehicle_type_id":"4","last_reported":1742998234,"current_range_meters":4800,"station_id":"cjm6bp8fraef2m0cb0m0","pricing_plan_id":"cebpf4jnsgd1na2vs0mg"},{"bike_id":"d9f7d8be-9425-4103-9342-1eabe2318a05","system_id":"levelo_inurba_marseille","lat":43.26678,"lon":5.38273,"is_reserved":false,"is_disabled":false,"rental_uris":{"android":"levelo://app?vid=d9f7d8be-9425-4103-9342-1eabe2318a05","ios":"levelo://app?vid=d9f7d8be-9425-4103-9342-1eabe2318a05"},"vehicle_type_id":"4","last_reported":1742998234,"current_range_meters":5600,"station_id":"ce4bhg92rcd13ifvqf90","pricing_plan_id":"cebpf4jnsgd1na2vs0mg"},{"bike_id":"0c9cada4-2764-4013-a528-15089818cb84","system_id":"levelo_inurba_marseille","lat":43.27754,"lon":5.4119,"is_reserved":false,"is_disabled":false,"rental_uris":{"android":"levelo://app?vid=0c9cada4-2764-4013-a528-15089818cb84","ios":"levelo://app?vid=0c9cada4-2764-4013-a528-15089818cb84"},"vehicle_type_id":"4","last_reported":1742998234,"current_range_meters":5600,"station_id":"","pricing_plan_id":"cebpf4jnsgd1na2vs0mg"},{"bike_id":"7d354833-0cc9-49e9-b699-c8053c5b4d7a","system_id":"levelo_inurba_marseille","lat":43.2572,"lon":5.41141,"is_reserved":false,"is_disabled":false,"rental_uris":{"android":"levelo://app?vid=7d354833-0cc9-49e9-b699-c8053c5b4d7a","ios":"levelo://app?vid=7d354833-0cc9-49e9-b699-c8053c5b4d7a"},"vehicle_type_id":"4","last_reported":1742998234,"current_range_meters":5600,"station_id":"ce4bhkp2rcd13ifvqgd0","pricing_plan_id":"cebpf4jnsgd1na2vs0mg"},{"bike_id":"2a99ecb7-4bf0-4c00-89bb-11ff019b8a6d","system_id":"levelo_inurba_marseille","lat":43.22927,"lon":5.354,"is_reserved":false,"is_disabled":false,"rental_uris":{"android":"levelo://app?vid=2a99ecb7-4bf0-4c00-89bb-11ff019b8a6d","ios":"levelo://app?vid=2a99ecb7-4bf0-4c00-89bb-11ff019b8a6d"},"vehicle_type_id":"4","last_reported":1742998234,"current_range_meters":6000,"station_id":"cpo3532slgdg3j2ikp40","pricing_plan_id":"cebpf4jnsgd1na2vs0mg"},{"bike_id":"c27804bd-f22b-4f5e-b0b6-7240b2cee169","system_id":"levelo_inurba_marseille","lat":43.279474,"lon":5.410424,"is_reserved":false,"is_disabled":false,"rental_uris":{"android":"levelo://app?vid=c27804bd-f22b-4f5e-b0b6-7240b2cee169","ios":"levelo://app?vid=c27804bd-f22b-4f5e-b0b6-7240b2cee169"},"vehicle_type_id":"4","last_reported":1742998234,"current_range_meters":6000,"station_id":"ce4bhnp2rcd13ifvqh0g","pricing_plan_id":"cebpf4jnsgd1na2vs0mg"},{"bike_id":"e23e82d7-4130-4234-9a4f-a359cbc4cdd5","system_id":"levelo_inurba_marseille","lat":43.26207,"lon":5.37446,"is_reserved":false,"is_disabled":false,"rental_uris":{"android":"levelo://app?vid=e23e82d7-4130-4234-9a4f-a359cbc4cdd5","ios":"levelo://app?vid=e23e82d7-4130-4234-9a4f-a359cbc4cdd5"},"vehicle_type_id":"4","last_reported":1742998234,"current_range_meters":6000,"station_id":"ce4bhgp2rcd13ifvqfc0","pricing_plan_id":"cebpf4jnsgd1na2vs0mg"},{"bike_id":"6e52aca7-231f-4b5a-aafb-2b87d67b4bcc","system_id":"levelo_inurba_marseille","lat":43.3053,"lon":5.36712,"is_reserved":false,"is_disabled":false,"rental_uris":{"android":"levelo://app?vid=6e52aca7-231f-4b5a-aafb-2b87d67b4bcc","ios":"levelo://app?vid=6e52aca7-231f-4b5a-aafb-2b87d67b4bcc"},"vehicle_type_id":"4","last_reported":1742998234,"current_range_meters":6400,"station_id":"ce4bgrp2rcd13ifvqc9g","pricing_plan_id":"cebpf4jnsgd1na2vs0mg"},{"bike_id":"2f3e2a92-1301-4a27-8eaa-7b0ea525530e","system_id":"levelo_inurba_marseille","lat":43.31689,"lon":5.4372,"is_reserved":false,"is_disabled":false,"rental_uris":{"android":"levelo://app?vid=2f3e2a92-1301-4a27-8eaa-7b0ea525530e","ios":"levelo://app?vid=2f3e2a92-1301-4a27-8eaa-7b0ea525530e"},"vehicle_type_id":"4","last_reported":1742998234,"current_range_meters":6400,"station_id":"ce4bhp92rcd13ifvqhcg","pricing_plan_id":"cebpf4jnsgd1na2vs0mg"},{"bike_id":"ae64d049-3c54-4b63-a552-b1e07d06f548","system_id":"levelo_inurba_marseille","lat":43.25727,"lon":5.41122,"is_reserved":false,"is_disabled":false,"rental_uris":{"android":"levelo://app?vid=ae64d049-3c54-4b63-a552-b1e07d06f548","ios":"levelo://app?vid=ae64d049-3c54-4b63-a552-b1e07d06f548"},"vehicle_type_id":"4","last_reported":1742998234,"current_range_meters":6400,"station_id":"ce4bho12rcd13ifvqh1g","pricing_plan_id":"cebpf4jnsgd1na2vs0mg"},{"bike_id":"840fb192-69e3-4613-b6a3-72720d83f889","system_id":"levelo_inurba_marseille","lat":43.27112,"lon":5.40893,"is_reserved":false,"is_disabled":false,"rental_uris":{"android":"levelo://app?vid=840fb192-69e3-4613-b6a3-72720d83f889","ios":"levelo://app?vid=840fb192-69e3-4613-b6a3-72720d83f889"},"vehicle_type_id":"4","last_reported":1742998234,"current_range_meters":6800,"station_id":"","pricing_plan_id":"cebpf4jnsgd1na2vs0mg"},{"bike_id":"deda5dfb-ddae-4c30-bbae-638ff01b6b78","system_id":"levelo_inurba_marseille","lat":43.31713,"lon":5.43712,"is_reserved":false,"is_disabled":false,"rental_uris":{"android":"levelo://app?vid=deda5dfb-ddae-4c30-bbae-638ff01b6b78","ios":"levelo://app?vid=deda5dfb-ddae-4c30-bbae-638ff01b6b78"},"vehicle_type_id":"4","last_reported":1742998234,"current_range_meters":6800,"station_id":"ce4bhp92rcd13ifvqhcg","pricing_plan_id":"cebpf4jnsgd1na2vs0mg"},{"bike_id":"396e621e-be7b-4208-9641-171ffc686ba2","system_id":"levelo_inurba_marseille","lat":43.29557,"lon":5.42294,"is_reserved":false,"is_disabled":false,"rental_uris":{"android":"levelo://app?vid=396e621e-be7b-4208-9641-171ffc686ba2","ios":"levelo://app?vid=396e621e-be7b-4208-9641-171ffc686ba2"},"vehicle_type_id":"4","last_reported":1742998234,"current_range_meters":6800,"station_id":"ce4bhph2rcd13ifvqhdg","pricing_plan_id":"cebpf4jnsgd1na2vs0mg"},{"bike_id":"231f34dc-32b7-4ca2-88b9-aee2c8fe4bd2","system_id":"levelo_inurba_marseille","lat":43.23151,"lon":5.43711,"is_reserved":false,"is_disabled":false,"rental_uris":{"android":"levelo://app?vid=231f34dc-32b7-4ca2-88b9-aee2c8fe4bd2","ios":"levelo://app?vid=231f34dc-32b7-4ca2-88b9-aee2c8fe4bd2"},"vehicle_type_id":"4","last_reported":1742998234,"current_range_meters":4400,"station_id":"ce4bhmp2rcd13ifvqgog","pricing_plan_id":"cebpf4jnsgd1na2vs0mg"},{"bike_id":"aa316640-b4e3-46a6-a983-b02f99f14049","system_id":"levelo_inurba_marseille","lat":43.26207,"lon":5.37448,"is_reserved":false,"is_disabled":false,"rental_uris":{"android":"levelo://app?vid=aa316640-b4e3-46a6-a983-b02f99f14049","ios":"levelo://app?vid=aa316640-b4e3-46a6-a983-b02f99f14049"},"vehicle_type_id":"4","last_reported":1742998234,"current_range_meters":6800,"station_id":"ce4bhgp2rcd13ifvqfc0","pricing_plan_id":"cebpf4jnsgd1na2vs0mg"},{"bike_id":"02f216f6-5365-4a64-8ac6-6badd4e8814e","system_id":"levelo_inurba_marseille","lat":43.23969,"lon":5.36631,"is_reserved":false,"is_disabled":false,"rental_uris":{"android":"levelo://app?vid=02f216f6-5365-4a64-8ac6-6badd4e8814e","ios":"levelo://app?vid=02f216f6-5365-4a64-8ac6-6badd4e8814e"},"vehicle_type_id":"4","last_reported":1742998234,"current_range_meters":6800,"station_id":"ce4bhi12rcd13ifvqfp0","pricing_plan_id":"cebpf4jnsgd1na2vs0mg"},{"bike_id":"724ed8e8-2918-4d83-96a9-866364fdcf75","system_id":"levelo_inurba_marseille","lat":43.27361,"lon":5.36246,"is_reserved":false,"is_disabled":false,"rental_uris":{"android":"levelo://app?vid=724ed8e8-2918-4d83-96a9-866364fdcf75","ios":"levelo://app?vid=724ed8e8-2918-4d83-96a9-866364fdcf75"},"vehicle_type_id":"4","last_reported":1742998234,"current_range_meters":6800,"station_id":"ce4bhbh2rcd13ifvqeo0","pricing_plan_id":"cebpf4jnsgd1na2vs0mg"},{"bike_id":"21f6cfac-1cb4-4485-9e94-30d4b37907e1","system_id":"levelo_inurba_marseille","lat":43.31278,"lon":5.40179,"is_reserved":false,"is_disabled":false,"rental_uris":{"android":"levelo://app?vid=21f6cfac-1cb4-4485-9e94-30d4b37907e1","ios":"levelo://app?vid=21f6cfac-1cb4-4485-9e94-30d4b37907e1"},"vehicle_type_id":"4","last_reported":1742998234,"current_range_meters":6400,"station_id":"ce4bh092rcd13ifvqd30","pricing_plan_id":"cebpf4jnsgd1na2vs0mg"},{"bike_id":"77823725-c761-49bc-902c-64c32b686ae7","system_id":"levelo_inurba_marseille","lat":43.23068,"lon":5.355,"is_reserved":false,"is_disabled":false,"rental_uris":{"android":"levelo://app?vid=77823725-c761-49bc-902c-64c32b686ae7","ios":"levelo://app?vid=77823725-c761-49bc-902c-64c32b686ae7"},"vehicle_type_id":"4","last_reported":1742998234,"current_range_meters":6800,"station_id":"cpo3342slgdg3j2ifvpg","pricing_plan_id":"cebpf4jnsgd1na2vs0mg"},{"bike_id":"7e628bd8-f74d-4310-8492-8512d6f315fe","system_id":"levelo_inurba_marseille","lat":43.231899,"lon":5.399974,"is_reserved":false,"is_disabled":false,"rental_uris":{"android":"levelo://app?vid=7e628bd8-f74d-4310-8492-8512d6f315fe","ios":"levelo://app?vid=7e628bd8-f74d-4310-8492-8512d6f315fe"},"vehicle_type_id":"4","last_reported":1742998234,"current_range_meters":6800,"station_id":"ce4bhn12rcd13ifvqgqg","pricing_plan_id":"cebpf4jnsgd1na2vs0mg"},{"bike_id":"ac61e1ed-3c64-404c-ba2e-073ad99fa390","system_id":"levelo_inurba_marseille","lat":43.30411,"lon":5.39764,"is_reserved":false,"is_disabled":false,"rental_uris":{"android":"levelo://app?vid=ac61e1ed-3c64-404c-ba2e-073ad99fa390","ios":"levelo://app?vid=ac61e1ed-3c64-404c-ba2e-073ad99fa390"},"vehicle_type_id":"4","last_reported":1742998234,"current_range_meters":6800,"station_id":"ce4bh092rcd13ifvqd20","pricing_plan_id":"cebpf4jnsgd1na2vs0mg"},{"bike_id":"6633349b-54ae-41b8-88d5-61ec5d012302","system_id":"levelo_inurba_marseille","lat":43.32111,"lon":5.36769,"is_reserved":false,"is_disabled":false,"rental_uris":{"android":"levelo://app?vid=6633349b-54ae-41b8-88d5-61ec5d012302","ios":"levelo://app?vid=6633349b-54ae-41b8-88d5-61ec5d012302"},"vehicle_type_id":"4","last_reported":1742998234,"current_range_meters":7200,"station_id":"ce4bhrh2rcd13ifvqhug","pricing_plan_id":"cebpf4jnsgd1na2vs0mg"},{"bike_id":"f6d52a57-7461-42c6-93bf-c74b40f39250","system_id":"levelo_inurba_marseille","lat":43.28269,"lon":5.3507,"is_reserved":false,"is_disabled":false,"rental_uris":{"android":"levelo://app?vid=f6d52a57-7461-42c6-93bf-c74b40f39250","ios":"levelo://app?vid=f6d52a57-7461-42c6-93bf-c74b40f39250"},"vehicle_type_id":"4","last_reported":1742998234,"current_range_meters":7200,"station_id":"ce4bhbp2rcd13ifvqerg","pricing_plan_id":"cebpf4jnsgd1na2vs0mg"},{"bike_id":"4292f87c-44f7-427a-ad8b-bd247ff04584","system_id":"levelo_inurba_marseille","lat":43.31687,"lon":5.40473,"is_reserved":false,"is_disabled":false,"rental_uris":{"android":"levelo://app?vid=4292f87c-44f7-427a-ad8b-bd247ff04584","ios":"levelo://app?vid=4292f87c-44f7-427a-ad8b-bd247ff04584"},"vehicle_type_id":"4","last_reported":1742998234,"current_range_meters":7200,"station_id":"ce4bh012rcd13ifvqd00","pricing_plan_id":"cebpf4jnsgd1na2vs0mg"},{"bike_id":"2cd38659-3007-4a70-a3c0-4dbdf8d620d5","system_id":"levelo_inurba_marseille","lat":43.31487,"lon":5.37283,"is_reserved":false,"is_disabled":true,"rental_uris":{"android":"levelo://app?vid=2cd38659-3007-4a70-a3c0-4dbdf8d620d5","ios":"levelo://app?vid=2cd38659-3007-4a70-a3c0-4dbdf8d620d5"},"vehicle_type_id":"4","last_reported":1742998234,"current_range_meters":7200,"station_id":"ce4bgt12rcd13ifvqcd0","pricing_plan_id":"cebpf4jnsgd1na2vs0mg"},{"bike_id":"6a554f5d-3da7-47b2-9b52-5593f151a17d","system_id":"levelo_inurba_marseille","lat":43.262097,"lon":5.374477,"is_reserved":false,"is_disabled":false,"rental_uris":{"android":"levelo://app?vid=6a554f5d-3da7-47b2-9b52-5593f151a17d","ios":"levelo://app?vid=6a554f5d-3da7-47b2-9b52-5593f151a17d"},"vehicle_type_id":"4","last_reported":1742998234,"current_range_meters":7200,"station_id":"ce4bhgp2rcd13ifvqfc0","pricing_plan_id":"cebpf4jnsgd1na2vs0mg"},{"bike_id":"4b52e236-354d-43bf-805a-7d1566ebdaaa","system_id":"levelo_inurba_marseille","lat":43.28275,"lon":5.35078,"is_reserved":false,"is_disabled":false,"rental_uris":{"android":"levelo://app?vid=4b52e236-354d-43bf-805a-7d1566ebdaaa","ios":"levelo://app?vid=4b52e236-354d-43bf-805a-7d1566ebdaaa"},"vehicle_type_id":"4","last_reported":1742998234,"current_range_meters":7200,"station_id":"ce4bhbp2rcd13ifvqerg","pricing_plan_id":"cebpf4jnsgd1na2vs0mg"},{"bike_id":"50554489-8fea-4f40-a30c-02256e836b4e","system_id":"levelo_inurba_marseille","lat":43.29003,"lon":5.35613,"is_reserved":false,"is_disabled":false,"rental_uris":{"android":"levelo://app?vid=50554489-8fea-4f40-a30c-02256e836b4e","ios":"levelo://app?vid=50554489-8fea-4f40-a30c-02256e836b4e"},"vehicle_type_id":"4","last_reported":1742998234,"current_range_meters":7200,"station_id":"ce4bhb92rcd13ifvqen0","pricing_plan_id":"cebpf4jnsgd1na2vs0mg"},{"bike_id":"bfc2cb62-3f55-4cd8-ac58-4409bb068760","system_id":"levelo_inurba_marseille","lat":43.27372,"lon":5.36261,"is_reserved":false,"is_disabled":false,"rental_uris":{"android":"levelo://app?vid=bfc2cb62-3f55-4cd8-ac58-4409bb068760","ios":"levelo://app?vid=bfc2cb62-3f55-4cd8-ac58-4409bb068760"},"vehicle_type_id":"4","last_reported":1742998234,"current_range_meters":8000,"station_id":"ce4bhbh2rcd13ifvqeo0","pricing_plan_id":"cebpf4jnsgd1na2vs0mg"},{"bike_id":"2345eab2-f542-49aa-b41d-0c6bef35172f","system_id":"levelo_inurba_marseille","lat":43.28931,"lon":5.38381,"is_reserved":false,"is_disabled":false,"rental_uris":{"android":"levelo://app?vid=2345eab2-f542-49aa-b41d-0c6bef35172f","ios":"levelo://app?vid=2345eab2-f542-49aa-b41d-0c6bef35172f"},"vehicle_type_id":"4","last_reported":1742998234,"current_range_meters":8000,"station_id":"ce4bh612rcd13ifvqe6g","pricing_plan_id":"cebpf4jnsgd1na2vs0mg"},{"bike_id":"1cc22df2-fffe-4fde-9634-268475adf9c2","system_id":"levelo_inurba_marseille","lat":43.27368,"lon":5.362503,"is_reserved":false,"is_disabled":false,"rental_uris":{"android":"levelo://app?vid=1cc22df2-fffe-4fde-9634-268475adf9c2","ios":"levelo://app?vid=1cc22df2-fffe-4fde-9634-268475adf9c2"},"vehicle_type_id":"4","last_reported":1742998234,"current_range_meters":8000,"station_id":"ce4bhbh2rcd13ifvqeo0","pricing_plan_id":"cebpf4jnsgd1na2vs0mg"},{"bike_id":"aa794ec4-81a6-42f4-a54e-ca5925ac23e8","system_id":"levelo_inurba_marseille","lat":43.30963,"lon":5.39036,"is_reserved":false,"is_disabled":false,"rental_uris":{"android":"levelo://app?vid=aa794ec4-81a6-42f4-a54e-ca5925ac23e8","ios":"levelo://app?vid=aa794ec4-81a6-42f4-a54e-ca5925ac23e8"},"vehicle_type_id":"4","last_reported":1742998234,"current_range_meters":8000,"station_id":"ce4bgup2rcd13ifvqco0","pricing_plan_id":"cebpf4jnsgd1na2vs0mg"},{"bike_id":"1268fac9-6c29-4533-b1d8-491de51bd34b","system_id":"levelo_inurba_marseille","lat":43.2738,"lon":5.36258,"is_reserved":false,"is_disabled":false,"rental_uris":{"android":"levelo://app?vid=1268fac9-6c29-4533-b1d8-491de51bd34b","ios":"levelo://app?vid=1268fac9-6c29-4533-b1d8-491de51bd34b"},"vehicle_type_id":"4","last_reported":1742998234,"current_range_meters":8000,"station_id":"ce4bhbh2rcd13ifvqeo0","pricing_plan_id":"cebpf4jnsgd1na2vs0mg"},{"bike_id":"d2d4a013-da47-429f-9400-c6da6763f452","system_id":"levelo_inurba_marseille","lat":43.27814,"lon":5.40723,"is_reserved":false,"is_disabled":false,"rental_uris":{"android":"levelo://app?vid=d2d4a013-da47-429f-9400-c6da6763f452","ios":"levelo://app?vid=d2d4a013-da47-429f-9400-c6da6763f452"},"vehicle_type_id":"4","last_reported":1742998234,"current_range_meters":8000,"station_id":"ce4bhnh2rcd13ifvqgtg","pricing_plan_id":"cebpf4jnsgd1na2vs0mg"},{"bike_id":"b51614f1-a055-42d4-901a-339f7104a5f1","system_id":"levelo_inurba_marseille","lat":43.26564,"lon":5.37281,"is_reserved":false,"is_disabled":false,"rental_uris":{"android":"levelo://app?vid=b51614f1-a055-42d4-901a-339f7104a5f1","ios":"levelo://app?vid=b51614f1-a055-42d4-901a-339f7104a5f1"},"vehicle_type_id":"4","last_reported":1742998234,"current_range_meters":8400,"station_id":"ce4bhg12rcd13ifvqf70","pricing_plan_id":"cebpf4jnsgd1na2vs0mg"},{"bike_id":"62cc9468-7ebf-4fb1-aa00-23b619b807aa","system_id":"levelo_inurba_marseille","lat":43.25818,"lon":5.39442,"is_reserved":false,"is_disabled":false,"rental_uris":{"android":"levelo://app?vid=62cc9468-7ebf-4fb1-aa00-23b619b807aa","ios":"levelo://app?vid=62cc9468-7ebf-4fb1-aa00-23b619b807aa"},"vehicle_type_id":"4","last_reported":1742998234,"current_range_meters":8400,"station_id":"ce4bhip2rcd13ifvqft0","pricing_plan_id":"cebpf4jnsgd1na2vs0mg"},{"bike_id":"9cca3ecc-af0e-4ff3-8a2a-94b77cbfebba","system_id":"levelo_inurba_marseille","lat":43.25928,"lon":5.40893,"is_reserved":false,"is_disabled":false,"rental_uris":{"android":"levelo://app?vid=9cca3ecc-af0e-4ff3-8a2a-94b77cbfebba","ios":"levelo://app?vid=9cca3ecc-af0e-4ff3-8a2a-94b77cbfebba"},"vehicle_type_id":"4","last_reported":1742998234,"current_range_meters":8400,"station_id":"ce4bhm92rcd13ifvqglg","pricing_plan_id":"cebpf4jnsgd1na2vs0mg"},{"bike_id":"0c6c5626-a822-4e8e-a746-58026fa2c06d","system_id":"levelo_inurba_marseille","lat":43.31723,"lon":5.423862,"is_reserved":false,"is_disabled":false,"rental_uris":{"android":"levelo://app?vid=0c6c5626-a822-4e8e-a746-58026fa2c06d","ios":"levelo://app?vid=0c6c5626-a822-4e8e-a746-58026fa2c06d"},"vehicle_type_id":"4","last_reported":1742998234,"current_range_meters":8400,"station_id":"ce4bhp92rcd13ifvqhbg","pricing_plan_id":"cebpf4jnsgd1na2vs0mg"},{"bike_id":"98c7ca61-6b4e-4129-ad44-4943fd2074d6","system_id":"levelo_inurba_marseille","lat":43.22929,"lon":5.35377,"is_reserved":false,"is_disabled":false,"rental_uris":{"android":"levelo://app?vid=98c7ca61-6b4e-4129-ad44-4943fd2074d6","ios":"levelo://app?vid=98c7ca61-6b4e-4129-ad44-4943fd2074d6"},"vehicle_type_id":"4","last_reported":1742998234,"current_range_meters":8400,"station_id":"cpo3532slgdg3j2ikp40","pricing_plan_id":"cebpf4jnsgd1na2vs0mg"},{"bike_id":"6c565aa4-82a9-41b4-833b-ae75d9a678cd","system_id":"levelo_inurba_marseille","lat":43.31484,"lon":5.3731,"is_reserved":false,"is_disabled":false,"rental_uris":{"android":"levelo://app?vid=6c565aa4-82a9-41b4-833b-ae75d9a678cd","ios":"levelo://app?vid=6c565aa4-82a9-41b4-833b-ae75d9a678cd"},"vehicle_type_id":"4","last_reported":1742998234,"current_range_meters":8400,"station_id":"ce4bgt12rcd13ifvqcd0","pricing_plan_id":"cebpf4jnsgd1na2vs0mg"},{"bike_id":"aec1d2be-86f6-4e60-beb2-de9c370350a2","system_id":"levelo_inurba_marseille","lat":43.30131,"lon":5.37428,"is_reserved":false,"is_disabled":false,"rental_uris":{"android":"levelo://app?vid=aec1d2be-86f6-4e60-beb2-de9c370350a2","ios":"levelo://app?vid=aec1d2be-86f6-4e60-beb2-de9c370350a2"},"vehicle_type_id":"4","last_reported":1742998234,"current_range_meters":8400,"station_id":"ce4bgs92rcd13ifvqcc0","pricing_plan_id":"cebpf4jnsgd1na2vs0mg"},{"bike_id":"30d2642a-e123-453d-a674-46891246393b","system_id":"levelo_inurba_marseille","lat":43.311676,"lon":5.387193,"is_reserved":false,"is_disabled":false,"rental_uris":{"android":"levelo://app?vid=30d2642a-e123-453d-a674-46891246393b","ios":"levelo://app?vid=30d2642a-e123-453d-a674-46891246393b"},"vehicle_type_id":"4","last_reported":1742998234,"current_range_meters":8400,"station_id":"ce4bgv12rcd13ifvqcp0","pricing_plan_id":"cebpf4jnsgd1na2vs0mg"},{"bike_id":"681ec03c-5fcc-472b-a4f7-a3ac540e8e2a","system_id":"levelo_inurba_marseille","lat":43.30776,"lon":5.37071,"is_reserved":false,"is_disabled":false,"rental_uris":{"android":"levelo://app?vid=681ec03c-5fcc-472b-a4f7-a3ac540e8e2a","ios":"levelo://app?vid=681ec03c-5fcc-472b-a4f7-a3ac540e8e2a"},"vehicle_type_id":"4","last_reported":1742998234,"current_range_meters":8400,"station_id":"","pricing_plan_id":"cebpf4jnsgd1na2vs0mg"},{"bike_id":"494edb5c-8886-472a-b4b2-0033adc0ccbd","system_id":"levelo_inurba_marseille","lat":43.23188,"lon":5.39982,"is_reserved":false,"is_disabled":false,"rental_uris":{"android":"levelo://app?vid=494edb5c-8886-472a-b4b2-0033adc0ccbd","ios":"levelo://app?vid=494edb5c-8886-472a-b4b2-0033adc0ccbd"},"vehicle_type_id":"4","last_reported":1742998234,"current_range_meters":8400,"station_id":"ce4bhn12rcd13ifvqgqg","pricing_plan_id":"cebpf4jnsgd1na2vs0mg"},{"bike_id":"33c33aaa-0021-4fd5-a440-023488fc6688","system_id":"levelo_inurba_marseille","lat":43.243822,"lon":5.370652,"is_reserved":false,"is_disabled":false,"rental_uris":{"android":"levelo://app?vid=33c33aaa-0021-4fd5-a440-023488fc6688","ios":"levelo://app?vid=33c33aaa-0021-4fd5-a440-023488fc6688"},"vehicle_type_id":"4","last_reported":1742998234,"current_range_meters":8400,"station_id":"ce4bhhh2rcd13ifvqfk0","pricing_plan_id":"cebpf4jnsgd1na2vs0mg"},{"bike_id":"2f3c8cf0-851f-4952-b4cf-5699b414ee53","system_id":"levelo_inurba_marseille","lat":43.28622,"lon":5.35103,"is_reserved":false,"is_disabled":false,"rental_uris":{"android":"levelo://app?vid=2f3c8cf0-851f-4952-b4cf-5699b414ee53","ios":"levelo://app?vid=2f3c8cf0-851f-4952-b4cf-5699b414ee53"},"vehicle_type_id":"4","last_reported":1742998234,"current_range_meters":8400,"station_id":"ce4bhch2rcd13ifvqeug","pricing_plan_id":"cebpf4jnsgd1na2vs0mg"},{"bike_id":"c144ff44-b7da-467e-8d68-cdbbc3aff621","system_id":"levelo_inurba_marseille","lat":43.26211,"lon":5.37446,"is_reserved":false,"is_disabled":false,"rental_uris":{"android":"levelo://app?vid=c144ff44-b7da-467e-8d68-cdbbc3aff621","ios":"levelo://app?vid=c144ff44-b7da-467e-8d68-cdbbc3aff621"},"vehicle_type_id":"4","last_reported":1742998234,"current_range_meters":8800,"station_id":"ce4bhgp2rcd13ifvqfc0","pricing_plan_id":"cebpf4jnsgd1na2vs0mg"},{"bike_id":"618a5933-8bb7-4cca-922a-ee8827886fcf","system_id":"levelo_inurba_marseille","lat":43.287246,"lon":5.360842,"is_reserved":false,"is_disabled":false,"rental_uris":{"android":"levelo://app?vid=618a5933-8bb7-4cca-922a-ee8827886fcf","ios":"levelo://app?vid=618a5933-8bb7-4cca-922a-ee8827886fcf"},"vehicle_type_id":"4","last_reported":1742998234,"current_range_meters":8800,"station_id":"cki0cbj6b192h4jlfktg","pricing_plan_id":"cebpf4jnsgd1na2vs0mg"},{"bike_id":"41c39082-e96d-42e0-8544-514402ec7f86","system_id":"levelo_inurba_marseille","lat":43.25118,"lon":5.40321,"is_reserved":false,"is_disabled":false,"rental_uris":{"android":"levelo://app?vid=41c39082-e96d-42e0-8544-514402ec7f86","ios":"levelo://app?vid=41c39082-e96d-42e0-8544-514402ec7f86"},"vehicle_type_id":"4","last_reported":1742998234,"current_range_meters":8800,"station_id":"ce4bhlh2rcd13ifvqgig","pricing_plan_id":"cebpf4jnsgd1na2vs0mg"},{"bike_id":"c37ff97d-3456-4900-a6d2-28bac2c08527","system_id":"levelo_inurba_marseille","lat":43.26191,"lon":5.37452,"is_reserved":false,"is_disabled":false,"rental_uris":{"android":"levelo://app?vid=c37ff97d-3456-4900-a6d2-28bac2c08527","ios":"levelo://app?vid=c37ff97d-3456-4900-a6d2-28bac2c08527"},"vehicle_type_id":"4","last_reported":1742998234,"current_range_meters":8800,"station_id":"ce4bhgp2rcd13ifvqfc0","pricing_plan_id":"cebpf4jnsgd1na2vs0mg"},{"bike_id":"ee28380f-2566-499f-8ab8-5a75cb1ed72f","system_id":"levelo_inurba_marseille","lat":43.288329,"lon":5.393258,"is_reserved":false,"is_disabled":true,"rental_uris":{"android":"levelo://app?vid=ee28380f-2566-499f-8ab8-5a75cb1ed72f","ios":"levelo://app?vid=ee28380f-2566-499f-8ab8-5a75cb1ed72f"},"vehicle_type_id":"4","last_reported":1742998234,"current_range_meters":8800,"station_id":"","pricing_plan_id":"cebpf4jnsgd1na2vs0mg"},{"bike_id":"6ba13e32-bc0a-4abe-a3b3-130ed7947fc0","system_id":"levelo_inurba_marseille","lat":43.28938,"lon":5.36636,"is_reserved":false,"is_disabled":false,"rental_uris":{"android":"levelo://app?vid=6ba13e32-bc0a-4abe-a3b3-130ed7947fc0","ios":"levelo://app?vid=6ba13e32-bc0a-4abe-a3b3-130ed7947fc0"},"vehicle_type_id":"4","last_reported":1742998234,"current_range_meters":8800,"station_id":"ce4bhap2rcd13ifvqek0","pricing_plan_id":"cebpf4jnsgd1na2vs0mg"},{"bike_id":"8ea3541d-0922-407d-98b7-c05be233fc71","system_id":"levelo_inurba_marseille","lat":43.324437,"lon":5.394076,"is_reserved":false,"is_disabled":false,"rental_uris":{"android":"levelo://app?vid=8ea3541d-0922-407d-98b7-c05be233fc71","ios":"levelo://app?vid=8ea3541d-0922-407d-98b7-c05be233fc71"},"vehicle_type_id":"4","last_reported":1742998234,"current_range_meters":8800,"station_id":"ce4bhqp2rcd13ifvqhng","pricing_plan_id":"cebpf4jnsgd1na2vs0mg"},{"bike_id":"ae14c19b-27f4-4820-9d3e-a05057a88c25","system_id":"levelo_inurba_marseille","lat":43.28254,"lon":5.35051,"is_reserved":false,"is_disabled":false,"rental_uris":{"android":"levelo://app?vid=ae14c19b-27f4-4820-9d3e-a05057a88c25","ios":"levelo://app?vid=ae14c19b-27f4-4820-9d3e-a05057a88c25"},"vehicle_type_id":"4","last_reported":1742998234,"current_range_meters":9200,"station_id":"ce4bhbp2rcd13ifvqerg","pricing_plan_id":"cebpf4jnsgd1na2vs0mg"},{"bike_id":"3ee1f2d0-a450-44bc-8ac6-976182aa6192","system_id":"levelo_inurba_marseille","lat":43.30909,"lon":5.36855,"is_reserved":false,"is_disabled":false,"rental_uris":{"android":"levelo://app?vid=3ee1f2d0-a450-44bc-8ac6-976182aa6192","ios":"levelo://app?vid=3ee1f2d0-a450-44bc-8ac6-976182aa6192"},"vehicle_type_id":"4","last_reported":1742998234,"current_range_meters":9200,"station_id":"ce4bgn92rcd13ifvqbvg","pricing_plan_id":"cebpf4jnsgd1na2vs0mg"},{"bike_id":"86c3ac2b-3af3-4569-bba5-523cc3b3d219","system_id":"levelo_inurba_marseille","lat":43.27814,"lon":5.40714,"is_reserved":false,"is_disabled":false,"rental_uris":{"android":"levelo://app?vid=86c3ac2b-3af3-4569-bba5-523cc3b3d219","ios":"levelo://app?vid=86c3ac2b-3af3-4569-bba5-523cc3b3d219"},"vehicle_type_id":"4","last_reported":1742998234,"current_range_meters":9200,"station_id":"ce4bhnh2rcd13ifvqgtg","pricing_plan_id":"cebpf4jnsgd1na2vs0mg"},{"bike_id":"0575f5ab-4f77-4607-af63-6f6eefb6f20f","system_id":"levelo_inurba_marseille","lat":43.31074,"lon":5.38349,"is_reserved":false,"is_disabled":false,"rental_uris":{"android":"levelo://app?vid=0575f5ab-4f77-4607-af63-6f6eefb6f20f","ios":"levelo://app?vid=0575f5ab-4f77-4607-af63-6f6eefb6f20f"},"vehicle_type_id":"4","last_reported":1742998234,"current_range_meters":9200,"station_id":"ce4bgv92rcd13ifvqcr0","pricing_plan_id":"cebpf4jnsgd1na2vs0mg"},{"bike_id":"de348bc8-358e-428b-8ad7-4bf54bd71853","system_id":"levelo_inurba_marseille","lat":43.30595,"lon":5.37236,"is_reserved":false,"is_disabled":false,"rental_uris":{"android":"levelo://app?vid=de348bc8-358e-428b-8ad7-4bf54bd71853","ios":"levelo://app?vid=de348bc8-358e-428b-8ad7-4bf54bd71853"},"vehicle_type_id":"4","last_reported":1742998234,"current_range_meters":9200,"station_id":"ce4bgqh2rcd13ifvqc4g","pricing_plan_id":"cebpf4jnsgd1na2vs0mg"},{"bike_id":"7d944d2b-bdbb-4dfe-b8d5-68d8eb03245d","system_id":"levelo_inurba_marseille","lat":43.246406,"lon":5.389118,"is_reserved":false,"is_disabled":false,"rental_uris":{"android":"levelo://app?vid=7d944d2b-bdbb-4dfe-b8d5-68d8eb03245d","ios":"levelo://app?vid=7d944d2b-bdbb-4dfe-b8d5-68d8eb03245d"},"vehicle_type_id":"4","last_reported":1742998234,"current_range_meters":9200,"station_id":"ce4bhg12rcd13ifvqf60","pricing_plan_id":"cebpf4jnsgd1na2vs0mg"},{"bike_id":"d83e15e6-5a0a-4dcb-a632-6b12242f259f","system_id":"levelo_inurba_marseille","lat":43.27617,"lon":5.36116,"is_reserved":false,"is_disabled":false,"rental_uris":{"android":"levelo://app?vid=d83e15e6-5a0a-4dcb-a632-6b12242f259f","ios":"levelo://app?vid=d83e15e6-5a0a-4dcb-a632-6b12242f259f"},"vehicle_type_id":"4","last_reported":1742998234,"current_range_meters":9200,"station_id":"ce4bgj92rcd13ifvqbe0","pricing_plan_id":"cebpf4jnsgd1na2vs0mg"},{"bike_id":"f70ef874-4b06-4723-88fc-4b31cdc74353","system_id":"levelo_inurba_marseille","lat":43.23181,"lon":5.40003,"is_reserved":false,"is_disabled":false,"rental_uris":{"android":"levelo://app?vid=f70ef874-4b06-4723-88fc-4b31cdc74353","ios":"levelo://app?vid=f70ef874-4b06-4723-88fc-4b31cdc74353"},"vehicle_type_id":"4","last_reported":1742998234,"current_range_meters":9600,"station_id":"","pricing_plan_id":"cebpf4jnsgd1na2vs0mg"},{"bike_id":"8a9602e7-e6f2-4dac-845f-cea224e49dd5","system_id":"levelo_inurba_marseille","lat":43.230693,"lon":5.354935,"is_reserved":false,"is_disabled":false,"rental_uris":{"android":"levelo://app?vid=8a9602e7-e6f2-4dac-845f-cea224e49dd5","ios":"levelo://app?vid=8a9602e7-e6f2-4dac-845f-cea224e49dd5"},"vehicle_type_id":"4","last_reported":1742998234,"current_range_meters":9600,"station_id":"cpo3342slgdg3j2ifvpg","pricing_plan_id":"cebpf4jnsgd1na2vs0mg"},{"bike_id":"8b59be89-d4dd-4f3a-b9a7-f1534d3903b6","system_id":"levelo_inurba_marseille","lat":43.30583,"lon":5.37237,"is_reserved":false,"is_disabled":false,"rental_uris":{"android":"levelo://app?vid=8b59be89-d4dd-4f3a-b9a7-f1534d3903b6","ios":"levelo://app?vid=8b59be89-d4dd-4f3a-b9a7-f1534d3903b6"},"vehicle_type_id":"4","last_reported":1742998234,"current_range_meters":9600,"station_id":"ce4bgqh2rcd13ifvqc4g","pricing_plan_id":"cebpf4jnsgd1na2vs0mg"},{"bike_id":"01cbffb0-3fb0-4769-96f8-4c2dd20b8277","system_id":"levelo_inurba_marseille","lat":43.28531,"lon":5.40575,"is_reserved":false,"is_disabled":false,"rental_uris":{"android":"levelo://app?vid=01cbffb0-3fb0-4769-96f8-4c2dd20b8277","ios":"levelo://app?vid=01cbffb0-3fb0-4769-96f8-4c2dd20b8277"},"vehicle_type_id":"4","last_reported":1742998234,"current_range_meters":9600,"station_id":"","pricing_plan_id":"cebpf4jnsgd1na2vs0mg"},{"bike_id":"bbf95552-2231-4543-ac85-8ecb0b79bc10","system_id":"levelo_inurba_marseille","lat":43.30147,"lon":5.38081,"is_reserved":false,"is_disabled":false,"rental_uris":{"android":"levelo://app?vid=bbf95552-2231-4543-ac85-8ecb0b79bc10","ios":"levelo://app?vid=bbf95552-2231-4543-ac85-8ecb0b79bc10"},"vehicle_type_id":"4","last_reported":1742998234,"current_range_meters":9600,"station_id":"ce4bgjp2rcd13ifvqbh0","pricing_plan_id":"cebpf4jnsgd1na2vs0mg"},{"bike_id":"cb64b175-3c04-4a16-b053-d983aeaa7b09","system_id":"levelo_inurba_marseille","lat":43.29274,"lon":5.36851,"is_reserved":false,"is_disabled":false,"rental_uris":{"android":"levelo://app?vid=cb64b175-3c04-4a16-b053-d983aeaa7b09","ios":"levelo://app?vid=cb64b175-3c04-4a16-b053-d983aeaa7b09"},"vehicle_type_id":"4","last_reported":1742998234,"current_range_meters":9600,"station_id":"ce4bhbp2rcd13ifvqesg","pricing_plan_id":"cebpf4jnsgd1na2vs0mg"},{"bike_id":"6ae8da34-2002-48d0-bb46-a6d67fe46cdf","system_id":"levelo_inurba_marseille","lat":43.24667,"lon":5.38157,"is_reserved":false,"is_disabled":false,"rental_uris":{"android":"levelo://app?vid=6ae8da34-2002-48d0-bb46-a6d67fe46cdf","ios":"levelo://app?vid=6ae8da34-2002-48d0-bb46-a6d67fe46cdf"},"vehicle_type_id":"4","last_reported":1742998234,"current_range_meters":9600,"station_id":"ce4bhih2rcd13ifvqfr0","pricing_plan_id":"cebpf4jnsgd1na2vs0mg"},{"bike_id":"49ca7dbf-2abc-41e4-ae81-f8cb14c631f1","system_id":"levelo_inurba_marseille","lat":43.29886,"lon":5.38898,"is_reserved":false,"is_disabled":false,"rental_uris":{"android":"levelo://app?vid=49ca7dbf-2abc-41e4-ae81-f8cb14c631f1","ios":"levelo://app?vid=49ca7dbf-2abc-41e4-ae81-f8cb14c631f1"},"vehicle_type_id":"4","last_reported":1742998234,"current_range_meters":9600,"station_id":"ce4bh392rcd13ifvqdl0","pricing_plan_id":"cebpf4jnsgd1na2vs0mg"},{"bike_id":"974f5876-effd-44d0-911c-76ea7a107a8c","system_id":"levelo_inurba_marseille","lat":43.3335,"lon":5.35976,"is_reserved":false,"is_disabled":false,"rental_uris":{"android":"levelo://app?vid=974f5876-effd-44d0-911c-76ea7a107a8c","ios":"levelo://app?vid=974f5876-effd-44d0-911c-76ea7a107a8c"},"vehicle_type_id":"4","last_reported":1742998234,"current_range_meters":9600,"station_id":"","pricing_plan_id":"cebpf4jnsgd1na2vs0mg"},{"bike_id":"b9b99f82-c35e-48ec-bf58-e43752dcb199","system_id":"levelo_inurba_marseille","lat":43.25001,"lon":5.38934,"is_reserved":false,"is_disabled":false,"rental_uris":{"android":"levelo://app?vid=b9b99f82-c35e-48ec-bf58-e43752dcb199","ios":"levelo://app?vid=b9b99f82-c35e-48ec-bf58-e43752dcb199"},"vehicle_type_id":"4","last_reported":1742998234,"current_range_meters":9600,"station_id":"ce4bhgp2rcd13ifvqfd0","pricing_plan_id":"cebpf4jnsgd1na2vs0mg"},{"bike_id":"976c1074-acc1-4f61-92fc-99208a35a132","system_id":"levelo_inurba_marseille","lat":43.22924,"lon":5.35381,"is_reserved":false,"is_disabled":false,"rental_uris":{"android":"levelo://app?vid=976c1074-acc1-4f61-92fc-99208a35a132","ios":"levelo://app?vid=976c1074-acc1-4f61-92fc-99208a35a132"},"vehicle_type_id":"4","last_reported":1742998234,"current_range_meters":9600,"station_id":"cpo3532slgdg3j2ikp40","pricing_plan_id":"cebpf4jnsgd1na2vs0mg"},{"bike_id":"b3af4b3c-0caa-4674-96fb-e01531de63cb","system_id":"levelo_inurba_marseille","lat":43.29416,"lon":5.38635,"is_reserved":false,"is_disabled":false,"rental_uris":{"android":"levelo://app?vid=b3af4b3c-0caa-4674-96fb-e01531de63cb","ios":"levelo://app?vid=b3af4b3c-0caa-4674-96fb-e01531de63cb"},"vehicle_type_id":"4","last_reported":1742998234,"current_range_meters":9600,"station_id":"ce4bh2h2rcd13ifvqdh0","pricing_plan_id":"cebpf4jnsgd1na2vs0mg"},{"bike_id":"efbcaaa6-b11f-400a-9240-cc4b1a3b098a","system_id":"levelo_inurba_marseille","lat":43.305957,"lon":5.393721,"is_reserved":false,"is_disabled":true,"rental_uris":{"android":"levelo://app?vid=efbcaaa6-b11f-400a-9240-cc4b1a3b098a","ios":"levelo://app?vid=efbcaaa6-b11f-400a-9240-cc4b1a3b098a"},"vehicle_type_id":"4","last_reported":1742998234,"current_range_meters":9600,"station_id":"ce4bh0p2rcd13ifvqd80","pricing_plan_id":"cebpf4jnsgd1na2vs0mg"},{"bike_id":"5d2c04b4-328c-4d75-a9ae-ee3b58acb165","system_id":"levelo_inurba_marseille","lat":43.28267,"lon":5.3507,"is_reserved":false,"is_disabled":false,"rental_uris":{"android":"levelo://app?vid=5d2c04b4-328c-4d75-a9ae-ee3b58acb165","ios":"levelo://app?vid=5d2c04b4-328c-4d75-a9ae-ee3b58acb165"},"vehicle_type_id":"4","last_reported":1742998234,"current_range_meters":10000,"station_id":"ce4bhbp2rcd13ifvqerg","pricing_plan_id":"cebpf4jnsgd1na2vs0mg"},{"bike_id":"8de7059d-00de-4eed-a842-00ac61b0e1a8","system_id":"levelo_inurba_marseille","lat":43.295931,"lon":5.380898,"is_reserved":false,"is_disabled":true,"rental_uris":{"android":"levelo://app?vid=8de7059d-00de-4eed-a842-00ac61b0e1a8","ios":"levelo://app?vid=8de7059d-00de-4eed-a842-00ac61b0e1a8"},"vehicle_type_id":"4","last_reported":1742998234,"current_range_meters":10000,"station_id":"ce4bgl12rcd13ifvqbo0","pricing_plan_id":"cebpf4jnsgd1na2vs0mg"},{"bike_id":"589f1146-20bc-4a88-9ab7-60ee275b3000","system_id":"levelo_inurba_marseille","lat":43.29698,"lon":5.38011,"is_reserved":false,"is_disabled":false,"rental_uris":{"android":"levelo://app?vid=589f1146-20bc-4a88-9ab7-60ee275b3000","ios":"levelo://app?vid=589f1146-20bc-4a88-9ab7-60ee275b3000"},"vehicle_type_id":"4","last_reported":1742998234,"current_range_meters":10000,"station_id":"","pricing_plan_id":"cebpf4jnsgd1na2vs0mg"},{"bike_id":"8e1b69fe-38a9-404e-9145-427fd10d244c","system_id":"levelo_inurba_marseille","lat":43.28428,"lon":5.34989,"is_reserved":false,"is_disabled":false,"rental_uris":{"android":"levelo://app?vid=8e1b69fe-38a9-404e-9145-427fd10d244c","ios":"levelo://app?vid=8e1b69fe-38a9-404e-9145-427fd10d244c"},"vehicle_type_id":"4","last_reported":1742998234,"current_range_meters":10000,"station_id":"ce4bhbh2rcd13ifvqepg","pricing_plan_id":"cebpf4jnsgd1na2vs0mg"},{"bike_id":"ca8a5c5f-9264-4e03-a83b-fe27d1b1aabe","system_id":"levelo_inurba_marseille","lat":43.3054,"lon":5.36562,"is_reserved":false,"is_disabled":false,"rental_uris":{"android":"levelo://app?vid=ca8a5c5f-9264-4e03-a83b-fe27d1b1aabe","ios":"levelo://app?vid=ca8a5c5f-9264-4e03-a83b-fe27d1b1aabe"},"vehicle_type_id":"4","last_reported":1742998234,"current_range_meters":10000,"station_id":"ce4bgs12rcd13ifvqcag","pricing_plan_id":"cebpf4jnsgd1na2vs0mg"},{"bike_id":"084b002b-7859-41f4-ada3-7c58cc5ae6e5","system_id":"levelo_inurba_marseille","lat":43.31073,"lon":5.38359,"is_reserved":false,"is_disabled":false,"rental_uris":{"android":"levelo://app?vid=084b002b-7859-41f4-ada3-7c58cc5ae6e5","ios":"levelo://app?vid=084b002b-7859-41f4-ada3-7c58cc5ae6e5"},"vehicle_type_id":"4","last_reported":1742998234,"current_range_meters":10000,"station_id":"ce4bgv92rcd13ifvqcr0","pricing_plan_id":"cebpf4jnsgd1na2vs0mg"},{"bike_id":"16e563e2-b2ba-4c49-be34-1f5e82846e10","system_id":"levelo_inurba_marseille","lat":43.28423,"lon":5.34991,"is_reserved":false,"is_disabled":false,"rental_uris":{"android":"levelo://app?vid=16e563e2-b2ba-4c49-be34-1f5e82846e10","ios":"levelo://app?vid=16e563e2-b2ba-4c49-be34-1f5e82846e10"},"vehicle_type_id":"4","last_reported":1742998234,"current_range_meters":10000,"station_id":"ce4bhbh2rcd13ifvqepg","pricing_plan_id":"cebpf4jnsgd1na2vs0mg"},{"bike_id":"ba6a46e1-2737-444a-9c29-0a44b16eab2c","system_id":"levelo_inurba_marseille","lat":43.30564,"lon":5.36507,"is_reserved":false,"is_disabled":false,"rental_uris":{"android":"levelo://app?vid=ba6a46e1-2737-444a-9c29-0a44b16eab2c","ios":"levelo://app?vid=ba6a46e1-2737-444a-9c29-0a44b16eab2c"},"vehicle_type_id":"4","last_reported":1742998234,"current_range_meters":10000,"station_id":"ce4bgs12rcd13ifvqcag","pricing_plan_id":"cebpf4jnsgd1na2vs0mg"},{"bike_id":"df204cff-1693-4748-917c-c164aef844a0","system_id":"levelo_inurba_marseille","lat":43.23958,"lon":5.36644,"is_reserved":false,"is_disabled":false,"rental_uris":{"android":"levelo://app?vid=df204cff-1693-4748-917c-c164aef844a0","ios":"levelo://app?vid=df204cff-1693-4748-917c-c164aef844a0"},"vehicle_type_id":"4","last_reported":1742998234,"current_range_meters":10800,"station_id":"ce4bhi12rcd13ifvqfp0","pricing_plan_id":"cebpf4jnsgd1na2vs0mg"},{"bike_id":"b418d168-f2ad-4db0-9a6f-e88743ba94c8","system_id":"levelo_inurba_marseille","lat":43.29258,"lon":5.37621,"is_reserved":false,"is_disabled":true,"rental_uris":{"android":"levelo://app?vid=b418d168-f2ad-4db0-9a6f-e88743ba94c8","ios":"levelo://app?vid=b418d168-f2ad-4db0-9a6f-e88743ba94c8"},"vehicle_type_id":"4","last_reported":1742998234,"current_range_meters":10800,"station_id":"ce4bgi12rcd13ifvqb80","pricing_plan_id":"cebpf4jnsgd1na2vs0mg"},{"bike_id":"ffaf6716-09fd-4ee2-be14-fe7fd975c6bd","system_id":"levelo_inurba_marseille","lat":43.27366,"lon":5.36265,"is_reserved":false,"is_disabled":false,"rental_uris":{"android":"levelo://app?vid=ffaf6716-09fd-4ee2-be14-fe7fd975c6bd","ios":"levelo://app?vid=ffaf6716-09fd-4ee2-be14-fe7fd975c6bd"},"vehicle_type_id":"4","last_reported":1742998234,"current_range_meters":10800,"station_id":"ce4bhbh2rcd13ifvqeo0","pricing_plan_id":"cebpf4jnsgd1na2vs0mg"},{"bike_id":"543a81a8-0b22-4d9b-9e1e-8bfaa6da2058","system_id":"levelo_inurba_marseille","lat":43.26563,"lon":5.37293,"is_reserved":false,"is_disabled":false,"rental_uris":{"android":"levelo://app?vid=543a81a8-0b22-4d9b-9e1e-8bfaa6da2058","ios":"levelo://app?vid=543a81a8-0b22-4d9b-9e1e-8bfaa6da2058"},"vehicle_type_id":"4","last_reported":1742998234,"current_range_meters":10800,"station_id":"ce4bhg12rcd13ifvqf70","pricing_plan_id":"cebpf4jnsgd1na2vs0mg"},{"bike_id":"bbca1b6f-8471-43ff-aa10-16a1519d2687","system_id":"levelo_inurba_marseille","lat":43.28262,"lon":5.35067,"is_reserved":false,"is_disabled":false,"rental_uris":{"android":"levelo://app?vid=bbca1b6f-8471-43ff-aa10-16a1519d2687","ios":"levelo://app?vid=bbca1b6f-8471-43ff-aa10-16a1519d2687"},"vehicle_type_id":"4","last_reported":1742998234,"current_range_meters":10800,"station_id":"ce4bhbp2rcd13ifvqerg","pricing_plan_id":"cebpf4jnsgd1na2vs0mg"},{"bike_id":"84a7a785-5392-42bc-8088-fb903bcc7f5c","system_id":"levelo_inurba_marseille","lat":43.23064,"lon":5.35508,"is_reserved":false,"is_disabled":false,"rental_uris":{"android":"levelo://app?vid=84a7a785-5392-42bc-8088-fb903bcc7f5c","ios":"levelo://app?vid=84a7a785-5392-42bc-8088-fb903bcc7f5c"},"vehicle_type_id":"4","last_reported":1742998234,"current_range_meters":10800,"station_id":"cpo3342slgdg3j2ifvpg","pricing_plan_id":"cebpf4jnsgd1na2vs0mg"},{"bike_id":"9c31a06b-b971-46ad-8246-1f659e5293f1","system_id":"levelo_inurba_marseille","lat":43.26188,"lon":5.37466,"is_reserved":false,"is_disabled":false,"rental_uris":{"android":"levelo://app?vid=9c31a06b-b971-46ad-8246-1f659e5293f1","ios":"levelo://app?vid=9c31a06b-b971-46ad-8246-1f659e5293f1"},"vehicle_type_id":"4","last_reported":1742998234,"current_range_meters":10800,"station_id":"ce4bhgp2rcd13ifvqfc0","pricing_plan_id":"cebpf4jnsgd1na2vs0mg"},{"bike_id":"49369498-69b4-4ffd-8505-4a2f8f4683c7","system_id":"levelo_inurba_marseille","lat":43.29552,"lon":5.423,"is_reserved":false,"is_disabled":false,"rental_uris":{"android":"levelo://app?vid=49369498-69b4-4ffd-8505-4a2f8f4683c7","ios":"levelo://app?vid=49369498-69b4-4ffd-8505-4a2f8f4683c7"},"vehicle_type_id":"4","last_reported":1742998234,"current_range_meters":10800,"station_id":"ce4bhph2rcd13ifvqhdg","pricing_plan_id":"cebpf4jnsgd1na2vs0mg"},{"bike_id":"dd3c2c21-8058-4ad2-bb2d-1b89c01c402f","system_id":"levelo_inurba_marseille","lat":43.30539,"lon":5.36574,"is_reserved":false,"is_disabled":false,"rental_uris":{"android":"levelo://app?vid=dd3c2c21-8058-4ad2-bb2d-1b89c01c402f","ios":"levelo://app?vid=dd3c2c21-8058-4ad2-bb2d-1b89c01c402f"},"vehicle_type_id":"4","last_reported":1742998234,"current_range_meters":10800,"station_id":"ce4bgs12rcd13ifvqcag","pricing_plan_id":"cebpf4jnsgd1na2vs0mg"},{"bike_id":"d86d354c-b106-4d30-92e9-4184d40d7750","system_id":"levelo_inurba_marseille","lat":43.26787,"lon":5.39421,"is_reserved":false,"is_disabled":false,"rental_uris":{"android":"levelo://app?vid=d86d354c-b106-4d30-92e9-4184d40d7750","ios":"levelo://app?vid=d86d354c-b106-4d30-92e9-4184d40d7750"},"vehicle_type_id":"4","last_reported":1742998234,"current_range_meters":10800,"station_id":"ce4bhh12rcd13ifvqfg0","pricing_plan_id":"cebpf4jnsgd1na2vs0mg"},{"bike_id":"a3581d99-7175-4d7f-ae46-7197148d1b7a","system_id":"levelo_inurba_marseille","lat":43.28414,"lon":5.34979,"is_reserved":false,"is_disabled":false,"rental_uris":{"android":"levelo://app?vid=a3581d99-7175-4d7f-ae46-7197148d1b7a","ios":"levelo://app?vid=a3581d99-7175-4d7f-ae46-7197148d1b7a"},"vehicle_type_id":"4","last_reported":1742998234,"current_range_meters":10800,"station_id":"ce4bhbh2rcd13ifvqepg","pricing_plan_id":"cebpf4jnsgd1na2vs0mg"},{"bike_id":"2349ea78-e5ff-44c1-8a9d-5755df83b4b0","system_id":"levelo_inurba_marseille","lat":43.28122,"lon":5.42672,"is_reserved":false,"is_disabled":false,"rental_uris":{"android":"levelo://app?vid=2349ea78-e5ff-44c1-8a9d-5755df83b4b0","ios":"levelo://app?vid=2349ea78-e5ff-44c1-8a9d-5755df83b4b0"},"vehicle_type_id":"4","last_reported":1742998234,"current_range_meters":10800,"station_id":"ce4bhnh2rcd13ifvqgug","pricing_plan_id":"cebpf4jnsgd1na2vs0mg"},{"bike_id":"41a3dd54-69c8-4a8c-8cb4-82f3648e8acc","system_id":"levelo_inurba_marseille","lat":43.27365,"lon":5.36244,"is_reserved":false,"is_disabled":false,"rental_uris":{"android":"levelo://app?vid=41a3dd54-69c8-4a8c-8cb4-82f3648e8acc","ios":"levelo://app?vid=41a3dd54-69c8-4a8c-8cb4-82f3648e8acc"},"vehicle_type_id":"4","last_reported":1742998234,"current_range_meters":10800,"station_id":"ce4bhbh2rcd13ifvqeo0","pricing_plan_id":"cebpf4jnsgd1na2vs0mg"},{"bike_id":"ef76315d-6f75-41fa-adf4-789f5dc0bd50","system_id":"levelo_inurba_marseille","lat":43.23145,"lon":5.43717,"is_reserved":false,"is_disabled":false,"rental_uris":{"android":"levelo://app?vid=ef76315d-6f75-41fa-adf4-789f5dc0bd50","ios":"levelo://app?vid=ef76315d-6f75-41fa-adf4-789f5dc0bd50"},"vehicle_type_id":"4","last_reported":1742998234,"current_range_meters":11200,"station_id":"ce4bhmp2rcd13ifvqgog","pricing_plan_id":"cebpf4jnsgd1na2vs0mg"},{"bike_id":"d45a2f6c-957b-46cd-bd89-ee8e58d1536e","system_id":"levelo_inurba_marseille","lat":43.27731,"lon":5.40779,"is_reserved":false,"is_disabled":false,"rental_uris":{"android":"levelo://app?vid=d45a2f6c-957b-46cd-bd89-ee8e58d1536e","ios":"levelo://app?vid=d45a2f6c-957b-46cd-bd89-ee8e58d1536e"},"vehicle_type_id":"4","last_reported":1742998234,"current_range_meters":11200,"station_id":"","pricing_plan_id":"cebpf4jnsgd1na2vs0mg"},{"bike_id":"6a0559e7-710d-4412-9e61-8c930a73e189","system_id":"levelo_inurba_marseille","lat":43.23061,"lon":5.35493,"is_reserved":false,"is_disabled":false,"rental_uris":{"android":"levelo://app?vid=6a0559e7-710d-4412-9e61-8c930a73e189","ios":"levelo://app?vid=6a0559e7-710d-4412-9e61-8c930a73e189"},"vehicle_type_id":"4","last_reported":1742998234,"current_range_meters":10800,"station_id":"cpo3342slgdg3j2ifvpg","pricing_plan_id":"cebpf4jnsgd1na2vs0mg"},{"bike_id":"f335ed49-594d-4e75-a426-7b7c0bd601c4","system_id":"levelo_inurba_marseille","lat":43.29618,"lon":5.3715,"is_reserved":false,"is_disabled":false,"rental_uris":{"android":"levelo://app?vid=f335ed49-594d-4e75-a426-7b7c0bd601c4","ios":"levelo://app?vid=f335ed49-594d-4e75-a426-7b7c0bd601c4"},"vehicle_type_id":"4","last_reported":1742998234,"current_range_meters":10800,"station_id":"ce4bgnh2rcd13ifvqc0g","pricing_plan_id":"cebpf4jnsgd1na2vs0mg"},{"bike_id":"0383eab6-696d-43a1-8f44-295fb41f1668","system_id":"levelo_inurba_marseille","lat":43.2826,"lon":5.35072,"is_reserved":false,"is_disabled":false,"rental_uris":{"android":"levelo://app?vid=0383eab6-696d-43a1-8f44-295fb41f1668","ios":"levelo://app?vid=0383eab6-696d-43a1-8f44-295fb41f1668"},"vehicle_type_id":"4","last_reported":1742998234,"current_range_meters":11200,"station_id":"ce4bhbp2rcd13ifvqerg","pricing_plan_id":"cebpf4jnsgd1na2vs0mg"},{"bike_id":"85230720-1a4d-44dc-bf02-1d5e8de09858","system_id":"levelo_inurba_marseille","lat":43.24074,"lon":5.37759,"is_reserved":false,"is_disabled":false,"rental_uris":{"android":"levelo://app?vid=85230720-1a4d-44dc-bf02-1d5e8de09858","ios":"levelo://app?vid=85230720-1a4d-44dc-bf02-1d5e8de09858"},"vehicle_type_id":"4","last_reported":1742998234,"current_range_meters":11200,"station_id":"ce4bhnp2rcd13ifvqgvg","pricing_plan_id":"cebpf4jnsgd1na2vs0mg"},{"bike_id":"9f4ecba5-ad91-4d3d-986f-d2f943c2bc37","system_id":"levelo_inurba_marseille","lat":43.28264,"lon":5.35062,"is_reserved":false,"is_disabled":false,"rental_uris":{"android":"levelo://app?vid=9f4ecba5-ad91-4d3d-986f-d2f943c2bc37","ios":"levelo://app?vid=9f4ecba5-ad91-4d3d-986f-d2f943c2bc37"},"vehicle_type_id":"4","last_reported":1742998234,"current_range_meters":11200,"station_id":"ce4bhbp2rcd13ifvqerg","pricing_plan_id":"cebpf4jnsgd1na2vs0mg"},{"bike_id":"bb96378c-3fb5-4844-a658-80f9f7098e9f","system_id":"levelo_inurba_marseille","lat":43.27371,"lon":5.36251,"is_reserved":false,"is_disabled":false,"rental_uris":{"android":"levelo://app?vid=bb96378c-3fb5-4844-a658-80f9f7098e9f","ios":"levelo://app?vid=bb96378c-3fb5-4844-a658-80f9f7098e9f"},"vehicle_type_id":"4","last_reported":1742998234,"current_range_meters":11200,"station_id":"ce4bhbh2rcd13ifvqeo0","pricing_plan_id":"cebpf4jnsgd1na2vs0mg"},{"bike_id":"d22eb261-e0f2-482f-b572-53d1a4ab5e5c","system_id":"levelo_inurba_marseille","lat":43.27373,"lon":5.36261,"is_reserved":false,"is_disabled":false,"rental_uris":{"android":"levelo://app?vid=d22eb261-e0f2-482f-b572-53d1a4ab5e5c","ios":"levelo://app?vid=d22eb261-e0f2-482f-b572-53d1a4ab5e5c"},"vehicle_type_id":"4","last_reported":1742998234,"current_range_meters":11600,"station_id":"ce4bhbh2rcd13ifvqeo0","pricing_plan_id":"cebpf4jnsgd1na2vs0mg"},{"bike_id":"0d7a1304-87c2-4dc1-b1b3-524ea223182a","system_id":"levelo_inurba_marseille","lat":43.30959,"lon":5.39041,"is_reserved":false,"is_disabled":false,"rental_uris":{"android":"levelo://app?vid=0d7a1304-87c2-4dc1-b1b3-524ea223182a","ios":"levelo://app?vid=0d7a1304-87c2-4dc1-b1b3-524ea223182a"},"vehicle_type_id":"4","last_reported":1742998234,"current_range_meters":11600,"station_id":"ce4bgup2rcd13ifvqco0","pricing_plan_id":"cebpf4jnsgd1na2vs0mg"},{"bike_id":"e99cec06-4745-495d-89ce-a260e447c3c9","system_id":"levelo_inurba_marseille","lat":43.292951,"lon":5.371634,"is_reserved":false,"is_disabled":false,"rental_uris":{"android":"levelo://app?vid=e99cec06-4745-495d-89ce-a260e447c3c9","ios":"levelo://app?vid=e99cec06-4745-495d-89ce-a260e447c3c9"},"vehicle_type_id":"4","last_reported":1742998234,"current_range_meters":11600,"station_id":"ce4bgh92rcd13ifvqb40","pricing_plan_id":"cebpf4jnsgd1na2vs0mg"},{"bike_id":"11c31ccf-3dff-440f-9d7d-08a3d89939fa","system_id":"levelo_inurba_marseille","lat":43.29207,"lon":5.35805,"is_reserved":false,"is_disabled":false,"rental_uris":{"android":"levelo://app?vid=11c31ccf-3dff-440f-9d7d-08a3d89939fa","ios":"levelo://app?vid=11c31ccf-3dff-440f-9d7d-08a3d89939fa"},"vehicle_type_id":"4","last_reported":1742998234,"current_range_meters":11600,"station_id":"ce4bhb12rcd13ifvqel0","pricing_plan_id":"cebpf4jnsgd1na2vs0mg"},{"bike_id":"16e3790f-41b6-400e-8d88-6751ca433300","system_id":"levelo_inurba_marseille","lat":43.25006,"lon":5.38954,"is_reserved":false,"is_disabled":false,"rental_uris":{"android":"levelo://app?vid=16e3790f-41b6-400e-8d88-6751ca433300","ios":"levelo://app?vid=16e3790f-41b6-400e-8d88-6751ca433300"},"vehicle_type_id":"4","last_reported":1742998234,"current_range_meters":11600,"station_id":"ce4bhgp2rcd13ifvqfd0","pricing_plan_id":"cebpf4jnsgd1na2vs0mg"},{"bike_id":"ccdfac36-22da-4f2d-bd50-7bf147cc0fff","system_id":"levelo_inurba_marseille","lat":43.29898,"lon":5.43665,"is_reserved":false,"is_disabled":false,"rental_uris":{"android":"levelo://app?vid=ccdfac36-22da-4f2d-bd50-7bf147cc0fff","ios":"levelo://app?vid=ccdfac36-22da-4f2d-bd50-7bf147cc0fff"},"vehicle_type_id":"4","last_reported":1742998234,"current_range_meters":12000,"station_id":"ce4bhpp2rcd13ifvqhfg","pricing_plan_id":"cebpf4jnsgd1na2vs0mg"},{"bike_id":"3438569c-1902-46aa-8c9d-f1e41df53646","system_id":"levelo_inurba_marseille","lat":43.312357,"lon":5.368327,"is_reserved":false,"is_disabled":false,"rental_uris":{"android":"levelo://app?vid=3438569c-1902-46aa-8c9d-f1e41df53646","ios":"levelo://app?vid=3438569c-1902-46aa-8c9d-f1e41df53646"},"vehicle_type_id":"4","last_reported":1742998234,"current_range_meters":12000,"station_id":"","pricing_plan_id":"cebpf4jnsgd1na2vs0mg"},{"bike_id":"71c8e650-22af-4084-a3bd-771dc2ba1d15","system_id":"levelo_inurba_marseille","lat":43.25718,"lon":5.41111,"is_reserved":false,"is_disabled":false,"rental_uris":{"android":"levelo://app?vid=71c8e650-22af-4084-a3bd-771dc2ba1d15","ios":"levelo://app?vid=71c8e650-22af-4084-a3bd-771dc2ba1d15"},"vehicle_type_id":"4","last_reported":1742998234,"current_range_meters":12000,"station_id":"ce4bhkp2rcd13ifvqgd0","pricing_plan_id":"cebpf4jnsgd1na2vs0mg"},{"bike_id":"2623a753-dcde-4ffa-9bf1-3275e6037e7a","system_id":"levelo_inurba_marseille","lat":43.32479,"lon":5.36589,"is_reserved":false,"is_disabled":false,"rental_uris":{"android":"levelo://app?vid=2623a753-dcde-4ffa-9bf1-3275e6037e7a","ios":"levelo://app?vid=2623a753-dcde-4ffa-9bf1-3275e6037e7a"},"vehicle_type_id":"4","last_reported":1742998234,"current_range_meters":12000,"station_id":"ce4bhs12rcd13ifvqhvg","pricing_plan_id":"cebpf4jnsgd1na2vs0mg"},{"bike_id":"1d165c56-236e-4374-8632-8a15f8f79471","system_id":"levelo_inurba_marseille","lat":43.3127,"lon":5.36825,"is_reserved":false,"is_disabled":false,"rental_uris":{"android":"levelo://app?vid=1d165c56-236e-4374-8632-8a15f8f79471","ios":"levelo://app?vid=1d165c56-236e-4374-8632-8a15f8f79471"},"vehicle_type_id":"4","last_reported":1742998234,"current_range_meters":12000,"station_id":"ce4bgl92rcd13ifvqbq0","pricing_plan_id":"cebpf4jnsgd1na2vs0mg"},{"bike_id":"2fac4004-0944-4575-a338-55de22a479f3","system_id":"levelo_inurba_marseille","lat":43.28271,"lon":5.35069,"is_reserved":false,"is_disabled":false,"rental_uris":{"android":"levelo://app?vid=2fac4004-0944-4575-a338-55de22a479f3","ios":"levelo://app?vid=2fac4004-0944-4575-a338-55de22a479f3"},"vehicle_type_id":"4","last_reported":1742998234,"current_range_meters":12000,"station_id":"ce4bhbp2rcd13ifvqerg","pricing_plan_id":"cebpf4jnsgd1na2vs0mg"},{"bike_id":"484928c8-8c60-48c3-a758-e3e274268153","system_id":"levelo_inurba_marseille","lat":43.24163,"lon":5.36403,"is_reserved":false,"is_disabled":false,"rental_uris":{"android":"levelo://app?vid=484928c8-8c60-48c3-a758-e3e274268153","ios":"levelo://app?vid=484928c8-8c60-48c3-a758-e3e274268153"},"vehicle_type_id":"4","last_reported":1742998234,"current_range_meters":12000,"station_id":"cpo36qri1sfpv3e86is0","pricing_plan_id":"cebpf4jnsgd1na2vs0mg"},{"bike_id":"1ffe7db3-026c-49e2-9097-d01cbf4dca57","system_id":"levelo_inurba_marseille","lat":43.27056,"lon":5.40263,"is_reserved":false,"is_disabled":false,"rental_uris":{"android":"levelo://app?vid=1ffe7db3-026c-49e2-9097-d01cbf4dca57","ios":"levelo://app?vid=1ffe7db3-026c-49e2-9097-d01cbf4dca57"},"vehicle_type_id":"4","last_reported":1742998234,"current_range_meters":12000,"station_id":"ce4bhk92rcd13ifvqgc0","pricing_plan_id":"cebpf4jnsgd1na2vs0mg"},{"bike_id":"30fb7409-637b-442a-84b0-f23cad9a2a74","system_id":"levelo_inurba_marseille","lat":43.27379,"lon":5.36255,"is_reserved":false,"is_disabled":false,"rental_uris":{"android":"levelo://app?vid=30fb7409-637b-442a-84b0-f23cad9a2a74","ios":"levelo://app?vid=30fb7409-637b-442a-84b0-f23cad9a2a74"},"vehicle_type_id":"4","last_reported":1742998234,"current_range_meters":12000,"station_id":"ce4bhbh2rcd13ifvqeo0","pricing_plan_id":"cebpf4jnsgd1na2vs0mg"},{"bike_id":"42c46e69-8825-4881-b438-a13867fb15c8","system_id":"levelo_inurba_marseille","lat":43.28001,"lon":5.40023,"is_reserved":false,"is_disabled":false,"rental_uris":{"android":"levelo://app?vid=42c46e69-8825-4881-b438-a13867fb15c8","ios":"levelo://app?vid=42c46e69-8825-4881-b438-a13867fb15c8"},"vehicle_type_id":"4","last_reported":1742998234,"current_range_meters":12000,"station_id":"ce4bho92rcd13ifvqh4g","pricing_plan_id":"cebpf4jnsgd1na2vs0mg"},{"bike_id":"5b830359-30b8-45d9-a902-126192112277","system_id":"levelo_inurba_marseille","lat":43.23193,"lon":5.35544,"is_reserved":false,"is_disabled":false,"rental_uris":{"android":"levelo://app?vid=5b830359-30b8-45d9-a902-126192112277","ios":"levelo://app?vid=5b830359-30b8-45d9-a902-126192112277"},"vehicle_type_id":"4","last_reported":1742998234,"current_range_meters":12400,"station_id":"ce4bhu92rcd13ifvqi70","pricing_plan_id":"cebpf4jnsgd1na2vs0mg"},{"bike_id":"9ddf629c-17e7-4a11-8070-54ed820444dc","system_id":"levelo_inurba_marseille","lat":43.23171,"lon":5.43657,"is_reserved":false,"is_disabled":false,"rental_uris":{"android":"levelo://app?vid=9ddf629c-17e7-4a11-8070-54ed820444dc","ios":"levelo://app?vid=9ddf629c-17e7-4a11-8070-54ed820444dc"},"vehicle_type_id":"4","last_reported":1742998234,"current_range_meters":12400,"station_id":"ce4bhmp2rcd13ifvqgog","pricing_plan_id":"cebpf4jnsgd1na2vs0mg"},{"bike_id":"b3279f87-2d05-49bc-8af7-5bda53a1f332","system_id":"levelo_inurba_marseille","lat":43.23966,"lon":5.36642,"is_reserved":false,"is_disabled":false,"rental_uris":{"android":"levelo://app?vid=b3279f87-2d05-49bc-8af7-5bda53a1f332","ios":"levelo://app?vid=b3279f87-2d05-49bc-8af7-5bda53a1f332"},"vehicle_type_id":"4","last_reported":1742998234,"current_range_meters":12400,"station_id":"ce4bhi12rcd13ifvqfp0","pricing_plan_id":"cebpf4jnsgd1na2vs0mg"},{"bike_id":"9490ab3f-b563-4312-b2ed-009944c7886e","system_id":"levelo_inurba_marseille","lat":43.3248,"lon":5.36575,"is_reserved":false,"is_disabled":false,"rental_uris":{"android":"levelo://app?vid=9490ab3f-b563-4312-b2ed-009944c7886e","ios":"levelo://app?vid=9490ab3f-b563-4312-b2ed-009944c7886e"},"vehicle_type_id":"4","last_reported":1742998234,"current_range_meters":12400,"station_id":"ce4bhs12rcd13ifvqhvg","pricing_plan_id":"cebpf4jnsgd1na2vs0mg"},{"bike_id":"32f5fa30-be78-4ef7-9a30-7ad362928e8e","system_id":"levelo_inurba_marseille","lat":43.24401,"lon":5.37052,"is_reserved":false,"is_disabled":false,"rental_uris":{"android":"levelo://app?vid=32f5fa30-be78-4ef7-9a30-7ad362928e8e","ios":"levelo://app?vid=32f5fa30-be78-4ef7-9a30-7ad362928e8e"},"vehicle_type_id":"4","last_reported":1742998234,"current_range_meters":12400,"station_id":"ce4bhhh2rcd13ifvqfk0","pricing_plan_id":"cebpf4jnsgd1na2vs0mg"},{"bike_id":"4ab53901-9274-4da9-865c-02fe13e34024","system_id":"levelo_inurba_marseille","lat":43.29643,"lon":5.37147,"is_reserved":false,"is_disabled":false,"rental_uris":{"android":"levelo://app?vid=4ab53901-9274-4da9-865c-02fe13e34024","ios":"levelo://app?vid=4ab53901-9274-4da9-865c-02fe13e34024"},"vehicle_type_id":"4","last_reported":1742998234,"current_range_meters":12400,"station_id":"ce4bgnh2rcd13ifvqc0g","pricing_plan_id":"cebpf4jnsgd1na2vs0mg"},{"bike_id":"ddb80a09-7364-48e1-b291-527dbdfef5d0","system_id":"levelo_inurba_marseille","lat":43.268083,"lon":5.402615,"is_reserved":false,"is_disabled":false,"rental_uris":{"android":"levelo://app?vid=ddb80a09-7364-48e1-b291-527dbdfef5d0","ios":"levelo://app?vid=ddb80a09-7364-48e1-b291-527dbdfef5d0"},"vehicle_type_id":"4","last_reported":1742998234,"current_range_meters":12400,"station_id":"ce501612rcd8frsf0b60","pricing_plan_id":"cebpf4jnsgd1na2vs0mg"},{"bike_id":"feb02021-c91c-4994-8c83-a0f717e424da","system_id":"levelo_inurba_marseille","lat":43.2501,"lon":5.38908,"is_reserved":false,"is_disabled":false,"rental_uris":{"android":"levelo://app?vid=feb02021-c91c-4994-8c83-a0f717e424da","ios":"levelo://app?vid=feb02021-c91c-4994-8c83-a0f717e424da"},"vehicle_type_id":"4","last_reported":1742998234,"current_range_meters":12400,"station_id":"ce4bhgp2rcd13ifvqfd0","pricing_plan_id":"cebpf4jnsgd1na2vs0mg"},{"bike_id":"6014c8c5-d179-414f-ba5e-6122a0b3b802","system_id":"levelo_inurba_marseille","lat":43.23146,"lon":5.43713,"is_reserved":false,"is_disabled":false,"rental_uris":{"android":"levelo://app?vid=6014c8c5-d179-414f-ba5e-6122a0b3b802","ios":"levelo://app?vid=6014c8c5-d179-414f-ba5e-6122a0b3b802"},"vehicle_type_id":"4","last_reported":1742998234,"current_range_meters":12400,"station_id":"ce4bhmp2rcd13ifvqgog","pricing_plan_id":"cebpf4jnsgd1na2vs0mg"},{"bike_id":"b993fda9-e005-40e6-b0e7-62fd9edd8461","system_id":"levelo_inurba_marseille","lat":43.27324,"lon":5.391,"is_reserved":false,"is_disabled":false,"rental_uris":{"android":"levelo://app?vid=b993fda9-e005-40e6-b0e7-62fd9edd8461","ios":"levelo://app?vid=b993fda9-e005-40e6-b0e7-62fd9edd8461"},"vehicle_type_id":"4","last_reported":1742998234,"current_range_meters":12400,"station_id":"ce4bhgp2rcd13ifvqfe0","pricing_plan_id":"cebpf4jnsgd1na2vs0mg"},{"bike_id":"42c44b1b-46b7-4c55-a3c2-9af930fd6f2f","system_id":"levelo_inurba_marseille","lat":43.29896,"lon":5.43674,"is_reserved":false,"is_disabled":false,"rental_uris":{"android":"levelo://app?vid=42c44b1b-46b7-4c55-a3c2-9af930fd6f2f","ios":"levelo://app?vid=42c44b1b-46b7-4c55-a3c2-9af930fd6f2f"},"vehicle_type_id":"4","last_reported":1742998234,"current_range_meters":12800,"station_id":"ce4bhpp2rcd13ifvqhfg","pricing_plan_id":"cebpf4jnsgd1na2vs0mg"},{"bike_id":"f1414457-b578-4c46-b2bf-7e89a08e69ff","system_id":"levelo_inurba_marseille","lat":43.30556,"lon":5.36488,"is_reserved":false,"is_disabled":false,"rental_uris":{"android":"levelo://app?vid=f1414457-b578-4c46-b2bf-7e89a08e69ff","ios":"levelo://app?vid=f1414457-b578-4c46-b2bf-7e89a08e69ff"},"vehicle_type_id":"4","last_reported":1742998234,"current_range_meters":12800,"station_id":"","pricing_plan_id":"cebpf4jnsgd1na2vs0mg"},{"bike_id":"ed6c471e-ec6e-4614-87fd-7c89663a773b","system_id":"levelo_inurba_marseille","lat":43.27373,"lon":5.3626,"is_reserved":false,"is_disabled":false,"rental_uris":{"android":"levelo://app?vid=ed6c471e-ec6e-4614-87fd-7c89663a773b","ios":"levelo://app?vid=ed6c471e-ec6e-4614-87fd-7c89663a773b"},"vehicle_type_id":"4","last_reported":1742998234,"current_range_meters":12800,"station_id":"ce4bhbh2rcd13ifvqeo0","pricing_plan_id":"cebpf4jnsgd1na2vs0mg"},{"bike_id":"32801816-2201-4874-aadf-00bf1eb21f17","system_id":"levelo_inurba_marseille","lat":43.24669,"lon":5.38162,"is_reserved":false,"is_disabled":false,"rental_uris":{"android":"levelo://app?vid=32801816-2201-4874-aadf-00bf1eb21f17","ios":"levelo://app?vid=32801816-2201-4874-aadf-00bf1eb21f17"},"vehicle_type_id":"4","last_reported":1742998234,"current_range_meters":12800,"station_id":"ce4bhih2rcd13ifvqfr0","pricing_plan_id":"cebpf4jnsgd1na2vs0mg"},{"bike_id":"9e4dae27-4c9b-4b7d-bc96-eb2a33a07992","system_id":"levelo_inurba_marseille","lat":43.259306,"lon":5.40909,"is_reserved":false,"is_disabled":false,"rental_uris":{"android":"levelo://app?vid=9e4dae27-4c9b-4b7d-bc96-eb2a33a07992","ios":"levelo://app?vid=9e4dae27-4c9b-4b7d-bc96-eb2a33a07992"},"vehicle_type_id":"4","last_reported":1742998234,"current_range_meters":12800,"station_id":"ce4bhm92rcd13ifvqglg","pricing_plan_id":"cebpf4jnsgd1na2vs0mg"},{"bike_id":"c7effb9b-fc79-459f-9dec-31da0132c745","system_id":"levelo_inurba_marseille","lat":43.26552,"lon":5.37287,"is_reserved":false,"is_disabled":false,"rental_uris":{"android":"levelo://app?vid=c7effb9b-fc79-459f-9dec-31da0132c745","ios":"levelo://app?vid=c7effb9b-fc79-459f-9dec-31da0132c745"},"vehicle_type_id":"4","last_reported":1742998234,"current_range_meters":12800,"station_id":"ce4bhg12rcd13ifvqf70","pricing_plan_id":"cebpf4jnsgd1na2vs0mg"},{"bike_id":"53342180-c148-436a-ad56-1c957642ec6a","system_id":"levelo_inurba_marseille","lat":43.23197,"lon":5.35564,"is_reserved":false,"is_disabled":false,"rental_uris":{"android":"levelo://app?vid=53342180-c148-436a-ad56-1c957642ec6a","ios":"levelo://app?vid=53342180-c148-436a-ad56-1c957642ec6a"},"vehicle_type_id":"4","last_reported":1742998234,"current_range_meters":12800,"station_id":"ce4bhu92rcd13ifvqi70","pricing_plan_id":"cebpf4jnsgd1na2vs0mg"},{"bike_id":"90eb7e27-4960-4325-80fc-ae2a1cce4035","system_id":"levelo_inurba_marseille","lat":43.28002,"lon":5.40014,"is_reserved":false,"is_disabled":false,"rental_uris":{"android":"levelo://app?vid=90eb7e27-4960-4325-80fc-ae2a1cce4035","ios":"levelo://app?vid=90eb7e27-4960-4325-80fc-ae2a1cce4035"},"vehicle_type_id":"4","last_reported":1742998234,"current_range_meters":12800,"station_id":"ce4bho92rcd13ifvqh4g","pricing_plan_id":"cebpf4jnsgd1na2vs0mg"},{"bike_id":"34de1343-7432-400e-8474-442f0d6aa322","system_id":"levelo_inurba_marseille","lat":43.2668,"lon":5.38271,"is_reserved":false,"is_disabled":false,"rental_uris":{"android":"levelo://app?vid=34de1343-7432-400e-8474-442f0d6aa322","ios":"levelo://app?vid=34de1343-7432-400e-8474-442f0d6aa322"},"vehicle_type_id":"4","last_reported":1742998234,"current_range_meters":13600,"station_id":"ce4bhg92rcd13ifvqf90","pricing_plan_id":"cebpf4jnsgd1na2vs0mg"},{"bike_id":"0aa2156f-3b80-46f0-bd25-d03f4fff11f5","system_id":"levelo_inurba_marseille","lat":43.27212,"lon":5.39192,"is_reserved":false,"is_disabled":false,"rental_uris":{"android":"levelo://app?vid=0aa2156f-3b80-46f0-bd25-d03f4fff11f5","ios":"levelo://app?vid=0aa2156f-3b80-46f0-bd25-d03f4fff11f5"},"vehicle_type_id":"4","last_reported":1742998234,"current_range_meters":12800,"station_id":"ce4bhhp2rcd13ifvqfm0","pricing_plan_id":"cebpf4jnsgd1na2vs0mg"},{"bike_id":"46bc7627-5963-437b-83ed-b3f9497370e8","system_id":"levelo_inurba_marseille","lat":43.29884,"lon":5.43659,"is_reserved":false,"is_disabled":false,"rental_uris":{"android":"levelo://app?vid=46bc7627-5963-437b-83ed-b3f9497370e8","ios":"levelo://app?vid=46bc7627-5963-437b-83ed-b3f9497370e8"},"vehicle_type_id":"4","last_reported":1742998234,"current_range_meters":13600,"station_id":"ce4bhpp2rcd13ifvqhfg","pricing_plan_id":"cebpf4jnsgd1na2vs0mg"},{"bike_id":"466e2e46-838c-4f9d-b2cf-0f4bacfcd6ac","system_id":"levelo_inurba_marseille","lat":43.28422,"lon":5.34981,"is_reserved":false,"is_disabled":false,"rental_uris":{"android":"levelo://app?vid=466e2e46-838c-4f9d-b2cf-0f4bacfcd6ac","ios":"levelo://app?vid=466e2e46-838c-4f9d-b2cf-0f4bacfcd6ac"},"vehicle_type_id":"4","last_reported":1742998234,"current_range_meters":13600,"station_id":"ce4bhbh2rcd13ifvqepg","pricing_plan_id":"cebpf4jnsgd1na2vs0mg"},{"bike_id":"c2fa1070-4e4e-42cb-a34a-c0f1a94e593b","system_id":"levelo_inurba_marseille","lat":43.25119,"lon":5.40321,"is_reserved":false,"is_disabled":false,"rental_uris":{"android":"levelo://app?vid=c2fa1070-4e4e-42cb-a34a-c0f1a94e593b","ios":"levelo://app?vid=c2fa1070-4e4e-42cb-a34a-c0f1a94e593b"},"vehicle_type_id":"4","last_reported":1742998234,"current_range_meters":13600,"station_id":"ce4bhlh2rcd13ifvqgig","pricing_plan_id":"cebpf4jnsgd1na2vs0mg"},{"bike_id":"7dec9f81-dcd3-4e58-ae8f-e94a482e1b0e","system_id":"levelo_inurba_marseille","lat":43.25933,"lon":5.40908,"is_reserved":false,"is_disabled":false,"rental_uris":{"android":"levelo://app?vid=7dec9f81-dcd3-4e58-ae8f-e94a482e1b0e","ios":"levelo://app?vid=7dec9f81-dcd3-4e58-ae8f-e94a482e1b0e"},"vehicle_type_id":"4","last_reported":1742998234,"current_range_meters":14000,"station_id":"ce4bhm92rcd13ifvqglg","pricing_plan_id":"cebpf4jnsgd1na2vs0mg"},{"bike_id":"00a6566c-9629-4dce-b6c6-f9a859b388e2","system_id":"levelo_inurba_marseille","lat":43.28982,"lon":5.35598,"is_reserved":false,"is_disabled":false,"rental_uris":{"android":"levelo://app?vid=00a6566c-9629-4dce-b6c6-f9a859b388e2","ios":"levelo://app?vid=00a6566c-9629-4dce-b6c6-f9a859b388e2"},"vehicle_type_id":"4","last_reported":1742998234,"current_range_meters":14000,"station_id":"ce4bhb92rcd13ifvqen0","pricing_plan_id":"cebpf4jnsgd1na2vs0mg"},{"bike_id":"43ba83ff-58f6-4ef3-973b-5e5a54d053f8","system_id":"levelo_inurba_marseille","lat":43.25582,"lon":5.38235,"is_reserved":false,"is_disabled":false,"rental_uris":{"android":"levelo://app?vid=43ba83ff-58f6-4ef3-973b-5e5a54d053f8","ios":"levelo://app?vid=43ba83ff-58f6-4ef3-973b-5e5a54d053f8"},"vehicle_type_id":"4","last_reported":1742998234,"current_range_meters":14000,"station_id":"ce4bhih2rcd13ifvqfs0","pricing_plan_id":"cebpf4jnsgd1na2vs0mg"},{"bike_id":"ce6fb305-2ce9-42a2-a222-e7a3d9e1b14e","system_id":"levelo_inurba_marseille","lat":43.330303,"lon":5.3904,"is_reserved":false,"is_disabled":false,"rental_uris":{"android":"levelo://app?vid=ce6fb305-2ce9-42a2-a222-e7a3d9e1b14e","ios":"levelo://app?vid=ce6fb305-2ce9-42a2-a222-e7a3d9e1b14e"},"vehicle_type_id":"4","last_reported":1742998234,"current_range_meters":14000,"station_id":"ce4bhr92rcd13ifvqhrg","pricing_plan_id":"cebpf4jnsgd1na2vs0mg"},{"bike_id":"a446a54f-4fbf-40df-b247-11c1431d2281","system_id":"levelo_inurba_marseille","lat":43.31229,"lon":5.36875,"is_reserved":false,"is_disabled":false,"rental_uris":{"android":"levelo://app?vid=a446a54f-4fbf-40df-b247-11c1431d2281","ios":"levelo://app?vid=a446a54f-4fbf-40df-b247-11c1431d2281"},"vehicle_type_id":"4","last_reported":1742998234,"current_range_meters":14000,"station_id":"ce4bgl92rcd13ifvqbq0","pricing_plan_id":"cebpf4jnsgd1na2vs0mg"},{"bike_id":"0f9443e3-33eb-4c08-9852-439b28315704","system_id":"levelo_inurba_marseille","lat":43.30777,"lon":5.37657,"is_reserved":false,"is_disabled":false,"rental_uris":{"android":"levelo://app?vid=0f9443e3-33eb-4c08-9852-439b28315704","ios":"levelo://app?vid=0f9443e3-33eb-4c08-9852-439b28315704"},"vehicle_type_id":"4","last_reported":1742998234,"current_range_meters":14000,"station_id":"ce4bgv92rcd13ifvqcq0","pricing_plan_id":"cebpf4jnsgd1na2vs0mg"},{"bike_id":"53f39986-2d83-4317-a840-5b1fd1874c0c","system_id":"levelo_inurba_marseille","lat":43.30954,"lon":5.39039,"is_reserved":false,"is_disabled":false,"rental_uris":{"android":"levelo://app?vid=53f39986-2d83-4317-a840-5b1fd1874c0c","ios":"levelo://app?vid=53f39986-2d83-4317-a840-5b1fd1874c0c"},"vehicle_type_id":"4","last_reported":1742998234,"current_range_meters":14000,"station_id":"ce4bgup2rcd13ifvqco0","pricing_plan_id":"cebpf4jnsgd1na2vs0mg"},{"bike_id":"d72b2321-ec34-48cf-868e-8c5e65afe96e","system_id":"levelo_inurba_marseille","lat":43.27913,"lon":5.39591,"is_reserved":false,"is_disabled":false,"rental_uris":{"android":"levelo://app?vid=d72b2321-ec34-48cf-868e-8c5e65afe96e","ios":"levelo://app?vid=d72b2321-ec34-48cf-868e-8c5e65afe96e"},"vehicle_type_id":"4","last_reported":1742998234,"current_range_meters":14400,"station_id":"ce4bhf92rcd13ifvqf40","pricing_plan_id":"cebpf4jnsgd1na2vs0mg"},{"bike_id":"cfe64599-6385-4ade-8806-8fb29770c005","system_id":"levelo_inurba_marseille","lat":43.289991,"lon":5.356405,"is_reserved":false,"is_disabled":false,"rental_uris":{"android":"levelo://app?vid=cfe64599-6385-4ade-8806-8fb29770c005","ios":"levelo://app?vid=cfe64599-6385-4ade-8806-8fb29770c005"},"vehicle_type_id":"4","last_reported":1742998234,"current_range_meters":14400,"station_id":"ce4bhb92rcd13ifvqen0","pricing_plan_id":"cebpf4jnsgd1na2vs0mg"},{"bike_id":"ec53bf18-f9b3-45c2-b9db-681df6ba1ea6","system_id":"levelo_inurba_marseille","lat":43.28265,"lon":5.35064,"is_reserved":false,"is_disabled":false,"rental_uris":{"android":"levelo://app?vid=ec53bf18-f9b3-45c2-b9db-681df6ba1ea6","ios":"levelo://app?vid=ec53bf18-f9b3-45c2-b9db-681df6ba1ea6"},"vehicle_type_id":"4","last_reported":1742998234,"current_range_meters":14400,"station_id":"ce4bhbp2rcd13ifvqerg","pricing_plan_id":"cebpf4jnsgd1na2vs0mg"},{"bike_id":"e6a4283c-7856-46ec-9cca-8eeffa93a440","system_id":"levelo_inurba_marseille","lat":43.29987,"lon":5.38492,"is_reserved":false,"is_disabled":false,"rental_uris":{"android":"levelo://app?vid=e6a4283c-7856-46ec-9cca-8eeffa93a440","ios":"levelo://app?vid=e6a4283c-7856-46ec-9cca-8eeffa93a440"},"vehicle_type_id":"4","last_reported":1742998234,"current_range_meters":14400,"station_id":"ce4bgj92rcd13ifvqbd0","pricing_plan_id":"cebpf4jnsgd1na2vs0mg"},{"bike_id":"75c06f7f-50c2-478e-82e1-6253c989068c","system_id":"levelo_inurba_marseille","lat":43.326595,"lon":5.409898,"is_reserved":false,"is_disabled":false,"rental_uris":{"android":"levelo://app?vid=75c06f7f-50c2-478e-82e1-6253c989068c","ios":"levelo://app?vid=75c06f7f-50c2-478e-82e1-6253c989068c"},"vehicle_type_id":"4","last_reported":1742998234,"current_range_meters":14400,"station_id":"ce4bhpp2rcd13ifvqhgg","pricing_plan_id":"cebpf4jnsgd1na2vs0mg"},{"bike_id":"d4c9f042-2dba-4866-a886-580218bdf436","system_id":"levelo_inurba_marseille","lat":43.3126,"lon":5.40166,"is_reserved":false,"is_disabled":false,"rental_uris":{"android":"levelo://app?vid=d4c9f042-2dba-4866-a886-580218bdf436","ios":"levelo://app?vid=d4c9f042-2dba-4866-a886-580218bdf436"},"vehicle_type_id":"4","last_reported":1742998234,"current_range_meters":14400,"station_id":"ce4bh092rcd13ifvqd30","pricing_plan_id":"cebpf4jnsgd1na2vs0mg"},{"bike_id":"c6e3452b-f8d0-48b5-b208-01d642929070","system_id":"levelo_inurba_marseille","lat":43.30557,"lon":5.36703,"is_reserved":false,"is_disabled":false,"rental_uris":{"android":"levelo://app?vid=c6e3452b-f8d0-48b5-b208-01d642929070","ios":"levelo://app?vid=c6e3452b-f8d0-48b5-b208-01d642929070"},"vehicle_type_id":"4","last_reported":1742998234,"current_range_meters":14400,"station_id":"ce4bgrp2rcd13ifvqc9g","pricing_plan_id":"cebpf4jnsgd1na2vs0mg"},{"bike_id":"5a6dc6b6-6ec6-42d1-ac54-20233320938b","system_id":"levelo_inurba_marseille","lat":43.31231,"lon":5.36852,"is_reserved":false,"is_disabled":false,"rental_uris":{"android":"levelo://app?vid=5a6dc6b6-6ec6-42d1-ac54-20233320938b","ios":"levelo://app?vid=5a6dc6b6-6ec6-42d1-ac54-20233320938b"},"vehicle_type_id":"4","last_reported":1742998234,"current_range_meters":14400,"station_id":"ce4bgl92rcd13ifvqbq0","pricing_plan_id":"cebpf4jnsgd1na2vs0mg"},{"bike_id":"5a86a0ff-a812-42dc-84dd-dff8f4cf06da","system_id":"levelo_inurba_marseille","lat":43.28112,"lon":5.3786,"is_reserved":false,"is_disabled":false,"rental_uris":{"android":"levelo://app?vid=5a86a0ff-a812-42dc-84dd-dff8f4cf06da","ios":"levelo://app?vid=5a86a0ff-a812-42dc-84dd-dff8f4cf06da"},"vehicle_type_id":"4","last_reported":1742998234,"current_range_meters":14400,"station_id":"ce4bha12rcd13ifvqee0","pricing_plan_id":"cebpf4jnsgd1na2vs0mg"},{"bike_id":"310e06cf-913d-4ade-9e95-82b7a10e8a6d","system_id":"levelo_inurba_marseille","lat":43.30413,"lon":5.39761,"is_reserved":false,"is_disabled":false,"rental_uris":{"android":"levelo://app?vid=310e06cf-913d-4ade-9e95-82b7a10e8a6d","ios":"levelo://app?vid=310e06cf-913d-4ade-9e95-82b7a10e8a6d"},"vehicle_type_id":"4","last_reported":1742998234,"current_range_meters":14800,"station_id":"ce4bh092rcd13ifvqd20","pricing_plan_id":"cebpf4jnsgd1na2vs0mg"},{"bike_id":"0a4a36bf-847a-4136-9ce8-19ca855d9705","system_id":"levelo_inurba_marseille","lat":43.28415,"lon":5.34992,"is_reserved":false,"is_disabled":false,"rental_uris":{"android":"levelo://app?vid=0a4a36bf-847a-4136-9ce8-19ca855d9705","ios":"levelo://app?vid=0a4a36bf-847a-4136-9ce8-19ca855d9705"},"vehicle_type_id":"4","last_reported":1742998234,"current_range_meters":14800,"station_id":"ce4bhbh2rcd13ifvqepg","pricing_plan_id":"cebpf4jnsgd1na2vs0mg"},{"bike_id":"a7ccfd3e-e41c-4bb5-816d-2ffb88757b97","system_id":"levelo_inurba_marseille","lat":43.30166,"lon":5.38101,"is_reserved":false,"is_disabled":false,"rental_uris":{"android":"levelo://app?vid=a7ccfd3e-e41c-4bb5-816d-2ffb88757b97","ios":"levelo://app?vid=a7ccfd3e-e41c-4bb5-816d-2ffb88757b97"},"vehicle_type_id":"4","last_reported":1742998234,"current_range_meters":14800,"station_id":"ce4bgjp2rcd13ifvqbh0","pricing_plan_id":"cebpf4jnsgd1na2vs0mg"},{"bike_id":"de617568-0fcc-464f-be0c-0e9c5cd2329b","system_id":"levelo_inurba_marseille","lat":43.29161,"lon":5.37161,"is_reserved":false,"is_disabled":false,"rental_uris":{"android":"levelo://app?vid=de617568-0fcc-464f-be0c-0e9c5cd2329b","ios":"levelo://app?vid=de617568-0fcc-464f-be0c-0e9c5cd2329b"},"vehicle_type_id":"4","last_reported":1742998234,"current_range_meters":14800,"station_id":"ce4bha92rcd13ifvqeh0","pricing_plan_id":"cebpf4jnsgd1na2vs0mg"},{"bike_id":"94e79fc7-9367-4952-8689-794a28fc3d39","system_id":"levelo_inurba_marseille","lat":43.29896,"lon":5.4369,"is_reserved":false,"is_disabled":false,"rental_uris":{"android":"levelo://app?vid=94e79fc7-9367-4952-8689-794a28fc3d39","ios":"levelo://app?vid=94e79fc7-9367-4952-8689-794a28fc3d39"},"vehicle_type_id":"4","last_reported":1742998234,"current_range_meters":14800,"station_id":"ce4bhpp2rcd13ifvqhfg","pricing_plan_id":"cebpf4jnsgd1na2vs0mg"},{"bike_id":"75c7187b-7cb5-4136-b180-795a32bcbe1d","system_id":"levelo_inurba_marseille","lat":43.27974,"lon":5.38589,"is_reserved":false,"is_disabled":true,"rental_uris":{"android":"levelo://app?vid=75c7187b-7cb5-4136-b180-795a32bcbe1d","ios":"levelo://app?vid=75c7187b-7cb5-4136-b180-795a32bcbe1d"},"vehicle_type_id":"4","last_reported":1742998234,"current_range_meters":14800,"station_id":"","pricing_plan_id":"cebpf4jnsgd1na2vs0mg"},{"bike_id":"df0f87ca-76da-4d9b-a35f-91f6291f46ac","system_id":"levelo_inurba_marseille","lat":43.26209,"lon":5.37446,"is_reserved":false,"is_disabled":false,"rental_uris":{"android":"levelo://app?vid=df0f87ca-76da-4d9b-a35f-91f6291f46ac","ios":"levelo://app?vid=df0f87ca-76da-4d9b-a35f-91f6291f46ac"},"vehicle_type_id":"4","last_reported":1742998234,"current_range_meters":14800,"station_id":"ce4bhgp2rcd13ifvqfc0","pricing_plan_id":"cebpf4jnsgd1na2vs0mg"},{"bike_id":"a4e9e3fd-ebc7-468f-aaef-a21894efe6ce","system_id":"levelo_inurba_marseille","lat":43.2844,"lon":5.39207,"is_reserved":false,"is_disabled":false,"rental_uris":{"android":"levelo://app?vid=a4e9e3fd-ebc7-468f-aaef-a21894efe6ce","ios":"levelo://app?vid=a4e9e3fd-ebc7-468f-aaef-a21894efe6ce"},"vehicle_type_id":"4","last_reported":1742998234,"current_range_meters":14800,"station_id":"ce4bhoh2rcd13ifvqh5g","pricing_plan_id":"cebpf4jnsgd1na2vs0mg"},{"bike_id":"0ac88cdf-dd3a-494f-aaa5-2b24d1ce393f","system_id":"levelo_inurba_marseille","lat":43.23183,"lon":5.35586,"is_reserved":false,"is_disabled":false,"rental_uris":{"android":"levelo://app?vid=0ac88cdf-dd3a-494f-aaa5-2b24d1ce393f","ios":"levelo://app?vid=0ac88cdf-dd3a-494f-aaa5-2b24d1ce393f"},"vehicle_type_id":"4","last_reported":1742998234,"current_range_meters":15200,"station_id":"ce4bhu92rcd13ifvqi70","pricing_plan_id":"cebpf4jnsgd1na2vs0mg"},{"bike_id":"39ccec1f-5b11-4333-8c8a-e8a693ed917d","system_id":"levelo_inurba_marseille","lat":43.26546,"lon":5.37296,"is_reserved":false,"is_disabled":false,"rental_uris":{"android":"levelo://app?vid=39ccec1f-5b11-4333-8c8a-e8a693ed917d","ios":"levelo://app?vid=39ccec1f-5b11-4333-8c8a-e8a693ed917d"},"vehicle_type_id":"4","last_reported":1742998234,"current_range_meters":15200,"station_id":"ce4bhg12rcd13ifvqf70","pricing_plan_id":"cebpf4jnsgd1na2vs0mg"},{"bike_id":"3a1e57e4-0c34-4d53-b199-cd6a5a06bad2","system_id":"levelo_inurba_marseille","lat":43.284154,"lon":5.34979,"is_reserved":false,"is_disabled":false,"rental_uris":{"android":"levelo://app?vid=3a1e57e4-0c34-4d53-b199-cd6a5a06bad2","ios":"levelo://app?vid=3a1e57e4-0c34-4d53-b199-cd6a5a06bad2"},"vehicle_type_id":"4","last_reported":1742998234,"current_range_meters":15200,"station_id":"ce4bhbh2rcd13ifvqepg","pricing_plan_id":"cebpf4jnsgd1na2vs0mg"},{"bike_id":"ef849b03-f077-4ee8-a42b-b82c989676c6","system_id":"levelo_inurba_marseille","lat":43.28856,"lon":5.35852,"is_reserved":false,"is_disabled":false,"rental_uris":{"android":"levelo://app?vid=ef849b03-f077-4ee8-a42b-b82c989676c6","ios":"levelo://app?vid=ef849b03-f077-4ee8-a42b-b82c989676c6"},"vehicle_type_id":"4","last_reported":1742998234,"current_range_meters":15200,"station_id":"ce4bhb12rcd13ifvqem0","pricing_plan_id":"cebpf4jnsgd1na2vs0mg"},{"bike_id":"fc8e8371-f4e9-4721-bc19-563801e389dc","system_id":"levelo_inurba_marseille","lat":43.337444,"lon":5.374475,"is_reserved":false,"is_disabled":false,"rental_uris":{"android":"levelo://app?vid=fc8e8371-f4e9-4721-bc19-563801e389dc","ios":"levelo://app?vid=fc8e8371-f4e9-4721-bc19-563801e389dc"},"vehicle_type_id":"4","last_reported":1742998234,"current_range_meters":15200,"station_id":"","pricing_plan_id":"cebpf4jnsgd1na2vs0mg"},{"bike_id":"eeee9876-7a3d-43bc-9233-3b0d5bbbfb11","system_id":"levelo_inurba_marseille","lat":43.308857,"lon":5.37205,"is_reserved":false,"is_disabled":false,"rental_uris":{"android":"levelo://app?vid=eeee9876-7a3d-43bc-9233-3b0d5bbbfb11","ios":"levelo://app?vid=eeee9876-7a3d-43bc-9233-3b0d5bbbfb11"},"vehicle_type_id":"4","last_reported":1742998234,"current_range_meters":16000,"station_id":"ce4bguh2rcd13ifvqckg","pricing_plan_id":"cebpf4jnsgd1na2vs0mg"},{"bike_id":"b95904f4-9cde-4842-9a02-2ef55c5eb4ac","system_id":"levelo_inurba_marseille","lat":43.28426,"lon":5.34985,"is_reserved":false,"is_disabled":false,"rental_uris":{"android":"levelo://app?vid=b95904f4-9cde-4842-9a02-2ef55c5eb4ac","ios":"levelo://app?vid=b95904f4-9cde-4842-9a02-2ef55c5eb4ac"},"vehicle_type_id":"4","last_reported":1742998234,"current_range_meters":16000,"station_id":"ce4bhbh2rcd13ifvqepg","pricing_plan_id":"cebpf4jnsgd1na2vs0mg"},{"bike_id":"7f532646-0421-49d5-96f7-f295d19c3a47","system_id":"levelo_inurba_marseille","lat":43.28276,"lon":5.35075,"is_reserved":false,"is_disabled":false,"rental_uris":{"android":"levelo://app?vid=7f532646-0421-49d5-96f7-f295d19c3a47","ios":"levelo://app?vid=7f532646-0421-49d5-96f7-f295d19c3a47"},"vehicle_type_id":"4","last_reported":1742998234,"current_range_meters":16000,"station_id":"ce4bhbp2rcd13ifvqerg","pricing_plan_id":"cebpf4jnsgd1na2vs0mg"},{"bike_id":"c18155db-65c7-4d5a-8c5b-923eb75c675d","system_id":"levelo_inurba_marseille","lat":43.3209,"lon":5.36784,"is_reserved":false,"is_disabled":false,"rental_uris":{"android":"levelo://app?vid=c18155db-65c7-4d5a-8c5b-923eb75c675d","ios":"levelo://app?vid=c18155db-65c7-4d5a-8c5b-923eb75c675d"},"vehicle_type_id":"4","last_reported":1742998234,"current_range_meters":16000,"station_id":"ce4bhrh2rcd13ifvqhug","pricing_plan_id":"cebpf4jnsgd1na2vs0mg"},{"bike_id":"c14e6b46-7876-44b1-883b-1e9135dcd2db","system_id":"levelo_inurba_marseille","lat":43.2466,"lon":5.38172,"is_reserved":false,"is_disabled":false,"rental_uris":{"android":"levelo://app?vid=c14e6b46-7876-44b1-883b-1e9135dcd2db","ios":"levelo://app?vid=c14e6b46-7876-44b1-883b-1e9135dcd2db"},"vehicle_type_id":"4","last_reported":1742998234,"current_range_meters":16000,"station_id":"ce4bhih2rcd13ifvqfr0","pricing_plan_id":"cebpf4jnsgd1na2vs0mg"},{"bike_id":"5ca9ac81-53c9-444a-ab66-71f3af25a779","system_id":"levelo_inurba_marseille","lat":43.28001,"lon":5.40014,"is_reserved":false,"is_disabled":false,"rental_uris":{"android":"levelo://app?vid=5ca9ac81-53c9-444a-ab66-71f3af25a779","ios":"levelo://app?vid=5ca9ac81-53c9-444a-ab66-71f3af25a779"},"vehicle_type_id":"4","last_reported":1742998234,"current_range_meters":16000,"station_id":"ce4bho92rcd13ifvqh4g","pricing_plan_id":"cebpf4jnsgd1na2vs0mg"},{"bike_id":"8f9101f6-cdf8-4a72-bc7a-3ab68bdef9f0","system_id":"levelo_inurba_marseille","lat":43.292735,"lon":5.368437,"is_reserved":false,"is_disabled":false,"rental_uris":{"android":"levelo://app?vid=8f9101f6-cdf8-4a72-bc7a-3ab68bdef9f0","ios":"levelo://app?vid=8f9101f6-cdf8-4a72-bc7a-3ab68bdef9f0"},"vehicle_type_id":"4","last_reported":1742998234,"current_range_meters":16400,"station_id":"ce4bhbp2rcd13ifvqesg","pricing_plan_id":"cebpf4jnsgd1na2vs0mg"},{"bike_id":"53f09d97-4dfc-4157-8783-54063e155d1d","system_id":"levelo_inurba_marseille","lat":43.305423,"lon":5.36715,"is_reserved":false,"is_disabled":false,"rental_uris":{"android":"levelo://app?vid=53f09d97-4dfc-4157-8783-54063e155d1d","ios":"levelo://app?vid=53f09d97-4dfc-4157-8783-54063e155d1d"},"vehicle_type_id":"4","last_reported":1742998234,"current_range_meters":16400,"station_id":"ce4bgrp2rcd13ifvqc9g","pricing_plan_id":"cebpf4jnsgd1na2vs0mg"},{"bike_id":"c8713961-ce92-42f0-be9d-e912ab14713e","system_id":"levelo_inurba_marseille","lat":43.28004,"lon":5.40001,"is_reserved":false,"is_disabled":false,"rental_uris":{"android":"levelo://app?vid=c8713961-ce92-42f0-be9d-e912ab14713e","ios":"levelo://app?vid=c8713961-ce92-42f0-be9d-e912ab14713e"},"vehicle_type_id":"4","last_reported":1742998234,"current_range_meters":16400,"station_id":"ce4bho92rcd13ifvqh4g","pricing_plan_id":"cebpf4jnsgd1na2vs0mg"},{"bike_id":"052ce1de-eb2f-4c90-9b57-27fec55e051a","system_id":"levelo_inurba_marseille","lat":43.30305,"lon":5.36884,"is_reserved":false,"is_disabled":false,"rental_uris":{"android":"levelo://app?vid=052ce1de-eb2f-4c90-9b57-27fec55e051a","ios":"levelo://app?vid=052ce1de-eb2f-4c90-9b57-27fec55e051a"},"vehicle_type_id":"4","last_reported":1742998234,"current_range_meters":16400,"station_id":"ce4bgqh2rcd13ifvqc5g","pricing_plan_id":"cebpf4jnsgd1na2vs0mg"},{"bike_id":"379879bf-1f7f-45f5-9cac-b09d574b3620","system_id":"levelo_inurba_marseille","lat":43.27811,"lon":5.40709,"is_reserved":false,"is_disabled":false,"rental_uris":{"android":"levelo://app?vid=379879bf-1f7f-45f5-9cac-b09d574b3620","ios":"levelo://app?vid=379879bf-1f7f-45f5-9cac-b09d574b3620"},"vehicle_type_id":"4","last_reported":1742998234,"current_range_meters":16400,"station_id":"ce4bhnh2rcd13ifvqgtg","pricing_plan_id":"cebpf4jnsgd1na2vs0mg"},{"bike_id":"64f0ea86-1180-4755-95e1-3cbc9c8d4cf5","system_id":"levelo_inurba_marseille","lat":43.330138,"lon":5.438612,"is_reserved":false,"is_disabled":true,"rental_uris":{"android":"levelo://app?vid=64f0ea86-1180-4755-95e1-3cbc9c8d4cf5","ios":"levelo://app?vid=64f0ea86-1180-4755-95e1-3cbc9c8d4cf5"},"vehicle_type_id":"4","last_reported":1742998234,"current_range_meters":16400,"station_id":"","pricing_plan_id":"cebpf4jnsgd1na2vs0mg"},{"bike_id":"a03834e5-fa97-4593-85e3-5e0409d08be7","system_id":"levelo_inurba_marseille","lat":43.30133,"lon":5.37416,"is_reserved":false,"is_disabled":false,"rental_uris":{"android":"levelo://app?vid=a03834e5-fa97-4593-85e3-5e0409d08be7","ios":"levelo://app?vid=a03834e5-fa97-4593-85e3-5e0409d08be7"},"vehicle_type_id":"4","last_reported":1742998234,"current_range_meters":16400,"station_id":"ce4bgs92rcd13ifvqcc0","pricing_plan_id":"cebpf4jnsgd1na2vs0mg"},{"bike_id":"5018a59b-b386-4e99-b26c-192a8f1ed783","system_id":"levelo_inurba_marseille","lat":43.33336,"lon":5.35918,"is_reserved":false,"is_disabled":false,"rental_uris":{"android":"levelo://app?vid=5018a59b-b386-4e99-b26c-192a8f1ed783","ios":"levelo://app?vid=5018a59b-b386-4e99-b26c-192a8f1ed783"},"vehicle_type_id":"4","last_reported":1742998234,"current_range_meters":16400,"station_id":"","pricing_plan_id":"cebpf4jnsgd1na2vs0mg"},{"bike_id":"dd91e402-6b2b-4fdb-8ae9-02f1e0623ad6","system_id":"levelo_inurba_marseille","lat":43.29265,"lon":5.36851,"is_reserved":false,"is_disabled":false,"rental_uris":{"android":"levelo://app?vid=dd91e402-6b2b-4fdb-8ae9-02f1e0623ad6","ios":"levelo://app?vid=dd91e402-6b2b-4fdb-8ae9-02f1e0623ad6"},"vehicle_type_id":"4","last_reported":1742998234,"current_range_meters":16400,"station_id":"ce4bhbp2rcd13ifvqesg","pricing_plan_id":"cebpf4jnsgd1na2vs0mg"},{"bike_id":"c896a30e-408f-4fdc-aa97-dd0a7c5586b6","system_id":"levelo_inurba_marseille","lat":43.2319,"lon":5.4001,"is_reserved":false,"is_disabled":false,"rental_uris":{"android":"levelo://app?vid=c896a30e-408f-4fdc-aa97-dd0a7c5586b6","ios":"levelo://app?vid=c896a30e-408f-4fdc-aa97-dd0a7c5586b6"},"vehicle_type_id":"4","last_reported":1742998234,"current_range_meters":16400,"station_id":"ce4bhn12rcd13ifvqgqg","pricing_plan_id":"cebpf4jnsgd1na2vs0mg"},{"bike_id":"fb29b0da-feb7-48d2-8588-463bf101569b","system_id":"levelo_inurba_marseille","lat":43.305968,"lon":5.393603,"is_reserved":false,"is_disabled":false,"rental_uris":{"android":"levelo://app?vid=fb29b0da-feb7-48d2-8588-463bf101569b","ios":"levelo://app?vid=fb29b0da-feb7-48d2-8588-463bf101569b"},"vehicle_type_id":"4","last_reported":1742998234,"current_range_meters":16400,"station_id":"ce4bgvp2rcd13ifvqcu0","pricing_plan_id":"cebpf4jnsgd1na2vs0mg"},{"bike_id":"c9d25743-68ae-4479-9c17-59c34dbbf7e8","system_id":"levelo_inurba_marseille","lat":43.27872,"lon":5.41241,"is_reserved":false,"is_disabled":false,"rental_uris":{"android":"levelo://app?vid=c9d25743-68ae-4479-9c17-59c34dbbf7e8","ios":"levelo://app?vid=c9d25743-68ae-4479-9c17-59c34dbbf7e8"},"vehicle_type_id":"4","last_reported":1742998234,"current_range_meters":16800,"station_id":"","pricing_plan_id":"cebpf4jnsgd1na2vs0mg"},{"bike_id":"a45d900c-1f54-4730-9142-ad523c9f2893","system_id":"levelo_inurba_marseille","lat":43.27372,"lon":5.3625,"is_reserved":false,"is_disabled":false,"rental_uris":{"android":"levelo://app?vid=a45d900c-1f54-4730-9142-ad523c9f2893","ios":"levelo://app?vid=a45d900c-1f54-4730-9142-ad523c9f2893"},"vehicle_type_id":"4","last_reported":1742998234,"current_range_meters":16800,"station_id":"ce4bhbh2rcd13ifvqeo0","pricing_plan_id":"cebpf4jnsgd1na2vs0mg"},{"bike_id":"c1e5d953-d0ba-49d0-bc6a-922af072e596","system_id":"levelo_inurba_marseille","lat":43.25503,"lon":5.37648,"is_reserved":false,"is_disabled":false,"rental_uris":{"android":"levelo://app?vid=c1e5d953-d0ba-49d0-bc6a-922af072e596","ios":"levelo://app?vid=c1e5d953-d0ba-49d0-bc6a-922af072e596"},"vehicle_type_id":"4","last_reported":1742998234,"current_range_meters":16800,"station_id":"ce4bhh12rcd13ifvqff0","pricing_plan_id":"cebpf4jnsgd1na2vs0mg"},{"bike_id":"fee2bf30-a574-46a0-81dc-eb03f4357d2f","system_id":"levelo_inurba_marseille","lat":43.27948,"lon":5.41061,"is_reserved":false,"is_disabled":false,"rental_uris":{"android":"levelo://app?vid=fee2bf30-a574-46a0-81dc-eb03f4357d2f","ios":"levelo://app?vid=fee2bf30-a574-46a0-81dc-eb03f4357d2f"},"vehicle_type_id":"4","last_reported":1742998234,"current_range_meters":17200,"station_id":"ce4bhnp2rcd13ifvqh0g","pricing_plan_id":"cebpf4jnsgd1na2vs0mg"},{"bike_id":"19cfbc96-e7a9-40bb-83b8-1218342f06b9","system_id":"levelo_inurba_marseille","lat":43.28422,"lon":5.37518,"is_reserved":false,"is_disabled":false,"rental_uris":{"android":"levelo://app?vid=19cfbc96-e7a9-40bb-83b8-1218342f06b9","ios":"levelo://app?vid=19cfbc96-e7a9-40bb-83b8-1218342f06b9"},"vehicle_type_id":"4","last_reported":1742998234,"current_range_meters":17200,"station_id":"ce4bh412rcd13ifvqds0","pricing_plan_id":"cebpf4jnsgd1na2vs0mg"},{"bike_id":"dccb6bb5-8edb-4c87-88ed-2f9c8cd3b8a6","system_id":"levelo_inurba_marseille","lat":43.29816,"lon":5.36263,"is_reserved":false,"is_disabled":false,"rental_uris":{"android":"levelo://app?vid=dccb6bb5-8edb-4c87-88ed-2f9c8cd3b8a6","ios":"levelo://app?vid=dccb6bb5-8edb-4c87-88ed-2f9c8cd3b8a6"},