{"last_updated":1702919219,"ttl":30,"version":"2.2","data":{"bikes":[{"bike_id":"7e9215d4-152c-408d-82e5-a3e2eea9a09f","system_id":"levelo_inurba_marseille","lat":43.31341,"lon":5.367098,"is_reserved":false,"is_disabled":false,"rental_uris":{"android":"levelo://app?vid=7e9215d4-152c-408d-82e5-a3e2eea9a09f","ios":"levelo://app?vid=7e9215d4-152c-408d-82e5-a3e2eea9a09f"},"vehicle_type_id":"4","last_reported":1702919219,"current_range_meters":15200,"station_id":"ce4bgr92rcd13ifvqc6g","pricing_plan_id":"free"},{"bike_id":"a423e70e-213d-4bae-964f-e88b3129574e","system_id":"levelo_inurba_marseille","lat":43.312239,"lon":5.368562,"is_reserved":false,"is_disabled":false,"rental_uris":{"android":"levelo://app?vid=a423e70e-213d-4bae-964f-e88b3129574e","ios":"levelo://app?vid=a423e70e-213d-4bae-964f-e88b3129574e"},"vehicle_type_id":"4","last_reported":1702919219,"current_range_meters":15200,"station_id":"ce4bgl92rcd13ifvqbq0","pricing_plan_id":"free"},{"bike_id":"177d7f58-ce26-4aff-bf46-917aba65c504","system_id":"levelo_inurba_marseille","lat":43.312239,"lon":5.368562,"is_reserved":false,"is_disabled":false,"rental_uris":{"android":"levelo://app?vid=177d7f58-ce26-4aff-bf46-917aba65c504","ios":"levelo://app?vid=177d7f58-ce26-4aff-bf46-917aba65c504"},"vehicle_type_id":"4","last_reported":1702919219,"current_range_meters":17200,"station_id":"ce4bgl92rcd13ifvqbq0","pricing_plan_id":"free"},{"bike_id":"955e4ab2-16e5-44e8-a986-a2f50ff96c06","system_id":"levelo_inurba_marseille","lat":43.305382,"lon":5.365389,"is_reserved":false,"is_disabled":false,"rental_uris":{"android":"levelo://app?vid=955e4ab2-16e5-44e8-a986-a2f50ff96c06","ios":"levelo://app?vid=955e4ab2-16e5-44e8-a986-a2f50ff96c06"},"vehicle_type_id":"4","last_reported":1702919219,"current_range_meters":7200,"station_id":"","pricing_plan_id":"free"},{"bike_id":"5101c15c-6857-4de7-b764-624766a8a570","system_id":"levelo_inurba_marseille","lat":43.305326,"lon":5.365498,"is_reserved":false,"is_disabled":false,"rental_uris":{"android":"levelo://app?vid=5101c15c-6857-4de7-b764-624766a8a570","ios":"levelo://app?vid=5101c15c-6857-4de7-b764-624766a8a570"},"vehicle_type_id":"4","last_reported":1702919219,"current_range_meters":0,"station_id":"","pricing_plan_id":"free"},{"bike_id":"4fcc42c2-b95d-4397-8b43-448c2352c7cf","system_id":"levelo_inurba_marseille","lat":43.307945,"lon":5.376487,"is_reserved":false,"is_disabled":false,"rental_uris":{"android":"levelo://app?vid=4fcc42c2-b95d-4397-8b43-448c2352c7cf","ios":"levelo://app?vid=4fcc42c2-b95d-4397-8b43-448c2352c7cf"},"vehicle_type_id":"4","last_reported":1702919219,"current_range_meters":18800,"station_id":"ce4bgv92rcd13ifvqcq0","pricing_plan_id":"free"},{"bike_id":"90372719-bb54-46ac-9a1b-1d99b908d729","system_id":"levelo_inurba_marseille","lat":43.317075,"lon":5.377367,"is_reserved":false,"is_disabled":false,"rental_uris":{"android":"levelo://app?vid=90372719-bb54-46ac-9a1b-1d99b908d729","ios":"levelo://app?vid=90372719-bb54-46ac-9a1b-1d99b908d729"},"vehicle_type_id":"4","last_reported":1702919219,"current_range_meters":3200,"station_id":"ce4bgth2rcd13ifvqch0","pricing_plan_id":"free"},{"bike_id":"f845128f-13fd-450d-911c-c17198a8712f","system_id":"levelo_inurba_marseille","lat":43.317075,"lon":5.377367,"is_reserved":false,"is_disabled":false,"rental_uris":{"android":"levelo://app?vid=f845128f-13fd-450d-911c-c17198a8712f","ios":"levelo://app?vid=f845128f-13fd-450d-911c-c17198a8712f"},"vehicle_type_id":"4","last_reported":1702919219,"current_range_meters":31200,"station_id":"ce4bgth2rcd13ifvqch0","pricing_plan_id":"free"},{"bike_id":"9af7ed30-b24f-4f38-bf82-1987ab6a3377","system_id":"levelo_inurba_marseille","lat":43.303046,"lon":5.368981,"is_reserved":false,"is_disabled":false,"rental_uris":{"android":"levelo://app?vid=9af7ed30-b24f-4f38-bf82-1987ab6a3377","ios":"levelo://app?vid=9af7ed30-b24f-4f38-bf82-1987ab6a3377"},"vehicle_type_id":"4","last_reported":1702919219,"current_range_meters":26000,"station_id":"ce4bgqh2rcd13ifvqc5g","pricing_plan_id":"free"},{"bike_id":"16c63921-ba85-4b98-8e78-8fe08de628a7","system_id":"levelo_inurba_marseille","lat":43.308012,"lon":5.381511,"is_reserved":false,"is_disabled":false,"rental_uris":{"android":"levelo://app?vid=16c63921-ba85-4b98-8e78-8fe08de628a7","ios":"levelo://app?vid=16c63921-ba85-4b98-8e78-8fe08de628a7"},"vehicle_type_id":"4","last_reported":1702919219,"current_range_meters":0,"station_id":"ce4bgt12rcd13ifvqce0","pricing_plan_id":"free"},{"bike_id":"85ff6905-1d7c-4f1c-89d5-4fa3ac3554a2","system_id":"levelo_inurba_marseille","lat":43.304606,"lon":5.379026,"is_reserved":false,"is_disabled":false,"rental_uris":{"android":"levelo://app?vid=85ff6905-1d7c-4f1c-89d5-4fa3ac3554a2","ios":"levelo://app?vid=85ff6905-1d7c-4f1c-89d5-4fa3ac3554a2"},"vehicle_type_id":"4","last_reported":1702919219,"current_range_meters":31200,"station_id":"ce4bgup2rcd13ifvqcn0","pricing_plan_id":"free"},{"bike_id":"a3a96c7a-18f3-4ba8-a644-c3dfe3bef30c","system_id":"levelo_inurba_marseille","lat":43.304606,"lon":5.379026,"is_reserved":false,"is_disabled":false,"rental_uris":{"android":"levelo://app?vid=a3a96c7a-18f3-4ba8-a644-c3dfe3bef30c","ios":"levelo://app?vid=a3a96c7a-18f3-4ba8-a644-c3dfe3bef30c"},"vehicle_type_id":"4","last_reported":1702919219,"current_range_meters":26800,"station_id":"ce4bgup2rcd13ifvqcn0","pricing_plan_id":"free"},{"bike_id":"8b97c3f1-bb5f-4c4b-bae8-74bcb68230ca","system_id":"levelo_inurba_marseille","lat":43.31071,"lon":5.38326,"is_reserved":false,"is_disabled":false,"rental_uris":{"android":"levelo://app?vid=8b97c3f1-bb5f-4c4b-bae8-74bcb68230ca","ios":"levelo://app?vid=8b97c3f1-bb5f-4c4b-bae8-74bcb68230ca"},"vehicle_type_id":"4","last_reported":1702919219,"current_range_meters":400,"station_id":"","pricing_plan_id":"free"},{"bike_id":"07a376be-02e2-44de-a85d-9e028c589ebd","system_id":"levelo_inurba_marseille","lat":43.32477,"lon":5.36559,"is_reserved":false,"is_disabled":false,"rental_uris":{"android":"levelo://app?vid=07a376be-02e2-44de-a85d-9e028c589ebd","ios":"levelo://app?vid=07a376be-02e2-44de-a85d-9e028c589ebd"},"vehicle_type_id":"4","last_reported":1702919219,"current_range_meters":4800,"station_id":"ce4bhs12rcd13ifvqhvg","pricing_plan_id":"free"},{"bike_id":"66f52c1d-1632-4610-b8d5-f6dbad0feea3","system_id":"levelo_inurba_marseille","lat":43.30143,"lon":5.37413,"is_reserved":false,"is_disabled":false,"rental_uris":{"android":"levelo://app?vid=66f52c1d-1632-4610-b8d5-f6dbad0feea3","ios":"levelo://app?vid=66f52c1d-1632-4610-b8d5-f6dbad0feea3"},"vehicle_type_id":"4","last_reported":1702919219,"current_range_meters":28400,"station_id":"ce4bgs92rcd13ifvqcc0","pricing_plan_id":"free"},{"bike_id":"ab1d7514-e7a8-4260-863a-2bec54a995e0","system_id":"levelo_inurba_marseille","lat":43.32002,"lon":5.38155,"is_reserved":false,"is_disabled":false,"rental_uris":{"android":"levelo://app?vid=ab1d7514-e7a8-4260-863a-2bec54a995e0","ios":"levelo://app?vid=ab1d7514-e7a8-4260-863a-2bec54a995e0"},"vehicle_type_id":"4","last_reported":1702919219,"current_range_meters":20400,"station_id":"ce4bhr12rcd13ifvqhpg","pricing_plan_id":"free"},{"bike_id":"79d134e8-1110-478e-a3f7-ea1b4593016a","system_id":"levelo_inurba_marseille","lat":43.313571,"lon":5.384829,"is_reserved":false,"is_disabled":false,"rental_uris":{"android":"levelo://app?vid=79d134e8-1110-478e-a3f7-ea1b4593016a","ios":"levelo://app?vid=79d134e8-1110-478e-a3f7-ea1b4593016a"},"vehicle_type_id":"4","last_reported":1702919219,"current_range_meters":23600,"station_id":"ce4bgt92rcd13ifvqcf0","pricing_plan_id":"free"},{"bike_id":"f0f21bd4-2f2b-467e-8749-0f6745beec37","system_id":"levelo_inurba_marseille","lat":43.300556,"lon":5.374296,"is_reserved":false,"is_disabled":false,"rental_uris":{"android":"levelo://app?vid=f0f21bd4-2f2b-467e-8749-0f6745beec37","ios":"levelo://app?vid=f0f21bd4-2f2b-467e-8749-0f6745beec37"},"vehicle_type_id":"4","last_reported":1702919219,"current_range_meters":5600,"station_id":"","pricing_plan_id":"free"},{"bike_id":"100abbb4-9122-412f-b5e1-bd6299285575","system_id":"levelo_inurba_marseille","lat":43.299724,"lon":5.371829,"is_reserved":false,"is_disabled":false,"rental_uris":{"android":"levelo://app?vid=100abbb4-9122-412f-b5e1-bd6299285575","ios":"levelo://app?vid=100abbb4-9122-412f-b5e1-bd6299285575"},"vehicle_type_id":"4","last_reported":1702919219,"current_range_meters":22400,"station_id":"ce4bgr92rcd13ifvqc7g","pricing_plan_id":"free"},{"bike_id":"c1763d1b-e311-42f2-8bc8-b1932c7c1951","system_id":"levelo_inurba_marseille","lat":43.299222,"lon":5.365554,"is_reserved":false,"is_disabled":false,"rental_uris":{"android":"levelo://app?vid=c1763d1b-e311-42f2-8bc8-b1932c7c1951","ios":"levelo://app?vid=c1763d1b-e311-42f2-8bc8-b1932c7c1951"},"vehicle_type_id":"4","last_reported":1702919219,"current_range_meters":16400,"station_id":"ce4bgm92rcd13ifvqbr0","pricing_plan_id":"free"},{"bike_id":"819cb438-2e9c-4e0b-902b-5e19ef554d5c","system_id":"levelo_inurba_marseille","lat":43.305445,"lon":5.384362,"is_reserved":false,"is_disabled":false,"rental_uris":{"android":"levelo://app?vid=819cb438-2e9c-4e0b-902b-5e19ef554d5c","ios":"levelo://app?vid=819cb438-2e9c-4e0b-902b-5e19ef554d5c"},"vehicle_type_id":"4","last_reported":1702919219,"current_range_meters":6000,"station_id":"ce4bgg92rcd13ifvqb30","pricing_plan_id":"free"},{"bike_id":"04c08c90-7cc2-4072-83b0-626d8fb45c4e","system_id":"levelo_inurba_marseille","lat":43.311722,"lon":5.387247,"is_reserved":false,"is_disabled":false,"rental_uris":{"android":"levelo://app?vid=04c08c90-7cc2-4072-83b0-626d8fb45c4e","ios":"levelo://app?vid=04c08c90-7cc2-4072-83b0-626d8fb45c4e"},"vehicle_type_id":"4","last_reported":1702919219,"current_range_meters":9600,"station_id":"ce4bgv12rcd13ifvqcp0","pricing_plan_id":"free"},{"bike_id":"58964417-d611-4878-b14e-6202aa088dde","system_id":"levelo_inurba_marseille","lat":43.31064,"lon":5.38722,"is_reserved":false,"is_disabled":false,"rental_uris":{"android":"levelo://app?vid=58964417-d611-4878-b14e-6202aa088dde","ios":"levelo://app?vid=58964417-d611-4878-b14e-6202aa088dde"},"vehicle_type_id":"4","last_reported":1702919219,"current_range_meters":26800,"station_id":"","pricing_plan_id":"free"},{"bike_id":"82333e5c-1603-4f07-83eb-d1826dbdad69","system_id":"levelo_inurba_marseille","lat":43.29879,"lon":5.37534,"is_reserved":false,"is_disabled":false,"rental_uris":{"android":"levelo://app?vid=82333e5c-1603-4f07-83eb-d1826dbdad69","ios":"levelo://app?vid=82333e5c-1603-4f07-83eb-d1826dbdad69"},"vehicle_type_id":"4","last_reported":1702919219,"current_range_meters":0,"station_id":"","pricing_plan_id":"free"},{"bike_id":"e66617a4-437e-4611-bcde-9766d1b74975","system_id":"levelo_inurba_marseille","lat":43.322872,"lon":5.382756,"is_reserved":false,"is_disabled":false,"rental_uris":{"android":"levelo://app?vid=e66617a4-437e-4611-bcde-9766d1b74975","ios":"levelo://app?vid=e66617a4-437e-4611-bcde-9766d1b74975"},"vehicle_type_id":"4","last_reported":1702919219,"current_range_meters":14800,"station_id":"ce4bhr12rcd13ifvqhqg","pricing_plan_id":"free"},{"bike_id":"cabd2226-5eae-40e2-8890-8899f10a2e38","system_id":"levelo_inurba_marseille","lat":43.297163,"lon":5.365866,"is_reserved":false,"is_disabled":false,"rental_uris":{"android":"levelo://app?vid=cabd2226-5eae-40e2-8890-8899f10a2e38","ios":"levelo://app?vid=cabd2226-5eae-40e2-8890-8899f10a2e38"},"vehicle_type_id":"4","last_reported":1702919219,"current_range_meters":3200,"station_id":"ce4bgn12rcd13ifvqbt0","pricing_plan_id":"free"},{"bike_id":"46f77b98-4c61-47f1-9af8-5526cdc20d14","system_id":"levelo_inurba_marseille","lat":43.297163,"lon":5.365866,"is_reserved":false,"is_disabled":false,"rental_uris":{"android":"levelo://app?vid=46f77b98-4c61-47f1-9af8-5526cdc20d14","ios":"levelo://app?vid=46f77b98-4c61-47f1-9af8-5526cdc20d14"},"vehicle_type_id":"4","last_reported":1702919219,"current_range_meters":2000,"station_id":"ce4bgn12rcd13ifvqbt0","pricing_plan_id":"free"},{"bike_id":"3f0620ec-5468-4a34-b679-33ef31ce3b73","system_id":"levelo_inurba_marseille","lat":43.309589,"lon":5.390258,"is_reserved":false,"is_disabled":false,"rental_uris":{"android":"levelo://app?vid=3f0620ec-5468-4a34-b679-33ef31ce3b73","ios":"levelo://app?vid=3f0620ec-5468-4a34-b679-33ef31ce3b73"},"vehicle_type_id":"4","last_reported":1702919219,"current_range_meters":800,"station_id":"ce4bgup2rcd13ifvqco0","pricing_plan_id":"free"},{"bike_id":"dc260632-4aa0-41f2-86c9-172a75694715","system_id":"levelo_inurba_marseille","lat":43.304278,"lon":5.388868,"is_reserved":false,"is_disabled":false,"rental_uris":{"android":"levelo://app?vid=dc260632-4aa0-41f2-86c9-172a75694715","ios":"levelo://app?vid=dc260632-4aa0-41f2-86c9-172a75694715"},"vehicle_type_id":"4","last_reported":1702919219,"current_range_meters":24800,"station_id":"ce4bgk12rcd13ifvqbi0","pricing_plan_id":"free"},{"bike_id":"ee84e260-1676-47f5-a2cf-811381ea53da","system_id":"levelo_inurba_marseille","lat":43.304274,"lon":5.388873,"is_reserved":false,"is_disabled":false,"rental_uris":{"android":"levelo://app?vid=ee84e260-1676-47f5-a2cf-811381ea53da","ios":"levelo://app?vid=ee84e260-1676-47f5-a2cf-811381ea53da"},"vehicle_type_id":"4","last_reported":1702919219,"current_range_meters":26000,"station_id":"ce4bgk12rcd13ifvqbi0","pricing_plan_id":"free"},{"bike_id":"04202f81-d068-4c81-9fee-41852ca265c8","system_id":"levelo_inurba_marseille","lat":43.295682,"lon":5.375235,"is_reserved":false,"is_disabled":false,"rental_uris":{"android":"levelo://app?vid=04202f81-d068-4c81-9fee-41852ca265c8","ios":"levelo://app?vid=04202f81-d068-4c81-9fee-41852ca265c8"},"vehicle_type_id":"4","last_reported":1702919219,"current_range_meters":0,"station_id":"ce4bgh92rcd13ifvqb50","pricing_plan_id":"free"},{"bike_id":"8d07e60e-3a81-4cf7-a2da-009a6e2eeae9","system_id":"levelo_inurba_marseille","lat":43.296263,"lon":5.377094,"is_reserved":false,"is_disabled":false,"rental_uris":{"android":"levelo://app?vid=8d07e60e-3a81-4cf7-a2da-009a6e2eeae9","ios":"levelo://app?vid=8d07e60e-3a81-4cf7-a2da-009a6e2eeae9"},"vehicle_type_id":"4","last_reported":1702919219,"current_range_meters":26400,"station_id":"ce4bgi92rcd13ifvqb90","pricing_plan_id":"free"},{"bike_id":"e87ec2d2-1027-42f5-a1b8-6ab656624e06","system_id":"levelo_inurba_marseille","lat":43.29599,"lon":5.37715,"is_reserved":false,"is_disabled":false,"rental_uris":{"android":"levelo://app?vid=e87ec2d2-1027-42f5-a1b8-6ab656624e06","ios":"levelo://app?vid=e87ec2d2-1027-42f5-a1b8-6ab656624e06"},"vehicle_type_id":"4","last_reported":1702919219,"current_range_meters":4000,"station_id":"ce4bgi92rcd13ifvqb90","pricing_plan_id":"free"},{"bike_id":"8a48c644-13b7-4968-b223-2546585ad75b","system_id":"levelo_inurba_marseille","lat":43.296277,"lon":5.377108,"is_reserved":false,"is_disabled":false,"rental_uris":{"android":"levelo://app?vid=8a48c644-13b7-4968-b223-2546585ad75b","ios":"levelo://app?vid=8a48c644-13b7-4968-b223-2546585ad75b"},"vehicle_type_id":"4","last_reported":1702919219,"current_range_meters":23600,"station_id":"ce4bgi92rcd13ifvqb90","pricing_plan_id":"free"},{"bike_id":"10d7df7f-fd5d-419c-8505-c3bd4c2fcdec","system_id":"levelo_inurba_marseille","lat":43.29715,"lon":5.38069,"is_reserved":false,"is_disabled":false,"rental_uris":{"android":"levelo://app?vid=10d7df7f-fd5d-419c-8505-c3bd4c2fcdec","ios":"levelo://app?vid=10d7df7f-fd5d-419c-8505-c3bd4c2fcdec"},"vehicle_type_id":"4","last_reported":1702919219,"current_range_meters":22400,"station_id":"","pricing_plan_id":"free"},{"bike_id":"b339fccd-5c48-4ff6-bc23-d4b4ddbda7bf","system_id":"levelo_inurba_marseille","lat":43.294807,"lon":5.374347,"is_reserved":false,"is_disabled":false,"rental_uris":{"android":"levelo://app?vid=b339fccd-5c48-4ff6-bc23-d4b4ddbda7bf","ios":"levelo://app?vid=b339fccd-5c48-4ff6-bc23-d4b4ddbda7bf"},"vehicle_type_id":"4","last_reported":1702919219,"current_range_meters":2800,"station_id":"","pricing_plan_id":"free"},{"bike_id":"11549a17-b93e-4159-8be4-626555e756dd","system_id":"levelo_inurba_marseille","lat":43.29602,"lon":5.381084,"is_reserved":false,"is_disabled":false,"rental_uris":{"android":"levelo://app?vid=11549a17-b93e-4159-8be4-626555e756dd","ios":"levelo://app?vid=11549a17-b93e-4159-8be4-626555e756dd"},"vehicle_type_id":"4","last_reported":1702919219,"current_range_meters":22400,"station_id":"ce4bgl12rcd13ifvqbo0","pricing_plan_id":"free"},{"bike_id":"f7720a21-d2b5-42e1-931a-3cc68d670494","system_id":"levelo_inurba_marseille","lat":43.31043,"lon":5.39444,"is_reserved":false,"is_disabled":false,"rental_uris":{"android":"levelo://app?vid=f7720a21-d2b5-42e1-931a-3cc68d670494","ios":"levelo://app?vid=f7720a21-d2b5-42e1-931a-3cc68d670494"},"vehicle_type_id":"4","last_reported":1702919219,"current_range_meters":0,"station_id":"","pricing_plan_id":"free"},{"bike_id":"7c57f0ae-9938-4f8e-8992-092e142a8aee","system_id":"levelo_inurba_marseille","lat":43.30602,"lon":5.39361,"is_reserved":false,"is_disabled":false,"rental_uris":{"android":"levelo://app?vid=7c57f0ae-9938-4f8e-8992-092e142a8aee","ios":"levelo://app?vid=7c57f0ae-9938-4f8e-8992-092e142a8aee"},"vehicle_type_id":"4","last_reported":1702919219,"current_range_meters":0,"station_id":"ce4bh0p2rcd13ifvqd80","pricing_plan_id":"free"},{"bike_id":"891b322b-206e-4f87-98d3-7310f730cf63","system_id":"levelo_inurba_marseille","lat":43.303002,"lon":5.392142,"is_reserved":false,"is_disabled":false,"rental_uris":{"android":"levelo://app?vid=891b322b-206e-4f87-98d3-7310f730cf63","ios":"levelo://app?vid=891b322b-206e-4f87-98d3-7310f730cf63"},"vehicle_type_id":"4","last_reported":1702919219,"current_range_meters":28800,"station_id":"ce4bgkh2rcd13ifvqbk0","pricing_plan_id":"free"},{"bike_id":"a88fc04c-ee51-4fff-91db-0cff559fa0dc","system_id":"levelo_inurba_marseille","lat":43.302992,"lon":5.392136,"is_reserved":false,"is_disabled":false,"rental_uris":{"android":"levelo://app?vid=a88fc04c-ee51-4fff-91db-0cff559fa0dc","ios":"levelo://app?vid=a88fc04c-ee51-4fff-91db-0cff559fa0dc"},"vehicle_type_id":"4","last_reported":1702919219,"current_range_meters":12400,"station_id":"ce4bgkh2rcd13ifvqbk0","pricing_plan_id":"free"},{"bike_id":"2a9f6bdc-2bb4-44d5-b6c6-50f056d52b60","system_id":"levelo_inurba_marseille","lat":43.30085,"lon":5.390856,"is_reserved":false,"is_disabled":false,"rental_uris":{"android":"levelo://app?vid=2a9f6bdc-2bb4-44d5-b6c6-50f056d52b60","ios":"levelo://app?vid=2a9f6bdc-2bb4-44d5-b6c6-50f056d52b60"},"vehicle_type_id":"4","last_reported":1702919219,"current_range_meters":19600,"station_id":"ce4bh192rcd13ifvqdb0","pricing_plan_id":"free"},{"bike_id":"86df3b72-d2e0-46ca-a761-c03b991492d2","system_id":"levelo_inurba_marseille","lat":43.300852,"lon":5.390859,"is_reserved":false,"is_disabled":false,"rental_uris":{"android":"levelo://app?vid=86df3b72-d2e0-46ca-a761-c03b991492d2","ios":"levelo://app?vid=86df3b72-d2e0-46ca-a761-c03b991492d2"},"vehicle_type_id":"4","last_reported":1702919219,"current_range_meters":11200,"station_id":"ce4bh192rcd13ifvqdb0","pricing_plan_id":"free"},{"bike_id":"b3593c47-ceb1-4862-8566-8fb3076ecac4","system_id":"levelo_inurba_marseille","lat":43.291671,"lon":5.371575,"is_reserved":false,"is_disabled":false,"rental_uris":{"android":"levelo://app?vid=b3593c47-ceb1-4862-8566-8fb3076ecac4","ios":"levelo://app?vid=b3593c47-ceb1-4862-8566-8fb3076ecac4"},"vehicle_type_id":"4","last_reported":1702919219,"current_range_meters":10400,"station_id":"ce4bha92rcd13ifvqeh0","pricing_plan_id":"free"},{"bike_id":"2a6cbdfa-090f-496b-855d-955491b1270c","system_id":"levelo_inurba_marseille","lat":43.291994,"lon":5.357886,"is_reserved":false,"is_disabled":false,"rental_uris":{"android":"levelo://app?vid=2a6cbdfa-090f-496b-855d-955491b1270c","ios":"levelo://app?vid=2a6cbdfa-090f-496b-855d-955491b1270c"},"vehicle_type_id":"4","last_reported":1702919219,"current_range_meters":5200,"station_id":"ce4bhb12rcd13ifvqel0","pricing_plan_id":"free"},{"bike_id":"5f4c1727-145d-451f-a500-9442e8ecbf9a","system_id":"levelo_inurba_marseille","lat":43.291994,"lon":5.357886,"is_reserved":false,"is_disabled":false,"rental_uris":{"android":"levelo://app?vid=5f4c1727-145d-451f-a500-9442e8ecbf9a","ios":"levelo://app?vid=5f4c1727-145d-451f-a500-9442e8ecbf9a"},"vehicle_type_id":"4","last_reported":1702919219,"current_range_meters":22000,"station_id":"ce4bhb12rcd13ifvqel0","pricing_plan_id":"free"},{"bike_id":"442c2698-4f42-45ce-9b72-89920234ba94","system_id":"levelo_inurba_marseille","lat":43.309038,"lon":5.396546,"is_reserved":false,"is_disabled":false,"rental_uris":{"android":"levelo://app?vid=442c2698-4f42-45ce-9b72-89920234ba94","ios":"levelo://app?vid=442c2698-4f42-45ce-9b72-89920234ba94"},"vehicle_type_id":"4","last_reported":1702919219,"current_range_meters":20800,"station_id":"ce4bh012rcd13ifvqcv0","pricing_plan_id":"free"},{"bike_id":"c5e51af6-36c9-46c3-81f9-4696de892091","system_id":"levelo_inurba_marseille","lat":43.309038,"lon":5.396546,"is_reserved":false,"is_disabled":false,"rental_uris":{"android":"levelo://app?vid=c5e51af6-36c9-46c3-81f9-4696de892091","ios":"levelo://app?vid=c5e51af6-36c9-46c3-81f9-4696de892091"},"vehicle_type_id":"4","last_reported":1702919219,"current_range_meters":17600,"station_id":"ce4bh012rcd13ifvqcv0","pricing_plan_id":"free"},{"bike_id":"f58852aa-59c8-4fed-b1da-74273db84514","system_id":"levelo_inurba_marseille","lat":43.309038,"lon":5.396546,"is_reserved":false,"is_disabled":false,"rental_uris":{"android":"levelo://app?vid=f58852aa-59c8-4fed-b1da-74273db84514","ios":"levelo://app?vid=f58852aa-59c8-4fed-b1da-74273db84514"},"vehicle_type_id":"4","last_reported":1702919219,"current_range_meters":18800,"station_id":"ce4bh012rcd13ifvqcv0","pricing_plan_id":"free"},{"bike_id":"90565709-8134-4d86-9ced-1b9f5c9ab217","system_id":"levelo_inurba_marseille","lat":43.29536,"lon":5.38545,"is_reserved":false,"is_disabled":false,"rental_uris":{"android":"levelo://app?vid=90565709-8134-4d86-9ced-1b9f5c9ab217","ios":"levelo://app?vid=90565709-8134-4d86-9ced-1b9f5c9ab217"},"vehicle_type_id":"4","last_reported":1702919219,"current_range_meters":22000,"station_id":"","pricing_plan_id":"free"},{"bike_id":"0a6846ef-e9dc-47b2-b1a7-2583912d5ef9","system_id":"levelo_inurba_marseille","lat":43.29532,"lon":5.38558,"is_reserved":false,"is_disabled":false,"rental_uris":{"android":"levelo://app?vid=0a6846ef-e9dc-47b2-b1a7-2583912d5ef9","ios":"levelo://app?vid=0a6846ef-e9dc-47b2-b1a7-2583912d5ef9"},"vehicle_type_id":"4","last_reported":1702919219,"current_range_meters":0,"station_id":"ce4bgih2rcd13ifvqba0","pricing_plan_id":"free"},{"bike_id":"59f14cb6-83de-4484-a2f3-c5ce1a639e91","system_id":"levelo_inurba_marseille","lat":43.289184,"lon":5.366408,"is_reserved":false,"is_disabled":false,"rental_uris":{"android":"levelo://app?vid=59f14cb6-83de-4484-a2f3-c5ce1a639e91","ios":"levelo://app?vid=59f14cb6-83de-4484-a2f3-c5ce1a639e91"},"vehicle_type_id":"4","last_reported":1702919219,"current_range_meters":1600,"station_id":"ce4bhap2rcd13ifvqek0","pricing_plan_id":"free"},{"bike_id":"4d4bb202-63ea-48fc-8400-fa8b20021fd2","system_id":"levelo_inurba_marseille","lat":43.289388,"lon":5.366392,"is_reserved":false,"is_disabled":false,"rental_uris":{"android":"levelo://app?vid=4d4bb202-63ea-48fc-8400-fa8b20021fd2","ios":"levelo://app?vid=4d4bb202-63ea-48fc-8400-fa8b20021fd2"},"vehicle_type_id":"4","last_reported":1702919219,"current_range_meters":0,"station_id":"","pricing_plan_id":"free"},{"bike_id":"ea76100a-1f41-45bd-b887-ac23b0cf126f","system_id":"levelo_inurba_marseille","lat":43.289184,"lon":5.366408,"is_reserved":false,"is_disabled":false,"rental_uris":{"android":"levelo://app?vid=ea76100a-1f41-45bd-b887-ac23b0cf126f","ios":"levelo://app?vid=ea76100a-1f41-45bd-b887-ac23b0cf126f"},"vehicle_type_id":"4","last_reported":1702919219,"current_range_meters":16400,"station_id":"ce4bhap2rcd13ifvqek0","pricing_plan_id":"free"},{"bike_id":"befaf349-b010-4e3b-93b7-368d6d4d82ae","system_id":"levelo_inurba_marseille","lat":43.289184,"lon":5.366408,"is_reserved":false,"is_disabled":false,"rental_uris":{"android":"levelo://app?vid=befaf349-b010-4e3b-93b7-368d6d4d82ae","ios":"levelo://app?vid=befaf349-b010-4e3b-93b7-368d6d4d82ae"},"vehicle_type_id":"4","last_reported":1702919219,"current_range_meters":4400,"station_id":"ce4bhap2rcd13ifvqek0","pricing_plan_id":"free"},{"bike_id":"bb4a18f7-dd2a-4ad5-8d6e-35c6c7f9f11b","system_id":"levelo_inurba_marseille","lat":43.330442,"lon":5.389148,"is_reserved":false,"is_disabled":false,"rental_uris":{"android":"levelo://app?vid=bb4a18f7-dd2a-4ad5-8d6e-35c6c7f9f11b","ios":"levelo://app?vid=bb4a18f7-dd2a-4ad5-8d6e-35c6c7f9f11b"},"vehicle_type_id":"4","last_reported":1702919219,"current_range_meters":25200,"station_id":"ce4bhr92rcd13ifvqhrg","pricing_plan_id":"free"},{"bike_id":"0eb29cf8-6cad-4fbf-8127-a31ff2bbb89a","system_id":"levelo_inurba_marseille","lat":43.330442,"lon":5.389148,"is_reserved":false,"is_disabled":false,"rental_uris":{"android":"levelo://app?vid=0eb29cf8-6cad-4fbf-8127-a31ff2bbb89a","ios":"levelo://app?vid=0eb29cf8-6cad-4fbf-8127-a31ff2bbb89a"},"vehicle_type_id":"4","last_reported":1702919219,"current_range_meters":2800,"station_id":"ce4bhr92rcd13ifvqhrg","pricing_plan_id":"free"},{"bike_id":"9b109012-9c64-4d1c-b173-7849c6a32ee2","system_id":"levelo_inurba_marseille","lat":43.29004,"lon":5.35618,"is_reserved":false,"is_disabled":false,"rental_uris":{"android":"levelo://app?vid=9b109012-9c64-4d1c-b173-7849c6a32ee2","ios":"levelo://app?vid=9b109012-9c64-4d1c-b173-7849c6a32ee2"},"vehicle_type_id":"4","last_reported":1702919219,"current_range_meters":0,"station_id":"ce4bhb92rcd13ifvqen0","pricing_plan_id":"free"},{"bike_id":"e740f2e7-4f95-474f-945e-62a384e31c75","system_id":"levelo_inurba_marseille","lat":43.284787,"lon":5.384116,"is_reserved":false,"is_disabled":false,"rental_uris":{"android":"levelo://app?vid=e740f2e7-4f95-474f-945e-62a384e31c75","ios":"levelo://app?vid=e740f2e7-4f95-474f-945e-62a384e31c75"},"vehicle_type_id":"4","last_reported":1702919219,"current_range_meters":15200,"station_id":"ce4bh512rcd13ifvqe3g","pricing_plan_id":"free"},{"bike_id":"45525b68-2bcf-4f06-8631-f917e46553bb","system_id":"levelo_inurba_marseille","lat":43.29776,"lon":5.39338,"is_reserved":false,"is_disabled":false,"rental_uris":{"android":"levelo://app?vid=45525b68-2bcf-4f06-8631-f917e46553bb","ios":"levelo://app?vid=45525b68-2bcf-4f06-8631-f917e46553bb"},"vehicle_type_id":"4","last_reported":1702919219,"current_range_meters":20400,"station_id":"chh1huq6cuj3fo74tm60","pricing_plan_id":"free"},{"bike_id":"365bd877-76ea-42c1-919c-4461d80406f7","system_id":"levelo_inurba_marseille","lat":43.297815,"lon":5.393548,"is_reserved":false,"is_disabled":false,"rental_uris":{"android":"levelo://app?vid=365bd877-76ea-42c1-919c-4461d80406f7","ios":"levelo://app?vid=365bd877-76ea-42c1-919c-4461d80406f7"},"vehicle_type_id":"4","last_reported":1702919219,"current_range_meters":21600,"station_id":"chh1huq6cuj3fo74tm60","pricing_plan_id":"free"},{"bike_id":"6c4521a5-f287-42a2-9202-28854f10bb71","system_id":"levelo_inurba_marseille","lat":43.29526,"lon":5.39042,"is_reserved":false,"is_disabled":false,"rental_uris":{"android":"levelo://app?vid=6c4521a5-f287-42a2-9202-28854f10bb71","ios":"levelo://app?vid=6c4521a5-f287-42a2-9202-28854f10bb71"},"vehicle_type_id":"4","last_reported":1702919219,"current_range_meters":31200,"station_id":"ce4bh3p2rcd13ifvqdp0","pricing_plan_id":"free"},{"bike_id":"994b17f4-7ec4-49af-82cc-a301acc17361","system_id":"levelo_inurba_marseille","lat":43.295169,"lon":5.390426,"is_reserved":false,"is_disabled":false,"rental_uris":{"android":"levelo://app?vid=994b17f4-7ec4-49af-82cc-a301acc17361","ios":"levelo://app?vid=994b17f4-7ec4-49af-82cc-a301acc17361"},"vehicle_type_id":"4","last_reported":1702919219,"current_range_meters":20000,"station_id":"ce4bh3p2rcd13ifvqdp0","pricing_plan_id":"free"},{"bike_id":"218cd389-8afb-473d-bcdd-b2a13d53f5d6","system_id":"levelo_inurba_marseille","lat":43.288841,"lon":5.359591,"is_reserved":false,"is_disabled":false,"rental_uris":{"android":"levelo://app?vid=218cd389-8afb-473d-bcdd-b2a13d53f5d6","ios":"levelo://app?vid=218cd389-8afb-473d-bcdd-b2a13d53f5d6"},"vehicle_type_id":"4","last_reported":1702919219,"current_range_meters":11200,"station_id":"ce4bhb12rcd13ifvqem0","pricing_plan_id":"free"},{"bike_id":"87aa39e4-4b08-4692-8898-f41cf3ee40d8","system_id":"levelo_inurba_marseille","lat":43.28857,"lon":5.35858,"is_reserved":false,"is_disabled":false,"rental_uris":{"android":"levelo://app?vid=87aa39e4-4b08-4692-8898-f41cf3ee40d8","ios":"levelo://app?vid=87aa39e4-4b08-4692-8898-f41cf3ee40d8"},"vehicle_type_id":"4","last_reported":1702919219,"current_range_meters":12000,"station_id":"ce4bhb12rcd13ifvqem0","pricing_plan_id":"free"},{"bike_id":"462d9f23-aa35-45d1-93f0-0002b9b3280d","system_id":"levelo_inurba_marseille","lat":43.30933,"lon":5.40141,"is_reserved":false,"is_disabled":false,"rental_uris":{"android":"levelo://app?vid=462d9f23-aa35-45d1-93f0-0002b9b3280d","ios":"levelo://app?vid=462d9f23-aa35-45d1-93f0-0002b9b3280d"},"vehicle_type_id":"4","last_reported":1702919219,"current_range_meters":9200,"station_id":"ce4bgvp2rcd13ifvqct0","pricing_plan_id":"free"},{"bike_id":"84fe2e4f-2c10-4b17-85b3-d4c92826892c","system_id":"levelo_inurba_marseille","lat":43.309371,"lon":5.401449,"is_reserved":false,"is_disabled":false,"rental_uris":{"android":"levelo://app?vid=84fe2e4f-2c10-4b17-85b3-d4c92826892c","ios":"levelo://app?vid=84fe2e4f-2c10-4b17-85b3-d4c92826892c"},"vehicle_type_id":"4","last_reported":1702919219,"current_range_meters":30000,"station_id":"ce4bgvp2rcd13ifvqct0","pricing_plan_id":"free"},{"bike_id":"11b0420a-7d2c-463f-a5a1-63159c1bf714","system_id":"levelo_inurba_marseille","lat":43.337537,"lon":5.374544,"is_reserved":false,"is_disabled":false,"rental_uris":{"android":"levelo://app?vid=11b0420a-7d2c-463f-a5a1-63159c1bf714","ios":"levelo://app?vid=11b0420a-7d2c-463f-a5a1-63159c1bf714"},"vehicle_type_id":"4","last_reported":1702919219,"current_range_meters":29600,"station_id":"","pricing_plan_id":"free"},{"bike_id":"fc8d24bb-0c26-4688-9bac-affcc075aa4d","system_id":"levelo_inurba_marseille","lat":43.33762,"lon":5.37452,"is_reserved":false,"is_disabled":false,"rental_uris":{"android":"levelo://app?vid=fc8d24bb-0c26-4688-9bac-affcc075aa4d","ios":"levelo://app?vid=fc8d24bb-0c26-4688-9bac-affcc075aa4d"},"vehicle_type_id":"4","last_reported":1702919219,"current_range_meters":25600,"station_id":"","pricing_plan_id":"free"},{"bike_id":"9ecba119-92e4-492c-bf85-d514c0b96683","system_id":"levelo_inurba_marseille","lat":43.33785,"lon":5.37444,"is_reserved":false,"is_disabled":false,"rental_uris":{"android":"levelo://app?vid=9ecba119-92e4-492c-bf85-d514c0b96683","ios":"levelo://app?vid=9ecba119-92e4-492c-bf85-d514c0b96683"},"vehicle_type_id":"4","last_reported":1702919219,"current_range_meters":28000,"station_id":"","pricing_plan_id":"free"},{"bike_id":"dfe0e63f-e657-4749-8691-a2708869d71d","system_id":"levelo_inurba_marseille","lat":43.28727,"lon":5.36078,"is_reserved":false,"is_disabled":false,"rental_uris":{"android":"levelo://app?vid=dfe0e63f-e657-4749-8691-a2708869d71d","ios":"levelo://app?vid=dfe0e63f-e657-4749-8691-a2708869d71d"},"vehicle_type_id":"4","last_reported":1702919219,"current_range_meters":22000,"station_id":"cki0cbj6b192h4jlfktg","pricing_plan_id":"free"},{"bike_id":"315e29b3-5297-4ae3-8bd1-53bb7aed1b01","system_id":"levelo_inurba_marseille","lat":43.286591,"lon":5.363346,"is_reserved":false,"is_disabled":false,"rental_uris":{"android":"levelo://app?vid=315e29b3-5297-4ae3-8bd1-53bb7aed1b01","ios":"levelo://app?vid=315e29b3-5297-4ae3-8bd1-53bb7aed1b01"},"vehicle_type_id":"4","last_reported":1702919219,"current_range_meters":800,"station_id":"ce4bhah2rcd13ifvqej0","pricing_plan_id":"free"},{"bike_id":"57343f7a-b5a7-4c64-bde2-578dd3b7d51a","system_id":"levelo_inurba_marseille","lat":43.286961,"lon":5.373785,"is_reserved":false,"is_disabled":false,"rental_uris":{"android":"levelo://app?vid=57343f7a-b5a7-4c64-bde2-578dd3b7d51a","ios":"levelo://app?vid=57343f7a-b5a7-4c64-bde2-578dd3b7d51a"},"vehicle_type_id":"4","last_reported":1702919219,"current_range_meters":29600,"station_id":"ce4bh3p2rcd13ifvqdq0","pricing_plan_id":"free"},{"bike_id":"f69dcc6c-ec31-46f9-b014-d03e29179479","system_id":"levelo_inurba_marseille","lat":43.286591,"lon":5.363346,"is_reserved":false,"is_disabled":false,"rental_uris":{"android":"levelo://app?vid=f69dcc6c-ec31-46f9-b014-d03e29179479","ios":"levelo://app?vid=f69dcc6c-ec31-46f9-b014-d03e29179479"},"vehicle_type_id":"4","last_reported":1702919219,"current_range_meters":3600,"station_id":"ce4bhah2rcd13ifvqej0","pricing_plan_id":"free"},{"bike_id":"2618ed52-aaab-4281-b032-c4cac9cbdffa","system_id":"levelo_inurba_marseille","lat":43.28727,"lon":5.36078,"is_reserved":false,"is_disabled":false,"rental_uris":{"android":"levelo://app?vid=2618ed52-aaab-4281-b032-c4cac9cbdffa","ios":"levelo://app?vid=2618ed52-aaab-4281-b032-c4cac9cbdffa"},"vehicle_type_id":"4","last_reported":1702919219,"current_range_meters":20800,"station_id":"cki0cbj6b192h4jlfktg","pricing_plan_id":"free"},{"bike_id":"b41c1c60-046d-4e97-b78f-dce8ba054d22","system_id":"levelo_inurba_marseille","lat":43.298681,"lon":5.397225,"is_reserved":false,"is_disabled":false,"rental_uris":{"android":"levelo://app?vid=b41c1c60-046d-4e97-b78f-dce8ba054d22","ios":"levelo://app?vid=b41c1c60-046d-4e97-b78f-dce8ba054d22"},"vehicle_type_id":"4","last_reported":1702919219,"current_range_meters":24800,"station_id":"ce4bh0h2rcd13ifvqd50","pricing_plan_id":"free"},{"bike_id":"906e7035-6466-4459-9506-4026fe333bf1","system_id":"levelo_inurba_marseille","lat":43.298681,"lon":5.397225,"is_reserved":false,"is_disabled":false,"rental_uris":{"android":"levelo://app?vid=906e7035-6466-4459-9506-4026fe333bf1","ios":"levelo://app?vid=906e7035-6466-4459-9506-4026fe333bf1"},"vehicle_type_id":"4","last_reported":1702919219,"current_range_meters":17200,"station_id":"ce4bh0h2rcd13ifvqd50","pricing_plan_id":"free"},{"bike_id":"a581f509-1603-48d3-a78d-0a28073fa166","system_id":"levelo_inurba_marseille","lat":43.286961,"lon":5.373785,"is_reserved":false,"is_disabled":false,"rental_uris":{"android":"levelo://app?vid=a581f509-1603-48d3-a78d-0a28073fa166","ios":"levelo://app?vid=a581f509-1603-48d3-a78d-0a28073fa166"},"vehicle_type_id":"4","last_reported":1702919219,"current_range_meters":15600,"station_id":"ce4bh3p2rcd13ifvqdq0","pricing_plan_id":"free"},{"bike_id":"c19c79a8-775d-4da1-b291-f35d57d67324","system_id":"levelo_inurba_marseille","lat":43.286591,"lon":5.363346,"is_reserved":false,"is_disabled":false,"rental_uris":{"android":"levelo://app?vid=c19c79a8-775d-4da1-b291-f35d57d67324","ios":"levelo://app?vid=c19c79a8-775d-4da1-b291-f35d57d67324"},"vehicle_type_id":"4","last_reported":1702919219,"current_range_meters":9600,"station_id":"ce4bhah2rcd13ifvqej0","pricing_plan_id":"free"},{"bike_id":"d7e8055d-8385-414b-a464-4f4c9fda54a6","system_id":"levelo_inurba_marseille","lat":43.286591,"lon":5.363346,"is_reserved":false,"is_disabled":false,"rental_uris":{"android":"levelo://app?vid=d7e8055d-8385-414b-a464-4f4c9fda54a6","ios":"levelo://app?vid=d7e8055d-8385-414b-a464-4f4c9fda54a6"},"vehicle_type_id":"4","last_reported":1702919219,"current_range_meters":29600,"station_id":"ce4bhah2rcd13ifvqej0","pricing_plan_id":"free"},{"bike_id":"f4baef8d-79a0-4bbb-a482-719efc270145","system_id":"levelo_inurba_marseille","lat":43.286591,"lon":5.363346,"is_reserved":false,"is_disabled":false,"rental_uris":{"android":"levelo://app?vid=f4baef8d-79a0-4bbb-a482-719efc270145","ios":"levelo://app?vid=f4baef8d-79a0-4bbb-a482-719efc270145"},"vehicle_type_id":"4","last_reported":1702919219,"current_range_meters":19600,"station_id":"ce4bhah2rcd13ifvqej0","pricing_plan_id":"free"},{"bike_id":"9f66de43-582a-4d95-b140-f9bbe4fa1f85","system_id":"levelo_inurba_marseille","lat":43.286591,"lon":5.363346,"is_reserved":false,"is_disabled":false,"rental_uris":{"android":"levelo://app?vid=9f66de43-582a-4d95-b140-f9bbe4fa1f85","ios":"levelo://app?vid=9f66de43-582a-4d95-b140-f9bbe4fa1f85"},"vehicle_type_id":"4","last_reported":1702919219,"current_range_meters":24400,"station_id":"ce4bhah2rcd13ifvqej0","pricing_plan_id":"free"},{"bike_id":"09482689-f053-4eab-b1b2-4a75dc849209","system_id":"levelo_inurba_marseille","lat":43.286961,"lon":5.373785,"is_reserved":false,"is_disabled":false,"rental_uris":{"android":"levelo://app?vid=09482689-f053-4eab-b1b2-4a75dc849209","ios":"levelo://app?vid=09482689-f053-4eab-b1b2-4a75dc849209"},"vehicle_type_id":"4","last_reported":1702919219,"current_range_meters":13200,"station_id":"ce4bh3p2rcd13ifvqdq0","pricing_plan_id":"free"},{"bike_id":"4cdb0966-cff8-4f08-9e97-4d3e0380e137","system_id":"levelo_inurba_marseille","lat":43.286593,"lon":5.363346,"is_reserved":false,"is_disabled":false,"rental_uris":{"android":"levelo://app?vid=4cdb0966-cff8-4f08-9e97-4d3e0380e137","ios":"levelo://app?vid=4cdb0966-cff8-4f08-9e97-4d3e0380e137"},"vehicle_type_id":"4","last_reported":1702919219,"current_range_meters":13600,"station_id":"ce4bhah2rcd13ifvqej0","pricing_plan_id":"free"},{"bike_id":"49d2ec0d-e8d0-4e7b-9a87-e8111929bdda","system_id":"levelo_inurba_marseille","lat":43.295196,"lon":5.39397,"is_reserved":false,"is_disabled":false,"rental_uris":{"android":"levelo://app?vid=49d2ec0d-e8d0-4e7b-9a87-e8111929bdda","ios":"levelo://app?vid=49d2ec0d-e8d0-4e7b-9a87-e8111929bdda"},"vehicle_type_id":"4","last_reported":1702919219,"current_range_meters":21200,"station_id":"ce4bh292rcd13ifvqdf0","pricing_plan_id":"free"},{"bike_id":"e70304cf-da52-43a4-bb58-edcd2efb658b","system_id":"levelo_inurba_marseille","lat":43.289307,"lon":5.38406,"is_reserved":false,"is_disabled":false,"rental_uris":{"android":"levelo://app?vid=e70304cf-da52-43a4-bb58-edcd2efb658b","ios":"levelo://app?vid=e70304cf-da52-43a4-bb58-edcd2efb658b"},"vehicle_type_id":"4","last_reported":1702919219,"current_range_meters":0,"station_id":"ce4bh612rcd13ifvqe6g","pricing_plan_id":"free"},{"bike_id":"c83f40b5-0eff-4b18-abb2-bccad9a95103","system_id":"levelo_inurba_marseille","lat":43.30244,"lon":5.40043,"is_reserved":false,"is_disabled":false,"rental_uris":{"android":"levelo://app?vid=c83f40b5-0eff-4b18-abb2-bccad9a95103","ios":"levelo://app?vid=c83f40b5-0eff-4b18-abb2-bccad9a95103"},"vehicle_type_id":"4","last_reported":1702919219,"current_range_meters":2800,"station_id":"ce4bgvh2rcd13ifvqcs0","pricing_plan_id":"free"},{"bike_id":"7f9e5a20-0bdb-486c-a9a2-39dbc9c5cb1c","system_id":"levelo_inurba_marseille","lat":43.289307,"lon":5.38406,"is_reserved":false,"is_disabled":false,"rental_uris":{"android":"levelo://app?vid=7f9e5a20-0bdb-486c-a9a2-39dbc9c5cb1c","ios":"levelo://app?vid=7f9e5a20-0bdb-486c-a9a2-39dbc9c5cb1c"},"vehicle_type_id":"4","last_reported":1702919219,"current_range_meters":24400,"station_id":"ce4bh612rcd13ifvqe6g","pricing_plan_id":"free"},{"bike_id":"5475b436-e2a5-4e96-8ef4-7ee716cb4d33","system_id":"levelo_inurba_marseille","lat":43.289307,"lon":5.38406,"is_reserved":false,"is_disabled":false,"rental_uris":{"android":"levelo://app?vid=5475b436-e2a5-4e96-8ef4-7ee716cb4d33","ios":"levelo://app?vid=5475b436-e2a5-4e96-8ef4-7ee716cb4d33"},"vehicle_type_id":"4","last_reported":1702919219,"current_range_meters":22000,"station_id":"ce4bh612rcd13ifvqe6g","pricing_plan_id":"free"},{"bike_id":"58a8d5b7-76a2-4668-8ddd-6f842f07a4ea","system_id":"levelo_inurba_marseille","lat":43.289307,"lon":5.38406,"is_reserved":false,"is_disabled":false,"rental_uris":{"android":"levelo://app?vid=58a8d5b7-76a2-4668-8ddd-6f842f07a4ea","ios":"levelo://app?vid=58a8d5b7-76a2-4668-8ddd-6f842f07a4ea"},"vehicle_type_id":"4","last_reported":1702919219,"current_range_meters":31600,"station_id":"ce4bh612rcd13ifvqe6g","pricing_plan_id":"free"},{"bike_id":"c69868c6-998e-4a70-aeed-cee9e4644cc6","system_id":"levelo_inurba_marseille","lat":43.289307,"lon":5.38406,"is_reserved":false,"is_disabled":false,"rental_uris":{"android":"levelo://app?vid=c69868c6-998e-4a70-aeed-cee9e4644cc6","ios":"levelo://app?vid=c69868c6-998e-4a70-aeed-cee9e4644cc6"},"vehicle_type_id":"4","last_reported":1702919219,"current_range_meters":1200,"station_id":"ce4bh612rcd13ifvqe6g","pricing_plan_id":"free"},{"bike_id":"860a9534-24ee-4e25-b146-f4076d4f544c","system_id":"levelo_inurba_marseille","lat":43.286039,"lon":5.370681,"is_reserved":false,"is_disabled":false,"rental_uris":{"android":"levelo://app?vid=860a9534-24ee-4e25-b146-f4076d4f544c","ios":"levelo://app?vid=860a9534-24ee-4e25-b146-f4076d4f544c"},"vehicle_type_id":"4","last_reported":1702919219,"current_range_meters":18800,"station_id":"ce4bht12rcd13ifvqi60","pricing_plan_id":"free"},{"bike_id":"f46efb7f-e567-4738-956b-096262e898ef","system_id":"levelo_inurba_marseille","lat":43.291994,"lon":5.392907,"is_reserved":false,"is_disabled":false,"rental_uris":{"android":"levelo://app?vid=f46efb7f-e567-4738-956b-096262e898ef","ios":"levelo://app?vid=f46efb7f-e567-4738-956b-096262e898ef"},"vehicle_type_id":"4","last_reported":1702919219,"current_range_meters":6800,"station_id":"ce4bh192rcd13ifvqdd0","pricing_plan_id":"free"},{"bike_id":"9d39e73c-0a59-4f11-a4ff-954ccb816e13","system_id":"levelo_inurba_marseille","lat":43.291994,"lon":5.392907,"is_reserved":false,"is_disabled":false,"rental_uris":{"android":"levelo://app?vid=9d39e73c-0a59-4f11-a4ff-954ccb816e13","ios":"levelo://app?vid=9d39e73c-0a59-4f11-a4ff-954ccb816e13"},"vehicle_type_id":"4","last_reported":1702919219,"current_range_meters":10000,"station_id":"ce4bh192rcd13ifvqdd0","pricing_plan_id":"free"},{"bike_id":"2f1a08e6-07b1-4009-9c09-a39bd25e5c63","system_id":"levelo_inurba_marseille","lat":43.284538,"lon":5.358657,"is_reserved":false,"is_disabled":false,"rental_uris":{"android":"levelo://app?vid=2f1a08e6-07b1-4009-9c09-a39bd25e5c63","ios":"levelo://app?vid=2f1a08e6-07b1-4009-9c09-a39bd25e5c63"},"vehicle_type_id":"4","last_reported":1702919219,"current_range_meters":0,"station_id":"ce4bhah2rcd13ifvqei0","pricing_plan_id":"free"},{"bike_id":"dbe2014a-ae02-48bd-9fac-c0e627c3a60c","system_id":"levelo_inurba_marseille","lat":43.294314,"lon":5.397498,"is_reserved":false,"is_disabled":false,"rental_uris":{"android":"levelo://app?vid=dbe2014a-ae02-48bd-9fac-c0e627c3a60c","ios":"levelo://app?vid=dbe2014a-ae02-48bd-9fac-c0e627c3a60c"},"vehicle_type_id":"4","last_reported":1702919219,"current_range_meters":1200,"station_id":"ce4bh3h2rcd13ifvqdo0","pricing_plan_id":"free"},{"bike_id":"2d9f2cea-eca2-4847-94a6-bf069f3f95b3","system_id":"levelo_inurba_marseille","lat":43.294314,"lon":5.397498,"is_reserved":false,"is_disabled":false,"rental_uris":{"android":"levelo://app?vid=2d9f2cea-eca2-4847-94a6-bf069f3f95b3","ios":"levelo://app?vid=2d9f2cea-eca2-4847-94a6-bf069f3f95b3"},"vehicle_type_id":"4","last_reported":1702919219,"current_range_meters":3200,"station_id":"ce4bh3h2rcd13ifvqdo0","pricing_plan_id":"free"},{"bike_id":"8e5fc81e-2bac-4ce6-85f9-6ddee6a0fb38","system_id":"levelo_inurba_marseille","lat":43.29427,"lon":5.39754,"is_reserved":false,"is_disabled":false,"rental_uris":{"android":"levelo://app?vid=8e5fc81e-2bac-4ce6-85f9-6ddee6a0fb38","ios":"levelo://app?vid=8e5fc81e-2bac-4ce6-85f9-6ddee6a0fb38"},"vehicle_type_id":"4","last_reported":1702919219,"current_range_meters":19200,"station_id":"ce4bh3h2rcd13ifvqdo0","pricing_plan_id":"free"},{"bike_id":"e67e0ae1-065b-40fb-b240-95c34bd78f08","system_id":"levelo_inurba_marseille","lat":43.286159,"lon":5.351042,"is_reserved":false,"is_disabled":false,"rental_uris":{"android":"levelo://app?vid=e67e0ae1-065b-40fb-b240-95c34bd78f08","ios":"levelo://app?vid=e67e0ae1-065b-40fb-b240-95c34bd78f08"},"vehicle_type_id":"4","last_reported":1702919219,"current_range_meters":18800,"station_id":"","pricing_plan_id":"free"},{"bike_id":"ea6c97af-73de-485f-9831-944a0cd26cd3","system_id":"levelo_inurba_marseille","lat":43.283998,"lon":5.375062,"is_reserved":false,"is_disabled":false,"rental_uris":{"android":"levelo://app?vid=ea6c97af-73de-485f-9831-944a0cd26cd3","ios":"levelo://app?vid=ea6c97af-73de-485f-9831-944a0cd26cd3"},"vehicle_type_id":"4","last_reported":1702919219,"current_range_meters":14400,"station_id":"ce4bh412rcd13ifvqds0","pricing_plan_id":"free"},{"bike_id":"2dfa5049-0e1b-4839-b5c3-156910a65dbd","system_id":"levelo_inurba_marseille","lat":43.33218,"lon":5.397067,"is_reserved":false,"is_disabled":false,"rental_uris":{"android":"levelo://app?vid=2dfa5049-0e1b-4839-b5c3-156910a65dbd","ios":"levelo://app?vid=2dfa5049-0e1b-4839-b5c3-156910a65dbd"},"vehicle_type_id":"4","last_reported":1702919219,"current_range_meters":4800,"station_id":"","pricing_plan_id":"free"},{"bike_id":"6409e733-3853-4d5f-87ca-c93268044886","system_id":"levelo_inurba_marseille","lat":43.283998,"lon":5.375062,"is_reserved":false,"is_disabled":false,"rental_uris":{"android":"levelo://app?vid=6409e733-3853-4d5f-87ca-c93268044886","ios":"levelo://app?vid=6409e733-3853-4d5f-87ca-c93268044886"},"vehicle_type_id":"4","last_reported":1702919219,"current_range_meters":0,"station_id":"ce4bh412rcd13ifvqds0","pricing_plan_id":"free"},{"bike_id":"96f4b20f-1323-438f-888e-f1095b528ca6","system_id":"levelo_inurba_marseille","lat":43.295713,"lon":5.399639,"is_reserved":false,"is_disabled":false,"rental_uris":{"android":"levelo://app?vid=96f4b20f-1323-438f-888e-f1095b528ca6","ios":"levelo://app?vid=96f4b20f-1323-438f-888e-f1095b528ca6"},"vehicle_type_id":"4","last_reported":1702919219,"current_range_meters":26800,"station_id":"ce4bh312rcd13ifvqdj0","pricing_plan_id":"free"},{"bike_id":"9dd3283f-2fba-40d1-9791-2e32098be440","system_id":"levelo_inurba_marseille","lat":43.284787,"lon":5.384116,"is_reserved":false,"is_disabled":false,"rental_uris":{"android":"levelo://app?vid=9dd3283f-2fba-40d1-9791-2e32098be440","ios":"levelo://app?vid=9dd3283f-2fba-40d1-9791-2e32098be440"},"vehicle_type_id":"4","last_reported":1702919219,"current_range_meters":6400,"station_id":"ce4bh512rcd13ifvqe3g","pricing_plan_id":"free"},{"bike_id":"1500d0d6-9e6c-4243-807d-b68339da566a","system_id":"levelo_inurba_marseille","lat":43.284683,"lon":5.384167,"is_reserved":false,"is_disabled":false,"rental_uris":{"android":"levelo://app?vid=1500d0d6-9e6c-4243-807d-b68339da566a","ios":"levelo://app?vid=1500d0d6-9e6c-4243-807d-b68339da566a"},"vehicle_type_id":"4","last_reported":1702919219,"current_range_meters":26000,"station_id":"ce4bh512rcd13ifvqe3g","pricing_plan_id":"free"},{"bike_id":"2919631a-5f21-4cf6-930a-50f71929b7b5","system_id":"levelo_inurba_marseille","lat":43.29795,"lon":5.404086,"is_reserved":false,"is_disabled":false,"rental_uris":{"android":"levelo://app?vid=2919631a-5f21-4cf6-930a-50f71929b7b5","ios":"levelo://app?vid=2919631a-5f21-4cf6-930a-50f71929b7b5"},"vehicle_type_id":"4","last_reported":1702919219,"current_range_meters":30800,"station_id":"ce4bh112rcd13ifvqd90","pricing_plan_id":"free"},{"bike_id":"1617f277-67c4-468e-9da4-f66b48bf5086","system_id":"levelo_inurba_marseille","lat":43.288501,"lon":5.393087,"is_reserved":false,"is_disabled":false,"rental_uris":{"android":"levelo://app?vid=1617f277-67c4-468e-9da4-f66b48bf5086","ios":"levelo://app?vid=1617f277-67c4-468e-9da4-f66b48bf5086"},"vehicle_type_id":"4","last_reported":1702919219,"current_range_meters":21200,"station_id":"ce4bh2p2rcd13ifvqdi0","pricing_plan_id":"free"},{"bike_id":"a62e7f47-9007-4a79-815b-21bfd914ef42","system_id":"levelo_inurba_marseille","lat":43.288501,"lon":5.393087,"is_reserved":false,"is_disabled":false,"rental_uris":{"android":"levelo://app?vid=a62e7f47-9007-4a79-815b-21bfd914ef42","ios":"levelo://app?vid=a62e7f47-9007-4a79-815b-21bfd914ef42"},"vehicle_type_id":"4","last_reported":1702919219,"current_range_meters":20800,"station_id":"ce4bh2p2rcd13ifvqdi0","pricing_plan_id":"free"},{"bike_id":"63937f00-79aa-4dea-877e-5d1eecd0759e","system_id":"levelo_inurba_marseille","lat":43.306412,"lon":5.401035,"is_reserved":false,"is_disabled":false,"rental_uris":{"android":"levelo://app?vid=63937f00-79aa-4dea-877e-5d1eecd0759e","ios":"levelo://app?vid=63937f00-79aa-4dea-877e-5d1eecd0759e"},"vehicle_type_id":"4","last_reported":1702919219,"current_range_meters":26400,"station_id":"ce4bh112rcd13ifvqda0","pricing_plan_id":"free"},{"bike_id":"3a4e84dc-e1d4-4c37-bfe1-5fe7c4527ca0","system_id":"levelo_inurba_marseille","lat":43.282754,"lon":5.350519,"is_reserved":false,"is_disabled":false,"rental_uris":{"android":"levelo://app?vid=3a4e84dc-e1d4-4c37-bfe1-5fe7c4527ca0","ios":"levelo://app?vid=3a4e84dc-e1d4-4c37-bfe1-5fe7c4527ca0"},"vehicle_type_id":"4","last_reported":1702919219,"current_range_meters":9200,"station_id":"ce4bhbp2rcd13ifvqerg","pricing_plan_id":"free"},{"bike_id":"09540280-708a-4fa7-a5fe-d3d15c9a8784","system_id":"levelo_inurba_marseille","lat":43.283502,"lon":5.386471,"is_reserved":false,"is_disabled":false,"rental_uris":{"android":"levelo://app?vid=09540280-708a-4fa7-a5fe-d3d15c9a8784","ios":"levelo://app?vid=09540280-708a-4fa7-a5fe-d3d15c9a8784"},"vehicle_type_id":"4","last_reported":1702919219,"current_range_meters":26400,"station_id":"ce4bh492rcd13ifvqdvg","pricing_plan_id":"free"},{"bike_id":"17fe6d70-0d50-4324-9003-867dc0a0c6b4","system_id":"levelo_inurba_marseille","lat":43.282754,"lon":5.350519,"is_reserved":false,"is_disabled":false,"rental_uris":{"android":"levelo://app?vid=17fe6d70-0d50-4324-9003-867dc0a0c6b4","ios":"levelo://app?vid=17fe6d70-0d50-4324-9003-867dc0a0c6b4"},"vehicle_type_id":"4","last_reported":1702919219,"current_range_meters":13600,"station_id":"ce4bhbp2rcd13ifvqerg","pricing_plan_id":"free"},{"bike_id":"d038672c-10d6-4f82-8a0d-acfe8912cc35","system_id":"levelo_inurba_marseille","lat":43.283502,"lon":5.386471,"is_reserved":false,"is_disabled":false,"rental_uris":{"android":"levelo://app?vid=d038672c-10d6-4f82-8a0d-acfe8912cc35","ios":"levelo://app?vid=d038672c-10d6-4f82-8a0d-acfe8912cc35"},"vehicle_type_id":"4","last_reported":1702919219,"current_range_meters":5200,"station_id":"ce4bh492rcd13ifvqdvg","pricing_plan_id":"free"},{"bike_id":"0f651e70-147e-454e-917b-ee3cad6b51d9","system_id":"levelo_inurba_marseille","lat":43.28034,"lon":5.36937,"is_reserved":false,"is_disabled":false,"rental_uris":{"android":"levelo://app?vid=0f651e70-147e-454e-917b-ee3cad6b51d9","ios":"levelo://app?vid=0f651e70-147e-454e-917b-ee3cad6b51d9"},"vehicle_type_id":"4","last_reported":1702919219,"current_range_meters":2800,"station_id":"ce4bha12rcd13ifvqef0","pricing_plan_id":"free"},{"bike_id":"9e085c70-0615-48e6-9ad0-801d3c502116","system_id":"levelo_inurba_marseille","lat":43.280382,"lon":5.369291,"is_reserved":false,"is_disabled":false,"rental_uris":{"android":"levelo://app?vid=9e085c70-0615-48e6-9ad0-801d3c502116","ios":"levelo://app?vid=9e085c70-0615-48e6-9ad0-801d3c502116"},"vehicle_type_id":"4","last_reported":1702919219,"current_range_meters":17600,"station_id":"ce4bha12rcd13ifvqef0","pricing_plan_id":"free"},{"bike_id":"9ef612ed-e9a6-4def-9e3a-0875d7f7507a","system_id":"levelo_inurba_marseille","lat":43.281044,"lon":5.378308,"is_reserved":false,"is_disabled":false,"rental_uris":{"android":"levelo://app?vid=9ef612ed-e9a6-4def-9e3a-0875d7f7507a","ios":"levelo://app?vid=9ef612ed-e9a6-4def-9e3a-0875d7f7507a"},"vehicle_type_id":"4","last_reported":1702919219,"current_range_meters":24000,"station_id":"ce4bha12rcd13ifvqee0","pricing_plan_id":"free"},{"bike_id":"02734c30-3e6c-4806-8249-d5397fae9fc0","system_id":"levelo_inurba_marseille","lat":43.292502,"lon":5.408948,"is_reserved":false,"is_disabled":false,"rental_uris":{"android":"levelo://app?vid=02734c30-3e6c-4806-8249-d5397fae9fc0","ios":"levelo://app?vid=02734c30-3e6c-4806-8249-d5397fae9fc0"},"vehicle_type_id":"4","last_reported":1702919219,"current_range_meters":1200,"station_id":"","pricing_plan_id":"free"},{"bike_id":"7b0884bc-c147-4c4b-8ace-9eca2c883b59","system_id":"levelo_inurba_marseille","lat":43.292571,"lon":5.409107,"is_reserved":false,"is_disabled":false,"rental_uris":{"android":"levelo://app?vid=7b0884bc-c147-4c4b-8ace-9eca2c883b59","ios":"levelo://app?vid=7b0884bc-c147-4c4b-8ace-9eca2c883b59"},"vehicle_type_id":"4","last_reported":1702919219,"current_range_meters":26000,"station_id":"ce4bh192rcd13ifvqdc0","pricing_plan_id":"free"},{"bike_id":"06d6d0a7-5a4c-4ff6-a91a-ac2bb0e711e7","system_id":"levelo_inurba_marseille","lat":43.276092,"lon":5.361022,"is_reserved":false,"is_disabled":false,"rental_uris":{"android":"levelo://app?vid=06d6d0a7-5a4c-4ff6-a91a-ac2bb0e711e7","ios":"levelo://app?vid=06d6d0a7-5a4c-4ff6-a91a-ac2bb0e711e7"},"vehicle_type_id":"4","last_reported":1702919219,"current_range_meters":8000,"station_id":"ce4bgj92rcd13ifvqbe0","pricing_plan_id":"free"},{"bike_id":"510fb32a-395c-4fa8-a6f6-7135260e69f8","system_id":"levelo_inurba_marseille","lat":43.280784,"lon":5.396622,"is_reserved":false,"is_disabled":false,"rental_uris":{"android":"levelo://app?vid=510fb32a-395c-4fa8-a6f6-7135260e69f8","ios":"levelo://app?vid=510fb32a-395c-4fa8-a6f6-7135260e69f8"},"vehicle_type_id":"4","last_reported":1702919219,"current_range_meters":31200,"station_id":"ce4bho12rcd13ifvqh2g","pricing_plan_id":"free"},{"bike_id":"15e1f8dc-2600-4807-a14e-dd378347c034","system_id":"levelo_inurba_marseille","lat":43.303837,"lon":5.418724,"is_reserved":false,"is_disabled":false,"rental_uris":{"android":"levelo://app?vid=15e1f8dc-2600-4807-a14e-dd378347c034","ios":"levelo://app?vid=15e1f8dc-2600-4807-a14e-dd378347c034"},"vehicle_type_id":"4","last_reported":1702919219,"current_range_meters":20000,"station_id":"ce4bhop2rcd13ifvqh7g","pricing_plan_id":"free"},{"bike_id":"6f26d559-4caa-4f48-a10d-9f081653a3fe","system_id":"levelo_inurba_marseille","lat":43.278401,"lon":5.392152,"is_reserved":false,"is_disabled":false,"rental_uris":{"android":"levelo://app?vid=6f26d559-4caa-4f48-a10d-9f081653a3fe","ios":"levelo://app?vid=6f26d559-4caa-4f48-a10d-9f081653a3fe"},"vehicle_type_id":"4","last_reported":1702919219,"current_range_meters":16000,"station_id":"ce4bhjp2rcd13ifvqga0","pricing_plan_id":"free"},{"bike_id":"ab3ae805-a5d0-46bb-b161-aaac02295b58","system_id":"levelo_inurba_marseille","lat":43.278399,"lon":5.392139,"is_reserved":false,"is_disabled":false,"rental_uris":{"android":"levelo://app?vid=ab3ae805-a5d0-46bb-b161-aaac02295b58","ios":"levelo://app?vid=ab3ae805-a5d0-46bb-b161-aaac02295b58"},"vehicle_type_id":"4","last_reported":1702919219,"current_range_meters":19200,"station_id":"ce4bhjp2rcd13ifvqga0","pricing_plan_id":"free"},{"bike_id":"8b7163c8-747c-4e96-8584-c017d4b913c7","system_id":"levelo_inurba_marseille","lat":43.273613,"lon":5.362705,"is_reserved":false,"is_disabled":false,"rental_uris":{"android":"levelo://app?vid=8b7163c8-747c-4e96-8584-c017d4b913c7","ios":"levelo://app?vid=8b7163c8-747c-4e96-8584-c017d4b913c7"},"vehicle_type_id":"4","last_reported":1702919219,"current_range_meters":9200,"station_id":"ce4bhbh2rcd13ifvqeo0","pricing_plan_id":"free"},{"bike_id":"35817c3a-d578-4678-acdb-a7450c8bb983","system_id":"levelo_inurba_marseille","lat":43.273609,"lon":5.362708,"is_reserved":false,"is_disabled":false,"rental_uris":{"android":"levelo://app?vid=35817c3a-d578-4678-acdb-a7450c8bb983","ios":"levelo://app?vid=35817c3a-d578-4678-acdb-a7450c8bb983"},"vehicle_type_id":"4","last_reported":1702919219,"current_range_meters":25600,"station_id":"ce4bhbh2rcd13ifvqeo0","pricing_plan_id":"free"},{"bike_id":"0cf403f8-9992-471b-b83e-97c5b20efdb5","system_id":"levelo_inurba_marseille","lat":43.273609,"lon":5.362708,"is_reserved":false,"is_disabled":false,"rental_uris":{"android":"levelo://app?vid=0cf403f8-9992-471b-b83e-97c5b20efdb5","ios":"levelo://app?vid=0cf403f8-9992-471b-b83e-97c5b20efdb5"},"vehicle_type_id":"4","last_reported":1702919219,"current_range_meters":5600,"station_id":"ce4bhbh2rcd13ifvqeo0","pricing_plan_id":"free"},{"bike_id":"13a050db-d7f6-421a-bf7b-b6511aee9432","system_id":"levelo_inurba_marseille","lat":43.275625,"lon":5.384392,"is_reserved":false,"is_disabled":false,"rental_uris":{"android":"levelo://app?vid=13a050db-d7f6-421a-bf7b-b6511aee9432","ios":"levelo://app?vid=13a050db-d7f6-421a-bf7b-b6511aee9432"},"vehicle_type_id":"4","last_reported":1702919219,"current_range_meters":22400,"station_id":"ce4bhh92rcd13ifvqfi0","pricing_plan_id":"free"},{"bike_id":"ba23a49f-f752-40f9-b881-d731ba920e07","system_id":"levelo_inurba_marseille","lat":43.32418,"lon":5.41998,"is_reserved":false,"is_disabled":false,"rental_uris":{"android":"levelo://app?vid=ba23a49f-f752-40f9-b881-d731ba920e07","ios":"levelo://app?vid=ba23a49f-f752-40f9-b881-d731ba920e07"},"vehicle_type_id":"4","last_reported":1702919219,"current_range_meters":27600,"station_id":"","pricing_plan_id":"free"},{"bike_id":"c86c6c50-f70e-4473-a698-ebe42bdc8921","system_id":"levelo_inurba_marseille","lat":43.279975,"lon":5.40009,"is_reserved":false,"is_disabled":false,"rental_uris":{"android":"levelo://app?vid=c86c6c50-f70e-4473-a698-ebe42bdc8921","ios":"levelo://app?vid=c86c6c50-f70e-4473-a698-ebe42bdc8921"},"vehicle_type_id":"4","last_reported":1702919219,"current_range_meters":27200,"station_id":"ce4bho92rcd13ifvqh4g","pricing_plan_id":"free"},{"bike_id":"3ca2c2d2-99b0-4aa6-a05d-e30f02e6a7fb","system_id":"levelo_inurba_marseille","lat":43.276092,"lon":5.395289,"is_reserved":false,"is_disabled":false,"rental_uris":{"android":"levelo://app?vid=3ca2c2d2-99b0-4aa6-a05d-e30f02e6a7fb","ios":"levelo://app?vid=3ca2c2d2-99b0-4aa6-a05d-e30f02e6a7fb"},"vehicle_type_id":"4","last_reported":1702919219,"current_range_meters":12800,"station_id":"","pricing_plan_id":"free"},{"bike_id":"fb094048-824a-49d1-905f-084ec3753a88","system_id":"levelo_inurba_marseille","lat":43.295523,"lon":5.422926,"is_reserved":false,"is_disabled":false,"rental_uris":{"android":"levelo://app?vid=fb094048-824a-49d1-905f-084ec3753a88","ios":"levelo://app?vid=fb094048-824a-49d1-905f-084ec3753a88"},"vehicle_type_id":"4","last_reported":1702919219,"current_range_meters":24800,"station_id":"ce4bhph2rcd13ifvqhdg","pricing_plan_id":"free"},{"bike_id":"628a1844-4de6-4ff8-b7b8-44bb12a39376","system_id":"levelo_inurba_marseille","lat":43.295511,"lon":5.422926,"is_reserved":false,"is_disabled":false,"rental_uris":{"android":"levelo://app?vid=628a1844-4de6-4ff8-b7b8-44bb12a39376","ios":"levelo://app?vid=628a1844-4de6-4ff8-b7b8-44bb12a39376"},"vehicle_type_id":"4","last_reported":1702919219,"current_range_meters":31200,"station_id":"ce4bhph2rcd13ifvqhdg","pricing_plan_id":"free"},{"bike_id":"c5b44840-1601-43ac-abe9-c1e5b739efac","system_id":"levelo_inurba_marseille","lat":43.295523,"lon":5.422926,"is_reserved":false,"is_disabled":false,"rental_uris":{"android":"levelo://app?vid=c5b44840-1601-43ac-abe9-c1e5b739efac","ios":"levelo://app?vid=c5b44840-1601-43ac-abe9-c1e5b739efac"},"vehicle_type_id":"4","last_reported":1702919219,"current_range_meters":26400,"station_id":"ce4bhph2rcd13ifvqhdg","pricing_plan_id":"free"},{"bike_id":"9cbe5e87-404e-4c09-afbe-5ee44247e5dc","system_id":"levelo_inurba_marseille","lat":43.295523,"lon":5.422926,"is_reserved":false,"is_disabled":false,"rental_uris":{"android":"levelo://app?vid=9cbe5e87-404e-4c09-afbe-5ee44247e5dc","ios":"levelo://app?vid=9cbe5e87-404e-4c09-afbe-5ee44247e5dc"},"vehicle_type_id":"4","last_reported":1702919219,"current_range_meters":31200,"station_id":"ce4bhph2rcd13ifvqhdg","pricing_plan_id":"free"},{"bike_id":"35f4c7df-1dd1-49cd-b086-e9b64d14ba25","system_id":"levelo_inurba_marseille","lat":43.295511,"lon":5.422926,"is_reserved":false,"is_disabled":false,"rental_uris":{"android":"levelo://app?vid=35f4c7df-1dd1-49cd-b086-e9b64d14ba25","ios":"levelo://app?vid=35f4c7df-1dd1-49cd-b086-e9b64d14ba25"},"vehicle_type_id":"4","last_reported":1702919219,"current_range_meters":26000,"station_id":"ce4bhph2rcd13ifvqhdg","pricing_plan_id":"free"},{"bike_id":"1d583d68-8350-42de-af0a-dd3bb755495b","system_id":"levelo_inurba_marseille","lat":43.295487,"lon":5.42288,"is_reserved":false,"is_disabled":false,"rental_uris":{"android":"levelo://app?vid=1d583d68-8350-42de-af0a-dd3bb755495b","ios":"levelo://app?vid=1d583d68-8350-42de-af0a-dd3bb755495b"},"vehicle_type_id":"4","last_reported":1702919219,"current_range_meters":3200,"station_id":"ce4bhph2rcd13ifvqhdg","pricing_plan_id":"free"},{"bike_id":"71f60542-d421-4821-85b4-0f51f2732a03","system_id":"levelo_inurba_marseille","lat":43.295523,"lon":5.422926,"is_reserved":false,"is_disabled":false,"rental_uris":{"android":"levelo://app?vid=71f60542-d421-4821-85b4-0f51f2732a03","ios":"levelo://app?vid=71f60542-d421-4821-85b4-0f51f2732a03"},"vehicle_type_id":"4","last_reported":1702919219,"current_range_meters":18800,"station_id":"ce4bhph2rcd13ifvqhdg","pricing_plan_id":"free"},{"bike_id":"b7cf2270-51e0-4c23-b809-7cc8ccd43d15","system_id":"levelo_inurba_marseille","lat":43.272116,"lon":5.391763,"is_reserved":false,"is_disabled":false,"rental_uris":{"android":"levelo://app?vid=b7cf2270-51e0-4c23-b809-7cc8ccd43d15","ios":"levelo://app?vid=b7cf2270-51e0-4c23-b809-7cc8ccd43d15"},"vehicle_type_id":"4","last_reported":1702919219,"current_range_meters":1200,"station_id":"ce4bhhp2rcd13ifvqfm0","pricing_plan_id":"free"},{"bike_id":"aef1b27f-989b-4c6d-90b6-684e4121837a","system_id":"levelo_inurba_marseille","lat":43.269467,"lon":5.386439,"is_reserved":false,"is_disabled":false,"rental_uris":{"android":"levelo://app?vid=aef1b27f-989b-4c6d-90b6-684e4121837a","ios":"levelo://app?vid=aef1b27f-989b-4c6d-90b6-684e4121837a"},"vehicle_type_id":"4","last_reported":1702919219,"current_range_meters":0,"station_id":"ce4bhh92rcd13ifvqfh0","pricing_plan_id":"free"},{"bike_id":"1e0c3512-673f-435b-a7ac-1bafcec5b231","system_id":"levelo_inurba_marseille","lat":43.269319,"lon":5.389397,"is_reserved":false,"is_disabled":false,"rental_uris":{"android":"levelo://app?vid=1e0c3512-673f-435b-a7ac-1bafcec5b231","ios":"levelo://app?vid=1e0c3512-673f-435b-a7ac-1bafcec5b231"},"vehicle_type_id":"4","last_reported":1702919219,"current_range_meters":8800,"station_id":"ce4bhhh2rcd13ifvqfl0","pricing_plan_id":"free"},{"bike_id":"ae8a95c1-6443-4773-ad3f-12c934cfe98a","system_id":"levelo_inurba_marseille","lat":43.308051,"lon":5.43527,"is_reserved":false,"is_disabled":false,"rental_uris":{"android":"levelo://app?vid=ae8a95c1-6443-4773-ad3f-12c934cfe98a","ios":"levelo://app?vid=ae8a95c1-6443-4773-ad3f-12c934cfe98a"},"vehicle_type_id":"4","last_reported":1702919219,"current_range_meters":30000,"station_id":"ce4bhph2rcd13ifvqheg","pricing_plan_id":"free"},{"bike_id":"b60fc5e1-89e5-42b6-95cd-2facc0075673","system_id":"levelo_inurba_marseille","lat":43.308051,"lon":5.43527,"is_reserved":false,"is_disabled":false,"rental_uris":{"android":"levelo://app?vid=b60fc5e1-89e5-42b6-95cd-2facc0075673","ios":"levelo://app?vid=b60fc5e1-89e5-42b6-95cd-2facc0075673"},"vehicle_type_id":"4","last_reported":1702919219,"current_range_meters":21600,"station_id":"ce4bhph2rcd13ifvqheg","pricing_plan_id":"free"},{"bike_id":"8979e8b2-7c2c-45b5-b5d9-805bc52eca3a","system_id":"levelo_inurba_marseille","lat":43.308051,"lon":5.43527,"is_reserved":false,"is_disabled":false,"rental_uris":{"android":"levelo://app?vid=8979e8b2-7c2c-45b5-b5d9-805bc52eca3a","ios":"levelo://app?vid=8979e8b2-7c2c-45b5-b5d9-805bc52eca3a"},"vehicle_type_id":"4","last_reported":1702919219,"current_range_meters":7200,"station_id":"ce4bhph2rcd13ifvqheg","pricing_plan_id":"free"},{"bike_id":"dea6d4bf-6bd3-4e00-ab36-832382195e1c","system_id":"levelo_inurba_marseille","lat":43.308051,"lon":5.43527,"is_reserved":false,"is_disabled":false,"rental_uris":{"android":"levelo://app?vid=dea6d4bf-6bd3-4e00-ab36-832382195e1c","ios":"levelo://app?vid=dea6d4bf-6bd3-4e00-ab36-832382195e1c"},"vehicle_type_id":"4","last_reported":1702919219,"current_range_meters":30000,"station_id":"ce4bhph2rcd13ifvqheg","pricing_plan_id":"free"},{"bike_id":"cfa4ebcb-9a46-4d67-b945-c481676388fb","system_id":"levelo_inurba_marseille","lat":43.26945,"lon":5.40245,"is_reserved":false,"is_disabled":false,"rental_uris":{"android":"levelo://app?vid=cfa4ebcb-9a46-4d67-b945-c481676388fb","ios":"levelo://app?vid=cfa4ebcb-9a46-4d67-b945-c481676388fb"},"vehicle_type_id":"4","last_reported":1702919219,"current_range_meters":16400,"station_id":"cjm6bp8fraef2m0cb0m0","pricing_plan_id":"free"},{"bike_id":"408154c2-c1fb-4366-ac02-6d9c36319d37","system_id":"levelo_inurba_marseille","lat":43.26944,"lon":5.40252,"is_reserved":false,"is_disabled":false,"rental_uris":{"android":"levelo://app?vid=408154c2-c1fb-4366-ac02-6d9c36319d37","ios":"levelo://app?vid=408154c2-c1fb-4366-ac02-6d9c36319d37"},"vehicle_type_id":"4","last_reported":1702919219,"current_range_meters":20800,"station_id":"","pricing_plan_id":"free"},{"bike_id":"42242cfb-a2fe-4d05-8453-f877be5d7768","system_id":"levelo_inurba_marseille","lat":43.261782,"lon":5.374515,"is_reserved":false,"is_disabled":false,"rental_uris":{"android":"levelo://app?vid=42242cfb-a2fe-4d05-8453-f877be5d7768","ios":"levelo://app?vid=42242cfb-a2fe-4d05-8453-f877be5d7768"},"vehicle_type_id":"4","last_reported":1702919219,"current_range_meters":10000,"station_id":"ce4bhgp2rcd13ifvqfc0","pricing_plan_id":"free"},{"bike_id":"a4cc3643-0b78-49ea-bb69-072a51937fbe","system_id":"levelo_inurba_marseille","lat":43.26189,"lon":5.37439,"is_reserved":false,"is_disabled":false,"rental_uris":{"android":"levelo://app?vid=a4cc3643-0b78-49ea-bb69-072a51937fbe","ios":"levelo://app?vid=a4cc3643-0b78-49ea-bb69-072a51937fbe"},"vehicle_type_id":"4","last_reported":1702919219,"current_range_meters":24400,"station_id":"","pricing_plan_id":"free"},{"bike_id":"ee1964dd-bd19-4163-8977-66dfe213996c","system_id":"levelo_inurba_marseille","lat":43.261782,"lon":5.374515,"is_reserved":false,"is_disabled":false,"rental_uris":{"android":"levelo://app?vid=ee1964dd-bd19-4163-8977-66dfe213996c","ios":"levelo://app?vid=ee1964dd-bd19-4163-8977-66dfe213996c"},"vehicle_type_id":"4","last_reported":1702919219,"current_range_meters":31200,"station_id":"ce4bhgp2rcd13ifvqfc0","pricing_plan_id":"free"},{"bike_id":"96f17980-700d-4dd0-a917-1e158be15ba2","system_id":"levelo_inurba_marseille","lat":43.261782,"lon":5.374515,"is_reserved":false,"is_disabled":false,"rental_uris":{"android":"levelo://app?vid=96f17980-700d-4dd0-a917-1e158be15ba2","ios":"levelo://app?vid=96f17980-700d-4dd0-a917-1e158be15ba2"},"vehicle_type_id":"4","last_reported":1702919219,"current_range_meters":12000,"station_id":"ce4bhgp2rcd13ifvqfc0","pricing_plan_id":"free"},{"bike_id":"524ed846-4fbf-4d2f-8a66-ae44c466484e","system_id":"levelo_inurba_marseille","lat":43.261782,"lon":5.374515,"is_reserved":false,"is_disabled":false,"rental_uris":{"android":"levelo://app?vid=524ed846-4fbf-4d2f-8a66-ae44c466484e","ios":"levelo://app?vid=524ed846-4fbf-4d2f-8a66-ae44c466484e"},"vehicle_type_id":"4","last_reported":1702919219,"current_range_meters":28800,"station_id":"ce4bhgp2rcd13ifvqfc0","pricing_plan_id":"free"},{"bike_id":"aed94823-987c-4f39-a8b9-00dab2638955","system_id":"levelo_inurba_marseille","lat":43.261782,"lon":5.374515,"is_reserved":false,"is_disabled":false,"rental_uris":{"android":"levelo://app?vid=aed94823-987c-4f39-a8b9-00dab2638955","ios":"levelo://app?vid=aed94823-987c-4f39-a8b9-00dab2638955"},"vehicle_type_id":"4","last_reported":1702919219,"current_range_meters":800,"station_id":"ce4bhgp2rcd13ifvqfc0","pricing_plan_id":"free"},{"bike_id":"596e3210-6bf0-4d85-99a9-57f2c2b7bb13","system_id":"levelo_inurba_marseille","lat":43.262012,"lon":5.379307,"is_reserved":false,"is_disabled":false,"rental_uris":{"android":"levelo://app?vid=596e3210-6bf0-4d85-99a9-57f2c2b7bb13","ios":"levelo://app?vid=596e3210-6bf0-4d85-99a9-57f2c2b7bb13"},"vehicle_type_id":"4","last_reported":1702919219,"current_range_meters":28800,"station_id":"ce4bhjp2rcd13ifvqg90","pricing_plan_id":"free"},{"bike_id":"c584ff89-fc2a-41f5-b2d8-182580501e0c","system_id":"levelo_inurba_marseille","lat":43.26202,"lon":5.379299,"is_reserved":false,"is_disabled":false,"rental_uris":{"android":"levelo://app?vid=c584ff89-fc2a-41f5-b2d8-182580501e0c","ios":"levelo://app?vid=c584ff89-fc2a-41f5-b2d8-182580501e0c"},"vehicle_type_id":"4","last_reported":1702919219,"current_range_meters":30400,"station_id":"ce4bhjp2rcd13ifvqg90","pricing_plan_id":"free"},{"bike_id":"3ec17574-714c-4dd8-936f-b707a5b77655","system_id":"levelo_inurba_marseille","lat":43.271388,"lon":5.409269,"is_reserved":false,"is_disabled":false,"rental_uris":{"android":"levelo://app?vid=3ec17574-714c-4dd8-936f-b707a5b77655","ios":"levelo://app?vid=3ec17574-714c-4dd8-936f-b707a5b77655"},"vehicle_type_id":"4","last_reported":1702919219,"current_range_meters":1600,"station_id":"ce4bhl12rcd13ifvqgf0","pricing_plan_id":"free"},{"bike_id":"a3be1c29-995a-4f18-8d28-f5aa4c79f3d0","system_id":"levelo_inurba_marseille","lat":43.271368,"lon":5.40928,"is_reserved":false,"is_disabled":false,"rental_uris":{"android":"levelo://app?vid=a3be1c29-995a-4f18-8d28-f5aa4c79f3d0","ios":"levelo://app?vid=a3be1c29-995a-4f18-8d28-f5aa4c79f3d0"},"vehicle_type_id":"4","last_reported":1702919219,"current_range_meters":29600,"station_id":"ce4bhl12rcd13ifvqgf0","pricing_plan_id":"free"},{"bike_id":"7f0a85fc-e9b1-422b-b922-07a060dc7b5a","system_id":"levelo_inurba_marseille","lat":43.271368,"lon":5.40928,"is_reserved":false,"is_disabled":false,"rental_uris":{"android":"levelo://app?vid=7f0a85fc-e9b1-422b-b922-07a060dc7b5a","ios":"levelo://app?vid=7f0a85fc-e9b1-422b-b922-07a060dc7b5a"},"vehicle_type_id":"4","last_reported":1702919219,"current_range_meters":28400,"station_id":"ce4bhl12rcd13ifvqgf0","pricing_plan_id":"free"},{"bike_id":"a4975794-e88f-4155-947c-264e12be34c5","system_id":"levelo_inurba_marseille","lat":43.298768,"lon":5.43643,"is_reserved":false,"is_disabled":false,"rental_uris":{"android":"levelo://app?vid=a4975794-e88f-4155-947c-264e12be34c5","ios":"levelo://app?vid=a4975794-e88f-4155-947c-264e12be34c5"},"vehicle_type_id":"4","last_reported":1702919219,"current_range_meters":24800,"station_id":"ce4bhpp2rcd13ifvqhfg","pricing_plan_id":"free"},{"bike_id":"8b000818-ee66-4afa-956c-06d1feec8088","system_id":"levelo_inurba_marseille","lat":43.298768,"lon":5.43643,"is_reserved":false,"is_disabled":false,"rental_uris":{"android":"levelo://app?vid=8b000818-ee66-4afa-956c-06d1feec8088","ios":"levelo://app?vid=8b000818-ee66-4afa-956c-06d1feec8088"},"vehicle_type_id":"4","last_reported":1702919219,"current_range_meters":31600,"station_id":"ce4bhpp2rcd13ifvqhfg","pricing_plan_id":"free"},{"bike_id":"be3c7518-3a90-4ace-b263-cbe424279bc2","system_id":"levelo_inurba_marseille","lat":43.298768,"lon":5.43643,"is_reserved":false,"is_disabled":false,"rental_uris":{"android":"levelo://app?vid=be3c7518-3a90-4ace-b263-cbe424279bc2","ios":"levelo://app?vid=be3c7518-3a90-4ace-b263-cbe424279bc2"},"vehicle_type_id":"4","last_reported":1702919219,"current_range_meters":30400,"station_id":"ce4bhpp2rcd13ifvqhfg","pricing_plan_id":"free"},{"bike_id":"76346036-12b6-4dcc-86d0-232802e30c75","system_id":"levelo_inurba_marseille","lat":43.298768,"lon":5.43643,"is_reserved":false,"is_disabled":false,"rental_uris":{"android":"levelo://app?vid=76346036-12b6-4dcc-86d0-232802e30c75","ios":"levelo://app?vid=76346036-12b6-4dcc-86d0-232802e30c75"},"vehicle_type_id":"4","last_reported":1702919219,"current_range_meters":17200,"station_id":"ce4bhpp2rcd13ifvqhfg","pricing_plan_id":"free"},{"bike_id":"3a6a45a0-22df-4a85-86d4-e6095ebe26d6","system_id":"levelo_inurba_marseille","lat":43.260225,"lon":5.375455,"is_reserved":false,"is_disabled":false,"rental_uris":{"android":"levelo://app?vid=3a6a45a0-22df-4a85-86d4-e6095ebe26d6","ios":"levelo://app?vid=3a6a45a0-22df-4a85-86d4-e6095ebe26d6"},"vehicle_type_id":"4","last_reported":1702919219,"current_range_meters":26000,"station_id":"ce4bhgh2rcd13ifvqfa0","pricing_plan_id":"free"},{"bike_id":"830a30c3-a4cf-4496-80eb-ce013ca8504d","system_id":"levelo_inurba_marseille","lat":43.281548,"lon":5.42643,"is_reserved":false,"is_disabled":false,"rental_uris":{"android":"levelo://app?vid=830a30c3-a4cf-4496-80eb-ce013ca8504d","ios":"levelo://app?vid=830a30c3-a4cf-4496-80eb-ce013ca8504d"},"vehicle_type_id":"4","last_reported":1702919219,"current_range_meters":6800,"station_id":"ce4bhnh2rcd13ifvqgug","pricing_plan_id":"free"},{"bike_id":"a1d197e6-1437-4885-84d3-0137d185413d","system_id":"levelo_inurba_marseille","lat":43.281548,"lon":5.42643,"is_reserved":false,"is_disabled":false,"rental_uris":{"android":"levelo://app?vid=a1d197e6-1437-4885-84d3-0137d185413d","ios":"levelo://app?vid=a1d197e6-1437-4885-84d3-0137d185413d"},"vehicle_type_id":"4","last_reported":1702919219,"current_range_meters":10800,"station_id":"ce4bhnh2rcd13ifvqgug","pricing_plan_id":"free"},{"bike_id":"963b48ee-b0ac-4a93-9a75-db18227f3cd6","system_id":"levelo_inurba_marseille","lat":43.2607,"lon":5.393983,"is_reserved":false,"is_disabled":false,"rental_uris":{"android":"levelo://app?vid=963b48ee-b0ac-4a93-9a75-db18227f3cd6","ios":"levelo://app?vid=963b48ee-b0ac-4a93-9a75-db18227f3cd6"},"vehicle_type_id":"4","last_reported":1702919219,"current_range_meters":20000,"station_id":"ce4bhh92rcd13ifvqfj0","pricing_plan_id":"free"},{"bike_id":"ad49ad42-d7d7-4139-9f8c-a72d0760043c","system_id":"levelo_inurba_marseille","lat":43.2607,"lon":5.393983,"is_reserved":false,"is_disabled":false,"rental_uris":{"android":"levelo://app?vid=ad49ad42-d7d7-4139-9f8c-a72d0760043c","ios":"levelo://app?vid=ad49ad42-d7d7-4139-9f8c-a72d0760043c"},"vehicle_type_id":"4","last_reported":1702919219,"current_range_meters":29600,"station_id":"ce4bhh92rcd13ifvqfj0","pricing_plan_id":"free"},{"bike_id":"30ee954c-a401-4ba2-9793-e167d43b44eb","system_id":"levelo_inurba_marseille","lat":43.25583,"lon":5.38226,"is_reserved":false,"is_disabled":false,"rental_uris":{"android":"levelo://app?vid=30ee954c-a401-4ba2-9793-e167d43b44eb","ios":"levelo://app?vid=30ee954c-a401-4ba2-9793-e167d43b44eb"},"vehicle_type_id":"4","last_reported":1702919219,"current_range_meters":400,"station_id":"ce4bhih2rcd13ifvqfs0","pricing_plan_id":"free"},{"bike_id":"d222be43-5335-4c47-9d47-d105ac278ac1","system_id":"levelo_inurba_marseille","lat":43.258224,"lon":5.394369,"is_reserved":false,"is_disabled":false,"rental_uris":{"android":"levelo://app?vid=d222be43-5335-4c47-9d47-d105ac278ac1","ios":"levelo://app?vid=d222be43-5335-4c47-9d47-d105ac278ac1"},"vehicle_type_id":"4","last_reported":1702919219,"current_range_meters":20800,"station_id":"ce4bhip2rcd13ifvqft0","pricing_plan_id":"free"},{"bike_id":"8e5a8e06-4852-4f6e-aab1-867432a36309","system_id":"levelo_inurba_marseille","lat":43.258205,"lon":5.394369,"is_reserved":false,"is_disabled":false,"rental_uris":{"android":"levelo://app?vid=8e5a8e06-4852-4f6e-aab1-867432a36309","ios":"levelo://app?vid=8e5a8e06-4852-4f6e-aab1-867432a36309"},"vehicle_type_id":"4","last_reported":1702919219,"current_range_meters":14400,"station_id":"ce4bhip2rcd13ifvqft0","pricing_plan_id":"free"},{"bike_id":"69601c4d-b7f7-4608-bb20-aab86ec3022c","system_id":"levelo_inurba_marseille","lat":43.258224,"lon":5.394369,"is_reserved":false,"is_disabled":false,"rental_uris":{"android":"levelo://app?vid=69601c4d-b7f7-4608-bb20-aab86ec3022c","ios":"levelo://app?vid=69601c4d-b7f7-4608-bb20-aab86ec3022c"},"vehicle_type_id":"4","last_reported":1702919219,"current_range_meters":21200,"station_id":"ce4bhip2rcd13ifvqft0","pricing_plan_id":"free"},{"bike_id":"afdd4c86-38e1-496b-a03c-707e3a8e8c4c","system_id":"levelo_inurba_marseille","lat":43.258224,"lon":5.394369,"is_reserved":false,"is_disabled":false,"rental_uris":{"android":"levelo://app?vid=afdd4c86-38e1-496b-a03c-707e3a8e8c4c","ios":"levelo://app?vid=afdd4c86-38e1-496b-a03c-707e3a8e8c4c"},"vehicle_type_id":"4","last_reported":1702919219,"current_range_meters":5600,"station_id":"ce4bhip2rcd13ifvqft0","pricing_plan_id":"free"},{"bike_id":"c89dcb56-7515-448e-b5f6-fb6ed21417b0","system_id":"levelo_inurba_marseille","lat":43.25503,"lon":5.37651,"is_reserved":false,"is_disabled":false,"rental_uris":{"android":"levelo://app?vid=c89dcb56-7515-448e-b5f6-fb6ed21417b0","ios":"levelo://app?vid=c89dcb56-7515-448e-b5f6-fb6ed21417b0"},"vehicle_type_id":"4","last_reported":1702919219,"current_range_meters":28000,"station_id":"ce4bhh12rcd13ifvqff0","pricing_plan_id":"free"},{"bike_id":"e22a365f-e8dc-447d-af5c-63eb9d980225","system_id":"levelo_inurba_marseille","lat":43.25502,"lon":5.37652,"is_reserved":false,"is_disabled":false,"rental_uris":{"android":"levelo://app?vid=e22a365f-e8dc-447d-af5c-63eb9d980225","ios":"levelo://app?vid=e22a365f-e8dc-447d-af5c-63eb9d980225"},"vehicle_type_id":"4","last_reported":1702919219,"current_range_meters":18400,"station_id":"ce4bhh12rcd13ifvqff0","pricing_plan_id":"free"},{"bike_id":"554b9716-3962-44dd-9cdb-dc4e11773c87","system_id":"levelo_inurba_marseille","lat":43.25502,"lon":5.37653,"is_reserved":false,"is_disabled":false,"rental_uris":{"android":"levelo://app?vid=554b9716-3962-44dd-9cdb-dc4e11773c87","ios":"levelo://app?vid=554b9716-3962-44dd-9cdb-dc4e11773c87"},"vehicle_type_id":"4","last_reported":1702919219,"current_range_meters":29600,"station_id":"ce4bhh12rcd13ifvqff0","pricing_plan_id":"free"},{"bike_id":"9b16cfa8-34d1-476e-b42b-b8acad8d9f34","system_id":"levelo_inurba_marseille","lat":43.25501,"lon":5.3765,"is_reserved":false,"is_disabled":false,"rental_uris":{"android":"levelo://app?vid=9b16cfa8-34d1-476e-b42b-b8acad8d9f34","ios":"levelo://app?vid=9b16cfa8-34d1-476e-b42b-b8acad8d9f34"},"vehicle_type_id":"4","last_reported":1702919219,"current_range_meters":21600,"station_id":"ce4bhh12rcd13ifvqff0","pricing_plan_id":"free"},{"bike_id":"2a49bcf8-fdfb-41e1-91bd-16a50274d949","system_id":"levelo_inurba_marseille","lat":43.25501,"lon":5.37657,"is_reserved":false,"is_disabled":false,"rental_uris":{"android":"levelo://app?vid=2a49bcf8-fdfb-41e1-91bd-16a50274d949","ios":"levelo://app?vid=2a49bcf8-fdfb-41e1-91bd-16a50274d949"},"vehicle_type_id":"4","last_reported":1702919219,"current_range_meters":26800,"station_id":"ce4bhh12rcd13ifvqff0","pricing_plan_id":"free"},{"bike_id":"1ab26662-3a45-4e48-b861-d4c7ec7307b2","system_id":"levelo_inurba_marseille","lat":43.25493,"lon":5.37647,"is_reserved":false,"is_disabled":false,"rental_uris":{"android":"levelo://app?vid=1ab26662-3a45-4e48-b861-d4c7ec7307b2","ios":"levelo://app?vid=1ab26662-3a45-4e48-b861-d4c7ec7307b2"},"vehicle_type_id":"4","last_reported":1702919219,"current_range_meters":16400,"station_id":"ce4bhh12rcd13ifvqff0","pricing_plan_id":"free"},{"bike_id":"88eed449-3d87-4183-9edc-9401796301b8","system_id":"levelo_inurba_marseille","lat":43.25493,"lon":5.37648,"is_reserved":false,"is_disabled":false,"rental_uris":{"android":"levelo://app?vid=88eed449-3d87-4183-9edc-9401796301b8","ios":"levelo://app?vid=88eed449-3d87-4183-9edc-9401796301b8"},"vehicle_type_id":"4","last_reported":1702919219,"current_range_meters":18000,"station_id":"ce4bhh12rcd13ifvqff0","pricing_plan_id":"free"},{"bike_id":"5f10ab57-6efd-45f6-a231-f77b3637d3fb","system_id":"levelo_inurba_marseille","lat":43.25485,"lon":5.37646,"is_reserved":false,"is_disabled":false,"rental_uris":{"android":"levelo://app?vid=5f10ab57-6efd-45f6-a231-f77b3637d3fb","ios":"levelo://app?vid=5f10ab57-6efd-45f6-a231-f77b3637d3fb"},"vehicle_type_id":"4","last_reported":1702919219,"current_range_meters":8000,"station_id":"ce4bhh12rcd13ifvqff0","pricing_plan_id":"free"},{"bike_id":"088bc051-4b2e-4f3b-99d5-218250b2ef2e","system_id":"levelo_inurba_marseille","lat":43.25937,"lon":5.40914,"is_reserved":false,"is_disabled":false,"rental_uris":{"android":"levelo://app?vid=088bc051-4b2e-4f3b-99d5-218250b2ef2e","ios":"levelo://app?vid=088bc051-4b2e-4f3b-99d5-218250b2ef2e"},"vehicle_type_id":"4","last_reported":1702919219,"current_range_meters":27200,"station_id":"ce4bhm92rcd13ifvqglg","pricing_plan_id":"free"},{"bike_id":"4f357bfc-e766-4acc-812f-e9691fddab1b","system_id":"levelo_inurba_marseille","lat":43.257079,"lon":5.411051,"is_reserved":false,"is_disabled":false,"rental_uris":{"android":"levelo://app?vid=4f357bfc-e766-4acc-812f-e9691fddab1b","ios":"levelo://app?vid=4f357bfc-e766-4acc-812f-e9691fddab1b"},"vehicle_type_id":"4","last_reported":1702919219,"current_range_meters":0,"station_id":"ce4bhkp2rcd13ifvqgd0","pricing_plan_id":"free"},{"bike_id":"fc904161-c9ca-451b-b6eb-27501a7054d1","system_id":"levelo_inurba_marseille","lat":43.2572,"lon":5.41116,"is_reserved":false,"is_disabled":false,"rental_uris":{"android":"levelo://app?vid=fc904161-c9ca-451b-b6eb-27501a7054d1","ios":"levelo://app?vid=fc904161-c9ca-451b-b6eb-27501a7054d1"},"vehicle_type_id":"4","last_reported":1702919219,"current_range_meters":17200,"station_id":"ce4bhkp2rcd13ifvqgd0","pricing_plan_id":"free"},{"bike_id":"86b0222e-9893-41e3-9aa5-31dd7bec5d9b","system_id":"levelo_inurba_marseille","lat":43.257079,"lon":5.411051,"is_reserved":false,"is_disabled":false,"rental_uris":{"android":"levelo://app?vid=86b0222e-9893-41e3-9aa5-31dd7bec5d9b","ios":"levelo://app?vid=86b0222e-9893-41e3-9aa5-31dd7bec5d9b"},"vehicle_type_id":"4","last_reported":1702919219,"current_range_meters":23600,"station_id":"ce4bhkp2rcd13ifvqgd0","pricing_plan_id":"free"},{"bike_id":"b19c950b-476a-4900-9a31-8d453b42a765","system_id":"levelo_inurba_marseille","lat":43.25714,"lon":5.41113,"is_reserved":false,"is_disabled":false,"rental_uris":{"android":"levelo://app?vid=b19c950b-476a-4900-9a31-8d453b42a765","ios":"levelo://app?vid=b19c950b-476a-4900-9a31-8d453b42a765"},"vehicle_type_id":"4","last_reported":1702919219,"current_range_meters":12800,"station_id":"ce4bhkp2rcd13ifvqgd0","pricing_plan_id":"free"},{"bike_id":"ccb568f3-9930-4b47-9520-5649816a0681","system_id":"levelo_inurba_marseille","lat":43.2479,"lon":5.374457,"is_reserved":false,"is_disabled":false,"rental_uris":{"android":"levelo://app?vid=ccb568f3-9930-4b47-9520-5649816a0681","ios":"levelo://app?vid=ccb568f3-9930-4b47-9520-5649816a0681"},"vehicle_type_id":"4","last_reported":1702919219,"current_range_meters":1600,"station_id":"ce4bhgh2rcd13ifvqfb0","pricing_plan_id":"free"},{"bike_id":"4c3f0a98-2e49-4bfa-a248-39ae8de82c42","system_id":"levelo_inurba_marseille","lat":43.2479,"lon":5.374457,"is_reserved":false,"is_disabled":false,"rental_uris":{"android":"levelo://app?vid=4c3f0a98-2e49-4bfa-a248-39ae8de82c42","ios":"levelo://app?vid=4c3f0a98-2e49-4bfa-a248-39ae8de82c42"},"vehicle_type_id":"4","last_reported":1702919219,"current_range_meters":3600,"station_id":"ce4bhgh2rcd13ifvqfb0","pricing_plan_id":"free"},{"bike_id":"3df4f2e3-eb03-4a0f-ace4-81b408692e62","system_id":"levelo_inurba_marseille","lat":43.250966,"lon":5.395186,"is_reserved":false,"is_disabled":false,"rental_uris":{"android":"levelo://app?vid=3df4f2e3-eb03-4a0f-ace4-81b408692e62","ios":"levelo://app?vid=3df4f2e3-eb03-4a0f-ace4-81b408692e62"},"vehicle_type_id":"4","last_reported":1702919219,"current_range_meters":26000,"station_id":"ce4bhm12rcd13ifvqgkg","pricing_plan_id":"free"},{"bike_id":"8ea31b2f-4535-437e-8584-c7d188593512","system_id":"levelo_inurba_marseille","lat":43.250966,"lon":5.395186,"is_reserved":false,"is_disabled":false,"rental_uris":{"android":"levelo://app?vid=8ea31b2f-4535-437e-8584-c7d188593512","ios":"levelo://app?vid=8ea31b2f-4535-437e-8584-c7d188593512"},"vehicle_type_id":"4","last_reported":1702919219,"current_range_meters":23600,"station_id":"ce4bhm12rcd13ifvqgkg","pricing_plan_id":"free"},{"bike_id":"f7355d0c-75e0-4eb6-a66b-8a3f13e7d068","system_id":"levelo_inurba_marseille","lat":43.250966,"lon":5.395186,"is_reserved":false,"is_disabled":false,"rental_uris":{"android":"levelo://app?vid=f7355d0c-75e0-4eb6-a66b-8a3f13e7d068","ios":"levelo://app?vid=f7355d0c-75e0-4eb6-a66b-8a3f13e7d068"},"vehicle_type_id":"4","last_reported":1702919219,"current_range_meters":31600,"station_id":"ce4bhm12rcd13ifvqgkg","pricing_plan_id":"free"},{"bike_id":"dd57e497-ed13-4339-91ea-ac27b19d2715","system_id":"levelo_inurba_marseille","lat":43.250966,"lon":5.395186,"is_reserved":false,"is_disabled":false,"rental_uris":{"android":"levelo://app?vid=dd57e497-ed13-4339-91ea-ac27b19d2715","ios":"levelo://app?vid=dd57e497-ed13-4339-91ea-ac27b19d2715"},"vehicle_type_id":"4","last_reported":1702919219,"current_range_meters":21200,"station_id":"ce4bhm12rcd13ifvqgkg","pricing_plan_id":"free"},{"bike_id":"36bd1032-8273-46e9-8fd7-e51f586ccc25","system_id":"levelo_inurba_marseille","lat":43.24693,"lon":5.382096,"is_reserved":false,"is_disabled":false,"rental_uris":{"android":"levelo://app?vid=36bd1032-8273-46e9-8fd7-e51f586ccc25","ios":"levelo://app?vid=36bd1032-8273-46e9-8fd7-e51f586ccc25"},"vehicle_type_id":"4","last_reported":1702919219,"current_range_meters":31600,"station_id":"ce4bhih2rcd13ifvqfr0","pricing_plan_id":"free"},{"bike_id":"db16cabb-e3ba-4b2d-a2ec-1d6e143fe384","system_id":"levelo_inurba_marseille","lat":43.24664,"lon":5.38166,"is_reserved":false,"is_disabled":false,"rental_uris":{"android":"levelo://app?vid=db16cabb-e3ba-4b2d-a2ec-1d6e143fe384","ios":"levelo://app?vid=db16cabb-e3ba-4b2d-a2ec-1d6e143fe384"},"vehicle_type_id":"4","last_reported":1702919219,"current_range_meters":0,"station_id":"ce4bhih2rcd13ifvqfr0","pricing_plan_id":"free"},{"bike_id":"0b813b1f-3c2f-4511-8136-c097e1ae27b9","system_id":"levelo_inurba_marseille","lat":43.25102,"lon":5.403214,"is_reserved":false,"is_disabled":false,"rental_uris":{"android":"levelo://app?vid=0b813b1f-3c2f-4511-8136-c097e1ae27b9","ios":"levelo://app?vid=0b813b1f-3c2f-4511-8136-c097e1ae27b9"},"vehicle_type_id":"4","last_reported":1702919219,"current_range_meters":17600,"station_id":"ce4bhlh2rcd13ifvqgig","pricing_plan_id":"free"},{"bike_id":"4b63b235-d7cb-4310-aee4-40e83ed5849a","system_id":"levelo_inurba_marseille","lat":43.25102,"lon":5.403214,"is_reserved":false,"is_disabled":false,"rental_uris":{"android":"levelo://app?vid=4b63b235-d7cb-4310-aee4-40e83ed5849a","ios":"levelo://app?vid=4b63b235-d7cb-4310-aee4-40e83ed5849a"},"vehicle_type_id":"4","last_reported":1702919219,"current_range_meters":20000,"station_id":"ce4bhlh2rcd13ifvqgig","pricing_plan_id":"free"},{"bike_id":"6471b628-122a-4b54-817d-46cc3129db46","system_id":"levelo_inurba_marseille","lat":43.25102,"lon":5.403214,"is_reserved":false,"is_disabled":false,"rental_uris":{"android":"levelo://app?vid=6471b628-122a-4b54-817d-46cc3129db46","ios":"levelo://app?vid=6471b628-122a-4b54-817d-46cc3129db46"},"vehicle_type_id":"4","last_reported":1702919219,"current_range_meters":7600,"station_id":"ce4bhlh2rcd13ifvqgig","pricing_plan_id":"free"},{"bike_id":"32c6d230-07b8-4d3e-93a6-a7043d42f8dc","system_id":"levelo_inurba_marseille","lat":43.246461,"lon":5.389014,"is_reserved":false,"is_disabled":false,"rental_uris":{"android":"levelo://app?vid=32c6d230-07b8-4d3e-93a6-a7043d42f8dc","ios":"levelo://app?vid=32c6d230-07b8-4d3e-93a6-a7043d42f8dc"},"vehicle_type_id":"4","last_reported":1702919219,"current_range_meters":18800,"station_id":"ce4bhg12rcd13ifvqf60","pricing_plan_id":"free"},{"bike_id":"67918ec5-0efd-4c95-9513-9ecdb5494236","system_id":"levelo_inurba_marseille","lat":43.243884,"lon":5.370736,"is_reserved":false,"is_disabled":false,"rental_uris":{"android":"levelo://app?vid=67918ec5-0efd-4c95-9513-9ecdb5494236","ios":"levelo://app?vid=67918ec5-0efd-4c95-9513-9ecdb5494236"},"vehicle_type_id":"4","last_reported":1702919219,"current_range_meters":30000,"station_id":"ce4bhhh2rcd13ifvqfk0","pricing_plan_id":"free"},{"bike_id":"0b5b9e33-e4a9-477d-86ae-5f3dd1661964","system_id":"levelo_inurba_marseille","lat":43.243884,"lon":5.370737,"is_reserved":false,"is_disabled":false,"rental_uris":{"android":"levelo://app?vid=0b5b9e33-e4a9-477d-86ae-5f3dd1661964","ios":"levelo://app?vid=0b5b9e33-e4a9-477d-86ae-5f3dd1661964"},"vehicle_type_id":"4","last_reported":1702919219,"current_range_meters":12800,"station_id":"ce4bhhh2rcd13ifvqfk0","pricing_plan_id":"free"},{"bike_id":"55d77847-54ab-479f-8963-103ffd529cd9","system_id":"levelo_inurba_marseille","lat":43.24546,"lon":5.39521,"is_reserved":false,"is_disabled":false,"rental_uris":{"android":"levelo://app?vid=55d77847-54ab-479f-8963-103ffd529cd9","ios":"levelo://app?vid=55d77847-54ab-479f-8963-103ffd529cd9"},"vehicle_type_id":"4","last_reported":1702919219,"current_range_meters":0,"station_id":"ce4bhlp2rcd13ifvqgjg","pricing_plan_id":"free"},{"bike_id":"945031ea-46a0-45dc-b827-f2c1848c09af","system_id":"levelo_inurba_marseille","lat":43.239588,"lon":5.366238,"is_reserved":false,"is_disabled":false,"rental_uris":{"android":"levelo://app?vid=945031ea-46a0-45dc-b827-f2c1848c09af","ios":"levelo://app?vid=945031ea-46a0-45dc-b827-f2c1848c09af"},"vehicle_type_id":"4","last_reported":1702919219,"current_range_meters":31600,"station_id":"ce4bhi12rcd13ifvqfp0","pricing_plan_id":"free"},{"bike_id":"337ca3c7-9462-4737-ac66-26cb921cd8a2","system_id":"levelo_inurba_marseille","lat":43.239588,"lon":5.366238,"is_reserved":false,"is_disabled":false,"rental_uris":{"android":"levelo://app?vid=337ca3c7-9462-4737-ac66-26cb921cd8a2","ios":"levelo://app?vid=337ca3c7-9462-4737-ac66-26cb921cd8a2"},"vehicle_type_id":"4","last_reported":1702919219,"current_range_meters":30800,"station_id":"ce4bhi12rcd13ifvqfp0","pricing_plan_id":"free"},{"bike_id":"c0ab37f5-99f5-463e-a220-38ba862d5829","system_id":"levelo_inurba_marseille","lat":43.23196,"lon":5.35545,"is_reserved":false,"is_disabled":false,"rental_uris":{"android":"levelo://app?vid=c0ab37f5-99f5-463e-a220-38ba862d5829","ios":"levelo://app?vid=c0ab37f5-99f5-463e-a220-38ba862d5829"},"vehicle_type_id":"4","last_reported":1702919219,"current_range_meters":13600,"station_id":"ce4bhu92rcd13ifvqi70","pricing_plan_id":"free"},{"bike_id":"7d2118db-d3f3-4583-bf62-459f009da5a6","system_id":"levelo_inurba_marseille","lat":43.231919,"lon":5.355532,"is_reserved":false,"is_disabled":false,"rental_uris":{"android":"levelo://app?vid=7d2118db-d3f3-4583-bf62-459f009da5a6","ios":"levelo://app?vid=7d2118db-d3f3-4583-bf62-459f009da5a6"},"vehicle_type_id":"4","last_reported":1702919219,"current_range_meters":12400,"station_id":"ce4bhu92rcd13ifvqi70","pricing_plan_id":"free"},{"bike_id":"97fbb3c6-a4e9-4cc2-a716-a77bfbfd661c","system_id":"levelo_inurba_marseille","lat":43.23187,"lon":5.39976,"is_reserved":false,"is_disabled":false,"rental_uris":{"android":"levelo://app?vid=97fbb3c6-a4e9-4cc2-a716-a77bfbfd661c","ios":"levelo://app?vid=97fbb3c6-a4e9-4cc2-a716-a77bfbfd661c"},"vehicle_type_id":"4","last_reported":1702919219,"current_range_meters":15600,"station_id":"ce4bhn12rcd13ifvqgqg","pricing_plan_id":"free"},{"bike_id":"53e1fc63-c90c-440d-b1ac-15bb55db4110","system_id":"levelo_inurba_marseille","lat":43.23188,"lon":5.39995,"is_reserved":false,"is_disabled":false,"rental_uris":{"android":"levelo://app?vid=53e1fc63-c90c-440d-b1ac-15bb55db4110","ios":"levelo://app?vid=53e1fc63-c90c-440d-b1ac-15bb55db4110"},"vehicle_type_id":"4","last_reported":1702919219,"current_range_meters":14400,"station_id":"ce4bhn12rcd13ifvqgqg","pricing_plan_id":"free"},{"bike_id":"b0bad05c-52a3-4cce-a6c6-3954af2ae0b6","system_id":"levelo_inurba_marseille","lat":43.231793,"lon":5.400044,"is_reserved":false,"is_disabled":false,"rental_uris":{"android":"levelo://app?vid=b0bad05c-52a3-4cce-a6c6-3954af2ae0b6","ios":"levelo://app?vid=b0bad05c-52a3-4cce-a6c6-3954af2ae0b6"},"vehicle_type_id":"4","last_reported":1702919219,"current_range_meters":29200,"station_id":"ce4bhn12rcd13ifvqgqg","pricing_plan_id":"free"},{"bike_id":"6d9ca7fd-6dac-4032-9539-4623b5425ed2","system_id":"levelo_inurba_marseille","lat":43.231794,"lon":5.400052,"is_reserved":false,"is_disabled":false,"rental_uris":{"android":"levelo://app?vid=6d9ca7fd-6dac-4032-9539-4623b5425ed2","ios":"levelo://app?vid=6d9ca7fd-6dac-4032-9539-4623b5425ed2"},"vehicle_type_id":"4","last_reported":1702919219,"current_range_meters":10800,"station_id":"ce4bhn12rcd13ifvqgqg","pricing_plan_id":"free"},{"bike_id":"bb8f3194-89d6-4afd-9570-7725dbf0e3ee","system_id":"levelo_inurba_marseille","lat":43.231794,"lon":5.400052,"is_reserved":false,"is_disabled":false,"rental_uris":{"android":"levelo://app?vid=bb8f3194-89d6-4afd-9570-7725dbf0e3ee","ios":"levelo://app?vid=bb8f3194-89d6-4afd-9570-7725dbf0e3ee"},"vehicle_type_id":"4","last_reported":1702919219,"current_range_meters":13200,"station_id":"ce4bhn12rcd13ifvqgqg","pricing_plan_id":"free"},{"bike_id":"9b883d24-cb37-4b68-908e-df782c4e406a","system_id":"levelo_inurba_marseille","lat":43.231794,"lon":5.400052,"is_reserved":false,"is_disabled":false,"rental_uris":{"android":"levelo://app?vid=9b883d24-cb37-4b68-908e-df782c4e406a","ios":"levelo://app?vid=9b883d24-cb37-4b68-908e-df782c4e406a"},"vehicle_type_id":"4","last_reported":1702919219,"current_range_meters":16800,"station_id":"ce4bhn12rcd13ifvqgqg","pricing_plan_id":"free"},{"bike_id":"351fb1e9-7b0f-4e73-8aa5-8def77f93578","system_id":"levelo_inurba_marseille","lat":43.231794,"lon":5.400052,"is_reserved":false,"is_disabled":false,"rental_uris":{"android":"levelo://app?vid=351fb1e9-7b0f-4e73-8aa5-8def77f93578","ios":"levelo://app?vid=351fb1e9-7b0f-4e73-8aa5-8def77f93578"},"vehicle_type_id":"4","last_reported":1702919219,"current_range_meters":0,"station_id":"ce4bhn12rcd13ifvqgqg","pricing_plan_id":"free"},{"bike_id":"b1174f2a-c225-406b-ac7c-500934e1a6d6","system_id":"levelo_inurba_marseille","lat":43.231794,"lon":5.400052,"is_reserved":false,"is_disabled":false,"rental_uris":{"android":"levelo://app?vid=b1174f2a-c225-406b-ac7c-500934e1a6d6","ios":"levelo://app?vid=b1174f2a-c225-406b-ac7c-500934e1a6d6"},"vehicle_type_id":"4","last_reported":1702919219,"current_range_meters":22400,"station_id":"ce4bhn12rcd13ifvqgqg","pricing_plan_id":"free"},{"bike_id":"dd9b862b-3aa5-49db-b27e-69ed00c36a71","system_id":"levelo_inurba_marseille","lat":43.231794,"lon":5.400052,"is_reserved":false,"is_disabled":false,"rental_uris":{"android":"levelo://app?vid=dd9b862b-3aa5-49db-b27e-69ed00c36a71","ios":"levelo://app?vid=dd9b862b-3aa5-49db-b27e-69ed00c36a71"},"vehicle_type_id":"4","last_reported":1702919219,"current_range_meters":15600,"station_id":"ce4bhn12rcd13ifvqgqg","pricing_plan_id":"free"},{"bike_id":"8083fec0-53ab-4ae5-9959-849fc5487faf","system_id":"levelo_inurba_marseille","lat":43.231794,"lon":5.400052,"is_reserved":false,"is_disabled":false,"rental_uris":{"android":"levelo://app?vid=8083fec0-53ab-4ae5-9959-849fc5487faf","ios":"levelo://app?vid=8083fec0-53ab-4ae5-9959-849fc5487faf"},"vehicle_type_id":"4","last_reported":1702919219,"current_range_meters":29200,"station_id":"ce4bhn12rcd13ifvqgqg","pricing_plan_id":"free"}]}}