{"last_updated":1769192328,"ttl":60,"version":"2.2","data":{"bikes":[{"bike_id":"c6df5a11-88ac-4c2d-966f-46bd5174cf60","system_id":"levelo_inurba_marseille","lat":43.2815,"lon":5.42631,"is_reserved":false,"is_disabled":false,"rental_uris":{"android":"levelo://app?vid=c6df5a11-88ac-4c2d-966f-46bd5174cf60","ios":"levelo://app?vid=c6df5a11-88ac-4c2d-966f-46bd5174cf60"},"vehicle_type_id":"4","last_reported":1769192329,"current_range_meters":2800,"station_id":"ce4bhnh2rcd13ifvqgug","pricing_plan_id":"cebpf4jnsgd1na2vs0mg"},{"bike_id":"6055bb6e-3d5f-4359-bcc3-e96115ee8c1f","system_id":"levelo_inurba_marseille","lat":43.25586,"lon":5.38218,"is_reserved":false,"is_disabled":false,"rental_uris":{"android":"levelo://app?vid=6055bb6e-3d5f-4359-bcc3-e96115ee8c1f","ios":"levelo://app?vid=6055bb6e-3d5f-4359-bcc3-e96115ee8c1f"},"vehicle_type_id":"4","last_reported":1769192329,"current_range_meters":2800,"station_id":"ce4bhih2rcd13ifvqfs0","pricing_plan_id":"cebpf4jnsgd1na2vs0mg"},{"bike_id":"9fdbfc3c-d40e-4ba5-87a1-a5ddda072a3a","system_id":"levelo_inurba_marseille","lat":43.30301,"lon":5.39212,"is_reserved":false,"is_disabled":false,"rental_uris":{"android":"levelo://app?vid=9fdbfc3c-d40e-4ba5-87a1-a5ddda072a3a","ios":"levelo://app?vid=9fdbfc3c-d40e-4ba5-87a1-a5ddda072a3a"},"vehicle_type_id":"4","last_reported":1769192329,"current_range_meters":2800,"station_id":"ce4bgkh2rcd13ifvqbk0","pricing_plan_id":"cebpf4jnsgd1na2vs0mg"},{"bike_id":"a1cf0267-a9c6-4cb7-b49a-598a4cc67209","system_id":"levelo_inurba_marseille","lat":43.23208,"lon":5.35544,"is_reserved":false,"is_disabled":false,"rental_uris":{"android":"levelo://app?vid=a1cf0267-a9c6-4cb7-b49a-598a4cc67209","ios":"levelo://app?vid=a1cf0267-a9c6-4cb7-b49a-598a4cc67209"},"vehicle_type_id":"4","last_reported":1769192329,"current_range_meters":2800,"station_id":"ce4bhu92rcd13ifvqi70","pricing_plan_id":"cebpf4jnsgd1na2vs0mg"},{"bike_id":"eb3b025d-56eb-402f-8497-eca3dff4b9d7","system_id":"levelo_inurba_marseille","lat":43.30499,"lon":5.36746,"is_reserved":false,"is_disabled":false,"rental_uris":{"android":"levelo://app?vid=eb3b025d-56eb-402f-8497-eca3dff4b9d7","ios":"levelo://app?vid=eb3b025d-56eb-402f-8497-eca3dff4b9d7"},"vehicle_type_id":"4","last_reported":1769192329,"current_range_meters":2800,"station_id":"ce4bgrp2rcd13ifvqc9g","pricing_plan_id":"cebpf4jnsgd1na2vs0mg"},{"bike_id":"63c32c21-6297-4bdc-a80f-c9372bd36f42","system_id":"levelo_inurba_marseille","lat":43.26059,"lon":5.393991,"is_reserved":false,"is_disabled":false,"rental_uris":{"android":"levelo://app?vid=63c32c21-6297-4bdc-a80f-c9372bd36f42","ios":"levelo://app?vid=63c32c21-6297-4bdc-a80f-c9372bd36f42"},"vehicle_type_id":"4","last_reported":1769192329,"current_range_meters":2800,"station_id":"ce4bhh92rcd13ifvqfj0","pricing_plan_id":"cebpf4jnsgd1na2vs0mg"},{"bike_id":"bd5e87eb-6b91-4074-bdea-307c422d8174","system_id":"levelo_inurba_marseille","lat":43.28537,"lon":5.44096,"is_reserved":false,"is_disabled":false,"rental_uris":{"android":"levelo://app?vid=bd5e87eb-6b91-4074-bdea-307c422d8174","ios":"levelo://app?vid=bd5e87eb-6b91-4074-bdea-307c422d8174"},"vehicle_type_id":"4","last_reported":1769192329,"current_range_meters":2800,"station_id":"st_d3j3df2ikq2c7380ej80","pricing_plan_id":"cebpf4jnsgd1na2vs0mg"},{"bike_id":"9bcc74ff-bb21-459b-8c89-b1049e46743c","system_id":"levelo_inurba_marseille","lat":43.24632,"lon":5.43136,"is_reserved":false,"is_disabled":false,"rental_uris":{"android":"levelo://app?vid=9bcc74ff-bb21-459b-8c89-b1049e46743c","ios":"levelo://app?vid=9bcc74ff-bb21-459b-8c89-b1049e46743c"},"vehicle_type_id":"4","last_reported":1769192329,"current_range_meters":2800,"station_id":"st_d2m6c4gdas8pm72e190g","pricing_plan_id":"cebpf4jnsgd1na2vs0mg"},{"bike_id":"637b09ee-f6ae-4024-b9b4-7e5b87508308","system_id":"levelo_inurba_marseille","lat":43.25008,"lon":5.38923,"is_reserved":false,"is_disabled":false,"rental_uris":{"android":"levelo://app?vid=637b09ee-f6ae-4024-b9b4-7e5b87508308","ios":"levelo://app?vid=637b09ee-f6ae-4024-b9b4-7e5b87508308"},"vehicle_type_id":"4","last_reported":1769192329,"current_range_meters":2800,"station_id":"ce4bhgp2rcd13ifvqfd0","pricing_plan_id":"cebpf4jnsgd1na2vs0mg"},{"bike_id":"28b0ee13-bea5-4907-a1a4-3c3f9ad9d835","system_id":"levelo_inurba_marseille","lat":43.26553,"lon":5.3728,"is_reserved":false,"is_disabled":false,"rental_uris":{"android":"levelo://app?vid=28b0ee13-bea5-4907-a1a4-3c3f9ad9d835","ios":"levelo://app?vid=28b0ee13-bea5-4907-a1a4-3c3f9ad9d835"},"vehicle_type_id":"4","last_reported":1769192329,"current_range_meters":2800,"station_id":"ce4bhg12rcd13ifvqf70","pricing_plan_id":"cebpf4jnsgd1na2vs0mg"},{"bike_id":"fb842022-45b9-4c4c-bfeb-5beaac36a9dc","system_id":"levelo_inurba_marseille","lat":43.31039,"lon":5.37175,"is_reserved":false,"is_disabled":false,"rental_uris":{"android":"levelo://app?vid=fb842022-45b9-4c4c-bfeb-5beaac36a9dc","ios":"levelo://app?vid=fb842022-45b9-4c4c-bfeb-5beaac36a9dc"},"vehicle_type_id":"4","last_reported":1769192329,"current_range_meters":3200,"station_id":"st_d4kl2rp97mjs73e7tdfg","pricing_plan_id":"cebpf4jnsgd1na2vs0mg"},{"bike_id":"fd925f8e-899e-40ec-9287-4e65251eafb1","system_id":"levelo_inurba_marseille","lat":43.26827,"lon":5.38498,"is_reserved":false,"is_disabled":false,"rental_uris":{"android":"levelo://app?vid=fd925f8e-899e-40ec-9287-4e65251eafb1","ios":"levelo://app?vid=fd925f8e-899e-40ec-9287-4e65251eafb1"},"vehicle_type_id":"4","last_reported":1769192329,"current_range_meters":3200,"station_id":"","pricing_plan_id":"cebpf4jnsgd1na2vs0mg"},{"bike_id":"22dbf862-85e0-4c40-b4f1-72ade0defb67","system_id":"levelo_inurba_marseille","lat":43.26392,"lon":5.41053,"is_reserved":false,"is_disabled":false,"rental_uris":{"android":"levelo://app?vid=22dbf862-85e0-4c40-b4f1-72ade0defb67","ios":"levelo://app?vid=22dbf862-85e0-4c40-b4f1-72ade0defb67"},"vehicle_type_id":"4","last_reported":1769192329,"current_range_meters":3200,"station_id":"st_d4e5ca6na9uc73bfl5fg","pricing_plan_id":"cebpf4jnsgd1na2vs0mg"},{"bike_id":"0aabe37f-1399-470b-9992-151b41718e39","system_id":"levelo_inurba_marseille","lat":43.29896,"lon":5.37459,"is_reserved":false,"is_disabled":false,"rental_uris":{"android":"levelo://app?vid=0aabe37f-1399-470b-9992-151b41718e39","ios":"levelo://app?vid=0aabe37f-1399-470b-9992-151b41718e39"},"vehicle_type_id":"4","last_reported":1769192329,"current_range_meters":3200,"station_id":"ce4bgjh2rcd13ifvqbg0","pricing_plan_id":"cebpf4jnsgd1na2vs0mg"},{"bike_id":"eebae7b7-aae7-4c4b-9a64-1d7d4ae30472","system_id":"levelo_inurba_marseille","lat":43.251187,"lon":5.403175,"is_reserved":false,"is_disabled":false,"rental_uris":{"android":"levelo://app?vid=eebae7b7-aae7-4c4b-9a64-1d7d4ae30472","ios":"levelo://app?vid=eebae7b7-aae7-4c4b-9a64-1d7d4ae30472"},"vehicle_type_id":"4","last_reported":1769192329,"current_range_meters":3200,"station_id":"ce4bhlh2rcd13ifvqgig","pricing_plan_id":"cebpf4jnsgd1na2vs0mg"},{"bike_id":"64a6f62b-34ac-404f-aabe-48acb35c519a","system_id":"levelo_inurba_marseille","lat":43.31488,"lon":5.37304,"is_reserved":false,"is_disabled":false,"rental_uris":{"android":"levelo://app?vid=64a6f62b-34ac-404f-aabe-48acb35c519a","ios":"levelo://app?vid=64a6f62b-34ac-404f-aabe-48acb35c519a"},"vehicle_type_id":"4","last_reported":1769192329,"current_range_meters":3200,"station_id":"ce4bgt12rcd13ifvqcd0","pricing_plan_id":"cebpf4jnsgd1na2vs0mg"},{"bike_id":"57f9f139-aa5b-413d-badb-e11f300ee6ae","system_id":"levelo_inurba_marseille","lat":43.29869,"lon":5.39738,"is_reserved":false,"is_disabled":false,"rental_uris":{"android":"levelo://app?vid=57f9f139-aa5b-413d-badb-e11f300ee6ae","ios":"levelo://app?vid=57f9f139-aa5b-413d-badb-e11f300ee6ae"},"vehicle_type_id":"4","last_reported":1769192329,"current_range_meters":3200,"station_id":"ce4bh0h2rcd13ifvqd50","pricing_plan_id":"cebpf4jnsgd1na2vs0mg"},{"bike_id":"7da69c61-4010-4e3a-8d06-3da26e59d209","system_id":"levelo_inurba_marseille","lat":43.30531,"lon":5.36713,"is_reserved":false,"is_disabled":false,"rental_uris":{"android":"levelo://app?vid=7da69c61-4010-4e3a-8d06-3da26e59d209","ios":"levelo://app?vid=7da69c61-4010-4e3a-8d06-3da26e59d209"},"vehicle_type_id":"4","last_reported":1769192329,"current_range_meters":3200,"station_id":"ce4bgrp2rcd13ifvqc9g","pricing_plan_id":"cebpf4jnsgd1na2vs0mg"},{"bike_id":"40e5e2c7-0e64-4220-a47b-eba55999faf7","system_id":"levelo_inurba_marseille","lat":43.22566,"lon":5.41626,"is_reserved":false,"is_disabled":false,"rental_uris":{"android":"levelo://app?vid=40e5e2c7-0e64-4220-a47b-eba55999faf7","ios":"levelo://app?vid=40e5e2c7-0e64-4220-a47b-eba55999faf7"},"vehicle_type_id":"4","last_reported":1769192329,"current_range_meters":3200,"station_id":"st_d2o4gvlbi1j2169b742g","pricing_plan_id":"cebpf4jnsgd1na2vs0mg"},{"bike_id":"c957f727-599b-45dc-b836-af8cbaa9039a","system_id":"levelo_inurba_marseille","lat":43.2738,"lon":5.36247,"is_reserved":false,"is_disabled":false,"rental_uris":{"android":"levelo://app?vid=c957f727-599b-45dc-b836-af8cbaa9039a","ios":"levelo://app?vid=c957f727-599b-45dc-b836-af8cbaa9039a"},"vehicle_type_id":"4","last_reported":1769192329,"current_range_meters":3200,"station_id":"ce4bhbh2rcd13ifvqeo0","pricing_plan_id":"cebpf4jnsgd1na2vs0mg"},{"bike_id":"48e8e473-45d5-4df5-a207-886bc528c39c","system_id":"levelo_inurba_marseille","lat":43.26214,"lon":5.37913,"is_reserved":false,"is_disabled":false,"rental_uris":{"android":"levelo://app?vid=48e8e473-45d5-4df5-a207-886bc528c39c","ios":"levelo://app?vid=48e8e473-45d5-4df5-a207-886bc528c39c"},"vehicle_type_id":"4","last_reported":1769192329,"current_range_meters":3200,"station_id":"ce4bhjp2rcd13ifvqg90","pricing_plan_id":"cebpf4jnsgd1na2vs0mg"},{"bike_id":"2ad15ccb-1eb1-433a-943a-0c6ccece4cc1","system_id":"levelo_inurba_marseille","lat":43.28859,"lon":5.42511,"is_reserved":false,"is_disabled":false,"rental_uris":{"android":"levelo://app?vid=2ad15ccb-1eb1-433a-943a-0c6ccece4cc1","ios":"levelo://app?vid=2ad15ccb-1eb1-433a-943a-0c6ccece4cc1"},"vehicle_type_id":"4","last_reported":1769192329,"current_range_meters":3200,"station_id":"st_d3b462108ojc7389ooeg","pricing_plan_id":"cebpf4jnsgd1na2vs0mg"},{"bike_id":"7a44288c-76ef-42bd-aa63-09fedbfa4f09","system_id":"levelo_inurba_marseille","lat":43.24471,"lon":5.4254,"is_reserved":false,"is_disabled":false,"rental_uris":{"android":"levelo://app?vid=7a44288c-76ef-42bd-aa63-09fedbfa4f09","ios":"levelo://app?vid=7a44288c-76ef-42bd-aa63-09fedbfa4f09"},"vehicle_type_id":"4","last_reported":1769192329,"current_range_meters":3200,"station_id":"st_d4a3vfp97mjs738cd8kg","pricing_plan_id":"cebpf4jnsgd1na2vs0mg"},{"bike_id":"9864eb71-e1a9-41e3-a300-f80070833647","system_id":"levelo_inurba_marseille","lat":43.26553,"lon":5.40332,"is_reserved":false,"is_disabled":false,"rental_uris":{"android":"levelo://app?vid=9864eb71-e1a9-41e3-a300-f80070833647","ios":"levelo://app?vid=9864eb71-e1a9-41e3-a300-f80070833647"},"vehicle_type_id":"4","last_reported":1769192329,"current_range_meters":3600,"station_id":"ce4bhmp2rcd13ifvqgng","pricing_plan_id":"cebpf4jnsgd1na2vs0mg"},{"bike_id":"011215fc-f0bb-4b8e-a774-8b47f4a8cb76","system_id":"levelo_inurba_marseille","lat":43.29033,"lon":5.39966,"is_reserved":false,"is_disabled":false,"rental_uris":{"android":"levelo://app?vid=011215fc-f0bb-4b8e-a774-8b47f4a8cb76","ios":"levelo://app?vid=011215fc-f0bb-4b8e-a774-8b47f4a8cb76"},"vehicle_type_id":"4","last_reported":1769192329,"current_range_meters":3600,"station_id":"ce4bh392rcd13ifvqdm0","pricing_plan_id":"cebpf4jnsgd1na2vs0mg"},{"bike_id":"2024e9ce-2b25-490b-8edf-27c86d4e84bf","system_id":"levelo_inurba_marseille","lat":43.240742,"lon":5.377614,"is_reserved":false,"is_disabled":false,"rental_uris":{"android":"levelo://app?vid=2024e9ce-2b25-490b-8edf-27c86d4e84bf","ios":"levelo://app?vid=2024e9ce-2b25-490b-8edf-27c86d4e84bf"},"vehicle_type_id":"4","last_reported":1769192329,"current_range_meters":3600,"station_id":"ce4bgkh2rcd13ifvqbk0","pricing_plan_id":"cebpf4jnsgd1na2vs0mg"},{"bike_id":"cc05bb15-245c-40a1-b656-2c9ea1ae2247","system_id":"levelo_inurba_marseille","lat":43.28836,"lon":5.39336,"is_reserved":false,"is_disabled":false,"rental_uris":{"android":"levelo://app?vid=cc05bb15-245c-40a1-b656-2c9ea1ae2247","ios":"levelo://app?vid=cc05bb15-245c-40a1-b656-2c9ea1ae2247"},"vehicle_type_id":"4","last_reported":1769192329,"current_range_meters":3600,"station_id":"ce4bh2p2rcd13ifvqdi0","pricing_plan_id":"cebpf4jnsgd1na2vs0mg"},{"bike_id":"5754ee10-49c8-4174-9097-38fd8b045e1c","system_id":"levelo_inurba_marseille","lat":43.30109,"lon":5.38116,"is_reserved":false,"is_disabled":false,"rental_uris":{"android":"levelo://app?vid=5754ee10-49c8-4174-9097-38fd8b045e1c","ios":"levelo://app?vid=5754ee10-49c8-4174-9097-38fd8b045e1c"},"vehicle_type_id":"4","last_reported":1769192329,"current_range_meters":3600,"station_id":"ce4bgjp2rcd13ifvqbh0","pricing_plan_id":"cebpf4jnsgd1na2vs0mg"},{"bike_id":"414ead14-e44b-42b9-b28d-9dd45224e983","system_id":"levelo_inurba_marseille","lat":43.29633,"lon":5.40596,"is_reserved":false,"is_disabled":false,"rental_uris":{"android":"levelo://app?vid=414ead14-e44b-42b9-b28d-9dd45224e983","ios":"levelo://app?vid=414ead14-e44b-42b9-b28d-9dd45224e983"},"vehicle_type_id":"4","last_reported":1769192329,"current_range_meters":3600,"station_id":"ce4bh0h2rcd13ifvqd60","pricing_plan_id":"cebpf4jnsgd1na2vs0mg"},{"bike_id":"3e287920-02ae-43fd-985a-dd3c425934ef","system_id":"levelo_inurba_marseille","lat":43.30216,"lon":5.39468,"is_reserved":false,"is_disabled":false,"rental_uris":{"android":"levelo://app?vid=3e287920-02ae-43fd-985a-dd3c425934ef","ios":"levelo://app?vid=3e287920-02ae-43fd-985a-dd3c425934ef"},"vehicle_type_id":"4","last_reported":1769192329,"current_range_meters":3600,"station_id":"ce4bh0p2rcd13ifvqd70","pricing_plan_id":"cebpf4jnsgd1na2vs0mg"},{"bike_id":"734a1ca8-4fd6-4880-bc67-9ce5238d45f7","system_id":"levelo_inurba_marseille","lat":43.27968,"lon":5.3871,"is_reserved":false,"is_disabled":false,"rental_uris":{"android":"levelo://app?vid=734a1ca8-4fd6-4880-bc67-9ce5238d45f7","ios":"levelo://app?vid=734a1ca8-4fd6-4880-bc67-9ce5238d45f7"},"vehicle_type_id":"4","last_reported":1769192329,"current_range_meters":3600,"station_id":"ce4bhg12rcd13ifvqf80","pricing_plan_id":"cebpf4jnsgd1na2vs0mg"},{"bike_id":"242b11c4-4e1d-4bda-a6c0-c261fbee4d2e","system_id":"levelo_inurba_marseille","lat":43.2656,"lon":5.37301,"is_reserved":false,"is_disabled":false,"rental_uris":{"android":"levelo://app?vid=242b11c4-4e1d-4bda-a6c0-c261fbee4d2e","ios":"levelo://app?vid=242b11c4-4e1d-4bda-a6c0-c261fbee4d2e"},"vehicle_type_id":"4","last_reported":1769192329,"current_range_meters":3600,"station_id":"ce4bhg12rcd13ifvqf70","pricing_plan_id":"cebpf4jnsgd1na2vs0mg"},{"bike_id":"3de52088-94c6-4c0a-9fcf-fe3426bc3f9a","system_id":"levelo_inurba_marseille","lat":43.286678,"lon":5.38667,"is_reserved":false,"is_disabled":false,"rental_uris":{"android":"levelo://app?vid=3de52088-94c6-4c0a-9fcf-fe3426bc3f9a","ios":"levelo://app?vid=3de52088-94c6-4c0a-9fcf-fe3426bc3f9a"},"vehicle_type_id":"4","last_reported":1769192329,"current_range_meters":3600,"station_id":"ce4bh492rcd13ifvqdug","pricing_plan_id":"cebpf4jnsgd1na2vs0mg"},{"bike_id":"884b714b-de31-400c-acad-491c87710532","system_id":"levelo_inurba_marseille","lat":43.2991,"lon":5.43676,"is_reserved":false,"is_disabled":false,"rental_uris":{"android":"levelo://app?vid=884b714b-de31-400c-acad-491c87710532","ios":"levelo://app?vid=884b714b-de31-400c-acad-491c87710532"},"vehicle_type_id":"4","last_reported":1769192329,"current_range_meters":3600,"station_id":"ce4bhpp2rcd13ifvqhfg","pricing_plan_id":"cebpf4jnsgd1na2vs0mg"},{"bike_id":"0ad893de-6bf1-49e7-9e17-f7f68487b51b","system_id":"levelo_inurba_marseille","lat":43.30654,"lon":5.40089,"is_reserved":false,"is_disabled":false,"rental_uris":{"android":"levelo://app?vid=0ad893de-6bf1-49e7-9e17-f7f68487b51b","ios":"levelo://app?vid=0ad893de-6bf1-49e7-9e17-f7f68487b51b"},"vehicle_type_id":"4","last_reported":1769192329,"current_range_meters":4000,"station_id":"ce4bh112rcd13ifvqda0","pricing_plan_id":"cebpf4jnsgd1na2vs0mg"},{"bike_id":"9964549f-303d-4060-ab6f-e886a6b7e33c","system_id":"levelo_inurba_marseille","lat":43.29769,"lon":5.38109,"is_reserved":false,"is_disabled":false,"rental_uris":{"android":"levelo://app?vid=9964549f-303d-4060-ab6f-e886a6b7e33c","ios":"levelo://app?vid=9964549f-303d-4060-ab6f-e886a6b7e33c"},"vehicle_type_id":"4","last_reported":1769192329,"current_range_meters":4000,"station_id":"ce4bgip2rcd13ifvqbb0","pricing_plan_id":"cebpf4jnsgd1na2vs0mg"},{"bike_id":"c462c4a3-3f5e-4fd1-8a2f-56615210c468","system_id":"levelo_inurba_marseille","lat":43.25809,"lon":5.38584,"is_reserved":false,"is_disabled":false,"rental_uris":{"android":"levelo://app?vid=c462c4a3-3f5e-4fd1-8a2f-56615210c468","ios":"levelo://app?vid=c462c4a3-3f5e-4fd1-8a2f-56615210c468"},"vehicle_type_id":"4","last_reported":1769192329,"current_range_meters":4000,"station_id":"","pricing_plan_id":"cebpf4jnsgd1na2vs0mg"},{"bike_id":"95eb68af-ab4c-4e16-8d10-671324079ca2","system_id":"levelo_inurba_marseille","lat":43.29974,"lon":5.38491,"is_reserved":false,"is_disabled":false,"rental_uris":{"android":"levelo://app?vid=95eb68af-ab4c-4e16-8d10-671324079ca2","ios":"levelo://app?vid=95eb68af-ab4c-4e16-8d10-671324079ca2"},"vehicle_type_id":"4","last_reported":1769192329,"current_range_meters":4000,"station_id":"ce4bgj92rcd13ifvqbd0","pricing_plan_id":"cebpf4jnsgd1na2vs0mg"},{"bike_id":"d3e4b92f-b8dd-4ce3-a549-98bda7fb9351","system_id":"levelo_inurba_marseille","lat":43.30147,"lon":5.38092,"is_reserved":false,"is_disabled":false,"rental_uris":{"android":"levelo://app?vid=d3e4b92f-b8dd-4ce3-a549-98bda7fb9351","ios":"levelo://app?vid=d3e4b92f-b8dd-4ce3-a549-98bda7fb9351"},"vehicle_type_id":"4","last_reported":1769192329,"current_range_meters":4000,"station_id":"ce4bgjp2rcd13ifvqbh0","pricing_plan_id":"cebpf4jnsgd1na2vs0mg"},{"bike_id":"05d6e816-c599-4137-a30a-5127b06dbfc0","system_id":"levelo_inurba_marseille","lat":43.2815,"lon":5.42636,"is_reserved":false,"is_disabled":true,"rental_uris":{"android":"levelo://app?vid=05d6e816-c599-4137-a30a-5127b06dbfc0","ios":"levelo://app?vid=05d6e816-c599-4137-a30a-5127b06dbfc0"},"vehicle_type_id":"4","last_reported":1769192329,"current_range_meters":4000,"station_id":"ce4bhnh2rcd13ifvqgug","pricing_plan_id":"cebpf4jnsgd1na2vs0mg"},{"bike_id":"63d1a6c9-9e9a-428d-b94b-2715dec1d26b","system_id":"levelo_inurba_marseille","lat":43.29979,"lon":5.38482,"is_reserved":false,"is_disabled":false,"rental_uris":{"android":"levelo://app?vid=63d1a6c9-9e9a-428d-b94b-2715dec1d26b","ios":"levelo://app?vid=63d1a6c9-9e9a-428d-b94b-2715dec1d26b"},"vehicle_type_id":"4","last_reported":1769192329,"current_range_meters":4000,"station_id":"ce4bgj92rcd13ifvqbd0","pricing_plan_id":"cebpf4jnsgd1na2vs0mg"},{"bike_id":"45babb45-93f7-4f3b-b6b9-60f993fef36c","system_id":"levelo_inurba_marseille","lat":43.3235,"lon":5.3674,"is_reserved":false,"is_disabled":false,"rental_uris":{"android":"levelo://app?vid=45babb45-93f7-4f3b-b6b9-60f993fef36c","ios":"levelo://app?vid=45babb45-93f7-4f3b-b6b9-60f993fef36c"},"vehicle_type_id":"4","last_reported":1769192329,"current_range_meters":4000,"station_id":"ce4bhsh2rcd13ifvqi2g","pricing_plan_id":"cebpf4jnsgd1na2vs0mg"},{"bike_id":"fe3350b5-ccbd-45e4-b52d-f2070401a0a4","system_id":"levelo_inurba_marseille","lat":43.29874,"lon":5.38901,"is_reserved":false,"is_disabled":true,"rental_uris":{"android":"levelo://app?vid=fe3350b5-ccbd-45e4-b52d-f2070401a0a4","ios":"levelo://app?vid=fe3350b5-ccbd-45e4-b52d-f2070401a0a4"},"vehicle_type_id":"4","last_reported":1769192329,"current_range_meters":4000,"station_id":"ce4bh392rcd13ifvqdl0","pricing_plan_id":"cebpf4jnsgd1na2vs0mg"},{"bike_id":"8458e674-5b2d-44af-83f6-f35a6fa3da29","system_id":"levelo_inurba_marseille","lat":43.292735,"lon":5.368492,"is_reserved":false,"is_disabled":false,"rental_uris":{"android":"levelo://app?vid=8458e674-5b2d-44af-83f6-f35a6fa3da29","ios":"levelo://app?vid=8458e674-5b2d-44af-83f6-f35a6fa3da29"},"vehicle_type_id":"4","last_reported":1769192329,"current_range_meters":4000,"station_id":"ce4bhbp2rcd13ifvqesg","pricing_plan_id":"cebpf4jnsgd1na2vs0mg"},{"bike_id":"a6647b88-80b4-4619-873e-fc05f3342456","system_id":"levelo_inurba_marseille","lat":43.24654,"lon":5.43137,"is_reserved":false,"is_disabled":false,"rental_uris":{"android":"levelo://app?vid=a6647b88-80b4-4619-873e-fc05f3342456","ios":"levelo://app?vid=a6647b88-80b4-4619-873e-fc05f3342456"},"vehicle_type_id":"4","last_reported":1769192329,"current_range_meters":4000,"station_id":"st_d2m6c4gdas8pm72e190g","pricing_plan_id":"cebpf4jnsgd1na2vs0mg"},{"bike_id":"f8de7cc1-8ec6-45be-87b1-75cf47d46683","system_id":"levelo_inurba_marseille","lat":43.29271,"lon":5.38444,"is_reserved":false,"is_disabled":false,"rental_uris":{"android":"levelo://app?vid=f8de7cc1-8ec6-45be-87b1-75cf47d46683","ios":"levelo://app?vid=f8de7cc1-8ec6-45be-87b1-75cf47d46683"},"vehicle_type_id":"4","last_reported":1769192329,"current_range_meters":4000,"station_id":"ce4bh692rcd13ifvqea0","pricing_plan_id":"cebpf4jnsgd1na2vs0mg"},{"bike_id":"20c1cc69-3a0d-4679-b45c-9954ef47fca5","system_id":"levelo_inurba_marseille","lat":43.230656,"lon":5.354971,"is_reserved":false,"is_disabled":false,"rental_uris":{"android":"levelo://app?vid=20c1cc69-3a0d-4679-b45c-9954ef47fca5","ios":"levelo://app?vid=20c1cc69-3a0d-4679-b45c-9954ef47fca5"},"vehicle_type_id":"4","last_reported":1769192329,"current_range_meters":4000,"station_id":"cpo3342slgdg3j2ifvpg","pricing_plan_id":"cebpf4jnsgd1na2vs0mg"},{"bike_id":"8cd37dd5-5f5b-44cc-80c6-a6fab2cbe664","system_id":"levelo_inurba_marseille","lat":43.30879,"lon":5.39635,"is_reserved":false,"is_disabled":false,"rental_uris":{"android":"levelo://app?vid=8cd37dd5-5f5b-44cc-80c6-a6fab2cbe664","ios":"levelo://app?vid=8cd37dd5-5f5b-44cc-80c6-a6fab2cbe664"},"vehicle_type_id":"4","last_reported":1769192329,"current_range_meters":4000,"station_id":"ce4bh012rcd13ifvqcv0","pricing_plan_id":"cebpf4jnsgd1na2vs0mg"},{"bike_id":"d14d1af3-6931-4933-a669-80b34eeca889","system_id":"levelo_inurba_marseille","lat":43.30536,"lon":5.36535,"is_reserved":false,"is_disabled":false,"rental_uris":{"android":"levelo://app?vid=d14d1af3-6931-4933-a669-80b34eeca889","ios":"levelo://app?vid=d14d1af3-6931-4933-a669-80b34eeca889"},"vehicle_type_id":"4","last_reported":1769192329,"current_range_meters":4000,"station_id":"ce4bgs12rcd13ifvqcag","pricing_plan_id":"cebpf4jnsgd1na2vs0mg"},{"bike_id":"739d245b-f5c2-4e1b-bcf4-1e8500c27796","system_id":"levelo_inurba_marseille","lat":43.305939,"lon":5.393571,"is_reserved":false,"is_disabled":false,"rental_uris":{"android":"levelo://app?vid=739d245b-f5c2-4e1b-bcf4-1e8500c27796","ios":"levelo://app?vid=739d245b-f5c2-4e1b-bcf4-1e8500c27796"},"vehicle_type_id":"4","last_reported":1769192329,"current_range_meters":4400,"station_id":"","pricing_plan_id":"cebpf4jnsgd1na2vs0mg"},{"bike_id":"efacbe2f-6950-4f87-bcea-9f5d9076767b","system_id":"levelo_inurba_marseille","lat":43.26371,"lon":5.41065,"is_reserved":false,"is_disabled":false,"rental_uris":{"android":"levelo://app?vid=efacbe2f-6950-4f87-bcea-9f5d9076767b","ios":"levelo://app?vid=efacbe2f-6950-4f87-bcea-9f5d9076767b"},"vehicle_type_id":"4","last_reported":1769192329,"current_range_meters":4400,"station_id":"st_d4e5ca6na9uc73bfl5fg","pricing_plan_id":"cebpf4jnsgd1na2vs0mg"},{"bike_id":"84a12454-d2e3-4990-b60e-c131a4bbf879","system_id":"levelo_inurba_marseille","lat":43.29633,"lon":5.37149,"is_reserved":false,"is_disabled":false,"rental_uris":{"android":"levelo://app?vid=84a12454-d2e3-4990-b60e-c131a4bbf879","ios":"levelo://app?vid=84a12454-d2e3-4990-b60e-c131a4bbf879"},"vehicle_type_id":"4","last_reported":1769192329,"current_range_meters":4400,"station_id":"ce4bgnh2rcd13ifvqc0g","pricing_plan_id":"cebpf4jnsgd1na2vs0mg"},{"bike_id":"cc9f4717-497d-46b4-8770-89f5df0571cd","system_id":"levelo_inurba_marseille","lat":43.24393,"lon":5.37085,"is_reserved":false,"is_disabled":false,"rental_uris":{"android":"levelo://app?vid=cc9f4717-497d-46b4-8770-89f5df0571cd","ios":"levelo://app?vid=cc9f4717-497d-46b4-8770-89f5df0571cd"},"vehicle_type_id":"4","last_reported":1769192329,"current_range_meters":4400,"station_id":"ce4bhhh2rcd13ifvqfk0","pricing_plan_id":"cebpf4jnsgd1na2vs0mg"},{"bike_id":"8090fd07-cef0-4bb4-9500-617758667c76","system_id":"levelo_inurba_marseille","lat":43.29164,"lon":5.38281,"is_reserved":false,"is_disabled":false,"rental_uris":{"android":"levelo://app?vid=8090fd07-cef0-4bb4-9500-617758667c76","ios":"levelo://app?vid=8090fd07-cef0-4bb4-9500-617758667c76"},"vehicle_type_id":"4","last_reported":1769192329,"current_range_meters":4400,"station_id":"","pricing_plan_id":"cebpf4jnsgd1na2vs0mg"},{"bike_id":"c0285b55-73df-4265-a2e1-4a0bb225f766","system_id":"levelo_inurba_marseille","lat":43.24655,"lon":5.38883,"is_reserved":false,"is_disabled":false,"rental_uris":{"android":"levelo://app?vid=c0285b55-73df-4265-a2e1-4a0bb225f766","ios":"levelo://app?vid=c0285b55-73df-4265-a2e1-4a0bb225f766"},"vehicle_type_id":"4","last_reported":1769192329,"current_range_meters":4400,"station_id":"ce4bhg12rcd13ifvqf60","pricing_plan_id":"cebpf4jnsgd1na2vs0mg"},{"bike_id":"13a4e1ef-4f43-4f82-803b-aedbd05bec5a","system_id":"levelo_inurba_marseille","lat":43.23966,"lon":5.36625,"is_reserved":false,"is_disabled":false,"rental_uris":{"android":"levelo://app?vid=13a4e1ef-4f43-4f82-803b-aedbd05bec5a","ios":"levelo://app?vid=13a4e1ef-4f43-4f82-803b-aedbd05bec5a"},"vehicle_type_id":"4","last_reported":1769192329,"current_range_meters":4400,"station_id":"ce4bhi12rcd13ifvqfp0","pricing_plan_id":"cebpf4jnsgd1na2vs0mg"},{"bike_id":"87f0bd5b-8dc4-4ce6-9033-06be38f57e2d","system_id":"levelo_inurba_marseille","lat":43.29609,"lon":5.38093,"is_reserved":false,"is_disabled":false,"rental_uris":{"android":"levelo://app?vid=87f0bd5b-8dc4-4ce6-9033-06be38f57e2d","ios":"levelo://app?vid=87f0bd5b-8dc4-4ce6-9033-06be38f57e2d"},"vehicle_type_id":"4","last_reported":1769192329,"current_range_meters":4400,"station_id":"ce4bgl12rcd13ifvqbo0","pricing_plan_id":"cebpf4jnsgd1na2vs0mg"},{"bike_id":"cc3c0fa4-318c-42a8-b516-2cb6a62d73ef","system_id":"levelo_inurba_marseille","lat":43.24986,"lon":5.38935,"is_reserved":false,"is_disabled":false,"rental_uris":{"android":"levelo://app?vid=cc3c0fa4-318c-42a8-b516-2cb6a62d73ef","ios":"levelo://app?vid=cc3c0fa4-318c-42a8-b516-2cb6a62d73ef"},"vehicle_type_id":"4","last_reported":1769192329,"current_range_meters":4400,"station_id":"ce4bhgp2rcd13ifvqfd0","pricing_plan_id":"cebpf4jnsgd1na2vs0mg"},{"bike_id":"c7787279-dfd5-4b81-b413-3d26395ee6e9","system_id":"levelo_inurba_marseille","lat":43.29525,"lon":5.39037,"is_reserved":false,"is_disabled":false,"rental_uris":{"android":"levelo://app?vid=c7787279-dfd5-4b81-b413-3d26395ee6e9","ios":"levelo://app?vid=c7787279-dfd5-4b81-b413-3d26395ee6e9"},"vehicle_type_id":"4","last_reported":1769192329,"current_range_meters":4400,"station_id":"ce4bh3p2rcd13ifvqdp0","pricing_plan_id":"cebpf4jnsgd1na2vs0mg"},{"bike_id":"e3867ab7-bf93-449d-98d2-74bd0c3f6230","system_id":"levelo_inurba_marseille","lat":43.31496,"lon":5.3731,"is_reserved":false,"is_disabled":false,"rental_uris":{"android":"levelo://app?vid=e3867ab7-bf93-449d-98d2-74bd0c3f6230","ios":"levelo://app?vid=e3867ab7-bf93-449d-98d2-74bd0c3f6230"},"vehicle_type_id":"4","last_reported":1769192329,"current_range_meters":4400,"station_id":"ce4bgt12rcd13ifvqcd0","pricing_plan_id":"cebpf4jnsgd1na2vs0mg"},{"bike_id":"9bf61c2c-8793-4461-bba6-da184a1c702f","system_id":"levelo_inurba_marseille","lat":43.29523,"lon":5.390248,"is_reserved":false,"is_disabled":false,"rental_uris":{"android":"levelo://app?vid=9bf61c2c-8793-4461-bba6-da184a1c702f","ios":"levelo://app?vid=9bf61c2c-8793-4461-bba6-da184a1c702f"},"vehicle_type_id":"4","last_reported":1769192329,"current_range_meters":4400,"station_id":"ce4bh3p2rcd13ifvqdp0","pricing_plan_id":"cebpf4jnsgd1na2vs0mg"},{"bike_id":"1969b1fb-d71b-4177-b6d3-474e97dbd1b0","system_id":"levelo_inurba_marseille","lat":43.30079,"lon":5.39087,"is_reserved":false,"is_disabled":false,"rental_uris":{"android":"levelo://app?vid=1969b1fb-d71b-4177-b6d3-474e97dbd1b0","ios":"levelo://app?vid=1969b1fb-d71b-4177-b6d3-474e97dbd1b0"},"vehicle_type_id":"4","last_reported":1769192329,"current_range_meters":4400,"station_id":"ce4bh192rcd13ifvqdb0","pricing_plan_id":"cebpf4jnsgd1na2vs0mg"},{"bike_id":"70aa8391-3c8c-41ab-8c43-1b3661572c84","system_id":"levelo_inurba_marseille","lat":43.24688,"lon":5.38153,"is_reserved":false,"is_disabled":false,"rental_uris":{"android":"levelo://app?vid=70aa8391-3c8c-41ab-8c43-1b3661572c84","ios":"levelo://app?vid=70aa8391-3c8c-41ab-8c43-1b3661572c84"},"vehicle_type_id":"4","last_reported":1769192329,"current_range_meters":4400,"station_id":"ce4bhih2rcd13ifvqfr0","pricing_plan_id":"cebpf4jnsgd1na2vs0mg"},{"bike_id":"7da886c1-c8ff-4e03-8888-2106996331bd","system_id":"levelo_inurba_marseille","lat":43.29528,"lon":5.38545,"is_reserved":false,"is_disabled":false,"rental_uris":{"android":"levelo://app?vid=7da886c1-c8ff-4e03-8888-2106996331bd","ios":"levelo://app?vid=7da886c1-c8ff-4e03-8888-2106996331bd"},"vehicle_type_id":"4","last_reported":1769192329,"current_range_meters":4400,"station_id":"ce4bgih2rcd13ifvqba0","pricing_plan_id":"cebpf4jnsgd1na2vs0mg"},{"bike_id":"8008594e-a479-4cad-900c-79592b5808d4","system_id":"levelo_inurba_marseille","lat":43.2923,"lon":5.36028,"is_reserved":false,"is_disabled":false,"rental_uris":{"android":"levelo://app?vid=8008594e-a479-4cad-900c-79592b5808d4","ios":"levelo://app?vid=8008594e-a479-4cad-900c-79592b5808d4"},"vehicle_type_id":"4","last_reported":1769192329,"current_range_meters":4800,"station_id":"ce4bhbh2rcd13ifvqeqg","pricing_plan_id":"cebpf4jnsgd1na2vs0mg"},{"bike_id":"493afd47-0150-4eb7-b05d-19b96b3484d1","system_id":"levelo_inurba_marseille","lat":43.26369,"lon":5.41057,"is_reserved":false,"is_disabled":false,"rental_uris":{"android":"levelo://app?vid=493afd47-0150-4eb7-b05d-19b96b3484d1","ios":"levelo://app?vid=493afd47-0150-4eb7-b05d-19b96b3484d1"},"vehicle_type_id":"4","last_reported":1769192329,"current_range_meters":4800,"station_id":"st_d4e5ca6na9uc73bfl5fg","pricing_plan_id":"cebpf4jnsgd1na2vs0mg"},{"bike_id":"3c442f98-a8ea-4178-b8f5-91f3210fe5ee","system_id":"levelo_inurba_marseille","lat":43.30536,"lon":5.36551,"is_reserved":false,"is_disabled":false,"rental_uris":{"android":"levelo://app?vid=3c442f98-a8ea-4178-b8f5-91f3210fe5ee","ios":"levelo://app?vid=3c442f98-a8ea-4178-b8f5-91f3210fe5ee"},"vehicle_type_id":"4","last_reported":1769192329,"current_range_meters":4800,"station_id":"ce4bgs12rcd13ifvqcag","pricing_plan_id":"cebpf4jnsgd1na2vs0mg"},{"bike_id":"abc9d4c3-7c39-4106-8aca-48b7787dabd4","system_id":"levelo_inurba_marseille","lat":43.30233,"lon":5.40057,"is_reserved":false,"is_disabled":false,"rental_uris":{"android":"levelo://app?vid=abc9d4c3-7c39-4106-8aca-48b7787dabd4","ios":"levelo://app?vid=abc9d4c3-7c39-4106-8aca-48b7787dabd4"},"vehicle_type_id":"4","last_reported":1769192329,"current_range_meters":4800,"station_id":"","pricing_plan_id":"cebpf4jnsgd1na2vs0mg"},{"bike_id":"cf557c85-8b34-4929-8f7e-4bc211ee95de","system_id":"levelo_inurba_marseille","lat":43.21747,"lon":5.34599,"is_reserved":false,"is_disabled":false,"rental_uris":{"android":"levelo://app?vid=cf557c85-8b34-4929-8f7e-4bc211ee95de","ios":"levelo://app?vid=cf557c85-8b34-4929-8f7e-4bc211ee95de"},"vehicle_type_id":"4","last_reported":1769192329,"current_range_meters":4800,"station_id":"","pricing_plan_id":"cebpf4jnsgd1na2vs0mg"},{"bike_id":"93437ff6-e4cf-4d3b-b9f8-5e39c916097c","system_id":"levelo_inurba_marseille","lat":43.29283,"lon":5.40116,"is_reserved":false,"is_disabled":false,"rental_uris":{"android":"levelo://app?vid=93437ff6-e4cf-4d3b-b9f8-5e39c916097c","ios":"levelo://app?vid=93437ff6-e4cf-4d3b-b9f8-5e39c916097c"},"vehicle_type_id":"4","last_reported":1769192329,"current_range_meters":4800,"station_id":"ce4bh312rcd13ifvqdk0","pricing_plan_id":"cebpf4jnsgd1na2vs0mg"},{"bike_id":"8201b82f-83b0-49f2-99bb-f454c070ebda","system_id":"levelo_inurba_marseille","lat":43.22555,"lon":5.4163,"is_reserved":false,"is_disabled":false,"rental_uris":{"android":"levelo://app?vid=8201b82f-83b0-49f2-99bb-f454c070ebda","ios":"levelo://app?vid=8201b82f-83b0-49f2-99bb-f454c070ebda"},"vehicle_type_id":"4","last_reported":1769192329,"current_range_meters":4800,"station_id":"st_d2o4gvlbi1j2169b742g","pricing_plan_id":"cebpf4jnsgd1na2vs0mg"},{"bike_id":"b09ed71e-6bcb-4ee2-9445-f554353e284e","system_id":"levelo_inurba_marseille","lat":43.23141,"lon":5.43727,"is_reserved":false,"is_disabled":false,"rental_uris":{"android":"levelo://app?vid=b09ed71e-6bcb-4ee2-9445-f554353e284e","ios":"levelo://app?vid=b09ed71e-6bcb-4ee2-9445-f554353e284e"},"vehicle_type_id":"4","last_reported":1769192329,"current_range_meters":4800,"station_id":"ce4bhmp2rcd13ifvqgog","pricing_plan_id":"cebpf4jnsgd1na2vs0mg"},{"bike_id":"8d79e999-534d-46eb-b226-e914c7d703b0","system_id":"levelo_inurba_marseille","lat":43.30538,"lon":5.3673,"is_reserved":false,"is_disabled":false,"rental_uris":{"android":"levelo://app?vid=8d79e999-534d-46eb-b226-e914c7d703b0","ios":"levelo://app?vid=8d79e999-534d-46eb-b226-e914c7d703b0"},"vehicle_type_id":"4","last_reported":1769192329,"current_range_meters":4800,"station_id":"ce4bgrp2rcd13ifvqc9g","pricing_plan_id":"cebpf4jnsgd1na2vs0mg"},{"bike_id":"92295e8e-aa68-4e38-8fb7-fb93e0d44651","system_id":"levelo_inurba_marseille","lat":43.23197,"lon":5.35542,"is_reserved":false,"is_disabled":false,"rental_uris":{"android":"levelo://app?vid=92295e8e-aa68-4e38-8fb7-fb93e0d44651","ios":"levelo://app?vid=92295e8e-aa68-4e38-8fb7-fb93e0d44651"},"vehicle_type_id":"4","last_reported":1769192329,"current_range_meters":4800,"station_id":"ce4bhu92rcd13ifvqi70","pricing_plan_id":"cebpf4jnsgd1na2vs0mg"},{"bike_id":"7529d9bf-4569-4b73-9110-96c3aed47ab4","system_id":"levelo_inurba_marseille","lat":43.26228,"lon":5.40455,"is_reserved":false,"is_disabled":false,"rental_uris":{"android":"levelo://app?vid=7529d9bf-4569-4b73-9110-96c3aed47ab4","ios":"levelo://app?vid=7529d9bf-4569-4b73-9110-96c3aed47ab4"},"vehicle_type_id":"4","last_reported":1769192329,"current_range_meters":4800,"station_id":"ce4bhmh2rcd13ifvqgmg","pricing_plan_id":"cebpf4jnsgd1na2vs0mg"},{"bike_id":"324cd82f-1083-4204-b317-811809b2300e","system_id":"levelo_inurba_marseille","lat":43.29195,"lon":5.37293,"is_reserved":false,"is_disabled":true,"rental_uris":{"android":"levelo://app?vid=324cd82f-1083-4204-b317-811809b2300e","ios":"levelo://app?vid=324cd82f-1083-4204-b317-811809b2300e"},"vehicle_type_id":"4","last_reported":1769192329,"current_range_meters":4800,"station_id":"","pricing_plan_id":"cebpf4jnsgd1na2vs0mg"},{"bike_id":"642d185d-9f53-4f06-aa5a-7cc7c54e871d","system_id":"levelo_inurba_marseille","lat":43.299693,"lon":5.384951,"is_reserved":false,"is_disabled":false,"rental_uris":{"android":"levelo://app?vid=642d185d-9f53-4f06-aa5a-7cc7c54e871d","ios":"levelo://app?vid=642d185d-9f53-4f06-aa5a-7cc7c54e871d"},"vehicle_type_id":"4","last_reported":1769192329,"current_range_meters":4800,"station_id":"ce4bgj92rcd13ifvqbd0","pricing_plan_id":"cebpf4jnsgd1na2vs0mg"},{"bike_id":"e0e7e1bc-1a6a-40ae-905d-a97c0dd17c98","system_id":"levelo_inurba_marseille","lat":43.292677,"lon":5.384329,"is_reserved":false,"is_disabled":false,"rental_uris":{"android":"levelo://app?vid=e0e7e1bc-1a6a-40ae-905d-a97c0dd17c98","ios":"levelo://app?vid=e0e7e1bc-1a6a-40ae-905d-a97c0dd17c98"},"vehicle_type_id":"4","last_reported":1769192329,"current_range_meters":4800,"station_id":"ce4bgi12rcd13ifvqb70","pricing_plan_id":"cebpf4jnsgd1na2vs0mg"},{"bike_id":"f78947df-deca-4141-ad9c-b28b8e18cc28","system_id":"levelo_inurba_marseille","lat":43.29507,"lon":5.37413,"is_reserved":false,"is_disabled":false,"rental_uris":{"android":"levelo://app?vid=f78947df-deca-4141-ad9c-b28b8e18cc28","ios":"levelo://app?vid=f78947df-deca-4141-ad9c-b28b8e18cc28"},"vehicle_type_id":"4","last_reported":1769192329,"current_range_meters":5600,"station_id":"","pricing_plan_id":"cebpf4jnsgd1na2vs0mg"},{"bike_id":"8c777498-e2d2-4cd4-8097-e0cc71ce5708","system_id":"levelo_inurba_marseille","lat":43.23157,"lon":5.43695,"is_reserved":false,"is_disabled":false,"rental_uris":{"android":"levelo://app?vid=8c777498-e2d2-4cd4-8097-e0cc71ce5708","ios":"levelo://app?vid=8c777498-e2d2-4cd4-8097-e0cc71ce5708"},"vehicle_type_id":"4","last_reported":1769192329,"current_range_meters":5600,"station_id":"ce4bhmp2rcd13ifvqgog","pricing_plan_id":"cebpf4jnsgd1na2vs0mg"},{"bike_id":"13968750-3719-4ac6-aefd-0a9132929815","system_id":"levelo_inurba_marseille","lat":43.26555,"lon":5.37299,"is_reserved":false,"is_disabled":false,"rental_uris":{"android":"levelo://app?vid=13968750-3719-4ac6-aefd-0a9132929815","ios":"levelo://app?vid=13968750-3719-4ac6-aefd-0a9132929815"},"vehicle_type_id":"4","last_reported":1769192329,"current_range_meters":5600,"station_id":"ce4bhg12rcd13ifvqf70","pricing_plan_id":"cebpf4jnsgd1na2vs0mg"},{"bike_id":"7a0b1ccb-ef00-43d3-805f-bebd428fbe61","system_id":"levelo_inurba_marseille","lat":43.29975,"lon":5.38496,"is_reserved":false,"is_disabled":false,"rental_uris":{"android":"levelo://app?vid=7a0b1ccb-ef00-43d3-805f-bebd428fbe61","ios":"levelo://app?vid=7a0b1ccb-ef00-43d3-805f-bebd428fbe61"},"vehicle_type_id":"4","last_reported":1769192329,"current_range_meters":5600,"station_id":"ce4bgj92rcd13ifvqbd0","pricing_plan_id":"cebpf4jnsgd1na2vs0mg"},{"bike_id":"27b2653e-0810-4573-8556-e65c50007a28","system_id":"levelo_inurba_marseille","lat":43.26501,"lon":5.39561,"is_reserved":false,"is_disabled":false,"rental_uris":{"android":"levelo://app?vid=27b2653e-0810-4573-8556-e65c50007a28","ios":"levelo://app?vid=27b2653e-0810-4573-8556-e65c50007a28"},"vehicle_type_id":"4","last_reported":1769192329,"current_range_meters":5600,"station_id":"ce4bhi12rcd13ifvqfq0","pricing_plan_id":"cebpf4jnsgd1na2vs0mg"},{"bike_id":"ba4dbbff-8d2b-4731-b2d8-2ba2461db1db","system_id":"levelo_inurba_marseille","lat":43.28868,"lon":5.42516,"is_reserved":false,"is_disabled":false,"rental_uris":{"android":"levelo://app?vid=ba4dbbff-8d2b-4731-b2d8-2ba2461db1db","ios":"levelo://app?vid=ba4dbbff-8d2b-4731-b2d8-2ba2461db1db"},"vehicle_type_id":"4","last_reported":1769192329,"current_range_meters":5600,"station_id":"st_d3b462108ojc7389ooeg","pricing_plan_id":"cebpf4jnsgd1na2vs0mg"},{"bike_id":"249a4cf7-06f6-4fea-96cc-c9c6b750c37f","system_id":"levelo_inurba_marseille","lat":43.24168,"lon":5.36392,"is_reserved":false,"is_disabled":false,"rental_uris":{"android":"levelo://app?vid=249a4cf7-06f6-4fea-96cc-c9c6b750c37f","ios":"levelo://app?vid=249a4cf7-06f6-4fea-96cc-c9c6b750c37f"},"vehicle_type_id":"4","last_reported":1769192329,"current_range_meters":5600,"station_id":"cpo36qri1sfpv3e86is0","pricing_plan_id":"cebpf4jnsgd1na2vs0mg"},{"bike_id":"c8876b87-2501-483c-9ecd-9a76c63313cd","system_id":"levelo_inurba_marseille","lat":43.28429,"lon":5.37507,"is_reserved":false,"is_disabled":false,"rental_uris":{"android":"levelo://app?vid=c8876b87-2501-483c-9ecd-9a76c63313cd","ios":"levelo://app?vid=c8876b87-2501-483c-9ecd-9a76c63313cd"},"vehicle_type_id":"4","last_reported":1769192329,"current_range_meters":5600,"station_id":"ce4bh412rcd13ifvqds0","pricing_plan_id":"cebpf4jnsgd1na2vs0mg"},{"bike_id":"ef7d735e-a58d-467a-8532-61c4079fbe04","system_id":"levelo_inurba_marseille","lat":43.28608,"lon":5.35104,"is_reserved":false,"is_disabled":false,"rental_uris":{"android":"levelo://app?vid=ef7d735e-a58d-467a-8532-61c4079fbe04","ios":"levelo://app?vid=ef7d735e-a58d-467a-8532-61c4079fbe04"},"vehicle_type_id":"4","last_reported":1769192329,"current_range_meters":5600,"station_id":"ce4bhch2rcd13ifvqeug","pricing_plan_id":"cebpf4jnsgd1na2vs0mg"},{"bike_id":"217c986b-eb9e-44c4-a3e0-92f4ba70b7a5","system_id":"levelo_inurba_marseille","lat":43.23212,"lon":5.39976,"is_reserved":false,"is_disabled":false,"rental_uris":{"android":"levelo://app?vid=217c986b-eb9e-44c4-a3e0-92f4ba70b7a5","ios":"levelo://app?vid=217c986b-eb9e-44c4-a3e0-92f4ba70b7a5"},"vehicle_type_id":"4","last_reported":1769192329,"current_range_meters":6000,"station_id":"ce4bhn12rcd13ifvqgqg","pricing_plan_id":"cebpf4jnsgd1na2vs0mg"},{"bike_id":"2403f0bf-de39-4f6c-b1d8-f725bb90dee3","system_id":"levelo_inurba_marseille","lat":43.24166,"lon":5.36394,"is_reserved":false,"is_disabled":false,"rental_uris":{"android":"levelo://app?vid=2403f0bf-de39-4f6c-b1d8-f725bb90dee3","ios":"levelo://app?vid=2403f0bf-de39-4f6c-b1d8-f725bb90dee3"},"vehicle_type_id":"4","last_reported":1769192329,"current_range_meters":6000,"station_id":"cpo36qri1sfpv3e86is0","pricing_plan_id":"cebpf4jnsgd1na2vs0mg"},{"bike_id":"cb9dd186-8cde-41dc-bd23-4fa0175e5161","system_id":"levelo_inurba_marseille","lat":43.27079,"lon":5.40309,"is_reserved":false,"is_disabled":false,"rental_uris":{"android":"levelo://app?vid=cb9dd186-8cde-41dc-bd23-4fa0175e5161","ios":"levelo://app?vid=cb9dd186-8cde-41dc-bd23-4fa0175e5161"},"vehicle_type_id":"4","last_reported":1769192329,"current_range_meters":6000,"station_id":"","pricing_plan_id":"cebpf4jnsgd1na2vs0mg"},{"bike_id":"b57df7ad-97cd-44b3-a204-ea83c250292c","system_id":"levelo_inurba_marseille","lat":43.23194,"lon":5.35553,"is_reserved":false,"is_disabled":false,"rental_uris":{"android":"levelo://app?vid=b57df7ad-97cd-44b3-a204-ea83c250292c","ios":"levelo://app?vid=b57df7ad-97cd-44b3-a204-ea83c250292c"},"vehicle_type_id":"4","last_reported":1769192329,"current_range_meters":6000,"station_id":"ce4bhu92rcd13ifvqi70","pricing_plan_id":"cebpf4jnsgd1na2vs0mg"},{"bike_id":"7417ac5f-ba9c-4291-912c-03a50aabdc7a","system_id":"levelo_inurba_marseille","lat":43.29603,"lon":5.38112,"is_reserved":false,"is_disabled":false,"rental_uris":{"android":"levelo://app?vid=7417ac5f-ba9c-4291-912c-03a50aabdc7a","ios":"levelo://app?vid=7417ac5f-ba9c-4291-912c-03a50aabdc7a"},"vehicle_type_id":"4","last_reported":1769192329,"current_range_meters":6000,"station_id":"ce4bgl12rcd13ifvqbo0","pricing_plan_id":"cebpf4jnsgd1na2vs0mg"},{"bike_id":"9f9c4f85-7d9e-4e8a-9123-cbd1f8de03db","system_id":"levelo_inurba_marseille","lat":43.3184,"lon":5.38983,"is_reserved":false,"is_disabled":false,"rental_uris":{"android":"levelo://app?vid=9f9c4f85-7d9e-4e8a-9123-cbd1f8de03db","ios":"levelo://app?vid=9f9c4f85-7d9e-4e8a-9123-cbd1f8de03db"},"vehicle_type_id":"4","last_reported":1769192329,"current_range_meters":6000,"station_id":"","pricing_plan_id":"cebpf4jnsgd1na2vs0mg"},{"bike_id":"a887fc7f-7edf-476c-a4e2-1301810a1681","system_id":"levelo_inurba_marseille","lat":43.23787,"lon":5.36631,"is_reserved":false,"is_disabled":false,"rental_uris":{"android":"levelo://app?vid=a887fc7f-7edf-476c-a4e2-1301810a1681","ios":"levelo://app?vid=a887fc7f-7edf-476c-a4e2-1301810a1681"},"vehicle_type_id":"4","last_reported":1769192329,"current_range_meters":6000,"station_id":"st_d3nk18o9ro0c73en2l3g","pricing_plan_id":"cebpf4jnsgd1na2vs0mg"},{"bike_id":"f4b25dbb-e81c-4730-b9c6-2a06a6fd5b5e","system_id":"levelo_inurba_marseille","lat":43.2885,"lon":5.35851,"is_reserved":false,"is_disabled":false,"rental_uris":{"android":"levelo://app?vid=f4b25dbb-e81c-4730-b9c6-2a06a6fd5b5e","ios":"levelo://app?vid=f4b25dbb-e81c-4730-b9c6-2a06a6fd5b5e"},"vehicle_type_id":"4","last_reported":1769192329,"current_range_meters":6000,"station_id":"ce4bhb12rcd13ifvqem0","pricing_plan_id":"cebpf4jnsgd1na2vs0mg"},{"bike_id":"5ed4e9d2-631e-4b69-8907-913cd14f0cf9","system_id":"levelo_inurba_marseille","lat":43.25834,"lon":5.39433,"is_reserved":false,"is_disabled":false,"rental_uris":{"android":"levelo://app?vid=5ed4e9d2-631e-4b69-8907-913cd14f0cf9","ios":"levelo://app?vid=5ed4e9d2-631e-4b69-8907-913cd14f0cf9"},"vehicle_type_id":"4","last_reported":1769192329,"current_range_meters":6400,"station_id":"ce4bhip2rcd13ifvqft0","pricing_plan_id":"cebpf4jnsgd1na2vs0mg"},{"bike_id":"fe6d01e8-afeb-45db-a3cb-a32778da026d","system_id":"levelo_inurba_marseille","lat":43.30456,"lon":5.38894,"is_reserved":false,"is_disabled":false,"rental_uris":{"android":"levelo://app?vid=fe6d01e8-afeb-45db-a3cb-a32778da026d","ios":"levelo://app?vid=fe6d01e8-afeb-45db-a3cb-a32778da026d"},"vehicle_type_id":"4","last_reported":1769192329,"current_range_meters":6400,"station_id":"ce4bgk12rcd13ifvqbi0","pricing_plan_id":"cebpf4jnsgd1na2vs0mg"},{"bike_id":"eac3130b-3d80-4e31-9196-f622cf6df9b4","system_id":"levelo_inurba_marseille","lat":43.29911,"lon":5.38146,"is_reserved":false,"is_disabled":false,"rental_uris":{"android":"levelo://app?vid=eac3130b-3d80-4e31-9196-f622cf6df9b4","ios":"levelo://app?vid=eac3130b-3d80-4e31-9196-f622cf6df9b4"},"vehicle_type_id":"4","last_reported":1769192329,"current_range_meters":6400,"station_id":"ce4bgj12rcd13ifvqbc0","pricing_plan_id":"cebpf4jnsgd1na2vs0mg"},{"bike_id":"cdea79d7-2181-441b-af2b-69bec44bb9a8","system_id":"levelo_inurba_marseille","lat":43.289856,"lon":5.383725,"is_reserved":false,"is_disabled":false,"rental_uris":{"android":"levelo://app?vid=cdea79d7-2181-441b-af2b-69bec44bb9a8","ios":"levelo://app?vid=cdea79d7-2181-441b-af2b-69bec44bb9a8"},"vehicle_type_id":"4","last_reported":1769192329,"current_range_meters":6400,"station_id":"ce4bh612rcd13ifvqe6g","pricing_plan_id":"cebpf4jnsgd1na2vs0mg"},{"bike_id":"fa5d5773-1a42-4247-a104-81826b627cf3","system_id":"levelo_inurba_marseille","lat":43.26564,"lon":5.39024,"is_reserved":false,"is_disabled":false,"rental_uris":{"android":"levelo://app?vid=fa5d5773-1a42-4247-a104-81826b627cf3","ios":"levelo://app?vid=fa5d5773-1a42-4247-a104-81826b627cf3"},"vehicle_type_id":"4","last_reported":1769192329,"current_range_meters":6400,"station_id":"ce4bhe12rcd13ifvqf30","pricing_plan_id":"cebpf4jnsgd1na2vs0mg"},{"bike_id":"bc61b31d-a59b-43b4-9147-44220082005b","system_id":"levelo_inurba_marseille","lat":43.305364,"lon":5.366951,"is_reserved":false,"is_disabled":false,"rental_uris":{"android":"levelo://app?vid=bc61b31d-a59b-43b4-9147-44220082005b","ios":"levelo://app?vid=bc61b31d-a59b-43b4-9147-44220082005b"},"vehicle_type_id":"4","last_reported":1769192329,"current_range_meters":6400,"station_id":"ce4bgrp2rcd13ifvqc9g","pricing_plan_id":"cebpf4jnsgd1na2vs0mg"},{"bike_id":"b773bbbb-d72b-4b38-92a3-28fca628ed6c","system_id":"levelo_inurba_marseille","lat":43.22934,"lon":5.35368,"is_reserved":false,"is_disabled":false,"rental_uris":{"android":"levelo://app?vid=b773bbbb-d72b-4b38-92a3-28fca628ed6c","ios":"levelo://app?vid=b773bbbb-d72b-4b38-92a3-28fca628ed6c"},"vehicle_type_id":"4","last_reported":1769192329,"current_range_meters":6400,"station_id":"cpo3532slgdg3j2ikp40","pricing_plan_id":"cebpf4jnsgd1na2vs0mg"},{"bike_id":"17ce03ac-b852-455a-8f41-b3a09136849e","system_id":"levelo_inurba_marseille","lat":43.24175,"lon":5.36392,"is_reserved":false,"is_disabled":false,"rental_uris":{"android":"levelo://app?vid=17ce03ac-b852-455a-8f41-b3a09136849e","ios":"levelo://app?vid=17ce03ac-b852-455a-8f41-b3a09136849e"},"vehicle_type_id":"4","last_reported":1769192329,"current_range_meters":6400,"station_id":"cpo36qri1sfpv3e86is0","pricing_plan_id":"cebpf4jnsgd1na2vs0mg"},{"bike_id":"d8368424-7a2e-4ab4-b75d-24eb5c1743cf","system_id":"levelo_inurba_marseille","lat":43.305287,"lon":5.36711,"is_reserved":false,"is_disabled":false,"rental_uris":{"android":"levelo://app?vid=d8368424-7a2e-4ab4-b75d-24eb5c1743cf","ios":"levelo://app?vid=d8368424-7a2e-4ab4-b75d-24eb5c1743cf"},"vehicle_type_id":"4","last_reported":1769192329,"current_range_meters":6400,"station_id":"ce4bgrp2rcd13ifvqc9g","pricing_plan_id":"cebpf4jnsgd1na2vs0mg"},{"bike_id":"16590669-22b9-475f-acf3-c7e2ee0e80fd","system_id":"levelo_inurba_marseille","lat":43.250121,"lon":5.389175,"is_reserved":false,"is_disabled":false,"rental_uris":{"android":"levelo://app?vid=16590669-22b9-475f-acf3-c7e2ee0e80fd","ios":"levelo://app?vid=16590669-22b9-475f-acf3-c7e2ee0e80fd"},"vehicle_type_id":"4","last_reported":1769192329,"current_range_meters":6400,"station_id":"ce4bhgp2rcd13ifvqfd0","pricing_plan_id":"cebpf4jnsgd1na2vs0mg"},{"bike_id":"3046e026-9ad0-4040-9762-5420b00c2e3e","system_id":"levelo_inurba_marseille","lat":43.31052,"lon":5.37173,"is_reserved":false,"is_disabled":false,"rental_uris":{"android":"levelo://app?vid=3046e026-9ad0-4040-9762-5420b00c2e3e","ios":"levelo://app?vid=3046e026-9ad0-4040-9762-5420b00c2e3e"},"vehicle_type_id":"4","last_reported":1769192329,"current_range_meters":6400,"station_id":"st_d4kl2rp97mjs73e7tdfg","pricing_plan_id":"cebpf4jnsgd1na2vs0mg"},{"bike_id":"363a8a56-96e8-4804-b8e4-6729bf64a831","system_id":"levelo_inurba_marseille","lat":43.29766,"lon":5.37097,"is_reserved":false,"is_disabled":false,"rental_uris":{"android":"levelo://app?vid=363a8a56-96e8-4804-b8e4-6729bf64a831","ios":"levelo://app?vid=363a8a56-96e8-4804-b8e4-6729bf64a831"},"vehicle_type_id":"4","last_reported":1769192329,"current_range_meters":6400,"station_id":"ce4bgop2rcd13ifvqc1g","pricing_plan_id":"cebpf4jnsgd1na2vs0mg"},{"bike_id":"adf4d248-2d89-4859-bf0c-6fa2ba7e9aaf","system_id":"levelo_inurba_marseille","lat":43.2694,"lon":5.4025,"is_reserved":false,"is_disabled":false,"rental_uris":{"android":"levelo://app?vid=adf4d248-2d89-4859-bf0c-6fa2ba7e9aaf","ios":"levelo://app?vid=adf4d248-2d89-4859-bf0c-6fa2ba7e9aaf"},"vehicle_type_id":"4","last_reported":1769192329,"current_range_meters":6400,"station_id":"cjm6bp8fraef2m0cb0m0","pricing_plan_id":"cebpf4jnsgd1na2vs0mg"},{"bike_id":"99fcd333-d937-4dfa-abd1-3944554bdfba","system_id":"levelo_inurba_marseille","lat":43.30519,"lon":5.36546,"is_reserved":false,"is_disabled":false,"rental_uris":{"android":"levelo://app?vid=99fcd333-d937-4dfa-abd1-3944554bdfba","ios":"levelo://app?vid=99fcd333-d937-4dfa-abd1-3944554bdfba"},"vehicle_type_id":"4","last_reported":1769192329,"current_range_meters":6400,"station_id":"","pricing_plan_id":"cebpf4jnsgd1na2vs0mg"},{"bike_id":"d4d32883-f39c-45b7-9422-2bc624c73138","system_id":"levelo_inurba_marseille","lat":43.29532,"lon":5.38553,"is_reserved":false,"is_disabled":false,"rental_uris":{"android":"levelo://app?vid=d4d32883-f39c-45b7-9422-2bc624c73138","ios":"levelo://app?vid=d4d32883-f39c-45b7-9422-2bc624c73138"},"vehicle_type_id":"4","last_reported":1769192329,"current_range_meters":6800,"station_id":"ce4bgih2rcd13ifvqba0","pricing_plan_id":"cebpf4jnsgd1na2vs0mg"},{"bike_id":"3e10bd30-a062-4bb4-8e27-f93eb1e497ff","system_id":"levelo_inurba_marseille","lat":43.29604,"lon":5.37737,"is_reserved":false,"is_disabled":true,"rental_uris":{"android":"levelo://app?vid=3e10bd30-a062-4bb4-8e27-f93eb1e497ff","ios":"levelo://app?vid=3e10bd30-a062-4bb4-8e27-f93eb1e497ff"},"vehicle_type_id":"4","last_reported":1769192329,"current_range_meters":6800,"station_id":"ce4bgi92rcd13ifvqb90","pricing_plan_id":"cebpf4jnsgd1na2vs0mg"},{"bike_id":"d4c2bd72-ece6-4170-aba8-51a8478c9b47","system_id":"levelo_inurba_marseille","lat":43.30586,"lon":5.39354,"is_reserved":false,"is_disabled":false,"rental_uris":{"android":"levelo://app?vid=d4c2bd72-ece6-4170-aba8-51a8478c9b47","ios":"levelo://app?vid=d4c2bd72-ece6-4170-aba8-51a8478c9b47"},"vehicle_type_id":"4","last_reported":1769192329,"current_range_meters":6800,"station_id":"ce4bh0p2rcd13ifvqd80","pricing_plan_id":"cebpf4jnsgd1na2vs0mg"},{"bike_id":"dc82bfc6-2b44-4bff-8892-9b8eb7e91578","system_id":"levelo_inurba_marseille","lat":43.23956,"lon":5.36641,"is_reserved":false,"is_disabled":false,"rental_uris":{"android":"levelo://app?vid=dc82bfc6-2b44-4bff-8892-9b8eb7e91578","ios":"levelo://app?vid=dc82bfc6-2b44-4bff-8892-9b8eb7e91578"},"vehicle_type_id":"4","last_reported":1769192329,"current_range_meters":6800,"station_id":"ce4bhi12rcd13ifvqfp0","pricing_plan_id":"cebpf4jnsgd1na2vs0mg"},{"bike_id":"d2dd2bd5-35c6-4cf8-86dc-87c4bf274249","system_id":"levelo_inurba_marseille","lat":43.24645,"lon":5.389,"is_reserved":false,"is_disabled":false,"rental_uris":{"android":"levelo://app?vid=d2dd2bd5-35c6-4cf8-86dc-87c4bf274249","ios":"levelo://app?vid=d2dd2bd5-35c6-4cf8-86dc-87c4bf274249"},"vehicle_type_id":"4","last_reported":1769192329,"current_range_meters":6800,"station_id":"ce4bhg12rcd13ifvqf60","pricing_plan_id":"cebpf4jnsgd1na2vs0mg"},{"bike_id":"7a979796-e9e0-46a0-8894-e0515e90f174","system_id":"levelo_inurba_marseille","lat":43.28,"lon":5.40013,"is_reserved":false,"is_disabled":true,"rental_uris":{"android":"levelo://app?vid=7a979796-e9e0-46a0-8894-e0515e90f174","ios":"levelo://app?vid=7a979796-e9e0-46a0-8894-e0515e90f174"},"vehicle_type_id":"4","last_reported":1769192329,"current_range_meters":6800,"station_id":"ce4bho92rcd13ifvqh4g","pricing_plan_id":"cebpf4jnsgd1na2vs0mg"},{"bike_id":"33fc742a-a588-4e47-9cc8-3a0d0808d058","system_id":"levelo_inurba_marseille","lat":43.23142,"lon":5.43719,"is_reserved":false,"is_disabled":false,"rental_uris":{"android":"levelo://app?vid=33fc742a-a588-4e47-9cc8-3a0d0808d058","ios":"levelo://app?vid=33fc742a-a588-4e47-9cc8-3a0d0808d058"},"vehicle_type_id":"4","last_reported":1769192329,"current_range_meters":6800,"station_id":"ce4bhmp2rcd13ifvqgog","pricing_plan_id":"cebpf4jnsgd1na2vs0mg"},{"bike_id":"8922c302-f86b-43f3-9807-7ebc28264ed3","system_id":"levelo_inurba_marseille","lat":43.26218,"lon":5.40454,"is_reserved":false,"is_disabled":false,"rental_uris":{"android":"levelo://app?vid=8922c302-f86b-43f3-9807-7ebc28264ed3","ios":"levelo://app?vid=8922c302-f86b-43f3-9807-7ebc28264ed3"},"vehicle_type_id":"4","last_reported":1769192329,"current_range_meters":6800,"station_id":"ce4bhmh2rcd13ifvqgmg","pricing_plan_id":"cebpf4jnsgd1na2vs0mg"},{"bike_id":"cb460f60-b642-42e9-b6ac-50ce1fc863df","system_id":"levelo_inurba_marseille","lat":43.28983,"lon":5.378433,"is_reserved":false,"is_disabled":false,"rental_uris":{"android":"levelo://app?vid=cb460f60-b642-42e9-b6ac-50ce1fc863df","ios":"levelo://app?vid=cb460f60-b642-42e9-b6ac-50ce1fc863df"},"vehicle_type_id":"4","last_reported":1769192329,"current_range_meters":6800,"station_id":"","pricing_plan_id":"cebpf4jnsgd1na2vs0mg"},{"bike_id":"6cebd568-4c0d-49be-8020-67662f6cb99c","system_id":"levelo_inurba_marseille","lat":43.295162,"lon":5.390385,"is_reserved":false,"is_disabled":false,"rental_uris":{"android":"levelo://app?vid=6cebd568-4c0d-49be-8020-67662f6cb99c","ios":"levelo://app?vid=6cebd568-4c0d-49be-8020-67662f6cb99c"},"vehicle_type_id":"4","last_reported":1769192329,"current_range_meters":6800,"station_id":"ce4bh3p2rcd13ifvqdp0","pricing_plan_id":"cebpf4jnsgd1na2vs0mg"},{"bike_id":"cfbb9345-bae0-43a7-a74b-5ceff25b15dd","system_id":"levelo_inurba_marseille","lat":43.28932,"lon":5.36635,"is_reserved":false,"is_disabled":false,"rental_uris":{"android":"levelo://app?vid=cfbb9345-bae0-43a7-a74b-5ceff25b15dd","ios":"levelo://app?vid=cfbb9345-bae0-43a7-a74b-5ceff25b15dd"},"vehicle_type_id":"4","last_reported":1769192329,"current_range_meters":6800,"station_id":"ce4bhap2rcd13ifvqek0","pricing_plan_id":"cebpf4jnsgd1na2vs0mg"},{"bike_id":"96a06d0a-ca22-41ef-9d50-0a317d44d8a1","system_id":"levelo_inurba_marseille","lat":43.29224,"lon":5.3845,"is_reserved":false,"is_disabled":false,"rental_uris":{"android":"levelo://app?vid=96a06d0a-ca22-41ef-9d50-0a317d44d8a1","ios":"levelo://app?vid=96a06d0a-ca22-41ef-9d50-0a317d44d8a1"},"vehicle_type_id":"4","last_reported":1769192329,"current_range_meters":6800,"station_id":"ce4bh692rcd13ifvqea0","pricing_plan_id":"cebpf4jnsgd1na2vs0mg"},{"bike_id":"d5979a98-94ba-4609-af07-e02fe23bf3bc","system_id":"levelo_inurba_marseille","lat":43.22561,"lon":5.41627,"is_reserved":false,"is_disabled":false,"rental_uris":{"android":"levelo://app?vid=d5979a98-94ba-4609-af07-e02fe23bf3bc","ios":"levelo://app?vid=d5979a98-94ba-4609-af07-e02fe23bf3bc"},"vehicle_type_id":"4","last_reported":1769192329,"current_range_meters":6800,"station_id":"st_d2o4gvlbi1j2169b742g","pricing_plan_id":"cebpf4jnsgd1na2vs0mg"},{"bike_id":"bad75388-e421-4a71-a9aa-cd2865663d67","system_id":"levelo_inurba_marseille","lat":43.321007,"lon":5.367805,"is_reserved":false,"is_disabled":false,"rental_uris":{"android":"levelo://app?vid=bad75388-e421-4a71-a9aa-cd2865663d67","ios":"levelo://app?vid=bad75388-e421-4a71-a9aa-cd2865663d67"},"vehicle_type_id":"4","last_reported":1769192329,"current_range_meters":6800,"station_id":"ce4bhrh2rcd13ifvqhug","pricing_plan_id":"cebpf4jnsgd1na2vs0mg"},{"bike_id":"d41206b4-45d5-4462-986d-d34125836a71","system_id":"levelo_inurba_marseille","lat":43.29226,"lon":5.36075,"is_reserved":false,"is_disabled":false,"rental_uris":{"android":"levelo://app?vid=d41206b4-45d5-4462-986d-d34125836a71","ios":"levelo://app?vid=d41206b4-45d5-4462-986d-d34125836a71"},"vehicle_type_id":"4","last_reported":1769192329,"current_range_meters":6800,"station_id":"ce4bhbh2rcd13ifvqeqg","pricing_plan_id":"cebpf4jnsgd1na2vs0mg"},{"bike_id":"4656ced7-866b-4405-99f7-01085d8601a7","system_id":"levelo_inurba_marseille","lat":43.28022,"lon":5.36948,"is_reserved":false,"is_disabled":false,"rental_uris":{"android":"levelo://app?vid=4656ced7-866b-4405-99f7-01085d8601a7","ios":"levelo://app?vid=4656ced7-866b-4405-99f7-01085d8601a7"},"vehicle_type_id":"4","last_reported":1769192329,"current_range_meters":6800,"station_id":"ce4bha12rcd13ifvqef0","pricing_plan_id":"cebpf4jnsgd1na2vs0mg"},{"bike_id":"d59e6b5b-9c85-4878-84e5-489dc79053a5","system_id":"levelo_inurba_marseille","lat":43.29523,"lon":5.38536,"is_reserved":false,"is_disabled":false,"rental_uris":{"android":"levelo://app?vid=d59e6b5b-9c85-4878-84e5-489dc79053a5","ios":"levelo://app?vid=d59e6b5b-9c85-4878-84e5-489dc79053a5"},"vehicle_type_id":"4","last_reported":1769192329,"current_range_meters":6800,"station_id":"ce4bgih2rcd13ifvqba0","pricing_plan_id":"cebpf4jnsgd1na2vs0mg"},{"bike_id":"02e7a81c-add2-44fa-966b-2d696b46b0f6","system_id":"levelo_inurba_marseille","lat":43.29485,"lon":5.3738,"is_reserved":false,"is_disabled":false,"rental_uris":{"android":"levelo://app?vid=02e7a81c-add2-44fa-966b-2d696b46b0f6","ios":"levelo://app?vid=02e7a81c-add2-44fa-966b-2d696b46b0f6"},"vehicle_type_id":"4","last_reported":1769192329,"current_range_meters":6800,"station_id":"","pricing_plan_id":"cebpf4jnsgd1na2vs0mg"},{"bike_id":"10d81607-b2c6-4f43-9034-1dd057977b39","system_id":"levelo_inurba_marseille","lat":43.242197,"lon":5.39668,"is_reserved":false,"is_disabled":false,"rental_uris":{"android":"levelo://app?vid=10d81607-b2c6-4f43-9034-1dd057977b39","ios":"levelo://app?vid=10d81607-b2c6-4f43-9034-1dd057977b39"},"vehicle_type_id":"4","last_reported":1769192329,"current_range_meters":6800,"station_id":"","pricing_plan_id":"cebpf4jnsgd1na2vs0mg"},{"bike_id":"a35157b8-f52d-4b67-9dfc-9c6979992a5c","system_id":"levelo_inurba_marseille","lat":43.24814,"lon":5.37456,"is_reserved":false,"is_disabled":false,"rental_uris":{"android":"levelo://app?vid=a35157b8-f52d-4b67-9dfc-9c6979992a5c","ios":"levelo://app?vid=a35157b8-f52d-4b67-9dfc-9c6979992a5c"},"vehicle_type_id":"4","last_reported":1769192329,"current_range_meters":6800,"station_id":"ce4bhgh2rcd13ifvqfb0","pricing_plan_id":"cebpf4jnsgd1na2vs0mg"},{"bike_id":"731e3c39-4cfc-47aa-926e-d6f514d68010","system_id":"levelo_inurba_marseille","lat":43.22561,"lon":5.41617,"is_reserved":false,"is_disabled":false,"rental_uris":{"android":"levelo://app?vid=731e3c39-4cfc-47aa-926e-d6f514d68010","ios":"levelo://app?vid=731e3c39-4cfc-47aa-926e-d6f514d68010"},"vehicle_type_id":"4","last_reported":1769192329,"current_range_meters":7200,"station_id":"st_d2o4gvlbi1j2169b742g","pricing_plan_id":"cebpf4jnsgd1na2vs0mg"},{"bike_id":"18d6c642-fb42-4546-954e-362c3a034a30","system_id":"levelo_inurba_marseille","lat":43.2895,"lon":5.36363,"is_reserved":false,"is_disabled":false,"rental_uris":{"android":"levelo://app?vid=18d6c642-fb42-4546-954e-362c3a034a30","ios":"levelo://app?vid=18d6c642-fb42-4546-954e-362c3a034a30"},"vehicle_type_id":"4","last_reported":1769192329,"current_range_meters":7200,"station_id":"ce4bhc92rcd13ifvqetg","pricing_plan_id":"cebpf4jnsgd1na2vs0mg"},{"bike_id":"9a401371-c11b-4fb8-a6da-d007a0da7136","system_id":"levelo_inurba_marseille","lat":43.29548,"lon":5.38541,"is_reserved":false,"is_disabled":false,"rental_uris":{"android":"levelo://app?vid=9a401371-c11b-4fb8-a6da-d007a0da7136","ios":"levelo://app?vid=9a401371-c11b-4fb8-a6da-d007a0da7136"},"vehicle_type_id":"4","last_reported":1769192329,"current_range_meters":7200,"station_id":"ce4bgih2rcd13ifvqba0","pricing_plan_id":"cebpf4jnsgd1na2vs0mg"},{"bike_id":"a35fc7cd-b47c-4ba6-a634-a7d7023a9baf","system_id":"levelo_inurba_marseille","lat":43.29275,"lon":5.38436,"is_reserved":false,"is_disabled":false,"rental_uris":{"android":"levelo://app?vid=a35fc7cd-b47c-4ba6-a634-a7d7023a9baf","ios":"levelo://app?vid=a35fc7cd-b47c-4ba6-a634-a7d7023a9baf"},"vehicle_type_id":"4","last_reported":1769192329,"current_range_meters":7200,"station_id":"ce4bh692rcd13ifvqea0","pricing_plan_id":"cebpf4jnsgd1na2vs0mg"},{"bike_id":"ee1097c7-66cb-4cde-affa-a4b0a3128b81","system_id":"levelo_inurba_marseille","lat":43.28504,"lon":5.37211,"is_reserved":false,"is_disabled":false,"rental_uris":{"android":"levelo://app?vid=ee1097c7-66cb-4cde-affa-a4b0a3128b81","ios":"levelo://app?vid=ee1097c7-66cb-4cde-affa-a4b0a3128b81"},"vehicle_type_id":"4","last_reported":1769192329,"current_range_meters":7200,"station_id":"","pricing_plan_id":"cebpf4jnsgd1na2vs0mg"},{"bike_id":"2fb20b6a-d76e-4de3-aed9-1d76a8ea7d3f","system_id":"levelo_inurba_marseille","lat":43.292611,"lon":5.384354,"is_reserved":false,"is_disabled":false,"rental_uris":{"android":"levelo://app?vid=2fb20b6a-d76e-4de3-aed9-1d76a8ea7d3f","ios":"levelo://app?vid=2fb20b6a-d76e-4de3-aed9-1d76a8ea7d3f"},"vehicle_type_id":"4","last_reported":1769192329,"current_range_meters":7200,"station_id":"ce4bh692rcd13ifvqea0","pricing_plan_id":"cebpf4jnsgd1na2vs0mg"},{"bike_id":"9ea789a0-0df6-4963-8509-aa54575c637d","system_id":"levelo_inurba_marseille","lat":43.28222,"lon":5.39068,"is_reserved":false,"is_disabled":false,"rental_uris":{"android":"levelo://app?vid=9ea789a0-0df6-4963-8509-aa54575c637d","ios":"levelo://app?vid=9ea789a0-0df6-4963-8509-aa54575c637d"},"vehicle_type_id":"4","last_reported":1769192329,"current_range_meters":7200,"station_id":"ce4bhn92rcd13ifvqgsg","pricing_plan_id":"cebpf4jnsgd1na2vs0mg"},{"bike_id":"6282d9a7-88b7-444d-a3bd-050bf586be70","system_id":"levelo_inurba_marseille","lat":43.29702,"lon":5.37286,"is_reserved":false,"is_disabled":false,"rental_uris":{"android":"levelo://app?vid=6282d9a7-88b7-444d-a3bd-050bf586be70","ios":"levelo://app?vid=6282d9a7-88b7-444d-a3bd-050bf586be70"},"vehicle_type_id":"4","last_reported":1769192329,"current_range_meters":7200,"station_id":"ce4bgk12rcd13ifvqbj0","pricing_plan_id":"cebpf4jnsgd1na2vs0mg"},{"bike_id":"83cfc6fc-818a-4d29-b877-3fdba22e0a51","system_id":"levelo_inurba_marseille","lat":43.30521,"lon":5.36701,"is_reserved":false,"is_disabled":false,"rental_uris":{"android":"levelo://app?vid=83cfc6fc-818a-4d29-b877-3fdba22e0a51","ios":"levelo://app?vid=83cfc6fc-818a-4d29-b877-3fdba22e0a51"},"vehicle_type_id":"4","last_reported":1769192329,"current_range_meters":7200,"station_id":"ce4bgrp2rcd13ifvqc9g","pricing_plan_id":"cebpf4jnsgd1na2vs0mg"},{"bike_id":"5560fc7f-1e40-4887-b56f-d8792953a489","system_id":"levelo_inurba_marseille","lat":43.24162,"lon":5.36402,"is_reserved":false,"is_disabled":false,"rental_uris":{"android":"levelo://app?vid=5560fc7f-1e40-4887-b56f-d8792953a489","ios":"levelo://app?vid=5560fc7f-1e40-4887-b56f-d8792953a489"},"vehicle_type_id":"4","last_reported":1769192329,"current_range_meters":7200,"station_id":"cpo36qri1sfpv3e86is0","pricing_plan_id":"cebpf4jnsgd1na2vs0mg"},{"bike_id":"06b47679-ddd6-453d-83bf-6d29712410f6","system_id":"levelo_inurba_marseille","lat":43.26929,"lon":5.38917,"is_reserved":false,"is_disabled":false,"rental_uris":{"android":"levelo://app?vid=06b47679-ddd6-453d-83bf-6d29712410f6","ios":"levelo://app?vid=06b47679-ddd6-453d-83bf-6d29712410f6"},"vehicle_type_id":"4","last_reported":1769192329,"current_range_meters":7200,"station_id":"ce4bhhh2rcd13ifvqfl0","pricing_plan_id":"cebpf4jnsgd1na2vs0mg"},{"bike_id":"04df064f-6595-4d9c-a76e-ac9b3521f389","system_id":"levelo_inurba_marseille","lat":43.246509,"lon":5.388965,"is_reserved":false,"is_disabled":false,"rental_uris":{"android":"levelo://app?vid=04df064f-6595-4d9c-a76e-ac9b3521f389","ios":"levelo://app?vid=04df064f-6595-4d9c-a76e-ac9b3521f389"},"vehicle_type_id":"4","last_reported":1769192329,"current_range_meters":7200,"station_id":"ce4bhg12rcd13ifvqf60","pricing_plan_id":"cebpf4jnsgd1na2vs0mg"},{"bike_id":"496e5782-5546-4ef6-9a6e-e322263eb462","system_id":"levelo_inurba_marseille","lat":43.25335,"lon":5.42172,"is_reserved":false,"is_disabled":false,"rental_uris":{"android":"levelo://app?vid=496e5782-5546-4ef6-9a6e-e322263eb462","ios":"levelo://app?vid=496e5782-5546-4ef6-9a6e-e322263eb462"},"vehicle_type_id":"4","last_reported":1769192329,"current_range_meters":7200,"station_id":"st_d2m65c5bi1j21697t3ng","pricing_plan_id":"cebpf4jnsgd1na2vs0mg"},{"bike_id":"107ec688-05cd-4314-ad43-7f11a33bd239","system_id":"levelo_inurba_marseille","lat":43.30141,"lon":5.38083,"is_reserved":false,"is_disabled":false,"rental_uris":{"android":"levelo://app?vid=107ec688-05cd-4314-ad43-7f11a33bd239","ios":"levelo://app?vid=107ec688-05cd-4314-ad43-7f11a33bd239"},"vehicle_type_id":"4","last_reported":1769192329,"current_range_meters":7200,"station_id":"ce4bgjp2rcd13ifvqbh0","pricing_plan_id":"cebpf4jnsgd1na2vs0mg"},{"bike_id":"e822a0c0-0e95-45a5-aa34-3dc1f06b290a","system_id":"levelo_inurba_marseille","lat":43.29641,"lon":5.40573,"is_reserved":false,"is_disabled":false,"rental_uris":{"android":"levelo://app?vid=e822a0c0-0e95-45a5-aa34-3dc1f06b290a","ios":"levelo://app?vid=e822a0c0-0e95-45a5-aa34-3dc1f06b290a"},"vehicle_type_id":"4","last_reported":1769192329,"current_range_meters":7200,"station_id":"ce4bh0h2rcd13ifvqd60","pricing_plan_id":"cebpf4jnsgd1na2vs0mg"},{"bike_id":"d3746757-64c0-4deb-8ffa-a59c72b048ff","system_id":"levelo_inurba_marseille","lat":43.29708,"lon":5.37293,"is_reserved":false,"is_disabled":false,"rental_uris":{"android":"levelo://app?vid=d3746757-64c0-4deb-8ffa-a59c72b048ff","ios":"levelo://app?vid=d3746757-64c0-4deb-8ffa-a59c72b048ff"},"vehicle_type_id":"4","last_reported":1769192329,"current_range_meters":7200,"station_id":"ce4bgk12rcd13ifvqbj0","pricing_plan_id":"cebpf4jnsgd1na2vs0mg"},{"bike_id":"0ac0b2e8-84a1-41d0-a729-13edae406ead","system_id":"levelo_inurba_marseille","lat":43.262108,"lon":5.379247,"is_reserved":false,"is_disabled":false,"rental_uris":{"android":"levelo://app?vid=0ac0b2e8-84a1-41d0-a729-13edae406ead","ios":"levelo://app?vid=0ac0b2e8-84a1-41d0-a729-13edae406ead"},"vehicle_type_id":"4","last_reported":1769192329,"current_range_meters":7200,"station_id":"ce4bhh92rcd13ifvqfj0","pricing_plan_id":"cebpf4jnsgd1na2vs0mg"},{"bike_id":"febfc0a2-929a-4a20-8ea0-6a8afa492a38","system_id":"levelo_inurba_marseille","lat":43.29645,"lon":5.40592,"is_reserved":false,"is_disabled":false,"rental_uris":{"android":"levelo://app?vid=febfc0a2-929a-4a20-8ea0-6a8afa492a38","ios":"levelo://app?vid=febfc0a2-929a-4a20-8ea0-6a8afa492a38"},"vehicle_type_id":"4","last_reported":1769192329,"current_range_meters":7200,"station_id":"ce4bh0h2rcd13ifvqd60","pricing_plan_id":"cebpf4jnsgd1na2vs0mg"},{"bike_id":"8750ab90-342c-4b21-9046-287ee13df746","system_id":"levelo_inurba_marseille","lat":43.323545,"lon":5.36745,"is_reserved":false,"is_disabled":false,"rental_uris":{"android":"levelo://app?vid=8750ab90-342c-4b21-9046-287ee13df746","ios":"levelo://app?vid=8750ab90-342c-4b21-9046-287ee13df746"},"vehicle_type_id":"4","last_reported":1769192329,"current_range_meters":7200,"station_id":"ce4bhsh2rcd13ifvqi2g","pricing_plan_id":"cebpf4jnsgd1na2vs0mg"},{"bike_id":"5c6da10b-38e9-4dc2-819a-b9596fb94c5b","system_id":"levelo_inurba_marseille","lat":43.26193,"lon":5.37457,"is_reserved":false,"is_disabled":false,"rental_uris":{"android":"levelo://app?vid=5c6da10b-38e9-4dc2-819a-b9596fb94c5b","ios":"levelo://app?vid=5c6da10b-38e9-4dc2-819a-b9596fb94c5b"},"vehicle_type_id":"4","last_reported":1769192329,"current_range_meters":8000,"station_id":"ce4bhgp2rcd13ifvqfc0","pricing_plan_id":"cebpf4jnsgd1na2vs0mg"},{"bike_id":"be188634-c5e5-46a9-9514-883e3afcd281","system_id":"levelo_inurba_marseille","lat":43.30626,"lon":5.39637,"is_reserved":false,"is_disabled":false,"rental_uris":{"android":"levelo://app?vid=be188634-c5e5-46a9-9514-883e3afcd281","ios":"levelo://app?vid=be188634-c5e5-46a9-9514-883e3afcd281"},"vehicle_type_id":"4","last_reported":1769192329,"current_range_meters":8000,"station_id":"","pricing_plan_id":"cebpf4jnsgd1na2vs0mg"},{"bike_id":"ec5eb2f7-22b0-46ba-b67c-6278697b67b5","system_id":"levelo_inurba_marseille","lat":43.29515,"lon":5.39037,"is_reserved":false,"is_disabled":false,"rental_uris":{"android":"levelo://app?vid=ec5eb2f7-22b0-46ba-b67c-6278697b67b5","ios":"levelo://app?vid=ec5eb2f7-22b0-46ba-b67c-6278697b67b5"},"vehicle_type_id":"4","last_reported":1769192329,"current_range_meters":8000,"station_id":"ce4bh3p2rcd13ifvqdp0","pricing_plan_id":"cebpf4jnsgd1na2vs0mg"},{"bike_id":"d1248e4b-c241-4185-9668-62cef44fb4ea","system_id":"levelo_inurba_marseille","lat":43.32336,"lon":5.36733,"is_reserved":false,"is_disabled":false,"rental_uris":{"android":"levelo://app?vid=d1248e4b-c241-4185-9668-62cef44fb4ea","ios":"levelo://app?vid=d1248e4b-c241-4185-9668-62cef44fb4ea"},"vehicle_type_id":"4","last_reported":1769192329,"current_range_meters":8000,"station_id":"ce4bhsh2rcd13ifvqi2g","pricing_plan_id":"cebpf4jnsgd1na2vs0mg"},{"bike_id":"9efed3b6-c2c5-42d9-aec2-08a345e6ba87","system_id":"levelo_inurba_marseille","lat":43.26347,"lon":5.41072,"is_reserved":false,"is_disabled":false,"rental_uris":{"android":"levelo://app?vid=9efed3b6-c2c5-42d9-aec2-08a345e6ba87","ios":"levelo://app?vid=9efed3b6-c2c5-42d9-aec2-08a345e6ba87"},"vehicle_type_id":"4","last_reported":1769192329,"current_range_meters":8000,"station_id":"st_d4e5ca6na9uc73bfl5fg","pricing_plan_id":"cebpf4jnsgd1na2vs0mg"},{"bike_id":"57b43f2a-3d06-4b94-a5cb-9405fbbf5392","system_id":"levelo_inurba_marseille","lat":43.30159,"lon":5.38088,"is_reserved":false,"is_disabled":false,"rental_uris":{"android":"levelo://app?vid=57b43f2a-3d06-4b94-a5cb-9405fbbf5392","ios":"levelo://app?vid=57b43f2a-3d06-4b94-a5cb-9405fbbf5392"},"vehicle_type_id":"4","last_reported":1769192329,"current_range_meters":8000,"station_id":"ce4bgjp2rcd13ifvqbh0","pricing_plan_id":"cebpf4jnsgd1na2vs0mg"},{"bike_id":"6e591a18-3633-4f7c-b4dd-aa11c4b92c0d","system_id":"levelo_inurba_marseille","lat":43.28856,"lon":5.39306,"is_reserved":false,"is_disabled":false,"rental_uris":{"android":"levelo://app?vid=6e591a18-3633-4f7c-b4dd-aa11c4b92c0d","ios":"levelo://app?vid=6e591a18-3633-4f7c-b4dd-aa11c4b92c0d"},"vehicle_type_id":"4","last_reported":1769192329,"current_range_meters":8000,"station_id":"ce4bh2p2rcd13ifvqdi0","pricing_plan_id":"cebpf4jnsgd1na2vs0mg"},{"bike_id":"f09a007a-4412-4469-bcac-9617ac38e72f","system_id":"levelo_inurba_marseille","lat":43.27946,"lon":5.41053,"is_reserved":false,"is_disabled":false,"rental_uris":{"android":"levelo://app?vid=f09a007a-4412-4469-bcac-9617ac38e72f","ios":"levelo://app?vid=f09a007a-4412-4469-bcac-9617ac38e72f"},"vehicle_type_id":"4","last_reported":1769192329,"current_range_meters":8000,"station_id":"ce4bhnp2rcd13ifvqh0g","pricing_plan_id":"cebpf4jnsgd1na2vs0mg"},{"bike_id":"e26b1d0a-2ec5-4a6d-9519-76f69da67bd8","system_id":"levelo_inurba_marseille","lat":43.284969,"lon":5.385192,"is_reserved":false,"is_disabled":false,"rental_uris":{"android":"levelo://app?vid=e26b1d0a-2ec5-4a6d-9519-76f69da67bd8","ios":"levelo://app?vid=e26b1d0a-2ec5-4a6d-9519-76f69da67bd8"},"vehicle_type_id":"4","last_reported":1769192329,"current_range_meters":8000,"station_id":"ce4bh8p2rcd13ifvqeb0","pricing_plan_id":"cebpf4jnsgd1na2vs0mg"},{"bike_id":"c9389fd4-af01-4458-ab7b-0fb1fe06acd7","system_id":"levelo_inurba_marseille","lat":43.2313,"lon":5.43768,"is_reserved":false,"is_disabled":false,"rental_uris":{"android":"levelo://app?vid=c9389fd4-af01-4458-ab7b-0fb1fe06acd7","ios":"levelo://app?vid=c9389fd4-af01-4458-ab7b-0fb1fe06acd7"},"vehicle_type_id":"4","last_reported":1769192329,"current_range_meters":8000,"station_id":"","pricing_plan_id":"cebpf4jnsgd1na2vs0mg"},{"bike_id":"8c62329e-71c2-4f7a-81bf-708e91fc92be","system_id":"levelo_inurba_marseille","lat":43.24903,"lon":5.38979,"is_reserved":false,"is_disabled":true,"rental_uris":{"android":"levelo://app?vid=8c62329e-71c2-4f7a-81bf-708e91fc92be","ios":"levelo://app?vid=8c62329e-71c2-4f7a-81bf-708e91fc92be"},"vehicle_type_id":"4","last_reported":1769192329,"current_range_meters":8000,"station_id":"","pricing_plan_id":"cebpf4jnsgd1na2vs0mg"},{"bike_id":"967bf1a6-f12f-4f9c-97c9-c72a9a2c3559","system_id":"levelo_inurba_marseille","lat":43.23178,"lon":5.39985,"is_reserved":false,"is_disabled":false,"rental_uris":{"android":"levelo://app?vid=967bf1a6-f12f-4f9c-97c9-c72a9a2c3559","ios":"levelo://app?vid=967bf1a6-f12f-4f9c-97c9-c72a9a2c3559"},"vehicle_type_id":"4","last_reported":1769192329,"current_range_meters":8000,"station_id":"ce4bhn12rcd13ifvqgqg","pricing_plan_id":"cebpf4jnsgd1na2vs0mg"},{"bike_id":"242c68f1-6b62-4a57-bfce-28531eca4eaf","system_id":"levelo_inurba_marseille","lat":43.29698,"lon":5.42767,"is_reserved":false,"is_disabled":false,"rental_uris":{"android":"levelo://app?vid=242c68f1-6b62-4a57-bfce-28531eca4eaf","ios":"levelo://app?vid=242c68f1-6b62-4a57-bfce-28531eca4eaf"},"vehicle_type_id":"4","last_reported":1769192329,"current_range_meters":8000,"station_id":"st_d3md5207bmas73dh9klg","pricing_plan_id":"cebpf4jnsgd1na2vs0mg"},{"bike_id":"9610a3a8-a0cb-4f50-91d5-011de8a06a00","system_id":"levelo_inurba_marseille","lat":43.321132,"lon":5.367695,"is_reserved":false,"is_disabled":false,"rental_uris":{"android":"levelo://app?vid=9610a3a8-a0cb-4f50-91d5-011de8a06a00","ios":"levelo://app?vid=9610a3a8-a0cb-4f50-91d5-011de8a06a00"},"vehicle_type_id":"4","last_reported":1769192329,"current_range_meters":8400,"station_id":"ce4bhrh2rcd13ifvqhug","pricing_plan_id":"cebpf4jnsgd1na2vs0mg"},{"bike_id":"769eba54-6c68-421c-bade-c73118996ec3","system_id":"levelo_inurba_marseille","lat":43.286116,"lon":5.403669,"is_reserved":false,"is_disabled":false,"rental_uris":{"android":"levelo://app?vid=769eba54-6c68-421c-bade-c73118996ec3","ios":"levelo://app?vid=769eba54-6c68-421c-bade-c73118996ec3"},"vehicle_type_id":"4","last_reported":1769192329,"current_range_meters":8400,"station_id":"","pricing_plan_id":"cebpf4jnsgd1na2vs0mg"},{"bike_id":"4c1fdf20-a997-4ecb-bc80-5899c8da4485","system_id":"levelo_inurba_marseille","lat":43.2953,"lon":5.38543,"is_reserved":false,"is_disabled":false,"rental_uris":{"android":"levelo://app?vid=4c1fdf20-a997-4ecb-bc80-5899c8da4485","ios":"levelo://app?vid=4c1fdf20-a997-4ecb-bc80-5899c8da4485"},"vehicle_type_id":"4","last_reported":1769192329,"current_range_meters":8400,"station_id":"ce4bgih2rcd13ifvqba0","pricing_plan_id":"cebpf4jnsgd1na2vs0mg"},{"bike_id":"640121a6-98f3-4df3-8ec4-d218eca026e4","system_id":"levelo_inurba_marseille","lat":43.241692,"lon":5.363868,"is_reserved":false,"is_disabled":false,"rental_uris":{"android":"levelo://app?vid=640121a6-98f3-4df3-8ec4-d218eca026e4","ios":"levelo://app?vid=640121a6-98f3-4df3-8ec4-d218eca026e4"},"vehicle_type_id":"4","last_reported":1769192329,"current_range_meters":8400,"station_id":"cpo36qri1sfpv3e86is0","pricing_plan_id":"cebpf4jnsgd1na2vs0mg"},{"bike_id":"15ce2f7b-e27b-4b73-b1d7-521910c86f00","system_id":"levelo_inurba_marseille","lat":43.28488,"lon":5.48378,"is_reserved":false,"is_disabled":false,"rental_uris":{"android":"levelo://app?vid=15ce2f7b-e27b-4b73-b1d7-521910c86f00","ios":"levelo://app?vid=15ce2f7b-e27b-4b73-b1d7-521910c86f00"},"vehicle_type_id":"4","last_reported":1769192329,"current_range_meters":8400,"station_id":"st_d3svhcjqgbts73a3dn0g","pricing_plan_id":"cebpf4jnsgd1na2vs0mg"},{"bike_id":"42258f14-4722-4aac-b949-245a1ef55bb3","system_id":"levelo_inurba_marseille","lat":43.229298,"lon":5.353725,"is_reserved":false,"is_disabled":false,"rental_uris":{"android":"levelo://app?vid=42258f14-4722-4aac-b949-245a1ef55bb3","ios":"levelo://app?vid=42258f14-4722-4aac-b949-245a1ef55bb3"},"vehicle_type_id":"4","last_reported":1769192329,"current_range_meters":8400,"station_id":"cpo3532slgdg3j2ikp40","pricing_plan_id":"cebpf4jnsgd1na2vs0mg"},{"bike_id":"16525725-a4c4-4bd9-9925-eb9b950936aa","system_id":"levelo_inurba_marseille","lat":43.269286,"lon":5.390779,"is_reserved":false,"is_disabled":false,"rental_uris":{"android":"levelo://app?vid=16525725-a4c4-4bd9-9925-eb9b950936aa","ios":"levelo://app?vid=16525725-a4c4-4bd9-9925-eb9b950936aa"},"vehicle_type_id":"4","last_reported":1769192329,"current_range_meters":8400,"station_id":"","pricing_plan_id":"cebpf4jnsgd1na2vs0mg"},{"bike_id":"f9a9942f-2b8c-4b2e-91ad-50a9e46645a4","system_id":"levelo_inurba_marseille","lat":43.30966,"lon":5.37802,"is_reserved":false,"is_disabled":false,"rental_uris":{"android":"levelo://app?vid=f9a9942f-2b8c-4b2e-91ad-50a9e46645a4","ios":"levelo://app?vid=f9a9942f-2b8c-4b2e-91ad-50a9e46645a4"},"vehicle_type_id":"4","last_reported":1769192329,"current_range_meters":8400,"station_id":"","pricing_plan_id":"cebpf4jnsgd1na2vs0mg"},{"bike_id":"dd178b0d-57a2-42e1-8a69-79f640f4f2cc","system_id":"levelo_inurba_marseille","lat":43.33398,"lon":5.39416,"is_reserved":false,"is_disabled":false,"rental_uris":{"android":"levelo://app?vid=dd178b0d-57a2-42e1-8a69-79f640f4f2cc","ios":"levelo://app?vid=dd178b0d-57a2-42e1-8a69-79f640f4f2cc"},"vehicle_type_id":"4","last_reported":1769192329,"current_range_meters":8400,"station_id":"","pricing_plan_id":"cebpf4jnsgd1na2vs0mg"},{"bike_id":"4b0316ea-27ea-4d2a-a724-4105b3bc29c7","system_id":"levelo_inurba_marseille","lat":43.23142,"lon":5.43705,"is_reserved":false,"is_disabled":false,"rental_uris":{"android":"levelo://app?vid=4b0316ea-27ea-4d2a-a724-4105b3bc29c7","ios":"levelo://app?vid=4b0316ea-27ea-4d2a-a724-4105b3bc29c7"},"vehicle_type_id":"4","last_reported":1769192329,"current_range_meters":8400,"station_id":"ce4bhmp2rcd13ifvqgog","pricing_plan_id":"cebpf4jnsgd1na2vs0mg"},{"bike_id":"269dba95-abd7-4cfd-ba9a-e67805768849","system_id":"levelo_inurba_marseille","lat":43.28609,"lon":5.35111,"is_reserved":false,"is_disabled":false,"rental_uris":{"android":"levelo://app?vid=269dba95-abd7-4cfd-ba9a-e67805768849","ios":"levelo://app?vid=269dba95-abd7-4cfd-ba9a-e67805768849"},"vehicle_type_id":"4","last_reported":1769192329,"current_range_meters":8400,"station_id":"","pricing_plan_id":"cebpf4jnsgd1na2vs0mg"},{"bike_id":"e4c4f5dd-c80d-4d75-801c-35c973416425","system_id":"levelo_inurba_marseille","lat":43.26571,"lon":5.3725,"is_reserved":false,"is_disabled":false,"rental_uris":{"android":"levelo://app?vid=e4c4f5dd-c80d-4d75-801c-35c973416425","ios":"levelo://app?vid=e4c4f5dd-c80d-4d75-801c-35c973416425"},"vehicle_type_id":"4","last_reported":1769192329,"current_range_meters":8800,"station_id":"ce4bhg12rcd13ifvqf70","pricing_plan_id":"cebpf4jnsgd1na2vs0mg"},{"bike_id":"0e7c9739-7c0b-462d-b69e-90718e9a5775","system_id":"levelo_inurba_marseille","lat":43.26558,"lon":5.37293,"is_reserved":false,"is_disabled":false,"rental_uris":{"android":"levelo://app?vid=0e7c9739-7c0b-462d-b69e-90718e9a5775","ios":"levelo://app?vid=0e7c9739-7c0b-462d-b69e-90718e9a5775"},"vehicle_type_id":"4","last_reported":1769192329,"current_range_meters":8800,"station_id":"ce4bhg12rcd13ifvqf70","pricing_plan_id":"cebpf4jnsgd1na2vs0mg"},{"bike_id":"0dc9dc39-9a79-4974-b3ae-9c8631cf059e","system_id":"levelo_inurba_marseille","lat":43.23997,"lon":5.39585,"is_reserved":false,"is_disabled":false,"rental_uris":{"android":"levelo://app?vid=0dc9dc39-9a79-4974-b3ae-9c8631cf059e","ios":"levelo://app?vid=0dc9dc39-9a79-4974-b3ae-9c8631cf059e"},"vehicle_type_id":"4","last_reported":1769192329,"current_range_meters":8800,"station_id":"","pricing_plan_id":"cebpf4jnsgd1na2vs0mg"},{"bike_id":"10c585ec-0d69-49bc-a403-a71e7446105a","system_id":"levelo_inurba_marseille","lat":43.24864,"lon":5.39699,"is_reserved":false,"is_disabled":false,"rental_uris":{"android":"levelo://app?vid=10c585ec-0d69-49bc-a403-a71e7446105a","ios":"levelo://app?vid=10c585ec-0d69-49bc-a403-a71e7446105a"},"vehicle_type_id":"4","last_reported":1769192329,"current_range_meters":8800,"station_id":"","pricing_plan_id":"cebpf4jnsgd1na2vs0mg"},{"bike_id":"7c7cc252-7f4f-4ac1-8175-44f20e46ac77","system_id":"levelo_inurba_marseille","lat":43.26734,"lon":5.40185,"is_reserved":false,"is_disabled":false,"rental_uris":{"android":"levelo://app?vid=7c7cc252-7f4f-4ac1-8175-44f20e46ac77","ios":"levelo://app?vid=7c7cc252-7f4f-4ac1-8175-44f20e46ac77"},"vehicle_type_id":"4","last_reported":1769192329,"current_range_meters":8800,"station_id":"","pricing_plan_id":"cebpf4jnsgd1na2vs0mg"},{"bike_id":"17ed46bf-b051-47fc-a887-339e35ccca50","system_id":"levelo_inurba_marseille","lat":43.29041,"lon":5.37565,"is_reserved":false,"is_disabled":false,"rental_uris":{"android":"levelo://app?vid=17ed46bf-b051-47fc-a887-339e35ccca50","ios":"levelo://app?vid=17ed46bf-b051-47fc-a887-339e35ccca50"},"vehicle_type_id":"4","last_reported":1769192329,"current_range_meters":8800,"station_id":"ce4bh692rcd13ifvqe90","pricing_plan_id":"cebpf4jnsgd1na2vs0mg"},{"bike_id":"05d1c121-28b2-4089-b97e-95b3b06f8585","system_id":"levelo_inurba_marseille","lat":43.31433,"lon":5.37053,"is_reserved":false,"is_disabled":false,"rental_uris":{"android":"levelo://app?vid=05d1c121-28b2-4089-b97e-95b3b06f8585","ios":"levelo://app?vid=05d1c121-28b2-4089-b97e-95b3b06f8585"},"vehicle_type_id":"4","last_reported":1769192329,"current_range_meters":8800,"station_id":"","pricing_plan_id":"cebpf4jnsgd1na2vs0mg"},{"bike_id":"1b139ae1-6ca0-4d07-883d-20a8cc24d754","system_id":"levelo_inurba_marseille","lat":43.3127,"lon":5.4017,"is_reserved":false,"is_disabled":false,"rental_uris":{"android":"levelo://app?vid=1b139ae1-6ca0-4d07-883d-20a8cc24d754","ios":"levelo://app?vid=1b139ae1-6ca0-4d07-883d-20a8cc24d754"},"vehicle_type_id":"4","last_reported":1769192329,"current_range_meters":8800,"station_id":"ce4bh092rcd13ifvqd30","pricing_plan_id":"cebpf4jnsgd1na2vs0mg"},{"bike_id":"e3bf064c-53bb-4e5e-a214-36779e2347bf","system_id":"levelo_inurba_marseille","lat":43.27983,"lon":5.41665,"is_reserved":false,"is_disabled":false,"rental_uris":{"android":"levelo://app?vid=e3bf064c-53bb-4e5e-a214-36779e2347bf","ios":"levelo://app?vid=e3bf064c-53bb-4e5e-a214-36779e2347bf"},"vehicle_type_id":"4","last_reported":1769192329,"current_range_meters":8800,"station_id":"ce4bho12rcd13ifvqh1g","pricing_plan_id":"cebpf4jnsgd1na2vs0mg"},{"bike_id":"b4e29a7e-d5c4-4c5b-a215-e2fc2ce4b0e3","system_id":"levelo_inurba_marseille","lat":43.30144,"lon":5.38085,"is_reserved":false,"is_disabled":false,"rental_uris":{"android":"levelo://app?vid=b4e29a7e-d5c4-4c5b-a215-e2fc2ce4b0e3","ios":"levelo://app?vid=b4e29a7e-d5c4-4c5b-a215-e2fc2ce4b0e3"},"vehicle_type_id":"4","last_reported":1769192329,"current_range_meters":8800,"station_id":"ce4bgjp2rcd13ifvqbh0","pricing_plan_id":"cebpf4jnsgd1na2vs0mg"},{"bike_id":"9c4b870d-360e-4ca8-8012-c0b57cd72dc9","system_id":"levelo_inurba_marseille","lat":43.30337,"lon":5.40452,"is_reserved":false,"is_disabled":false,"rental_uris":{"android":"levelo://app?vid=9c4b870d-360e-4ca8-8012-c0b57cd72dc9","ios":"levelo://app?vid=9c4b870d-360e-4ca8-8012-c0b57cd72dc9"},"vehicle_type_id":"4","last_reported":1769192329,"current_range_meters":8800,"station_id":"ce4bh012rcd13ifvqd10","pricing_plan_id":"cebpf4jnsgd1na2vs0mg"},{"bike_id":"514778f3-cb3c-44e7-bfaa-f93fb491b5fc","system_id":"levelo_inurba_marseille","lat":43.25005,"lon":5.38917,"is_reserved":false,"is_disabled":false,"rental_uris":{"android":"levelo://app?vid=514778f3-cb3c-44e7-bfaa-f93fb491b5fc","ios":"levelo://app?vid=514778f3-cb3c-44e7-bfaa-f93fb491b5fc"},"vehicle_type_id":"4","last_reported":1769192329,"current_range_meters":8800,"station_id":"ce4bhgp2rcd13ifvqfd0","pricing_plan_id":"cebpf4jnsgd1na2vs0mg"},{"bike_id":"631483d0-ada8-4ace-8a32-eb461cd8070c","system_id":"levelo_inurba_marseille","lat":43.30552,"lon":5.36716,"is_reserved":false,"is_disabled":false,"rental_uris":{"android":"levelo://app?vid=631483d0-ada8-4ace-8a32-eb461cd8070c","ios":"levelo://app?vid=631483d0-ada8-4ace-8a32-eb461cd8070c"},"vehicle_type_id":"4","last_reported":1769192329,"current_range_meters":8800,"station_id":"ce4bgrp2rcd13ifvqc9g","pricing_plan_id":"cebpf4jnsgd1na2vs0mg"},{"bike_id":"659801ea-543c-4468-8b42-99ee594819ce","system_id":"levelo_inurba_marseille","lat":43.30916,"lon":5.39624,"is_reserved":false,"is_disabled":true,"rental_uris":{"android":"levelo://app?vid=659801ea-543c-4468-8b42-99ee594819ce","ios":"levelo://app?vid=659801ea-543c-4468-8b42-99ee594819ce"},"vehicle_type_id":"4","last_reported":1769192329,"current_range_meters":8800,"station_id":"ce4bh012rcd13ifvqcv0","pricing_plan_id":"cebpf4jnsgd1na2vs0mg"},{"bike_id":"6985bdab-f92b-457f-b504-204355252882","system_id":"levelo_inurba_marseille","lat":43.29544,"lon":5.39039,"is_reserved":false,"is_disabled":false,"rental_uris":{"android":"levelo://app?vid=6985bdab-f92b-457f-b504-204355252882","ios":"levelo://app?vid=6985bdab-f92b-457f-b504-204355252882"},"vehicle_type_id":"4","last_reported":1769192329,"current_range_meters":8800,"station_id":"ce4bh3p2rcd13ifvqdp0","pricing_plan_id":"cebpf4jnsgd1na2vs0mg"},{"bike_id":"2e2ce66a-3f89-4c21-a9df-34056a5a5860","system_id":"levelo_inurba_marseille","lat":43.22566,"lon":5.41632,"is_reserved":false,"is_disabled":false,"rental_uris":{"android":"levelo://app?vid=2e2ce66a-3f89-4c21-a9df-34056a5a5860","ios":"levelo://app?vid=2e2ce66a-3f89-4c21-a9df-34056a5a5860"},"vehicle_type_id":"4","last_reported":1769192329,"current_range_meters":8800,"station_id":"st_d2o4gvlbi1j2169b742g","pricing_plan_id":"cebpf4jnsgd1na2vs0mg"},{"bike_id":"2643a63e-019b-4042-82de-c960cec8d68f","system_id":"levelo_inurba_marseille","lat":43.29227,"lon":5.36069,"is_reserved":false,"is_disabled":false,"rental_uris":{"android":"levelo://app?vid=2643a63e-019b-4042-82de-c960cec8d68f","ios":"levelo://app?vid=2643a63e-019b-4042-82de-c960cec8d68f"},"vehicle_type_id":"4","last_reported":1769192329,"current_range_meters":8800,"station_id":"ce4bhbh2rcd13ifvqeqg","pricing_plan_id":"cebpf4jnsgd1na2vs0mg"},{"bike_id":"7a1b6b69-5f61-4e11-91d3-12cf02858ca8","system_id":"levelo_inurba_marseille","lat":43.243915,"lon":5.370645,"is_reserved":false,"is_disabled":false,"rental_uris":{"android":"levelo://app?vid=7a1b6b69-5f61-4e11-91d3-12cf02858ca8","ios":"levelo://app?vid=7a1b6b69-5f61-4e11-91d3-12cf02858ca8"},"vehicle_type_id":"4","last_reported":1769192329,"current_range_meters":9200,"station_id":"ce4bhhh2rcd13ifvqfk0","pricing_plan_id":"cebpf4jnsgd1na2vs0mg"},{"bike_id":"0067e0af-5ba0-4b0d-a268-ed0ed9e19547","system_id":"levelo_inurba_marseille","lat":43.323513,"lon":5.367546,"is_reserved":false,"is_disabled":false,"rental_uris":{"android":"levelo://app?vid=0067e0af-5ba0-4b0d-a268-ed0ed9e19547","ios":"levelo://app?vid=0067e0af-5ba0-4b0d-a268-ed0ed9e19547"},"vehicle_type_id":"4","last_reported":1769192329,"current_range_meters":9200,"station_id":"ce4bhsh2rcd13ifvqi2g","pricing_plan_id":"cebpf4jnsgd1na2vs0mg"},{"bike_id":"994cd074-f869-4813-80d0-fd8e13f5f341","system_id":"levelo_inurba_marseille","lat":43.29934,"lon":5.36533,"is_reserved":false,"is_disabled":false,"rental_uris":{"android":"levelo://app?vid=994cd074-f869-4813-80d0-fd8e13f5f341","ios":"levelo://app?vid=994cd074-f869-4813-80d0-fd8e13f5f341"},"vehicle_type_id":"4","last_reported":1769192329,"current_range_meters":9200,"station_id":"ce4bgm92rcd13ifvqbr0","pricing_plan_id":"cebpf4jnsgd1na2vs0mg"},{"bike_id":"718d5db1-dc44-4b74-8e82-1e977ee8f15e","system_id":"levelo_inurba_marseille","lat":43.25111,"lon":5.40452,"is_reserved":false,"is_disabled":false,"rental_uris":{"android":"levelo://app?vid=718d5db1-dc44-4b74-8e82-1e977ee8f15e","ios":"levelo://app?vid=718d5db1-dc44-4b74-8e82-1e977ee8f15e"},"vehicle_type_id":"4","last_reported":1769192329,"current_range_meters":9200,"station_id":"","pricing_plan_id":"cebpf4jnsgd1na2vs0mg"},{"bike_id":"e23cf0d7-ceb2-4f07-9738-5a8d2636b1de","system_id":"levelo_inurba_marseille","lat":43.30173,"lon":5.40065,"is_reserved":false,"is_disabled":false,"rental_uris":{"android":"levelo://app?vid=e23cf0d7-ceb2-4f07-9738-5a8d2636b1de","ios":"levelo://app?vid=e23cf0d7-ceb2-4f07-9738-5a8d2636b1de"},"vehicle_type_id":"4","last_reported":1769192329,"current_range_meters":9200,"station_id":"","pricing_plan_id":"cebpf4jnsgd1na2vs0mg"},{"bike_id":"5ef0fcdb-b107-4dbb-97e8-c66d13c4cf00","system_id":"levelo_inurba_marseille","lat":43.28081,"lon":5.39658,"is_reserved":false,"is_disabled":false,"rental_uris":{"android":"levelo://app?vid=5ef0fcdb-b107-4dbb-97e8-c66d13c4cf00","ios":"levelo://app?vid=5ef0fcdb-b107-4dbb-97e8-c66d13c4cf00"},"vehicle_type_id":"4","last_reported":1769192329,"current_range_meters":9200,"station_id":"ce4bho12rcd13ifvqh2g","pricing_plan_id":"cebpf4jnsgd1na2vs0mg"},{"bike_id":"8f72bfe4-ee21-4ee8-b70c-bdb39befee0d","system_id":"levelo_inurba_marseille","lat":43.2319,"lon":5.39988,"is_reserved":false,"is_disabled":false,"rental_uris":{"android":"levelo://app?vid=8f72bfe4-ee21-4ee8-b70c-bdb39befee0d","ios":"levelo://app?vid=8f72bfe4-ee21-4ee8-b70c-bdb39befee0d"},"vehicle_type_id":"4","last_reported":1769192329,"current_range_meters":9200,"station_id":"ce4bhn12rcd13ifvqgqg","pricing_plan_id":"cebpf4jnsgd1na2vs0mg"},{"bike_id":"89d2f176-9210-47d4-8e8a-9009973231fc","system_id":"levelo_inurba_marseille","lat":43.313562,"lon":5.367025,"is_reserved":false,"is_disabled":false,"rental_uris":{"android":"levelo://app?vid=89d2f176-9210-47d4-8e8a-9009973231fc","ios":"levelo://app?vid=89d2f176-9210-47d4-8e8a-9009973231fc"},"vehicle_type_id":"4","last_reported":1769192329,"current_range_meters":9200,"station_id":"ce4bgr92rcd13ifvqc6g","pricing_plan_id":"cebpf4jnsgd1na2vs0mg"},{"bike_id":"666eb9ec-3e25-4ddc-b189-f89b7bd0381b","system_id":"levelo_inurba_marseille","lat":43.29862,"lon":5.38901,"is_reserved":false,"is_disabled":false,"rental_uris":{"android":"levelo://app?vid=666eb9ec-3e25-4ddc-b189-f89b7bd0381b","ios":"levelo://app?vid=666eb9ec-3e25-4ddc-b189-f89b7bd0381b"},"vehicle_type_id":"4","last_reported":1769192329,"current_range_meters":9200,"station_id":"ce4bh392rcd13ifvqdl0","pricing_plan_id":"cebpf4jnsgd1na2vs0mg"},{"bike_id":"859c0b56-daf9-47de-8a3d-a09ddfbed08a","system_id":"levelo_inurba_marseille","lat":43.2499,"lon":5.38948,"is_reserved":false,"is_disabled":false,"rental_uris":{"android":"levelo://app?vid=859c0b56-daf9-47de-8a3d-a09ddfbed08a","ios":"levelo://app?vid=859c0b56-daf9-47de-8a3d-a09ddfbed08a"},"vehicle_type_id":"4","last_reported":1769192329,"current_range_meters":9200,"station_id":"ce4bhgp2rcd13ifvqfd0","pricing_plan_id":"cebpf4jnsgd1na2vs0mg"},{"bike_id":"d53aa9d5-2a5b-4c87-a2ec-7bd3f4bf9eba","system_id":"levelo_inurba_marseille","lat":43.25007,"lon":5.38911,"is_reserved":false,"is_disabled":false,"rental_uris":{"android":"levelo://app?vid=d53aa9d5-2a5b-4c87-a2ec-7bd3f4bf9eba","ios":"levelo://app?vid=d53aa9d5-2a5b-4c87-a2ec-7bd3f4bf9eba"},"vehicle_type_id":"4","last_reported":1769192329,"current_range_meters":9200,"station_id":"ce4bhgp2rcd13ifvqfd0","pricing_plan_id":"cebpf4jnsgd1na2vs0mg"},{"bike_id":"a29cba55-8f7c-4a88-ad88-59a927c2ecce","system_id":"levelo_inurba_marseille","lat":43.27945,"lon":5.41042,"is_reserved":false,"is_disabled":false,"rental_uris":{"android":"levelo://app?vid=a29cba55-8f7c-4a88-ad88-59a927c2ecce","ios":"levelo://app?vid=a29cba55-8f7c-4a88-ad88-59a927c2ecce"},"vehicle_type_id":"4","last_reported":1769192329,"current_range_meters":9200,"station_id":"ce4bhnp2rcd13ifvqh0g","pricing_plan_id":"cebpf4jnsgd1na2vs0mg"},{"bike_id":"45bb63fe-8270-4a18-9d30-feedae2fa6a6","system_id":"levelo_inurba_marseille","lat":43.268242,"lon":5.384408,"is_reserved":false,"is_disabled":false,"rental_uris":{"android":"levelo://app?vid=45bb63fe-8270-4a18-9d30-feedae2fa6a6","ios":"levelo://app?vid=45bb63fe-8270-4a18-9d30-feedae2fa6a6"},"vehicle_type_id":"4","last_reported":1769192329,"current_range_meters":9200,"station_id":"","pricing_plan_id":"cebpf4jnsgd1na2vs0mg"},{"bike_id":"4eb8d9bf-ea58-4289-bcf7-355724722011","system_id":"levelo_inurba_marseille","lat":43.24755,"lon":5.40013,"is_reserved":false,"is_disabled":false,"rental_uris":{"android":"levelo://app?vid=4eb8d9bf-ea58-4289-bcf7-355724722011","ios":"levelo://app?vid=4eb8d9bf-ea58-4289-bcf7-355724722011"},"vehicle_type_id":"4","last_reported":1769192329,"current_range_meters":9200,"station_id":"","pricing_plan_id":"cebpf4jnsgd1na2vs0mg"},{"bike_id":"16d6a870-eb7c-4203-858d-a53c0bbe1ec8","system_id":"levelo_inurba_marseille","lat":43.27812,"lon":5.40704,"is_reserved":false,"is_disabled":false,"rental_uris":{"android":"levelo://app?vid=16d6a870-eb7c-4203-858d-a53c0bbe1ec8","ios":"levelo://app?vid=16d6a870-eb7c-4203-858d-a53c0bbe1ec8"},"vehicle_type_id":"4","last_reported":1769192329,"current_range_meters":9200,"station_id":"ce4bhnh2rcd13ifvqgtg","pricing_plan_id":"cebpf4jnsgd1na2vs0mg"},{"bike_id":"368348bd-6599-4124-8c2b-724ba5ec77de","system_id":"levelo_inurba_marseille","lat":43.25217,"lon":5.38058,"is_reserved":false,"is_disabled":false,"rental_uris":{"android":"levelo://app?vid=368348bd-6599-4124-8c2b-724ba5ec77de","ios":"levelo://app?vid=368348bd-6599-4124-8c2b-724ba5ec77de"},"vehicle_type_id":"4","last_reported":1769192329,"current_range_meters":9200,"station_id":"","pricing_plan_id":"cebpf4jnsgd1na2vs0mg"},{"bike_id":"325d6000-e7a8-417c-aa29-6d5b58f2d9fb","system_id":"levelo_inurba_marseille","lat":43.29607,"lon":5.37183,"is_reserved":false,"is_disabled":false,"rental_uris":{"android":"levelo://app?vid=325d6000-e7a8-417c-aa29-6d5b58f2d9fb","ios":"levelo://app?vid=325d6000-e7a8-417c-aa29-6d5b58f2d9fb"},"vehicle_type_id":"4","last_reported":1769192329,"current_range_meters":9200,"station_id":"ce4bgnh2rcd13ifvqc0g","pricing_plan_id":"cebpf4jnsgd1na2vs0mg"},{"bike_id":"54247625-5421-4985-8cfb-4f29ba1ac252","system_id":"levelo_inurba_marseille","lat":43.31658,"lon":5.37654,"is_reserved":false,"is_disabled":false,"rental_uris":{"android":"levelo://app?vid=54247625-5421-4985-8cfb-4f29ba1ac252","ios":"levelo://app?vid=54247625-5421-4985-8cfb-4f29ba1ac252"},"vehicle_type_id":"4","last_reported":1769192329,"current_range_meters":9200,"station_id":"","pricing_plan_id":"cebpf4jnsgd1na2vs0mg"},{"bike_id":"2c2055ba-db74-478c-91d5-55a6dd91d5a0","system_id":"levelo_inurba_marseille","lat":43.30413,"lon":5.37909,"is_reserved":false,"is_disabled":false,"rental_uris":{"android":"levelo://app?vid=2c2055ba-db74-478c-91d5-55a6dd91d5a0","ios":"levelo://app?vid=2c2055ba-db74-478c-91d5-55a6dd91d5a0"},"vehicle_type_id":"4","last_reported":1769192329,"current_range_meters":9600,"station_id":"","pricing_plan_id":"cebpf4jnsgd1na2vs0mg"},{"bike_id":"00017738-b4c1-47b3-8105-45d98f09854a","system_id":"levelo_inurba_marseille","lat":43.32114,"lon":5.36761,"is_reserved":false,"is_disabled":false,"rental_uris":{"android":"levelo://app?vid=00017738-b4c1-47b3-8105-45d98f09854a","ios":"levelo://app?vid=00017738-b4c1-47b3-8105-45d98f09854a"},"vehicle_type_id":"4","last_reported":1769192329,"current_range_meters":9600,"station_id":"ce4bhrh2rcd13ifvqhug","pricing_plan_id":"cebpf4jnsgd1na2vs0mg"},{"bike_id":"ce91f19c-6b5f-4475-ac98-6aba43530cf5","system_id":"levelo_inurba_marseille","lat":43.24999,"lon":5.38921,"is_reserved":false,"is_disabled":false,"rental_uris":{"android":"levelo://app?vid=ce91f19c-6b5f-4475-ac98-6aba43530cf5","ios":"levelo://app?vid=ce91f19c-6b5f-4475-ac98-6aba43530cf5"},"vehicle_type_id":"4","last_reported":1769192329,"current_range_meters":9600,"station_id":"ce4bhgp2rcd13ifvqfd0","pricing_plan_id":"cebpf4jnsgd1na2vs0mg"},{"bike_id":"21f6fd5f-51e0-4ace-adf3-8e7223e07642","system_id":"levelo_inurba_marseille","lat":43.298951,"lon":5.436643,"is_reserved":false,"is_disabled":false,"rental_uris":{"android":"levelo://app?vid=21f6fd5f-51e0-4ace-adf3-8e7223e07642","ios":"levelo://app?vid=21f6fd5f-51e0-4ace-adf3-8e7223e07642"},"vehicle_type_id":"4","last_reported":1769192329,"current_range_meters":9600,"station_id":"ce4bhpp2rcd13ifvqhfg","pricing_plan_id":"cebpf4jnsgd1na2vs0mg"},{"bike_id":"3df1c2ce-b029-4e4a-acf7-75de203dd298","system_id":"levelo_inurba_marseille","lat":43.2496,"lon":5.40491,"is_reserved":false,"is_disabled":false,"rental_uris":{"android":"levelo://app?vid=3df1c2ce-b029-4e4a-acf7-75de203dd298","ios":"levelo://app?vid=3df1c2ce-b029-4e4a-acf7-75de203dd298"},"vehicle_type_id":"4","last_reported":1769192329,"current_range_meters":9600,"station_id":"st_d2ngiaodas8pm72gd1h0","pricing_plan_id":"cebpf4jnsgd1na2vs0mg"},{"bike_id":"a6e7f007-92c5-472d-88bc-ebc325f4eccf","system_id":"levelo_inurba_marseille","lat":43.29191,"lon":5.39315,"is_reserved":false,"is_disabled":false,"rental_uris":{"android":"levelo://app?vid=a6e7f007-92c5-472d-88bc-ebc325f4eccf","ios":"levelo://app?vid=a6e7f007-92c5-472d-88bc-ebc325f4eccf"},"vehicle_type_id":"4","last_reported":1769192329,"current_range_meters":9600,"station_id":"ce4bh192rcd13ifvqdd0","pricing_plan_id":"cebpf4jnsgd1na2vs0mg"},{"bike_id":"98ce3a91-bb68-49dc-9094-facdbdc00ca7","system_id":"levelo_inurba_marseille","lat":43.2818,"lon":5.4263,"is_reserved":false,"is_disabled":false,"rental_uris":{"android":"levelo://app?vid=98ce3a91-bb68-49dc-9094-facdbdc00ca7","ios":"levelo://app?vid=98ce3a91-bb68-49dc-9094-facdbdc00ca7"},"vehicle_type_id":"4","last_reported":1769192329,"current_range_meters":9600,"station_id":"ce4bhnh2rcd13ifvqgug","pricing_plan_id":"cebpf4jnsgd1na2vs0mg"},{"bike_id":"1ee07084-a0a9-43af-bdb4-955f248e5678","system_id":"levelo_inurba_marseille","lat":43.28401,"lon":5.38805,"is_reserved":false,"is_disabled":false,"rental_uris":{"android":"levelo://app?vid=1ee07084-a0a9-43af-bdb4-955f248e5678","ios":"levelo://app?vid=1ee07084-a0a9-43af-bdb4-955f248e5678"},"vehicle_type_id":"4","last_reported":1769192329,"current_range_meters":9600,"station_id":"","pricing_plan_id":"cebpf4jnsgd1na2vs0mg"},{"bike_id":"270eb49c-db41-4cc9-8297-e176cf710606","system_id":"levelo_inurba_marseille","lat":43.2846,"lon":5.35894,"is_reserved":false,"is_disabled":false,"rental_uris":{"android":"levelo://app?vid=270eb49c-db41-4cc9-8297-e176cf710606","ios":"levelo://app?vid=270eb49c-db41-4cc9-8297-e176cf710606"},"vehicle_type_id":"4","last_reported":1769192329,"current_range_meters":9600,"station_id":"ce4bhah2rcd13ifvqei0","pricing_plan_id":"cebpf4jnsgd1na2vs0mg"},{"bike_id":"7a8aefa9-6897-4002-aeec-8fe47dea8ebb","system_id":"levelo_inurba_marseille","lat":43.29524,"lon":5.38549,"is_reserved":false,"is_disabled":false,"rental_uris":{"android":"levelo://app?vid=7a8aefa9-6897-4002-aeec-8fe47dea8ebb","ios":"levelo://app?vid=7a8aefa9-6897-4002-aeec-8fe47dea8ebb"},"vehicle_type_id":"4","last_reported":1769192329,"current_range_meters":9600,"station_id":"ce4bgih2rcd13ifvqba0","pricing_plan_id":"cebpf4jnsgd1na2vs0mg"},{"bike_id":"30685d04-c824-4987-9667-cb8125268a68","system_id":"levelo_inurba_marseille","lat":43.25716,"lon":5.41105,"is_reserved":false,"is_disabled":false,"rental_uris":{"android":"levelo://app?vid=30685d04-c824-4987-9667-cb8125268a68","ios":"levelo://app?vid=30685d04-c824-4987-9667-cb8125268a68"},"vehicle_type_id":"4","last_reported":1769192329,"current_range_meters":9600,"station_id":"ce4bhkp2rcd13ifvqgd0","pricing_plan_id":"cebpf4jnsgd1na2vs0mg"},{"bike_id":"f6f460da-b7b9-488f-bbdf-ade50c9a7709","system_id":"levelo_inurba_marseille","lat":43.30153,"lon":5.38096,"is_reserved":false,"is_disabled":false,"rental_uris":{"android":"levelo://app?vid=f6f460da-b7b9-488f-bbdf-ade50c9a7709","ios":"levelo://app?vid=f6f460da-b7b9-488f-bbdf-ade50c9a7709"},"vehicle_type_id":"4","last_reported":1769192329,"current_range_meters":9600,"station_id":"ce4bgjp2rcd13ifvqbh0","pricing_plan_id":"cebpf4jnsgd1na2vs0mg"},{"bike_id":"d4e112d2-ab7a-444f-a2ef-597ea4cfcd26","system_id":"levelo_inurba_marseille","lat":43.30727,"lon":5.40982,"is_reserved":false,"is_disabled":false,"rental_uris":{"android":"levelo://app?vid=d4e112d2-ab7a-444f-a2ef-597ea4cfcd26","ios":"levelo://app?vid=d4e112d2-ab7a-444f-a2ef-597ea4cfcd26"},"vehicle_type_id":"4","last_reported":1769192329,"current_range_meters":9600,"station_id":"","pricing_plan_id":"cebpf4jnsgd1na2vs0mg"},