{"last_updated":1704639980,"ttl":30,"version":"2.2","data":{"bikes":[{"bike_id":"86fbd9ac-16cf-4fb0-bd31-53ac3f288802","system_id":"levelo_inurba_marseille","lat":43.31341,"lon":5.367098,"is_reserved":false,"is_disabled":false,"rental_uris":{"android":"levelo://app?vid=86fbd9ac-16cf-4fb0-bd31-53ac3f288802","ios":"levelo://app?vid=86fbd9ac-16cf-4fb0-bd31-53ac3f288802"},"vehicle_type_id":"4","last_reported":1704639980,"current_range_meters":26000,"station_id":"ce4bgr92rcd13ifvqc6g","pricing_plan_id":"free"},{"bike_id":"b10b63da-8f6d-4693-9358-23d257fcef2d","system_id":"levelo_inurba_marseille","lat":43.31341,"lon":5.367098,"is_reserved":false,"is_disabled":false,"rental_uris":{"android":"levelo://app?vid=b10b63da-8f6d-4693-9358-23d257fcef2d","ios":"levelo://app?vid=b10b63da-8f6d-4693-9358-23d257fcef2d"},"vehicle_type_id":"4","last_reported":1704639980,"current_range_meters":14400,"station_id":"ce4bgr92rcd13ifvqc6g","pricing_plan_id":"free"},{"bike_id":"c425a59a-6e2e-4cf3-a83a-9195f97464e2","system_id":"levelo_inurba_marseille","lat":43.31341,"lon":5.367098,"is_reserved":false,"is_disabled":false,"rental_uris":{"android":"levelo://app?vid=c425a59a-6e2e-4cf3-a83a-9195f97464e2","ios":"levelo://app?vid=c425a59a-6e2e-4cf3-a83a-9195f97464e2"},"vehicle_type_id":"4","last_reported":1704639980,"current_range_meters":31200,"station_id":"ce4bgr92rcd13ifvqc6g","pricing_plan_id":"free"},{"bike_id":"049bc376-e997-4ff6-b884-cb62aa67f02f","system_id":"levelo_inurba_marseille","lat":43.312239,"lon":5.368562,"is_reserved":false,"is_disabled":false,"rental_uris":{"android":"levelo://app?vid=049bc376-e997-4ff6-b884-cb62aa67f02f","ios":"levelo://app?vid=049bc376-e997-4ff6-b884-cb62aa67f02f"},"vehicle_type_id":"4","last_reported":1704639980,"current_range_meters":24000,"station_id":"ce4bgl92rcd13ifvqbq0","pricing_plan_id":"free"},{"bike_id":"f1c773a0-9a3d-4a93-b529-751dd81b46d1","system_id":"levelo_inurba_marseille","lat":43.31476,"lon":5.37302,"is_reserved":false,"is_disabled":false,"rental_uris":{"android":"levelo://app?vid=f1c773a0-9a3d-4a93-b529-751dd81b46d1","ios":"levelo://app?vid=f1c773a0-9a3d-4a93-b529-751dd81b46d1"},"vehicle_type_id":"4","last_reported":1704639980,"current_range_meters":27200,"station_id":"ce4bgt12rcd13ifvqcd0","pricing_plan_id":"free"},{"bike_id":"fb53710e-d3f5-4aa4-b5bb-0af70adca1a2","system_id":"levelo_inurba_marseille","lat":43.314852,"lon":5.373032,"is_reserved":false,"is_disabled":false,"rental_uris":{"android":"levelo://app?vid=fb53710e-d3f5-4aa4-b5bb-0af70adca1a2","ios":"levelo://app?vid=fb53710e-d3f5-4aa4-b5bb-0af70adca1a2"},"vehicle_type_id":"4","last_reported":1704639980,"current_range_meters":3600,"station_id":"ce4bgt12rcd13ifvqcd0","pricing_plan_id":"free"},{"bike_id":"b401a832-41d1-439b-9f3b-3e3e4080a4fc","system_id":"levelo_inurba_marseille","lat":43.31483,"lon":5.37306,"is_reserved":false,"is_disabled":false,"rental_uris":{"android":"levelo://app?vid=b401a832-41d1-439b-9f3b-3e3e4080a4fc","ios":"levelo://app?vid=b401a832-41d1-439b-9f3b-3e3e4080a4fc"},"vehicle_type_id":"4","last_reported":1704639980,"current_range_meters":27600,"station_id":"ce4bgt12rcd13ifvqcd0","pricing_plan_id":"free"},{"bike_id":"85eb3825-226e-40cc-a36c-1629726c09ad","system_id":"levelo_inurba_marseille","lat":43.314811,"lon":5.373103,"is_reserved":false,"is_disabled":false,"rental_uris":{"android":"levelo://app?vid=85eb3825-226e-40cc-a36c-1629726c09ad","ios":"levelo://app?vid=85eb3825-226e-40cc-a36c-1629726c09ad"},"vehicle_type_id":"4","last_reported":1704639980,"current_range_meters":30800,"station_id":"ce4bgt12rcd13ifvqcd0","pricing_plan_id":"free"},{"bike_id":"f1b6c108-08f4-44e5-be77-c0182dead31c","system_id":"levelo_inurba_marseille","lat":43.309039,"lon":5.371797,"is_reserved":false,"is_disabled":false,"rental_uris":{"android":"levelo://app?vid=f1b6c108-08f4-44e5-be77-c0182dead31c","ios":"levelo://app?vid=f1b6c108-08f4-44e5-be77-c0182dead31c"},"vehicle_type_id":"4","last_reported":1704639980,"current_range_meters":14800,"station_id":"ce4bguh2rcd13ifvqckg","pricing_plan_id":"free"},{"bike_id":"a18c9f18-dd23-4fa3-ae4c-750a813ec2dd","system_id":"levelo_inurba_marseille","lat":43.31117,"lon":5.37503,"is_reserved":false,"is_disabled":false,"rental_uris":{"android":"levelo://app?vid=a18c9f18-dd23-4fa3-ae4c-750a813ec2dd","ios":"levelo://app?vid=a18c9f18-dd23-4fa3-ae4c-750a813ec2dd"},"vehicle_type_id":"4","last_reported":1704639980,"current_range_meters":14400,"station_id":"","pricing_plan_id":"free"},{"bike_id":"97936b82-4d6d-43e8-8888-92a402d7c91f","system_id":"levelo_inurba_marseille","lat":43.305712,"lon":5.365641,"is_reserved":false,"is_disabled":false,"rental_uris":{"android":"levelo://app?vid=97936b82-4d6d-43e8-8888-92a402d7c91f","ios":"levelo://app?vid=97936b82-4d6d-43e8-8888-92a402d7c91f"},"vehicle_type_id":"4","last_reported":1704639980,"current_range_meters":28800,"station_id":"ce4bgs12rcd13ifvqcag","pricing_plan_id":"free"},{"bike_id":"6522924f-2b1b-454d-bb45-1ea6ac7e38c2","system_id":"levelo_inurba_marseille","lat":43.305368,"lon":5.367343,"is_reserved":false,"is_disabled":false,"rental_uris":{"android":"levelo://app?vid=6522924f-2b1b-454d-bb45-1ea6ac7e38c2","ios":"levelo://app?vid=6522924f-2b1b-454d-bb45-1ea6ac7e38c2"},"vehicle_type_id":"4","last_reported":1704639980,"current_range_meters":23600,"station_id":"ce4bgrp2rcd13ifvqc9g","pricing_plan_id":"free"},{"bike_id":"51574f1b-6fce-4a25-bde4-3d710cf945a9","system_id":"levelo_inurba_marseille","lat":43.30543,"lon":5.365525,"is_reserved":false,"is_disabled":false,"rental_uris":{"android":"levelo://app?vid=51574f1b-6fce-4a25-bde4-3d710cf945a9","ios":"levelo://app?vid=51574f1b-6fce-4a25-bde4-3d710cf945a9"},"vehicle_type_id":"4","last_reported":1704639980,"current_range_meters":0,"station_id":"ce4bgs12rcd13ifvqcag","pricing_plan_id":"free"},{"bike_id":"0b220752-3f26-4027-ba3e-c5879f3fc495","system_id":"levelo_inurba_marseille","lat":43.305425,"lon":5.365363,"is_reserved":false,"is_disabled":false,"rental_uris":{"android":"levelo://app?vid=0b220752-3f26-4027-ba3e-c5879f3fc495","ios":"levelo://app?vid=0b220752-3f26-4027-ba3e-c5879f3fc495"},"vehicle_type_id":"4","last_reported":1704639980,"current_range_meters":30400,"station_id":"ce4bgs12rcd13ifvqcag","pricing_plan_id":"free"},{"bike_id":"160a2a7f-71fe-414e-9bbd-e503d7b447d5","system_id":"levelo_inurba_marseille","lat":43.305712,"lon":5.365641,"is_reserved":false,"is_disabled":false,"rental_uris":{"android":"levelo://app?vid=160a2a7f-71fe-414e-9bbd-e503d7b447d5","ios":"levelo://app?vid=160a2a7f-71fe-414e-9bbd-e503d7b447d5"},"vehicle_type_id":"4","last_reported":1704639980,"current_range_meters":29600,"station_id":"ce4bgs12rcd13ifvqcag","pricing_plan_id":"free"},{"bike_id":"a106a8d8-876a-427a-a89d-a10019294942","system_id":"levelo_inurba_marseille","lat":43.305406,"lon":5.365312,"is_reserved":false,"is_disabled":false,"rental_uris":{"android":"levelo://app?vid=a106a8d8-876a-427a-a89d-a10019294942","ios":"levelo://app?vid=a106a8d8-876a-427a-a89d-a10019294942"},"vehicle_type_id":"4","last_reported":1704639980,"current_range_meters":17200,"station_id":"ce4bgs12rcd13ifvqcag","pricing_plan_id":"free"},{"bike_id":"2b629c69-a6cc-40aa-9af8-9ab1e83b5fb9","system_id":"levelo_inurba_marseille","lat":43.305368,"lon":5.367343,"is_reserved":false,"is_disabled":false,"rental_uris":{"android":"levelo://app?vid=2b629c69-a6cc-40aa-9af8-9ab1e83b5fb9","ios":"levelo://app?vid=2b629c69-a6cc-40aa-9af8-9ab1e83b5fb9"},"vehicle_type_id":"4","last_reported":1704639980,"current_range_meters":19600,"station_id":"ce4bgrp2rcd13ifvqc9g","pricing_plan_id":"free"},{"bike_id":"e97f3a34-df88-43f5-bcf3-17df3f141451","system_id":"levelo_inurba_marseille","lat":43.305706,"lon":5.365654,"is_reserved":false,"is_disabled":false,"rental_uris":{"android":"levelo://app?vid=e97f3a34-df88-43f5-bcf3-17df3f141451","ios":"levelo://app?vid=e97f3a34-df88-43f5-bcf3-17df3f141451"},"vehicle_type_id":"4","last_reported":1704639980,"current_range_meters":4400,"station_id":"ce4bgs12rcd13ifvqcag","pricing_plan_id":"free"},{"bike_id":"68b9549b-f926-43ef-953f-82b74c7a7ce7","system_id":"levelo_inurba_marseille","lat":43.30536,"lon":5.36553,"is_reserved":false,"is_disabled":false,"rental_uris":{"android":"levelo://app?vid=68b9549b-f926-43ef-953f-82b74c7a7ce7","ios":"levelo://app?vid=68b9549b-f926-43ef-953f-82b74c7a7ce7"},"vehicle_type_id":"4","last_reported":1704639980,"current_range_meters":4400,"station_id":"ce4bgs12rcd13ifvqcag","pricing_plan_id":"free"},{"bike_id":"e31fcab0-1894-4f9e-b070-3a5dc682d8c3","system_id":"levelo_inurba_marseille","lat":43.305706,"lon":5.365654,"is_reserved":false,"is_disabled":false,"rental_uris":{"android":"levelo://app?vid=e31fcab0-1894-4f9e-b070-3a5dc682d8c3","ios":"levelo://app?vid=e31fcab0-1894-4f9e-b070-3a5dc682d8c3"},"vehicle_type_id":"4","last_reported":1704639980,"current_range_meters":19600,"station_id":"ce4bgs12rcd13ifvqcag","pricing_plan_id":"free"},{"bike_id":"b2e24420-4c62-4d5c-bf20-68af6692b1c0","system_id":"levelo_inurba_marseille","lat":43.305706,"lon":5.365654,"is_reserved":false,"is_disabled":false,"rental_uris":{"android":"levelo://app?vid=b2e24420-4c62-4d5c-bf20-68af6692b1c0","ios":"levelo://app?vid=b2e24420-4c62-4d5c-bf20-68af6692b1c0"},"vehicle_type_id":"4","last_reported":1704639980,"current_range_meters":26400,"station_id":"ce4bgs12rcd13ifvqcag","pricing_plan_id":"free"},{"bike_id":"b933b214-78f7-46ee-bd67-79ea5badc341","system_id":"levelo_inurba_marseille","lat":43.305706,"lon":5.365654,"is_reserved":false,"is_disabled":false,"rental_uris":{"android":"levelo://app?vid=b933b214-78f7-46ee-bd67-79ea5badc341","ios":"levelo://app?vid=b933b214-78f7-46ee-bd67-79ea5badc341"},"vehicle_type_id":"4","last_reported":1704639980,"current_range_meters":29200,"station_id":"ce4bgs12rcd13ifvqcag","pricing_plan_id":"free"},{"bike_id":"d7948fef-0e5d-4a3c-aa38-e6bebcbd73de","system_id":"levelo_inurba_marseille","lat":43.305706,"lon":5.365654,"is_reserved":false,"is_disabled":false,"rental_uris":{"android":"levelo://app?vid=d7948fef-0e5d-4a3c-aa38-e6bebcbd73de","ios":"levelo://app?vid=d7948fef-0e5d-4a3c-aa38-e6bebcbd73de"},"vehicle_type_id":"4","last_reported":1704639980,"current_range_meters":25600,"station_id":"ce4bgs12rcd13ifvqcag","pricing_plan_id":"free"},{"bike_id":"24312f7b-3d07-4f13-b593-a82cf21f6674","system_id":"levelo_inurba_marseille","lat":43.305706,"lon":5.365654,"is_reserved":false,"is_disabled":false,"rental_uris":{"android":"levelo://app?vid=24312f7b-3d07-4f13-b593-a82cf21f6674","ios":"levelo://app?vid=24312f7b-3d07-4f13-b593-a82cf21f6674"},"vehicle_type_id":"4","last_reported":1704639980,"current_range_meters":29200,"station_id":"ce4bgs12rcd13ifvqcag","pricing_plan_id":"free"},{"bike_id":"f56c5473-c855-4208-955f-ba730fd204f6","system_id":"levelo_inurba_marseille","lat":43.311125,"lon":5.377624,"is_reserved":false,"is_disabled":false,"rental_uris":{"android":"levelo://app?vid=f56c5473-c855-4208-955f-ba730fd204f6","ios":"levelo://app?vid=f56c5473-c855-4208-955f-ba730fd204f6"},"vehicle_type_id":"4","last_reported":1704639980,"current_range_meters":23200,"station_id":"ce4bgt92rcd13ifvqcg0","pricing_plan_id":"free"},{"bike_id":"747c06e3-b2b1-420b-8327-e67f3ce6ce68","system_id":"levelo_inurba_marseille","lat":43.311125,"lon":5.377624,"is_reserved":false,"is_disabled":false,"rental_uris":{"android":"levelo://app?vid=747c06e3-b2b1-420b-8327-e67f3ce6ce68","ios":"levelo://app?vid=747c06e3-b2b1-420b-8327-e67f3ce6ce68"},"vehicle_type_id":"4","last_reported":1704639980,"current_range_meters":8400,"station_id":"ce4bgt92rcd13ifvqcg0","pricing_plan_id":"free"},{"bike_id":"559473ae-00f0-4e08-ba88-d285b735b4b1","system_id":"levelo_inurba_marseille","lat":43.307945,"lon":5.376487,"is_reserved":false,"is_disabled":false,"rental_uris":{"android":"levelo://app?vid=559473ae-00f0-4e08-ba88-d285b735b4b1","ios":"levelo://app?vid=559473ae-00f0-4e08-ba88-d285b735b4b1"},"vehicle_type_id":"4","last_reported":1704639980,"current_range_meters":0,"station_id":"ce4bgv92rcd13ifvqcq0","pricing_plan_id":"free"},{"bike_id":"86a8bcde-2054-4455-a451-2fd28fec3137","system_id":"levelo_inurba_marseille","lat":43.307945,"lon":5.376487,"is_reserved":false,"is_disabled":false,"rental_uris":{"android":"levelo://app?vid=86a8bcde-2054-4455-a451-2fd28fec3137","ios":"levelo://app?vid=86a8bcde-2054-4455-a451-2fd28fec3137"},"vehicle_type_id":"4","last_reported":1704639980,"current_range_meters":26800,"station_id":"ce4bgv92rcd13ifvqcq0","pricing_plan_id":"free"},{"bike_id":"c4e90871-bb94-4085-82dc-ccbd997a22ca","system_id":"levelo_inurba_marseille","lat":43.31527,"lon":5.37909,"is_reserved":false,"is_disabled":false,"rental_uris":{"android":"levelo://app?vid=c4e90871-bb94-4085-82dc-ccbd997a22ca","ios":"levelo://app?vid=c4e90871-bb94-4085-82dc-ccbd997a22ca"},"vehicle_type_id":"4","last_reported":1704639980,"current_range_meters":5200,"station_id":"","pricing_plan_id":"free"},{"bike_id":"8ef1a586-cc29-4bb1-a1d4-de2934bfeac9","system_id":"levelo_inurba_marseille","lat":43.31535,"lon":5.38028,"is_reserved":false,"is_disabled":false,"rental_uris":{"android":"levelo://app?vid=8ef1a586-cc29-4bb1-a1d4-de2934bfeac9","ios":"levelo://app?vid=8ef1a586-cc29-4bb1-a1d4-de2934bfeac9"},"vehicle_type_id":"4","last_reported":1704639980,"current_range_meters":1200,"station_id":"ce4bhsp2rcd13ifvqi50","pricing_plan_id":"free"},{"bike_id":"ca585dc3-f19e-4a16-8ee6-df7528786bf8","system_id":"levelo_inurba_marseille","lat":43.315293,"lon":5.380349,"is_reserved":false,"is_disabled":false,"rental_uris":{"android":"levelo://app?vid=ca585dc3-f19e-4a16-8ee6-df7528786bf8","ios":"levelo://app?vid=ca585dc3-f19e-4a16-8ee6-df7528786bf8"},"vehicle_type_id":"4","last_reported":1704639980,"current_range_meters":20000,"station_id":"ce4bhsp2rcd13ifvqi50","pricing_plan_id":"free"},{"bike_id":"410d56b4-8422-4bc5-a962-9b4ea6b59eab","system_id":"levelo_inurba_marseille","lat":43.301939,"lon":5.366286,"is_reserved":false,"is_disabled":false,"rental_uris":{"android":"levelo://app?vid=410d56b4-8422-4bc5-a962-9b4ea6b59eab","ios":"levelo://app?vid=410d56b4-8422-4bc5-a962-9b4ea6b59eab"},"vehicle_type_id":"4","last_reported":1704639980,"current_range_meters":29200,"station_id":"ce4bgrh2rcd13ifvqc8g","pricing_plan_id":"free"},{"bike_id":"2c259b73-b9c4-411b-9715-616a4f947c75","system_id":"levelo_inurba_marseille","lat":43.301939,"lon":5.366286,"is_reserved":false,"is_disabled":false,"rental_uris":{"android":"levelo://app?vid=2c259b73-b9c4-411b-9715-616a4f947c75","ios":"levelo://app?vid=2c259b73-b9c4-411b-9715-616a4f947c75"},"vehicle_type_id":"4","last_reported":1704639980,"current_range_meters":23600,"station_id":"ce4bgrh2rcd13ifvqc8g","pricing_plan_id":"free"},{"bike_id":"42843ac3-cdcc-4f2c-93d0-96abf3177a9f","system_id":"levelo_inurba_marseille","lat":43.301939,"lon":5.366286,"is_reserved":false,"is_disabled":false,"rental_uris":{"android":"levelo://app?vid=42843ac3-cdcc-4f2c-93d0-96abf3177a9f","ios":"levelo://app?vid=42843ac3-cdcc-4f2c-93d0-96abf3177a9f"},"vehicle_type_id":"4","last_reported":1704639980,"current_range_meters":31600,"station_id":"ce4bgrh2rcd13ifvqc8g","pricing_plan_id":"free"},{"bike_id":"90c955b9-11ae-42d7-8c89-e4cb584799c9","system_id":"levelo_inurba_marseille","lat":43.301939,"lon":5.366286,"is_reserved":false,"is_disabled":false,"rental_uris":{"android":"levelo://app?vid=90c955b9-11ae-42d7-8c89-e4cb584799c9","ios":"levelo://app?vid=90c955b9-11ae-42d7-8c89-e4cb584799c9"},"vehicle_type_id":"4","last_reported":1704639980,"current_range_meters":22800,"station_id":"ce4bgrh2rcd13ifvqc8g","pricing_plan_id":"free"},{"bike_id":"a331dd49-2d58-454b-91e7-7101ca56332b","system_id":"levelo_inurba_marseille","lat":43.308012,"lon":5.381511,"is_reserved":false,"is_disabled":false,"rental_uris":{"android":"levelo://app?vid=a331dd49-2d58-454b-91e7-7101ca56332b","ios":"levelo://app?vid=a331dd49-2d58-454b-91e7-7101ca56332b"},"vehicle_type_id":"4","last_reported":1704639980,"current_range_meters":19600,"station_id":"ce4bgt12rcd13ifvqce0","pricing_plan_id":"free"},{"bike_id":"45b8825a-13f2-4c02-8c34-ebbc261b23f1","system_id":"levelo_inurba_marseille","lat":43.308012,"lon":5.381511,"is_reserved":false,"is_disabled":false,"rental_uris":{"android":"levelo://app?vid=45b8825a-13f2-4c02-8c34-ebbc261b23f1","ios":"levelo://app?vid=45b8825a-13f2-4c02-8c34-ebbc261b23f1"},"vehicle_type_id":"4","last_reported":1704639980,"current_range_meters":9600,"station_id":"ce4bgt12rcd13ifvqce0","pricing_plan_id":"free"},{"bike_id":"2aa100e7-2671-4c1b-a1f0-ab7832afcbad","system_id":"levelo_inurba_marseille","lat":43.324771,"lon":5.36557,"is_reserved":false,"is_disabled":false,"rental_uris":{"android":"levelo://app?vid=2aa100e7-2671-4c1b-a1f0-ab7832afcbad","ios":"levelo://app?vid=2aa100e7-2671-4c1b-a1f0-ab7832afcbad"},"vehicle_type_id":"4","last_reported":1704639980,"current_range_meters":25600,"station_id":"ce4bhs12rcd13ifvqhvg","pricing_plan_id":"free"},{"bike_id":"ca4cbaf0-ca19-4d91-8724-b9841441c823","system_id":"levelo_inurba_marseille","lat":43.324771,"lon":5.36557,"is_reserved":false,"is_disabled":false,"rental_uris":{"android":"levelo://app?vid=ca4cbaf0-ca19-4d91-8724-b9841441c823","ios":"levelo://app?vid=ca4cbaf0-ca19-4d91-8724-b9841441c823"},"vehicle_type_id":"4","last_reported":1704639980,"current_range_meters":20400,"station_id":"ce4bhs12rcd13ifvqhvg","pricing_plan_id":"free"},{"bike_id":"9a5d20fc-5739-4188-aece-a966211e1333","system_id":"levelo_inurba_marseille","lat":43.324771,"lon":5.36557,"is_reserved":false,"is_disabled":false,"rental_uris":{"android":"levelo://app?vid=9a5d20fc-5739-4188-aece-a966211e1333","ios":"levelo://app?vid=9a5d20fc-5739-4188-aece-a966211e1333"},"vehicle_type_id":"4","last_reported":1704639980,"current_range_meters":14800,"station_id":"ce4bhs12rcd13ifvqhvg","pricing_plan_id":"free"},{"bike_id":"df2d1d2f-b592-479c-bf22-20329818d5fe","system_id":"levelo_inurba_marseille","lat":43.324771,"lon":5.36557,"is_reserved":false,"is_disabled":false,"rental_uris":{"android":"levelo://app?vid=df2d1d2f-b592-479c-bf22-20329818d5fe","ios":"levelo://app?vid=df2d1d2f-b592-479c-bf22-20329818d5fe"},"vehicle_type_id":"4","last_reported":1704639980,"current_range_meters":23600,"station_id":"ce4bhs12rcd13ifvqhvg","pricing_plan_id":"free"},{"bike_id":"21a89d8d-8127-4118-8e4d-92c15efe09b1","system_id":"levelo_inurba_marseille","lat":43.30143,"lon":5.37413,"is_reserved":false,"is_disabled":false,"rental_uris":{"android":"levelo://app?vid=21a89d8d-8127-4118-8e4d-92c15efe09b1","ios":"levelo://app?vid=21a89d8d-8127-4118-8e4d-92c15efe09b1"},"vehicle_type_id":"4","last_reported":1704639980,"current_range_meters":9600,"station_id":"ce4bgs92rcd13ifvqcc0","pricing_plan_id":"free"},{"bike_id":"58cfbe05-6dd6-4d45-9b2b-036a01dc6bd3","system_id":"levelo_inurba_marseille","lat":43.30267,"lon":5.37723,"is_reserved":false,"is_disabled":false,"rental_uris":{"android":"levelo://app?vid=58cfbe05-6dd6-4d45-9b2b-036a01dc6bd3","ios":"levelo://app?vid=58cfbe05-6dd6-4d45-9b2b-036a01dc6bd3"},"vehicle_type_id":"4","last_reported":1704639980,"current_range_meters":17600,"station_id":"","pricing_plan_id":"free"},{"bike_id":"17504bde-947a-4cd6-98b3-9a4c66aca99b","system_id":"levelo_inurba_marseille","lat":43.313827,"lon":5.385007,"is_reserved":false,"is_disabled":false,"rental_uris":{"android":"levelo://app?vid=17504bde-947a-4cd6-98b3-9a4c66aca99b","ios":"levelo://app?vid=17504bde-947a-4cd6-98b3-9a4c66aca99b"},"vehicle_type_id":"4","last_reported":1704639980,"current_range_meters":1600,"station_id":"","pricing_plan_id":"free"},{"bike_id":"7f5b8b5c-b532-4c28-b4c7-8ecbed5de4e8","system_id":"levelo_inurba_marseille","lat":43.299222,"lon":5.365554,"is_reserved":false,"is_disabled":false,"rental_uris":{"android":"levelo://app?vid=7f5b8b5c-b532-4c28-b4c7-8ecbed5de4e8","ios":"levelo://app?vid=7f5b8b5c-b532-4c28-b4c7-8ecbed5de4e8"},"vehicle_type_id":"4","last_reported":1704639980,"current_range_meters":10800,"station_id":"ce4bgm92rcd13ifvqbr0","pricing_plan_id":"free"},{"bike_id":"4e78c72e-c8f5-4e6d-b388-cb9fe14b9ad5","system_id":"levelo_inurba_marseille","lat":43.299724,"lon":5.371829,"is_reserved":false,"is_disabled":false,"rental_uris":{"android":"levelo://app?vid=4e78c72e-c8f5-4e6d-b388-cb9fe14b9ad5","ios":"levelo://app?vid=4e78c72e-c8f5-4e6d-b388-cb9fe14b9ad5"},"vehicle_type_id":"4","last_reported":1704639980,"current_range_meters":26000,"station_id":"ce4bgr92rcd13ifvqc7g","pricing_plan_id":"free"},{"bike_id":"82df69de-d661-46cd-92b5-83305b35e118","system_id":"levelo_inurba_marseille","lat":43.299222,"lon":5.365554,"is_reserved":false,"is_disabled":false,"rental_uris":{"android":"levelo://app?vid=82df69de-d661-46cd-92b5-83305b35e118","ios":"levelo://app?vid=82df69de-d661-46cd-92b5-83305b35e118"},"vehicle_type_id":"4","last_reported":1704639980,"current_range_meters":13200,"station_id":"ce4bgm92rcd13ifvqbr0","pricing_plan_id":"free"},{"bike_id":"7fd606b4-c177-4d2d-a59a-731bab27b2ce","system_id":"levelo_inurba_marseille","lat":43.299222,"lon":5.365554,"is_reserved":false,"is_disabled":false,"rental_uris":{"android":"levelo://app?vid=7fd606b4-c177-4d2d-a59a-731bab27b2ce","ios":"levelo://app?vid=7fd606b4-c177-4d2d-a59a-731bab27b2ce"},"vehicle_type_id":"4","last_reported":1704639980,"current_range_meters":24800,"station_id":"ce4bgm92rcd13ifvqbr0","pricing_plan_id":"free"},{"bike_id":"5fd04292-11e5-4f30-ae19-5a63f77cfdd7","system_id":"levelo_inurba_marseille","lat":43.299222,"lon":5.365554,"is_reserved":false,"is_disabled":false,"rental_uris":{"android":"levelo://app?vid=5fd04292-11e5-4f30-ae19-5a63f77cfdd7","ios":"levelo://app?vid=5fd04292-11e5-4f30-ae19-5a63f77cfdd7"},"vehicle_type_id":"4","last_reported":1704639980,"current_range_meters":18400,"station_id":"ce4bgm92rcd13ifvqbr0","pricing_plan_id":"free"},{"bike_id":"b22604ec-0c4b-41b4-a20e-38add68f7682","system_id":"levelo_inurba_marseille","lat":43.32556,"lon":5.3749,"is_reserved":false,"is_disabled":false,"rental_uris":{"android":"levelo://app?vid=b22604ec-0c4b-41b4-a20e-38add68f7682","ios":"levelo://app?vid=b22604ec-0c4b-41b4-a20e-38add68f7682"},"vehicle_type_id":"4","last_reported":1704639980,"current_range_meters":8800,"station_id":"","pricing_plan_id":"free"},{"bike_id":"e557a1bd-79f2-4ac2-b151-7ce62081838c","system_id":"levelo_inurba_marseille","lat":43.298433,"lon":5.362774,"is_reserved":false,"is_disabled":false,"rental_uris":{"android":"levelo://app?vid=e557a1bd-79f2-4ac2-b151-7ce62081838c","ios":"levelo://app?vid=e557a1bd-79f2-4ac2-b151-7ce62081838c"},"vehicle_type_id":"4","last_reported":1704639980,"current_range_meters":27600,"station_id":"ce4bgpp2rcd13ifvqc3g","pricing_plan_id":"free"},{"bike_id":"1be2d12f-040a-49c9-a552-5cf03e22a4c9","system_id":"levelo_inurba_marseille","lat":43.298433,"lon":5.362774,"is_reserved":false,"is_disabled":false,"rental_uris":{"android":"levelo://app?vid=1be2d12f-040a-49c9-a552-5cf03e22a4c9","ios":"levelo://app?vid=1be2d12f-040a-49c9-a552-5cf03e22a4c9"},"vehicle_type_id":"4","last_reported":1704639980,"current_range_meters":14000,"station_id":"ce4bgpp2rcd13ifvqc3g","pricing_plan_id":"free"},{"bike_id":"90f624c9-e920-42f0-bdb2-c7157855cdc0","system_id":"levelo_inurba_marseille","lat":43.31154,"lon":5.38682,"is_reserved":false,"is_disabled":false,"rental_uris":{"android":"levelo://app?vid=90f624c9-e920-42f0-bdb2-c7157855cdc0","ios":"levelo://app?vid=90f624c9-e920-42f0-bdb2-c7157855cdc0"},"vehicle_type_id":"4","last_reported":1704639980,"current_range_meters":8800,"station_id":"ce4bgv12rcd13ifvqcp0","pricing_plan_id":"free"},{"bike_id":"92ccf645-4e60-49be-8c97-05fd3d661065","system_id":"levelo_inurba_marseille","lat":43.298433,"lon":5.362774,"is_reserved":false,"is_disabled":false,"rental_uris":{"android":"levelo://app?vid=92ccf645-4e60-49be-8c97-05fd3d661065","ios":"levelo://app?vid=92ccf645-4e60-49be-8c97-05fd3d661065"},"vehicle_type_id":"4","last_reported":1704639980,"current_range_meters":12000,"station_id":"ce4bgpp2rcd13ifvqc3g","pricing_plan_id":"free"},{"bike_id":"c3343d4e-50d8-4c0f-99d6-279e3ca17933","system_id":"levelo_inurba_marseille","lat":43.305364,"lon":5.384119,"is_reserved":false,"is_disabled":false,"rental_uris":{"android":"levelo://app?vid=c3343d4e-50d8-4c0f-99d6-279e3ca17933","ios":"levelo://app?vid=c3343d4e-50d8-4c0f-99d6-279e3ca17933"},"vehicle_type_id":"4","last_reported":1704639980,"current_range_meters":14000,"station_id":"ce4bgg92rcd13ifvqb30","pricing_plan_id":"free"},{"bike_id":"88d51cea-919c-4d0c-8cba-9d4fba003a44","system_id":"levelo_inurba_marseille","lat":43.298433,"lon":5.362774,"is_reserved":false,"is_disabled":false,"rental_uris":{"android":"levelo://app?vid=88d51cea-919c-4d0c-8cba-9d4fba003a44","ios":"levelo://app?vid=88d51cea-919c-4d0c-8cba-9d4fba003a44"},"vehicle_type_id":"4","last_reported":1704639980,"current_range_meters":16000,"station_id":"ce4bgpp2rcd13ifvqc3g","pricing_plan_id":"free"},{"bike_id":"b57ce022-c224-4f5f-ba3c-8869d29df636","system_id":"levelo_inurba_marseille","lat":43.299243,"lon":5.374807,"is_reserved":false,"is_disabled":false,"rental_uris":{"android":"levelo://app?vid=b57ce022-c224-4f5f-ba3c-8869d29df636","ios":"levelo://app?vid=b57ce022-c224-4f5f-ba3c-8869d29df636"},"vehicle_type_id":"4","last_reported":1704639980,"current_range_meters":28000,"station_id":"ce4bgjh2rcd13ifvqbg0","pricing_plan_id":"free"},{"bike_id":"09da622d-5ec6-4261-a95d-695d32c570ab","system_id":"levelo_inurba_marseille","lat":43.32289,"lon":5.382578,"is_reserved":false,"is_disabled":false,"rental_uris":{"android":"levelo://app?vid=09da622d-5ec6-4261-a95d-695d32c570ab","ios":"levelo://app?vid=09da622d-5ec6-4261-a95d-695d32c570ab"},"vehicle_type_id":"4","last_reported":1704639980,"current_range_meters":10400,"station_id":"ce4bhr12rcd13ifvqhqg","pricing_plan_id":"free"},{"bike_id":"276c91d7-6ca9-48bc-bf75-acd9920b9ec2","system_id":"levelo_inurba_marseille","lat":43.322892,"lon":5.382613,"is_reserved":false,"is_disabled":false,"rental_uris":{"android":"levelo://app?vid=276c91d7-6ca9-48bc-bf75-acd9920b9ec2","ios":"levelo://app?vid=276c91d7-6ca9-48bc-bf75-acd9920b9ec2"},"vehicle_type_id":"4","last_reported":1704639980,"current_range_meters":26000,"station_id":"ce4bhr12rcd13ifvqhqg","pricing_plan_id":"free"},{"bike_id":"297a7823-4b34-45b3-8282-c78d31cc9f05","system_id":"levelo_inurba_marseille","lat":43.322895,"lon":5.382625,"is_reserved":false,"is_disabled":false,"rental_uris":{"android":"levelo://app?vid=297a7823-4b34-45b3-8282-c78d31cc9f05","ios":"levelo://app?vid=297a7823-4b34-45b3-8282-c78d31cc9f05"},"vehicle_type_id":"4","last_reported":1704639980,"current_range_meters":29200,"station_id":"ce4bhr12rcd13ifvqhqg","pricing_plan_id":"free"},{"bike_id":"cc495013-a9b7-4492-a4e4-0f0aca4a9939","system_id":"levelo_inurba_marseille","lat":43.322872,"lon":5.382756,"is_reserved":false,"is_disabled":false,"rental_uris":{"android":"levelo://app?vid=cc495013-a9b7-4492-a4e4-0f0aca4a9939","ios":"levelo://app?vid=cc495013-a9b7-4492-a4e4-0f0aca4a9939"},"vehicle_type_id":"4","last_reported":1704639980,"current_range_meters":6800,"station_id":"ce4bhr12rcd13ifvqhqg","pricing_plan_id":"free"},{"bike_id":"d0aaa14f-1070-4a80-a2f2-78508dd9f6bd","system_id":"levelo_inurba_marseille","lat":43.322872,"lon":5.382756,"is_reserved":false,"is_disabled":false,"rental_uris":{"android":"levelo://app?vid=d0aaa14f-1070-4a80-a2f2-78508dd9f6bd","ios":"levelo://app?vid=d0aaa14f-1070-4a80-a2f2-78508dd9f6bd"},"vehicle_type_id":"4","last_reported":1704639980,"current_range_meters":31200,"station_id":"ce4bhr12rcd13ifvqhqg","pricing_plan_id":"free"},{"bike_id":"5021f406-3153-4a9e-a450-00a19314acbe","system_id":"levelo_inurba_marseille","lat":43.328218,"lon":5.366785,"is_reserved":false,"is_disabled":false,"rental_uris":{"android":"levelo://app?vid=5021f406-3153-4a9e-a450-00a19314acbe","ios":"levelo://app?vid=5021f406-3153-4a9e-a450-00a19314acbe"},"vehicle_type_id":"4","last_reported":1704639980,"current_range_meters":30400,"station_id":"ce4bhs92rcd13ifvqi0g","pricing_plan_id":"free"},{"bike_id":"48de57f3-12a8-4253-90b5-aab66c42162c","system_id":"levelo_inurba_marseille","lat":43.32822,"lon":5.36686,"is_reserved":false,"is_disabled":false,"rental_uris":{"android":"levelo://app?vid=48de57f3-12a8-4253-90b5-aab66c42162c","ios":"levelo://app?vid=48de57f3-12a8-4253-90b5-aab66c42162c"},"vehicle_type_id":"4","last_reported":1704639980,"current_range_meters":17200,"station_id":"ce4bhs92rcd13ifvqi0g","pricing_plan_id":"free"},{"bike_id":"387c1dff-fb7e-4547-838e-1af3f69c4219","system_id":"levelo_inurba_marseille","lat":43.328228,"lon":5.366786,"is_reserved":false,"is_disabled":false,"rental_uris":{"android":"levelo://app?vid=387c1dff-fb7e-4547-838e-1af3f69c4219","ios":"levelo://app?vid=387c1dff-fb7e-4547-838e-1af3f69c4219"},"vehicle_type_id":"4","last_reported":1704639980,"current_range_meters":22800,"station_id":"ce4bhs92rcd13ifvqi0g","pricing_plan_id":"free"},{"bike_id":"66addf4b-70b7-4ac4-8e17-37956e9ecfbb","system_id":"levelo_inurba_marseille","lat":43.32825,"lon":5.36683,"is_reserved":false,"is_disabled":false,"rental_uris":{"android":"levelo://app?vid=66addf4b-70b7-4ac4-8e17-37956e9ecfbb","ios":"levelo://app?vid=66addf4b-70b7-4ac4-8e17-37956e9ecfbb"},"vehicle_type_id":"4","last_reported":1704639980,"current_range_meters":19200,"station_id":"ce4bhs92rcd13ifvqi0g","pricing_plan_id":"free"},{"bike_id":"72905f78-9c33-4138-8385-d331d9223abd","system_id":"levelo_inurba_marseille","lat":43.32825,"lon":5.36682,"is_reserved":false,"is_disabled":false,"rental_uris":{"android":"levelo://app?vid=72905f78-9c33-4138-8385-d331d9223abd","ios":"levelo://app?vid=72905f78-9c33-4138-8385-d331d9223abd"},"vehicle_type_id":"4","last_reported":1704639980,"current_range_meters":14800,"station_id":"ce4bhs92rcd13ifvqi0g","pricing_plan_id":"free"},{"bike_id":"c224ea64-7bb8-45be-8a3a-d137d9e17684","system_id":"levelo_inurba_marseille","lat":43.32825,"lon":5.36678,"is_reserved":false,"is_disabled":false,"rental_uris":{"android":"levelo://app?vid=c224ea64-7bb8-45be-8a3a-d137d9e17684","ios":"levelo://app?vid=c224ea64-7bb8-45be-8a3a-d137d9e17684"},"vehicle_type_id":"4","last_reported":1704639980,"current_range_meters":13600,"station_id":"ce4bhs92rcd13ifvqi0g","pricing_plan_id":"free"},{"bike_id":"a791cb05-0716-4f7c-bfab-5cd10f4022f6","system_id":"levelo_inurba_marseille","lat":43.328255,"lon":5.366884,"is_reserved":false,"is_disabled":false,"rental_uris":{"android":"levelo://app?vid=a791cb05-0716-4f7c-bfab-5cd10f4022f6","ios":"levelo://app?vid=a791cb05-0716-4f7c-bfab-5cd10f4022f6"},"vehicle_type_id":"4","last_reported":1704639980,"current_range_meters":16800,"station_id":"ce4bhs92rcd13ifvqi0g","pricing_plan_id":"free"},{"bike_id":"064b14d2-f3e9-43be-a725-c95d6c66fd15","system_id":"levelo_inurba_marseille","lat":43.328371,"lon":5.366909,"is_reserved":false,"is_disabled":false,"rental_uris":{"android":"levelo://app?vid=064b14d2-f3e9-43be-a725-c95d6c66fd15","ios":"levelo://app?vid=064b14d2-f3e9-43be-a725-c95d6c66fd15"},"vehicle_type_id":"4","last_reported":1704639980,"current_range_meters":22000,"station_id":"ce4bhs92rcd13ifvqi0g","pricing_plan_id":"free"},{"bike_id":"42895378-a21e-445b-8e89-325727904609","system_id":"levelo_inurba_marseille","lat":43.328371,"lon":5.366909,"is_reserved":false,"is_disabled":false,"rental_uris":{"android":"levelo://app?vid=42895378-a21e-445b-8e89-325727904609","ios":"levelo://app?vid=42895378-a21e-445b-8e89-325727904609"},"vehicle_type_id":"4","last_reported":1704639980,"current_range_meters":21600,"station_id":"ce4bhs92rcd13ifvqi0g","pricing_plan_id":"free"},{"bike_id":"8341e063-523f-4d25-880b-99eb6edf220f","system_id":"levelo_inurba_marseille","lat":43.328262,"lon":5.36676,"is_reserved":false,"is_disabled":false,"rental_uris":{"android":"levelo://app?vid=8341e063-523f-4d25-880b-99eb6edf220f","ios":"levelo://app?vid=8341e063-523f-4d25-880b-99eb6edf220f"},"vehicle_type_id":"4","last_reported":1704639980,"current_range_meters":15600,"station_id":"ce4bhs92rcd13ifvqi0g","pricing_plan_id":"free"},{"bike_id":"0725f2a6-de18-43ea-a245-f699ddc19b55","system_id":"levelo_inurba_marseille","lat":43.328371,"lon":5.366909,"is_reserved":false,"is_disabled":false,"rental_uris":{"android":"levelo://app?vid=0725f2a6-de18-43ea-a245-f699ddc19b55","ios":"levelo://app?vid=0725f2a6-de18-43ea-a245-f699ddc19b55"},"vehicle_type_id":"4","last_reported":1704639980,"current_range_meters":8000,"station_id":"ce4bhs92rcd13ifvqi0g","pricing_plan_id":"free"},{"bike_id":"ca02ca89-8dd5-4fc4-9a30-db37a36b7ff7","system_id":"levelo_inurba_marseille","lat":43.32827,"lon":5.36678,"is_reserved":false,"is_disabled":false,"rental_uris":{"android":"levelo://app?vid=ca02ca89-8dd5-4fc4-9a30-db37a36b7ff7","ios":"levelo://app?vid=ca02ca89-8dd5-4fc4-9a30-db37a36b7ff7"},"vehicle_type_id":"4","last_reported":1704639980,"current_range_meters":28800,"station_id":"ce4bhs92rcd13ifvqi0g","pricing_plan_id":"free"},{"bike_id":"43f47c35-ec23-411b-b2fa-7957e35eab11","system_id":"levelo_inurba_marseille","lat":43.328371,"lon":5.366909,"is_reserved":false,"is_disabled":false,"rental_uris":{"android":"levelo://app?vid=43f47c35-ec23-411b-b2fa-7957e35eab11","ios":"levelo://app?vid=43f47c35-ec23-411b-b2fa-7957e35eab11"},"vehicle_type_id":"4","last_reported":1704639980,"current_range_meters":10400,"station_id":"ce4bhs92rcd13ifvqi0g","pricing_plan_id":"free"},{"bike_id":"ee966a52-c4f3-4b5b-b8b2-c85b17eb5fb4","system_id":"levelo_inurba_marseille","lat":43.328371,"lon":5.366909,"is_reserved":false,"is_disabled":false,"rental_uris":{"android":"levelo://app?vid=ee966a52-c4f3-4b5b-b8b2-c85b17eb5fb4","ios":"levelo://app?vid=ee966a52-c4f3-4b5b-b8b2-c85b17eb5fb4"},"vehicle_type_id":"4","last_reported":1704639980,"current_range_meters":15600,"station_id":"ce4bhs92rcd13ifvqi0g","pricing_plan_id":"free"},{"bike_id":"9383789e-2a1a-4049-a767-e1f78cbdfc52","system_id":"levelo_inurba_marseille","lat":43.328371,"lon":5.366909,"is_reserved":false,"is_disabled":false,"rental_uris":{"android":"levelo://app?vid=9383789e-2a1a-4049-a767-e1f78cbdfc52","ios":"levelo://app?vid=9383789e-2a1a-4049-a767-e1f78cbdfc52"},"vehicle_type_id":"4","last_reported":1704639980,"current_range_meters":18400,"station_id":"ce4bhs92rcd13ifvqi0g","pricing_plan_id":"free"},{"bike_id":"e22d5d66-2c33-444c-9a95-5d6517dd879c","system_id":"levelo_inurba_marseille","lat":43.328371,"lon":5.366909,"is_reserved":false,"is_disabled":false,"rental_uris":{"android":"levelo://app?vid=e22d5d66-2c33-444c-9a95-5d6517dd879c","ios":"levelo://app?vid=e22d5d66-2c33-444c-9a95-5d6517dd879c"},"vehicle_type_id":"4","last_reported":1704639980,"current_range_meters":5600,"station_id":"ce4bhs92rcd13ifvqi0g","pricing_plan_id":"free"},{"bike_id":"9c52835b-5a0a-41ea-b020-3de6f9e1a5cb","system_id":"levelo_inurba_marseille","lat":43.297163,"lon":5.365866,"is_reserved":false,"is_disabled":false,"rental_uris":{"android":"levelo://app?vid=9c52835b-5a0a-41ea-b020-3de6f9e1a5cb","ios":"levelo://app?vid=9c52835b-5a0a-41ea-b020-3de6f9e1a5cb"},"vehicle_type_id":"4","last_reported":1704639980,"current_range_meters":30800,"station_id":"ce4bgn12rcd13ifvqbt0","pricing_plan_id":"free"},{"bike_id":"91bb73ca-1f82-4e4c-981e-7d83bf5600ba","system_id":"levelo_inurba_marseille","lat":43.2968,"lon":5.37291,"is_reserved":false,"is_disabled":false,"rental_uris":{"android":"levelo://app?vid=91bb73ca-1f82-4e4c-981e-7d83bf5600ba","ios":"levelo://app?vid=91bb73ca-1f82-4e4c-981e-7d83bf5600ba"},"vehicle_type_id":"4","last_reported":1704639980,"current_range_meters":24800,"station_id":"ce4bgk12rcd13ifvqbj0","pricing_plan_id":"free"},{"bike_id":"49986967-6a19-4f33-856e-4525c56ef3fd","system_id":"levelo_inurba_marseille","lat":43.296921,"lon":5.376579,"is_reserved":false,"is_disabled":false,"rental_uris":{"android":"levelo://app?vid=49986967-6a19-4f33-856e-4525c56ef3fd","ios":"levelo://app?vid=49986967-6a19-4f33-856e-4525c56ef3fd"},"vehicle_type_id":"4","last_reported":1704639980,"current_range_meters":12400,"station_id":"ce4bgkh2rcd13ifvqbl0","pricing_plan_id":"free"},{"bike_id":"d3740124-777e-4040-b840-7cdcc46088a4","system_id":"levelo_inurba_marseille","lat":43.298037,"lon":5.381066,"is_reserved":false,"is_disabled":false,"rental_uris":{"android":"levelo://app?vid=d3740124-777e-4040-b840-7cdcc46088a4","ios":"levelo://app?vid=d3740124-777e-4040-b840-7cdcc46088a4"},"vehicle_type_id":"4","last_reported":1704639980,"current_range_meters":26400,"station_id":"ce4bgip2rcd13ifvqbb0","pricing_plan_id":"free"},{"bike_id":"c63000dc-dd46-407a-9956-89e0fbf586a6","system_id":"levelo_inurba_marseille","lat":43.296277,"lon":5.377108,"is_reserved":false,"is_disabled":false,"rental_uris":{"android":"levelo://app?vid=c63000dc-dd46-407a-9956-89e0fbf586a6","ios":"levelo://app?vid=c63000dc-dd46-407a-9956-89e0fbf586a6"},"vehicle_type_id":"4","last_reported":1704639980,"current_range_meters":24000,"station_id":"ce4bgi92rcd13ifvqb90","pricing_plan_id":"free"},{"bike_id":"2d14cca5-d997-428d-8b17-88829e562cc6","system_id":"levelo_inurba_marseille","lat":43.295235,"lon":5.375055,"is_reserved":false,"is_disabled":false,"rental_uris":{"android":"levelo://app?vid=2d14cca5-d997-428d-8b17-88829e562cc6","ios":"levelo://app?vid=2d14cca5-d997-428d-8b17-88829e562cc6"},"vehicle_type_id":"4","last_reported":1704639980,"current_range_meters":5200,"station_id":"ce4bgkp2rcd13ifvqbmg","pricing_plan_id":"free"},{"bike_id":"8d49b5b2-e0cf-4018-a6f1-5b79a11d9886","system_id":"levelo_inurba_marseille","lat":43.299724,"lon":5.384848,"is_reserved":false,"is_disabled":false,"rental_uris":{"android":"levelo://app?vid=8d49b5b2-e0cf-4018-a6f1-5b79a11d9886","ios":"levelo://app?vid=8d49b5b2-e0cf-4018-a6f1-5b79a11d9886"},"vehicle_type_id":"4","last_reported":1704639980,"current_range_meters":22400,"station_id":"ce4bgj92rcd13ifvqbd0","pricing_plan_id":"free"},{"bike_id":"204dea3f-87e7-4326-9f54-6cdab23e9e5a","system_id":"levelo_inurba_marseille","lat":43.32363,"lon":5.38867,"is_reserved":false,"is_disabled":false,"rental_uris":{"android":"levelo://app?vid=204dea3f-87e7-4326-9f54-6cdab23e9e5a","ios":"levelo://app?vid=204dea3f-87e7-4326-9f54-6cdab23e9e5a"},"vehicle_type_id":"4","last_reported":1704639980,"current_range_meters":30400,"station_id":"ce4bhqp2rcd13ifvqhog","pricing_plan_id":"free"},{"bike_id":"614cbd35-75fe-4712-85be-ec1fed2f4e7a","system_id":"levelo_inurba_marseille","lat":43.293259,"lon":5.371586,"is_reserved":false,"is_disabled":false,"rental_uris":{"android":"levelo://app?vid=614cbd35-75fe-4712-85be-ec1fed2f4e7a","ios":"levelo://app?vid=614cbd35-75fe-4712-85be-ec1fed2f4e7a"},"vehicle_type_id":"4","last_reported":1704639980,"current_range_meters":31200,"station_id":"ce4bgh92rcd13ifvqb40","pricing_plan_id":"free"},{"bike_id":"924145af-d36d-4f4c-a58b-db9d478dcd9d","system_id":"levelo_inurba_marseille","lat":43.29872,"lon":5.386545,"is_reserved":false,"is_disabled":false,"rental_uris":{"android":"levelo://app?vid=924145af-d36d-4f4c-a58b-db9d478dcd9d","ios":"levelo://app?vid=924145af-d36d-4f4c-a58b-db9d478dcd9d"},"vehicle_type_id":"4","last_reported":1704639980,"current_range_meters":18000,"station_id":"ce4bgh92rcd13ifvqb50","pricing_plan_id":"free"},{"bike_id":"71b04dd8-ae87-4367-8f16-24433dcb43db","system_id":"levelo_inurba_marseille","lat":43.293009,"lon":5.374584,"is_reserved":false,"is_disabled":false,"rental_uris":{"android":"levelo://app?vid=71b04dd8-ae87-4367-8f16-24433dcb43db","ios":"levelo://app?vid=71b04dd8-ae87-4367-8f16-24433dcb43db"},"vehicle_type_id":"4","last_reported":1704639980,"current_range_meters":2800,"station_id":"ce4bgi12rcd13ifvqb70","pricing_plan_id":"free"},{"bike_id":"01fb395e-31a2-4ec5-92fd-8319579b15b1","system_id":"levelo_inurba_marseille","lat":43.303113,"lon":5.392077,"is_reserved":false,"is_disabled":false,"rental_uris":{"android":"levelo://app?vid=01fb395e-31a2-4ec5-92fd-8319579b15b1","ios":"levelo://app?vid=01fb395e-31a2-4ec5-92fd-8319579b15b1"},"vehicle_type_id":"4","last_reported":1704639980,"current_range_meters":0,"station_id":"ce4bgkh2rcd13ifvqbk0","pricing_plan_id":"free"},{"bike_id":"6aff0cf7-1d6a-412b-bc04-85ea031b0e0a","system_id":"levelo_inurba_marseille","lat":43.303002,"lon":5.392142,"is_reserved":false,"is_disabled":false,"rental_uris":{"android":"levelo://app?vid=6aff0cf7-1d6a-412b-bc04-85ea031b0e0a","ios":"levelo://app?vid=6aff0cf7-1d6a-412b-bc04-85ea031b0e0a"},"vehicle_type_id":"4","last_reported":1704639980,"current_range_meters":28400,"station_id":"ce4bgkh2rcd13ifvqbk0","pricing_plan_id":"free"},{"bike_id":"be947ba9-fe61-44a2-829a-3b8b98867d62","system_id":"levelo_inurba_marseille","lat":43.2936,"lon":5.37835,"is_reserved":false,"is_disabled":false,"rental_uris":{"android":"levelo://app?vid=be947ba9-fe61-44a2-829a-3b8b98867d62","ios":"levelo://app?vid=be947ba9-fe61-44a2-829a-3b8b98867d62"},"vehicle_type_id":"4","last_reported":1704639980,"current_range_meters":22800,"station_id":"ce4bgjh2rcd13ifvqbf0","pricing_plan_id":"free"},{"bike_id":"00201432-9b80-43da-90de-0d84ad7437da","system_id":"levelo_inurba_marseille","lat":43.292311,"lon":5.360731,"is_reserved":false,"is_disabled":false,"rental_uris":{"android":"levelo://app?vid=00201432-9b80-43da-90de-0d84ad7437da","ios":"levelo://app?vid=00201432-9b80-43da-90de-0d84ad7437da"},"vehicle_type_id":"4","last_reported":1704639980,"current_range_meters":0,"station_id":"ce4bhbh2rcd13ifvqeqg","pricing_plan_id":"free"},{"bike_id":"1308a635-e607-478d-b6ae-bd87244d6944","system_id":"levelo_inurba_marseille","lat":43.2936,"lon":5.37835,"is_reserved":false,"is_disabled":false,"rental_uris":{"android":"levelo://app?vid=1308a635-e607-478d-b6ae-bd87244d6944","ios":"levelo://app?vid=1308a635-e607-478d-b6ae-bd87244d6944"},"vehicle_type_id":"4","last_reported":1704639980,"current_range_meters":24000,"station_id":"ce4bgjh2rcd13ifvqbf0","pricing_plan_id":"free"},{"bike_id":"3bb191fc-b092-4066-9f33-73138fdd14c3","system_id":"levelo_inurba_marseille","lat":43.302008,"lon":5.394694,"is_reserved":false,"is_disabled":false,"rental_uris":{"android":"levelo://app?vid=3bb191fc-b092-4066-9f33-73138fdd14c3","ios":"levelo://app?vid=3bb191fc-b092-4066-9f33-73138fdd14c3"},"vehicle_type_id":"4","last_reported":1704639980,"current_range_meters":25600,"station_id":"ce4bh0p2rcd13ifvqd70","pricing_plan_id":"free"},{"bike_id":"e76c8d49-8449-42c9-824c-55474fd95483","system_id":"levelo_inurba_marseille","lat":43.290624,"lon":5.359245,"is_reserved":false,"is_disabled":false,"rental_uris":{"android":"levelo://app?vid=e76c8d49-8449-42c9-824c-55474fd95483","ios":"levelo://app?vid=e76c8d49-8449-42c9-824c-55474fd95483"},"vehicle_type_id":"4","last_reported":1704639980,"current_range_meters":6800,"station_id":"ce4bha92rcd13ifvqeg0","pricing_plan_id":"free"},{"bike_id":"894fccd2-83e1-492f-b387-5bd4e2970986","system_id":"levelo_inurba_marseille","lat":43.294162,"lon":5.386292,"is_reserved":false,"is_disabled":false,"rental_uris":{"android":"levelo://app?vid=894fccd2-83e1-492f-b387-5bd4e2970986","ios":"levelo://app?vid=894fccd2-83e1-492f-b387-5bd4e2970986"},"vehicle_type_id":"4","last_reported":1704639980,"current_range_meters":3600,"station_id":"ce4bh2h2rcd13ifvqdh0","pricing_plan_id":"free"},{"bike_id":"6e4c70d9-cebe-4a2c-8d4e-a985e2432fab","system_id":"levelo_inurba_marseille","lat":43.304296,"lon":5.397513,"is_reserved":false,"is_disabled":false,"rental_uris":{"android":"levelo://app?vid=6e4c70d9-cebe-4a2c-8d4e-a985e2432fab","ios":"levelo://app?vid=6e4c70d9-cebe-4a2c-8d4e-a985e2432fab"},"vehicle_type_id":"4","last_reported":1704639980,"current_range_meters":15600,"station_id":"ce4bh092rcd13ifvqd20","pricing_plan_id":"free"},{"bike_id":"7bef9d8c-922a-4421-b020-ad0e246b34eb","system_id":"levelo_inurba_marseille","lat":43.29006,"lon":5.35614,"is_reserved":false,"is_disabled":false,"rental_uris":{"android":"levelo://app?vid=7bef9d8c-922a-4421-b020-ad0e246b34eb","ios":"levelo://app?vid=7bef9d8c-922a-4421-b020-ad0e246b34eb"},"vehicle_type_id":"4","last_reported":1704639980,"current_range_meters":13600,"station_id":"ce4bhb92rcd13ifvqen0","pricing_plan_id":"free"},{"bike_id":"d19fc5d2-2878-4a8d-ae2d-35a8522662ad","system_id":"levelo_inurba_marseille","lat":43.290103,"lon":5.356114,"is_reserved":false,"is_disabled":false,"rental_uris":{"android":"levelo://app?vid=d19fc5d2-2878-4a8d-ae2d-35a8522662ad","ios":"levelo://app?vid=d19fc5d2-2878-4a8d-ae2d-35a8522662ad"},"vehicle_type_id":"4","last_reported":1704639980,"current_range_meters":13600,"station_id":"ce4bhb92rcd13ifvqen0","pricing_plan_id":"free"},{"bike_id":"604d70e1-4bfc-4c1a-ad50-5c45b428d61e","system_id":"levelo_inurba_marseille","lat":43.330442,"lon":5.389148,"is_reserved":false,"is_disabled":false,"rental_uris":{"android":"levelo://app?vid=604d70e1-4bfc-4c1a-ad50-5c45b428d61e","ios":"levelo://app?vid=604d70e1-4bfc-4c1a-ad50-5c45b428d61e"},"vehicle_type_id":"4","last_reported":1704639980,"current_range_meters":18800,"station_id":"ce4bhr92rcd13ifvqhrg","pricing_plan_id":"free"},{"bike_id":"29877edf-f914-4818-a395-be7aee9e9d72","system_id":"levelo_inurba_marseille","lat":43.330442,"lon":5.389148,"is_reserved":false,"is_disabled":false,"rental_uris":{"android":"levelo://app?vid=29877edf-f914-4818-a395-be7aee9e9d72","ios":"levelo://app?vid=29877edf-f914-4818-a395-be7aee9e9d72"},"vehicle_type_id":"4","last_reported":1704639980,"current_range_meters":14800,"station_id":"ce4bhr92rcd13ifvqhrg","pricing_plan_id":"free"},{"bike_id":"cae40047-590b-4bb0-8fe9-db1ac84adfa3","system_id":"levelo_inurba_marseille","lat":43.330442,"lon":5.389148,"is_reserved":false,"is_disabled":false,"rental_uris":{"android":"levelo://app?vid=cae40047-590b-4bb0-8fe9-db1ac84adfa3","ios":"levelo://app?vid=cae40047-590b-4bb0-8fe9-db1ac84adfa3"},"vehicle_type_id":"4","last_reported":1704639980,"current_range_meters":5200,"station_id":"ce4bhr92rcd13ifvqhrg","pricing_plan_id":"free"},{"bike_id":"8625464e-66d0-4621-bd34-1a2874fb7a19","system_id":"levelo_inurba_marseille","lat":43.330442,"lon":5.389148,"is_reserved":false,"is_disabled":false,"rental_uris":{"android":"levelo://app?vid=8625464e-66d0-4621-bd34-1a2874fb7a19","ios":"levelo://app?vid=8625464e-66d0-4621-bd34-1a2874fb7a19"},"vehicle_type_id":"4","last_reported":1704639980,"current_range_meters":30800,"station_id":"ce4bhr92rcd13ifvqhrg","pricing_plan_id":"free"},{"bike_id":"7c7a6206-545f-4749-ace7-a0c9f17d3062","system_id":"levelo_inurba_marseille","lat":43.330442,"lon":5.389148,"is_reserved":false,"is_disabled":false,"rental_uris":{"android":"levelo://app?vid=7c7a6206-545f-4749-ace7-a0c9f17d3062","ios":"levelo://app?vid=7c7a6206-545f-4749-ace7-a0c9f17d3062"},"vehicle_type_id":"4","last_reported":1704639980,"current_range_meters":13600,"station_id":"ce4bhr92rcd13ifvqhrg","pricing_plan_id":"free"},{"bike_id":"57a59c67-703f-4a83-aae5-f27109cb99b9","system_id":"levelo_inurba_marseille","lat":43.330442,"lon":5.389148,"is_reserved":false,"is_disabled":false,"rental_uris":{"android":"levelo://app?vid=57a59c67-703f-4a83-aae5-f27109cb99b9","ios":"levelo://app?vid=57a59c67-703f-4a83-aae5-f27109cb99b9"},"vehicle_type_id":"4","last_reported":1704639980,"current_range_meters":18800,"station_id":"ce4bhr92rcd13ifvqhrg","pricing_plan_id":"free"},{"bike_id":"159f7ec5-3d57-446d-b5ac-ca5a4823fee7","system_id":"levelo_inurba_marseille","lat":43.312609,"lon":5.401662,"is_reserved":false,"is_disabled":false,"rental_uris":{"android":"levelo://app?vid=159f7ec5-3d57-446d-b5ac-ca5a4823fee7","ios":"levelo://app?vid=159f7ec5-3d57-446d-b5ac-ca5a4823fee7"},"vehicle_type_id":"4","last_reported":1704639980,"current_range_meters":0,"station_id":"ce4bh092rcd13ifvqd30","pricing_plan_id":"free"},{"bike_id":"20d3a974-482e-43e5-acc5-1ae3efe35892","system_id":"levelo_inurba_marseille","lat":43.3378,"lon":5.37431,"is_reserved":false,"is_disabled":false,"rental_uris":{"android":"levelo://app?vid=20d3a974-482e-43e5-acc5-1ae3efe35892","ios":"levelo://app?vid=20d3a974-482e-43e5-acc5-1ae3efe35892"},"vehicle_type_id":"4","last_reported":1704639980,"current_range_meters":29200,"station_id":"","pricing_plan_id":"free"},{"bike_id":"78cbef46-88c0-4d52-8fd9-6801cf65847b","system_id":"levelo_inurba_marseille","lat":43.28727,"lon":5.36078,"is_reserved":false,"is_disabled":false,"rental_uris":{"android":"levelo://app?vid=78cbef46-88c0-4d52-8fd9-6801cf65847b","ios":"levelo://app?vid=78cbef46-88c0-4d52-8fd9-6801cf65847b"},"vehicle_type_id":"4","last_reported":1704639980,"current_range_meters":22400,"station_id":"cki0cbj6b192h4jlfktg","pricing_plan_id":"free"},{"bike_id":"99955737-3050-4227-b1e4-dac8e5d13ece","system_id":"levelo_inurba_marseille","lat":43.28727,"lon":5.36078,"is_reserved":false,"is_disabled":false,"rental_uris":{"android":"levelo://app?vid=99955737-3050-4227-b1e4-dac8e5d13ece","ios":"levelo://app?vid=99955737-3050-4227-b1e4-dac8e5d13ece"},"vehicle_type_id":"4","last_reported":1704639980,"current_range_meters":27600,"station_id":"cki0cbj6b192h4jlfktg","pricing_plan_id":"free"},{"bike_id":"94b3ddfa-090a-43a9-858e-5ccda96b1594","system_id":"levelo_inurba_marseille","lat":43.28727,"lon":5.36078,"is_reserved":false,"is_disabled":false,"rental_uris":{"android":"levelo://app?vid=94b3ddfa-090a-43a9-858e-5ccda96b1594","ios":"levelo://app?vid=94b3ddfa-090a-43a9-858e-5ccda96b1594"},"vehicle_type_id":"4","last_reported":1704639980,"current_range_meters":26000,"station_id":"cki0cbj6b192h4jlfktg","pricing_plan_id":"free"},{"bike_id":"c23a8040-7b01-4d2f-949d-bdbfb0e3e476","system_id":"levelo_inurba_marseille","lat":43.28727,"lon":5.36078,"is_reserved":false,"is_disabled":false,"rental_uris":{"android":"levelo://app?vid=c23a8040-7b01-4d2f-949d-bdbfb0e3e476","ios":"levelo://app?vid=c23a8040-7b01-4d2f-949d-bdbfb0e3e476"},"vehicle_type_id":"4","last_reported":1704639980,"current_range_meters":18800,"station_id":"cki0cbj6b192h4jlfktg","pricing_plan_id":"free"},{"bike_id":"ba98e270-efc3-45ba-b516-4d6968ccb446","system_id":"levelo_inurba_marseille","lat":43.298681,"lon":5.397225,"is_reserved":false,"is_disabled":false,"rental_uris":{"android":"levelo://app?vid=ba98e270-efc3-45ba-b516-4d6968ccb446","ios":"levelo://app?vid=ba98e270-efc3-45ba-b516-4d6968ccb446"},"vehicle_type_id":"4","last_reported":1704639980,"current_range_meters":20400,"station_id":"ce4bh0h2rcd13ifvqd50","pricing_plan_id":"free"},{"bike_id":"0e6d015f-8bc6-4821-9b7c-36b7deeb917e","system_id":"levelo_inurba_marseille","lat":43.298681,"lon":5.397225,"is_reserved":false,"is_disabled":false,"rental_uris":{"android":"levelo://app?vid=0e6d015f-8bc6-4821-9b7c-36b7deeb917e","ios":"levelo://app?vid=0e6d015f-8bc6-4821-9b7c-36b7deeb917e"},"vehicle_type_id":"4","last_reported":1704639980,"current_range_meters":29600,"station_id":"ce4bh0h2rcd13ifvqd50","pricing_plan_id":"free"},{"bike_id":"9927dc73-6ca1-436d-ae63-5620f9d561e9","system_id":"levelo_inurba_marseille","lat":43.295194,"lon":5.39397,"is_reserved":false,"is_disabled":false,"rental_uris":{"android":"levelo://app?vid=9927dc73-6ca1-436d-ae63-5620f9d561e9","ios":"levelo://app?vid=9927dc73-6ca1-436d-ae63-5620f9d561e9"},"vehicle_type_id":"4","last_reported":1704639980,"current_range_meters":0,"station_id":"ce4bh292rcd13ifvqdf0","pricing_plan_id":"free"},{"bike_id":"ad946c3b-77ba-4693-8ada-e8b205781b63","system_id":"levelo_inurba_marseille","lat":43.289307,"lon":5.38406,"is_reserved":false,"is_disabled":false,"rental_uris":{"android":"levelo://app?vid=ad946c3b-77ba-4693-8ada-e8b205781b63","ios":"levelo://app?vid=ad946c3b-77ba-4693-8ada-e8b205781b63"},"vehicle_type_id":"4","last_reported":1704639980,"current_range_meters":23200,"station_id":"ce4bh612rcd13ifvqe6g","pricing_plan_id":"free"},{"bike_id":"0f221119-267a-4f7d-a052-c67fe7ca31b8","system_id":"levelo_inurba_marseille","lat":43.286039,"lon":5.370681,"is_reserved":false,"is_disabled":false,"rental_uris":{"android":"levelo://app?vid=0f221119-267a-4f7d-a052-c67fe7ca31b8","ios":"levelo://app?vid=0f221119-267a-4f7d-a052-c67fe7ca31b8"},"vehicle_type_id":"4","last_reported":1704639980,"current_range_meters":19600,"station_id":"ce4bht12rcd13ifvqi60","pricing_plan_id":"free"},{"bike_id":"46250e64-a1dd-4f14-9146-b5bfb45e5535","system_id":"levelo_inurba_marseille","lat":43.29192,"lon":5.39323,"is_reserved":false,"is_disabled":false,"rental_uris":{"android":"levelo://app?vid=46250e64-a1dd-4f14-9146-b5bfb45e5535","ios":"levelo://app?vid=46250e64-a1dd-4f14-9146-b5bfb45e5535"},"vehicle_type_id":"4","last_reported":1704639980,"current_range_meters":29600,"station_id":"ce4bh192rcd13ifvqdd0","pricing_plan_id":"free"},{"bike_id":"efec8ff1-f75f-492f-b4e9-2bbeacdd4a92","system_id":"levelo_inurba_marseille","lat":43.284538,"lon":5.358657,"is_reserved":false,"is_disabled":false,"rental_uris":{"android":"levelo://app?vid=efec8ff1-f75f-492f-b4e9-2bbeacdd4a92","ios":"levelo://app?vid=efec8ff1-f75f-492f-b4e9-2bbeacdd4a92"},"vehicle_type_id":"4","last_reported":1704639980,"current_range_meters":14800,"station_id":"ce4bhah2rcd13ifvqei0","pricing_plan_id":"free"},{"bike_id":"b0d9c37a-12b7-4fcf-b2cc-70034df7a04b","system_id":"levelo_inurba_marseille","lat":43.29847,"lon":5.40139,"is_reserved":false,"is_disabled":false,"rental_uris":{"android":"levelo://app?vid=b0d9c37a-12b7-4fcf-b2cc-70034df7a04b","ios":"levelo://app?vid=b0d9c37a-12b7-4fcf-b2cc-70034df7a04b"},"vehicle_type_id":"4","last_reported":1704639980,"current_range_meters":0,"station_id":"","pricing_plan_id":"free"},{"bike_id":"e7d08906-0d87-4715-8ffa-bdb9be03abd3","system_id":"levelo_inurba_marseille","lat":43.285856,"lon":5.350771,"is_reserved":false,"is_disabled":false,"rental_uris":{"android":"levelo://app?vid=e7d08906-0d87-4715-8ffa-bdb9be03abd3","ios":"levelo://app?vid=e7d08906-0d87-4715-8ffa-bdb9be03abd3"},"vehicle_type_id":"4","last_reported":1704639980,"current_range_meters":17200,"station_id":"ce4bhch2rcd13ifvqeug","pricing_plan_id":"free"},{"bike_id":"23d221b2-c135-4966-8818-31e6fe2a7cac","system_id":"levelo_inurba_marseille","lat":43.286181,"lon":5.351056,"is_reserved":false,"is_disabled":false,"rental_uris":{"android":"levelo://app?vid=23d221b2-c135-4966-8818-31e6fe2a7cac","ios":"levelo://app?vid=23d221b2-c135-4966-8818-31e6fe2a7cac"},"vehicle_type_id":"4","last_reported":1704639980,"current_range_meters":18400,"station_id":"","pricing_plan_id":"free"},{"bike_id":"77dcd9db-8541-482e-80ea-3465701dc93c","system_id":"levelo_inurba_marseille","lat":43.285856,"lon":5.350771,"is_reserved":false,"is_disabled":false,"rental_uris":{"android":"levelo://app?vid=77dcd9db-8541-482e-80ea-3465701dc93c","ios":"levelo://app?vid=77dcd9db-8541-482e-80ea-3465701dc93c"},"vehicle_type_id":"4","last_reported":1704639980,"current_range_meters":14400,"station_id":"ce4bhch2rcd13ifvqeug","pricing_plan_id":"free"},{"bike_id":"00b48936-7085-4cf8-b9f8-bfaeaa1c2437","system_id":"levelo_inurba_marseille","lat":43.285856,"lon":5.350771,"is_reserved":false,"is_disabled":false,"rental_uris":{"android":"levelo://app?vid=00b48936-7085-4cf8-b9f8-bfaeaa1c2437","ios":"levelo://app?vid=00b48936-7085-4cf8-b9f8-bfaeaa1c2437"},"vehicle_type_id":"4","last_reported":1704639980,"current_range_meters":18000,"station_id":"ce4bhch2rcd13ifvqeug","pricing_plan_id":"free"},{"bike_id":"f6d84242-536a-4227-995d-300e54eb18f6","system_id":"levelo_inurba_marseille","lat":43.28616,"lon":5.35104,"is_reserved":false,"is_disabled":false,"rental_uris":{"android":"levelo://app?vid=f6d84242-536a-4227-995d-300e54eb18f6","ios":"levelo://app?vid=f6d84242-536a-4227-995d-300e54eb18f6"},"vehicle_type_id":"4","last_reported":1704639980,"current_range_meters":26000,"station_id":"ce4bhch2rcd13ifvqeug","pricing_plan_id":"free"},{"bike_id":"a8a5a961-0292-4b80-81a4-a594170f711e","system_id":"levelo_inurba_marseille","lat":43.285856,"lon":5.350771,"is_reserved":false,"is_disabled":false,"rental_uris":{"android":"levelo://app?vid=a8a5a961-0292-4b80-81a4-a594170f711e","ios":"levelo://app?vid=a8a5a961-0292-4b80-81a4-a594170f711e"},"vehicle_type_id":"4","last_reported":1704639980,"current_range_meters":18000,"station_id":"ce4bhch2rcd13ifvqeug","pricing_plan_id":"free"},{"bike_id":"43b3ea92-a636-409a-a2bf-2cfcdf83346d","system_id":"levelo_inurba_marseille","lat":43.285856,"lon":5.350771,"is_reserved":false,"is_disabled":false,"rental_uris":{"android":"levelo://app?vid=43b3ea92-a636-409a-a2bf-2cfcdf83346d","ios":"levelo://app?vid=43b3ea92-a636-409a-a2bf-2cfcdf83346d"},"vehicle_type_id":"4","last_reported":1704639980,"current_range_meters":24000,"station_id":"ce4bhch2rcd13ifvqeug","pricing_plan_id":"free"},{"bike_id":"7e545478-533c-4cff-816a-9cd5b9b3b5a2","system_id":"levelo_inurba_marseille","lat":43.285856,"lon":5.350771,"is_reserved":false,"is_disabled":false,"rental_uris":{"android":"levelo://app?vid=7e545478-533c-4cff-816a-9cd5b9b3b5a2","ios":"levelo://app?vid=7e545478-533c-4cff-816a-9cd5b9b3b5a2"},"vehicle_type_id":"4","last_reported":1704639980,"current_range_meters":29200,"station_id":"ce4bhch2rcd13ifvqeug","pricing_plan_id":"free"},{"bike_id":"5688a380-9bf4-41fc-824e-d906fd2a2179","system_id":"levelo_inurba_marseille","lat":43.285856,"lon":5.350771,"is_reserved":false,"is_disabled":false,"rental_uris":{"android":"levelo://app?vid=5688a380-9bf4-41fc-824e-d906fd2a2179","ios":"levelo://app?vid=5688a380-9bf4-41fc-824e-d906fd2a2179"},"vehicle_type_id":"4","last_reported":1704639980,"current_range_meters":12400,"station_id":"ce4bhch2rcd13ifvqeug","pricing_plan_id":"free"},{"bike_id":"24eba78a-c372-41c1-bed0-57b50127114e","system_id":"levelo_inurba_marseille","lat":43.285856,"lon":5.350771,"is_reserved":false,"is_disabled":false,"rental_uris":{"android":"levelo://app?vid=24eba78a-c372-41c1-bed0-57b50127114e","ios":"levelo://app?vid=24eba78a-c372-41c1-bed0-57b50127114e"},"vehicle_type_id":"4","last_reported":1704639980,"current_range_meters":20400,"station_id":"ce4bhch2rcd13ifvqeug","pricing_plan_id":"free"},{"bike_id":"154efb84-26fc-49e6-ada6-5bf0c44dd6f0","system_id":"levelo_inurba_marseille","lat":43.285856,"lon":5.350771,"is_reserved":false,"is_disabled":false,"rental_uris":{"android":"levelo://app?vid=154efb84-26fc-49e6-ada6-5bf0c44dd6f0","ios":"levelo://app?vid=154efb84-26fc-49e6-ada6-5bf0c44dd6f0"},"vehicle_type_id":"4","last_reported":1704639980,"current_range_meters":30800,"station_id":"ce4bhch2rcd13ifvqeug","pricing_plan_id":"free"},{"bike_id":"01e59b64-29e9-4e48-86ad-7a3b4b582e04","system_id":"levelo_inurba_marseille","lat":43.285856,"lon":5.350771,"is_reserved":false,"is_disabled":false,"rental_uris":{"android":"levelo://app?vid=01e59b64-29e9-4e48-86ad-7a3b4b582e04","ios":"levelo://app?vid=01e59b64-29e9-4e48-86ad-7a3b4b582e04"},"vehicle_type_id":"4","last_reported":1704639980,"current_range_meters":27200,"station_id":"ce4bhch2rcd13ifvqeug","pricing_plan_id":"free"},{"bike_id":"dffb7f5d-3b19-429d-ac37-bf521bd72a68","system_id":"levelo_inurba_marseille","lat":43.28611,"lon":5.35105,"is_reserved":false,"is_disabled":false,"rental_uris":{"android":"levelo://app?vid=dffb7f5d-3b19-429d-ac37-bf521bd72a68","ios":"levelo://app?vid=dffb7f5d-3b19-429d-ac37-bf521bd72a68"},"vehicle_type_id":"4","last_reported":1704639980,"current_range_meters":30000,"station_id":"ce4bhch2rcd13ifvqeug","pricing_plan_id":"free"},{"bike_id":"547bd7f4-04ff-423b-a961-53b8f16a27c3","system_id":"levelo_inurba_marseille","lat":43.28611,"lon":5.35103,"is_reserved":false,"is_disabled":false,"rental_uris":{"android":"levelo://app?vid=547bd7f4-04ff-423b-a961-53b8f16a27c3","ios":"levelo://app?vid=547bd7f4-04ff-423b-a961-53b8f16a27c3"},"vehicle_type_id":"4","last_reported":1704639980,"current_range_meters":7600,"station_id":"ce4bhch2rcd13ifvqeug","pricing_plan_id":"free"},{"bike_id":"977fa2cf-8e1e-4e69-b1ed-4a94f2b3c715","system_id":"levelo_inurba_marseille","lat":43.286595,"lon":5.386795,"is_reserved":false,"is_disabled":false,"rental_uris":{"android":"levelo://app?vid=977fa2cf-8e1e-4e69-b1ed-4a94f2b3c715","ios":"levelo://app?vid=977fa2cf-8e1e-4e69-b1ed-4a94f2b3c715"},"vehicle_type_id":"4","last_reported":1704639980,"current_range_meters":14000,"station_id":"ce4bh492rcd13ifvqdug","pricing_plan_id":"free"},{"bike_id":"a52ee1bd-16e6-4372-a012-f4c09e82029d","system_id":"levelo_inurba_marseille","lat":43.286595,"lon":5.386795,"is_reserved":false,"is_disabled":false,"rental_uris":{"android":"levelo://app?vid=a52ee1bd-16e6-4372-a012-f4c09e82029d","ios":"levelo://app?vid=a52ee1bd-16e6-4372-a012-f4c09e82029d"},"vehicle_type_id":"4","last_reported":1704639980,"current_range_meters":9200,"station_id":"ce4bh492rcd13ifvqdug","pricing_plan_id":"free"},{"bike_id":"728c58ac-3ac6-447b-b406-5706c85ad82e","system_id":"levelo_inurba_marseille","lat":43.33717,"lon":5.391857,"is_reserved":false,"is_disabled":false,"rental_uris":{"android":"levelo://app?vid=728c58ac-3ac6-447b-b406-5706c85ad82e","ios":"levelo://app?vid=728c58ac-3ac6-447b-b406-5706c85ad82e"},"vehicle_type_id":"4","last_reported":1704639980,"current_range_meters":16400,"station_id":"ce4bhr92rcd13ifvqhsg","pricing_plan_id":"free"},{"bike_id":"54bec85a-3ad1-4ccc-9cab-e86a90c0ca6c","system_id":"levelo_inurba_marseille","lat":43.323464,"lon":5.406297,"is_reserved":false,"is_disabled":false,"rental_uris":{"android":"levelo://app?vid=54bec85a-3ad1-4ccc-9cab-e86a90c0ca6c","ios":"levelo://app?vid=54bec85a-3ad1-4ccc-9cab-e86a90c0ca6c"},"vehicle_type_id":"4","last_reported":1704639980,"current_range_meters":31200,"station_id":"ce4bhq92rcd13ifvqhjg","pricing_plan_id":"free"},{"bike_id":"9a026a9c-e1f2-43d3-8608-c6ab90da980a","system_id":"levelo_inurba_marseille","lat":43.323464,"lon":5.406297,"is_reserved":false,"is_disabled":false,"rental_uris":{"android":"levelo://app?vid=9a026a9c-e1f2-43d3-8608-c6ab90da980a","ios":"levelo://app?vid=9a026a9c-e1f2-43d3-8608-c6ab90da980a"},"vehicle_type_id":"4","last_reported":1704639980,"current_range_meters":9600,"station_id":"ce4bhq92rcd13ifvqhjg","pricing_plan_id":"free"},{"bike_id":"747b4a07-a8db-40b3-a2bf-387b48385f47","system_id":"levelo_inurba_marseille","lat":43.323464,"lon":5.406297,"is_reserved":false,"is_disabled":false,"rental_uris":{"android":"levelo://app?vid=747b4a07-a8db-40b3-a2bf-387b48385f47","ios":"levelo://app?vid=747b4a07-a8db-40b3-a2bf-387b48385f47"},"vehicle_type_id":"4","last_reported":1704639980,"current_range_meters":20400,"station_id":"ce4bhq92rcd13ifvqhjg","pricing_plan_id":"free"},{"bike_id":"bad04958-514b-4739-91d3-d4d84a60fba6","system_id":"levelo_inurba_marseille","lat":43.32342,"lon":5.40627,"is_reserved":false,"is_disabled":false,"rental_uris":{"android":"levelo://app?vid=bad04958-514b-4739-91d3-d4d84a60fba6","ios":"levelo://app?vid=bad04958-514b-4739-91d3-d4d84a60fba6"},"vehicle_type_id":"4","last_reported":1704639980,"current_range_meters":12400,"station_id":"ce4bhq92rcd13ifvqhjg","pricing_plan_id":"free"},{"bike_id":"21c3f203-88b7-47d2-a466-24bc4dc464a3","system_id":"levelo_inurba_marseille","lat":43.28871,"lon":5.39299,"is_reserved":false,"is_disabled":false,"rental_uris":{"android":"levelo://app?vid=21c3f203-88b7-47d2-a466-24bc4dc464a3","ios":"levelo://app?vid=21c3f203-88b7-47d2-a466-24bc4dc464a3"},"vehicle_type_id":"4","last_reported":1704639980,"current_range_meters":31600,"station_id":"ce4bh2p2rcd13ifvqdi0","pricing_plan_id":"free"},{"bike_id":"8c6fb1b0-9324-4b57-8fc5-e2e64f1ce2a4","system_id":"levelo_inurba_marseille","lat":43.284787,"lon":5.384116,"is_reserved":false,"is_disabled":false,"rental_uris":{"android":"levelo://app?vid=8c6fb1b0-9324-4b57-8fc5-e2e64f1ce2a4","ios":"levelo://app?vid=8c6fb1b0-9324-4b57-8fc5-e2e64f1ce2a4"},"vehicle_type_id":"4","last_reported":1704639980,"current_range_meters":22800,"station_id":"ce4bh512rcd13ifvqe3g","pricing_plan_id":"free"},{"bike_id":"b58d7a6a-4bba-4602-b545-9a30fab93b17","system_id":"levelo_inurba_marseille","lat":43.28473,"lon":5.38418,"is_reserved":false,"is_disabled":false,"rental_uris":{"android":"levelo://app?vid=b58d7a6a-4bba-4602-b545-9a30fab93b17","ios":"levelo://app?vid=b58d7a6a-4bba-4602-b545-9a30fab93b17"},"vehicle_type_id":"4","last_reported":1704639980,"current_range_meters":26400,"station_id":"ce4bh512rcd13ifvqe3g","pricing_plan_id":"free"},{"bike_id":"7e4a9ac1-4179-4b1d-bd9e-9c58a27c5421","system_id":"levelo_inurba_marseille","lat":43.284787,"lon":5.384116,"is_reserved":false,"is_disabled":false,"rental_uris":{"android":"levelo://app?vid=7e4a9ac1-4179-4b1d-bd9e-9c58a27c5421","ios":"levelo://app?vid=7e4a9ac1-4179-4b1d-bd9e-9c58a27c5421"},"vehicle_type_id":"4","last_reported":1704639980,"current_range_meters":16800,"station_id":"ce4bh512rcd13ifvqe3g","pricing_plan_id":"free"},{"bike_id":"74c757a3-57f5-43bc-9cbd-c0caf045d565","system_id":"levelo_inurba_marseille","lat":43.284219,"lon":5.3497,"is_reserved":false,"is_disabled":false,"rental_uris":{"android":"levelo://app?vid=74c757a3-57f5-43bc-9cbd-c0caf045d565","ios":"levelo://app?vid=74c757a3-57f5-43bc-9cbd-c0caf045d565"},"vehicle_type_id":"4","last_reported":1704639980,"current_range_meters":25200,"station_id":"ce4bhbh2rcd13ifvqepg","pricing_plan_id":"free"},{"bike_id":"9329076a-0d3e-4112-be77-66dd924dd8e2","system_id":"levelo_inurba_marseille","lat":43.284219,"lon":5.3497,"is_reserved":false,"is_disabled":false,"rental_uris":{"android":"levelo://app?vid=9329076a-0d3e-4112-be77-66dd924dd8e2","ios":"levelo://app?vid=9329076a-0d3e-4112-be77-66dd924dd8e2"},"vehicle_type_id":"4","last_reported":1704639980,"current_range_meters":23200,"station_id":"ce4bhbh2rcd13ifvqepg","pricing_plan_id":"free"},{"bike_id":"9117797d-3df0-46d0-9e5c-883fbec69ea3","system_id":"levelo_inurba_marseille","lat":43.284219,"lon":5.3497,"is_reserved":false,"is_disabled":false,"rental_uris":{"android":"levelo://app?vid=9117797d-3df0-46d0-9e5c-883fbec69ea3","ios":"levelo://app?vid=9117797d-3df0-46d0-9e5c-883fbec69ea3"},"vehicle_type_id":"4","last_reported":1704639980,"current_range_meters":30800,"station_id":"ce4bhbh2rcd13ifvqepg","pricing_plan_id":"free"},{"bike_id":"6a1e180d-f929-4d8f-8941-3479abb7bbca","system_id":"levelo_inurba_marseille","lat":43.284219,"lon":5.3497,"is_reserved":false,"is_disabled":false,"rental_uris":{"android":"levelo://app?vid=6a1e180d-f929-4d8f-8941-3479abb7bbca","ios":"levelo://app?vid=6a1e180d-f929-4d8f-8941-3479abb7bbca"},"vehicle_type_id":"4","last_reported":1704639980,"current_range_meters":31200,"station_id":"ce4bhbh2rcd13ifvqepg","pricing_plan_id":"free"},{"bike_id":"9d0a329e-7926-423a-8004-1e619b4bdcb6","system_id":"levelo_inurba_marseille","lat":43.284219,"lon":5.3497,"is_reserved":false,"is_disabled":false,"rental_uris":{"android":"levelo://app?vid=9d0a329e-7926-423a-8004-1e619b4bdcb6","ios":"levelo://app?vid=9d0a329e-7926-423a-8004-1e619b4bdcb6"},"vehicle_type_id":"4","last_reported":1704639980,"current_range_meters":13200,"station_id":"ce4bhbh2rcd13ifvqepg","pricing_plan_id":"free"},{"bike_id":"089fd505-dace-46fe-a5f8-d3c86a685bad","system_id":"levelo_inurba_marseille","lat":43.284191,"lon":5.349805,"is_reserved":false,"is_disabled":false,"rental_uris":{"android":"levelo://app?vid=089fd505-dace-46fe-a5f8-d3c86a685bad","ios":"levelo://app?vid=089fd505-dace-46fe-a5f8-d3c86a685bad"},"vehicle_type_id":"4","last_reported":1704639980,"current_range_meters":19600,"station_id":"ce4bhbh2rcd13ifvqepg","pricing_plan_id":"free"},{"bike_id":"c3f119c8-a2c3-48cd-a23a-407567ed222b","system_id":"levelo_inurba_marseille","lat":43.284217,"lon":5.349697,"is_reserved":false,"is_disabled":false,"rental_uris":{"android":"levelo://app?vid=c3f119c8-a2c3-48cd-a23a-407567ed222b","ios":"levelo://app?vid=c3f119c8-a2c3-48cd-a23a-407567ed222b"},"vehicle_type_id":"4","last_reported":1704639980,"current_range_meters":31200,"station_id":"ce4bhbh2rcd13ifvqepg","pricing_plan_id":"free"},{"bike_id":"4714bef9-5f38-4c26-b888-7b40cc11f281","system_id":"levelo_inurba_marseille","lat":43.284219,"lon":5.3497,"is_reserved":false,"is_disabled":false,"rental_uris":{"android":"levelo://app?vid=4714bef9-5f38-4c26-b888-7b40cc11f281","ios":"levelo://app?vid=4714bef9-5f38-4c26-b888-7b40cc11f281"},"vehicle_type_id":"4","last_reported":1704639980,"current_range_meters":31600,"station_id":"ce4bhbh2rcd13ifvqepg","pricing_plan_id":"free"},{"bike_id":"5ca77a76-ab50-4e73-b9bd-7fc47fded293","system_id":"levelo_inurba_marseille","lat":43.284219,"lon":5.3497,"is_reserved":false,"is_disabled":false,"rental_uris":{"android":"levelo://app?vid=5ca77a76-ab50-4e73-b9bd-7fc47fded293","ios":"levelo://app?vid=5ca77a76-ab50-4e73-b9bd-7fc47fded293"},"vehicle_type_id":"4","last_reported":1704639980,"current_range_meters":10000,"station_id":"ce4bhbh2rcd13ifvqepg","pricing_plan_id":"free"},{"bike_id":"f6bed4be-2200-440a-9649-73c5e86d2f4d","system_id":"levelo_inurba_marseille","lat":43.289363,"lon":5.396322,"is_reserved":false,"is_disabled":false,"rental_uris":{"android":"levelo://app?vid=f6bed4be-2200-440a-9649-73c5e86d2f4d","ios":"levelo://app?vid=f6bed4be-2200-440a-9649-73c5e86d2f4d"},"vehicle_type_id":"4","last_reported":1704639980,"current_range_meters":19600,"station_id":"ce4bh3h2rcd13ifvqdn0","pricing_plan_id":"free"},{"bike_id":"407aa927-dc41-4078-94fd-44898691bd06","system_id":"levelo_inurba_marseille","lat":43.289363,"lon":5.396322,"is_reserved":false,"is_disabled":false,"rental_uris":{"android":"levelo://app?vid=407aa927-dc41-4078-94fd-44898691bd06","ios":"levelo://app?vid=407aa927-dc41-4078-94fd-44898691bd06"},"vehicle_type_id":"4","last_reported":1704639980,"current_range_meters":25200,"station_id":"ce4bh3h2rcd13ifvqdn0","pricing_plan_id":"free"},{"bike_id":"edbd5ccb-dc6c-4e92-b40b-b1c3a0d9c707","system_id":"levelo_inurba_marseille","lat":43.292724,"lon":5.401131,"is_reserved":false,"is_disabled":false,"rental_uris":{"android":"levelo://app?vid=edbd5ccb-dc6c-4e92-b40b-b1c3a0d9c707","ios":"levelo://app?vid=edbd5ccb-dc6c-4e92-b40b-b1c3a0d9c707"},"vehicle_type_id":"4","last_reported":1704639980,"current_range_meters":16000,"station_id":"ce4bh312rcd13ifvqdk0","pricing_plan_id":"free"},{"bike_id":"379f1704-f953-4f7c-8b79-f5f2e02d6efd","system_id":"levelo_inurba_marseille","lat":43.292724,"lon":5.401131,"is_reserved":false,"is_disabled":false,"rental_uris":{"android":"levelo://app?vid=379f1704-f953-4f7c-8b79-f5f2e02d6efd","ios":"levelo://app?vid=379f1704-f953-4f7c-8b79-f5f2e02d6efd"},"vehicle_type_id":"4","last_reported":1704639980,"current_range_meters":18400,"station_id":"ce4bh312rcd13ifvqdk0","pricing_plan_id":"free"},{"bike_id":"73bcb7c4-ae57-42ea-bcd9-e4e86ab7e0ef","system_id":"levelo_inurba_marseille","lat":43.28277,"lon":5.350763,"is_reserved":false,"is_disabled":false,"rental_uris":{"android":"levelo://app?vid=73bcb7c4-ae57-42ea-bcd9-e4e86ab7e0ef","ios":"levelo://app?vid=73bcb7c4-ae57-42ea-bcd9-e4e86ab7e0ef"},"vehicle_type_id":"4","last_reported":1704639980,"current_range_meters":22000,"station_id":"ce4bhbp2rcd13ifvqerg","pricing_plan_id":"free"},{"bike_id":"9af2d680-0ed7-4a95-8a64-479a32b5c23d","system_id":"levelo_inurba_marseille","lat":43.282754,"lon":5.350774,"is_reserved":false,"is_disabled":false,"rental_uris":{"android":"levelo://app?vid=9af2d680-0ed7-4a95-8a64-479a32b5c23d","ios":"levelo://app?vid=9af2d680-0ed7-4a95-8a64-479a32b5c23d"},"vehicle_type_id":"4","last_reported":1704639980,"current_range_meters":10800,"station_id":"ce4bhbp2rcd13ifvqerg","pricing_plan_id":"free"},{"bike_id":"293fe112-ca52-4485-86ba-b3ee0d52168e","system_id":"levelo_inurba_marseille","lat":43.28271,"lon":5.35081,"is_reserved":false,"is_disabled":false,"rental_uris":{"android":"levelo://app?vid=293fe112-ca52-4485-86ba-b3ee0d52168e","ios":"levelo://app?vid=293fe112-ca52-4485-86ba-b3ee0d52168e"},"vehicle_type_id":"4","last_reported":1704639980,"current_range_meters":28400,"station_id":"ce4bhbp2rcd13ifvqerg","pricing_plan_id":"free"},{"bike_id":"4959eca2-0875-43d2-833e-a6796b3c00c3","system_id":"levelo_inurba_marseille","lat":43.282723,"lon":5.350713,"is_reserved":false,"is_disabled":false,"rental_uris":{"android":"levelo://app?vid=4959eca2-0875-43d2-833e-a6796b3c00c3","ios":"levelo://app?vid=4959eca2-0875-43d2-833e-a6796b3c00c3"},"vehicle_type_id":"4","last_reported":1704639980,"current_range_meters":10400,"station_id":"ce4bhbp2rcd13ifvqerg","pricing_plan_id":"free"},{"bike_id":"9fdd7d5e-94e0-4c73-bd4d-b9b6aa37de6f","system_id":"levelo_inurba_marseille","lat":43.28276,"lon":5.35057,"is_reserved":false,"is_disabled":false,"rental_uris":{"android":"levelo://app?vid=9fdd7d5e-94e0-4c73-bd4d-b9b6aa37de6f","ios":"levelo://app?vid=9fdd7d5e-94e0-4c73-bd4d-b9b6aa37de6f"},"vehicle_type_id":"4","last_reported":1704639980,"current_range_meters":27200,"station_id":"ce4bhbp2rcd13ifvqerg","pricing_plan_id":"free"},{"bike_id":"f8dd31ec-fac5-40aa-bf57-1849aadae574","system_id":"levelo_inurba_marseille","lat":43.282744,"lon":5.350533,"is_reserved":false,"is_disabled":false,"rental_uris":{"android":"levelo://app?vid=f8dd31ec-fac5-40aa-bf57-1849aadae574","ios":"levelo://app?vid=f8dd31ec-fac5-40aa-bf57-1849aadae574"},"vehicle_type_id":"4","last_reported":1704639980,"current_range_meters":22800,"station_id":"ce4bhbp2rcd13ifvqerg","pricing_plan_id":"free"},{"bike_id":"037dec4d-1a09-4f4e-9d80-e557f82a7cab","system_id":"levelo_inurba_marseille","lat":43.282744,"lon":5.350533,"is_reserved":false,"is_disabled":false,"rental_uris":{"android":"levelo://app?vid=037dec4d-1a09-4f4e-9d80-e557f82a7cab","ios":"levelo://app?vid=037dec4d-1a09-4f4e-9d80-e557f82a7cab"},"vehicle_type_id":"4","last_reported":1704639980,"current_range_meters":24400,"station_id":"ce4bhbp2rcd13ifvqerg","pricing_plan_id":"free"},{"bike_id":"baa55ce8-38d6-4a67-afcd-ef822475ea01","system_id":"levelo_inurba_marseille","lat":43.28259,"lon":5.35063,"is_reserved":false,"is_disabled":false,"rental_uris":{"android":"levelo://app?vid=baa55ce8-38d6-4a67-afcd-ef822475ea01","ios":"levelo://app?vid=baa55ce8-38d6-4a67-afcd-ef822475ea01"},"vehicle_type_id":"4","last_reported":1704639980,"current_range_meters":5200,"station_id":"ce4bhbp2rcd13ifvqerg","pricing_plan_id":"free"},{"bike_id":"b9bc714b-defb-40be-b866-b21edf233a56","system_id":"levelo_inurba_marseille","lat":43.283502,"lon":5.386471,"is_reserved":false,"is_disabled":false,"rental_uris":{"android":"levelo://app?vid=b9bc714b-defb-40be-b866-b21edf233a56","ios":"levelo://app?vid=b9bc714b-defb-40be-b866-b21edf233a56"},"vehicle_type_id":"4","last_reported":1704639980,"current_range_meters":20800,"station_id":"ce4bh492rcd13ifvqdvg","pricing_plan_id":"free"},{"bike_id":"99ebf3b4-9f7b-4c49-8b9b-c6274612eaf9","system_id":"levelo_inurba_marseille","lat":43.281044,"lon":5.378308,"is_reserved":false,"is_disabled":false,"rental_uris":{"android":"levelo://app?vid=99ebf3b4-9f7b-4c49-8b9b-c6274612eaf9","ios":"levelo://app?vid=99ebf3b4-9f7b-4c49-8b9b-c6274612eaf9"},"vehicle_type_id":"4","last_reported":1704639980,"current_range_meters":31200,"station_id":"ce4bha12rcd13ifvqee0","pricing_plan_id":"free"},{"bike_id":"22c92632-3f9e-4706-b976-0e6d52ebc026","system_id":"levelo_inurba_marseille","lat":43.281044,"lon":5.378308,"is_reserved":false,"is_disabled":false,"rental_uris":{"android":"levelo://app?vid=22c92632-3f9e-4706-b976-0e6d52ebc026","ios":"levelo://app?vid=22c92632-3f9e-4706-b976-0e6d52ebc026"},"vehicle_type_id":"4","last_reported":1704639980,"current_range_meters":28000,"station_id":"ce4bha12rcd13ifvqee0","pricing_plan_id":"free"},{"bike_id":"63c1fa13-5558-4266-bc60-842679a3cc45","system_id":"levelo_inurba_marseille","lat":43.28573,"lon":5.394992,"is_reserved":false,"is_disabled":false,"rental_uris":{"android":"levelo://app?vid=63c1fa13-5558-4266-bc60-842679a3cc45","ios":"levelo://app?vid=63c1fa13-5558-4266-bc60-842679a3cc45"},"vehicle_type_id":"4","last_reported":1704639980,"current_range_meters":20000,"station_id":"ce4bh292rcd13ifvqdg0","pricing_plan_id":"free"},{"bike_id":"73b7c303-bb17-492e-9d0f-94d5ac695eac","system_id":"levelo_inurba_marseille","lat":43.3266,"lon":5.40986,"is_reserved":false,"is_disabled":false,"rental_uris":{"android":"levelo://app?vid=73b7c303-bb17-492e-9d0f-94d5ac695eac","ios":"levelo://app?vid=73b7c303-bb17-492e-9d0f-94d5ac695eac"},"vehicle_type_id":"4","last_reported":1704639980,"current_range_meters":15600,"station_id":"ce4bhpp2rcd13ifvqhgg","pricing_plan_id":"free"},{"bike_id":"a0d20dd8-a3b3-4fa3-a6e9-2896226abf35","system_id":"levelo_inurba_marseille","lat":43.326605,"lon":5.409903,"is_reserved":false,"is_disabled":false,"rental_uris":{"android":"levelo://app?vid=a0d20dd8-a3b3-4fa3-a6e9-2896226abf35","ios":"levelo://app?vid=a0d20dd8-a3b3-4fa3-a6e9-2896226abf35"},"vehicle_type_id":"4","last_reported":1704639980,"current_range_meters":6800,"station_id":"ce4bhpp2rcd13ifvqhgg","pricing_plan_id":"free"},{"bike_id":"3937b5fa-7319-4c0f-864e-3af96e8d900b","system_id":"levelo_inurba_marseille","lat":43.326605,"lon":5.409903,"is_reserved":false,"is_disabled":false,"rental_uris":{"android":"levelo://app?vid=3937b5fa-7319-4c0f-864e-3af96e8d900b","ios":"levelo://app?vid=3937b5fa-7319-4c0f-864e-3af96e8d900b"},"vehicle_type_id":"4","last_reported":1704639980,"current_range_meters":14000,"station_id":"ce4bhpp2rcd13ifvqhgg","pricing_plan_id":"free"},{"bike_id":"79e6d9d2-8335-4318-b357-5fc299368a69","system_id":"levelo_inurba_marseille","lat":43.304188,"lon":5.412904,"is_reserved":false,"is_disabled":false,"rental_uris":{"android":"levelo://app?vid=79e6d9d2-8335-4318-b357-5fc299368a69","ios":"levelo://app?vid=79e6d9d2-8335-4318-b357-5fc299368a69"},"vehicle_type_id":"4","last_reported":1704639980,"current_range_meters":28800,"station_id":"ce4bhop2rcd13ifvqh8g","pricing_plan_id":"free"},{"bike_id":"6bcc2d9f-ce8b-4eda-944e-d3d8c9887e44","system_id":"levelo_inurba_marseille","lat":43.304188,"lon":5.412904,"is_reserved":false,"is_disabled":false,"rental_uris":{"android":"levelo://app?vid=6bcc2d9f-ce8b-4eda-944e-d3d8c9887e44","ios":"levelo://app?vid=6bcc2d9f-ce8b-4eda-944e-d3d8c9887e44"},"vehicle_type_id":"4","last_reported":1704639980,"current_range_meters":16400,"station_id":"ce4bhop2rcd13ifvqh8g","pricing_plan_id":"free"},{"bike_id":"b3f0e20a-38ec-4661-95aa-8e26d6f0359b","system_id":"levelo_inurba_marseille","lat":43.279087,"lon":5.380114,"is_reserved":false,"is_disabled":false,"rental_uris":{"android":"levelo://app?vid=b3f0e20a-38ec-4661-95aa-8e26d6f0359b","ios":"levelo://app?vid=b3f0e20a-38ec-4661-95aa-8e26d6f0359b"},"vehicle_type_id":"4","last_reported":1704639980,"current_range_meters":14000,"station_id":"ce4bhf92rcd13ifvqf50","pricing_plan_id":"free"},{"bike_id":"370253fe-df5b-4fdd-8e1d-2329ae47e1c6","system_id":"levelo_inurba_marseille","lat":43.279087,"lon":5.380114,"is_reserved":false,"is_disabled":false,"rental_uris":{"android":"levelo://app?vid=370253fe-df5b-4fdd-8e1d-2329ae47e1c6","ios":"levelo://app?vid=370253fe-df5b-4fdd-8e1d-2329ae47e1c6"},"vehicle_type_id":"4","last_reported":1704639980,"current_range_meters":26800,"station_id":"ce4bhf92rcd13ifvqf50","pricing_plan_id":"free"},{"bike_id":"2e3b8101-bdcf-4695-9912-4e470b2e52f6","system_id":"levelo_inurba_marseille","lat":43.287154,"lon":5.399979,"is_reserved":false,"is_disabled":false,"rental_uris":{"android":"levelo://app?vid=2e3b8101-bdcf-4695-9912-4e470b2e52f6","ios":"levelo://app?vid=2e3b8101-bdcf-4695-9912-4e470b2e52f6"},"vehicle_type_id":"4","last_reported":1704639980,"current_range_meters":24400,"station_id":"ce4bho92rcd13ifvqh3g","pricing_plan_id":"free"},{"bike_id":"f7bb2c77-3b39-440f-9767-93601174c05a","system_id":"levelo_inurba_marseille","lat":43.287154,"lon":5.399979,"is_reserved":false,"is_disabled":false,"rental_uris":{"android":"levelo://app?vid=f7bb2c77-3b39-440f-9767-93601174c05a","ios":"levelo://app?vid=f7bb2c77-3b39-440f-9767-93601174c05a"},"vehicle_type_id":"4","last_reported":1704639980,"current_range_meters":16000,"station_id":"ce4bho92rcd13ifvqh3g","pricing_plan_id":"free"},{"bike_id":"58fcd3f9-4be5-43bd-93d8-0c8ca012a0f3","system_id":"levelo_inurba_marseille","lat":43.320045,"lon":5.415046,"is_reserved":false,"is_disabled":false,"rental_uris":{"android":"levelo://app?vid=58fcd3f9-4be5-43bd-93d8-0c8ca012a0f3","ios":"levelo://app?vid=58fcd3f9-4be5-43bd-93d8-0c8ca012a0f3"},"vehicle_type_id":"4","last_reported":1704639980,"current_range_meters":29600,"station_id":"ce4bhq92rcd13ifvqhkg","pricing_plan_id":"free"},{"bike_id":"f27ddf8d-15a7-4f56-839a-4e1b45dc8b71","system_id":"levelo_inurba_marseille","lat":43.320045,"lon":5.415048,"is_reserved":false,"is_disabled":false,"rental_uris":{"android":"levelo://app?vid=f27ddf8d-15a7-4f56-839a-4e1b45dc8b71","ios":"levelo://app?vid=f27ddf8d-15a7-4f56-839a-4e1b45dc8b71"},"vehicle_type_id":"4","last_reported":1704639980,"current_range_meters":28000,"station_id":"ce4bhq92rcd13ifvqhkg","pricing_plan_id":"free"},{"bike_id":"03d1a6ab-0c67-4bd5-8b90-57b4cc3d267c","system_id":"levelo_inurba_marseille","lat":43.279742,"lon":5.38744,"is_reserved":false,"is_disabled":false,"rental_uris":{"android":"levelo://app?vid=03d1a6ab-0c67-4bd5-8b90-57b4cc3d267c","ios":"levelo://app?vid=03d1a6ab-0c67-4bd5-8b90-57b4cc3d267c"},"vehicle_type_id":"4","last_reported":1704639980,"current_range_meters":23200,"station_id":"ce4bhg12rcd13ifvqf80","pricing_plan_id":"free"},{"bike_id":"6839e748-dc98-4408-8bd8-32786d880019","system_id":"levelo_inurba_marseille","lat":43.280755,"lon":5.39657,"is_reserved":false,"is_disabled":false,"rental_uris":{"android":"levelo://app?vid=6839e748-dc98-4408-8bd8-32786d880019","ios":"levelo://app?vid=6839e748-dc98-4408-8bd8-32786d880019"},"vehicle_type_id":"4","last_reported":1704639980,"current_range_meters":14000,"station_id":"","pricing_plan_id":"free"},{"bike_id":"bcc7aa4f-c418-404a-9cc8-192038a0e7d0","system_id":"levelo_inurba_marseille","lat":43.303837,"lon":5.418724,"is_reserved":false,"is_disabled":false,"rental_uris":{"android":"levelo://app?vid=bcc7aa4f-c418-404a-9cc8-192038a0e7d0","ios":"levelo://app?vid=bcc7aa4f-c418-404a-9cc8-192038a0e7d0"},"vehicle_type_id":"4","last_reported":1704639980,"current_range_meters":22400,"station_id":"ce4bhop2rcd13ifvqh7g","pricing_plan_id":"free"},{"bike_id":"9d5095a4-b951-4636-9005-60267ecaf2d3","system_id":"levelo_inurba_marseille","lat":43.303837,"lon":5.418724,"is_reserved":false,"is_disabled":false,"rental_uris":{"android":"levelo://app?vid=9d5095a4-b951-4636-9005-60267ecaf2d3","ios":"levelo://app?vid=9d5095a4-b951-4636-9005-60267ecaf2d3"},"vehicle_type_id":"4","last_reported":1704639980,"current_range_meters":27600,"station_id":"ce4bhop2rcd13ifvqh7g","pricing_plan_id":"free"},{"bike_id":"fba911de-24ed-44b3-9638-3159465196b8","system_id":"levelo_inurba_marseille","lat":43.303837,"lon":5.418724,"is_reserved":false,"is_disabled":false,"rental_uris":{"android":"levelo://app?vid=fba911de-24ed-44b3-9638-3159465196b8","ios":"levelo://app?vid=fba911de-24ed-44b3-9638-3159465196b8"},"vehicle_type_id":"4","last_reported":1704639980,"current_range_meters":31200,"station_id":"ce4bhop2rcd13ifvqh7g","pricing_plan_id":"free"},{"bike_id":"9b55a664-b361-4aac-a745-9cee0725cc1d","system_id":"levelo_inurba_marseille","lat":43.278401,"lon":5.392152,"is_reserved":false,"is_disabled":false,"rental_uris":{"android":"levelo://app?vid=9b55a664-b361-4aac-a745-9cee0725cc1d","ios":"levelo://app?vid=9b55a664-b361-4aac-a745-9cee0725cc1d"},"vehicle_type_id":"4","last_reported":1704639980,"current_range_meters":28800,"station_id":"ce4bhjp2rcd13ifvqga0","pricing_plan_id":"free"},{"bike_id":"c7a633b5-c4af-4c4b-89ca-f9e06db5e9e8","system_id":"levelo_inurba_marseille","lat":43.335975,"lon":5.409995,"is_reserved":false,"is_disabled":false,"rental_uris":{"android":"levelo://app?vid=c7a633b5-c4af-4c4b-89ca-f9e06db5e9e8","ios":"levelo://app?vid=c7a633b5-c4af-4c4b-89ca-f9e06db5e9e8"},"vehicle_type_id":"4","last_reported":1704639980,"current_range_meters":14000,"station_id":"ce4bhqh2rcd13ifvqhmg","pricing_plan_id":"free"},{"bike_id":"78ac318a-ef51-445c-801b-f5644497252b","system_id":"levelo_inurba_marseille","lat":43.273609,"lon":5.362708,"is_reserved":false,"is_disabled":false,"rental_uris":{"android":"levelo://app?vid=78ac318a-ef51-445c-801b-f5644497252b","ios":"levelo://app?vid=78ac318a-ef51-445c-801b-f5644497252b"},"vehicle_type_id":"4","last_reported":1704639980,"current_range_meters":28000,"station_id":"ce4bhbh2rcd13ifvqeo0","pricing_plan_id":"free"},{"bike_id":"59b071bf-aa73-434e-a64c-e76dded18a4f","system_id":"levelo_inurba_marseille","lat":43.273609,"lon":5.362708,"is_reserved":false,"is_disabled":false,"rental_uris":{"android":"levelo://app?vid=59b071bf-aa73-434e-a64c-e76dded18a4f","ios":"levelo://app?vid=59b071bf-aa73-434e-a64c-e76dded18a4f"},"vehicle_type_id":"4","last_reported":1704639980,"current_range_meters":25200,"station_id":"ce4bhbh2rcd13ifvqeo0","pricing_plan_id":"free"},{"bike_id":"3c206e6a-546e-4c58-8796-0f7b0b60a44e","system_id":"levelo_inurba_marseille","lat":43.336134,"lon":5.410341,"is_reserved":false,"is_disabled":false,"rental_uris":{"android":"levelo://app?vid=3c206e6a-546e-4c58-8796-0f7b0b60a44e","ios":"levelo://app?vid=3c206e6a-546e-4c58-8796-0f7b0b60a44e"},"vehicle_type_id":"4","last_reported":1704639980,"current_range_meters":10000,"station_id":"ce4bhqh2rcd13ifvqhmg","pricing_plan_id":"free"},{"bike_id":"5d9f935a-33f8-4b5f-8466-fb84e685f961","system_id":"levelo_inurba_marseille","lat":43.276769,"lon":5.388787,"is_reserved":false,"is_disabled":false,"rental_uris":{"android":"levelo://app?vid=5d9f935a-33f8-4b5f-8466-fb84e685f961","ios":"levelo://app?vid=5d9f935a-33f8-4b5f-8466-fb84e685f961"},"vehicle_type_id":"4","last_reported":1704639980,"current_range_meters":5200,"station_id":"ce4bhi12rcd13ifvqfo0","pricing_plan_id":"free"},{"bike_id":"2d921381-88f7-4938-8990-41cc9b6a5d7b","system_id":"levelo_inurba_marseille","lat":43.276769,"lon":5.388787,"is_reserved":false,"is_disabled":false,"rental_uris":{"android":"levelo://app?vid=2d921381-88f7-4938-8990-41cc9b6a5d7b","ios":"levelo://app?vid=2d921381-88f7-4938-8990-41cc9b6a5d7b"},"vehicle_type_id":"4","last_reported":1704639980,"current_range_meters":17200,"station_id":"ce4bhi12rcd13ifvqfo0","pricing_plan_id":"free"},{"bike_id":"5be78752-b06d-4ce8-b9bf-4dfa81296463","system_id":"levelo_inurba_marseille","lat":43.279952,"lon":5.400085,"is_reserved":false,"is_disabled":false,"rental_uris":{"android":"levelo://app?vid=5be78752-b06d-4ce8-b9bf-4dfa81296463","ios":"levelo://app?vid=5be78752-b06d-4ce8-b9bf-4dfa81296463"},"vehicle_type_id":"4","last_reported":1704639980,"current_range_meters":29200,"station_id":"ce4bho92rcd13ifvqh4g","pricing_plan_id":"free"},{"bike_id":"eb279b7b-fe50-4033-8091-de40cbb12646","system_id":"levelo_inurba_marseille","lat":43.279975,"lon":5.40009,"is_reserved":false,"is_disabled":false,"rental_uris":{"android":"levelo://app?vid=eb279b7b-fe50-4033-8091-de40cbb12646","ios":"levelo://app?vid=eb279b7b-fe50-4033-8091-de40cbb12646"},"vehicle_type_id":"4","last_reported":1704639980,"current_range_meters":28400,"station_id":"ce4bho92rcd13ifvqh4g","pricing_plan_id":"free"},{"bike_id":"b64097b7-cafd-40c8-9192-664316f67849","system_id":"levelo_inurba_marseille","lat":43.317121,"lon":5.423936,"is_reserved":false,"is_disabled":false,"rental_uris":{"android":"levelo://app?vid=b64097b7-cafd-40c8-9192-664316f67849","ios":"levelo://app?vid=b64097b7-cafd-40c8-9192-664316f67849"},"vehicle_type_id":"4","last_reported":1704639980,"current_range_meters":27600,"station_id":"ce4bhp92rcd13ifvqhbg","pricing_plan_id":"free"},{"bike_id":"4d4e406f-b1e6-4f20-884f-ad2fc27ab912","system_id":"levelo_inurba_marseille","lat":43.317121,"lon":5.423936,"is_reserved":false,"is_disabled":false,"rental_uris":{"android":"levelo://app?vid=4d4e406f-b1e6-4f20-884f-ad2fc27ab912","ios":"levelo://app?vid=4d4e406f-b1e6-4f20-884f-ad2fc27ab912"},"vehicle_type_id":"4","last_reported":1704639980,"current_range_meters":5200,"station_id":"ce4bhp92rcd13ifvqhbg","pricing_plan_id":"free"},{"bike_id":"39d7b820-ac2b-47cd-a66b-8f0ac1acd84e","system_id":"levelo_inurba_marseille","lat":43.310785,"lon":5.424305,"is_reserved":false,"is_disabled":false,"rental_uris":{"android":"levelo://app?vid=39d7b820-ac2b-47cd-a66b-8f0ac1acd84e","ios":"levelo://app?vid=39d7b820-ac2b-47cd-a66b-8f0ac1acd84e"},"vehicle_type_id":"4","last_reported":1704639980,"current_range_meters":30000,"station_id":"ce4bhp92rcd13ifvqhag","pricing_plan_id":"free"},{"bike_id":"cb8b05e2-c206-494f-9513-c73e1488f82e","system_id":"levelo_inurba_marseille","lat":43.340804,"lon":5.410219,"is_reserved":false,"is_disabled":false,"rental_uris":{"android":"levelo://app?vid=cb8b05e2-c206-494f-9513-c73e1488f82e","ios":"levelo://app?vid=cb8b05e2-c206-494f-9513-c73e1488f82e"},"vehicle_type_id":"4","last_reported":1704639980,"current_range_meters":31200,"station_id":"ce4bhqh2rcd13ifvqhlg","pricing_plan_id":"free"},{"bike_id":"461657c9-e33a-46b1-991e-8729539ba8aa","system_id":"levelo_inurba_marseille","lat":43.340804,"lon":5.410219,"is_reserved":false,"is_disabled":false,"rental_uris":{"android":"levelo://app?vid=461657c9-e33a-46b1-991e-8729539ba8aa","ios":"levelo://app?vid=461657c9-e33a-46b1-991e-8729539ba8aa"},"vehicle_type_id":"4","last_reported":1704639980,"current_range_meters":11600,"station_id":"ce4bhqh2rcd13ifvqhlg","pricing_plan_id":"free"},{"bike_id":"13cfeea4-863f-4b43-8c99-f402c99b35a5","system_id":"levelo_inurba_marseille","lat":43.274103,"lon":5.394016,"is_reserved":false,"is_disabled":false,"rental_uris":{"android":"levelo://app?vid=13cfeea4-863f-4b43-8c99-f402c99b35a5","ios":"levelo://app?vid=13cfeea4-863f-4b43-8c99-f402c99b35a5"},"vehicle_type_id":"4","last_reported":1704639980,"current_range_meters":31200,"station_id":"ce4bhdp2rcd13ifvqf20","pricing_plan_id":"free"},{"bike_id":"287d1458-a279-4139-94f8-da980c4a9cdb","system_id":"levelo_inurba_marseille","lat":43.30425,"lon":5.4254,"is_reserved":false,"is_disabled":false,"rental_uris":{"android":"levelo://app?vid=287d1458-a279-4139-94f8-da980c4a9cdb","ios":"levelo://app?vid=287d1458-a279-4139-94f8-da980c4a9cdb"},"vehicle_type_id":"4","last_reported":1704639980,"current_range_meters":31200,"station_id":"ce4bhoh2rcd13ifvqh6g","pricing_plan_id":"free"},{"bike_id":"7a41f29a-db12-4983-af35-9821b88287e4","system_id":"levelo_inurba_marseille","lat":43.304096,"lon":5.425385,"is_reserved":false,"is_disabled":false,"rental_uris":{"android":"levelo://app?vid=7a41f29a-db12-4983-af35-9821b88287e4","ios":"levelo://app?vid=7a41f29a-db12-4983-af35-9821b88287e4"},"vehicle_type_id":"4","last_reported":1704639980,"current_range_meters":31200,"station_id":"ce4bhoh2rcd13ifvqh6g","pricing_plan_id":"free"},{"bike_id":"270b80df-71a9-494c-aeb9-e3859dc7d43f","system_id":"levelo_inurba_marseille","lat":43.304096,"lon":5.425385,"is_reserved":false,"is_disabled":false,"rental_uris":{"android":"levelo://app?vid=270b80df-71a9-494c-aeb9-e3859dc7d43f","ios":"levelo://app?vid=270b80df-71a9-494c-aeb9-e3859dc7d43f"},"vehicle_type_id":"4","last_reported":1704639980,"current_range_meters":31200,"station_id":"ce4bhoh2rcd13ifvqh6g","pricing_plan_id":"free"},{"bike_id":"e7cbbbff-b9d7-4c64-89bd-140b0f668fbf","system_id":"levelo_inurba_marseille","lat":43.294933,"lon":5.422425,"is_reserved":false,"is_disabled":false,"rental_uris":{"android":"levelo://app?vid=e7cbbbff-b9d7-4c64-89bd-140b0f668fbf","ios":"levelo://app?vid=e7cbbbff-b9d7-4c64-89bd-140b0f668fbf"},"vehicle_type_id":"4","last_reported":1704639980,"current_range_meters":21600,"station_id":"","pricing_plan_id":"free"},{"bike_id":"14bf7448-533a-4843-be5f-64d44e62eb07","system_id":"levelo_inurba_marseille","lat":43.272103,"lon":5.391973,"is_reserved":false,"is_disabled":false,"rental_uris":{"android":"levelo://app?vid=14bf7448-533a-4843-be5f-64d44e62eb07","ios":"levelo://app?vid=14bf7448-533a-4843-be5f-64d44e62eb07"},"vehicle_type_id":"4","last_reported":1704639980,"current_range_meters":28000,"station_id":"ce4bhhp2rcd13ifvqfm0","pricing_plan_id":"free"},{"bike_id":"bc753de5-e87b-4380-94c0-2c6f330d44ce","system_id":"levelo_inurba_marseille","lat":43.272118,"lon":5.391758,"is_reserved":false,"is_disabled":false,"rental_uris":{"android":"levelo://app?vid=bc753de5-e87b-4380-94c0-2c6f330d44ce","ios":"levelo://app?vid=bc753de5-e87b-4380-94c0-2c6f330d44ce"},"vehicle_type_id":"4","last_reported":1704639980,"current_range_meters":19600,"station_id":"ce4bhhp2rcd13ifvqfm0","pricing_plan_id":"free"},{"bike_id":"24173cdf-b2f9-4045-afa3-e9c4d1a3e2a9","system_id":"levelo_inurba_marseille","lat":43.269467,"lon":5.386439,"is_reserved":false,"is_disabled":false,"rental_uris":{"android":"levelo://app?vid=24173cdf-b2f9-4045-afa3-e9c4d1a3e2a9","ios":"levelo://app?vid=24173cdf-b2f9-4045-afa3-e9c4d1a3e2a9"},"vehicle_type_id":"4","last_reported":1704639980,"current_range_meters":30800,"station_id":"ce4bhh92rcd13ifvqfh0","pricing_plan_id":"free"},{"bike_id":"a1f7954c-f39a-4f90-848b-314cf71518ff","system_id":"levelo_inurba_marseille","lat":43.269467,"lon":5.386439,"is_reserved":false,"is_disabled":false,"rental_uris":{"android":"levelo://app?vid=a1f7954c-f39a-4f90-848b-314cf71518ff","ios":"levelo://app?vid=a1f7954c-f39a-4f90-848b-314cf71518ff"},"vehicle_type_id":"4","last_reported":1704639980,"current_range_meters":12800,"station_id":"ce4bhh92rcd13ifvqfh0","pricing_plan_id":"free"},{"bike_id":"367bf543-8b8b-42fc-b6d5-74f567c3d98c","system_id":"levelo_inurba_marseille","lat":43.269467,"lon":5.386439,"is_reserved":false,"is_disabled":false,"rental_uris":{"android":"levelo://app?vid=367bf543-8b8b-42fc-b6d5-74f567c3d98c","ios":"levelo://app?vid=367bf543-8b8b-42fc-b6d5-74f567c3d98c"},"vehicle_type_id":"4","last_reported":1704639980,"current_range_meters":15200,"station_id":"ce4bhh92rcd13ifvqfh0","pricing_plan_id":"free"},{"bike_id":"1e52d9ed-a340-49b8-8830-59706e2a1531","system_id":"levelo_inurba_marseille","lat":43.269467,"lon":5.386439,"is_reserved":false,"is_disabled":false,"rental_uris":{"android":"levelo://app?vid=1e52d9ed-a340-49b8-8830-59706e2a1531","ios":"levelo://app?vid=1e52d9ed-a340-49b8-8830-59706e2a1531"},"vehicle_type_id":"4","last_reported":1704639980,"current_range_meters":27200,"station_id":"ce4bhh92rcd13ifvqfh0","pricing_plan_id":"free"},{"bike_id":"d27af6e3-dc07-4087-9076-892d9c5f6d06","system_id":"levelo_inurba_marseille","lat":43.269467,"lon":5.386439,"is_reserved":false,"is_disabled":false,"rental_uris":{"android":"levelo://app?vid=d27af6e3-dc07-4087-9076-892d9c5f6d06","ios":"levelo://app?vid=d27af6e3-dc07-4087-9076-892d9c5f6d06"},"vehicle_type_id":"4","last_reported":1704639980,"current_range_meters":27200,"station_id":"ce4bhh92rcd13ifvqfh0","pricing_plan_id":"free"},{"bike_id":"65f5650b-9ae4-4fba-8474-680fca417877","system_id":"levelo_inurba_marseille","lat":43.279465,"lon":5.410561,"is_reserved":false,"is_disabled":false,"rental_uris":{"android":"levelo://app?vid=65f5650b-9ae4-4fba-8474-680fca417877","ios":"levelo://app?vid=65f5650b-9ae4-4fba-8474-680fca417877"},"vehicle_type_id":"4","last_reported":1704639980,"current_range_meters":10400,"station_id":"ce4bhnp2rcd13ifvqh0g","pricing_plan_id":"free"},{"bike_id":"5145d9cf-e6fd-4794-b5c2-14e2e0f8068e","system_id":"levelo_inurba_marseille","lat":43.2957,"lon":5.42736,"is_reserved":false,"is_disabled":false,"rental_uris":{"android":"levelo://app?vid=5145d9cf-e6fd-4794-b5c2-14e2e0f8068e","ios":"levelo://app?vid=5145d9cf-e6fd-4794-b5c2-14e2e0f8068e"},"vehicle_type_id":"4","last_reported":1704639980,"current_range_meters":5200,"station_id":"","pricing_plan_id":"free"},{"bike_id":"f9f41134-c8e9-40bc-bc99-7122c6287c3c","system_id":"levelo_inurba_marseille","lat":43.265714,"lon":5.372891,"is_reserved":false,"is_disabled":false,"rental_uris":{"android":"levelo://app?vid=f9f41134-c8e9-40bc-bc99-7122c6287c3c","ios":"levelo://app?vid=f9f41134-c8e9-40bc-bc99-7122c6287c3c"},"vehicle_type_id":"4","last_reported":1704639980,"current_range_meters":16800,"station_id":"ce4bhg12rcd13ifvqf70","pricing_plan_id":"free"},{"bike_id":"cdf410ab-7f6e-499d-af26-3cf033261984","system_id":"levelo_inurba_marseille","lat":43.27996,"lon":5.416624,"is_reserved":false,"is_disabled":false,"rental_uris":{"android":"levelo://app?vid=cdf410ab-7f6e-499d-af26-3cf033261984","ios":"levelo://app?vid=cdf410ab-7f6e-499d-af26-3cf033261984"},"vehicle_type_id":"4","last_reported":1704639980,"current_range_meters":31200,"station_id":"ce4bho12rcd13ifvqh1g","pricing_plan_id":"free"},{"bike_id":"a66bebb3-68cc-4d73-abbc-ae2e502b1909","system_id":"levelo_inurba_marseille","lat":43.27996,"lon":5.416624,"is_reserved":false,"is_disabled":false,"rental_uris":{"android":"levelo://app?vid=a66bebb3-68cc-4d73-abbc-ae2e502b1909","ios":"levelo://app?vid=a66bebb3-68cc-4d73-abbc-ae2e502b1909"},"vehicle_type_id":"4","last_reported":1704639980,"current_range_meters":31200,"station_id":"ce4bho12rcd13ifvqh1g","pricing_plan_id":"free"},{"bike_id":"02e6b0aa-8174-4ba5-8c66-192686febf38","system_id":"levelo_inurba_marseille","lat":43.265569,"lon":5.390047,"is_reserved":false,"is_disabled":false,"rental_uris":{"android":"levelo://app?vid=02e6b0aa-8174-4ba5-8c66-192686febf38","ios":"levelo://app?vid=02e6b0aa-8174-4ba5-8c66-192686febf38"},"vehicle_type_id":"4","last_reported":1704639980,"current_range_meters":24000,"station_id":"ce4bhe12rcd13ifvqf30","pricing_plan_id":"free"},{"bike_id":"641af429-f565-4aa7-846f-8721c04e1834","system_id":"levelo_inurba_marseille","lat":43.265569,"lon":5.390047,"is_reserved":false,"is_disabled":false,"rental_uris":{"android":"levelo://app?vid=641af429-f565-4aa7-846f-8721c04e1834","ios":"levelo://app?vid=641af429-f565-4aa7-846f-8721c04e1834"},"vehicle_type_id":"4","last_reported":1704639980,"current_range_meters":27600,"station_id":"ce4bhe12rcd13ifvqf30","pricing_plan_id":"free"},{"bike_id":"83587738-36a8-4ce0-997d-b692919159bb","system_id":"levelo_inurba_marseille","lat":43.265569,"lon":5.390047,"is_reserved":false,"is_disabled":false,"rental_uris":{"android":"levelo://app?vid=83587738-36a8-4ce0-997d-b692919159bb","ios":"levelo://app?vid=83587738-36a8-4ce0-997d-b692919159bb"},"vehicle_type_id":"4","last_reported":1704639980,"current_range_meters":19200,"station_id":"ce4bhe12rcd13ifvqf30","pricing_plan_id":"free"},{"bike_id":"3f97de60-10c4-4ed2-a668-2a5d17d501c7","system_id":"levelo_inurba_marseille","lat":43.265569,"lon":5.390047,"is_reserved":false,"is_disabled":false,"rental_uris":{"android":"levelo://app?vid=3f97de60-10c4-4ed2-a668-2a5d17d501c7","ios":"levelo://app?vid=3f97de60-10c4-4ed2-a668-2a5d17d501c7"},"vehicle_type_id":"4","last_reported":1704639980,"current_range_meters":20000,"station_id":"ce4bhe12rcd13ifvqf30","pricing_plan_id":"free"},{"bike_id":"dfe24673-6dcc-4881-b6ce-3e0390272306","system_id":"levelo_inurba_marseille","lat":43.265569,"lon":5.390047,"is_reserved":false,"is_disabled":false,"rental_uris":{"android":"levelo://app?vid=dfe24673-6dcc-4881-b6ce-3e0390272306","ios":"levelo://app?vid=dfe24673-6dcc-4881-b6ce-3e0390272306"},"vehicle_type_id":"4","last_reported":1704639980,"current_range_meters":28400,"station_id":"ce4bhe12rcd13ifvqf30","pricing_plan_id":"free"},{"bike_id":"c49b5409-113f-4f72-a449-7ac851aed34b","system_id":"levelo_inurba_marseille","lat":43.267966,"lon":5.393976,"is_reserved":false,"is_disabled":false,"rental_uris":{"android":"levelo://app?vid=c49b5409-113f-4f72-a449-7ac851aed34b","ios":"levelo://app?vid=c49b5409-113f-4f72-a449-7ac851aed34b"},"vehicle_type_id":"4","last_reported":1704639980,"current_range_meters":12000,"station_id":"ce4bhh12rcd13ifvqfg0","pricing_plan_id":"free"},{"bike_id":"344298d4-e1ac-4a4d-a2a2-7f90774c6992","system_id":"levelo_inurba_marseille","lat":43.26949,"lon":5.40262,"is_reserved":false,"is_disabled":false,"rental_uris":{"android":"levelo://app?vid=344298d4-e1ac-4a4d-a2a2-7f90774c6992","ios":"levelo://app?vid=344298d4-e1ac-4a4d-a2a2-7f90774c6992"},"vehicle_type_id":"4","last_reported":1704639980,"current_range_meters":30000,"station_id":"cjm6bp8fraef2m0cb0m0","pricing_plan_id":"free"},{"bike_id":"17a18bf8-7d2d-4673-963e-b7d45cd5d69e","system_id":"levelo_inurba_marseille","lat":43.26949,"lon":5.40262,"is_reserved":false,"is_disabled":false,"rental_uris":{"android":"levelo://app?vid=17a18bf8-7d2d-4673-963e-b7d45cd5d69e","ios":"levelo://app?vid=17a18bf8-7d2d-4673-963e-b7d45cd5d69e"},"vehicle_type_id":"4","last_reported":1704639980,"current_range_meters":25200,"station_id":"cjm6bp8fraef2m0cb0m0","pricing_plan_id":"free"},{"bike_id":"c39c0e81-4139-48dc-9c27-6881b94baa48","system_id":"levelo_inurba_marseille","lat":43.26949,"lon":5.40262,"is_reserved":false,"is_disabled":false,"rental_uris":{"android":"levelo://app?vid=c39c0e81-4139-48dc-9c27-6881b94baa48","ios":"levelo://app?vid=c39c0e81-4139-48dc-9c27-6881b94baa48"},"vehicle_type_id":"4","last_reported":1704639980,"current_range_meters":20800,"station_id":"cjm6bp8fraef2m0cb0m0","pricing_plan_id":"free"},