{"last_updated":1726153727,"ttl":30,"version":"2.2","data":{"bikes":[{"bike_id":"2ca2fd52-6283-4397-ac7e-8db28b0c8f78","system_id":"levelo_inurba_marseille","lat":43.23197,"lon":5.35555,"is_reserved":false,"is_disabled":false,"rental_uris":{"android":"levelo://app?vid=2ca2fd52-6283-4397-ac7e-8db28b0c8f78","ios":"levelo://app?vid=2ca2fd52-6283-4397-ac7e-8db28b0c8f78"},"vehicle_type_id":"4","last_reported":1726153727,"current_range_meters":17200,"station_id":"ce4bhu92rcd13ifvqi70","pricing_plan_id":"cebpf4jnsgd1na2vs0mg"},{"bike_id":"8a157ad7-b014-44a5-9764-b7bd79d7610d","system_id":"levelo_inurba_marseille","lat":43.27325,"lon":5.39072,"is_reserved":false,"is_disabled":false,"rental_uris":{"android":"levelo://app?vid=8a157ad7-b014-44a5-9764-b7bd79d7610d","ios":"levelo://app?vid=8a157ad7-b014-44a5-9764-b7bd79d7610d"},"vehicle_type_id":"4","last_reported":1726153727,"current_range_meters":24800,"station_id":"ce4bhgp2rcd13ifvqfe0","pricing_plan_id":"cebpf4jnsgd1na2vs0mg"},{"bike_id":"3e6f7544-08ca-49bd-8f83-5ac10a989f0b","system_id":"levelo_inurba_marseille","lat":43.28267,"lon":5.35083,"is_reserved":false,"is_disabled":false,"rental_uris":{"android":"levelo://app?vid=3e6f7544-08ca-49bd-8f83-5ac10a989f0b","ios":"levelo://app?vid=3e6f7544-08ca-49bd-8f83-5ac10a989f0b"},"vehicle_type_id":"4","last_reported":1726153727,"current_range_meters":12000,"station_id":"ce4bhbp2rcd13ifvqerg","pricing_plan_id":"cebpf4jnsgd1na2vs0mg"},{"bike_id":"352bf688-43f5-45a1-8a6c-82fdcb446e7d","system_id":"levelo_inurba_marseille","lat":43.30799,"lon":5.38152,"is_reserved":false,"is_disabled":false,"rental_uris":{"android":"levelo://app?vid=352bf688-43f5-45a1-8a6c-82fdcb446e7d","ios":"levelo://app?vid=352bf688-43f5-45a1-8a6c-82fdcb446e7d"},"vehicle_type_id":"4","last_reported":1726153727,"current_range_meters":38800,"station_id":"ce4bgt12rcd13ifvqce0","pricing_plan_id":"cebpf4jnsgd1na2vs0mg"},{"bike_id":"896ff086-ddf6-4930-ab1e-66442a7c0efa","system_id":"levelo_inurba_marseille","lat":43.290784,"lon":5.390527,"is_reserved":false,"is_disabled":false,"rental_uris":{"android":"levelo://app?vid=896ff086-ddf6-4930-ab1e-66442a7c0efa","ios":"levelo://app?vid=896ff086-ddf6-4930-ab1e-66442a7c0efa"},"vehicle_type_id":"4","last_reported":1726153727,"current_range_meters":24400,"station_id":"ce4bhnh2rcd13ifvqgug","pricing_plan_id":"cebpf4jnsgd1na2vs0mg"},{"bike_id":"d157bcd2-fd4d-4eaa-8eaf-8e8f3f9850d0","system_id":"levelo_inurba_marseille","lat":43.296,"lon":5.381,"is_reserved":false,"is_disabled":false,"rental_uris":{"android":"levelo://app?vid=d157bcd2-fd4d-4eaa-8eaf-8e8f3f9850d0","ios":"levelo://app?vid=d157bcd2-fd4d-4eaa-8eaf-8e8f3f9850d0"},"vehicle_type_id":"4","last_reported":1726153727,"current_range_meters":24000,"station_id":"ce4bgl12rcd13ifvqbo0","pricing_plan_id":"cebpf4jnsgd1na2vs0mg"},{"bike_id":"831ad933-e41a-4e0c-adcd-f8f4044446aa","system_id":"levelo_inurba_marseille","lat":43.23154,"lon":5.43719,"is_reserved":false,"is_disabled":false,"rental_uris":{"android":"levelo://app?vid=831ad933-e41a-4e0c-adcd-f8f4044446aa","ios":"levelo://app?vid=831ad933-e41a-4e0c-adcd-f8f4044446aa"},"vehicle_type_id":"4","last_reported":1726153727,"current_range_meters":20000,"station_id":"ce4bhmp2rcd13ifvqgog","pricing_plan_id":"cebpf4jnsgd1na2vs0mg"},{"bike_id":"3270805d-d1f7-40fe-9d7b-166a33f060c7","system_id":"levelo_inurba_marseille","lat":43.310635,"lon":5.423067,"is_reserved":false,"is_disabled":false,"rental_uris":{"android":"levelo://app?vid=3270805d-d1f7-40fe-9d7b-166a33f060c7","ios":"levelo://app?vid=3270805d-d1f7-40fe-9d7b-166a33f060c7"},"vehicle_type_id":"4","last_reported":1726153727,"current_range_meters":14400,"station_id":"ce4bhp92rcd13ifvqhag","pricing_plan_id":"cebpf4jnsgd1na2vs0mg"},{"bike_id":"13ec4916-f0ea-4897-8afc-596425b42c42","system_id":"levelo_inurba_marseille","lat":43.23198,"lon":5.35554,"is_reserved":false,"is_disabled":false,"rental_uris":{"android":"levelo://app?vid=13ec4916-f0ea-4897-8afc-596425b42c42","ios":"levelo://app?vid=13ec4916-f0ea-4897-8afc-596425b42c42"},"vehicle_type_id":"4","last_reported":1726153727,"current_range_meters":34000,"station_id":"ce4bhu92rcd13ifvqi70","pricing_plan_id":"cebpf4jnsgd1na2vs0mg"},{"bike_id":"328b8b59-2270-42e2-8bc6-799ca108f4fb","system_id":"levelo_inurba_marseille","lat":43.28275,"lon":5.35076,"is_reserved":false,"is_disabled":false,"rental_uris":{"android":"levelo://app?vid=328b8b59-2270-42e2-8bc6-799ca108f4fb","ios":"levelo://app?vid=328b8b59-2270-42e2-8bc6-799ca108f4fb"},"vehicle_type_id":"4","last_reported":1726153727,"current_range_meters":38400,"station_id":"ce4bhbp2rcd13ifvqerg","pricing_plan_id":"cebpf4jnsgd1na2vs0mg"},{"bike_id":"80e566a0-c600-421d-8a30-6eed52562566","system_id":"levelo_inurba_marseille","lat":43.25587,"lon":5.3824,"is_reserved":false,"is_disabled":false,"rental_uris":{"android":"levelo://app?vid=80e566a0-c600-421d-8a30-6eed52562566","ios":"levelo://app?vid=80e566a0-c600-421d-8a30-6eed52562566"},"vehicle_type_id":"4","last_reported":1726153727,"current_range_meters":14000,"station_id":"ce4bhih2rcd13ifvqfs0","pricing_plan_id":"cebpf4jnsgd1na2vs0mg"},{"bike_id":"a68df08b-f9fa-4991-9775-134d012f2510","system_id":"levelo_inurba_marseille","lat":43.23064,"lon":5.35487,"is_reserved":false,"is_disabled":false,"rental_uris":{"android":"levelo://app?vid=a68df08b-f9fa-4991-9775-134d012f2510","ios":"levelo://app?vid=a68df08b-f9fa-4991-9775-134d012f2510"},"vehicle_type_id":"4","last_reported":1726153727,"current_range_meters":16000,"station_id":"cpo3342slgdg3j2ifvpg","pricing_plan_id":"cebpf4jnsgd1na2vs0mg"},{"bike_id":"8f27f674-d304-498a-918e-f40d5257b45c","system_id":"levelo_inurba_marseille","lat":43.29195,"lon":5.39317,"is_reserved":false,"is_disabled":false,"rental_uris":{"android":"levelo://app?vid=8f27f674-d304-498a-918e-f40d5257b45c","ios":"levelo://app?vid=8f27f674-d304-498a-918e-f40d5257b45c"},"vehicle_type_id":"4","last_reported":1726153727,"current_range_meters":18800,"station_id":"ce4bh192rcd13ifvqdd0","pricing_plan_id":"cebpf4jnsgd1na2vs0mg"},{"bike_id":"acd8a3d5-a9db-4ea3-b234-2a790cfd605a","system_id":"levelo_inurba_marseille","lat":43.23964,"lon":5.36625,"is_reserved":false,"is_disabled":false,"rental_uris":{"android":"levelo://app?vid=acd8a3d5-a9db-4ea3-b234-2a790cfd605a","ios":"levelo://app?vid=acd8a3d5-a9db-4ea3-b234-2a790cfd605a"},"vehicle_type_id":"4","last_reported":1726153727,"current_range_meters":20000,"station_id":"ce4bhi12rcd13ifvqfp0","pricing_plan_id":"cebpf4jnsgd1na2vs0mg"},{"bike_id":"2d96f5be-cff9-4c70-ae79-8022064b0234","system_id":"levelo_inurba_marseille","lat":43.28469,"lon":5.35876,"is_reserved":false,"is_disabled":false,"rental_uris":{"android":"levelo://app?vid=2d96f5be-cff9-4c70-ae79-8022064b0234","ios":"levelo://app?vid=2d96f5be-cff9-4c70-ae79-8022064b0234"},"vehicle_type_id":"4","last_reported":1726153727,"current_range_meters":28400,"station_id":"ce4bhah2rcd13ifvqei0","pricing_plan_id":"cebpf4jnsgd1na2vs0mg"},{"bike_id":"995d3a7e-289e-4ebd-b785-9d2da426ad57","system_id":"levelo_inurba_marseille","lat":43.23201,"lon":5.35551,"is_reserved":false,"is_disabled":false,"rental_uris":{"android":"levelo://app?vid=995d3a7e-289e-4ebd-b785-9d2da426ad57","ios":"levelo://app?vid=995d3a7e-289e-4ebd-b785-9d2da426ad57"},"vehicle_type_id":"4","last_reported":1726153727,"current_range_meters":28800,"station_id":"ce4bhu92rcd13ifvqi70","pricing_plan_id":"cebpf4jnsgd1na2vs0mg"},{"bike_id":"74c67d55-8a5f-40c9-8066-d68354718f8c","system_id":"levelo_inurba_marseille","lat":43.23196,"lon":5.35557,"is_reserved":false,"is_disabled":false,"rental_uris":{"android":"levelo://app?vid=74c67d55-8a5f-40c9-8066-d68354718f8c","ios":"levelo://app?vid=74c67d55-8a5f-40c9-8066-d68354718f8c"},"vehicle_type_id":"4","last_reported":1726153727,"current_range_meters":31200,"station_id":"ce4bhu92rcd13ifvqi70","pricing_plan_id":"cebpf4jnsgd1na2vs0mg"},{"bike_id":"86a397a5-5a46-427a-884b-f528ef77038a","system_id":"levelo_inurba_marseille","lat":43.28622,"lon":5.351017,"is_reserved":false,"is_disabled":false,"rental_uris":{"android":"levelo://app?vid=86a397a5-5a46-427a-884b-f528ef77038a","ios":"levelo://app?vid=86a397a5-5a46-427a-884b-f528ef77038a"},"vehicle_type_id":"4","last_reported":1726153727,"current_range_meters":16400,"station_id":"ce4bhch2rcd13ifvqeug","pricing_plan_id":"cebpf4jnsgd1na2vs0mg"},{"bike_id":"0996fe95-784c-4bc8-bc04-5f026d9db188","system_id":"levelo_inurba_marseille","lat":43.33028,"lon":5.39035,"is_reserved":false,"is_disabled":false,"rental_uris":{"android":"levelo://app?vid=0996fe95-784c-4bc8-bc04-5f026d9db188","ios":"levelo://app?vid=0996fe95-784c-4bc8-bc04-5f026d9db188"},"vehicle_type_id":"4","last_reported":1726153727,"current_range_meters":25200,"station_id":"ce4bhr92rcd13ifvqhrg","pricing_plan_id":"cebpf4jnsgd1na2vs0mg"},{"bike_id":"12ab67fc-3193-4e29-bf33-053d347db09d","system_id":"levelo_inurba_marseille","lat":43.25585,"lon":5.38232,"is_reserved":false,"is_disabled":false,"rental_uris":{"android":"levelo://app?vid=12ab67fc-3193-4e29-bf33-053d347db09d","ios":"levelo://app?vid=12ab67fc-3193-4e29-bf33-053d347db09d"},"vehicle_type_id":"4","last_reported":1726153727,"current_range_meters":14000,"station_id":"ce4bhih2rcd13ifvqfs0","pricing_plan_id":"cebpf4jnsgd1na2vs0mg"},{"bike_id":"f26c1504-1d02-4a96-9cce-a8d8d09650ab","system_id":"levelo_inurba_marseille","lat":43.31224,"lon":5.36861,"is_reserved":false,"is_disabled":false,"rental_uris":{"android":"levelo://app?vid=f26c1504-1d02-4a96-9cce-a8d8d09650ab","ios":"levelo://app?vid=f26c1504-1d02-4a96-9cce-a8d8d09650ab"},"vehicle_type_id":"4","last_reported":1726153727,"current_range_meters":38800,"station_id":"ce4bgl92rcd13ifvqbq0","pricing_plan_id":"cebpf4jnsgd1na2vs0mg"},{"bike_id":"931ed181-cfcc-4521-bb89-09d8e24b18e2","system_id":"levelo_inurba_marseille","lat":43.231537,"lon":5.437249,"is_reserved":false,"is_disabled":false,"rental_uris":{"android":"levelo://app?vid=931ed181-cfcc-4521-bb89-09d8e24b18e2","ios":"levelo://app?vid=931ed181-cfcc-4521-bb89-09d8e24b18e2"},"vehicle_type_id":"4","last_reported":1726153727,"current_range_meters":14800,"station_id":"ce4bhmp2rcd13ifvqgog","pricing_plan_id":"cebpf4jnsgd1na2vs0mg"},{"bike_id":"abd5a5e3-9b7a-4595-9f5f-38d54b07a92b","system_id":"levelo_inurba_marseille","lat":43.26938,"lon":5.38916,"is_reserved":false,"is_disabled":false,"rental_uris":{"android":"levelo://app?vid=abd5a5e3-9b7a-4595-9f5f-38d54b07a92b","ios":"levelo://app?vid=abd5a5e3-9b7a-4595-9f5f-38d54b07a92b"},"vehicle_type_id":"4","last_reported":1726153727,"current_range_meters":16400,"station_id":"ce4bhhh2rcd13ifvqfl0","pricing_plan_id":"cebpf4jnsgd1na2vs0mg"},{"bike_id":"aed5b3cb-5785-4b3f-b1e5-85aa6bbd88bc","system_id":"levelo_inurba_marseille","lat":43.31363,"lon":5.38478,"is_reserved":false,"is_disabled":false,"rental_uris":{"android":"levelo://app?vid=aed5b3cb-5785-4b3f-b1e5-85aa6bbd88bc","ios":"levelo://app?vid=aed5b3cb-5785-4b3f-b1e5-85aa6bbd88bc"},"vehicle_type_id":"4","last_reported":1726153727,"current_range_meters":37600,"station_id":"ce4bgt92rcd13ifvqcf0","pricing_plan_id":"cebpf4jnsgd1na2vs0mg"},{"bike_id":"11944b44-cc54-4fe0-896f-7b982db000ce","system_id":"levelo_inurba_marseille","lat":43.24092,"lon":5.3774,"is_reserved":false,"is_disabled":false,"rental_uris":{"android":"levelo://app?vid=11944b44-cc54-4fe0-896f-7b982db000ce","ios":"levelo://app?vid=11944b44-cc54-4fe0-896f-7b982db000ce"},"vehicle_type_id":"4","last_reported":1726153727,"current_range_meters":33200,"station_id":"ce4bhnp2rcd13ifvqgvg","pricing_plan_id":"cebpf4jnsgd1na2vs0mg"},{"bike_id":"8f8acd34-b5ec-42d7-8eff-8a3155e32c59","system_id":"levelo_inurba_marseille","lat":43.28608,"lon":5.35106,"is_reserved":false,"is_disabled":false,"rental_uris":{"android":"levelo://app?vid=8f8acd34-b5ec-42d7-8eff-8a3155e32c59","ios":"levelo://app?vid=8f8acd34-b5ec-42d7-8eff-8a3155e32c59"},"vehicle_type_id":"4","last_reported":1726153727,"current_range_meters":28800,"station_id":"ce4bhch2rcd13ifvqeug","pricing_plan_id":"cebpf4jnsgd1na2vs0mg"},{"bike_id":"50926d6d-1bd1-4ff4-9d36-6778fe92b4b1","system_id":"levelo_inurba_marseille","lat":43.315272,"lon":5.380317,"is_reserved":false,"is_disabled":false,"rental_uris":{"android":"levelo://app?vid=50926d6d-1bd1-4ff4-9d36-6778fe92b4b1","ios":"levelo://app?vid=50926d6d-1bd1-4ff4-9d36-6778fe92b4b1"},"vehicle_type_id":"4","last_reported":1726153727,"current_range_meters":31200,"station_id":"ce4bhsp2rcd13ifvqi50","pricing_plan_id":"cebpf4jnsgd1na2vs0mg"},{"bike_id":"c3a84de0-e074-45d2-96a4-3ff17abba9fe","system_id":"levelo_inurba_marseille","lat":43.24081,"lon":5.37734,"is_reserved":false,"is_disabled":false,"rental_uris":{"android":"levelo://app?vid=c3a84de0-e074-45d2-96a4-3ff17abba9fe","ios":"levelo://app?vid=c3a84de0-e074-45d2-96a4-3ff17abba9fe"},"vehicle_type_id":"4","last_reported":1726153727,"current_range_meters":8800,"station_id":"ce4bhnp2rcd13ifvqgvg","pricing_plan_id":"cebpf4jnsgd1na2vs0mg"},{"bike_id":"47b2555b-1021-4743-aafd-296d980fe8b9","system_id":"levelo_inurba_marseille","lat":43.27214,"lon":5.39186,"is_reserved":false,"is_disabled":false,"rental_uris":{"android":"levelo://app?vid=47b2555b-1021-4743-aafd-296d980fe8b9","ios":"levelo://app?vid=47b2555b-1021-4743-aafd-296d980fe8b9"},"vehicle_type_id":"4","last_reported":1726153727,"current_range_meters":6400,"station_id":"ce4bhhp2rcd13ifvqfm0","pricing_plan_id":"cebpf4jnsgd1na2vs0mg"},{"bike_id":"d4ca384e-a23d-4802-be23-f450736c27cb","system_id":"levelo_inurba_marseille","lat":43.27906,"lon":5.38007,"is_reserved":false,"is_disabled":false,"rental_uris":{"android":"levelo://app?vid=d4ca384e-a23d-4802-be23-f450736c27cb","ios":"levelo://app?vid=d4ca384e-a23d-4802-be23-f450736c27cb"},"vehicle_type_id":"4","last_reported":1726153727,"current_range_meters":8000,"station_id":"ce4bhf92rcd13ifvqf50","pricing_plan_id":"cebpf4jnsgd1na2vs0mg"},{"bike_id":"d55bec3e-cd2b-4f49-91b2-7a9da15ee7fd","system_id":"levelo_inurba_marseille","lat":43.23152,"lon":5.43718,"is_reserved":false,"is_disabled":false,"rental_uris":{"android":"levelo://app?vid=d55bec3e-cd2b-4f49-91b2-7a9da15ee7fd","ios":"levelo://app?vid=d55bec3e-cd2b-4f49-91b2-7a9da15ee7fd"},"vehicle_type_id":"4","last_reported":1726153727,"current_range_meters":26000,"station_id":"ce4bhmp2rcd13ifvqgog","pricing_plan_id":"cebpf4jnsgd1na2vs0mg"},{"bike_id":"83564d5e-6201-4ddd-9728-c758cb0ceffe","system_id":"levelo_inurba_marseille","lat":43.24546,"lon":5.39518,"is_reserved":false,"is_disabled":false,"rental_uris":{"android":"levelo://app?vid=83564d5e-6201-4ddd-9728-c758cb0ceffe","ios":"levelo://app?vid=83564d5e-6201-4ddd-9728-c758cb0ceffe"},"vehicle_type_id":"4","last_reported":1726153727,"current_range_meters":27600,"station_id":"ce4bhlp2rcd13ifvqgjg","pricing_plan_id":"cebpf4jnsgd1na2vs0mg"},{"bike_id":"0a1f63c4-8197-4edd-9c0f-886e05340093","system_id":"levelo_inurba_marseille","lat":43.26223,"lon":5.37448,"is_reserved":false,"is_disabled":false,"rental_uris":{"android":"levelo://app?vid=0a1f63c4-8197-4edd-9c0f-886e05340093","ios":"levelo://app?vid=0a1f63c4-8197-4edd-9c0f-886e05340093"},"vehicle_type_id":"4","last_reported":1726153727,"current_range_meters":37600,"station_id":"ce4bhgp2rcd13ifvqfc0","pricing_plan_id":"cebpf4jnsgd1na2vs0mg"},{"bike_id":"54179935-114c-4520-b6b6-b6216eaeedfb","system_id":"levelo_inurba_marseille","lat":43.29038,"lon":5.37559,"is_reserved":false,"is_disabled":false,"rental_uris":{"android":"levelo://app?vid=54179935-114c-4520-b6b6-b6216eaeedfb","ios":"levelo://app?vid=54179935-114c-4520-b6b6-b6216eaeedfb"},"vehicle_type_id":"4","last_reported":1726153727,"current_range_meters":38800,"station_id":"ce4bh692rcd13ifvqe90","pricing_plan_id":"cebpf4jnsgd1na2vs0mg"},{"bike_id":"86b6a2b1-86a4-46ee-8c7e-90cb86d3d820","system_id":"levelo_inurba_marseille","lat":43.31339,"lon":5.39694,"is_reserved":false,"is_disabled":false,"rental_uris":{"android":"levelo://app?vid=86b6a2b1-86a4-46ee-8c7e-90cb86d3d820","ios":"levelo://app?vid=86b6a2b1-86a4-46ee-8c7e-90cb86d3d820"},"vehicle_type_id":"4","last_reported":1726153727,"current_range_meters":39200,"station_id":"ce4bgvp2rcd13ifvqcu0","pricing_plan_id":"cebpf4jnsgd1na2vs0mg"},{"bike_id":"118db879-b7d0-4bf0-a219-c082b60e3cc3","system_id":"levelo_inurba_marseille","lat":43.29828,"lon":5.376,"is_reserved":false,"is_disabled":false,"rental_uris":{"android":"levelo://app?vid=118db879-b7d0-4bf0-a219-c082b60e3cc3","ios":"levelo://app?vid=118db879-b7d0-4bf0-a219-c082b60e3cc3"},"vehicle_type_id":"4","last_reported":1726153727,"current_range_meters":4800,"station_id":"","pricing_plan_id":"cebpf4jnsgd1na2vs0mg"},{"bike_id":"a52ae3d9-58a5-4929-a1fa-7958ae557e7d","system_id":"levelo_inurba_marseille","lat":43.25938,"lon":5.40891,"is_reserved":false,"is_disabled":false,"rental_uris":{"android":"levelo://app?vid=a52ae3d9-58a5-4929-a1fa-7958ae557e7d","ios":"levelo://app?vid=a52ae3d9-58a5-4929-a1fa-7958ae557e7d"},"vehicle_type_id":"4","last_reported":1726153727,"current_range_meters":12800,"station_id":"ce4bhm92rcd13ifvqglg","pricing_plan_id":"cebpf4jnsgd1na2vs0mg"},{"bike_id":"137d77b3-a0e8-4eb5-9ea5-007c554cc529","system_id":"levelo_inurba_marseille","lat":43.26809,"lon":5.40258,"is_reserved":false,"is_disabled":false,"rental_uris":{"android":"levelo://app?vid=137d77b3-a0e8-4eb5-9ea5-007c554cc529","ios":"levelo://app?vid=137d77b3-a0e8-4eb5-9ea5-007c554cc529"},"vehicle_type_id":"4","last_reported":1726153727,"current_range_meters":24000,"station_id":"ce501612rcd8frsf0b60","pricing_plan_id":"cebpf4jnsgd1na2vs0mg"},{"bike_id":"554beb7c-19ba-440e-a211-532f35657004","system_id":"levelo_inurba_marseille","lat":43.29549,"lon":5.42285,"is_reserved":false,"is_disabled":false,"rental_uris":{"android":"levelo://app?vid=554beb7c-19ba-440e-a211-532f35657004","ios":"levelo://app?vid=554beb7c-19ba-440e-a211-532f35657004"},"vehicle_type_id":"4","last_reported":1726153727,"current_range_meters":20000,"station_id":"ce4bhph2rcd13ifvqhdg","pricing_plan_id":"cebpf4jnsgd1na2vs0mg"},{"bike_id":"3882426c-e495-40ff-828d-beef56f8a9eb","system_id":"levelo_inurba_marseille","lat":43.31714,"lon":5.37773,"is_reserved":false,"is_disabled":false,"rental_uris":{"android":"levelo://app?vid=3882426c-e495-40ff-828d-beef56f8a9eb","ios":"levelo://app?vid=3882426c-e495-40ff-828d-beef56f8a9eb"},"vehicle_type_id":"4","last_reported":1726153727,"current_range_meters":35600,"station_id":"ce4bgth2rcd13ifvqch0","pricing_plan_id":"cebpf4jnsgd1na2vs0mg"},{"bike_id":"1654b7b3-ec53-4d5e-8993-e5f3179428df","system_id":"levelo_inurba_marseille","lat":43.30882,"lon":5.37191,"is_reserved":false,"is_disabled":false,"rental_uris":{"android":"levelo://app?vid=1654b7b3-ec53-4d5e-8993-e5f3179428df","ios":"levelo://app?vid=1654b7b3-ec53-4d5e-8993-e5f3179428df"},"vehicle_type_id":"4","last_reported":1726153727,"current_range_meters":39200,"station_id":"ce4bguh2rcd13ifvqckg","pricing_plan_id":"cebpf4jnsgd1na2vs0mg"},{"bike_id":"4067cf6c-6e3d-4ac9-99bf-c1b92b69f736","system_id":"levelo_inurba_marseille","lat":43.32497,"lon":5.36567,"is_reserved":false,"is_disabled":false,"rental_uris":{"android":"levelo://app?vid=4067cf6c-6e3d-4ac9-99bf-c1b92b69f736","ios":"levelo://app?vid=4067cf6c-6e3d-4ac9-99bf-c1b92b69f736"},"vehicle_type_id":"4","last_reported":1726153727,"current_range_meters":25200,"station_id":"ce4bhs12rcd13ifvqhvg","pricing_plan_id":"cebpf4jnsgd1na2vs0mg"},{"bike_id":"99076584-ed77-4098-b163-e80b87a4a633","system_id":"levelo_inurba_marseille","lat":43.2559,"lon":5.38231,"is_reserved":false,"is_disabled":false,"rental_uris":{"android":"levelo://app?vid=99076584-ed77-4098-b163-e80b87a4a633","ios":"levelo://app?vid=99076584-ed77-4098-b163-e80b87a4a633"},"vehicle_type_id":"4","last_reported":1726153727,"current_range_meters":37600,"station_id":"ce4bhih2rcd13ifvqfs0","pricing_plan_id":"cebpf4jnsgd1na2vs0mg"},{"bike_id":"47eebb35-eadd-4d1d-a570-13de1e484e75","system_id":"levelo_inurba_marseille","lat":43.28938,"lon":5.36632,"is_reserved":false,"is_disabled":false,"rental_uris":{"android":"levelo://app?vid=47eebb35-eadd-4d1d-a570-13de1e484e75","ios":"levelo://app?vid=47eebb35-eadd-4d1d-a570-13de1e484e75"},"vehicle_type_id":"4","last_reported":1726153727,"current_range_meters":6000,"station_id":"ce4bhap2rcd13ifvqek0","pricing_plan_id":"cebpf4jnsgd1na2vs0mg"},{"bike_id":"501e2970-bf3e-40c9-8fd1-dc8cb4d42e4a","system_id":"levelo_inurba_marseille","lat":43.29906,"lon":5.38148,"is_reserved":false,"is_disabled":false,"rental_uris":{"android":"levelo://app?vid=501e2970-bf3e-40c9-8fd1-dc8cb4d42e4a","ios":"levelo://app?vid=501e2970-bf3e-40c9-8fd1-dc8cb4d42e4a"},"vehicle_type_id":"4","last_reported":1726153727,"current_range_meters":27200,"station_id":"ce4bgj12rcd13ifvqbc0","pricing_plan_id":"cebpf4jnsgd1na2vs0mg"},{"bike_id":"38bf01e6-5b68-48f6-890c-ce3aec8c9c38","system_id":"levelo_inurba_marseille","lat":43.287079,"lon":5.373744,"is_reserved":false,"is_disabled":false,"rental_uris":{"android":"levelo://app?vid=38bf01e6-5b68-48f6-890c-ce3aec8c9c38","ios":"levelo://app?vid=38bf01e6-5b68-48f6-890c-ce3aec8c9c38"},"vehicle_type_id":"4","last_reported":1726153727,"current_range_meters":32000,"station_id":"cki0cbj6b192h4jlfktg","pricing_plan_id":"cebpf4jnsgd1na2vs0mg"},{"bike_id":"97fb1b7f-695d-4049-8729-097bf60ac993","system_id":"levelo_inurba_marseille","lat":43.33032,"lon":5.39041,"is_reserved":false,"is_disabled":false,"rental_uris":{"android":"levelo://app?vid=97fb1b7f-695d-4049-8729-097bf60ac993","ios":"levelo://app?vid=97fb1b7f-695d-4049-8729-097bf60ac993"},"vehicle_type_id":"4","last_reported":1726153727,"current_range_meters":30400,"station_id":"ce4bhr92rcd13ifvqhrg","pricing_plan_id":"cebpf4jnsgd1na2vs0mg"},{"bike_id":"78f2321c-620e-4931-92df-aa1402eaa710","system_id":"levelo_inurba_marseille","lat":43.2594,"lon":5.40891,"is_reserved":false,"is_disabled":false,"rental_uris":{"android":"levelo://app?vid=78f2321c-620e-4931-92df-aa1402eaa710","ios":"levelo://app?vid=78f2321c-620e-4931-92df-aa1402eaa710"},"vehicle_type_id":"4","last_reported":1726153727,"current_range_meters":30400,"station_id":"","pricing_plan_id":"cebpf4jnsgd1na2vs0mg"},{"bike_id":"ef423b08-7e28-4a7e-bdb8-5d2d125f7b5c","system_id":"levelo_inurba_marseille","lat":43.23966,"lon":5.36644,"is_reserved":false,"is_disabled":false,"rental_uris":{"android":"levelo://app?vid=ef423b08-7e28-4a7e-bdb8-5d2d125f7b5c","ios":"levelo://app?vid=ef423b08-7e28-4a7e-bdb8-5d2d125f7b5c"},"vehicle_type_id":"4","last_reported":1726153727,"current_range_meters":22400,"station_id":"ce4bhi12rcd13ifvqfp0","pricing_plan_id":"cebpf4jnsgd1na2vs0mg"},{"bike_id":"18133a1b-df7b-42d0-89d1-ccdedf5f5524","system_id":"levelo_inurba_marseille","lat":43.30534,"lon":5.36535,"is_reserved":false,"is_disabled":false,"rental_uris":{"android":"levelo://app?vid=18133a1b-df7b-42d0-89d1-ccdedf5f5524","ios":"levelo://app?vid=18133a1b-df7b-42d0-89d1-ccdedf5f5524"},"vehicle_type_id":"4","last_reported":1726153727,"current_range_meters":38800,"station_id":"ce4bgs12rcd13ifvqcag","pricing_plan_id":"cebpf4jnsgd1na2vs0mg"},{"bike_id":"5e714c2c-7fd6-4958-bdcb-899c1b293eb3","system_id":"levelo_inurba_marseille","lat":43.29906,"lon":5.38134,"is_reserved":false,"is_disabled":false,"rental_uris":{"android":"levelo://app?vid=5e714c2c-7fd6-4958-bdcb-899c1b293eb3","ios":"levelo://app?vid=5e714c2c-7fd6-4958-bdcb-899c1b293eb3"},"vehicle_type_id":"4","last_reported":1726153727,"current_range_meters":36000,"station_id":"ce4bgj12rcd13ifvqbc0","pricing_plan_id":"cebpf4jnsgd1na2vs0mg"},{"bike_id":"b413d41f-7993-42f5-a3cc-daaaeaf22886","system_id":"levelo_inurba_marseille","lat":43.32488,"lon":5.36562,"is_reserved":false,"is_disabled":false,"rental_uris":{"android":"levelo://app?vid=b413d41f-7993-42f5-a3cc-daaaeaf22886","ios":"levelo://app?vid=b413d41f-7993-42f5-a3cc-daaaeaf22886"},"vehicle_type_id":"4","last_reported":1726153727,"current_range_meters":27200,"station_id":"ce4bhs12rcd13ifvqhvg","pricing_plan_id":"cebpf4jnsgd1na2vs0mg"},{"bike_id":"154b28e5-1b4a-4dd2-a26f-1d6b213836e7","system_id":"levelo_inurba_marseille","lat":43.28485,"lon":5.38553,"is_reserved":false,"is_disabled":false,"rental_uris":{"android":"levelo://app?vid=154b28e5-1b4a-4dd2-a26f-1d6b213836e7","ios":"levelo://app?vid=154b28e5-1b4a-4dd2-a26f-1d6b213836e7"},"vehicle_type_id":"4","last_reported":1726153727,"current_range_meters":28400,"station_id":"ce4bh8p2rcd13ifvqeb0","pricing_plan_id":"cebpf4jnsgd1na2vs0mg"},{"bike_id":"ce436c74-8382-49a0-9037-30b6397e19af","system_id":"levelo_inurba_marseille","lat":43.24085,"lon":5.37737,"is_reserved":false,"is_disabled":false,"rental_uris":{"android":"levelo://app?vid=ce436c74-8382-49a0-9037-30b6397e19af","ios":"levelo://app?vid=ce436c74-8382-49a0-9037-30b6397e19af"},"vehicle_type_id":"4","last_reported":1726153727,"current_range_meters":29600,"station_id":"ce4bhnp2rcd13ifvqgvg","pricing_plan_id":"cebpf4jnsgd1na2vs0mg"},{"bike_id":"c6ba8193-16b9-4efd-a794-f3676aea4c46","system_id":"levelo_inurba_marseille","lat":43.311445,"lon":5.388884,"is_reserved":false,"is_disabled":false,"rental_uris":{"android":"levelo://app?vid=c6ba8193-16b9-4efd-a794-f3676aea4c46","ios":"levelo://app?vid=c6ba8193-16b9-4efd-a794-f3676aea4c46"},"vehicle_type_id":"4","last_reported":1726153727,"current_range_meters":38400,"station_id":"ce4bgv12rcd13ifvqcp0","pricing_plan_id":"cebpf4jnsgd1na2vs0mg"},{"bike_id":"96cb29cb-8da1-4dd6-bd35-ee190827a973","system_id":"levelo_inurba_marseille","lat":43.26563,"lon":5.37283,"is_reserved":false,"is_disabled":false,"rental_uris":{"android":"levelo://app?vid=96cb29cb-8da1-4dd6-bd35-ee190827a973","ios":"levelo://app?vid=96cb29cb-8da1-4dd6-bd35-ee190827a973"},"vehicle_type_id":"4","last_reported":1726153727,"current_range_meters":9200,"station_id":"ce4bhg12rcd13ifvqf70","pricing_plan_id":"cebpf4jnsgd1na2vs0mg"},{"bike_id":"a61c9e04-bce5-4e44-99ea-7dd65bcde295","system_id":"levelo_inurba_marseille","lat":43.29006,"lon":5.35611,"is_reserved":false,"is_disabled":false,"rental_uris":{"android":"levelo://app?vid=a61c9e04-bce5-4e44-99ea-7dd65bcde295","ios":"levelo://app?vid=a61c9e04-bce5-4e44-99ea-7dd65bcde295"},"vehicle_type_id":"4","last_reported":1726153727,"current_range_meters":29600,"station_id":"ce4bhb92rcd13ifvqen0","pricing_plan_id":"cebpf4jnsgd1na2vs0mg"},{"bike_id":"ae3ad6c7-b322-42bb-bf54-fd91ef0db7c7","system_id":"levelo_inurba_marseille","lat":43.24085,"lon":5.37743,"is_reserved":false,"is_disabled":false,"rental_uris":{"android":"levelo://app?vid=ae3ad6c7-b322-42bb-bf54-fd91ef0db7c7","ios":"levelo://app?vid=ae3ad6c7-b322-42bb-bf54-fd91ef0db7c7"},"vehicle_type_id":"4","last_reported":1726153727,"current_range_meters":34800,"station_id":"ce4bhnp2rcd13ifvqgvg","pricing_plan_id":"cebpf4jnsgd1na2vs0mg"},{"bike_id":"b3b5e04c-91af-4913-87d6-905b7c40d0fe","system_id":"levelo_inurba_marseille","lat":43.31715,"lon":5.43708,"is_reserved":false,"is_disabled":false,"rental_uris":{"android":"levelo://app?vid=b3b5e04c-91af-4913-87d6-905b7c40d0fe","ios":"levelo://app?vid=b3b5e04c-91af-4913-87d6-905b7c40d0fe"},"vehicle_type_id":"4","last_reported":1726153727,"current_range_meters":31200,"station_id":"ce4bhp92rcd13ifvqhcg","pricing_plan_id":"cebpf4jnsgd1na2vs0mg"},{"bike_id":"a702b87a-d2da-4114-98ff-84321ab0ac9a","system_id":"levelo_inurba_marseille","lat":43.31223,"lon":5.36849,"is_reserved":false,"is_disabled":false,"rental_uris":{"android":"levelo://app?vid=a702b87a-d2da-4114-98ff-84321ab0ac9a","ios":"levelo://app?vid=a702b87a-d2da-4114-98ff-84321ab0ac9a"},"vehicle_type_id":"4","last_reported":1726153727,"current_range_meters":14800,"station_id":"ce4bgl92rcd13ifvqbq0","pricing_plan_id":"cebpf4jnsgd1na2vs0mg"},{"bike_id":"ca33d2bf-c9f2-4944-aec8-d1b6204ec37b","system_id":"levelo_inurba_marseille","lat":43.29557,"lon":5.42281,"is_reserved":false,"is_disabled":false,"rental_uris":{"android":"levelo://app?vid=ca33d2bf-c9f2-4944-aec8-d1b6204ec37b","ios":"levelo://app?vid=ca33d2bf-c9f2-4944-aec8-d1b6204ec37b"},"vehicle_type_id":"4","last_reported":1726153727,"current_range_meters":24800,"station_id":"ce4bhph2rcd13ifvqhdg","pricing_plan_id":"cebpf4jnsgd1na2vs0mg"},{"bike_id":"0a05cf9e-77ac-4ff1-b45b-eeffcbdd086b","system_id":"levelo_inurba_marseille","lat":43.25729,"lon":5.41102,"is_reserved":false,"is_disabled":false,"rental_uris":{"android":"levelo://app?vid=0a05cf9e-77ac-4ff1-b45b-eeffcbdd086b","ios":"levelo://app?vid=0a05cf9e-77ac-4ff1-b45b-eeffcbdd086b"},"vehicle_type_id":"4","last_reported":1726153727,"current_range_meters":35600,"station_id":"ce4bhkp2rcd13ifvqgd0","pricing_plan_id":"cebpf4jnsgd1na2vs0mg"},{"bike_id":"a2f26943-dc2e-4561-b068-dbd68c8f968c","system_id":"levelo_inurba_marseille","lat":43.29004,"lon":5.35607,"is_reserved":false,"is_disabled":false,"rental_uris":{"android":"levelo://app?vid=a2f26943-dc2e-4561-b068-dbd68c8f968c","ios":"levelo://app?vid=a2f26943-dc2e-4561-b068-dbd68c8f968c"},"vehicle_type_id":"4","last_reported":1726153727,"current_range_meters":22000,"station_id":"ce4bhb92rcd13ifvqen0","pricing_plan_id":"cebpf4jnsgd1na2vs0mg"},{"bike_id":"c656f0c2-d159-4239-8efa-29d6dc93af17","system_id":"levelo_inurba_marseille","lat":43.282715,"lon":5.350543,"is_reserved":false,"is_disabled":false,"rental_uris":{"android":"levelo://app?vid=c656f0c2-d159-4239-8efa-29d6dc93af17","ios":"levelo://app?vid=c656f0c2-d159-4239-8efa-29d6dc93af17"},"vehicle_type_id":"4","last_reported":1726153727,"current_range_meters":19600,"station_id":"ce4bhbp2rcd13ifvqerg","pricing_plan_id":"cebpf4jnsgd1na2vs0mg"},{"bike_id":"40cf5438-2e00-4a86-b195-2cf14a14b72a","system_id":"levelo_inurba_marseille","lat":43.30353,"lon":5.41879,"is_reserved":false,"is_disabled":false,"rental_uris":{"android":"levelo://app?vid=40cf5438-2e00-4a86-b195-2cf14a14b72a","ios":"levelo://app?vid=40cf5438-2e00-4a86-b195-2cf14a14b72a"},"vehicle_type_id":"4","last_reported":1726153727,"current_range_meters":16800,"station_id":"ce4bhop2rcd13ifvqh7g","pricing_plan_id":"cebpf4jnsgd1na2vs0mg"},{"bike_id":"08bb5566-8704-43b5-a307-cd706be21243","system_id":"levelo_inurba_marseille","lat":43.23149,"lon":5.43708,"is_reserved":false,"is_disabled":false,"rental_uris":{"android":"levelo://app?vid=08bb5566-8704-43b5-a307-cd706be21243","ios":"levelo://app?vid=08bb5566-8704-43b5-a307-cd706be21243"},"vehicle_type_id":"4","last_reported":1726153727,"current_range_meters":7200,"station_id":"ce4bhmp2rcd13ifvqgog","pricing_plan_id":"cebpf4jnsgd1na2vs0mg"},{"bike_id":"cac78a6e-a1e0-4f97-9b48-10fba0a2004d","system_id":"levelo_inurba_marseille","lat":43.23197,"lon":5.35552,"is_reserved":false,"is_disabled":false,"rental_uris":{"android":"levelo://app?vid=cac78a6e-a1e0-4f97-9b48-10fba0a2004d","ios":"levelo://app?vid=cac78a6e-a1e0-4f97-9b48-10fba0a2004d"},"vehicle_type_id":"4","last_reported":1726153727,"current_range_meters":4800,"station_id":"ce4bhu92rcd13ifvqi70","pricing_plan_id":"cebpf4jnsgd1na2vs0mg"},{"bike_id":"2c4577b3-3689-495e-a3c3-a78eafd4dc43","system_id":"levelo_inurba_marseille","lat":43.26563,"lon":5.37291,"is_reserved":false,"is_disabled":false,"rental_uris":{"android":"levelo://app?vid=2c4577b3-3689-495e-a3c3-a78eafd4dc43","ios":"levelo://app?vid=2c4577b3-3689-495e-a3c3-a78eafd4dc43"},"vehicle_type_id":"4","last_reported":1726153727,"current_range_meters":26800,"station_id":"ce4bhg12rcd13ifvqf70","pricing_plan_id":"cebpf4jnsgd1na2vs0mg"},{"bike_id":"d7325665-f02a-4116-8088-d1c2c9024b32","system_id":"levelo_inurba_marseille","lat":43.33606,"lon":5.41022,"is_reserved":false,"is_disabled":false,"rental_uris":{"android":"levelo://app?vid=d7325665-f02a-4116-8088-d1c2c9024b32","ios":"levelo://app?vid=d7325665-f02a-4116-8088-d1c2c9024b32"},"vehicle_type_id":"4","last_reported":1726153727,"current_range_meters":11600,"station_id":"ce4bhqh2rcd13ifvqhmg","pricing_plan_id":"cebpf4jnsgd1na2vs0mg"},{"bike_id":"b5dca88b-f146-445d-b20f-90db535188f5","system_id":"levelo_inurba_marseille","lat":43.31093,"lon":5.42435,"is_reserved":false,"is_disabled":false,"rental_uris":{"android":"levelo://app?vid=b5dca88b-f146-445d-b20f-90db535188f5","ios":"levelo://app?vid=b5dca88b-f146-445d-b20f-90db535188f5"},"vehicle_type_id":"4","last_reported":1726153727,"current_range_meters":27200,"station_id":"ce4bhp92rcd13ifvqhag","pricing_plan_id":"cebpf4jnsgd1na2vs0mg"},{"bike_id":"4e09195e-9004-4fa3-8ab0-1d4ac6be3f74","system_id":"levelo_inurba_marseille","lat":43.29723,"lon":5.36883,"is_reserved":false,"is_disabled":false,"rental_uris":{"android":"levelo://app?vid=4e09195e-9004-4fa3-8ab0-1d4ac6be3f74","ios":"levelo://app?vid=4e09195e-9004-4fa3-8ab0-1d4ac6be3f74"},"vehicle_type_id":"4","last_reported":1726153727,"current_range_meters":25200,"station_id":"","pricing_plan_id":"cebpf4jnsgd1na2vs0mg"},{"bike_id":"7dea9175-0fb5-4d49-ac6e-d13b7c47ac00","system_id":"levelo_inurba_marseille","lat":43.25723,"lon":5.41104,"is_reserved":false,"is_disabled":false,"rental_uris":{"android":"levelo://app?vid=7dea9175-0fb5-4d49-ac6e-d13b7c47ac00","ios":"levelo://app?vid=7dea9175-0fb5-4d49-ac6e-d13b7c47ac00"},"vehicle_type_id":"4","last_reported":1726153727,"current_range_meters":14400,"station_id":"ce4bhkp2rcd13ifvqgd0","pricing_plan_id":"cebpf4jnsgd1na2vs0mg"},{"bike_id":"60d5bda9-f640-405a-935d-62d1314e50fa","system_id":"levelo_inurba_marseille","lat":43.23977,"lon":5.36618,"is_reserved":false,"is_disabled":false,"rental_uris":{"android":"levelo://app?vid=60d5bda9-f640-405a-935d-62d1314e50fa","ios":"levelo://app?vid=60d5bda9-f640-405a-935d-62d1314e50fa"},"vehicle_type_id":"4","last_reported":1726153727,"current_range_meters":28800,"station_id":"ce4bhi12rcd13ifvqfp0","pricing_plan_id":"cebpf4jnsgd1na2vs0mg"},{"bike_id":"d970b38c-7387-43bd-989f-d6f74d17f57e","system_id":"levelo_inurba_marseille","lat":43.30522,"lon":5.36522,"is_reserved":false,"is_disabled":false,"rental_uris":{"android":"levelo://app?vid=d970b38c-7387-43bd-989f-d6f74d17f57e","ios":"levelo://app?vid=d970b38c-7387-43bd-989f-d6f74d17f57e"},"vehicle_type_id":"4","last_reported":1726153727,"current_range_meters":38800,"station_id":"ce4bgs12rcd13ifvqcag","pricing_plan_id":"cebpf4jnsgd1na2vs0mg"},{"bike_id":"c94436f2-9c1f-4154-bac2-913b88868377","system_id":"levelo_inurba_marseille","lat":43.29785,"lon":5.39338,"is_reserved":false,"is_disabled":false,"rental_uris":{"android":"levelo://app?vid=c94436f2-9c1f-4154-bac2-913b88868377","ios":"levelo://app?vid=c94436f2-9c1f-4154-bac2-913b88868377"},"vehicle_type_id":"4","last_reported":1726153727,"current_range_meters":9600,"station_id":"chh1huq6cuj3fo74tm60","pricing_plan_id":"cebpf4jnsgd1na2vs0mg"},{"bike_id":"0ffa0517-76c8-4eca-ac44-ef6722886452","system_id":"levelo_inurba_marseille","lat":43.30644,"lon":5.40078,"is_reserved":false,"is_disabled":false,"rental_uris":{"android":"levelo://app?vid=0ffa0517-76c8-4eca-ac44-ef6722886452","ios":"levelo://app?vid=0ffa0517-76c8-4eca-ac44-ef6722886452"},"vehicle_type_id":"4","last_reported":1726153727,"current_range_meters":19200,"station_id":"ce4bh112rcd13ifvqda0","pricing_plan_id":"cebpf4jnsgd1na2vs0mg"},{"bike_id":"1d6ff7bc-6be2-42ac-b7c6-551f7cbddb2b","system_id":"levelo_inurba_marseille","lat":43.26208,"lon":5.3793,"is_reserved":false,"is_disabled":false,"rental_uris":{"android":"levelo://app?vid=1d6ff7bc-6be2-42ac-b7c6-551f7cbddb2b","ios":"levelo://app?vid=1d6ff7bc-6be2-42ac-b7c6-551f7cbddb2b"},"vehicle_type_id":"4","last_reported":1726153727,"current_range_meters":2800,"station_id":"ce4bhjp2rcd13ifvqg90","pricing_plan_id":"cebpf4jnsgd1na2vs0mg"},{"bike_id":"84be7ad2-10ae-43e6-b6f1-22184241973a","system_id":"levelo_inurba_marseille","lat":43.29916,"lon":5.37465,"is_reserved":false,"is_disabled":false,"rental_uris":{"android":"levelo://app?vid=84be7ad2-10ae-43e6-b6f1-22184241973a","ios":"levelo://app?vid=84be7ad2-10ae-43e6-b6f1-22184241973a"},"vehicle_type_id":"4","last_reported":1726153727,"current_range_meters":10000,"station_id":"ce4bgjh2rcd13ifvqbg0","pricing_plan_id":"cebpf4jnsgd1na2vs0mg"},{"bike_id":"d437aef8-dfe3-4c11-a4fb-f2792eed8c25","system_id":"levelo_inurba_marseille","lat":43.30599,"lon":5.37214,"is_reserved":false,"is_disabled":false,"rental_uris":{"android":"levelo://app?vid=d437aef8-dfe3-4c11-a4fb-f2792eed8c25","ios":"levelo://app?vid=d437aef8-dfe3-4c11-a4fb-f2792eed8c25"},"vehicle_type_id":"4","last_reported":1726153727,"current_range_meters":3600,"station_id":"ce4bgqh2rcd13ifvqc4g","pricing_plan_id":"cebpf4jnsgd1na2vs0mg"},{"bike_id":"fd9fbd23-424e-4e7c-a526-80dc38b56071","system_id":"levelo_inurba_marseille","lat":43.28038,"lon":5.36943,"is_reserved":false,"is_disabled":false,"rental_uris":{"android":"levelo://app?vid=fd9fbd23-424e-4e7c-a526-80dc38b56071","ios":"levelo://app?vid=fd9fbd23-424e-4e7c-a526-80dc38b56071"},"vehicle_type_id":"4","last_reported":1726153727,"current_range_meters":36000,"station_id":"ce4bha12rcd13ifvqef0","pricing_plan_id":"cebpf4jnsgd1na2vs0mg"},{"bike_id":"50307943-def8-44f2-a834-9bcb75a4bd41","system_id":"levelo_inurba_marseille","lat":43.30217,"lon":5.39469,"is_reserved":false,"is_disabled":false,"rental_uris":{"android":"levelo://app?vid=50307943-def8-44f2-a834-9bcb75a4bd41","ios":"levelo://app?vid=50307943-def8-44f2-a834-9bcb75a4bd41"},"vehicle_type_id":"4","last_reported":1726153727,"current_range_meters":14400,"station_id":"ce4bh0p2rcd13ifvqd70","pricing_plan_id":"cebpf4jnsgd1na2vs0mg"},{"bike_id":"b863aa5f-396c-4809-a642-42c1a62d9962","system_id":"levelo_inurba_marseille","lat":43.24667,"lon":5.38164,"is_reserved":false,"is_disabled":false,"rental_uris":{"android":"levelo://app?vid=b863aa5f-396c-4809-a642-42c1a62d9962","ios":"levelo://app?vid=b863aa5f-396c-4809-a642-42c1a62d9962"},"vehicle_type_id":"4","last_reported":1726153727,"current_range_meters":38000,"station_id":"ce4bhih2rcd13ifvqfr0","pricing_plan_id":"cebpf4jnsgd1na2vs0mg"},{"bike_id":"3fe1ada1-7424-492a-a9e4-ebdf9cc05acb","system_id":"levelo_inurba_marseille","lat":43.30882,"lon":5.37183,"is_reserved":false,"is_disabled":false,"rental_uris":{"android":"levelo://app?vid=3fe1ada1-7424-492a-a9e4-ebdf9cc05acb","ios":"levelo://app?vid=3fe1ada1-7424-492a-a9e4-ebdf9cc05acb"},"vehicle_type_id":"4","last_reported":1726153727,"current_range_meters":38000,"station_id":"ce4bguh2rcd13ifvqckg","pricing_plan_id":"cebpf4jnsgd1na2vs0mg"},{"bike_id":"e43aa60c-1314-4d9e-ab0a-d4cc3c0584a4","system_id":"levelo_inurba_marseille","lat":43.2408,"lon":5.37752,"is_reserved":false,"is_disabled":false,"rental_uris":{"android":"levelo://app?vid=e43aa60c-1314-4d9e-ab0a-d4cc3c0584a4","ios":"levelo://app?vid=e43aa60c-1314-4d9e-ab0a-d4cc3c0584a4"},"vehicle_type_id":"4","last_reported":1726153727,"current_range_meters":36400,"station_id":"ce4bhnp2rcd13ifvqgvg","pricing_plan_id":"cebpf4jnsgd1na2vs0mg"},{"bike_id":"42f4c576-b9c9-451e-bb09-e9ba24f78231","system_id":"levelo_inurba_marseille","lat":43.24075,"lon":5.37757,"is_reserved":false,"is_disabled":false,"rental_uris":{"android":"levelo://app?vid=42f4c576-b9c9-451e-bb09-e9ba24f78231","ios":"levelo://app?vid=42f4c576-b9c9-451e-bb09-e9ba24f78231"},"vehicle_type_id":"4","last_reported":1726153727,"current_range_meters":33200,"station_id":"ce4bhnp2rcd13ifvqgvg","pricing_plan_id":"cebpf4jnsgd1na2vs0mg"},{"bike_id":"dc673159-4558-442e-82c9-34dc9a337649","system_id":"levelo_inurba_marseille","lat":43.29926,"lon":5.37561,"is_reserved":false,"is_disabled":false,"rental_uris":{"android":"levelo://app?vid=dc673159-4558-442e-82c9-34dc9a337649","ios":"levelo://app?vid=dc673159-4558-442e-82c9-34dc9a337649"},"vehicle_type_id":"4","last_reported":1726153727,"current_range_meters":17200,"station_id":"","pricing_plan_id":"cebpf4jnsgd1na2vs0mg"},{"bike_id":"7d348dd9-aba5-4535-bda9-b52ada6017ef","system_id":"levelo_inurba_marseille","lat":43.26199,"lon":5.37451,"is_reserved":false,"is_disabled":false,"rental_uris":{"android":"levelo://app?vid=7d348dd9-aba5-4535-bda9-b52ada6017ef","ios":"levelo://app?vid=7d348dd9-aba5-4535-bda9-b52ada6017ef"},"vehicle_type_id":"4","last_reported":1726153727,"current_range_meters":36000,"station_id":"ce4bhgp2rcd13ifvqfc0","pricing_plan_id":"cebpf4jnsgd1na2vs0mg"},{"bike_id":"7f6c41c3-b2a7-4559-8f9f-86191ac2c410","system_id":"levelo_inurba_marseille","lat":43.25589,"lon":5.38237,"is_reserved":false,"is_disabled":false,"rental_uris":{"android":"levelo://app?vid=7f6c41c3-b2a7-4559-8f9f-86191ac2c410","ios":"levelo://app?vid=7f6c41c3-b2a7-4559-8f9f-86191ac2c410"},"vehicle_type_id":"4","last_reported":1726153727,"current_range_meters":39200,"station_id":"ce4bhih2rcd13ifvqfs0","pricing_plan_id":"cebpf4jnsgd1na2vs0mg"},{"bike_id":"8fa69eb8-1a55-49f2-bed4-e655bbb0033b","system_id":"levelo_inurba_marseille","lat":43.29256,"lon":5.40905,"is_reserved":false,"is_disabled":false,"rental_uris":{"android":"levelo://app?vid=8fa69eb8-1a55-49f2-bed4-e655bbb0033b","ios":"levelo://app?vid=8fa69eb8-1a55-49f2-bed4-e655bbb0033b"},"vehicle_type_id":"4","last_reported":1726153727,"current_range_meters":4800,"station_id":"ce4bh192rcd13ifvqdc0","pricing_plan_id":"cebpf4jnsgd1na2vs0mg"},{"bike_id":"19510ac0-bff4-45d4-bdb2-93c175745534","system_id":"levelo_inurba_marseille","lat":43.29723,"lon":5.37682,"is_reserved":false,"is_disabled":false,"rental_uris":{"android":"levelo://app?vid=19510ac0-bff4-45d4-bdb2-93c175745534","ios":"levelo://app?vid=19510ac0-bff4-45d4-bdb2-93c175745534"},"vehicle_type_id":"4","last_reported":1726153727,"current_range_meters":32800,"station_id":"ce4bgkh2rcd13ifvqbl0","pricing_plan_id":"cebpf4jnsgd1na2vs0mg"},{"bike_id":"1fb6226d-6c77-4ced-8134-9d4401cd7867","system_id":"levelo_inurba_marseille","lat":43.24178,"lon":5.39734,"is_reserved":false,"is_disabled":false,"rental_uris":{"android":"levelo://app?vid=1fb6226d-6c77-4ced-8134-9d4401cd7867","ios":"levelo://app?vid=1fb6226d-6c77-4ced-8134-9d4401cd7867"},"vehicle_type_id":"4","last_reported":1726153727,"current_range_meters":38800,"station_id":"ce4bhn12rcd13ifvqgpg","pricing_plan_id":"cebpf4jnsgd1na2vs0mg"},{"bike_id":"2e124a7a-275a-4db2-b3b6-68381ae43f6d","system_id":"levelo_inurba_marseille","lat":43.29008,"lon":5.3561,"is_reserved":false,"is_disabled":false,"rental_uris":{"android":"levelo://app?vid=2e124a7a-275a-4db2-b3b6-68381ae43f6d","ios":"levelo://app?vid=2e124a7a-275a-4db2-b3b6-68381ae43f6d"},"vehicle_type_id":"4","last_reported":1726153727,"current_range_meters":38800,"station_id":"ce4bhb92rcd13ifvqen0","pricing_plan_id":"cebpf4jnsgd1na2vs0mg"},{"bike_id":"dc5dca54-8ebf-43b2-acf8-9ae498c9992e","system_id":"levelo_inurba_marseille","lat":43.29543,"lon":5.38546,"is_reserved":false,"is_disabled":false,"rental_uris":{"android":"levelo://app?vid=dc5dca54-8ebf-43b2-acf8-9ae498c9992e","ios":"levelo://app?vid=dc5dca54-8ebf-43b2-acf8-9ae498c9992e"},"vehicle_type_id":"4","last_reported":1726153727,"current_range_meters":35200,"station_id":"ce4bgih2rcd13ifvqba0","pricing_plan_id":"cebpf4jnsgd1na2vs0mg"},{"bike_id":"deaeb920-23ab-4b51-a90a-3a4d369b9959","system_id":"levelo_inurba_marseille","lat":43.26561,"lon":5.37286,"is_reserved":false,"is_disabled":false,"rental_uris":{"android":"levelo://app?vid=deaeb920-23ab-4b51-a90a-3a4d369b9959","ios":"levelo://app?vid=deaeb920-23ab-4b51-a90a-3a4d369b9959"},"vehicle_type_id":"4","last_reported":1726153727,"current_range_meters":11600,"station_id":"ce4bhg12rcd13ifvqf70","pricing_plan_id":"cebpf4jnsgd1na2vs0mg"},{"bike_id":"2978c8ef-7735-4057-b33e-747fe355072e","system_id":"levelo_inurba_marseille","lat":43.25909,"lon":5.37601,"is_reserved":false,"is_disabled":false,"rental_uris":{"android":"levelo://app?vid=2978c8ef-7735-4057-b33e-747fe355072e","ios":"levelo://app?vid=2978c8ef-7735-4057-b33e-747fe355072e"},"vehicle_type_id":"4","last_reported":1726153727,"current_range_meters":4000,"station_id":"","pricing_plan_id":"cebpf4jnsgd1na2vs0mg"},{"bike_id":"6937cb5d-7d03-4b67-a4a2-9feeef6e6dd1","system_id":"levelo_inurba_marseille","lat":43.28083,"lon":5.39664,"is_reserved":false,"is_disabled":false,"rental_uris":{"android":"levelo://app?vid=6937cb5d-7d03-4b67-a4a2-9feeef6e6dd1","ios":"levelo://app?vid=6937cb5d-7d03-4b67-a4a2-9feeef6e6dd1"},"vehicle_type_id":"4","last_reported":1726153727,"current_range_meters":23200,"station_id":"ce4bho12rcd13ifvqh2g","pricing_plan_id":"cebpf4jnsgd1na2vs0mg"},{"bike_id":"3fabbece-0561-4e1c-bc71-6803579bc3c8","system_id":"levelo_inurba_marseille","lat":43.31173,"lon":5.3871,"is_reserved":false,"is_disabled":false,"rental_uris":{"android":"levelo://app?vid=3fabbece-0561-4e1c-bc71-6803579bc3c8","ios":"levelo://app?vid=3fabbece-0561-4e1c-bc71-6803579bc3c8"},"vehicle_type_id":"4","last_reported":1726153727,"current_range_meters":12400,"station_id":"ce4bgv12rcd13ifvqcp0","pricing_plan_id":"cebpf4jnsgd1na2vs0mg"},{"bike_id":"fc387d9e-d5c9-49ed-8837-0e484c50cbfa","system_id":"levelo_inurba_marseille","lat":43.3248,"lon":5.36566,"is_reserved":false,"is_disabled":false,"rental_uris":{"android":"levelo://app?vid=fc387d9e-d5c9-49ed-8837-0e484c50cbfa","ios":"levelo://app?vid=fc387d9e-d5c9-49ed-8837-0e484c50cbfa"},"vehicle_type_id":"4","last_reported":1726153727,"current_range_meters":18800,"station_id":"ce4bhs12rcd13ifvqhvg","pricing_plan_id":"cebpf4jnsgd1na2vs0mg"},{"bike_id":"c5e96473-727a-418c-919e-8d3acae62332","system_id":"levelo_inurba_marseille","lat":43.29226,"lon":5.3605,"is_reserved":false,"is_disabled":false,"rental_uris":{"android":"levelo://app?vid=c5e96473-727a-418c-919e-8d3acae62332","ios":"levelo://app?vid=c5e96473-727a-418c-919e-8d3acae62332"},"vehicle_type_id":"4","last_reported":1726153727,"current_range_meters":9600,"station_id":"ce4bhbh2rcd13ifvqeqg","pricing_plan_id":"cebpf4jnsgd1na2vs0mg"},{"bike_id":"586a8a04-2bc4-442a-9e9b-fc6e8ce7cc89","system_id":"levelo_inurba_marseille","lat":43.29197,"lon":5.39324,"is_reserved":false,"is_disabled":false,"rental_uris":{"android":"levelo://app?vid=586a8a04-2bc4-442a-9e9b-fc6e8ce7cc89","ios":"levelo://app?vid=586a8a04-2bc4-442a-9e9b-fc6e8ce7cc89"},"vehicle_type_id":"4","last_reported":1726153727,"current_range_meters":10800,"station_id":"ce4bh192rcd13ifvqdd0","pricing_plan_id":"cebpf4jnsgd1na2vs0mg"},{"bike_id":"1b6b4677-9c6b-4e29-9bf6-abb793cfb377","system_id":"levelo_inurba_marseille","lat":43.29225,"lon":5.36045,"is_reserved":false,"is_disabled":false,"rental_uris":{"android":"levelo://app?vid=1b6b4677-9c6b-4e29-9bf6-abb793cfb377","ios":"levelo://app?vid=1b6b4677-9c6b-4e29-9bf6-abb793cfb377"},"vehicle_type_id":"4","last_reported":1726153727,"current_range_meters":8800,"station_id":"ce4bhbh2rcd13ifvqeqg","pricing_plan_id":"cebpf4jnsgd1na2vs0mg"},{"bike_id":"42730b64-4326-485c-ac36-4ff31138a499","system_id":"levelo_inurba_marseille","lat":43.31328,"lon":5.39689,"is_reserved":false,"is_disabled":false,"rental_uris":{"android":"levelo://app?vid=42730b64-4326-485c-ac36-4ff31138a499","ios":"levelo://app?vid=42730b64-4326-485c-ac36-4ff31138a499"},"vehicle_type_id":"4","last_reported":1726153727,"current_range_meters":11200,"station_id":"ce4bgvp2rcd13ifvqcu0","pricing_plan_id":"cebpf4jnsgd1na2vs0mg"},{"bike_id":"8065c7d2-6b7f-42b9-bf39-a5c7a8ee9a7d","system_id":"levelo_inurba_marseille","lat":43.31767,"lon":5.39016,"is_reserved":false,"is_disabled":false,"rental_uris":{"android":"levelo://app?vid=8065c7d2-6b7f-42b9-bf39-a5c7a8ee9a7d","ios":"levelo://app?vid=8065c7d2-6b7f-42b9-bf39-a5c7a8ee9a7d"},"vehicle_type_id":"4","last_reported":1726153727,"current_range_meters":6000,"station_id":"ce4bhqp2rcd13ifvqhng","pricing_plan_id":"cebpf4jnsgd1na2vs0mg"},{"bike_id":"cc5365f3-12fd-4673-b577-4bd8a58f8db7","system_id":"levelo_inurba_marseille","lat":43.30933,"lon":5.40138,"is_reserved":false,"is_disabled":false,"rental_uris":{"android":"levelo://app?vid=cc5365f3-12fd-4673-b577-4bd8a58f8db7","ios":"levelo://app?vid=cc5365f3-12fd-4673-b577-4bd8a58f8db7"},"vehicle_type_id":"4","last_reported":1726153727,"current_range_meters":20000,"station_id":"ce4bgvp2rcd13ifvqct0","pricing_plan_id":"cebpf4jnsgd1na2vs0mg"},{"bike_id":"9b8f0a3a-7dff-4fff-96a7-b5a6deeace85","system_id":"levelo_inurba_marseille","lat":43.23977,"lon":5.36624,"is_reserved":false,"is_disabled":false,"rental_uris":{"android":"levelo://app?vid=9b8f0a3a-7dff-4fff-96a7-b5a6deeace85","ios":"levelo://app?vid=9b8f0a3a-7dff-4fff-96a7-b5a6deeace85"},"vehicle_type_id":"4","last_reported":1726153727,"current_range_meters":7200,"station_id":"ce4bhi12rcd13ifvqfp0","pricing_plan_id":"cebpf4jnsgd1na2vs0mg"},{"bike_id":"39b0a492-2ee4-4082-917a-7dac592a8cea","system_id":"levelo_inurba_marseille","lat":43.2972,"lon":5.3769,"is_reserved":false,"is_disabled":false,"rental_uris":{"android":"levelo://app?vid=39b0a492-2ee4-4082-917a-7dac592a8cea","ios":"levelo://app?vid=39b0a492-2ee4-4082-917a-7dac592a8cea"},"vehicle_type_id":"4","last_reported":1726153727,"current_range_meters":22000,"station_id":"ce4bgkh2rcd13ifvqbl0","pricing_plan_id":"cebpf4jnsgd1na2vs0mg"},{"bike_id":"a90b3083-ba78-472c-8cab-9482b6dd16f4","system_id":"levelo_inurba_marseille","lat":43.2559,"lon":5.38232,"is_reserved":false,"is_disabled":false,"rental_uris":{"android":"levelo://app?vid=a90b3083-ba78-472c-8cab-9482b6dd16f4","ios":"levelo://app?vid=a90b3083-ba78-472c-8cab-9482b6dd16f4"},"vehicle_type_id":"4","last_reported":1726153727,"current_range_meters":28800,"station_id":"ce4bhih2rcd13ifvqfs0","pricing_plan_id":"cebpf4jnsgd1na2vs0mg"},{"bike_id":"78d9efa0-2edf-4ae2-9778-129b33c343d0","system_id":"levelo_inurba_marseille","lat":43.30891,"lon":5.39652,"is_reserved":false,"is_disabled":false,"rental_uris":{"android":"levelo://app?vid=78d9efa0-2edf-4ae2-9778-129b33c343d0","ios":"levelo://app?vid=78d9efa0-2edf-4ae2-9778-129b33c343d0"},"vehicle_type_id":"4","last_reported":1726153727,"current_range_meters":33600,"station_id":"ce4bh012rcd13ifvqcv0","pricing_plan_id":"cebpf4jnsgd1na2vs0mg"},{"bike_id":"dd2d66a6-976d-43e6-83be-d6211ff78acc","system_id":"levelo_inurba_marseille","lat":43.33722,"lon":5.39176,"is_reserved":false,"is_disabled":false,"rental_uris":{"android":"levelo://app?vid=dd2d66a6-976d-43e6-83be-d6211ff78acc","ios":"levelo://app?vid=dd2d66a6-976d-43e6-83be-d6211ff78acc"},"vehicle_type_id":"4","last_reported":1726153727,"current_range_meters":11200,"station_id":"ce4bhr92rcd13ifvqhsg","pricing_plan_id":"cebpf4jnsgd1na2vs0mg"},{"bike_id":"5ef7b96a-1cb8-4f42-af16-3a0d049b19cc","system_id":"levelo_inurba_marseille","lat":43.29555,"lon":5.42287,"is_reserved":false,"is_disabled":false,"rental_uris":{"android":"levelo://app?vid=5ef7b96a-1cb8-4f42-af16-3a0d049b19cc","ios":"levelo://app?vid=5ef7b96a-1cb8-4f42-af16-3a0d049b19cc"},"vehicle_type_id":"4","last_reported":1726153727,"current_range_meters":12800,"station_id":"ce4bhph2rcd13ifvqhdg","pricing_plan_id":"cebpf4jnsgd1na2vs0mg"},{"bike_id":"6e62a724-9957-49f6-bb8c-08a6aa0ee36a","system_id":"levelo_inurba_marseille","lat":43.30805,"lon":5.38146,"is_reserved":false,"is_disabled":false,"rental_uris":{"android":"levelo://app?vid=6e62a724-9957-49f6-bb8c-08a6aa0ee36a","ios":"levelo://app?vid=6e62a724-9957-49f6-bb8c-08a6aa0ee36a"},"vehicle_type_id":"4","last_reported":1726153727,"current_range_meters":37600,"station_id":"ce4bgt12rcd13ifvqce0","pricing_plan_id":"cebpf4jnsgd1na2vs0mg"},{"bike_id":"bd7be440-8a27-4193-813b-1ecc460eb61e","system_id":"levelo_inurba_marseille","lat":43.33031,"lon":5.39043,"is_reserved":false,"is_disabled":false,"rental_uris":{"android":"levelo://app?vid=bd7be440-8a27-4193-813b-1ecc460eb61e","ios":"levelo://app?vid=bd7be440-8a27-4193-813b-1ecc460eb61e"},"vehicle_type_id":"4","last_reported":1726153727,"current_range_meters":4000,"station_id":"ce4bhr92rcd13ifvqhrg","pricing_plan_id":"cebpf4jnsgd1na2vs0mg"},{"bike_id":"62e9d9d5-f20c-4d5a-a219-f299765a03a7","system_id":"levelo_inurba_marseille","lat":43.2795,"lon":5.41047,"is_reserved":false,"is_disabled":false,"rental_uris":{"android":"levelo://app?vid=62e9d9d5-f20c-4d5a-a219-f299765a03a7","ios":"levelo://app?vid=62e9d9d5-f20c-4d5a-a219-f299765a03a7"},"vehicle_type_id":"4","last_reported":1726153727,"current_range_meters":2800,"station_id":"ce4bhnp2rcd13ifvqh0g","pricing_plan_id":"cebpf4jnsgd1na2vs0mg"},{"bike_id":"c704d023-dcd8-41bc-91f9-054398b7d4d4","system_id":"levelo_inurba_marseille","lat":43.31768,"lon":5.39007,"is_reserved":false,"is_disabled":false,"rental_uris":{"android":"levelo://app?vid=c704d023-dcd8-41bc-91f9-054398b7d4d4","ios":"levelo://app?vid=c704d023-dcd8-41bc-91f9-054398b7d4d4"},"vehicle_type_id":"4","last_reported":1726153727,"current_range_meters":25200,"station_id":"ce4bhqp2rcd13ifvqhng","pricing_plan_id":"cebpf4jnsgd1na2vs0mg"},{"bike_id":"7b16d790-f48c-4f07-a17e-934045f8b950","system_id":"levelo_inurba_marseille","lat":43.30139,"lon":5.39867,"is_reserved":false,"is_disabled":false,"rental_uris":{"android":"levelo://app?vid=7b16d790-f48c-4f07-a17e-934045f8b950","ios":"levelo://app?vid=7b16d790-f48c-4f07-a17e-934045f8b950"},"vehicle_type_id":"4","last_reported":1726153727,"current_range_meters":34800,"station_id":"ce4bh0h2rcd13ifvqd40","pricing_plan_id":"cebpf4jnsgd1na2vs0mg"},{"bike_id":"33b083fb-ff53-40c5-be9d-074bcef857d3","system_id":"levelo_inurba_marseille","lat":43.28008,"lon":5.4002,"is_reserved":false,"is_disabled":false,"rental_uris":{"android":"levelo://app?vid=33b083fb-ff53-40c5-be9d-074bcef857d3","ios":"levelo://app?vid=33b083fb-ff53-40c5-be9d-074bcef857d3"},"vehicle_type_id":"4","last_reported":1726153727,"current_range_meters":38800,"station_id":"ce4bho92rcd13ifvqh4g","pricing_plan_id":"cebpf4jnsgd1na2vs0mg"},{"bike_id":"d63b08fd-7716-422a-94e4-8f1dfff5bb11","system_id":"levelo_inurba_marseille","lat":43.28616,"lon":5.35102,"is_reserved":false,"is_disabled":false,"rental_uris":{"android":"levelo://app?vid=d63b08fd-7716-422a-94e4-8f1dfff5bb11","ios":"levelo://app?vid=d63b08fd-7716-422a-94e4-8f1dfff5bb11"},"vehicle_type_id":"4","last_reported":1726153727,"current_range_meters":17600,"station_id":"ce4bhch2rcd13ifvqeug","pricing_plan_id":"cebpf4jnsgd1na2vs0mg"},{"bike_id":"77967bbf-bb03-4047-9a24-977b9176dbb6","system_id":"levelo_inurba_marseille","lat":43.25828,"lon":5.39425,"is_reserved":false,"is_disabled":false,"rental_uris":{"android":"levelo://app?vid=77967bbf-bb03-4047-9a24-977b9176dbb6","ios":"levelo://app?vid=77967bbf-bb03-4047-9a24-977b9176dbb6"},"vehicle_type_id":"4","last_reported":1726153727,"current_range_meters":9200,"station_id":"ce4bhip2rcd13ifvqft0","pricing_plan_id":"cebpf4jnsgd1na2vs0mg"},{"bike_id":"7ad9c4c2-8e82-4e19-bf1e-a8777466a1dc","system_id":"levelo_inurba_marseille","lat":43.28414,"lon":5.34988,"is_reserved":false,"is_disabled":false,"rental_uris":{"android":"levelo://app?vid=7ad9c4c2-8e82-4e19-bf1e-a8777466a1dc","ios":"levelo://app?vid=7ad9c4c2-8e82-4e19-bf1e-a8777466a1dc"},"vehicle_type_id":"4","last_reported":1726153727,"current_range_meters":38000,"station_id":"ce4bhbh2rcd13ifvqepg","pricing_plan_id":"cebpf4jnsgd1na2vs0mg"},{"bike_id":"8a67bffc-97bc-4399-a7a4-7c840b88af4b","system_id":"levelo_inurba_marseille","lat":43.30172,"lon":5.38066,"is_reserved":false,"is_disabled":false,"rental_uris":{"android":"levelo://app?vid=8a67bffc-97bc-4399-a7a4-7c840b88af4b","ios":"levelo://app?vid=8a67bffc-97bc-4399-a7a4-7c840b88af4b"},"vehicle_type_id":"4","last_reported":1726153727,"current_range_meters":3200,"station_id":"ce4bgjp2rcd13ifvqbh0","pricing_plan_id":"cebpf4jnsgd1na2vs0mg"},{"bike_id":"41e2e5fd-b260-448a-a951-bddcd9555fd0","system_id":"levelo_inurba_marseille","lat":43.25829,"lon":5.3943,"is_reserved":false,"is_disabled":false,"rental_uris":{"android":"levelo://app?vid=41e2e5fd-b260-448a-a951-bddcd9555fd0","ios":"levelo://app?vid=41e2e5fd-b260-448a-a951-bddcd9555fd0"},"vehicle_type_id":"4","last_reported":1726153727,"current_range_meters":30800,"station_id":"ce4bhip2rcd13ifvqft0","pricing_plan_id":"cebpf4jnsgd1na2vs0mg"},{"bike_id":"97417d2f-6937-4df2-9b84-f66a32950179","system_id":"levelo_inurba_marseille","lat":43.29621,"lon":5.37732,"is_reserved":false,"is_disabled":false,"rental_uris":{"android":"levelo://app?vid=97417d2f-6937-4df2-9b84-f66a32950179","ios":"levelo://app?vid=97417d2f-6937-4df2-9b84-f66a32950179"},"vehicle_type_id":"4","last_reported":1726153727,"current_range_meters":30400,"station_id":"ce4bgi92rcd13ifvqb90","pricing_plan_id":"cebpf4jnsgd1na2vs0mg"},{"bike_id":"02b04dae-b08b-477e-94cd-64b35f979af4","system_id":"levelo_inurba_marseille","lat":43.31333,"lon":5.39685,"is_reserved":false,"is_disabled":false,"rental_uris":{"android":"levelo://app?vid=02b04dae-b08b-477e-94cd-64b35f979af4","ios":"levelo://app?vid=02b04dae-b08b-477e-94cd-64b35f979af4"},"vehicle_type_id":"4","last_reported":1726153727,"current_range_meters":8800,"station_id":"ce4bgvp2rcd13ifvqcu0","pricing_plan_id":"cebpf4jnsgd1na2vs0mg"},{"bike_id":"33ffff93-3144-4218-819d-41e11083c068","system_id":"levelo_inurba_marseille","lat":43.299072,"lon":5.385186,"is_reserved":false,"is_disabled":false,"rental_uris":{"android":"levelo://app?vid=33ffff93-3144-4218-819d-41e11083c068","ios":"levelo://app?vid=33ffff93-3144-4218-819d-41e11083c068"},"vehicle_type_id":"4","last_reported":1726153727,"current_range_meters":28800,"station_id":"ce4bgj92rcd13ifvqbd0","pricing_plan_id":"cebpf4jnsgd1na2vs0mg"},{"bike_id":"0ae4c82d-7bf7-4f75-9cfc-82f2792f9ace","system_id":"levelo_inurba_marseille","lat":43.30908,"lon":5.36846,"is_reserved":false,"is_disabled":false,"rental_uris":{"android":"levelo://app?vid=0ae4c82d-7bf7-4f75-9cfc-82f2792f9ace","ios":"levelo://app?vid=0ae4c82d-7bf7-4f75-9cfc-82f2792f9ace"},"vehicle_type_id":"4","last_reported":1726153727,"current_range_meters":16000,"station_id":"ce4bgn92rcd13ifvqbvg","pricing_plan_id":"cebpf4jnsgd1na2vs0mg"},{"bike_id":"174abb8b-305a-442b-8ea7-e8f57019a553","system_id":"levelo_inurba_marseille","lat":43.25876,"lon":5.39899,"is_reserved":false,"is_disabled":false,"rental_uris":{"android":"levelo://app?vid=174abb8b-305a-442b-8ea7-e8f57019a553","ios":"levelo://app?vid=174abb8b-305a-442b-8ea7-e8f57019a553"},"vehicle_type_id":"4","last_reported":1726153727,"current_range_meters":18800,"station_id":"ce4bhl92rcd13ifvqghg","pricing_plan_id":"cebpf4jnsgd1na2vs0mg"},{"bike_id":"7551d42d-8659-416d-896d-f767a7f37efa","system_id":"levelo_inurba_marseille","lat":43.24547,"lon":5.39521,"is_reserved":false,"is_disabled":false,"rental_uris":{"android":"levelo://app?vid=7551d42d-8659-416d-896d-f767a7f37efa","ios":"levelo://app?vid=7551d42d-8659-416d-896d-f767a7f37efa"},"vehicle_type_id":"4","last_reported":1726153727,"current_range_meters":37600,"station_id":"ce4bhlp2rcd13ifvqgjg","pricing_plan_id":"cebpf4jnsgd1na2vs0mg"},{"bike_id":"935541dc-0a07-42cf-80dd-37fbb8c795eb","system_id":"levelo_inurba_marseille","lat":43.31236,"lon":5.36858,"is_reserved":false,"is_disabled":false,"rental_uris":{"android":"levelo://app?vid=935541dc-0a07-42cf-80dd-37fbb8c795eb","ios":"levelo://app?vid=935541dc-0a07-42cf-80dd-37fbb8c795eb"},"vehicle_type_id":"4","last_reported":1726153727,"current_range_meters":33600,"station_id":"ce4bgl92rcd13ifvqbq0","pricing_plan_id":"cebpf4jnsgd1na2vs0mg"},{"bike_id":"f0bd7e1b-c721-44d2-a964-f38b1afb68b0","system_id":"levelo_inurba_marseille","lat":43.29793,"lon":5.38099,"is_reserved":false,"is_disabled":false,"rental_uris":{"android":"levelo://app?vid=f0bd7e1b-c721-44d2-a964-f38b1afb68b0","ios":"levelo://app?vid=f0bd7e1b-c721-44d2-a964-f38b1afb68b0"},"vehicle_type_id":"4","last_reported":1726153727,"current_range_meters":26000,"station_id":"ce4bgip2rcd13ifvqbb0","pricing_plan_id":"cebpf4jnsgd1na2vs0mg"},{"bike_id":"d7e2145f-8fd4-4320-bee4-5b104e729e4e","system_id":"levelo_inurba_marseille","lat":43.29811,"lon":5.38218,"is_reserved":false,"is_disabled":false,"rental_uris":{"android":"levelo://app?vid=d7e2145f-8fd4-4320-bee4-5b104e729e4e","ios":"levelo://app?vid=d7e2145f-8fd4-4320-bee4-5b104e729e4e"},"vehicle_type_id":"4","last_reported":1726153727,"current_range_meters":28000,"station_id":"","pricing_plan_id":"cebpf4jnsgd1na2vs0mg"},{"bike_id":"3a172185-6b70-4847-86ea-47ff75791967","system_id":"levelo_inurba_marseille","lat":43.31169,"lon":5.38713,"is_reserved":false,"is_disabled":false,"rental_uris":{"android":"levelo://app?vid=3a172185-6b70-4847-86ea-47ff75791967","ios":"levelo://app?vid=3a172185-6b70-4847-86ea-47ff75791967"},"vehicle_type_id":"4","last_reported":1726153727,"current_range_meters":38800,"station_id":"ce4bgv12rcd13ifvqcp0","pricing_plan_id":"cebpf4jnsgd1na2vs0mg"},{"bike_id":"9a9b3e07-a9f9-4c91-a2a1-04b85a388a8a","system_id":"levelo_inurba_marseille","lat":43.30125,"lon":5.39863,"is_reserved":false,"is_disabled":false,"rental_uris":{"android":"levelo://app?vid=9a9b3e07-a9f9-4c91-a2a1-04b85a388a8a","ios":"levelo://app?vid=9a9b3e07-a9f9-4c91-a2a1-04b85a388a8a"},"vehicle_type_id":"4","last_reported":1726153727,"current_range_meters":8800,"station_id":"ce4bh0h2rcd13ifvqd40","pricing_plan_id":"cebpf4jnsgd1na2vs0mg"},{"bike_id":"bed6f9c2-66fd-4511-938f-a66b78c198f8","system_id":"levelo_inurba_marseille","lat":43.2512,"lon":5.40326,"is_reserved":false,"is_disabled":false,"rental_uris":{"android":"levelo://app?vid=bed6f9c2-66fd-4511-938f-a66b78c198f8","ios":"levelo://app?vid=bed6f9c2-66fd-4511-938f-a66b78c198f8"},"vehicle_type_id":"4","last_reported":1726153727,"current_range_meters":6400,"station_id":"ce4bhlh2rcd13ifvqgig","pricing_plan_id":"cebpf4jnsgd1na2vs0mg"},{"bike_id":"1d44ee2b-f7c8-41a1-9d65-8b2b3f042438","system_id":"levelo_inurba_marseille","lat":43.29787,"lon":5.38102,"is_reserved":false,"is_disabled":false,"rental_uris":{"android":"levelo://app?vid=1d44ee2b-f7c8-41a1-9d65-8b2b3f042438","ios":"levelo://app?vid=1d44ee2b-f7c8-41a1-9d65-8b2b3f042438"},"vehicle_type_id":"4","last_reported":1726153727,"current_range_meters":36400,"station_id":"ce4bgip2rcd13ifvqbb0","pricing_plan_id":"cebpf4jnsgd1na2vs0mg"},{"bike_id":"5596ce60-9839-4211-8445-311576022290","system_id":"levelo_inurba_marseille","lat":43.25584,"lon":5.38235,"is_reserved":false,"is_disabled":false,"rental_uris":{"android":"levelo://app?vid=5596ce60-9839-4211-8445-311576022290","ios":"levelo://app?vid=5596ce60-9839-4211-8445-311576022290"},"vehicle_type_id":"4","last_reported":1726153727,"current_range_meters":39200,"station_id":"ce4bhih2rcd13ifvqfs0","pricing_plan_id":"cebpf4jnsgd1na2vs0mg"},{"bike_id":"96b4b172-85d0-4f67-99ce-a9b564aaaaf2","system_id":"levelo_inurba_marseille","lat":43.32659,"lon":5.40996,"is_reserved":false,"is_disabled":false,"rental_uris":{"android":"levelo://app?vid=96b4b172-85d0-4f67-99ce-a9b564aaaaf2","ios":"levelo://app?vid=96b4b172-85d0-4f67-99ce-a9b564aaaaf2"},"vehicle_type_id":"4","last_reported":1726153727,"current_range_meters":33600,"station_id":"ce4bhpp2rcd13ifvqhgg","pricing_plan_id":"cebpf4jnsgd1na2vs0mg"},{"bike_id":"07472c68-717a-4c3e-8fb3-7db33a0de292","system_id":"levelo_inurba_marseille","lat":43.28419,"lon":5.34994,"is_reserved":false,"is_disabled":false,"rental_uris":{"android":"levelo://app?vid=07472c68-717a-4c3e-8fb3-7db33a0de292","ios":"levelo://app?vid=07472c68-717a-4c3e-8fb3-7db33a0de292"},"vehicle_type_id":"4","last_reported":1726153727,"current_range_meters":38800,"station_id":"ce4bhbh2rcd13ifvqepg","pricing_plan_id":"cebpf4jnsgd1na2vs0mg"},{"bike_id":"30a27f2e-8fea-40c8-b42b-46b08748eca3","system_id":"levelo_inurba_marseille","lat":43.29725,"lon":5.37692,"is_reserved":false,"is_disabled":false,"rental_uris":{"android":"levelo://app?vid=30a27f2e-8fea-40c8-b42b-46b08748eca3","ios":"levelo://app?vid=30a27f2e-8fea-40c8-b42b-46b08748eca3"},"vehicle_type_id":"4","last_reported":1726153727,"current_range_meters":14400,"station_id":"ce4bgkh2rcd13ifvqbl0","pricing_plan_id":"cebpf4jnsgd1na2vs0mg"},{"bike_id":"66493086-2d2a-4beb-a3f4-e51217212dfa","system_id":"levelo_inurba_marseille","lat":43.29218,"lon":5.3605,"is_reserved":false,"is_disabled":false,"rental_uris":{"android":"levelo://app?vid=66493086-2d2a-4beb-a3f4-e51217212dfa","ios":"levelo://app?vid=66493086-2d2a-4beb-a3f4-e51217212dfa"},"vehicle_type_id":"4","last_reported":1726153727,"current_range_meters":18800,"station_id":"ce4bhbh2rcd13ifvqeqg","pricing_plan_id":"cebpf4jnsgd1na2vs0mg"},{"bike_id":"db58cdfc-4c11-4d08-9795-51b78b37db20","system_id":"levelo_inurba_marseille","lat":43.30142,"lon":5.39873,"is_reserved":false,"is_disabled":false,"rental_uris":{"android":"levelo://app?vid=db58cdfc-4c11-4d08-9795-51b78b37db20","ios":"levelo://app?vid=db58cdfc-4c11-4d08-9795-51b78b37db20"},"vehicle_type_id":"4","last_reported":1726153727,"current_range_meters":24800,"station_id":"ce4bh0h2rcd13ifvqd40","pricing_plan_id":"cebpf4jnsgd1na2vs0mg"},{"bike_id":"7e30533e-4494-4f63-98a5-7809aac44858","system_id":"levelo_inurba_marseille","lat":43.29548,"lon":5.42276,"is_reserved":false,"is_disabled":false,"rental_uris":{"android":"levelo://app?vid=7e30533e-4494-4f63-98a5-7809aac44858","ios":"levelo://app?vid=7e30533e-4494-4f63-98a5-7809aac44858"},"vehicle_type_id":"4","last_reported":1726153727,"current_range_meters":20000,"station_id":"ce4bhph2rcd13ifvqhdg","pricing_plan_id":"cebpf4jnsgd1na2vs0mg"},{"bike_id":"0812723c-bd87-43d9-ba80-42e1368ee507","system_id":"levelo_inurba_marseille","lat":43.25937,"lon":5.409,"is_reserved":false,"is_disabled":false,"rental_uris":{"android":"levelo://app?vid=0812723c-bd87-43d9-ba80-42e1368ee507","ios":"levelo://app?vid=0812723c-bd87-43d9-ba80-42e1368ee507"},"vehicle_type_id":"4","last_reported":1726153727,"current_range_meters":24800,"station_id":"ce4bhm92rcd13ifvqglg","pricing_plan_id":"cebpf4jnsgd1na2vs0mg"},{"bike_id":"8804ffcd-2944-4e1e-aeaf-bdaba242a469","system_id":"levelo_inurba_marseille","lat":43.24071,"lon":5.37757,"is_reserved":false,"is_disabled":false,"rental_uris":{"android":"levelo://app?vid=8804ffcd-2944-4e1e-aeaf-bdaba242a469","ios":"levelo://app?vid=8804ffcd-2944-4e1e-aeaf-bdaba242a469"},"vehicle_type_id":"4","last_reported":1726153727,"current_range_meters":4000,"station_id":"ce4bhnp2rcd13ifvqgvg","pricing_plan_id":"cebpf4jnsgd1na2vs0mg"},{"bike_id":"77f4b5d0-9f37-4c8d-b6f5-5e74a6e0a18f","system_id":"levelo_inurba_marseille","lat":43.32485,"lon":5.3656,"is_reserved":false,"is_disabled":false,"rental_uris":{"android":"levelo://app?vid=77f4b5d0-9f37-4c8d-b6f5-5e74a6e0a18f","ios":"levelo://app?vid=77f4b5d0-9f37-4c8d-b6f5-5e74a6e0a18f"},"vehicle_type_id":"4","last_reported":1726153727,"current_range_meters":10800,"station_id":"ce4bhs12rcd13ifvqhvg","pricing_plan_id":"cebpf4jnsgd1na2vs0mg"},{"bike_id":"de94536e-0048-4085-9694-de31a8b7ec83","system_id":"levelo_inurba_marseille","lat":43.26503,"lon":5.39544,"is_reserved":false,"is_disabled":false,"rental_uris":{"android":"levelo://app?vid=de94536e-0048-4085-9694-de31a8b7ec83","ios":"levelo://app?vid=de94536e-0048-4085-9694-de31a8b7ec83"},"vehicle_type_id":"4","last_reported":1726153727,"current_range_meters":33600,"station_id":"ce4bhi12rcd13ifvqfq0","pricing_plan_id":"cebpf4jnsgd1na2vs0mg"},{"bike_id":"aec0c136-33bf-434d-9c72-41899aac44c3","system_id":"levelo_inurba_marseille","lat":43.27561,"lon":5.38407,"is_reserved":false,"is_disabled":false,"rental_uris":{"android":"levelo://app?vid=aec0c136-33bf-434d-9c72-41899aac44c3","ios":"levelo://app?vid=aec0c136-33bf-434d-9c72-41899aac44c3"},"vehicle_type_id":"4","last_reported":1726153727,"current_range_meters":14400,"station_id":"ce4bhh92rcd13ifvqfi0","pricing_plan_id":"cebpf4jnsgd1na2vs0mg"},{"bike_id":"23fbe7c1-46b0-493f-aed2-d7ab793b47a4","system_id":"levelo_inurba_marseille","lat":43.30547,"lon":5.36533,"is_reserved":false,"is_disabled":false,"rental_uris":{"android":"levelo://app?vid=23fbe7c1-46b0-493f-aed2-d7ab793b47a4","ios":"levelo://app?vid=23fbe7c1-46b0-493f-aed2-d7ab793b47a4"},"vehicle_type_id":"4","last_reported":1726153727,"current_range_meters":36800,"station_id":"ce4bgs12rcd13ifvqcag","pricing_plan_id":"cebpf4jnsgd1na2vs0mg"},{"bike_id":"0dbd1e9f-35bf-4ad4-9ec6-8a0c1aa819f4","system_id":"levelo_inurba_marseille","lat":43.29032,"lon":5.37561,"is_reserved":false,"is_disabled":false,"rental_uris":{"android":"levelo://app?vid=0dbd1e9f-35bf-4ad4-9ec6-8a0c1aa819f4","ios":"levelo://app?vid=0dbd1e9f-35bf-4ad4-9ec6-8a0c1aa819f4"},"vehicle_type_id":"4","last_reported":1726153727,"current_range_meters":2800,"station_id":"ce4bh692rcd13ifvqe90","pricing_plan_id":"cebpf4jnsgd1na2vs0mg"},{"bike_id":"8e476c8b-4a0c-474a-884e-d68e4b8e3eca","system_id":"levelo_inurba_marseille","lat":43.32493,"lon":5.36561,"is_reserved":false,"is_disabled":false,"rental_uris":{"android":"levelo://app?vid=8e476c8b-4a0c-474a-884e-d68e4b8e3eca","ios":"levelo://app?vid=8e476c8b-4a0c-474a-884e-d68e4b8e3eca"},"vehicle_type_id":"4","last_reported":1726153727,"current_range_meters":14400,"station_id":"ce4bhs12rcd13ifvqhvg","pricing_plan_id":"cebpf4jnsgd1na2vs0mg"},{"bike_id":"1dcaf8e0-f9f1-4722-b47e-2e5dfcf67206","system_id":"levelo_inurba_marseille","lat":43.29706,"lon":5.36601,"is_reserved":false,"is_disabled":false,"rental_uris":{"android":"levelo://app?vid=1dcaf8e0-f9f1-4722-b47e-2e5dfcf67206","ios":"levelo://app?vid=1dcaf8e0-f9f1-4722-b47e-2e5dfcf67206"},"vehicle_type_id":"4","last_reported":1726153727,"current_range_meters":12000,"station_id":"ce4bgn12rcd13ifvqbt0","pricing_plan_id":"cebpf4jnsgd1na2vs0mg"},{"bike_id":"373b6d67-7bc6-461d-83ee-1436ffe9fa9c","system_id":"levelo_inurba_marseille","lat":43.30356,"lon":5.41871,"is_reserved":false,"is_disabled":false,"rental_uris":{"android":"levelo://app?vid=373b6d67-7bc6-461d-83ee-1436ffe9fa9c","ios":"levelo://app?vid=373b6d67-7bc6-461d-83ee-1436ffe9fa9c"},"vehicle_type_id":"4","last_reported":1726153727,"current_range_meters":6000,"station_id":"ce4bhop2rcd13ifvqh7g","pricing_plan_id":"cebpf4jnsgd1na2vs0mg"},{"bike_id":"04f3e99f-e6c7-4fbf-b251-81eac8250857","system_id":"levelo_inurba_marseille","lat":43.278831,"lon":5.38122,"is_reserved":false,"is_disabled":false,"rental_uris":{"android":"levelo://app?vid=04f3e99f-e6c7-4fbf-b251-81eac8250857","ios":"levelo://app?vid=04f3e99f-e6c7-4fbf-b251-81eac8250857"},"vehicle_type_id":"4","last_reported":1726153727,"current_range_meters":12400,"station_id":"ce4bhf92rcd13ifvqf50","pricing_plan_id":"cebpf4jnsgd1na2vs0mg"},{"bike_id":"589c22a2-3916-499a-b2a5-5e3a06eafae1","system_id":"levelo_inurba_marseille","lat":43.292694,"lon":5.384395,"is_reserved":false,"is_disabled":false,"rental_uris":{"android":"levelo://app?vid=589c22a2-3916-499a-b2a5-5e3a06eafae1","ios":"levelo://app?vid=589c22a2-3916-499a-b2a5-5e3a06eafae1"},"vehicle_type_id":"4","last_reported":1726153727,"current_range_meters":28800,"station_id":"ce4bh692rcd13ifvqea0","pricing_plan_id":"cebpf4jnsgd1na2vs0mg"},{"bike_id":"388ca8a9-1740-4fb2-ac3f-13aaabe5a8f1","system_id":"levelo_inurba_marseille","lat":43.28279,"lon":5.35052,"is_reserved":false,"is_disabled":false,"rental_uris":{"android":"levelo://app?vid=388ca8a9-1740-4fb2-ac3f-13aaabe5a8f1","ios":"levelo://app?vid=388ca8a9-1740-4fb2-ac3f-13aaabe5a8f1"},"vehicle_type_id":"4","last_reported":1726153727,"current_range_meters":29600,"station_id":"ce4bhbp2rcd13ifvqerg","pricing_plan_id":"cebpf4jnsgd1na2vs0mg"},{"bike_id":"605fc3be-4526-43df-8de3-d2d59e6a5855","system_id":"levelo_inurba_marseille","lat":43.27214,"lon":5.39185,"is_reserved":false,"is_disabled":false,"rental_uris":{"android":"levelo://app?vid=605fc3be-4526-43df-8de3-d2d59e6a5855","ios":"levelo://app?vid=605fc3be-4526-43df-8de3-d2d59e6a5855"},"vehicle_type_id":"4","last_reported":1726153727,"current_range_meters":20000,"station_id":"ce4bhhp2rcd13ifvqfm0","pricing_plan_id":"cebpf4jnsgd1na2vs0mg"},{"bike_id":"4072fac2-51ee-40d0-8807-c1f74d8bbf6b","system_id":"levelo_inurba_marseille","lat":43.26502,"lon":5.39539,"is_reserved":false,"is_disabled":false,"rental_uris":{"android":"levelo://app?vid=4072fac2-51ee-40d0-8807-c1f74d8bbf6b","ios":"levelo://app?vid=4072fac2-51ee-40d0-8807-c1f74d8bbf6b"},"vehicle_type_id":"4","last_reported":1726153727,"current_range_meters":17200,"station_id":"ce4bhi12rcd13ifvqfq0","pricing_plan_id":"cebpf4jnsgd1na2vs0mg"},{"bike_id":"ca67b363-fb8e-4b7b-8058-52b7e75e6e73","system_id":"levelo_inurba_marseille","lat":43.30535,"lon":5.36533,"is_reserved":false,"is_disabled":false,"rental_uris":{"android":"levelo://app?vid=ca67b363-fb8e-4b7b-8058-52b7e75e6e73","ios":"levelo://app?vid=ca67b363-fb8e-4b7b-8058-52b7e75e6e73"},"vehicle_type_id":"4","last_reported":1726153727,"current_range_meters":38800,"station_id":"ce4bgs12rcd13ifvqcag","pricing_plan_id":"cebpf4jnsgd1na2vs0mg"},{"bike_id":"19b706fe-8799-48a9-a7e5-a98405d439ef","system_id":"levelo_inurba_marseille","lat":43.29306,"lon":5.385319,"is_reserved":false,"is_disabled":false,"rental_uris":{"android":"levelo://app?vid=19b706fe-8799-48a9-a7e5-a98405d439ef","ios":"levelo://app?vid=19b706fe-8799-48a9-a7e5-a98405d439ef"},"vehicle_type_id":"4","last_reported":1726153727,"current_range_meters":21600,"station_id":"ce4bh692rcd13ifvqea0","pricing_plan_id":"cebpf4jnsgd1na2vs0mg"},{"bike_id":"ad00e9bd-ce30-4407-8eb3-29855186fb35","system_id":"levelo_inurba_marseille","lat":43.28943,"lon":5.36636,"is_reserved":false,"is_disabled":false,"rental_uris":{"android":"levelo://app?vid=ad00e9bd-ce30-4407-8eb3-29855186fb35","ios":"levelo://app?vid=ad00e9bd-ce30-4407-8eb3-29855186fb35"},"vehicle_type_id":"4","last_reported":1726153727,"current_range_meters":5600,"station_id":"ce4bhap2rcd13ifvqek0","pricing_plan_id":"cebpf4jnsgd1na2vs0mg"},{"bike_id":"af9421c8-e08e-45c9-9f79-72574fc04e9d","system_id":"levelo_inurba_marseille","lat":43.24173,"lon":5.36385,"is_reserved":false,"is_disabled":false,"rental_uris":{"android":"levelo://app?vid=af9421c8-e08e-45c9-9f79-72574fc04e9d","ios":"levelo://app?vid=af9421c8-e08e-45c9-9f79-72574fc04e9d"},"vehicle_type_id":"4","last_reported":1726153727,"current_range_meters":35200,"station_id":"cpo36qri1sfpv3e86is0","pricing_plan_id":"cebpf4jnsgd1na2vs0mg"},{"bike_id":"b1a896ed-87c8-461c-bb23-d987b3e630ee","system_id":"levelo_inurba_marseille","lat":43.27062,"lon":5.40256,"is_reserved":false,"is_disabled":false,"rental_uris":{"android":"levelo://app?vid=b1a896ed-87c8-461c-bb23-d987b3e630ee","ios":"levelo://app?vid=b1a896ed-87c8-461c-bb23-d987b3e630ee"},"vehicle_type_id":"4","last_reported":1726153727,"current_range_meters":24400,"station_id":"ce4bhk92rcd13ifvqgc0","pricing_plan_id":"cebpf4jnsgd1na2vs0mg"},{"bike_id":"eb26547d-d2dc-4271-9b46-5531bc5409a9","system_id":"levelo_inurba_marseille","lat":43.24973,"lon":5.38969,"is_reserved":false,"is_disabled":false,"rental_uris":{"android":"levelo://app?vid=eb26547d-d2dc-4271-9b46-5531bc5409a9","ios":"levelo://app?vid=eb26547d-d2dc-4271-9b46-5531bc5409a9"},"vehicle_type_id":"4","last_reported":1726153727,"current_range_meters":6400,"station_id":"ce4bhgp2rcd13ifvqfd0","pricing_plan_id":"cebpf4jnsgd1na2vs0mg"},{"bike_id":"f400d370-a20e-4ced-86f0-64f62510749c","system_id":"levelo_inurba_marseille","lat":43.3237,"lon":5.38926,"is_reserved":false,"is_disabled":false,"rental_uris":{"android":"levelo://app?vid=f400d370-a20e-4ced-86f0-64f62510749c","ios":"levelo://app?vid=f400d370-a20e-4ced-86f0-64f62510749c"},"vehicle_type_id":"4","last_reported":1726153727,"current_range_meters":8800,"station_id":"","pricing_plan_id":"cebpf4jnsgd1na2vs0mg"},{"bike_id":"1bee8c78-5035-4cbf-b931-ecf8945239ae","system_id":"levelo_inurba_marseille","lat":43.25865,"lon":5.39898,"is_reserved":false,"is_disabled":false,"rental_uris":{"android":"levelo://app?vid=1bee8c78-5035-4cbf-b931-ecf8945239ae","ios":"levelo://app?vid=1bee8c78-5035-4cbf-b931-ecf8945239ae"},"vehicle_type_id":"4","last_reported":1726153727,"current_range_meters":23200,"station_id":"ce4bhl92rcd13ifvqghg","pricing_plan_id":"cebpf4jnsgd1na2vs0mg"},{"bike_id":"1c113703-95ba-4466-b3d9-ea0ff698d715","system_id":"levelo_inurba_marseille","lat":43.24087,"lon":5.3774,"is_reserved":false,"is_disabled":false,"rental_uris":{"android":"levelo://app?vid=1c113703-95ba-4466-b3d9-ea0ff698d715","ios":"levelo://app?vid=1c113703-95ba-4466-b3d9-ea0ff698d715"},"vehicle_type_id":"4","last_reported":1726153727,"current_range_meters":16400,"station_id":"ce4bhnp2rcd13ifvqgvg","pricing_plan_id":"cebpf4jnsgd1na2vs0mg"},{"bike_id":"6cd174b1-b20c-4f99-bec0-250180ddca6d","system_id":"levelo_inurba_marseille","lat":43.28701,"lon":5.39987,"is_reserved":false,"is_disabled":false,"rental_uris":{"android":"levelo://app?vid=6cd174b1-b20c-4f99-bec0-250180ddca6d","ios":"levelo://app?vid=6cd174b1-b20c-4f99-bec0-250180ddca6d"},"vehicle_type_id":"4","last_reported":1726153727,"current_range_meters":28000,"station_id":"ce4bho92rcd13ifvqh3g","pricing_plan_id":"cebpf4jnsgd1na2vs0mg"},{"bike_id":"43f79be1-e45e-4e3c-9f64-a38d59be5d7a","system_id":"levelo_inurba_marseille","lat":43.2844,"lon":5.39185,"is_reserved":false,"is_disabled":false,"rental_uris":{"android":"levelo://app?vid=43f79be1-e45e-4e3c-9f64-a38d59be5d7a","ios":"levelo://app?vid=43f79be1-e45e-4e3c-9f64-a38d59be5d7a"},"vehicle_type_id":"4","last_reported":1726153727,"current_range_meters":22800,"station_id":"ce4bhoh2rcd13ifvqh5g","pricing_plan_id":"cebpf4jnsgd1na2vs0mg"},{"bike_id":"13e8ed3a-03c3-4aeb-b2e4-5599eee620ac","system_id":"levelo_inurba_marseille","lat":43.32485,"lon":5.36565,"is_reserved":false,"is_disabled":false,"rental_uris":{"android":"levelo://app?vid=13e8ed3a-03c3-4aeb-b2e4-5599eee620ac","ios":"levelo://app?vid=13e8ed3a-03c3-4aeb-b2e4-5599eee620ac"},"vehicle_type_id":"4","last_reported":1726153727,"current_range_meters":22000,"station_id":"ce4bhs12rcd13ifvqhvg","pricing_plan_id":"cebpf4jnsgd1na2vs0mg"},{"bike_id":"5091a8dd-c900-4a3a-afdc-9b0e49e3068d","system_id":"levelo_inurba_marseille","lat":43.28079,"lon":5.39653,"is_reserved":false,"is_disabled":false,"rental_uris":{"android":"levelo://app?vid=5091a8dd-c900-4a3a-afdc-9b0e49e3068d","ios":"levelo://app?vid=5091a8dd-c900-4a3a-afdc-9b0e49e3068d"},"vehicle_type_id":"4","last_reported":1726153727,"current_range_meters":16400,"station_id":"ce4bho12rcd13ifvqh2g","pricing_plan_id":"cebpf4jnsgd1na2vs0mg"},{"bike_id":"644c929c-c815-4860-9b03-8da944f75cb1","system_id":"levelo_inurba_marseille","lat":43.29105,"lon":5.38143,"is_reserved":false,"is_disabled":false,"rental_uris":{"android":"levelo://app?vid=644c929c-c815-4860-9b03-8da944f75cb1","ios":"levelo://app?vid=644c929c-c815-4860-9b03-8da944f75cb1"},"vehicle_type_id":"4","last_reported":1726153727,"current_range_meters":14000,"station_id":"ce4bh512rcd13ifvqe2g","pricing_plan_id":"cebpf4jnsgd1na2vs0mg"},{"bike_id":"a3a7a35a-c08b-4dc8-8543-275b5d433915","system_id":"levelo_inurba_marseille","lat":43.28846,"lon":5.35851,"is_reserved":false,"is_disabled":false,"rental_uris":{"android":"levelo://app?vid=a3a7a35a-c08b-4dc8-8543-275b5d433915","ios":"levelo://app?vid=a3a7a35a-c08b-4dc8-8543-275b5d433915"},"vehicle_type_id":"4","last_reported":1726153727,"current_range_meters":34800,"station_id":"ce4bhb12rcd13ifvqem0","pricing_plan_id":"cebpf4jnsgd1na2vs0mg"},{"bike_id":"48b306a2-3e31-435c-b0f6-ad50520556c1","system_id":"levelo_inurba_marseille","lat":43.31757,"lon":5.39015,"is_reserved":false,"is_disabled":false,"rental_uris":{"android":"levelo://app?vid=48b306a2-3e31-435c-b0f6-ad50520556c1","ios":"levelo://app?vid=48b306a2-3e31-435c-b0f6-ad50520556c1"},"vehicle_type_id":"4","last_reported":1726153727,"current_range_meters":17200,"station_id":"ce4bhqp2rcd13ifvqhng","pricing_plan_id":"cebpf4jnsgd1na2vs0mg"},{"bike_id":"4d418e79-2a08-4dd6-abf8-b5e3e58e82e3","system_id":"levelo_inurba_marseille","lat":43.30888,"lon":5.39652,"is_reserved":false,"is_disabled":false,"rental_uris":{"android":"levelo://app?vid=4d418e79-2a08-4dd6-abf8-b5e3e58e82e3","ios":"levelo://app?vid=4d418e79-2a08-4dd6-abf8-b5e3e58e82e3"},"vehicle_type_id":"4","last_reported":1726153727,"current_range_meters":10800,"station_id":"ce4bh012rcd13ifvqcv0","pricing_plan_id":"cebpf4jnsgd1na2vs0mg"},{"bike_id":"936e369c-7068-4099-9a8b-071806817a6c","system_id":"levelo_inurba_marseille","lat":43.29859,"lon":5.3629,"is_reserved":false,"is_disabled":false,"rental_uris":{"android":"levelo://app?vid=936e369c-7068-4099-9a8b-071806817a6c","ios":"levelo://app?vid=936e369c-7068-4099-9a8b-071806817a6c"},"vehicle_type_id":"4","last_reported":1726153727,"current_range_meters":28400,"station_id":"ce4bgpp2rcd13ifvqc3g","pricing_plan_id":"cebpf4jnsgd1na2vs0mg"},{"bike_id":"d2b5438d-c3ce-408a-97f0-f77b818c95bf","system_id":"levelo_inurba_marseille","lat":43.25927,"lon":5.40901,"is_reserved":false,"is_disabled":false,"rental_uris":{"android":"levelo://app?vid=d2b5438d-c3ce-408a-97f0-f77b818c95bf","ios":"levelo://app?vid=d2b5438d-c3ce-408a-97f0-f77b818c95bf"},"vehicle_type_id":"4","last_reported":1726153727,"current_range_meters":9200,"station_id":"ce4bhm92rcd13ifvqglg","pricing_plan_id":"cebpf4jnsgd1na2vs0mg"},{"bike_id":"3c6af5cc-69e6-46ed-81a6-a70ab6d7cfc7","system_id":"levelo_inurba_marseille","lat":43.29524,"lon":5.37496,"is_reserved":false,"is_disabled":false,"rental_uris":{"android":"levelo://app?vid=3c6af5cc-69e6-46ed-81a6-a70ab6d7cfc7","ios":"levelo://app?vid=3c6af5cc-69e6-46ed-81a6-a70ab6d7cfc7"},"vehicle_type_id":"4","last_reported":1726153727,"current_range_meters":10000,"station_id":"ce4bgkp2rcd13ifvqbmg","pricing_plan_id":"cebpf4jnsgd1na2vs0mg"},{"bike_id":"1048ec7a-6dcd-4477-9f61-d235fae3a4f4","system_id":"levelo_inurba_marseille","lat":43.29799,"lon":5.38096,"is_reserved":false,"is_disabled":false,"rental_uris":{"android":"levelo://app?vid=1048ec7a-6dcd-4477-9f61-d235fae3a4f4","ios":"levelo://app?vid=1048ec7a-6dcd-4477-9f61-d235fae3a4f4"},"vehicle_type_id":"4","last_reported":1726153727,"current_range_meters":22400,"station_id":"ce4bgip2rcd13ifvqbb0","pricing_plan_id":"cebpf4jnsgd1na2vs0mg"},{"bike_id":"c8c0b3bb-81ea-476b-ba8e-2e4965028c88","system_id":"levelo_inurba_marseille","lat":43.31998,"lon":5.38149,"is_reserved":false,"is_disabled":false,"rental_uris":{"android":"levelo://app?vid=c8c0b3bb-81ea-476b-ba8e-2e4965028c88","ios":"levelo://app?vid=c8c0b3bb-81ea-476b-ba8e-2e4965028c88"},"vehicle_type_id":"4","last_reported":1726153727,"current_range_meters":4800,"station_id":"ce4bhr12rcd13ifvqhpg","pricing_plan_id":"cebpf4jnsgd1na2vs0mg"},{"bike_id":"169a72ab-28e3-450c-a21c-3631aa783779","system_id":"levelo_inurba_marseille","lat":43.26068,"lon":5.39396,"is_reserved":false,"is_disabled":false,"rental_uris":{"android":"levelo://app?vid=169a72ab-28e3-450c-a21c-3631aa783779","ios":"levelo://app?vid=169a72ab-28e3-450c-a21c-3631aa783779"},"vehicle_type_id":"4","last_reported":1726153727,"current_range_meters":6000,"station_id":"ce4bhh92rcd13ifvqfj0","pricing_plan_id":"cebpf4jnsgd1na2vs0mg"},{"bike_id":"8dd8438a-605c-4e2e-b3e7-6ddb4b97ab5b","system_id":"levelo_inurba_marseille","lat":43.28466,"lon":5.35873,"is_reserved":false,"is_disabled":false,"rental_uris":{"android":"levelo://app?vid=8dd8438a-605c-4e2e-b3e7-6ddb4b97ab5b","ios":"levelo://app?vid=8dd8438a-605c-4e2e-b3e7-6ddb4b97ab5b"},"vehicle_type_id":"4","last_reported":1726153727,"current_range_meters":4800,"station_id":"ce4bhah2rcd13ifvqei0","pricing_plan_id":"cebpf4jnsgd1na2vs0mg"},{"bike_id":"49d4f95a-42da-4c38-9391-0704ca3861ae","system_id":"levelo_inurba_marseille","lat":43.29036,"lon":5.3756,"is_reserved":false,"is_disabled":false,"rental_uris":{"android":"levelo://app?vid=49d4f95a-42da-4c38-9391-0704ca3861ae","ios":"levelo://app?vid=49d4f95a-42da-4c38-9391-0704ca3861ae"},"vehicle_type_id":"4","last_reported":1726153727,"current_range_meters":22400,"station_id":"ce4bh292rcd13ifvqdf0","pricing_plan_id":"cebpf4jnsgd1na2vs0mg"},{"bike_id":"58900521-f788-4090-90d4-8129e5641ef0","system_id":"levelo_inurba_marseille","lat":43.28623,"lon":5.35102,"is_reserved":false,"is_disabled":false,"rental_uris":{"android":"levelo://app?vid=58900521-f788-4090-90d4-8129e5641ef0","ios":"levelo://app?vid=58900521-f788-4090-90d4-8129e5641ef0"},"vehicle_type_id":"4","last_reported":1726153727,"current_range_meters":28400,"station_id":"ce4bhch2rcd13ifvqeug","pricing_plan_id":"cebpf4jnsgd1na2vs0mg"},{"bike_id":"fffbd652-9d9a-47e9-892c-68dc09e02ddb","system_id":"levelo_inurba_marseille","lat":43.24085,"lon":5.37735,"is_reserved":false,"is_disabled":false,"rental_uris":{"android":"levelo://app?vid=fffbd652-9d9a-47e9-892c-68dc09e02ddb","ios":"levelo://app?vid=fffbd652-9d9a-47e9-892c-68dc09e02ddb"},"vehicle_type_id":"4","last_reported":1726153727,"current_range_meters":27600,"station_id":"ce4bhnp2rcd13ifvqgvg","pricing_plan_id":"cebpf4jnsgd1na2vs0mg"},{"bike_id":"0b935087-2013-46ca-a070-80a3056de63c","system_id":"levelo_inurba_marseille","lat":43.24181,"lon":5.39733,"is_reserved":false,"is_disabled":false,"rental_uris":{"android":"levelo://app?vid=0b935087-2013-46ca-a070-80a3056de63c","ios":"levelo://app?vid=0b935087-2013-46ca-a070-80a3056de63c"},"vehicle_type_id":"4","last_reported":1726153727,"current_range_meters":36400,"station_id":"ce4bhn12rcd13ifvqgpg","pricing_plan_id":"cebpf4jnsgd1na2vs0mg"},{"bike_id":"b64dd14e-48e3-40f5-a2fb-7abf69c1a52a","system_id":"levelo_inurba_marseille","lat":43.29882,"lon":5.39741,"is_reserved":false,"is_disabled":false,"rental_uris":{"android":"levelo://app?vid=b64dd14e-48e3-40f5-a2fb-7abf69c1a52a","ios":"levelo://app?vid=b64dd14e-48e3-40f5-a2fb-7abf69c1a52a"},"vehicle_type_id":"4","last_reported":1726153727,"current_range_meters":26000,"station_id":"ce4bh0h2rcd13ifvqd50","pricing_plan_id":"cebpf4jnsgd1na2vs0mg"},{"bike_id":"3feb17fd-773c-4e51-9625-3e998a1fd457","system_id":"levelo_inurba_marseille","lat":43.30548,"lon":5.36532,"is_reserved":false,"is_disabled":false,"rental_uris":{"android":"levelo://app?vid=3feb17fd-773c-4e51-9625-3e998a1fd457","ios":"levelo://app?vid=3feb17fd-773c-4e51-9625-3e998a1fd457"},"vehicle_type_id":"4","last_reported":1726153727,"current_range_meters":36400,"station_id":"ce4bgs12rcd13ifvqcag","pricing_plan_id":"cebpf4jnsgd1na2vs0mg"},{"bike_id":"484e281b-d769-40f0-833f-0c9034ef74e8","system_id":"levelo_inurba_marseille","lat":43.30642,"lon":5.40072,"is_reserved":false,"is_disabled":false,"rental_uris":{"android":"levelo://app?vid=484e281b-d769-40f0-833f-0c9034ef74e8","ios":"levelo://app?vid=484e281b-d769-40f0-833f-0c9034ef74e8"},"vehicle_type_id":"4","last_reported":1726153727,"current_range_meters":24400,"station_id":"ce4bh112rcd13ifvqda0","pricing_plan_id":"cebpf4jnsgd1na2vs0mg"},{"bike_id":"b7ab91d6-373f-457f-bd6a-78cc49bda640","system_id":"levelo_inurba_marseille","lat":43.306128,"lon":5.400796,"is_reserved":false,"is_disabled":false,"rental_uris":{"android":"levelo://app?vid=b7ab91d6-373f-457f-bd6a-78cc49bda640","ios":"levelo://app?vid=b7ab91d6-373f-457f-bd6a-78cc49bda640"},"vehicle_type_id":"4","last_reported":1726153727,"current_range_meters":28000,"station_id":"ce4bh112rcd13ifvqda0","pricing_plan_id":"cebpf4jnsgd1na2vs0mg"},{"bike_id":"2ac1ce92-e83f-48c1-8be0-35e4da4cb98f","system_id":"levelo_inurba_marseille","lat":43.24187,"lon":5.39726,"is_reserved":false,"is_disabled":false,"rental_uris":{"android":"levelo://app?vid=2ac1ce92-e83f-48c1-8be0-35e4da4cb98f","ios":"levelo://app?vid=2ac1ce92-e83f-48c1-8be0-35e4da4cb98f"},"vehicle_type_id":"4","last_reported":1726153727,"current_range_meters":16400,"station_id":"ce4bhn12rcd13ifvqgpg","pricing_plan_id":"cebpf4jnsgd1na2vs0mg"},{"bike_id":"9a8df143-0e0f-43f8-a3bb-11a1a055dff3","system_id":"levelo_inurba_marseille","lat":43.29643,"lon":5.40593,"is_reserved":false,"is_disabled":false,"rental_uris":{"android":"levelo://app?vid=9a8df143-0e0f-43f8-a3bb-11a1a055dff3","ios":"levelo://app?vid=9a8df143-0e0f-43f8-a3bb-11a1a055dff3"},"vehicle_type_id":"4","last_reported":1726153727,"current_range_meters":28400,"station_id":"ce4bgr92rcd13ifvqc7g","pricing_plan_id":"cebpf4jnsgd1na2vs0mg"},{"bike_id":"1566fc7a-a937-425b-a958-b09b22aa43ab","system_id":"levelo_inurba_marseille","lat":43.25586,"lon":5.38235,"is_reserved":false,"is_disabled":false,"rental_uris":{"android":"levelo://app?vid=1566fc7a-a937-425b-a958-b09b22aa43ab","ios":"levelo://app?vid=1566fc7a-a937-425b-a958-b09b22aa43ab"},"vehicle_type_id":"4","last_reported":1726153727,"current_range_meters":16000,"station_id":"ce4bhih2rcd13ifvqfs0","pricing_plan_id":"cebpf4jnsgd1na2vs0mg"},{"bike_id":"f466871e-6a83-4c36-bd1e-6ca5fa258041","system_id":"levelo_inurba_marseille","lat":43.32486,"lon":5.36576,"is_reserved":false,"is_disabled":false,"rental_uris":{"android":"levelo://app?vid=f466871e-6a83-4c36-bd1e-6ca5fa258041","ios":"levelo://app?vid=f466871e-6a83-4c36-bd1e-6ca5fa258041"},"vehicle_type_id":"4","last_reported":1726153727,"current_range_meters":29600,"station_id":"ce4bhs12rcd13ifvqhvg","pricing_plan_id":"cebpf4jnsgd1na2vs0mg"},{"bike_id":"0336d870-c49d-4470-a71f-452942676f5a","system_id":"levelo_inurba_marseille","lat":43.2439,"lon":5.37064,"is_reserved":false,"is_disabled":false,"rental_uris":{"android":"levelo://app?vid=0336d870-c49d-4470-a71f-452942676f5a","ios":"levelo://app?vid=0336d870-c49d-4470-a71f-452942676f5a"},"vehicle_type_id":"4","last_reported":1726153727,"current_range_meters":30400,"station_id":"ce4bhhh2rcd13ifvqfk0","pricing_plan_id":"cebpf4jnsgd1na2vs0mg"},{"bike_id":"ac66d9e5-2e0e-464c-af81-5cc660742598","system_id":"levelo_inurba_marseille","lat":43.29573,"lon":5.39982,"is_reserved":false,"is_disabled":false,"rental_uris":{"android":"levelo://app?vid=ac66d9e5-2e0e-464c-af81-5cc660742598","ios":"levelo://app?vid=ac66d9e5-2e0e-464c-af81-5cc660742598"},"vehicle_type_id":"4","last_reported":1726153727,"current_range_meters":29600,"station_id":"ce4bh312rcd13ifvqdj0","pricing_plan_id":"cebpf4jnsgd1na2vs0mg"},{"bike_id":"1a9c0247-6efd-4b38-bc06-97e54d70b092","system_id":"levelo_inurba_marseille","lat":43.29548,"lon":5.42277,"is_reserved":false,"is_disabled":false,"rental_uris":{"android":"levelo://app?vid=1a9c0247-6efd-4b38-bc06-97e54d70b092","ios":"levelo://app?vid=1a9c0247-6efd-4b38-bc06-97e54d70b092"},"vehicle_type_id":"4","last_reported":1726153727,"current_range_meters":31200,"station_id":"ce4bhph2rcd13ifvqhdg","pricing_plan_id":"cebpf4jnsgd1na2vs0mg"},{"bike_id":"fef517ac-4e8a-466d-9f94-a669acbe686e","system_id":"levelo_inurba_marseille","lat":43.33726,"lon":5.3919,"is_reserved":false,"is_disabled":false,"rental_uris":{"android":"levelo://app?vid=fef517ac-4e8a-466d-9f94-a669acbe686e","ios":"levelo://app?vid=fef517ac-4e8a-466d-9f94-a669acbe686e"},"vehicle_type_id":"4","last_reported":1726153727,"current_range_meters":35600,"station_id":"ce4bhr92rcd13ifvqhsg","pricing_plan_id":"cebpf4jnsgd1na2vs0mg"},{"bike_id":"ac9a0407-f13f-441a-bbda-398676892723","system_id":"levelo_inurba_marseille","lat":43.30799,"lon":5.4352,"is_reserved":false,"is_disabled":false,"rental_uris":{"android":"levelo://app?vid=ac9a0407-f13f-441a-bbda-398676892723","ios":"levelo://app?vid=ac9a0407-f13f-441a-bbda-398676892723"},"vehicle_type_id":"4","last_reported":1726153727,"current_range_meters":22000,"station_id":"ce4bhph2rcd13ifvqheg","pricing_plan_id":"cebpf4jnsgd1na2vs0mg"},{"bike_id":"0e8d51cc-3c6c-4a03-81e2-24f533f0885d","system_id":"levelo_inurba_marseille","lat":43.25715,"lon":5.41112,"is_reserved":false,"is_disabled":false,"rental_uris":{"android":"levelo://app?vid=0e8d51cc-3c6c-4a03-81e2-24f533f0885d","ios":"levelo://app?vid=0e8d51cc-3c6c-4a03-81e2-24f533f0885d"},"vehicle_type_id":"4","last_reported":1726153727,"current_range_meters":39200,"station_id":"ce4bhkp2rcd13ifvqgd0","pricing_plan_id":"cebpf4jnsgd1na2vs0mg"},{"bike_id":"0c0566b0-d0a8-4611-be99-9c11b9df0b50","system_id":"levelo_inurba_marseille","lat":43.23182,"lon":5.3998,"is_reserved":false,"is_disabled":false,"rental_uris":{"android":"levelo://app?vid=0c0566b0-d0a8-4611-be99-9c11b9df0b50","ios":"levelo://app?vid=0c0566b0-d0a8-4611-be99-9c11b9df0b50"},"vehicle_type_id":"4","last_reported":1726153727,"current_range_meters":28400,"station_id":"ce4bhn12rcd13ifvqgqg","pricing_plan_id":"cebpf4jnsgd1na2vs0mg"},{"bike_id":"3c2bf828-177e-4d15-8acb-9d99ee469f9d","system_id":"levelo_inurba_marseille","lat":43.25104,"lon":5.40322,"is_reserved":false,"is_disabled":false,"rental_uris":{"android":"levelo://app?vid=3c2bf828-177e-4d15-8acb-9d99ee469f9d","ios":"levelo://app?vid=3c2bf828-177e-4d15-8acb-9d99ee469f9d"},"vehicle_type_id":"4","last_reported":1726153727,"current_range_meters":30400,"station_id":"ce4bhlh2rcd13ifvqgig","pricing_plan_id":"cebpf4jnsgd1na2vs0mg"},{"bike_id":"af87f68a-d894-4abb-8f9e-b36553ef6c3b","system_id":"levelo_inurba_marseille","lat":43.2942,"lon":5.38629,"is_reserved":false,"is_disabled":false,"rental_uris":{"android":"levelo://app?vid=af87f68a-d894-4abb-8f9e-b36553ef6c3b","ios":"levelo://app?vid=af87f68a-d894-4abb-8f9e-b36553ef6c3b"},"vehicle_type_id":"4","last_reported":1726153727,"current_range_meters":20800,"station_id":"ce4bh2h2rcd13ifvqdh0","pricing_plan_id":"cebpf4jnsgd1na2vs0mg"},{"bike_id":"70880eac-0f7e-4657-9947-e03f797a5f0a","system_id":"levelo_inurba_marseille","lat":43.29796,"lon":5.38076,"is_reserved":false,"is_disabled":false,"rental_uris":{"android":"levelo://app?vid=70880eac-0f7e-4657-9947-e03f797a5f0a","ios":"levelo://app?vid=70880eac-0f7e-4657-9947-e03f797a5f0a"},"vehicle_type_id":"4","last_reported":1726153727,"current_range_meters":32000,"station_id":"ce4bgip2rcd13ifvqbb0","pricing_plan_id":"cebpf4jnsgd1na2vs0mg"},{"bike_id":"bbb9f009-d9d3-42ec-9870-793ea48c92c8","system_id":"levelo_inurba_marseille","lat":43.29261,"lon":5.40906,"is_reserved":false,"is_disabled":false,"rental_uris":{"android":"levelo://app?vid=bbb9f009-d9d3-42ec-9870-793ea48c92c8","ios":"levelo://app?vid=bbb9f009-d9d3-42ec-9870-793ea48c92c8"},"vehicle_type_id":"4","last_reported":1726153727,"current_range_meters":6800,"station_id":"ce4bh192rcd13ifvqdc0","pricing_plan_id":"cebpf4jnsgd1na2vs0mg"},{"bike_id":"32856190-6b49-43c6-b040-49715b90b056","system_id":"levelo_inurba_marseille","lat":43.26205,"lon":5.37924,"is_reserved":false,"is_disabled":false,"rental_uris":{"android":"levelo://app?vid=32856190-6b49-43c6-b040-49715b90b056","ios":"levelo://app?vid=32856190-6b49-43c6-b040-49715b90b056"},"vehicle_type_id":"4","last_reported":1726153727,"current_range_meters":18000,"station_id":"ce4bhjp2rcd13ifvqg90","pricing_plan_id":"cebpf4jnsgd1na2vs0mg"},{"bike_id":"57b44fa0-e598-46b6-b14f-e2358c72be0e","system_id":"levelo_inurba_marseille","lat":43.26574,"lon":5.39012,"is_reserved":false,"is_disabled":false,"rental_uris":{"android":"levelo://app?vid=57b44fa0-e598-46b6-b14f-e2358c72be0e","ios":"levelo://app?vid=57b44fa0-e598-46b6-b14f-e2358c72be0e"},"vehicle_type_id":"4","last_reported":1726153727,"current_range_meters":20000,"station_id":"ce4bhe12rcd13ifvqf30","pricing_plan_id":"cebpf4jnsgd1na2vs0mg"},{"bike_id":"1d62640d-6f3f-4f9c-bb03-34ae22551572","system_id":"levelo_inurba_marseille","lat":43.29518,"lon":5.39029,"is_reserved":false,"is_disabled":false,"rental_uris":{"android":"levelo://app?vid=1d62640d-6f3f-4f9c-bb03-34ae22551572","ios":"levelo://app?vid=1d62640d-6f3f-4f9c-bb03-34ae22551572"},"vehicle_type_id":"4","last_reported":1726153727,"current_range_meters":30000,"station_id":"ce4bh3p2rcd13ifvqdp0","pricing_plan_id":"cebpf4jnsgd1na2vs0mg"},{"bike_id":"d2dd2061-a8fa-44ba-9b13-d1b3eb7c0fc8","system_id":"levelo_inurba_marseille","lat":43.30804,"lon":5.43525,"is_reserved":false,"is_disabled":false,"rental_uris":{"android":"levelo://app?vid=d2dd2061-a8fa-44ba-9b13-d1b3eb7c0fc8","ios":"levelo://app?vid=d2dd2061-a8fa-44ba-9b13-d1b3eb7c0fc8"},"vehicle_type_id":"4","last_reported":1726153727,"current_range_meters":36800,"station_id":"ce4bhph2rcd13ifvqheg","pricing_plan_id":"cebpf4jnsgd1na2vs0mg"},{"bike_id":"a3e9ec58-1f51-43f4-9114-cb1a1040335a","system_id":"levelo_inurba_marseille","lat":43.28451,"lon":5.4599,"is_reserved":false,"is_disabled":false,"rental_uris":{"android":"levelo://app?vid=a3e9ec58-1f51-43f4-9114-cb1a1040335a","ios":"levelo://app?vid=a3e9ec58-1f51-43f4-9114-cb1a1040335a"},"vehicle_type_id":"4","last_reported":1726153727,"current_range_meters":6400,"station_id":"","pricing_plan_id":"cebpf4jnsgd1na2vs0mg"},{"bike_id":"ee41233d-7057-4ec4-b3c6-63f582836de8","system_id":"levelo_inurba_marseille","lat":43.22935,"lon":5.35384,"is_reserved":false,"is_disabled":false,"rental_uris":{"android":"levelo://app?vid=ee41233d-7057-4ec4-b3c6-63f582836de8","ios":"levelo://app?vid=ee41233d-7057-4ec4-b3c6-63f582836de8"},"vehicle_type_id":"4","last_reported":1726153727,"current_range_meters":26800,"station_id":"cpo3532slgdg3j2ikp40","pricing_plan_id":"cebpf4jnsgd1na2vs0mg"},{"bike_id":"019f1531-36c1-4dc3-85e5-9cebe057aa3c","system_id":"levelo_inurba_marseille","lat":43.2559,"lon":5.38236,"is_reserved":false,"is_disabled":false,"rental_uris":{"android":"levelo://app?vid=019f1531-36c1-4dc3-85e5-9cebe057aa3c","ios":"levelo://app?vid=019f1531-36c1-4dc3-85e5-9cebe057aa3c"},"vehicle_type_id":"4","last_reported":1726153727,"current_range_meters":30800,"station_id":"ce4bhih2rcd13ifvqfs0","pricing_plan_id":"cebpf4jnsgd1na2vs0mg"},{"bike_id":"1b862198-88c9-4a84-ad99-4c896386cc6f","system_id":"levelo_inurba_marseille","lat":43.30556,"lon":5.36521,"is_reserved":false,"is_disabled":false,"rental_uris":{"android":"levelo://app?vid=1b862198-88c9-4a84-ad99-4c896386cc6f","ios":"levelo://app?vid=1b862198-88c9-4a84-ad99-4c896386cc6f"},"vehicle_type_id":"4","last_reported":1726153727,"current_range_meters":35600,"station_id":"ce4bgs12rcd13ifvqcag","pricing_plan_id":"cebpf4jnsgd1na2vs0mg"},{"bike_id":"269ab5c6-a447-416d-9c73-a5c530ca68a9","system_id":"levelo_inurba_marseille","lat":43.30891,"lon":5.39657,"is_reserved":false,"is_disabled":false,"rental_uris":{"android":"levelo://app?vid=269ab5c6-a447-416d-9c73-a5c530ca68a9","ios":"levelo://app?vid=269ab5c6-a447-416d-9c73-a5c530ca68a9"},"vehicle_type_id":"4","last_reported":1726153727,"current_range_meters":12400,"station_id":"ce4bh012rcd13ifvqcv0","pricing_plan_id":"cebpf4jnsgd1na2vs0mg"},{"bike_id":"6a339211-51d1-40f8-8f9c-f2a463ec55a5","system_id":"levelo_inurba_marseille","lat":43.26055,"lon":5.39393,"is_reserved":false,"is_disabled":false,"rental_uris":{"android":"levelo://app?vid=6a339211-51d1-40f8-8f9c-f2a463ec55a5","ios":"levelo://app?vid=6a339211-51d1-40f8-8f9c-f2a463ec55a5"},"vehicle_type_id":"4","last_reported":1726153727,"current_range_meters":36000,"station_id":"ce4bhh92rcd13ifvqfj0","pricing_plan_id":"cebpf4jnsgd1na2vs0mg"},{"bike_id":"51239419-1d98-4012-beea-df348fb5ad98","system_id":"levelo_inurba_marseille","lat":43.26203,"lon":5.37926,"is_reserved":false,"is_disabled":false,"rental_uris":{"android":"levelo://app?vid=51239419-1d98-4012-beea-df348fb5ad98","ios":"levelo://app?vid=51239419-1d98-4012-beea-df348fb5ad98"},"vehicle_type_id":"4","last_reported":1726153727,"current_range_meters":39200,"station_id":"ce4bhjp2rcd13ifvqg90","pricing_plan_id":"cebpf4jnsgd1na2vs0mg"},{"bike_id":"5ca8f257-fdbd-41b6-858d-e010b6aebc69","system_id":"levelo_inurba_marseille","lat":43.29795,"lon":5.39344,"is_reserved":false,"is_disabled":false,"rental_uris":{"android":"levelo://app?vid=5ca8f257-fdbd-41b6-858d-e010b6aebc69","ios":"levelo://app?vid=5ca8f257-fdbd-41b6-858d-e010b6aebc69"},"vehicle_type_id":"4","last_reported":1726153727,"current_range_meters":18800,"station_id":"chh1huq6cuj3fo74tm60","pricing_plan_id":"cebpf4jnsgd1na2vs0mg"},{"bike_id":"0f9c47df-fc89-441e-88bd-6534b3e7a23b","system_id":"levelo_inurba_marseille","lat":43.32384,"lon":5.38916,"is_reserved":false,"is_disabled":false,"rental_uris":{"android":"levelo://app?vid=0f9c47df-fc89-441e-88bd-6534b3e7a23b","ios":"levelo://app?vid=0f9c47df-fc89-441e-88bd-6534b3e7a23b"},"vehicle_type_id":"4","last_reported":1726153727,"current_range_meters":38400,"station_id":"ce4bhqp2rcd13ifvqhog","pricing_plan_id":"cebpf4jnsgd1na2vs0mg"},{"bike_id":"32bdde9b-bd1a-45e5-a07c-707b1340b645","system_id":"levelo_inurba_marseille","lat":43.29789,"lon":5.38098,"is_reserved":false,"is_disabled":false,"rental_uris":{"android":"levelo://app?vid=32bdde9b-bd1a-45e5-a07c-707b1340b645","ios":"levelo://app?vid=32bdde9b-bd1a-45e5-a07c-707b1340b645"},"vehicle_type_id":"4","last_reported":1726153727,"current_range_meters":5600,"station_id":"ce4bgip2rcd13ifvqbb0","pricing_plan_id":"cebpf4jnsgd1na2vs0mg"},{"bike_id":"0f736e3f-2bd4-4252-b86f-a3fcac6ea41b","system_id":"levelo_inurba_marseille","lat":43.30212,"lon":5.39463,"is_reserved":false,"is_disabled":false,"rental_uris":{"android":"levelo://app?vid=0f736e3f-2bd4-4252-b86f-a3fcac6ea41b","ios":"levelo://app?vid=0f736e3f-2bd4-4252-b86f-a3fcac6ea41b"},"vehicle_type_id":"4","last_reported":1726153727,"current_range_meters":29600,"station_id":"ce4bh0p2rcd13ifvqd70","pricing_plan_id":"cebpf4jnsgd1na2vs0mg"},{"bike_id":"51d33817-0720-448e-beed-c4048b23e9bb","system_id":"levelo_inurba_marseille","lat":43.31484,"lon":5.37305,"is_reserved":false,"is_disabled":false,"rental_uris":{"android":"levelo://app?vid=51d33817-0720-448e-beed-c4048b23e9bb","ios":"levelo://app?vid=51d33817-0720-448e-beed-c4048b23e9bb"},"vehicle_type_id":"4","last_reported":1726153727,"current_range_meters":19200,"station_id":"ce4bgt12rcd13ifvqcd0","pricing_plan_id":"cebpf4jnsgd1na2vs0mg"},