{"last_updated":1750849769,"ttl":60,"version":"2.2","data":{"bikes":[{"bike_id":"3da29fb8-fc97-44c6-b9ac-31dd456b2fd4","system_id":"levelo_inurba_marseille","lat":43.33771,"lon":5.37424,"is_reserved":false,"is_disabled":true,"rental_uris":{"android":"levelo://app?vid=3da29fb8-fc97-44c6-b9ac-31dd456b2fd4","ios":"levelo://app?vid=3da29fb8-fc97-44c6-b9ac-31dd456b2fd4"},"vehicle_type_id":"4","last_reported":1750849769,"current_range_meters":0,"station_id":"","pricing_plan_id":"cebpf4jnsgd1na2vs0mg"},{"bike_id":"01861ad8-a8d7-4be6-816e-651927c87584","system_id":"levelo_inurba_marseille","lat":43.33751,"lon":5.37456,"is_reserved":false,"is_disabled":true,"rental_uris":{"android":"levelo://app?vid=01861ad8-a8d7-4be6-816e-651927c87584","ios":"levelo://app?vid=01861ad8-a8d7-4be6-816e-651927c87584"},"vehicle_type_id":"4","last_reported":1750849769,"current_range_meters":0,"station_id":"","pricing_plan_id":"cebpf4jnsgd1na2vs0mg"},{"bike_id":"8c6de0c1-9eaf-4c18-8155-d956789067ae","system_id":"levelo_inurba_marseille","lat":43.27908,"lon":5.44276,"is_reserved":false,"is_disabled":true,"rental_uris":{"android":"levelo://app?vid=8c6de0c1-9eaf-4c18-8155-d956789067ae","ios":"levelo://app?vid=8c6de0c1-9eaf-4c18-8155-d956789067ae"},"vehicle_type_id":"4","last_reported":1750849769,"current_range_meters":0,"station_id":"","pricing_plan_id":"cebpf4jnsgd1na2vs0mg"},{"bike_id":"01a7b5de-cbb0-45f6-b552-105157f7a511","system_id":"levelo_inurba_marseille","lat":43.23858,"lon":5.43057,"is_reserved":false,"is_disabled":true,"rental_uris":{"android":"levelo://app?vid=01a7b5de-cbb0-45f6-b552-105157f7a511","ios":"levelo://app?vid=01a7b5de-cbb0-45f6-b552-105157f7a511"},"vehicle_type_id":"4","last_reported":1750849769,"current_range_meters":0,"station_id":"","pricing_plan_id":"cebpf4jnsgd1na2vs0mg"},{"bike_id":"f0a1d594-9817-42ab-a8d6-aea4947e8858","system_id":"levelo_inurba_marseille","lat":43.288329,"lon":5.434368,"is_reserved":false,"is_disabled":true,"rental_uris":{"android":"levelo://app?vid=f0a1d594-9817-42ab-a8d6-aea4947e8858","ios":"levelo://app?vid=f0a1d594-9817-42ab-a8d6-aea4947e8858"},"vehicle_type_id":"4","last_reported":1750849769,"current_range_meters":0,"station_id":"","pricing_plan_id":"cebpf4jnsgd1na2vs0mg"},{"bike_id":"62a493c7-4534-4419-ad43-0582de34a72a","system_id":"levelo_inurba_marseille","lat":43.21366,"lon":5.355183,"is_reserved":false,"is_disabled":true,"rental_uris":{"android":"levelo://app?vid=62a493c7-4534-4419-ad43-0582de34a72a","ios":"levelo://app?vid=62a493c7-4534-4419-ad43-0582de34a72a"},"vehicle_type_id":"4","last_reported":1750849769,"current_range_meters":0,"station_id":"","pricing_plan_id":"cebpf4jnsgd1na2vs0mg"},{"bike_id":"85c58f10-925d-4344-b389-09267487a6fc","system_id":"levelo_inurba_marseille","lat":43.21111,"lon":5.41892,"is_reserved":false,"is_disabled":true,"rental_uris":{"android":"levelo://app?vid=85c58f10-925d-4344-b389-09267487a6fc","ios":"levelo://app?vid=85c58f10-925d-4344-b389-09267487a6fc"},"vehicle_type_id":"4","last_reported":1750849769,"current_range_meters":0,"station_id":"","pricing_plan_id":"cebpf4jnsgd1na2vs0mg"},{"bike_id":"a9e5e555-fdaf-49c0-b286-f0f2659b17d0","system_id":"levelo_inurba_marseille","lat":43.282962,"lon":5.432393,"is_reserved":false,"is_disabled":true,"rental_uris":{"android":"levelo://app?vid=a9e5e555-fdaf-49c0-b286-f0f2659b17d0","ios":"levelo://app?vid=a9e5e555-fdaf-49c0-b286-f0f2659b17d0"},"vehicle_type_id":"4","last_reported":1750849769,"current_range_meters":0,"station_id":"","pricing_plan_id":"cebpf4jnsgd1na2vs0mg"},{"bike_id":"139d47bd-ff87-42d8-a4c6-89da4be6f80c","system_id":"levelo_inurba_marseille","lat":43.27948,"lon":5.44303,"is_reserved":false,"is_disabled":true,"rental_uris":{"android":"levelo://app?vid=139d47bd-ff87-42d8-a4c6-89da4be6f80c","ios":"levelo://app?vid=139d47bd-ff87-42d8-a4c6-89da4be6f80c"},"vehicle_type_id":"4","last_reported":1750849769,"current_range_meters":0,"station_id":"","pricing_plan_id":"cebpf4jnsgd1na2vs0mg"},{"bike_id":"a147e67d-e0b1-425e-bbda-ae9524df353e","system_id":"levelo_inurba_marseille","lat":43.337485,"lon":5.374613,"is_reserved":false,"is_disabled":true,"rental_uris":{"android":"levelo://app?vid=a147e67d-e0b1-425e-bbda-ae9524df353e","ios":"levelo://app?vid=a147e67d-e0b1-425e-bbda-ae9524df353e"},"vehicle_type_id":"4","last_reported":1750849769,"current_range_meters":0,"station_id":"","pricing_plan_id":"cebpf4jnsgd1na2vs0mg"},{"bike_id":"d6ce388f-ca76-4c7c-9e3f-e6b4d12862f1","system_id":"levelo_inurba_marseille","lat":43.24554,"lon":5.41457,"is_reserved":false,"is_disabled":true,"rental_uris":{"android":"levelo://app?vid=d6ce388f-ca76-4c7c-9e3f-e6b4d12862f1","ios":"levelo://app?vid=d6ce388f-ca76-4c7c-9e3f-e6b4d12862f1"},"vehicle_type_id":"4","last_reported":1750849769,"current_range_meters":0,"station_id":"","pricing_plan_id":"cebpf4jnsgd1na2vs0mg"},{"bike_id":"4d064f95-6dcb-4234-9e98-7c70fbb74351","system_id":"levelo_inurba_marseille","lat":43.337444,"lon":5.374475,"is_reserved":false,"is_disabled":true,"rental_uris":{"android":"levelo://app?vid=4d064f95-6dcb-4234-9e98-7c70fbb74351","ios":"levelo://app?vid=4d064f95-6dcb-4234-9e98-7c70fbb74351"},"vehicle_type_id":"4","last_reported":1750849769,"current_range_meters":0,"station_id":"","pricing_plan_id":"cebpf4jnsgd1na2vs0mg"},{"bike_id":"d6609b4f-333b-43c1-9ebe-8726f5e76e88","system_id":"levelo_inurba_marseille","lat":43.337444,"lon":5.374475,"is_reserved":false,"is_disabled":true,"rental_uris":{"android":"levelo://app?vid=d6609b4f-333b-43c1-9ebe-8726f5e76e88","ios":"levelo://app?vid=d6609b4f-333b-43c1-9ebe-8726f5e76e88"},"vehicle_type_id":"4","last_reported":1750849769,"current_range_meters":0,"station_id":"","pricing_plan_id":"cebpf4jnsgd1na2vs0mg"},{"bike_id":"9cb193d0-906b-4ac2-85c5-eea810b1d20f","system_id":"levelo_inurba_marseille","lat":43.29366,"lon":5.42948,"is_reserved":false,"is_disabled":true,"rental_uris":{"android":"levelo://app?vid=9cb193d0-906b-4ac2-85c5-eea810b1d20f","ios":"levelo://app?vid=9cb193d0-906b-4ac2-85c5-eea810b1d20f"},"vehicle_type_id":"4","last_reported":1750849769,"current_range_meters":0,"station_id":"","pricing_plan_id":"cebpf4jnsgd1na2vs0mg"},{"bike_id":"bd17737b-22d2-4e4f-88e8-4eb661d864c4","system_id":"levelo_inurba_marseille","lat":43.291763,"lon":5.460559,"is_reserved":false,"is_disabled":true,"rental_uris":{"android":"levelo://app?vid=bd17737b-22d2-4e4f-88e8-4eb661d864c4","ios":"levelo://app?vid=bd17737b-22d2-4e4f-88e8-4eb661d864c4"},"vehicle_type_id":"4","last_reported":1750849769,"current_range_meters":0,"station_id":"","pricing_plan_id":"cebpf4jnsgd1na2vs0mg"},{"bike_id":"9d3724b1-0dc8-4689-9d6a-55005a9503cb","system_id":"levelo_inurba_marseille","lat":43.28614,"lon":5.42823,"is_reserved":false,"is_disabled":true,"rental_uris":{"android":"levelo://app?vid=9d3724b1-0dc8-4689-9d6a-55005a9503cb","ios":"levelo://app?vid=9d3724b1-0dc8-4689-9d6a-55005a9503cb"},"vehicle_type_id":"4","last_reported":1750849769,"current_range_meters":0,"station_id":"","pricing_plan_id":"cebpf4jnsgd1na2vs0mg"},{"bike_id":"17f2bf91-421e-46bd-a761-71a4f27295fd","system_id":"levelo_inurba_marseille","lat":43.238439,"lon":5.430672,"is_reserved":false,"is_disabled":true,"rental_uris":{"android":"levelo://app?vid=17f2bf91-421e-46bd-a761-71a4f27295fd","ios":"levelo://app?vid=17f2bf91-421e-46bd-a761-71a4f27295fd"},"vehicle_type_id":"4","last_reported":1750849769,"current_range_meters":0,"station_id":"","pricing_plan_id":"cebpf4jnsgd1na2vs0mg"},{"bike_id":"3d07ef76-af52-42e0-81f1-5f4963c9ee29","system_id":"levelo_inurba_marseille","lat":43.29449,"lon":5.43838,"is_reserved":false,"is_disabled":true,"rental_uris":{"android":"levelo://app?vid=3d07ef76-af52-42e0-81f1-5f4963c9ee29","ios":"levelo://app?vid=3d07ef76-af52-42e0-81f1-5f4963c9ee29"},"vehicle_type_id":"4","last_reported":1750849769,"current_range_meters":0,"station_id":"","pricing_plan_id":"cebpf4jnsgd1na2vs0mg"},{"bike_id":"4c20e480-77d0-4ce6-aa79-a5363e3e70ea","system_id":"levelo_inurba_marseille","lat":43.29525,"lon":5.394,"is_reserved":false,"is_disabled":true,"rental_uris":{"android":"levelo://app?vid=4c20e480-77d0-4ce6-aa79-a5363e3e70ea","ios":"levelo://app?vid=4c20e480-77d0-4ce6-aa79-a5363e3e70ea"},"vehicle_type_id":"4","last_reported":1750849769,"current_range_meters":0,"station_id":"ce4bh292rcd13ifvqdf0","pricing_plan_id":"cebpf4jnsgd1na2vs0mg"},{"bike_id":"bfdfeff2-30e6-4157-80dc-21c0a41893ed","system_id":"levelo_inurba_marseille","lat":43.29276,"lon":5.36838,"is_reserved":false,"is_disabled":true,"rental_uris":{"android":"levelo://app?vid=bfdfeff2-30e6-4157-80dc-21c0a41893ed","ios":"levelo://app?vid=bfdfeff2-30e6-4157-80dc-21c0a41893ed"},"vehicle_type_id":"4","last_reported":1750849769,"current_range_meters":0,"station_id":"ce4bhbp2rcd13ifvqesg","pricing_plan_id":"cebpf4jnsgd1na2vs0mg"},{"bike_id":"979a0b5e-2cda-418c-b18c-7d5438d8a4d5","system_id":"levelo_inurba_marseille","lat":43.2396,"lon":5.36626,"is_reserved":false,"is_disabled":true,"rental_uris":{"android":"levelo://app?vid=979a0b5e-2cda-418c-b18c-7d5438d8a4d5","ios":"levelo://app?vid=979a0b5e-2cda-418c-b18c-7d5438d8a4d5"},"vehicle_type_id":"4","last_reported":1750849769,"current_range_meters":0,"station_id":"ce4bhi12rcd13ifvqfp0","pricing_plan_id":"cebpf4jnsgd1na2vs0mg"},{"bike_id":"209bc6e1-463f-457b-9533-98951610dc61","system_id":"levelo_inurba_marseille","lat":43.30358,"lon":5.4188,"is_reserved":false,"is_disabled":true,"rental_uris":{"android":"levelo://app?vid=209bc6e1-463f-457b-9533-98951610dc61","ios":"levelo://app?vid=209bc6e1-463f-457b-9533-98951610dc61"},"vehicle_type_id":"4","last_reported":1750849769,"current_range_meters":400,"station_id":"ce4bhop2rcd13ifvqh7g","pricing_plan_id":"cebpf4jnsgd1na2vs0mg"},{"bike_id":"c6938cf8-5818-45ba-9de3-91bcc82b147e","system_id":"levelo_inurba_marseille","lat":43.29255,"lon":5.37617,"is_reserved":false,"is_disabled":true,"rental_uris":{"android":"levelo://app?vid=c6938cf8-5818-45ba-9de3-91bcc82b147e","ios":"levelo://app?vid=c6938cf8-5818-45ba-9de3-91bcc82b147e"},"vehicle_type_id":"4","last_reported":1750849769,"current_range_meters":800,"station_id":"ce4bgi12rcd13ifvqb80","pricing_plan_id":"cebpf4jnsgd1na2vs0mg"},{"bike_id":"38fd43e9-9646-4320-b8d7-09bf1f8ec3e7","system_id":"levelo_inurba_marseille","lat":43.23181,"lon":5.39964,"is_reserved":false,"is_disabled":true,"rental_uris":{"android":"levelo://app?vid=38fd43e9-9646-4320-b8d7-09bf1f8ec3e7","ios":"levelo://app?vid=38fd43e9-9646-4320-b8d7-09bf1f8ec3e7"},"vehicle_type_id":"4","last_reported":1750849769,"current_range_meters":800,"station_id":"ce4bhn12rcd13ifvqgqg","pricing_plan_id":"cebpf4jnsgd1na2vs0mg"},{"bike_id":"17d0afaa-6951-4dde-a43d-60017e75021c","system_id":"levelo_inurba_marseille","lat":43.291681,"lon":5.421175,"is_reserved":false,"is_disabled":true,"rental_uris":{"android":"levelo://app?vid=17d0afaa-6951-4dde-a43d-60017e75021c","ios":"levelo://app?vid=17d0afaa-6951-4dde-a43d-60017e75021c"},"vehicle_type_id":"4","last_reported":1750849769,"current_range_meters":1200,"station_id":"","pricing_plan_id":"cebpf4jnsgd1na2vs0mg"},{"bike_id":"b17b6606-336a-4606-9b65-af139c49de26","system_id":"levelo_inurba_marseille","lat":43.25662,"lon":5.42738,"is_reserved":false,"is_disabled":true,"rental_uris":{"android":"levelo://app?vid=b17b6606-336a-4606-9b65-af139c49de26","ios":"levelo://app?vid=b17b6606-336a-4606-9b65-af139c49de26"},"vehicle_type_id":"4","last_reported":1750849769,"current_range_meters":1200,"station_id":"","pricing_plan_id":"cebpf4jnsgd1na2vs0mg"},{"bike_id":"a49ed055-ad0a-4403-a039-772b9a837fbf","system_id":"levelo_inurba_marseille","lat":43.34131,"lon":5.40897,"is_reserved":false,"is_disabled":true,"rental_uris":{"android":"levelo://app?vid=a49ed055-ad0a-4403-a039-772b9a837fbf","ios":"levelo://app?vid=a49ed055-ad0a-4403-a039-772b9a837fbf"},"vehicle_type_id":"4","last_reported":1750849769,"current_range_meters":1200,"station_id":"ce4bhqh2rcd13ifvqhlg","pricing_plan_id":"cebpf4jnsgd1na2vs0mg"},{"bike_id":"3a0379e8-e407-43b3-8ed4-b6d21569d285","system_id":"levelo_inurba_marseille","lat":43.28949,"lon":5.363854,"is_reserved":false,"is_disabled":false,"rental_uris":{"android":"levelo://app?vid=3a0379e8-e407-43b3-8ed4-b6d21569d285","ios":"levelo://app?vid=3a0379e8-e407-43b3-8ed4-b6d21569d285"},"vehicle_type_id":"4","last_reported":1750849769,"current_range_meters":1600,"station_id":"ce4bhc92rcd13ifvqetg","pricing_plan_id":"cebpf4jnsgd1na2vs0mg"},{"bike_id":"1a277044-5abf-4e1b-b2cb-ee2b2376f859","system_id":"levelo_inurba_marseille","lat":43.303529,"lon":5.418748,"is_reserved":false,"is_disabled":true,"rental_uris":{"android":"levelo://app?vid=1a277044-5abf-4e1b-b2cb-ee2b2376f859","ios":"levelo://app?vid=1a277044-5abf-4e1b-b2cb-ee2b2376f859"},"vehicle_type_id":"4","last_reported":1750849769,"current_range_meters":1600,"station_id":"ce4bhop2rcd13ifvqh7g","pricing_plan_id":"cebpf4jnsgd1na2vs0mg"},{"bike_id":"dc7f3661-153a-44e9-a584-13ffceb8379f","system_id":"levelo_inurba_marseille","lat":43.26027,"lon":5.37549,"is_reserved":false,"is_disabled":true,"rental_uris":{"android":"levelo://app?vid=dc7f3661-153a-44e9-a584-13ffceb8379f","ios":"levelo://app?vid=dc7f3661-153a-44e9-a584-13ffceb8379f"},"vehicle_type_id":"4","last_reported":1750849769,"current_range_meters":2000,"station_id":"ce4bhgh2rcd13ifvqfa0","pricing_plan_id":"cebpf4jnsgd1na2vs0mg"},{"bike_id":"485a3b80-ac44-4f13-8190-735c722e03a2","system_id":"levelo_inurba_marseille","lat":43.24689,"lon":5.38158,"is_reserved":false,"is_disabled":false,"rental_uris":{"android":"levelo://app?vid=485a3b80-ac44-4f13-8190-735c722e03a2","ios":"levelo://app?vid=485a3b80-ac44-4f13-8190-735c722e03a2"},"vehicle_type_id":"4","last_reported":1750849769,"current_range_meters":2800,"station_id":"ce4bhih2rcd13ifvqfr0","pricing_plan_id":"cebpf4jnsgd1na2vs0mg"},{"bike_id":"88263c0d-6c0d-4ca6-9994-7cd8a3849a6b","system_id":"levelo_inurba_marseille","lat":43.27071,"lon":5.42279,"is_reserved":false,"is_disabled":false,"rental_uris":{"android":"levelo://app?vid=88263c0d-6c0d-4ca6-9994-7cd8a3849a6b","ios":"levelo://app?vid=88263c0d-6c0d-4ca6-9994-7cd8a3849a6b"},"vehicle_type_id":"4","last_reported":1750849769,"current_range_meters":2800,"station_id":"ce4bhk92rcd13ifvqgb0","pricing_plan_id":"cebpf4jnsgd1na2vs0mg"},{"bike_id":"34d55f23-45c1-4cee-888d-8f51f3b0ae80","system_id":"levelo_inurba_marseille","lat":43.325251,"lon":5.433642,"is_reserved":false,"is_disabled":false,"rental_uris":{"android":"levelo://app?vid=34d55f23-45c1-4cee-888d-8f51f3b0ae80","ios":"levelo://app?vid=34d55f23-45c1-4cee-888d-8f51f3b0ae80"},"vehicle_type_id":"4","last_reported":1750849769,"current_range_meters":3200,"station_id":"","pricing_plan_id":"cebpf4jnsgd1na2vs0mg"},{"bike_id":"55c3ed48-66f2-4a82-842a-c1db7d955d2d","system_id":"levelo_inurba_marseille","lat":43.21753,"lon":5.34596,"is_reserved":false,"is_disabled":false,"rental_uris":{"android":"levelo://app?vid=55c3ed48-66f2-4a82-842a-c1db7d955d2d","ios":"levelo://app?vid=55c3ed48-66f2-4a82-842a-c1db7d955d2d"},"vehicle_type_id":"4","last_reported":1750849769,"current_range_meters":3200,"station_id":"","pricing_plan_id":"cebpf4jnsgd1na2vs0mg"},{"bike_id":"106d1170-2bc3-4f7a-b830-dc4f3977ff8d","system_id":"levelo_inurba_marseille","lat":43.31692,"lon":5.40471,"is_reserved":false,"is_disabled":false,"rental_uris":{"android":"levelo://app?vid=106d1170-2bc3-4f7a-b830-dc4f3977ff8d","ios":"levelo://app?vid=106d1170-2bc3-4f7a-b830-dc4f3977ff8d"},"vehicle_type_id":"4","last_reported":1750849769,"current_range_meters":3600,"station_id":"ce4bh012rcd13ifvqd00","pricing_plan_id":"cebpf4jnsgd1na2vs0mg"},{"bike_id":"5c47b72e-9f7d-4073-ae7b-113716acafde","system_id":"levelo_inurba_marseille","lat":43.32112,"lon":5.3676,"is_reserved":false,"is_disabled":false,"rental_uris":{"android":"levelo://app?vid=5c47b72e-9f7d-4073-ae7b-113716acafde","ios":"levelo://app?vid=5c47b72e-9f7d-4073-ae7b-113716acafde"},"vehicle_type_id":"4","last_reported":1750849769,"current_range_meters":3600,"station_id":"ce4bhrh2rcd13ifvqhug","pricing_plan_id":"cebpf4jnsgd1na2vs0mg"},{"bike_id":"bacac5a2-a642-4af3-9154-df88968a31fe","system_id":"levelo_inurba_marseille","lat":43.23182,"lon":5.35549,"is_reserved":false,"is_disabled":false,"rental_uris":{"android":"levelo://app?vid=bacac5a2-a642-4af3-9154-df88968a31fe","ios":"levelo://app?vid=bacac5a2-a642-4af3-9154-df88968a31fe"},"vehicle_type_id":"4","last_reported":1750849769,"current_range_meters":3600,"station_id":"ce4bhu92rcd13ifvqi70","pricing_plan_id":"cebpf4jnsgd1na2vs0mg"},{"bike_id":"6e2eb3ba-eda7-48f3-b3a8-3fc91ec0a210","system_id":"levelo_inurba_marseille","lat":43.2319,"lon":5.35542,"is_reserved":false,"is_disabled":false,"rental_uris":{"android":"levelo://app?vid=6e2eb3ba-eda7-48f3-b3a8-3fc91ec0a210","ios":"levelo://app?vid=6e2eb3ba-eda7-48f3-b3a8-3fc91ec0a210"},"vehicle_type_id":"4","last_reported":1750849769,"current_range_meters":4000,"station_id":"ce4bhu92rcd13ifvqi70","pricing_plan_id":"cebpf4jnsgd1na2vs0mg"},{"bike_id":"465d2323-f97d-48b0-a820-bc5fa54ae0fa","system_id":"levelo_inurba_marseille","lat":43.28386,"lon":5.4597,"is_reserved":false,"is_disabled":false,"rental_uris":{"android":"levelo://app?vid=465d2323-f97d-48b0-a820-bc5fa54ae0fa","ios":"levelo://app?vid=465d2323-f97d-48b0-a820-bc5fa54ae0fa"},"vehicle_type_id":"4","last_reported":1750849769,"current_range_meters":4400,"station_id":"","pricing_plan_id":"cebpf4jnsgd1na2vs0mg"},{"bike_id":"106a18bf-1e18-48b1-a019-66650297ceaf","system_id":"levelo_inurba_marseille","lat":43.30534,"lon":5.3729,"is_reserved":false,"is_disabled":false,"rental_uris":{"android":"levelo://app?vid=106a18bf-1e18-48b1-a019-66650297ceaf","ios":"levelo://app?vid=106a18bf-1e18-48b1-a019-66650297ceaf"},"vehicle_type_id":"4","last_reported":1750849769,"current_range_meters":4400,"station_id":"","pricing_plan_id":"cebpf4jnsgd1na2vs0mg"},{"bike_id":"14a49947-7247-46b3-ad25-ac83ea046bef","system_id":"levelo_inurba_marseille","lat":43.28483,"lon":5.38589,"is_reserved":false,"is_disabled":false,"rental_uris":{"android":"levelo://app?vid=14a49947-7247-46b3-ad25-ac83ea046bef","ios":"levelo://app?vid=14a49947-7247-46b3-ad25-ac83ea046bef"},"vehicle_type_id":"4","last_reported":1750849769,"current_range_meters":4400,"station_id":"ce4bh8p2rcd13ifvqeb0","pricing_plan_id":"cebpf4jnsgd1na2vs0mg"},{"bike_id":"8ead1b1c-7a2d-43ce-9fc3-120e05c78ae5","system_id":"levelo_inurba_marseille","lat":43.26214,"lon":5.37446,"is_reserved":false,"is_disabled":false,"rental_uris":{"android":"levelo://app?vid=8ead1b1c-7a2d-43ce-9fc3-120e05c78ae5","ios":"levelo://app?vid=8ead1b1c-7a2d-43ce-9fc3-120e05c78ae5"},"vehicle_type_id":"4","last_reported":1750849769,"current_range_meters":4400,"station_id":"ce4bhgp2rcd13ifvqfc0","pricing_plan_id":"cebpf4jnsgd1na2vs0mg"},{"bike_id":"07eeae2a-d570-427d-9d2c-e30bc2332c31","system_id":"levelo_inurba_marseille","lat":43.28422,"lon":5.349797,"is_reserved":false,"is_disabled":false,"rental_uris":{"android":"levelo://app?vid=07eeae2a-d570-427d-9d2c-e30bc2332c31","ios":"levelo://app?vid=07eeae2a-d570-427d-9d2c-e30bc2332c31"},"vehicle_type_id":"4","last_reported":1750849769,"current_range_meters":4800,"station_id":"ce4bhb12rcd13ifvqel0","pricing_plan_id":"cebpf4jnsgd1na2vs0mg"},{"bike_id":"e127ef7e-24d3-4248-81fa-66c5e7c3e582","system_id":"levelo_inurba_marseille","lat":43.29611,"lon":5.37987,"is_reserved":false,"is_disabled":false,"rental_uris":{"android":"levelo://app?vid=e127ef7e-24d3-4248-81fa-66c5e7c3e582","ios":"levelo://app?vid=e127ef7e-24d3-4248-81fa-66c5e7c3e582"},"vehicle_type_id":"4","last_reported":1750849769,"current_range_meters":5600,"station_id":"","pricing_plan_id":"cebpf4jnsgd1na2vs0mg"},{"bike_id":"aef09e06-b7c0-4ac8-9072-81746c7dea67","system_id":"levelo_inurba_marseille","lat":43.29033,"lon":5.38645,"is_reserved":false,"is_disabled":false,"rental_uris":{"android":"levelo://app?vid=aef09e06-b7c0-4ac8-9072-81746c7dea67","ios":"levelo://app?vid=aef09e06-b7c0-4ac8-9072-81746c7dea67"},"vehicle_type_id":"4","last_reported":1750849769,"current_range_meters":5600,"station_id":"ce4bh4p2rcd13ifvqe0g","pricing_plan_id":"cebpf4jnsgd1na2vs0mg"},{"bike_id":"d4484bc1-ca93-418a-ac60-28c6ee117f87","system_id":"levelo_inurba_marseille","lat":43.26571,"lon":5.39003,"is_reserved":false,"is_disabled":false,"rental_uris":{"android":"levelo://app?vid=d4484bc1-ca93-418a-ac60-28c6ee117f87","ios":"levelo://app?vid=d4484bc1-ca93-418a-ac60-28c6ee117f87"},"vehicle_type_id":"4","last_reported":1750849769,"current_range_meters":5600,"station_id":"ce4bhe12rcd13ifvqf30","pricing_plan_id":"cebpf4jnsgd1na2vs0mg"},{"bike_id":"3f8c599e-285b-435c-80bd-2434d9f16c51","system_id":"levelo_inurba_marseille","lat":43.27498,"lon":5.42461,"is_reserved":false,"is_disabled":false,"rental_uris":{"android":"levelo://app?vid=3f8c599e-285b-435c-80bd-2434d9f16c51","ios":"levelo://app?vid=3f8c599e-285b-435c-80bd-2434d9f16c51"},"vehicle_type_id":"4","last_reported":1750849769,"current_range_meters":5600,"station_id":"ce4bhn92rcd13ifvqgrg","pricing_plan_id":"cebpf4jnsgd1na2vs0mg"},{"bike_id":"f333bcb3-17e0-43f1-847f-eb3d745e3e41","system_id":"levelo_inurba_marseille","lat":43.29362,"lon":5.42817,"is_reserved":false,"is_disabled":false,"rental_uris":{"android":"levelo://app?vid=f333bcb3-17e0-43f1-847f-eb3d745e3e41","ios":"levelo://app?vid=f333bcb3-17e0-43f1-847f-eb3d745e3e41"},"vehicle_type_id":"4","last_reported":1750849769,"current_range_meters":6000,"station_id":"","pricing_plan_id":"cebpf4jnsgd1na2vs0mg"},{"bike_id":"eee2bc7b-9490-4a62-b0c6-d65e1b5ec1df","system_id":"levelo_inurba_marseille","lat":43.30537,"lon":5.36541,"is_reserved":false,"is_disabled":false,"rental_uris":{"android":"levelo://app?vid=eee2bc7b-9490-4a62-b0c6-d65e1b5ec1df","ios":"levelo://app?vid=eee2bc7b-9490-4a62-b0c6-d65e1b5ec1df"},"vehicle_type_id":"4","last_reported":1750849769,"current_range_meters":6000,"station_id":"ce4bgs12rcd13ifvqcag","pricing_plan_id":"cebpf4jnsgd1na2vs0mg"},{"bike_id":"357f844f-4e22-403c-a99e-8beaeda978b9","system_id":"levelo_inurba_marseille","lat":43.30948,"lon":5.39029,"is_reserved":false,"is_disabled":false,"rental_uris":{"android":"levelo://app?vid=357f844f-4e22-403c-a99e-8beaeda978b9","ios":"levelo://app?vid=357f844f-4e22-403c-a99e-8beaeda978b9"},"vehicle_type_id":"4","last_reported":1750849769,"current_range_meters":6000,"station_id":"ce4bgup2rcd13ifvqco0","pricing_plan_id":"cebpf4jnsgd1na2vs0mg"},{"bike_id":"ae9008cd-4aa2-410f-99a4-d84a6f9c409f","system_id":"levelo_inurba_marseille","lat":43.29885,"lon":5.38894,"is_reserved":false,"is_disabled":false,"rental_uris":{"android":"levelo://app?vid=ae9008cd-4aa2-410f-99a4-d84a6f9c409f","ios":"levelo://app?vid=ae9008cd-4aa2-410f-99a4-d84a6f9c409f"},"vehicle_type_id":"4","last_reported":1750849769,"current_range_meters":6000,"station_id":"ce4bh392rcd13ifvqdl0","pricing_plan_id":"cebpf4jnsgd1na2vs0mg"},{"bike_id":"994d47b4-a1b7-437d-972e-4eec94e33aa7","system_id":"levelo_inurba_marseille","lat":43.25501,"lon":5.3765,"is_reserved":false,"is_disabled":false,"rental_uris":{"android":"levelo://app?vid=994d47b4-a1b7-437d-972e-4eec94e33aa7","ios":"levelo://app?vid=994d47b4-a1b7-437d-972e-4eec94e33aa7"},"vehicle_type_id":"4","last_reported":1750849769,"current_range_meters":6000,"station_id":"ce4bhh12rcd13ifvqff0","pricing_plan_id":"cebpf4jnsgd1na2vs0mg"},{"bike_id":"0eef68c7-4a03-43b1-9306-2120837bf620","system_id":"levelo_inurba_marseille","lat":43.28155,"lon":5.42635,"is_reserved":false,"is_disabled":false,"rental_uris":{"android":"levelo://app?vid=0eef68c7-4a03-43b1-9306-2120837bf620","ios":"levelo://app?vid=0eef68c7-4a03-43b1-9306-2120837bf620"},"vehicle_type_id":"4","last_reported":1750849769,"current_range_meters":6000,"station_id":"ce4bhnh2rcd13ifvqgug","pricing_plan_id":"cebpf4jnsgd1na2vs0mg"},{"bike_id":"d647d82e-58fb-4efa-913b-7b5c87759cda","system_id":"levelo_inurba_marseille","lat":43.27002,"lon":5.39839,"is_reserved":false,"is_disabled":false,"rental_uris":{"android":"levelo://app?vid=d647d82e-58fb-4efa-913b-7b5c87759cda","ios":"levelo://app?vid=d647d82e-58fb-4efa-913b-7b5c87759cda"},"vehicle_type_id":"4","last_reported":1750849769,"current_range_meters":6400,"station_id":"","pricing_plan_id":"cebpf4jnsgd1na2vs0mg"},{"bike_id":"1c7f7886-01e1-4cdf-a9f5-71cb81c6f9e0","system_id":"levelo_inurba_marseille","lat":43.298461,"lon":5.362808,"is_reserved":false,"is_disabled":false,"rental_uris":{"android":"levelo://app?vid=1c7f7886-01e1-4cdf-a9f5-71cb81c6f9e0","ios":"levelo://app?vid=1c7f7886-01e1-4cdf-a9f5-71cb81c6f9e0"},"vehicle_type_id":"4","last_reported":1750849769,"current_range_meters":6400,"station_id":"ce4bgpp2rcd13ifvqc3g","pricing_plan_id":"cebpf4jnsgd1na2vs0mg"},{"bike_id":"b7531005-c470-41ae-8a68-ee1ddb0f9ff7","system_id":"levelo_inurba_marseille","lat":43.23125,"lon":5.43748,"is_reserved":false,"is_disabled":false,"rental_uris":{"android":"levelo://app?vid=b7531005-c470-41ae-8a68-ee1ddb0f9ff7","ios":"levelo://app?vid=b7531005-c470-41ae-8a68-ee1ddb0f9ff7"},"vehicle_type_id":"4","last_reported":1750849769,"current_range_meters":6400,"station_id":"ce4bhmp2rcd13ifvqgog","pricing_plan_id":"cebpf4jnsgd1na2vs0mg"},{"bike_id":"805c1695-b689-4754-affb-537154c026bb","system_id":"levelo_inurba_marseille","lat":43.28807,"lon":5.36658,"is_reserved":false,"is_disabled":false,"rental_uris":{"android":"levelo://app?vid=805c1695-b689-4754-affb-537154c026bb","ios":"levelo://app?vid=805c1695-b689-4754-affb-537154c026bb"},"vehicle_type_id":"4","last_reported":1750849769,"current_range_meters":6800,"station_id":"","pricing_plan_id":"cebpf4jnsgd1na2vs0mg"},{"bike_id":"156180f5-90cc-42ff-bbc5-56e5f3104370","system_id":"levelo_inurba_marseille","lat":43.23834,"lon":5.43045,"is_reserved":false,"is_disabled":false,"rental_uris":{"android":"levelo://app?vid=156180f5-90cc-42ff-bbc5-56e5f3104370","ios":"levelo://app?vid=156180f5-90cc-42ff-bbc5-56e5f3104370"},"vehicle_type_id":"4","last_reported":1750849769,"current_range_meters":6800,"station_id":"","pricing_plan_id":"cebpf4jnsgd1na2vs0mg"},{"bike_id":"fdf63d66-0d6f-4f9a-8974-ec900621643a","system_id":"levelo_inurba_marseille","lat":43.3015,"lon":5.39847,"is_reserved":false,"is_disabled":false,"rental_uris":{"android":"levelo://app?vid=fdf63d66-0d6f-4f9a-8974-ec900621643a","ios":"levelo://app?vid=fdf63d66-0d6f-4f9a-8974-ec900621643a"},"vehicle_type_id":"4","last_reported":1750849769,"current_range_meters":6800,"station_id":"ce4bh0h2rcd13ifvqd40","pricing_plan_id":"cebpf4jnsgd1na2vs0mg"},{"bike_id":"2c8bc2cb-4da7-4ca3-ad02-f64f82fa6754","system_id":"levelo_inurba_marseille","lat":43.31995,"lon":5.38162,"is_reserved":false,"is_disabled":false,"rental_uris":{"android":"levelo://app?vid=2c8bc2cb-4da7-4ca3-ad02-f64f82fa6754","ios":"levelo://app?vid=2c8bc2cb-4da7-4ca3-ad02-f64f82fa6754"},"vehicle_type_id":"4","last_reported":1750849769,"current_range_meters":6800,"station_id":"ce4bhr12rcd13ifvqhpg","pricing_plan_id":"cebpf4jnsgd1na2vs0mg"},{"bike_id":"e12d25ad-6a34-4f7d-a8b9-169850127fad","system_id":"levelo_inurba_marseille","lat":43.32649,"lon":5.40337,"is_reserved":false,"is_disabled":false,"rental_uris":{"android":"levelo://app?vid=e12d25ad-6a34-4f7d-a8b9-169850127fad","ios":"levelo://app?vid=e12d25ad-6a34-4f7d-a8b9-169850127fad"},"vehicle_type_id":"4","last_reported":1750849769,"current_range_meters":7200,"station_id":"","pricing_plan_id":"cebpf4jnsgd1na2vs0mg"},{"bike_id":"24668dd0-1899-473e-9655-28d8f07eef5c","system_id":"levelo_inurba_marseille","lat":43.28571,"lon":5.39495,"is_reserved":false,"is_disabled":false,"rental_uris":{"android":"levelo://app?vid=24668dd0-1899-473e-9655-28d8f07eef5c","ios":"levelo://app?vid=24668dd0-1899-473e-9655-28d8f07eef5c"},"vehicle_type_id":"4","last_reported":1750849769,"current_range_meters":7200,"station_id":"ce4bh292rcd13ifvqdg0","pricing_plan_id":"cebpf4jnsgd1na2vs0mg"},{"bike_id":"0b88196e-555b-46c5-883a-3c1d8feb4040","system_id":"levelo_inurba_marseille","lat":43.32339,"lon":5.4062,"is_reserved":false,"is_disabled":false,"rental_uris":{"android":"levelo://app?vid=0b88196e-555b-46c5-883a-3c1d8feb4040","ios":"levelo://app?vid=0b88196e-555b-46c5-883a-3c1d8feb4040"},"vehicle_type_id":"4","last_reported":1750849769,"current_range_meters":7200,"station_id":"ce4bhq92rcd13ifvqhjg","pricing_plan_id":"cebpf4jnsgd1na2vs0mg"},{"bike_id":"4d6b41e9-f996-4dfe-8b6b-490ef4d34b9d","system_id":"levelo_inurba_marseille","lat":43.269454,"lon":5.402513,"is_reserved":false,"is_disabled":false,"rental_uris":{"android":"levelo://app?vid=4d6b41e9-f996-4dfe-8b6b-490ef4d34b9d","ios":"levelo://app?vid=4d6b41e9-f996-4dfe-8b6b-490ef4d34b9d"},"vehicle_type_id":"4","last_reported":1750849769,"current_range_meters":7200,"station_id":"cjm6bp8fraef2m0cb0m0","pricing_plan_id":"cebpf4jnsgd1na2vs0mg"},{"bike_id":"8200ae94-afe5-4f4d-baf3-d28de38b23dd","system_id":"levelo_inurba_marseille","lat":43.319928,"lon":5.381576,"is_reserved":false,"is_disabled":false,"rental_uris":{"android":"levelo://app?vid=8200ae94-afe5-4f4d-baf3-d28de38b23dd","ios":"levelo://app?vid=8200ae94-afe5-4f4d-baf3-d28de38b23dd"},"vehicle_type_id":"4","last_reported":1750849769,"current_range_meters":8000,"station_id":"ce4bhr12rcd13ifvqhpg","pricing_plan_id":"cebpf4jnsgd1na2vs0mg"},{"bike_id":"319f57fb-2756-405c-853a-a18855cbf775","system_id":"levelo_inurba_marseille","lat":43.23062,"lon":5.35488,"is_reserved":false,"is_disabled":false,"rental_uris":{"android":"levelo://app?vid=319f57fb-2756-405c-853a-a18855cbf775","ios":"levelo://app?vid=319f57fb-2756-405c-853a-a18855cbf775"},"vehicle_type_id":"4","last_reported":1750849769,"current_range_meters":8000,"station_id":"cpo3342slgdg3j2ifvpg","pricing_plan_id":"cebpf4jnsgd1na2vs0mg"},{"bike_id":"37e0ff9d-a8de-4088-a164-75282686d41d","system_id":"levelo_inurba_marseille","lat":43.33754,"lon":5.37457,"is_reserved":false,"is_disabled":false,"rental_uris":{"android":"levelo://app?vid=37e0ff9d-a8de-4088-a164-75282686d41d","ios":"levelo://app?vid=37e0ff9d-a8de-4088-a164-75282686d41d"},"vehicle_type_id":"4","last_reported":1750849769,"current_range_meters":8400,"station_id":"","pricing_plan_id":"cebpf4jnsgd1na2vs0mg"},{"bike_id":"8f837e38-d599-4d14-8396-b704ab09514f","system_id":"levelo_inurba_marseille","lat":43.29283,"lon":5.37457,"is_reserved":false,"is_disabled":false,"rental_uris":{"android":"levelo://app?vid=8f837e38-d599-4d14-8396-b704ab09514f","ios":"levelo://app?vid=8f837e38-d599-4d14-8396-b704ab09514f"},"vehicle_type_id":"4","last_reported":1750849769,"current_range_meters":8400,"station_id":"ce4bgi12rcd13ifvqb70","pricing_plan_id":"cebpf4jnsgd1na2vs0mg"},{"bike_id":"098af490-ea91-42a1-96bf-90bc72b2d34d","system_id":"levelo_inurba_marseille","lat":43.28348,"lon":5.38104,"is_reserved":false,"is_disabled":false,"rental_uris":{"android":"levelo://app?vid=098af490-ea91-42a1-96bf-90bc72b2d34d","ios":"levelo://app?vid=098af490-ea91-42a1-96bf-90bc72b2d34d"},"vehicle_type_id":"4","last_reported":1750849769,"current_range_meters":8400,"station_id":"ce4bh412rcd13ifvqdr0","pricing_plan_id":"cebpf4jnsgd1na2vs0mg"},{"bike_id":"fc10247e-1ba2-45a1-abf0-4aeb482c3a05","system_id":"levelo_inurba_marseille","lat":43.30145,"lon":5.38067,"is_reserved":false,"is_disabled":false,"rental_uris":{"android":"levelo://app?vid=fc10247e-1ba2-45a1-abf0-4aeb482c3a05","ios":"levelo://app?vid=fc10247e-1ba2-45a1-abf0-4aeb482c3a05"},"vehicle_type_id":"4","last_reported":1750849769,"current_range_meters":8800,"station_id":"ce4bgjp2rcd13ifvqbh0","pricing_plan_id":"cebpf4jnsgd1na2vs0mg"},{"bike_id":"5574ae2b-cc4c-43a9-911f-13e4a0c8ca0c","system_id":"levelo_inurba_marseille","lat":43.29879,"lon":5.39727,"is_reserved":false,"is_disabled":false,"rental_uris":{"android":"levelo://app?vid=5574ae2b-cc4c-43a9-911f-13e4a0c8ca0c","ios":"levelo://app?vid=5574ae2b-cc4c-43a9-911f-13e4a0c8ca0c"},"vehicle_type_id":"4","last_reported":1750849769,"current_range_meters":8800,"station_id":"ce4bh0h2rcd13ifvqd50","pricing_plan_id":"cebpf4jnsgd1na2vs0mg"},{"bike_id":"3bce5e79-31d6-4fdc-8b8d-c3e73d18e163","system_id":"levelo_inurba_marseille","lat":43.26935,"lon":5.38918,"is_reserved":false,"is_disabled":false,"rental_uris":{"android":"levelo://app?vid=3bce5e79-31d6-4fdc-8b8d-c3e73d18e163","ios":"levelo://app?vid=3bce5e79-31d6-4fdc-8b8d-c3e73d18e163"},"vehicle_type_id":"4","last_reported":1750849769,"current_range_meters":8800,"station_id":"ce4bhhh2rcd13ifvqfl0","pricing_plan_id":"cebpf4jnsgd1na2vs0mg"},{"bike_id":"50ead7e5-8038-4782-87c7-aa1c790b33de","system_id":"levelo_inurba_marseille","lat":43.27239,"lon":5.4005,"is_reserved":false,"is_disabled":false,"rental_uris":{"android":"levelo://app?vid=50ead7e5-8038-4782-87c7-aa1c790b33de","ios":"levelo://app?vid=50ead7e5-8038-4782-87c7-aa1c790b33de"},"vehicle_type_id":"4","last_reported":1750849769,"current_range_meters":9200,"station_id":"","pricing_plan_id":"cebpf4jnsgd1na2vs0mg"},{"bike_id":"095eabd1-5dcf-4106-9219-bdac4470d970","system_id":"levelo_inurba_marseille","lat":43.328223,"lon":5.433589,"is_reserved":false,"is_disabled":false,"rental_uris":{"android":"levelo://app?vid=095eabd1-5dcf-4106-9219-bdac4470d970","ios":"levelo://app?vid=095eabd1-5dcf-4106-9219-bdac4470d970"},"vehicle_type_id":"4","last_reported":1750849769,"current_range_meters":9200,"station_id":"","pricing_plan_id":"cebpf4jnsgd1na2vs0mg"},{"bike_id":"11ebf4fb-e752-44af-81e3-7d28e8eee9cc","system_id":"levelo_inurba_marseille","lat":43.28117,"lon":5.43219,"is_reserved":false,"is_disabled":false,"rental_uris":{"android":"levelo://app?vid=11ebf4fb-e752-44af-81e3-7d28e8eee9cc","ios":"levelo://app?vid=11ebf4fb-e752-44af-81e3-7d28e8eee9cc"},"vehicle_type_id":"4","last_reported":1750849769,"current_range_meters":9200,"station_id":"","pricing_plan_id":"cebpf4jnsgd1na2vs0mg"},{"bike_id":"729fc75e-e37e-4118-ba4d-a95909003b14","system_id":"levelo_inurba_marseille","lat":43.28719,"lon":5.37938,"is_reserved":false,"is_disabled":false,"rental_uris":{"android":"levelo://app?vid=729fc75e-e37e-4118-ba4d-a95909003b14","ios":"levelo://app?vid=729fc75e-e37e-4118-ba4d-a95909003b14"},"vehicle_type_id":"4","last_reported":1750849769,"current_range_meters":9200,"station_id":"ce4bh9p2rcd13ifvqec0","pricing_plan_id":"cebpf4jnsgd1na2vs0mg"},{"bike_id":"6056631a-255a-4f14-b42d-fa6a5a27a9f2","system_id":"levelo_inurba_marseille","lat":43.25088,"lon":5.39506,"is_reserved":false,"is_disabled":false,"rental_uris":{"android":"levelo://app?vid=6056631a-255a-4f14-b42d-fa6a5a27a9f2","ios":"levelo://app?vid=6056631a-255a-4f14-b42d-fa6a5a27a9f2"},"vehicle_type_id":"4","last_reported":1750849769,"current_range_meters":9200,"station_id":"ce4bhm12rcd13ifvqgkg","pricing_plan_id":"cebpf4jnsgd1na2vs0mg"},{"bike_id":"7c3f6852-4f29-42a9-a8c1-e2b82bb43fcf","system_id":"levelo_inurba_marseille","lat":43.29254,"lon":5.42685,"is_reserved":false,"is_disabled":false,"rental_uris":{"android":"levelo://app?vid=7c3f6852-4f29-42a9-a8c1-e2b82bb43fcf","ios":"levelo://app?vid=7c3f6852-4f29-42a9-a8c1-e2b82bb43fcf"},"vehicle_type_id":"4","last_reported":1750849769,"current_range_meters":9600,"station_id":"","pricing_plan_id":"cebpf4jnsgd1na2vs0mg"},{"bike_id":"832c3f5c-82d9-4f8a-a90c-0d96512d9141","system_id":"levelo_inurba_marseille","lat":43.290817,"lon":5.371715,"is_reserved":false,"is_disabled":false,"rental_uris":{"android":"levelo://app?vid=832c3f5c-82d9-4f8a-a90c-0d96512d9141","ios":"levelo://app?vid=832c3f5c-82d9-4f8a-a90c-0d96512d9141"},"vehicle_type_id":"4","last_reported":1750849769,"current_range_meters":9600,"station_id":"ce4bh012rcd13ifvqcv0","pricing_plan_id":"cebpf4jnsgd1na2vs0mg"},{"bike_id":"a1aa3ada-f74f-433d-a77b-49183fea7d3f","system_id":"levelo_inurba_marseille","lat":43.28472,"lon":5.38413,"is_reserved":false,"is_disabled":false,"rental_uris":{"android":"levelo://app?vid=a1aa3ada-f74f-433d-a77b-49183fea7d3f","ios":"levelo://app?vid=a1aa3ada-f74f-433d-a77b-49183fea7d3f"},"vehicle_type_id":"4","last_reported":1750849769,"current_range_meters":9600,"station_id":"ce4bh512rcd13ifvqe3g","pricing_plan_id":"cebpf4jnsgd1na2vs0mg"},{"bike_id":"7f9edf80-9a04-4957-859f-434ec27a2773","system_id":"levelo_inurba_marseille","lat":43.312256,"lon":5.416199,"is_reserved":false,"is_disabled":false,"rental_uris":{"android":"levelo://app?vid=7f9edf80-9a04-4957-859f-434ec27a2773","ios":"levelo://app?vid=7f9edf80-9a04-4957-859f-434ec27a2773"},"vehicle_type_id":"4","last_reported":1750849769,"current_range_meters":10000,"station_id":"","pricing_plan_id":"cebpf4jnsgd1na2vs0mg"},{"bike_id":"b2b2c10c-bbe1-4d83-86ef-09ba864e6a16","system_id":"levelo_inurba_marseille","lat":43.29626,"lon":5.377105,"is_reserved":false,"is_disabled":false,"rental_uris":{"android":"levelo://app?vid=b2b2c10c-bbe1-4d83-86ef-09ba864e6a16","ios":"levelo://app?vid=b2b2c10c-bbe1-4d83-86ef-09ba864e6a16"},"vehicle_type_id":"4","last_reported":1750849769,"current_range_meters":10000,"station_id":"","pricing_plan_id":"cebpf4jnsgd1na2vs0mg"},{"bike_id":"c1f0a673-0d42-413c-b218-0516c677fd63","system_id":"levelo_inurba_marseille","lat":43.30897,"lon":5.36883,"is_reserved":false,"is_disabled":false,"rental_uris":{"android":"levelo://app?vid=c1f0a673-0d42-413c-b218-0516c677fd63","ios":"levelo://app?vid=c1f0a673-0d42-413c-b218-0516c677fd63"},"vehicle_type_id":"4","last_reported":1750849769,"current_range_meters":10000,"station_id":"ce4bgn92rcd13ifvqbvg","pricing_plan_id":"cebpf4jnsgd1na2vs0mg"},{"bike_id":"0255983c-e1b8-45f7-a2d4-99644d1ff644","system_id":"levelo_inurba_marseille","lat":43.30457,"lon":5.379,"is_reserved":false,"is_disabled":false,"rental_uris":{"android":"levelo://app?vid=0255983c-e1b8-45f7-a2d4-99644d1ff644","ios":"levelo://app?vid=0255983c-e1b8-45f7-a2d4-99644d1ff644"},"vehicle_type_id":"4","last_reported":1750849769,"current_range_meters":10000,"station_id":"ce4bgup2rcd13ifvqcn0","pricing_plan_id":"cebpf4jnsgd1na2vs0mg"},{"bike_id":"1c2adaac-c4b5-4b30-9c6f-1490448a75b4","system_id":"levelo_inurba_marseille","lat":43.30095,"lon":5.39094,"is_reserved":false,"is_disabled":false,"rental_uris":{"android":"levelo://app?vid=1c2adaac-c4b5-4b30-9c6f-1490448a75b4","ios":"levelo://app?vid=1c2adaac-c4b5-4b30-9c6f-1490448a75b4"},"vehicle_type_id":"4","last_reported":1750849769,"current_range_meters":10000,"station_id":"ce4bh192rcd13ifvqdb0","pricing_plan_id":"cebpf4jnsgd1na2vs0mg"},{"bike_id":"07cd84bb-5e04-481b-a20e-30a259a9bb26","system_id":"levelo_inurba_marseille","lat":43.26958,"lon":5.38626,"is_reserved":false,"is_disabled":false,"rental_uris":{"android":"levelo://app?vid=07cd84bb-5e04-481b-a20e-30a259a9bb26","ios":"levelo://app?vid=07cd84bb-5e04-481b-a20e-30a259a9bb26"},"vehicle_type_id":"4","last_reported":1750849769,"current_range_meters":10000,"station_id":"ce4bhh92rcd13ifvqfh0","pricing_plan_id":"cebpf4jnsgd1na2vs0mg"},{"bike_id":"e070d5a7-dadf-44ee-b314-66f32b0979f1","system_id":"levelo_inurba_marseille","lat":43.28151,"lon":5.42641,"is_reserved":false,"is_disabled":false,"rental_uris":{"android":"levelo://app?vid=e070d5a7-dadf-44ee-b314-66f32b0979f1","ios":"levelo://app?vid=e070d5a7-dadf-44ee-b314-66f32b0979f1"},"vehicle_type_id":"4","last_reported":1750849769,"current_range_meters":10000,"station_id":"ce4bhnh2rcd13ifvqgug","pricing_plan_id":"cebpf4jnsgd1na2vs0mg"},{"bike_id":"7d0d375c-7667-4d4f-8b90-f9bc2086028f","system_id":"levelo_inurba_marseille","lat":43.310798,"lon":5.424432,"is_reserved":false,"is_disabled":false,"rental_uris":{"android":"levelo://app?vid=7d0d375c-7667-4d4f-8b90-f9bc2086028f","ios":"levelo://app?vid=7d0d375c-7667-4d4f-8b90-f9bc2086028f"},"vehicle_type_id":"4","last_reported":1750849769,"current_range_meters":10000,"station_id":"ce4bhp92rcd13ifvqhag","pricing_plan_id":"cebpf4jnsgd1na2vs0mg"},{"bike_id":"b0ff0609-f2ae-4ae1-ab06-63023fb09784","system_id":"levelo_inurba_marseille","lat":43.28034,"lon":5.41584,"is_reserved":false,"is_disabled":false,"rental_uris":{"android":"levelo://app?vid=b0ff0609-f2ae-4ae1-ab06-63023fb09784","ios":"levelo://app?vid=b0ff0609-f2ae-4ae1-ab06-63023fb09784"},"vehicle_type_id":"4","last_reported":1750849769,"current_range_meters":10800,"station_id":"","pricing_plan_id":"cebpf4jnsgd1na2vs0mg"},{"bike_id":"97323eae-8c5d-48b2-bbdf-16f0fd5b8ba6","system_id":"levelo_inurba_marseille","lat":43.28152,"lon":5.426415,"is_reserved":false,"is_disabled":false,"rental_uris":{"android":"levelo://app?vid=97323eae-8c5d-48b2-bbdf-16f0fd5b8ba6","ios":"levelo://app?vid=97323eae-8c5d-48b2-bbdf-16f0fd5b8ba6"},"vehicle_type_id":"4","last_reported":1750849769,"current_range_meters":10800,"station_id":"","pricing_plan_id":"cebpf4jnsgd1na2vs0mg"},{"bike_id":"51b217be-9488-41c1-b083-6d728251b280","system_id":"levelo_inurba_marseille","lat":43.243362,"lon":5.368848,"is_reserved":false,"is_disabled":false,"rental_uris":{"android":"levelo://app?vid=51b217be-9488-41c1-b083-6d728251b280","ios":"levelo://app?vid=51b217be-9488-41c1-b083-6d728251b280"},"vehicle_type_id":"4","last_reported":1750849769,"current_range_meters":10800,"station_id":"","pricing_plan_id":"cebpf4jnsgd1na2vs0mg"},{"bike_id":"12fd818f-d469-4fab-950e-cf0983c1a072","system_id":"levelo_inurba_marseille","lat":43.30168,"lon":5.37462,"is_reserved":false,"is_disabled":false,"rental_uris":{"android":"levelo://app?vid=12fd818f-d469-4fab-950e-cf0983c1a072","ios":"levelo://app?vid=12fd818f-d469-4fab-950e-cf0983c1a072"},"vehicle_type_id":"4","last_reported":1750849769,"current_range_meters":10800,"station_id":"ce4bgs92rcd13ifvqcc0","pricing_plan_id":"cebpf4jnsgd1na2vs0mg"},{"bike_id":"206e9ba9-2db2-4662-9fd1-f0155e812c97","system_id":"levelo_inurba_marseille","lat":43.29004,"lon":5.38142,"is_reserved":false,"is_disabled":false,"rental_uris":{"android":"levelo://app?vid=206e9ba9-2db2-4662-9fd1-f0155e812c97","ios":"levelo://app?vid=206e9ba9-2db2-4662-9fd1-f0155e812c97"},"vehicle_type_id":"4","last_reported":1750849769,"current_range_meters":10800,"station_id":"ce4bh4p2rcd13ifvqe1g","pricing_plan_id":"cebpf4jnsgd1na2vs0mg"},{"bike_id":"d920418b-60db-4b79-9279-5f43baab933a","system_id":"levelo_inurba_marseille","lat":43.282776,"lon":5.350576,"is_reserved":false,"is_disabled":false,"rental_uris":{"android":"levelo://app?vid=d920418b-60db-4b79-9279-5f43baab933a","ios":"levelo://app?vid=d920418b-60db-4b79-9279-5f43baab933a"},"vehicle_type_id":"4","last_reported":1750849769,"current_range_meters":10800,"station_id":"ce4bhbp2rcd13ifvqerg","pricing_plan_id":"cebpf4jnsgd1na2vs0mg"},{"bike_id":"5328aff4-54c8-46fa-92fb-15e6eac7aa6e","system_id":"levelo_inurba_marseille","lat":43.27918,"lon":5.39592,"is_reserved":false,"is_disabled":false,"rental_uris":{"android":"levelo://app?vid=5328aff4-54c8-46fa-92fb-15e6eac7aa6e","ios":"levelo://app?vid=5328aff4-54c8-46fa-92fb-15e6eac7aa6e"},"vehicle_type_id":"4","last_reported":1750849769,"current_range_meters":10800,"station_id":"ce4bhf92rcd13ifvqf40","pricing_plan_id":"cebpf4jnsgd1na2vs0mg"},{"bike_id":"00317fdd-1ecb-4bed-827e-4c611cfa5f8b","system_id":"levelo_inurba_marseille","lat":43.2706,"lon":5.42273,"is_reserved":false,"is_disabled":false,"rental_uris":{"android":"levelo://app?vid=00317fdd-1ecb-4bed-827e-4c611cfa5f8b","ios":"levelo://app?vid=00317fdd-1ecb-4bed-827e-4c611cfa5f8b"},"vehicle_type_id":"4","last_reported":1750849769,"current_range_meters":10800,"station_id":"ce4bhk92rcd13ifvqgb0","pricing_plan_id":"cebpf4jnsgd1na2vs0mg"},{"bike_id":"35b14479-4a4d-4383-83de-c7fea66894b3","system_id":"levelo_inurba_marseille","lat":43.299052,"lon":5.436632,"is_reserved":false,"is_disabled":false,"rental_uris":{"android":"levelo://app?vid=35b14479-4a4d-4383-83de-c7fea66894b3","ios":"levelo://app?vid=35b14479-4a4d-4383-83de-c7fea66894b3"},"vehicle_type_id":"4","last_reported":1750849769,"current_range_meters":10800,"station_id":"ce4bhpp2rcd13ifvqhfg","pricing_plan_id":"cebpf4jnsgd1na2vs0mg"},{"bike_id":"d1f3c9d8-23b6-4a16-b938-601e472841cc","system_id":"levelo_inurba_marseille","lat":43.31223,"lon":5.36858,"is_reserved":false,"is_disabled":false,"rental_uris":{"android":"levelo://app?vid=d1f3c9d8-23b6-4a16-b938-601e472841cc","ios":"levelo://app?vid=d1f3c9d8-23b6-4a16-b938-601e472841cc"},"vehicle_type_id":"4","last_reported":1750849769,"current_range_meters":11200,"station_id":"ce4bgl92rcd13ifvqbq0","pricing_plan_id":"cebpf4jnsgd1na2vs0mg"},{"bike_id":"b993833c-c600-415a-b8e6-da38a73dc4f8","system_id":"levelo_inurba_marseille","lat":43.30554,"lon":5.36537,"is_reserved":false,"is_disabled":false,"rental_uris":{"android":"levelo://app?vid=b993833c-c600-415a-b8e6-da38a73dc4f8","ios":"levelo://app?vid=b993833c-c600-415a-b8e6-da38a73dc4f8"},"vehicle_type_id":"4","last_reported":1750849769,"current_range_meters":11200,"station_id":"ce4bgs12rcd13ifvqcag","pricing_plan_id":"cebpf4jnsgd1na2vs0mg"},{"bike_id":"77d57ab2-86c7-4631-919a-2b3817b92f75","system_id":"levelo_inurba_marseille","lat":43.29439,"lon":5.39759,"is_reserved":false,"is_disabled":false,"rental_uris":{"android":"levelo://app?vid=77d57ab2-86c7-4631-919a-2b3817b92f75","ios":"levelo://app?vid=77d57ab2-86c7-4631-919a-2b3817b92f75"},"vehicle_type_id":"4","last_reported":1750849769,"current_range_meters":11200,"station_id":"ce4bh3h2rcd13ifvqdo0","pricing_plan_id":"cebpf4jnsgd1na2vs0mg"},{"bike_id":"ae73bd81-b509-4ac0-a9da-d88e33d178fd","system_id":"levelo_inurba_marseille","lat":43.2657,"lon":5.39011,"is_reserved":false,"is_disabled":false,"rental_uris":{"android":"levelo://app?vid=ae73bd81-b509-4ac0-a9da-d88e33d178fd","ios":"levelo://app?vid=ae73bd81-b509-4ac0-a9da-d88e33d178fd"},"vehicle_type_id":"4","last_reported":1750849769,"current_range_meters":11200,"station_id":"ce4bhe12rcd13ifvqf30","pricing_plan_id":"cebpf4jnsgd1na2vs0mg"},{"bike_id":"af112b62-19de-41d4-b8d7-e14d0172315d","system_id":"levelo_inurba_marseille","lat":43.32709,"lon":5.39211,"is_reserved":false,"is_disabled":false,"rental_uris":{"android":"levelo://app?vid=af112b62-19de-41d4-b8d7-e14d0172315d","ios":"levelo://app?vid=af112b62-19de-41d4-b8d7-e14d0172315d"},"vehicle_type_id":"4","last_reported":1750849769,"current_range_meters":11600,"station_id":"","pricing_plan_id":"cebpf4jnsgd1na2vs0mg"},{"bike_id":"33396347-c3e0-479f-a568-2fd902ce0f38","system_id":"levelo_inurba_marseille","lat":43.30218,"lon":5.39474,"is_reserved":false,"is_disabled":false,"rental_uris":{"android":"levelo://app?vid=33396347-c3e0-479f-a568-2fd902ce0f38","ios":"levelo://app?vid=33396347-c3e0-479f-a568-2fd902ce0f38"},"vehicle_type_id":"4","last_reported":1750849769,"current_range_meters":11600,"station_id":"ce4bh0p2rcd13ifvqd70","pricing_plan_id":"cebpf4jnsgd1na2vs0mg"},{"bike_id":"a94551ea-93e1-4fd2-8b24-8d9f338f5f3c","system_id":"levelo_inurba_marseille","lat":43.27072,"lon":5.42277,"is_reserved":false,"is_disabled":false,"rental_uris":{"android":"levelo://app?vid=a94551ea-93e1-4fd2-8b24-8d9f338f5f3c","ios":"levelo://app?vid=a94551ea-93e1-4fd2-8b24-8d9f338f5f3c"},"vehicle_type_id":"4","last_reported":1750849769,"current_range_meters":11600,"station_id":"ce4bhk92rcd13ifvqgb0","pricing_plan_id":"cebpf4jnsgd1na2vs0mg"},{"bike_id":"632e31c3-d333-4848-a6d6-bdb795d59b04","system_id":"levelo_inurba_marseille","lat":43.25716,"lon":5.41111,"is_reserved":false,"is_disabled":false,"rental_uris":{"android":"levelo://app?vid=632e31c3-d333-4848-a6d6-bdb795d59b04","ios":"levelo://app?vid=632e31c3-d333-4848-a6d6-bdb795d59b04"},"vehicle_type_id":"4","last_reported":1750849769,"current_range_meters":11600,"station_id":"ce4bhkp2rcd13ifvqgd0","pricing_plan_id":"cebpf4jnsgd1na2vs0mg"},{"bike_id":"8b2b04ea-d1f2-452e-9032-f7a674725af1","system_id":"levelo_inurba_marseille","lat":43.23183,"lon":5.39988,"is_reserved":false,"is_disabled":false,"rental_uris":{"android":"levelo://app?vid=8b2b04ea-d1f2-452e-9032-f7a674725af1","ios":"levelo://app?vid=8b2b04ea-d1f2-452e-9032-f7a674725af1"},"vehicle_type_id":"4","last_reported":1750849769,"current_range_meters":11600,"station_id":"ce4bhn12rcd13ifvqgqg","pricing_plan_id":"cebpf4jnsgd1na2vs0mg"},{"bike_id":"c0eadd74-eaf8-461b-a23d-30cecd3fd991","system_id":"levelo_inurba_marseille","lat":43.28074,"lon":5.3965,"is_reserved":false,"is_disabled":false,"rental_uris":{"android":"levelo://app?vid=c0eadd74-eaf8-461b-a23d-30cecd3fd991","ios":"levelo://app?vid=c0eadd74-eaf8-461b-a23d-30cecd3fd991"},"vehicle_type_id":"4","last_reported":1750849769,"current_range_meters":11600,"station_id":"ce4bho12rcd13ifvqh2g","pricing_plan_id":"cebpf4jnsgd1na2vs0mg"},{"bike_id":"c275cb29-3e5a-4090-a678-5b27fb004836","system_id":"levelo_inurba_marseille","lat":43.254939,"lon":5.376486,"is_reserved":false,"is_disabled":false,"rental_uris":{"android":"levelo://app?vid=c275cb29-3e5a-4090-a678-5b27fb004836","ios":"levelo://app?vid=c275cb29-3e5a-4090-a678-5b27fb004836"},"vehicle_type_id":"4","last_reported":1750849769,"current_range_meters":12000,"station_id":"","pricing_plan_id":"cebpf4jnsgd1na2vs0mg"},{"bike_id":"79b2a2b8-4cf7-4d43-b35d-43cf3527851c","system_id":"levelo_inurba_marseille","lat":43.292938,"lon":5.374626,"is_reserved":false,"is_disabled":false,"rental_uris":{"android":"levelo://app?vid=79b2a2b8-4cf7-4d43-b35d-43cf3527851c","ios":"levelo://app?vid=79b2a2b8-4cf7-4d43-b35d-43cf3527851c"},"vehicle_type_id":"4","last_reported":1750849769,"current_range_meters":12000,"station_id":"ce4bgi12rcd13ifvqb70","pricing_plan_id":"cebpf4jnsgd1na2vs0mg"},{"bike_id":"105fb4b2-7208-4f17-99ab-357986201e74","system_id":"levelo_inurba_marseille","lat":43.31239,"lon":5.3689,"is_reserved":false,"is_disabled":false,"rental_uris":{"android":"levelo://app?vid=105fb4b2-7208-4f17-99ab-357986201e74","ios":"levelo://app?vid=105fb4b2-7208-4f17-99ab-357986201e74"},"vehicle_type_id":"4","last_reported":1750849769,"current_range_meters":12000,"station_id":"ce4bgl92rcd13ifvqbq0","pricing_plan_id":"cebpf4jnsgd1na2vs0mg"},{"bike_id":"9e9c9062-e22b-4bab-a0bc-3ff27d003d16","system_id":"levelo_inurba_marseille","lat":43.3112,"lon":5.37764,"is_reserved":false,"is_disabled":false,"rental_uris":{"android":"levelo://app?vid=9e9c9062-e22b-4bab-a0bc-3ff27d003d16","ios":"levelo://app?vid=9e9c9062-e22b-4bab-a0bc-3ff27d003d16"},"vehicle_type_id":"4","last_reported":1750849769,"current_range_meters":12000,"station_id":"ce4bgt92rcd13ifvqcg0","pricing_plan_id":"cebpf4jnsgd1na2vs0mg"},{"bike_id":"5e9b222a-edae-47b0-8ad6-37d06c853e38","system_id":"levelo_inurba_marseille","lat":43.30093,"lon":5.39086,"is_reserved":false,"is_disabled":false,"rental_uris":{"android":"levelo://app?vid=5e9b222a-edae-47b0-8ad6-37d06c853e38","ios":"levelo://app?vid=5e9b222a-edae-47b0-8ad6-37d06c853e38"},"vehicle_type_id":"4","last_reported":1750849769,"current_range_meters":12000,"station_id":"ce4bh192rcd13ifvqdb0","pricing_plan_id":"cebpf4jnsgd1na2vs0mg"},{"bike_id":"3162631f-9c06-4a13-81bd-b50371df597f","system_id":"levelo_inurba_marseille","lat":43.26192,"lon":5.37442,"is_reserved":false,"is_disabled":false,"rental_uris":{"android":"levelo://app?vid=3162631f-9c06-4a13-81bd-b50371df597f","ios":"levelo://app?vid=3162631f-9c06-4a13-81bd-b50371df597f"},"vehicle_type_id":"4","last_reported":1750849769,"current_range_meters":12000,"station_id":"ce4bhgp2rcd13ifvqfc0","pricing_plan_id":"cebpf4jnsgd1na2vs0mg"},{"bike_id":"85aebb63-1277-49af-91e5-22f2d655e266","system_id":"levelo_inurba_marseille","lat":43.29898,"lon":5.43664,"is_reserved":false,"is_disabled":false,"rental_uris":{"android":"levelo://app?vid=85aebb63-1277-49af-91e5-22f2d655e266","ios":"levelo://app?vid=85aebb63-1277-49af-91e5-22f2d655e266"},"vehicle_type_id":"4","last_reported":1750849769,"current_range_meters":12000,"station_id":"ce4bhpp2rcd13ifvqhfg","pricing_plan_id":"cebpf4jnsgd1na2vs0mg"},{"bike_id":"9a518954-4025-421b-9462-580c985818f2","system_id":"levelo_inurba_marseille","lat":43.31471,"lon":5.388379,"is_reserved":false,"is_disabled":false,"rental_uris":{"android":"levelo://app?vid=9a518954-4025-421b-9462-580c985818f2","ios":"levelo://app?vid=9a518954-4025-421b-9462-580c985818f2"},"vehicle_type_id":"4","last_reported":1750849769,"current_range_meters":12400,"station_id":"","pricing_plan_id":"cebpf4jnsgd1na2vs0mg"},{"bike_id":"23a576b0-f308-4af9-a856-c356c821e9fe","system_id":"levelo_inurba_marseille","lat":43.25197,"lon":5.40682,"is_reserved":false,"is_disabled":false,"rental_uris":{"android":"levelo://app?vid=23a576b0-f308-4af9-a856-c356c821e9fe","ios":"levelo://app?vid=23a576b0-f308-4af9-a856-c356c821e9fe"},"vehicle_type_id":"4","last_reported":1750849769,"current_range_meters":12400,"station_id":"","pricing_plan_id":"cebpf4jnsgd1na2vs0mg"},{"bike_id":"a03c874c-5c60-4bfd-b6ae-ffce42ea82ef","system_id":"levelo_inurba_marseille","lat":43.26204,"lon":5.3747,"is_reserved":false,"is_disabled":false,"rental_uris":{"android":"levelo://app?vid=a03c874c-5c60-4bfd-b6ae-ffce42ea82ef","ios":"levelo://app?vid=a03c874c-5c60-4bfd-b6ae-ffce42ea82ef"},"vehicle_type_id":"4","last_reported":1750849769,"current_range_meters":12400,"station_id":"ce4bhgp2rcd13ifvqfc0","pricing_plan_id":"cebpf4jnsgd1na2vs0mg"},{"bike_id":"77cc000e-23c9-482a-bdd9-cdb3777b956f","system_id":"levelo_inurba_marseille","lat":43.25709,"lon":5.41116,"is_reserved":false,"is_disabled":false,"rental_uris":{"android":"levelo://app?vid=77cc000e-23c9-482a-bdd9-cdb3777b956f","ios":"levelo://app?vid=77cc000e-23c9-482a-bdd9-cdb3777b956f"},"vehicle_type_id":"4","last_reported":1750849769,"current_range_meters":12400,"station_id":"ce4bhkp2rcd13ifvqgd0","pricing_plan_id":"cebpf4jnsgd1na2vs0mg"},{"bike_id":"5668b9a2-fc8a-44c2-8a0c-453010f5db59","system_id":"levelo_inurba_marseille","lat":43.29553,"lon":5.422897,"is_reserved":false,"is_disabled":false,"rental_uris":{"android":"levelo://app?vid=5668b9a2-fc8a-44c2-8a0c-453010f5db59","ios":"levelo://app?vid=5668b9a2-fc8a-44c2-8a0c-453010f5db59"},"vehicle_type_id":"4","last_reported":1750849769,"current_range_meters":12400,"station_id":"ce4bhph2rcd13ifvqhdg","pricing_plan_id":"cebpf4jnsgd1na2vs0mg"},{"bike_id":"c344ff3f-ac3f-460b-acf5-648c1ccb3536","system_id":"levelo_inurba_marseille","lat":43.3061,"lon":5.37226,"is_reserved":false,"is_disabled":false,"rental_uris":{"android":"levelo://app?vid=c344ff3f-ac3f-460b-acf5-648c1ccb3536","ios":"levelo://app?vid=c344ff3f-ac3f-460b-acf5-648c1ccb3536"},"vehicle_type_id":"4","last_reported":1750849769,"current_range_meters":12800,"station_id":"ce4bgqh2rcd13ifvqc4g","pricing_plan_id":"cebpf4jnsgd1na2vs0mg"},{"bike_id":"779c953b-d5e7-48af-b86a-419123e350c2","system_id":"levelo_inurba_marseille","lat":43.28851,"lon":5.39307,"is_reserved":false,"is_disabled":false,"rental_uris":{"android":"levelo://app?vid=779c953b-d5e7-48af-b86a-419123e350c2","ios":"levelo://app?vid=779c953b-d5e7-48af-b86a-419123e350c2"},"vehicle_type_id":"4","last_reported":1750849769,"current_range_meters":12800,"station_id":"ce4bh2p2rcd13ifvqdi0","pricing_plan_id":"cebpf4jnsgd1na2vs0mg"},{"bike_id":"5307c0ff-1649-4fe5-a915-25b9242fc9ff","system_id":"levelo_inurba_marseille","lat":43.29521,"lon":5.39042,"is_reserved":false,"is_disabled":false,"rental_uris":{"android":"levelo://app?vid=5307c0ff-1649-4fe5-a915-25b9242fc9ff","ios":"levelo://app?vid=5307c0ff-1649-4fe5-a915-25b9242fc9ff"},"vehicle_type_id":"4","last_reported":1750849769,"current_range_meters":12800,"station_id":"ce4bh3p2rcd13ifvqdp0","pricing_plan_id":"cebpf4jnsgd1na2vs0mg"},{"bike_id":"bddaa8cb-fdc3-4d14-b779-3b6bd349ee71","system_id":"levelo_inurba_marseille","lat":43.28395,"lon":5.35019,"is_reserved":false,"is_disabled":false,"rental_uris":{"android":"levelo://app?vid=bddaa8cb-fdc3-4d14-b779-3b6bd349ee71","ios":"levelo://app?vid=bddaa8cb-fdc3-4d14-b779-3b6bd349ee71"},"vehicle_type_id":"4","last_reported":1750849769,"current_range_meters":12800,"station_id":"ce4bhbh2rcd13ifvqepg","pricing_plan_id":"cebpf4jnsgd1na2vs0mg"},{"bike_id":"a1786be5-4bb1-4d7e-8880-0b9510e1b420","system_id":"levelo_inurba_marseille","lat":43.28017,"lon":5.41658,"is_reserved":false,"is_disabled":false,"rental_uris":{"android":"levelo://app?vid=a1786be5-4bb1-4d7e-8880-0b9510e1b420","ios":"levelo://app?vid=a1786be5-4bb1-4d7e-8880-0b9510e1b420"},"vehicle_type_id":"4","last_reported":1750849769,"current_range_meters":12800,"station_id":"ce4bho12rcd13ifvqh1g","pricing_plan_id":"cebpf4jnsgd1na2vs0mg"},{"bike_id":"5eee8925-0941-460b-a942-18fcb70bac7c","system_id":"levelo_inurba_marseille","lat":43.272597,"lon":5.400578,"is_reserved":false,"is_disabled":false,"rental_uris":{"android":"levelo://app?vid=5eee8925-0941-460b-a942-18fcb70bac7c","ios":"levelo://app?vid=5eee8925-0941-460b-a942-18fcb70bac7c"},"vehicle_type_id":"4","last_reported":1750849769,"current_range_meters":13600,"station_id":"","pricing_plan_id":"cebpf4jnsgd1na2vs0mg"},{"bike_id":"474fad48-bd0a-4ac1-9832-7d898a223a4a","system_id":"levelo_inurba_marseille","lat":43.30512,"lon":5.36748,"is_reserved":false,"is_disabled":false,"rental_uris":{"android":"levelo://app?vid=474fad48-bd0a-4ac1-9832-7d898a223a4a","ios":"levelo://app?vid=474fad48-bd0a-4ac1-9832-7d898a223a4a"},"vehicle_type_id":"4","last_reported":1750849769,"current_range_meters":13600,"station_id":"ce4bgrp2rcd13ifvqc9g","pricing_plan_id":"cebpf4jnsgd1na2vs0mg"},{"bike_id":"086083c4-6c50-4bee-85be-6ee5cf4ba1da","system_id":"levelo_inurba_marseille","lat":43.28409,"lon":5.35029,"is_reserved":false,"is_disabled":false,"rental_uris":{"android":"levelo://app?vid=086083c4-6c50-4bee-85be-6ee5cf4ba1da","ios":"levelo://app?vid=086083c4-6c50-4bee-85be-6ee5cf4ba1da"},"vehicle_type_id":"4","last_reported":1750849769,"current_range_meters":13600,"station_id":"ce4bhbh2rcd13ifvqepg","pricing_plan_id":"cebpf4jnsgd1na2vs0mg"},{"bike_id":"07dead3e-fced-4a36-b1c0-dda7dd873caf","system_id":"levelo_inurba_marseille","lat":43.231922,"lon":5.355469,"is_reserved":false,"is_disabled":false,"rental_uris":{"android":"levelo://app?vid=07dead3e-fced-4a36-b1c0-dda7dd873caf","ios":"levelo://app?vid=07dead3e-fced-4a36-b1c0-dda7dd873caf"},"vehicle_type_id":"4","last_reported":1750849769,"current_range_meters":13600,"station_id":"ce4bhu92rcd13ifvqi70","pricing_plan_id":"cebpf4jnsgd1na2vs0mg"},{"bike_id":"e3cbe31d-3f2f-4c4c-a959-3bdba55d2dad","system_id":"levelo_inurba_marseille","lat":43.22935,"lon":5.35369,"is_reserved":false,"is_disabled":false,"rental_uris":{"android":"levelo://app?vid=e3cbe31d-3f2f-4c4c-a959-3bdba55d2dad","ios":"levelo://app?vid=e3cbe31d-3f2f-4c4c-a959-3bdba55d2dad"},"vehicle_type_id":"4","last_reported":1750849769,"current_range_meters":13600,"station_id":"cpo3532slgdg3j2ikp40","pricing_plan_id":"cebpf4jnsgd1na2vs0mg"},{"bike_id":"bb992666-e378-41dd-a997-d63d1daca419","system_id":"levelo_inurba_marseille","lat":43.2814,"lon":5.44255,"is_reserved":false,"is_disabled":false,"rental_uris":{"android":"levelo://app?vid=bb992666-e378-41dd-a997-d63d1daca419","ios":"levelo://app?vid=bb992666-e378-41dd-a997-d63d1daca419"},"vehicle_type_id":"4","last_reported":1750849769,"current_range_meters":14000,"station_id":"","pricing_plan_id":"cebpf4jnsgd1na2vs0mg"},{"bike_id":"73003e5e-1157-4cf0-aafe-d13c75118280","system_id":"levelo_inurba_marseille","lat":43.33363,"lon":5.39626,"is_reserved":false,"is_disabled":false,"rental_uris":{"android":"levelo://app?vid=73003e5e-1157-4cf0-aafe-d13c75118280","ios":"levelo://app?vid=73003e5e-1157-4cf0-aafe-d13c75118280"},"vehicle_type_id":"4","last_reported":1750849769,"current_range_meters":14000,"station_id":"","pricing_plan_id":"cebpf4jnsgd1na2vs0mg"},{"bike_id":"26a14eba-87a9-47b8-9607-30bd0042d428","system_id":"levelo_inurba_marseille","lat":43.31467,"lon":5.39438,"is_reserved":false,"is_disabled":false,"rental_uris":{"android":"levelo://app?vid=26a14eba-87a9-47b8-9607-30bd0042d428","ios":"levelo://app?vid=26a14eba-87a9-47b8-9607-30bd0042d428"},"vehicle_type_id":"4","last_reported":1750849769,"current_range_meters":14000,"station_id":"","pricing_plan_id":"cebpf4jnsgd1na2vs0mg"},{"bike_id":"7faac207-f171-439f-93c4-5d2116a375c4","system_id":"levelo_inurba_marseille","lat":43.28619,"lon":5.35107,"is_reserved":false,"is_disabled":false,"rental_uris":{"android":"levelo://app?vid=7faac207-f171-439f-93c4-5d2116a375c4","ios":"levelo://app?vid=7faac207-f171-439f-93c4-5d2116a375c4"},"vehicle_type_id":"4","last_reported":1750849769,"current_range_meters":14000,"station_id":"ce4bhch2rcd13ifvqeug","pricing_plan_id":"cebpf4jnsgd1na2vs0mg"},{"bike_id":"c72605bb-ca68-477d-ba60-340def00140b","system_id":"levelo_inurba_marseille","lat":43.2701,"lon":5.38789,"is_reserved":false,"is_disabled":false,"rental_uris":{"android":"levelo://app?vid=c72605bb-ca68-477d-ba60-340def00140b","ios":"levelo://app?vid=c72605bb-ca68-477d-ba60-340def00140b"},"vehicle_type_id":"4","last_reported":1750849769,"current_range_meters":14400,"station_id":"","pricing_plan_id":"cebpf4jnsgd1na2vs0mg"},{"bike_id":"59849b7f-8de0-4ce2-bd99-c6b3d09b6942","system_id":"levelo_inurba_marseille","lat":43.32052,"lon":5.4155,"is_reserved":false,"is_disabled":false,"rental_uris":{"android":"levelo://app?vid=59849b7f-8de0-4ce2-bd99-c6b3d09b6942","ios":"levelo://app?vid=59849b7f-8de0-4ce2-bd99-c6b3d09b6942"},"vehicle_type_id":"4","last_reported":1750849769,"current_range_meters":14400,"station_id":"ce4bhq92rcd13ifvqhkg","pricing_plan_id":"cebpf4jnsgd1na2vs0mg"},{"bike_id":"f5d6fb20-c6a0-426c-98f0-febc14728d70","system_id":"levelo_inurba_marseille","lat":43.33606,"lon":5.41032,"is_reserved":false,"is_disabled":false,"rental_uris":{"android":"levelo://app?vid=f5d6fb20-c6a0-426c-98f0-febc14728d70","ios":"levelo://app?vid=f5d6fb20-c6a0-426c-98f0-febc14728d70"},"vehicle_type_id":"4","last_reported":1750849769,"current_range_meters":14400,"station_id":"ce4bhqh2rcd13ifvqhmg","pricing_plan_id":"cebpf4jnsgd1na2vs0mg"},{"bike_id":"eadc4879-54be-4fe2-856c-25fd5c834415","system_id":"levelo_inurba_marseille","lat":43.23206,"lon":5.35546,"is_reserved":false,"is_disabled":false,"rental_uris":{"android":"levelo://app?vid=eadc4879-54be-4fe2-856c-25fd5c834415","ios":"levelo://app?vid=eadc4879-54be-4fe2-856c-25fd5c834415"},"vehicle_type_id":"4","last_reported":1750849769,"current_range_meters":14400,"station_id":"ce4bhu92rcd13ifvqi70","pricing_plan_id":"cebpf4jnsgd1na2vs0mg"},{"bike_id":"dadd55ec-1282-44bb-84f2-28ec8d9ebe35","system_id":"levelo_inurba_marseille","lat":43.284138,"lon":5.349827,"is_reserved":false,"is_disabled":false,"rental_uris":{"android":"levelo://app?vid=dadd55ec-1282-44bb-84f2-28ec8d9ebe35","ios":"levelo://app?vid=dadd55ec-1282-44bb-84f2-28ec8d9ebe35"},"vehicle_type_id":"4","last_reported":1750849769,"current_range_meters":14800,"station_id":"ce4bhbh2rcd13ifvqepg","pricing_plan_id":"cebpf4jnsgd1na2vs0mg"},{"bike_id":"d9841afe-1b18-4b9a-9643-30d81caed7d2","system_id":"levelo_inurba_marseille","lat":43.2655,"lon":5.37301,"is_reserved":false,"is_disabled":false,"rental_uris":{"android":"levelo://app?vid=d9841afe-1b18-4b9a-9643-30d81caed7d2","ios":"levelo://app?vid=d9841afe-1b18-4b9a-9643-30d81caed7d2"},"vehicle_type_id":"4","last_reported":1750849769,"current_range_meters":14800,"station_id":"ce4bhg12rcd13ifvqf70","pricing_plan_id":"cebpf4jnsgd1na2vs0mg"},{"bike_id":"62854f33-31c1-4dfc-bbe0-b166e5337757","system_id":"levelo_inurba_marseille","lat":43.28083,"lon":5.39644,"is_reserved":false,"is_disabled":false,"rental_uris":{"android":"levelo://app?vid=62854f33-31c1-4dfc-bbe0-b166e5337757","ios":"levelo://app?vid=62854f33-31c1-4dfc-bbe0-b166e5337757"},"vehicle_type_id":"4","last_reported":1750849769,"current_range_meters":14800,"station_id":"ce4bho12rcd13ifvqh2g","pricing_plan_id":"cebpf4jnsgd1na2vs0mg"},{"bike_id":"31fea0d8-0cfa-4bc3-8427-423e0c4bce8c","system_id":"levelo_inurba_marseille","lat":43.29891,"lon":5.43657,"is_reserved":false,"is_disabled":false,"rental_uris":{"android":"levelo://app?vid=31fea0d8-0cfa-4bc3-8427-423e0c4bce8c","ios":"levelo://app?vid=31fea0d8-0cfa-4bc3-8427-423e0c4bce8c"},"vehicle_type_id":"4","last_reported":1750849769,"current_range_meters":14800,"station_id":"ce4bhpp2rcd13ifvqhfg","pricing_plan_id":"cebpf4jnsgd1na2vs0mg"},{"bike_id":"e2f5b300-4a63-4778-aada-c29a8a0ea1e8","system_id":"levelo_inurba_marseille","lat":43.3282,"lon":5.39154,"is_reserved":false,"is_disabled":false,"rental_uris":{"android":"levelo://app?vid=e2f5b300-4a63-4778-aada-c29a8a0ea1e8","ios":"levelo://app?vid=e2f5b300-4a63-4778-aada-c29a8a0ea1e8"},"vehicle_type_id":"4","last_reported":1750849769,"current_range_meters":15200,"station_id":"","pricing_plan_id":"cebpf4jnsgd1na2vs0mg"},{"bike_id":"d9429ff7-0180-4256-aaeb-42df253e86db","system_id":"levelo_inurba_marseille","lat":43.29952,"lon":5.365,"is_reserved":false,"is_disabled":false,"rental_uris":{"android":"levelo://app?vid=d9429ff7-0180-4256-aaeb-42df253e86db","ios":"levelo://app?vid=d9429ff7-0180-4256-aaeb-42df253e86db"},"vehicle_type_id":"4","last_reported":1750849769,"current_range_meters":15200,"station_id":"ce4bgm92rcd13ifvqbr0","pricing_plan_id":"cebpf4jnsgd1na2vs0mg"},{"bike_id":"a9f174f7-f4ae-45b0-8c80-5e042fd6c6e2","system_id":"levelo_inurba_marseille","lat":43.29189,"lon":5.358,"is_reserved":false,"is_disabled":false,"rental_uris":{"android":"levelo://app?vid=a9f174f7-f4ae-45b0-8c80-5e042fd6c6e2","ios":"levelo://app?vid=a9f174f7-f4ae-45b0-8c80-5e042fd6c6e2"},"vehicle_type_id":"4","last_reported":1750849769,"current_range_meters":15200,"station_id":"ce4bhb12rcd13ifvqel0","pricing_plan_id":"cebpf4jnsgd1na2vs0mg"},{"bike_id":"5357491a-8466-4278-921d-5c0e38748773","system_id":"levelo_inurba_marseille","lat":43.27972,"lon":5.41628,"is_reserved":false,"is_disabled":false,"rental_uris":{"android":"levelo://app?vid=5357491a-8466-4278-921d-5c0e38748773","ios":"levelo://app?vid=5357491a-8466-4278-921d-5c0e38748773"},"vehicle_type_id":"4","last_reported":1750849769,"current_range_meters":15200,"station_id":"ce4bho12rcd13ifvqh1g","pricing_plan_id":"cebpf4jnsgd1na2vs0mg"},{"bike_id":"5b0059f2-5a2a-41ce-b903-1f956adfdd24","system_id":"levelo_inurba_marseille","lat":43.29788,"lon":5.43577,"is_reserved":false,"is_disabled":false,"rental_uris":{"android":"levelo://app?vid=5b0059f2-5a2a-41ce-b903-1f956adfdd24","ios":"levelo://app?vid=5b0059f2-5a2a-41ce-b903-1f956adfdd24"},"vehicle_type_id":"4","last_reported":1750849769,"current_range_meters":16000,"station_id":"","pricing_plan_id":"cebpf4jnsgd1na2vs0mg"},{"bike_id":"b6b861fa-fd27-43ad-89fb-4be1a264be92","system_id":"levelo_inurba_marseille","lat":43.24927,"lon":5.39007,"is_reserved":false,"is_disabled":false,"rental_uris":{"android":"levelo://app?vid=b6b861fa-fd27-43ad-89fb-4be1a264be92","ios":"levelo://app?vid=b6b861fa-fd27-43ad-89fb-4be1a264be92"},"vehicle_type_id":"4","last_reported":1750849769,"current_range_meters":16000,"station_id":"","pricing_plan_id":"cebpf4jnsgd1na2vs0mg"},{"bike_id":"999358c1-ca11-4e82-a992-73b8d2972254","system_id":"levelo_inurba_marseille","lat":43.301465,"lon":5.374224,"is_reserved":false,"is_disabled":false,"rental_uris":{"android":"levelo://app?vid=999358c1-ca11-4e82-a992-73b8d2972254","ios":"levelo://app?vid=999358c1-ca11-4e82-a992-73b8d2972254"},"vehicle_type_id":"4","last_reported":1750849769,"current_range_meters":16000,"station_id":"ce4bgi92rcd13ifvqb90","pricing_plan_id":"cebpf4jnsgd1na2vs0mg"},{"bike_id":"c892ae8f-21ae-497d-ad79-8d160117fa33","system_id":"levelo_inurba_marseille","lat":43.29969,"lon":5.38486,"is_reserved":false,"is_disabled":false,"rental_uris":{"android":"levelo://app?vid=c892ae8f-21ae-497d-ad79-8d160117fa33","ios":"levelo://app?vid=c892ae8f-21ae-497d-ad79-8d160117fa33"},"vehicle_type_id":"4","last_reported":1750849769,"current_range_meters":16000,"station_id":"ce4bgj92rcd13ifvqbd0","pricing_plan_id":"cebpf4jnsgd1na2vs0mg"},{"bike_id":"bb6cbc24-ee44-4707-99f2-fbd6b43ef4d8","system_id":"levelo_inurba_marseille","lat":43.25485,"lon":5.37679,"is_reserved":false,"is_disabled":false,"rental_uris":{"android":"levelo://app?vid=bb6cbc24-ee44-4707-99f2-fbd6b43ef4d8","ios":"levelo://app?vid=bb6cbc24-ee44-4707-99f2-fbd6b43ef4d8"},"vehicle_type_id":"4","last_reported":1750849769,"current_range_meters":16000,"station_id":"ce4bhh12rcd13ifvqff0","pricing_plan_id":"cebpf4jnsgd1na2vs0mg"},{"bike_id":"9970ea05-0b53-48ff-ab0b-ef5ec98f82a5","system_id":"levelo_inurba_marseille","lat":43.26233,"lon":5.40476,"is_reserved":false,"is_disabled":false,"rental_uris":{"android":"levelo://app?vid=9970ea05-0b53-48ff-ab0b-ef5ec98f82a5","ios":"levelo://app?vid=9970ea05-0b53-48ff-ab0b-ef5ec98f82a5"},"vehicle_type_id":"4","last_reported":1750849769,"current_range_meters":16000,"station_id":"ce4bhmh2rcd13ifvqgmg","pricing_plan_id":"cebpf4jnsgd1na2vs0mg"},{"bike_id":"83d64502-1fc6-4760-a2e0-8853a567ee49","system_id":"levelo_inurba_marseille","lat":43.33165,"lon":5.4104,"is_reserved":false,"is_disabled":false,"rental_uris":{"android":"levelo://app?vid=83d64502-1fc6-4760-a2e0-8853a567ee49","ios":"levelo://app?vid=83d64502-1fc6-4760-a2e0-8853a567ee49"},"vehicle_type_id":"4","last_reported":1750849769,"current_range_meters":16400,"station_id":"","pricing_plan_id":"cebpf4jnsgd1na2vs0mg"},{"bike_id":"a60aa7dd-1860-44cd-83e6-1e87440a974a","system_id":"levelo_inurba_marseille","lat":43.29023,"lon":5.38644,"is_reserved":false,"is_disabled":false,"rental_uris":{"android":"levelo://app?vid=a60aa7dd-1860-44cd-83e6-1e87440a974a","ios":"levelo://app?vid=a60aa7dd-1860-44cd-83e6-1e87440a974a"},"vehicle_type_id":"4","last_reported":1750849769,"current_range_meters":16400,"station_id":"ce4bh4p2rcd13ifvqe0g","pricing_plan_id":"cebpf4jnsgd1na2vs0mg"},{"bike_id":"09f3b4d7-adb2-4686-a9b1-224331629411","system_id":"levelo_inurba_marseille","lat":43.28097,"lon":5.37831,"is_reserved":false,"is_disabled":false,"rental_uris":{"android":"levelo://app?vid=09f3b4d7-adb2-4686-a9b1-224331629411","ios":"levelo://app?vid=09f3b4d7-adb2-4686-a9b1-224331629411"},"vehicle_type_id":"4","last_reported":1750849769,"current_range_meters":16400,"station_id":"ce4bha12rcd13ifvqee0","pricing_plan_id":"cebpf4jnsgd1na2vs0mg"},{"bike_id":"28551c4f-35a2-44a9-85be-c1585cd9b920","system_id":"levelo_inurba_marseille","lat":43.2893,"lon":5.36641,"is_reserved":false,"is_disabled":false,"rental_uris":{"android":"levelo://app?vid=28551c4f-35a2-44a9-85be-c1585cd9b920","ios":"levelo://app?vid=28551c4f-35a2-44a9-85be-c1585cd9b920"},"vehicle_type_id":"4","last_reported":1750849769,"current_range_meters":16400,"station_id":"ce4bhap2rcd13ifvqek0","pricing_plan_id":"cebpf4jnsgd1na2vs0mg"},{"bike_id":"1af92d53-d005-40b5-b8e1-712d5992f2db","system_id":"levelo_inurba_marseille","lat":43.28933,"lon":5.36395,"is_reserved":false,"is_disabled":false,"rental_uris":{"android":"levelo://app?vid=1af92d53-d005-40b5-b8e1-712d5992f2db","ios":"levelo://app?vid=1af92d53-d005-40b5-b8e1-712d5992f2db"},"vehicle_type_id":"4","last_reported":1750849769,"current_range_meters":16400,"station_id":"ce4bhc92rcd13ifvqetg","pricing_plan_id":"cebpf4jnsgd1na2vs0mg"},{"bike_id":"7784fcd5-d81e-4e04-ad58-1c8be37fb4b8","system_id":"levelo_inurba_marseille","lat":43.23966,"lon":5.36627,"is_reserved":false,"is_disabled":false,"rental_uris":{"android":"levelo://app?vid=7784fcd5-d81e-4e04-ad58-1c8be37fb4b8","ios":"levelo://app?vid=7784fcd5-d81e-4e04-ad58-1c8be37fb4b8"},"vehicle_type_id":"4","last_reported":1750849769,"current_range_meters":16400,"station_id":"ce4bhi12rcd13ifvqfp0","pricing_plan_id":"cebpf4jnsgd1na2vs0mg"},{"bike_id":"d70a760f-2535-4cae-9d25-2b6814bdded3","system_id":"levelo_inurba_marseille","lat":43.24179,"lon":5.39733,"is_reserved":false,"is_disabled":false,"rental_uris":{"android":"levelo://app?vid=d70a760f-2535-4cae-9d25-2b6814bdded3","ios":"levelo://app?vid=d70a760f-2535-4cae-9d25-2b6814bdded3"},"vehicle_type_id":"4","last_reported":1750849769,"current_range_meters":16400,"station_id":"ce4bhn12rcd13ifvqgpg","pricing_plan_id":"cebpf4jnsgd1na2vs0mg"},{"bike_id":"d1a0901c-67df-47a9-b548-1eec4a8a1003","system_id":"levelo_inurba_marseille","lat":43.32488,"lon":5.3659,"is_reserved":false,"is_disabled":false,"rental_uris":{"android":"levelo://app?vid=d1a0901c-67df-47a9-b548-1eec4a8a1003","ios":"levelo://app?vid=d1a0901c-67df-47a9-b548-1eec4a8a1003"},"vehicle_type_id":"4","last_reported":1750849769,"current_range_meters":16400,"station_id":"ce4bhs12rcd13ifvqhvg","pricing_plan_id":"cebpf4jnsgd1na2vs0mg"},{"bike_id":"ff3e85f1-e8cd-4f75-aa05-5d313ecf4b6a","system_id":"levelo_inurba_marseille","lat":43.30172,"lon":5.38095,"is_reserved":false,"is_disabled":false,"rental_uris":{"android":"levelo://app?vid=ff3e85f1-e8cd-4f75-aa05-5d313ecf4b6a","ios":"levelo://app?vid=ff3e85f1-e8cd-4f75-aa05-5d313ecf4b6a"},"vehicle_type_id":"4","last_reported":1750849769,"current_range_meters":16800,"station_id":"ce4bgjp2rcd13ifvqbh0","pricing_plan_id":"cebpf4jnsgd1na2vs0mg"},{"bike_id":"804b42d4-7a77-4bd7-b100-0d1e161eb754","system_id":"levelo_inurba_marseille","lat":43.2857,"lon":5.3949,"is_reserved":false,"is_disabled":false,"rental_uris":{"android":"levelo://app?vid=804b42d4-7a77-4bd7-b100-0d1e161eb754","ios":"levelo://app?vid=804b42d4-7a77-4bd7-b100-0d1e161eb754"},"vehicle_type_id":"4","last_reported":1750849769,"current_range_meters":16800,"station_id":"ce4bh292rcd13ifvqdg0","pricing_plan_id":"cebpf4jnsgd1na2vs0mg"},{"bike_id":"69ffc344-0c50-4857-ab93-54ee226aa497","system_id":"levelo_inurba_marseille","lat":43.28986,"lon":5.35622,"is_reserved":false,"is_disabled":false,"rental_uris":{"android":"levelo://app?vid=69ffc344-0c50-4857-ab93-54ee226aa497","ios":"levelo://app?vid=69ffc344-0c50-4857-ab93-54ee226aa497"},"vehicle_type_id":"4","last_reported":1750849769,"current_range_meters":16800,"station_id":"ce4bhb92rcd13ifvqen0","pricing_plan_id":"cebpf4jnsgd1na2vs0mg"},{"bike_id":"5d69cbf1-8a07-4258-a0ce-4db57975f786","system_id":"levelo_inurba_marseille","lat":43.282501,"lon":5.350719,"is_reserved":false,"is_disabled":false,"rental_uris":{"android":"levelo://app?vid=5d69cbf1-8a07-4258-a0ce-4db57975f786","ios":"levelo://app?vid=5d69cbf1-8a07-4258-a0ce-4db57975f786"},"vehicle_type_id":"4","last_reported":1750849769,"current_range_meters":16800,"station_id":"ce4bhbp2rcd13ifvqerg","pricing_plan_id":"cebpf4jnsgd1na2vs0mg"},{"bike_id":"43d368ea-aad7-48e4-b56a-916b19d8fa40","system_id":"levelo_inurba_marseille","lat":43.31863,"lon":5.36787,"is_reserved":false,"is_disabled":false,"rental_uris":{"android":"levelo://app?vid=43d368ea-aad7-48e4-b56a-916b19d8fa40","ios":"levelo://app?vid=43d368ea-aad7-48e4-b56a-916b19d8fa40"},"vehicle_type_id":"4","last_reported":1750849769,"current_range_meters":16800,"station_id":"ce4bhsh2rcd13ifvqi2g","pricing_plan_id":"cebpf4jnsgd1na2vs0mg"},{"bike_id":"4a5dcb61-28d7-4cc1-ac26-99c9ae242dc2","system_id":"levelo_inurba_marseille","lat":43.28605,"lon":5.37064,"is_reserved":false,"is_disabled":false,"rental_uris":{"android":"levelo://app?vid=4a5dcb61-28d7-4cc1-ac26-99c9ae242dc2","ios":"levelo://app?vid=4a5dcb61-28d7-4cc1-ac26-99c9ae242dc2"},"vehicle_type_id":"4","last_reported":1750849769,"current_range_meters":16800,"station_id":"ce4bht12rcd13ifvqi60","pricing_plan_id":"cebpf4jnsgd1na2vs0mg"},{"bike_id":"81f770e2-c8d2-4cc0-9803-7c95f7ad9e60","system_id":"levelo_inurba_marseille","lat":43.30498,"lon":5.37349,"is_reserved":false,"is_disabled":false,"rental_uris":{"android":"levelo://app?vid=81f770e2-c8d2-4cc0-9803-7c95f7ad9e60","ios":"levelo://app?vid=81f770e2-c8d2-4cc0-9803-7c95f7ad9e60"},"vehicle_type_id":"4","last_reported":1750849769,"current_range_meters":17200,"station_id":"","pricing_plan_id":"cebpf4jnsgd1na2vs0mg"},{"bike_id":"e4463e21-c0d0-4a48-80f8-2e34e960b2b1","system_id":"levelo_inurba_marseille","lat":43.250359,"lon":5.416292,"is_reserved":false,"is_disabled":false,"rental_uris":{"android":"levelo://app?vid=e4463e21-c0d0-4a48-80f8-2e34e960b2b1","ios":"levelo://app?vid=e4463e21-c0d0-4a48-80f8-2e34e960b2b1"},"vehicle_type_id":"4","last_reported":1750849769,"current_range_meters":17200,"station_id":"","pricing_plan_id":"cebpf4jnsgd1na2vs0mg"},{"bike_id":"3dbe6848-973a-40b2-bfd4-c2429bbb16d0","system_id":"levelo_inurba_marseille","lat":43.28677,"lon":5.38667,"is_reserved":false,"is_disabled":false,"rental_uris":{"android":"levelo://app?vid=3dbe6848-973a-40b2-bfd4-c2429bbb16d0","ios":"levelo://app?vid=3dbe6848-973a-40b2-bfd4-c2429bbb16d0"},"vehicle_type_id":"4","last_reported":1750849769,"current_range_meters":17200,"station_id":"ce4bh492rcd13ifvqdug","pricing_plan_id":"cebpf4jnsgd1na2vs0mg"},{"bike_id":"90ecb616-9793-4072-9b72-dd826c4c7177","system_id":"levelo_inurba_marseille","lat":43.27372,"lon":5.36264,"is_reserved":false,"is_disabled":false,"rental_uris":{"android":"levelo://app?vid=90ecb616-9793-4072-9b72-dd826c4c7177","ios":"levelo://app?vid=90ecb616-9793-4072-9b72-dd826c4c7177"},"vehicle_type_id":"4","last_reported":1750849769,"current_range_meters":17200,"station_id":"ce4bhbh2rcd13ifvqeo0","pricing_plan_id":"cebpf4jnsgd1na2vs0mg"},{"bike_id":"8129b8e7-893b-45e7-acc5-09c493d20d5c","system_id":"levelo_inurba_marseille","lat":43.28267,"lon":5.35057,"is_reserved":false,"is_disabled":false,"rental_uris":{"android":"levelo://app?vid=8129b8e7-893b-45e7-acc5-09c493d20d5c","ios":"levelo://app?vid=8129b8e7-893b-45e7-acc5-09c493d20d5c"},"vehicle_type_id":"4","last_reported":1750849769,"current_range_meters":17200,"station_id":"ce4bhbp2rcd13ifvqerg","pricing_plan_id":"cebpf4jnsgd1na2vs0mg"},{"bike_id":"7d2e4d95-31e6-48d1-9004-a1fecd1ef964","system_id":"levelo_inurba_marseille","lat":43.28615,"lon":5.35103,"is_reserved":false,"is_disabled":false,"rental_uris":{"android":"levelo://app?vid=7d2e4d95-31e6-48d1-9004-a1fecd1ef964","ios":"levelo://app?vid=7d2e4d95-31e6-48d1-9004-a1fecd1ef964"},"vehicle_type_id":"4","last_reported":1750849769,"current_range_meters":17200,"station_id":"ce4bhch2rcd13ifvqeug","pricing_plan_id":"cebpf4jnsgd1na2vs0mg"},{"bike_id":"3ef4bf5d-45ed-4e2c-b98e-a6105c8710b6","system_id":"levelo_inurba_marseille","lat":43.23966,"lon":5.36631,"is_reserved":false,"is_disabled":false,"rental_uris":{"android":"levelo://app?vid=3ef4bf5d-45ed-4e2c-b98e-a6105c8710b6","ios":"levelo://app?vid=3ef4bf5d-45ed-4e2c-b98e-a6105c8710b6"},"vehicle_type_id":"4","last_reported":1750849769,"current_range_meters":17200,"station_id":"ce4bhi12rcd13ifvqfp0","pricing_plan_id":"cebpf4jnsgd1na2vs0mg"},{"bike_id":"4f6b7799-6501-49ab-a621-96e7bf711aee","system_id":"levelo_inurba_marseille","lat":43.259291,"lon":5.409049,"is_reserved":false,"is_disabled":false,"rental_uris":{"android":"levelo://app?vid=4f6b7799-6501-49ab-a621-96e7bf711aee","ios":"levelo://app?vid=4f6b7799-6501-49ab-a621-96e7bf711aee"},"vehicle_type_id":"4","last_reported":1750849769,"current_range_meters":17200,"station_id":"ce4bhm92rcd13ifvqglg","pricing_plan_id":"cebpf4jnsgd1na2vs0mg"},{"bike_id":"accac960-c1f9-43c1-95d4-781d48c61934","system_id":"levelo_inurba_marseille","lat":43.309478,"lon":5.390457,"is_reserved":false,"is_disabled":false,"rental_uris":{"android":"levelo://app?vid=accac960-c1f9-43c1-95d4-781d48c61934","ios":"levelo://app?vid=accac960-c1f9-43c1-95d4-781d48c61934"},"vehicle_type_id":"4","last_reported":1750849769,"current_range_meters":17600,"station_id":"ce4bgup2rcd13ifvqco0","pricing_plan_id":"cebpf4jnsgd1na2vs0mg"},{"bike_id":"5a797633-237d-4c1c-b25c-1cef318a4e14","system_id":"levelo_inurba_marseille","lat":43.27373,"lon":5.36259,"is_reserved":false,"is_disabled":false,"rental_uris":{"android":"levelo://app?vid=5a797633-237d-4c1c-b25c-1cef318a4e14","ios":"levelo://app?vid=5a797633-237d-4c1c-b25c-1cef318a4e14"},"vehicle_type_id":"4","last_reported":1750849769,"current_range_meters":17600,"station_id":"ce4bhbh2rcd13ifvqeo0","pricing_plan_id":"cebpf4jnsgd1na2vs0mg"},{"bike_id":"44277af3-94a6-4114-ac1c-f02cd998f60e","system_id":"levelo_inurba_marseille","lat":43.24181,"lon":5.39722,"is_reserved":false,"is_disabled":false,"rental_uris":{"android":"levelo://app?vid=44277af3-94a6-4114-ac1c-f02cd998f60e","ios":"levelo://app?vid=44277af3-94a6-4114-ac1c-f02cd998f60e"},"vehicle_type_id":"4","last_reported":1750849769,"current_range_meters":17600,"station_id":"ce4bhn12rcd13ifvqgpg","pricing_plan_id":"cebpf4jnsgd1na2vs0mg"},{"bike_id":"ffd2fe4c-e2ee-4179-9524-0501e26bc45f","system_id":"levelo_inurba_marseille","lat":43.274918,"lon":5.424559,"is_reserved":false,"is_disabled":false,"rental_uris":{"android":"levelo://app?vid=ffd2fe4c-e2ee-4179-9524-0501e26bc45f","ios":"levelo://app?vid=ffd2fe4c-e2ee-4179-9524-0501e26bc45f"},"vehicle_type_id":"4","last_reported":1750849769,"current_range_meters":17600,"station_id":"ce4bhn92rcd13ifvqgrg","pricing_plan_id":"cebpf4jnsgd1na2vs0mg"},{"bike_id":"70a87e8b-7ad1-4bdf-b181-5e2fc38709cd","system_id":"levelo_inurba_marseille","lat":43.29892,"lon":5.43647,"is_reserved":false,"is_disabled":false,"rental_uris":{"android":"levelo://app?vid=70a87e8b-7ad1-4bdf-b181-5e2fc38709cd","ios":"levelo://app?vid=70a87e8b-7ad1-4bdf-b181-5e2fc38709cd"},"vehicle_type_id":"4","last_reported":1750849769,"current_range_meters":17600,"station_id":"ce4bhpp2rcd13ifvqhfg","pricing_plan_id":"cebpf4jnsgd1na2vs0mg"},{"bike_id":"803dfaaf-6261-4e9f-b33e-491fa7884199","system_id":"levelo_inurba_marseille","lat":43.32466,"lon":5.36593,"is_reserved":false,"is_disabled":false,"rental_uris":{"android":"levelo://app?vid=803dfaaf-6261-4e9f-b33e-491fa7884199","ios":"levelo://app?vid=803dfaaf-6261-4e9f-b33e-491fa7884199"},"vehicle_type_id":"4","last_reported":1750849769,"current_range_meters":17600,"station_id":"ce4bhs12rcd13ifvqhvg","pricing_plan_id":"cebpf4jnsgd1na2vs0mg"},{"bike_id":"6bbbdabf-81b5-4c65-92bb-75c3f89e2ff9","system_id":"levelo_inurba_marseille","lat":43.22926,"lon":5.35364,"is_reserved":false,"is_disabled":false,"rental_uris":{"android":"levelo://app?vid=6bbbdabf-81b5-4c65-92bb-75c3f89e2ff9","ios":"levelo://app?vid=6bbbdabf-81b5-4c65-92bb-75c3f89e2ff9"},"vehicle_type_id":"4","last_reported":1750849769,"current_range_meters":17600,"station_id":"cpo3532slgdg3j2ikp40","pricing_plan_id":"cebpf4jnsgd1na2vs0mg"},{"bike_id":"402140bf-137b-47de-9e6e-6b7806ec79db","system_id":"levelo_inurba_marseille","lat":43.30875,"lon":5.36935,"is_reserved":false,"is_disabled":false,"rental_uris":{"android":"levelo://app?vid=402140bf-137b-47de-9e6e-6b7806ec79db","ios":"levelo://app?vid=402140bf-137b-47de-9e6e-6b7806ec79db"},"vehicle_type_id":"4","last_reported":1750849769,"current_range_meters":18000,"station_id":"","pricing_plan_id":"cebpf4jnsgd1na2vs0mg"},{"bike_id":"de0f7c2b-5974-4035-a240-8ed367c0e3f3","system_id":"levelo_inurba_marseille","lat":43.319659,"lon":5.376304,"is_reserved":false,"is_disabled":false,"rental_uris":{"android":"levelo://app?vid=de0f7c2b-5974-4035-a240-8ed367c0e3f3","ios":"levelo://app?vid=de0f7c2b-5974-4035-a240-8ed367c0e3f3"},"vehicle_type_id":"4","last_reported":1750849769,"current_range_meters":18000,"station_id":"","pricing_plan_id":"cebpf4jnsgd1na2vs0mg"},{"bike_id":"eb959947-4f35-40cf-9ff9-055aa4019e4f","system_id":"levelo_inurba_marseille","lat":43.2968,"lon":5.36584,"is_reserved":false,"is_disabled":false,"rental_uris":{"android":"levelo://app?vid=eb959947-4f35-40cf-9ff9-055aa4019e4f","ios":"levelo://app?vid=eb959947-4f35-40cf-9ff9-055aa4019e4f"},"vehicle_type_id":"4","last_reported":1750849769,"current_range_meters":18000,"station_id":"ce4bgn12rcd13ifvqbt0","pricing_plan_id":"cebpf4jnsgd1na2vs0mg"},{"bike_id":"d20bf403-51de-4acc-9e5e-ea1de4e00fff","system_id":"levelo_inurba_marseille","lat":43.28414,"lon":5.35007,"is_reserved":false,"is_disabled":false,"rental_uris":{"android":"levelo://app?vid=d20bf403-51de-4acc-9e5e-ea1de4e00fff","ios":"levelo://app?vid=d20bf403-51de-4acc-9e5e-ea1de4e00fff"},"vehicle_type_id":"4","last_reported":1750849769,"current_range_meters":18000,"station_id":"ce4bhbh2rcd13ifvqepg","pricing_plan_id":"cebpf4jnsgd1na2vs0mg"},{"bike_id":"60da60cb-7e31-4e0d-9326-0b03fcc3fe1c","system_id":"levelo_inurba_marseille","lat":43.275587,"lon":5.384253,"is_reserved":false,"is_disabled":false,"rental_uris":{"android":"levelo://app?vid=60da60cb-7e31-4e0d-9326-0b03fcc3fe1c","ios":"levelo://app?vid=60da60cb-7e31-4e0d-9326-0b03fcc3fe1c"},"vehicle_type_id":"4","last_reported":1750849769,"current_range_meters":18000,"station_id":"ce4bhh92rcd13ifvqfi0","pricing_plan_id":"cebpf4jnsgd1na2vs0mg"},{"bike_id":"af21a4f3-0857-43ab-a68d-e703bf7e4fc7","system_id":"levelo_inurba_marseille","lat":43.28415,"lon":5.34999,"is_reserved":false,"is_disabled":false,"rental_uris":{"android":"levelo://app?vid=af21a4f3-0857-43ab-a68d-e703bf7e4fc7","ios":"levelo://app?vid=af21a4f3-0857-43ab-a68d-e703bf7e4fc7"},"vehicle_type_id":"4","last_reported":1750849769,"current_range_meters":18800,"station_id":"ce4bhbh2rcd13ifvqepg","pricing_plan_id":"cebpf4jnsgd1na2vs0mg"},{"bike_id":"9eef2323-f181-4fc2-b748-09d868340ecc","system_id":"levelo_inurba_marseille","lat":43.28639,"lon":5.35131,"is_reserved":false,"is_disabled":false,"rental_uris":{"android":"levelo://app?vid=9eef2323-f181-4fc2-b748-09d868340ecc","ios":"levelo://app?vid=9eef2323-f181-4fc2-b748-09d868340ecc"},"vehicle_type_id":"4","last_reported":1750849769,"current_range_meters":18800,"station_id":"ce4bhch2rcd13ifvqeug","pricing_plan_id":"cebpf4jnsgd1na2vs0mg"},{"bike_id":"4b8da722-ee9e-48a4-a5e5-3a8a10364708","system_id":"levelo_inurba_marseille","lat":43.312239,"lon":5.378175,"is_reserved":false,"is_disabled":false,"rental_uris":{"android":"levelo://app?vid=4b8da722-ee9e-48a4-a5e5-3a8a10364708","ios":"levelo://app?vid=4b8da722-ee9e-48a4-a5e5-3a8a10364708"},"vehicle_type_id":"4","last_reported":1750849769,"current_range_meters":19200,"station_id":"","pricing_plan_id":"cebpf4jnsgd1na2vs0mg"},{"bike_id":"c3d951ea-3701-4d76-8e41-09648beae56a","system_id":"levelo_inurba_marseille","lat":43.248606,"lon":5.373589,"is_reserved":false,"is_disabled":false,"rental_uris":{"android":"levelo://app?vid=c3d951ea-3701-4d76-8e41-09648beae56a","ios":"levelo://app?vid=c3d951ea-3701-4d76-8e41-09648beae56a"},"vehicle_type_id":"4","last_reported":1750849769,"current_range_meters":19200,"station_id":"","pricing_plan_id":"cebpf4jnsgd1na2vs0mg"},{"bike_id":"eb47095a-2b2e-478b-aeac-0b73e2938fa7","system_id":"levelo_inurba_marseille","lat":43.225036,"lon":5.347848,"is_reserved":false,"is_disabled":false,"rental_uris":{"android":"levelo://app?vid=eb47095a-2b2e-478b-aeac-0b73e2938fa7","ios":"levelo://app?vid=eb47095a-2b2e-478b-aeac-0b73e2938fa7"},"vehicle_type_id":"4","last_reported":1750849769,"current_range_meters":19200,"station_id":"","pricing_plan_id":"cebpf4jnsgd1na2vs0mg"},{"bike_id":"8557fc33-87d6-4fca-b152-7fca1f62839c","system_id":"levelo_inurba_marseille","lat":43.309034,"lon":5.368207,"is_reserved":false,"is_disabled":false,"rental_uris":{"android":"levelo://app?vid=8557fc33-87d6-4fca-b152-7fca1f62839c","ios":"levelo://app?vid=8557fc33-87d6-4fca-b152-7fca1f62839c"},"vehicle_type_id":"4","last_reported":1750849769,"current_range_meters":19200,"station_id":"ce4bgn92rcd13ifvqbvg","pricing_plan_id":"cebpf4jnsgd1na2vs0mg"},{"bike_id":"e02ee17a-07fe-4e02-b402-fef7cd8abb38","system_id":"levelo_inurba_marseille","lat":43.29224,"lon":5.36087,"is_reserved":false,"is_disabled":false,"rental_uris":{"android":"levelo://app?vid=e02ee17a-07fe-4e02-b402-fef7cd8abb38","ios":"levelo://app?vid=e02ee17a-07fe-4e02-b402-fef7cd8abb38"},"vehicle_type_id":"4","last_reported":1750849769,"current_range_meters":19200,"station_id":"ce4bhbh2rcd13ifvqeqg","pricing_plan_id":"cebpf4jnsgd1na2vs0mg"},{"bike_id":"57766eb6-2e70-4353-84b4-70195c3a5e42","system_id":"levelo_inurba_marseille","lat":43.26933,"lon":5.38922,"is_reserved":false,"is_disabled":false,"rental_uris":{"android":"levelo://app?vid=57766eb6-2e70-4353-84b4-70195c3a5e42","ios":"levelo://app?vid=57766eb6-2e70-4353-84b4-70195c3a5e42"},"vehicle_type_id":"4","last_reported":1750849769,"current_range_meters":19200,"station_id":"ce4bhhh2rcd13ifvqfl0","pricing_plan_id":"cebpf4jnsgd1na2vs0mg"},{"bike_id":"b935579a-e9d3-4ccf-a111-a22b8dbf997d","system_id":"levelo_inurba_marseille","lat":43.211931,"lon":5.350683,"is_reserved":false,"is_disabled":false,"rental_uris":{"android":"levelo://app?vid=b935579a-e9d3-4ccf-a111-a22b8dbf997d","ios":"levelo://app?vid=b935579a-e9d3-4ccf-a111-a22b8dbf997d"},"vehicle_type_id":"4","last_reported":1750849769,"current_range_meters":19200,"station_id":"st_cvj6sg6p6f1abm77japg","pricing_plan_id":"cebpf4jnsgd1na2vs0mg"},{"bike_id":"825000f5-2507-4a58-8d02-33bb05a3411e","system_id":"levelo_inurba_marseille","lat":43.30549,"lon":5.36526,"is_reserved":false,"is_disabled":false,"rental_uris":{"android":"levelo://app?vid=825000f5-2507-4a58-8d02-33bb05a3411e","ios":"levelo://app?vid=825000f5-2507-4a58-8d02-33bb05a3411e"},"vehicle_type_id":"4","last_reported":1750849769,"current_range_meters":19600,"station_id":"ce4bgs12rcd13ifvqcag","pricing_plan_id":"cebpf4jnsgd1na2vs0mg"},{"bike_id":"615aab7f-65da-4344-ad3d-31ba4c499f45","system_id":"levelo_inurba_marseille","lat":43.291901,"lon":5.393182,"is_reserved":false,"is_disabled":false,"rental_uris":{"android":"levelo://app?vid=615aab7f-65da-4344-ad3d-31ba4c499f45","ios":"levelo://app?vid=615aab7f-65da-4344-ad3d-31ba4c499f45"},"vehicle_type_id":"4","last_reported":1750849769,"current_range_meters":19600,"station_id":"ce4bh192rcd13ifvqdd0","pricing_plan_id":"cebpf4jnsgd1na2vs0mg"},{"bike_id":"f39b16ca-9fa5-4128-beff-f33283957e9d","system_id":"levelo_inurba_marseille","lat":43.282593,"lon":5.350551,"is_reserved":false,"is_disabled":false,"rental_uris":{"android":"levelo://app?vid=f39b16ca-9fa5-4128-beff-f33283957e9d","ios":"levelo://app?vid=f39b16ca-9fa5-4128-beff-f33283957e9d"},"vehicle_type_id":"4","last_reported":1750849769,"current_range_meters":19600,"station_id":"ce4bhbp2rcd13ifvqerg","pricing_plan_id":"cebpf4jnsgd1na2vs0mg"},{"bike_id":"5fad8d67-a56a-43af-aec9-fc59d1101bd8","system_id":"levelo_inurba_marseille","lat":43.25925,"lon":5.40893,"is_reserved":false,"is_disabled":false,"rental_uris":{"android":"levelo://app?vid=5fad8d67-a56a-43af-aec9-fc59d1101bd8","ios":"levelo://app?vid=5fad8d67-a56a-43af-aec9-fc59d1101bd8"},"vehicle_type_id":"4","last_reported":1750849769,"current_range_meters":19600,"station_id":"ce4bhm92rcd13ifvqglg","pricing_plan_id":"cebpf4jnsgd1na2vs0mg"},{"bike_id":"14ac0963-a9cf-4670-a599-1f0e324e6ed8","system_id":"levelo_inurba_marseille","lat":43.23166,"lon":5.43716,"is_reserved":false,"is_disabled":false,"rental_uris":{"android":"levelo://app?vid=14ac0963-a9cf-4670-a599-1f0e324e6ed8","ios":"levelo://app?vid=14ac0963-a9cf-4670-a599-1f0e324e6ed8"},"vehicle_type_id":"4","last_reported":1750849769,"current_range_meters":19600,"station_id":"ce4bhmp2rcd13ifvqgog","pricing_plan_id":"cebpf4jnsgd1na2vs0mg"},{"bike_id":"a12417ec-bd6d-424b-bf98-c5c6e382fbcd","system_id":"levelo_inurba_marseille","lat":43.23195,"lon":5.35557,"is_reserved":false,"is_disabled":false,"rental_uris":{"android":"levelo://app?vid=a12417ec-bd6d-424b-bf98-c5c6e382fbcd","ios":"levelo://app?vid=a12417ec-bd6d-424b-bf98-c5c6e382fbcd"},"vehicle_type_id":"4","last_reported":1750849769,"current_range_meters":19600,"station_id":"ce4bhu92rcd13ifvqi70","pricing_plan_id":"cebpf4jnsgd1na2vs0mg"},{"bike_id":"428b54da-55dd-4124-8a53-8e3ab70a97a1","system_id":"levelo_inurba_marseille","lat":43.26922,"lon":5.40296,"is_reserved":false,"is_disabled":false,"rental_uris":{"android":"levelo://app?vid=428b54da-55dd-4124-8a53-8e3ab70a97a1","ios":"levelo://app?vid=428b54da-55dd-4124-8a53-8e3ab70a97a1"},"vehicle_type_id":"4","last_reported":1750849769,"current_range_meters":19600,"station_id":"cjm6bp8fraef2m0cb0m0","pricing_plan_id":"cebpf4jnsgd1na2vs0mg"},{"bike_id":"86791643-75bd-4fa1-b8a8-975669855b2f","system_id":"levelo_inurba_marseille","lat":43.24173,"lon":5.36439,"is_reserved":false,"is_disabled":false,"rental_uris":{"android":"levelo://app?vid=86791643-75bd-4fa1-b8a8-975669855b2f","ios":"levelo://app?vid=86791643-75bd-4fa1-b8a8-975669855b2f"},"vehicle_type_id":"4","last_reported":1750849769,"current_range_meters":19600,"station_id":"cpo36qri1sfpv3e86is0","pricing_plan_id":"cebpf4jnsgd1na2vs0mg"},{"bike_id":"2b95c614-e1fd-4eac-a284-bfb8b159ed4b","system_id":"levelo_inurba_marseille","lat":43.27067,"lon":5.422862,"is_reserved":false,"is_disabled":false,"rental_uris":{"android":"levelo://app?vid=2b95c614-e1fd-4eac-a284-bfb8b159ed4b","ios":"levelo://app?vid=2b95c614-e1fd-4eac-a284-bfb8b159ed4b"},"vehicle_type_id":"4","last_reported":1750849769,"current_range_meters":20000,"station_id":"","pricing_plan_id":"cebpf4jnsgd1na2vs0mg"},{"bike_id":"7727c498-ea4a-4fa1-ac08-bf4cbf74c3f3","system_id":"levelo_inurba_marseille","lat":43.30527,"lon":5.367,"is_reserved":false,"is_disabled":false,"rental_uris":{"android":"levelo://app?vid=7727c498-ea4a-4fa1-ac08-bf4cbf74c3f3","ios":"levelo://app?vid=7727c498-ea4a-4fa1-ac08-bf4cbf74c3f3"},"vehicle_type_id":"4","last_reported":1750849769,"current_range_meters":20000,"station_id":"ce4bgrp2rcd13ifvqc9g","pricing_plan_id":"cebpf4jnsgd1na2vs0mg"},{"bike_id":"b7f26ad0-30ea-41a2-ada1-1df5db3a36b0","system_id":"levelo_inurba_marseille","lat":43.28102,"lon":5.37834,"is_reserved":false,"is_disabled":false,"rental_uris":{"android":"levelo://app?vid=b7f26ad0-30ea-41a2-ada1-1df5db3a36b0","ios":"levelo://app?vid=b7f26ad0-30ea-41a2-ada1-1df5db3a36b0"},"vehicle_type_id":"4","last_reported":1750849769,"current_range_meters":20000,"station_id":"ce4bha12rcd13ifvqee0","pricing_plan_id":"cebpf4jnsgd1na2vs0mg"},{"bike_id":"171140a5-0d11-4a6b-a17d-e3b3faf91a3c","system_id":"levelo_inurba_marseille","lat":43.270684,"lon":5.422787,"is_reserved":false,"is_disabled":false,"rental_uris":{"android":"levelo://app?vid=171140a5-0d11-4a6b-a17d-e3b3faf91a3c","ios":"levelo://app?vid=171140a5-0d11-4a6b-a17d-e3b3faf91a3c"},"vehicle_type_id":"4","last_reported":1750849769,"current_range_meters":20000,"station_id":"ce4bhk92rcd13ifvqgb0","pricing_plan_id":"cebpf4jnsgd1na2vs0mg"},{"bike_id":"0f6fcc44-6dc7-4cec-b104-36de0638835b","system_id":"levelo_inurba_marseille","lat":43.28411,"lon":5.37521,"is_reserved":false,"is_disabled":false,"rental_uris":{"android":"levelo://app?vid=0f6fcc44-6dc7-4cec-b104-36de0638835b","ios":"levelo://app?vid=0f6fcc44-6dc7-4cec-b104-36de0638835b"},"vehicle_type_id":"4","last_reported":1750849769,"current_range_meters":20400,"station_id":"ce4bh412rcd13ifvqds0","pricing_plan_id":"cebpf4jnsgd1na2vs0mg"},{"bike_id":"e379ed05-94ed-49ba-b7c4-6b696a7fff20","system_id":"levelo_inurba_marseille","lat":43.28421,"lon":5.34976,"is_reserved":false,"is_disabled":false,"rental_uris":{"android":"levelo://app?vid=e379ed05-94ed-49ba-b7c4-6b696a7fff20","ios":"levelo://app?vid=e379ed05-94ed-49ba-b7c4-6b696a7fff20"},"vehicle_type_id":"4","last_reported":1750849769,"current_range_meters":20400,"station_id":"ce4bhbh2rcd13ifvqepg","pricing_plan_id":"cebpf4jnsgd1na2vs0mg"},{"bike_id":"7955c207-4f12-4121-b9a1-09bcb47367b2","system_id":"levelo_inurba_marseille","lat":43.28497,"lon":5.45963,"is_reserved":false,"is_disabled":false,"rental_uris":{"android":"levelo://app?vid=7955c207-4f12-4121-b9a1-09bcb47367b2","ios":"levelo://app?vid=7955c207-4f12-4121-b9a1-09bcb47367b2"},"vehicle_type_id":"4","last_reported":1750849769,"current_range_meters":20800,"station_id":"","pricing_plan_id":"cebpf4jnsgd1na2vs0mg"},{"bike_id":"1d4fdb32-0cf6-42f2-a129-481fd8a4391c","system_id":"levelo_inurba_marseille","lat":43.29873,"lon":5.39732,"is_reserved":false,"is_disabled":false,"rental_uris":{"android":"levelo://app?vid=1d4fdb32-0cf6-42f2-a129-481fd8a4391c","ios":"levelo://app?vid=1d4fdb32-0cf6-42f2-a129-481fd8a4391c"},"vehicle_type_id":"4","last_reported":1750849769,"current_range_meters":20800,"station_id":"ce4bh0h2rcd13ifvqd50","pricing_plan_id":"cebpf4jnsgd1na2vs0mg"},{"bike_id":"fade8f9b-0dd9-4b20-aa4b-501e9039d3b9","system_id":"levelo_inurba_marseille","lat":43.292819,"lon":5.401182,"is_reserved":false,"is_disabled":false,"rental_uris":{"android":"levelo://app?vid=fade8f9b-0dd9-4b20-aa4b-501e9039d3b9","ios":"levelo://app?vid=fade8f9b-0dd9-4b20-aa4b-501e9039d3b9"},"vehicle_type_id":"4","last_reported":1750849769,"current_range_meters":20800,"station_id":"ce4bh312rcd13ifvqdk0","pricing_plan_id":"cebpf4jnsgd1na2vs0mg"},{"bike_id":"99c195e5-ee1a-47b1-82bf-d942b59bc889","system_id":"levelo_inurba_marseille","lat":43.2896,"lon":5.37836,"is_reserved":false,"is_disabled":false,"rental_uris":{"android":"levelo://app?vid=99c195e5-ee1a-47b1-82bf-d942b59bc889","ios":"levelo://app?vid=99c195e5-ee1a-47b1-82bf-d942b59bc889"},"vehicle_type_id":"4","last_reported":1750849769,"current_range_meters":20800,"station_id":"ce4bh9p2rcd13ifvqed0","pricing_plan_id":"cebpf4jnsgd1na2vs0mg"},{"bike_id":"f8702e91-173f-4cec-9122-eeca339c49fb","system_id":"levelo_inurba_marseille","lat":43.284218,"lon":5.349927,"is_reserved":false,"is_disabled":false,"rental_uris":{"android":"levelo://app?vid=f8702e91-173f-4cec-9122-eeca339c49fb","ios":"levelo://app?vid=f8702e91-173f-4cec-9122-eeca339c49fb"},"vehicle_type_id":"4","last_reported":1750849769,"current_range_meters":20800,"station_id":"ce4bhbh2rcd13ifvqepg","pricing_plan_id":"cebpf4jnsgd1na2vs0mg"},{"bike_id":"612357d3-296e-4582-920f-bd6f795f9a8b","system_id":"levelo_inurba_marseille","lat":43.26552,"lon":5.37283,"is_reserved":false,"is_disabled":false,"rental_uris":{"android":"levelo://app?vid=612357d3-296e-4582-920f-bd6f795f9a8b","ios":"levelo://app?vid=612357d3-296e-4582-920f-bd6f795f9a8b"},"vehicle_type_id":"4","last_reported":1750849769,"current_range_meters":20800,"station_id":"ce4bhg12rcd13ifvqf70","pricing_plan_id":"cebpf4jnsgd1na2vs0mg"},{"bike_id":"c8ebca9a-1366-46b6-81bc-44edc097b8d7","system_id":"levelo_inurba_marseille","lat":43.23964,"lon":5.36628,"is_reserved":false,"is_disabled":false,"rental_uris":{"android":"levelo://app?vid=c8ebca9a-1366-46b6-81bc-44edc097b8d7","ios":"levelo://app?vid=c8ebca9a-1366-46b6-81bc-44edc097b8d7"},"vehicle_type_id":"4","last_reported":1750849769,"current_range_meters":20800,"station_id":"ce4bhi12rcd13ifvqfp0","pricing_plan_id":"cebpf4jnsgd1na2vs0mg"},{"bike_id":"d05edab7-f30d-4e7a-bc93-3002a9d6152c","system_id":"levelo_inurba_marseille","lat":43.23961,"lon":5.36623,"is_reserved":false,"is_disabled":false,"rental_uris":{"android":"levelo://app?vid=d05edab7-f30d-4e7a-bc93-3002a9d6152c","ios":"levelo://app?vid=d05edab7-f30d-4e7a-bc93-3002a9d6152c"},"vehicle_type_id":"4","last_reported":1750849769,"current_range_meters":20800,"station_id":"ce4bhi12rcd13ifvqfp0","pricing_plan_id":"cebpf4jnsgd1na2vs0mg"},{"bike_id":"cff600c7-5c05-495c-a147-74cd6dcc6e99","system_id":"levelo_inurba_marseille","lat":43.25124,"lon":5.4032,"is_reserved":false,"is_disabled":false,"rental_uris":{"android":"levelo://app?vid=cff600c7-5c05-495c-a147-74cd6dcc6e99","ios":"levelo://app?vid=cff600c7-5c05-495c-a147-74cd6dcc6e99"},"vehicle_type_id":"4","last_reported":1750849769,"current_range_meters":20800,"station_id":"ce4bhlh2rcd13ifvqgig","pricing_plan_id":"cebpf4jnsgd1na2vs0mg"},{"bike_id":"f7e88311-f49c-4392-82e9-3287c8ba9213","system_id":"levelo_inurba_marseille","lat":43.23182,"lon":5.39981,"is_reserved":false,"is_disabled":false,"rental_uris":{"android":"levelo://app?vid=f7e88311-f49c-4392-82e9-3287c8ba9213","ios":"levelo://app?vid=f7e88311-f49c-4392-82e9-3287c8ba9213"},"vehicle_type_id":"4","last_reported":1750849769,"current_range_meters":20800,"station_id":"ce4bhn12rcd13ifvqgqg","pricing_plan_id":"cebpf4jnsgd1na2vs0mg"},{"bike_id":"08a0f92e-e906-4922-92ba-58ae3d644ef3","system_id":"levelo_inurba_marseille","lat":43.33614,"lon":5.41024,"is_reserved":false,"is_disabled":false,"rental_uris":{"android":"levelo://app?vid=08a0f92e-e906-4922-92ba-58ae3d644ef3","ios":"levelo://app?vid=08a0f92e-e906-4922-92ba-58ae3d644ef3"},"vehicle_type_id":"4","last_reported":1750849769,"current_range_meters":20800,"station_id":"ce4bhqh2rcd13ifvqhmg","pricing_plan_id":"cebpf4jnsgd1na2vs0mg"},{"bike_id":"f47876d7-9c85-474e-92c5-7a242e08b67c","system_id":"levelo_inurba_marseille","lat":43.297743,"lon":5.373442,"is_reserved":false,"is_disabled":false,"rental_uris":{"android":"levelo://app?vid=f47876d7-9c85-474e-92c5-7a242e08b67c","ios":"levelo://app?vid=f47876d7-9c85-474e-92c5-7a242e08b67c"},"vehicle_type_id":"4","last_reported":1750849769,"current_range_meters":21600,"station_id":"","pricing_plan_id":"cebpf4jnsgd1na2vs0mg"},{"bike_id":"02934308-f8b1-4bce-8a0e-535075e58ad6","system_id":"levelo_inurba_marseille","lat":43.281526,"lon":5.426423,"is_reserved":false,"is_disabled":false,"rental_uris":{"android":"levelo://app?vid=02934308-f8b1-4bce-8a0e-535075e58ad6","ios":"levelo://app?vid=02934308-f8b1-4bce-8a0e-535075e58ad6"},"vehicle_type_id":"4","last_reported":1750849769,"current_range_meters":21600,"station_id":"","pricing_plan_id":"cebpf4jnsgd1na2vs0mg"},{"bike_id":"7f6764b0-d850-4515-8f81-862e560fb1dc","system_id":"levelo_inurba_marseille","lat":43.30536,"lon":5.36533,"is_reserved":false,"is_disabled":false,"rental_uris":{"android":"levelo://app?vid=7f6764b0-d850-4515-8f81-862e560fb1dc","ios":"levelo://app?vid=7f6764b0-d850-4515-8f81-862e560fb1dc"},