{"last_updated":1773260587,"ttl":60,"version":"2.2","data":{"bikes":[{"bike_id":"89d1fa59-ae62-4cc3-9579-ecd8ebb9f737","system_id":"levelo_inurba_marseille","lat":43.27836,"lon":5.39207,"is_reserved":false,"is_disabled":false,"rental_uris":{"android":"levelo://app?vid=89d1fa59-ae62-4cc3-9579-ecd8ebb9f737","ios":"levelo://app?vid=89d1fa59-ae62-4cc3-9579-ecd8ebb9f737"},"vehicle_type_id":"4","last_reported":1773260587,"current_range_meters":8000,"station_id":"ce4bhjp2rcd13ifvqga0","pricing_plan_id":"cebpf4jnsgd1na2vs0mg"},{"bike_id":"e44ebc0e-01f0-45a4-a7c8-8bad86acb26d","system_id":"levelo_inurba_marseille","lat":43.28952,"lon":5.36441,"is_reserved":false,"is_disabled":false,"rental_uris":{"android":"levelo://app?vid=e44ebc0e-01f0-45a4-a7c8-8bad86acb26d","ios":"levelo://app?vid=e44ebc0e-01f0-45a4-a7c8-8bad86acb26d"},"vehicle_type_id":"4","last_reported":1773260587,"current_range_meters":40000,"station_id":"ce4bhc92rcd13ifvqetg","pricing_plan_id":"cebpf4jnsgd1na2vs0mg"},{"bike_id":"ae845d34-64de-4cc8-838f-99cd7018af1b","system_id":"levelo_inurba_marseille","lat":43.2952,"lon":5.39402,"is_reserved":false,"is_disabled":false,"rental_uris":{"android":"levelo://app?vid=ae845d34-64de-4cc8-838f-99cd7018af1b","ios":"levelo://app?vid=ae845d34-64de-4cc8-838f-99cd7018af1b"},"vehicle_type_id":"4","last_reported":1773260587,"current_range_meters":7200,"station_id":"ce4bh292rcd13ifvqdf0","pricing_plan_id":"cebpf4jnsgd1na2vs0mg"},{"bike_id":"4be77d38-c392-42b9-a030-a01840bf73ea","system_id":"levelo_inurba_marseille","lat":43.29299,"lon":5.37156,"is_reserved":false,"is_disabled":false,"rental_uris":{"android":"levelo://app?vid=4be77d38-c392-42b9-a030-a01840bf73ea","ios":"levelo://app?vid=4be77d38-c392-42b9-a030-a01840bf73ea"},"vehicle_type_id":"4","last_reported":1773260587,"current_range_meters":6800,"station_id":"ce4bgh92rcd13ifvqb40","pricing_plan_id":"cebpf4jnsgd1na2vs0mg"},{"bike_id":"30c4f22b-f532-425d-9f66-ac38104cea9d","system_id":"levelo_inurba_marseille","lat":43.28546,"lon":5.44102,"is_reserved":false,"is_disabled":false,"rental_uris":{"android":"levelo://app?vid=30c4f22b-f532-425d-9f66-ac38104cea9d","ios":"levelo://app?vid=30c4f22b-f532-425d-9f66-ac38104cea9d"},"vehicle_type_id":"4","last_reported":1773260587,"current_range_meters":16000,"station_id":"st_d3j3df2ikq2c7380ej80","pricing_plan_id":"cebpf4jnsgd1na2vs0mg"},{"bike_id":"4d2ed247-c300-416c-8c6f-d2ecc9f55d1f","system_id":"levelo_inurba_marseille","lat":43.2927,"lon":5.40172,"is_reserved":false,"is_disabled":false,"rental_uris":{"android":"levelo://app?vid=4d2ed247-c300-416c-8c6f-d2ecc9f55d1f","ios":"levelo://app?vid=4d2ed247-c300-416c-8c6f-d2ecc9f55d1f"},"vehicle_type_id":"4","last_reported":1773260587,"current_range_meters":11200,"station_id":"ce4bh312rcd13ifvqdk0","pricing_plan_id":"cebpf4jnsgd1na2vs0mg"},{"bike_id":"ebe32b8b-34b1-4a29-844f-bfc9e0c7e715","system_id":"levelo_inurba_marseille","lat":43.2844,"lon":5.35948,"is_reserved":false,"is_disabled":false,"rental_uris":{"android":"levelo://app?vid=ebe32b8b-34b1-4a29-844f-bfc9e0c7e715","ios":"levelo://app?vid=ebe32b8b-34b1-4a29-844f-bfc9e0c7e715"},"vehicle_type_id":"4","last_reported":1773260587,"current_range_meters":24800,"station_id":"","pricing_plan_id":"cebpf4jnsgd1na2vs0mg"},{"bike_id":"2dde38a6-7040-4591-b258-f00f6d384fc3","system_id":"levelo_inurba_marseille","lat":43.33022,"lon":5.39042,"is_reserved":false,"is_disabled":false,"rental_uris":{"android":"levelo://app?vid=2dde38a6-7040-4591-b258-f00f6d384fc3","ios":"levelo://app?vid=2dde38a6-7040-4591-b258-f00f6d384fc3"},"vehicle_type_id":"4","last_reported":1773260587,"current_range_meters":37600,"station_id":"ce4bhr92rcd13ifvqhrg","pricing_plan_id":"cebpf4jnsgd1na2vs0mg"},{"bike_id":"5061e64b-7a6f-416d-95f6-434ea56b6a99","system_id":"levelo_inurba_marseille","lat":43.3464,"lon":5.36722,"is_reserved":false,"is_disabled":false,"rental_uris":{"android":"levelo://app?vid=5061e64b-7a6f-416d-95f6-434ea56b6a99","ios":"levelo://app?vid=5061e64b-7a6f-416d-95f6-434ea56b6a99"},"vehicle_type_id":"4","last_reported":1773260587,"current_range_meters":28000,"station_id":"","pricing_plan_id":"cebpf4jnsgd1na2vs0mg"},{"bike_id":"07e66474-47e3-4e90-8266-52e167621e9d","system_id":"levelo_inurba_marseille","lat":43.2957,"lon":5.3751,"is_reserved":false,"is_disabled":false,"rental_uris":{"android":"levelo://app?vid=07e66474-47e3-4e90-8266-52e167621e9d","ios":"levelo://app?vid=07e66474-47e3-4e90-8266-52e167621e9d"},"vehicle_type_id":"4","last_reported":1773260587,"current_range_meters":25600,"station_id":"ce4bgh92rcd13ifvqb50","pricing_plan_id":"cebpf4jnsgd1na2vs0mg"},{"bike_id":"9faea34b-1c48-4a1b-8f51-2bafe5184a50","system_id":"levelo_inurba_marseille","lat":43.28478,"lon":5.48396,"is_reserved":false,"is_disabled":false,"rental_uris":{"android":"levelo://app?vid=9faea34b-1c48-4a1b-8f51-2bafe5184a50","ios":"levelo://app?vid=9faea34b-1c48-4a1b-8f51-2bafe5184a50"},"vehicle_type_id":"4","last_reported":1773260587,"current_range_meters":33600,"station_id":"st_d3svhcjqgbts73a3dn0g","pricing_plan_id":"cebpf4jnsgd1na2vs0mg"},{"bike_id":"f6aab1a6-bca6-41c1-89e6-0a624aa47df5","system_id":"levelo_inurba_marseille","lat":43.2953,"lon":5.37612,"is_reserved":false,"is_disabled":false,"rental_uris":{"android":"levelo://app?vid=f6aab1a6-bca6-41c1-89e6-0a624aa47df5","ios":"levelo://app?vid=f6aab1a6-bca6-41c1-89e6-0a624aa47df5"},"vehicle_type_id":"4","last_reported":1773260587,"current_range_meters":26800,"station_id":"","pricing_plan_id":"cebpf4jnsgd1na2vs0mg"},{"bike_id":"d427d34d-e739-4c0f-a843-74b85111544b","system_id":"levelo_inurba_marseille","lat":43.33166,"lon":5.37683,"is_reserved":false,"is_disabled":false,"rental_uris":{"android":"levelo://app?vid=d427d34d-e739-4c0f-a843-74b85111544b","ios":"levelo://app?vid=d427d34d-e739-4c0f-a843-74b85111544b"},"vehicle_type_id":"4","last_reported":1773260587,"current_range_meters":25600,"station_id":"st_d46cu089ee8s73dldbu0","pricing_plan_id":"cebpf4jnsgd1na2vs0mg"},{"bike_id":"9315b6b2-babf-4aeb-b7cd-e35eb9bf53cd","system_id":"levelo_inurba_marseille","lat":43.28755,"lon":5.38307,"is_reserved":false,"is_disabled":true,"rental_uris":{"android":"levelo://app?vid=9315b6b2-babf-4aeb-b7cd-e35eb9bf53cd","ios":"levelo://app?vid=9315b6b2-babf-4aeb-b7cd-e35eb9bf53cd"},"vehicle_type_id":"4","last_reported":1773260587,"current_range_meters":37600,"station_id":"","pricing_plan_id":"cebpf4jnsgd1na2vs0mg"},{"bike_id":"6d331a83-28a7-4754-bf56-1eec6384f11e","system_id":"levelo_inurba_marseille","lat":43.31503,"lon":5.3731,"is_reserved":false,"is_disabled":true,"rental_uris":{"android":"levelo://app?vid=6d331a83-28a7-4754-bf56-1eec6384f11e","ios":"levelo://app?vid=6d331a83-28a7-4754-bf56-1eec6384f11e"},"vehicle_type_id":"4","last_reported":1773260587,"current_range_meters":8400,"station_id":"ce4bgt12rcd13ifvqcd0","pricing_plan_id":"cebpf4jnsgd1na2vs0mg"},{"bike_id":"c943c8f2-fd97-497f-b02c-47e60712859d","system_id":"levelo_inurba_marseille","lat":43.25837,"lon":5.39417,"is_reserved":false,"is_disabled":false,"rental_uris":{"android":"levelo://app?vid=c943c8f2-fd97-497f-b02c-47e60712859d","ios":"levelo://app?vid=c943c8f2-fd97-497f-b02c-47e60712859d"},"vehicle_type_id":"4","last_reported":1773260587,"current_range_meters":26800,"station_id":"ce4bhip2rcd13ifvqft0","pricing_plan_id":"cebpf4jnsgd1na2vs0mg"},{"bike_id":"56c68e25-4665-4a2d-a0c8-6e5c0e7586df","system_id":"levelo_inurba_marseille","lat":43.28467,"lon":5.35882,"is_reserved":false,"is_disabled":false,"rental_uris":{"android":"levelo://app?vid=56c68e25-4665-4a2d-a0c8-6e5c0e7586df","ios":"levelo://app?vid=56c68e25-4665-4a2d-a0c8-6e5c0e7586df"},"vehicle_type_id":"4","last_reported":1773260587,"current_range_meters":10000,"station_id":"ce4bhah2rcd13ifvqei0","pricing_plan_id":"cebpf4jnsgd1na2vs0mg"},{"bike_id":"c391c064-50a6-465a-82d4-1fa7a19fdca3","system_id":"levelo_inurba_marseille","lat":43.29862,"lon":5.36283,"is_reserved":false,"is_disabled":false,"rental_uris":{"android":"levelo://app?vid=c391c064-50a6-465a-82d4-1fa7a19fdca3","ios":"levelo://app?vid=c391c064-50a6-465a-82d4-1fa7a19fdca3"},"vehicle_type_id":"4","last_reported":1773260587,"current_range_meters":34000,"station_id":"ce4bgpp2rcd13ifvqc3g","pricing_plan_id":"cebpf4jnsgd1na2vs0mg"},{"bike_id":"63aca6ef-d155-4097-bdd2-67385409e872","system_id":"levelo_inurba_marseille","lat":43.30081,"lon":5.3865,"is_reserved":false,"is_disabled":false,"rental_uris":{"android":"levelo://app?vid=63aca6ef-d155-4097-bdd2-67385409e872","ios":"levelo://app?vid=63aca6ef-d155-4097-bdd2-67385409e872"},"vehicle_type_id":"4","last_reported":1773260587,"current_range_meters":6400,"station_id":"","pricing_plan_id":"cebpf4jnsgd1na2vs0mg"},{"bike_id":"8ca3dbf8-b9c8-4c6b-a1d6-ef1b939960ca","system_id":"levelo_inurba_marseille","lat":43.3129,"lon":5.36897,"is_reserved":false,"is_disabled":false,"rental_uris":{"android":"levelo://app?vid=8ca3dbf8-b9c8-4c6b-a1d6-ef1b939960ca","ios":"levelo://app?vid=8ca3dbf8-b9c8-4c6b-a1d6-ef1b939960ca"},"vehicle_type_id":"4","last_reported":1773260587,"current_range_meters":36000,"station_id":"ce4bgl92rcd13ifvqbq0","pricing_plan_id":"cebpf4jnsgd1na2vs0mg"},{"bike_id":"b93a357c-54e0-4442-be00-cbc58767907f","system_id":"levelo_inurba_marseille","lat":43.32051,"lon":5.41549,"is_reserved":false,"is_disabled":false,"rental_uris":{"android":"levelo://app?vid=b93a357c-54e0-4442-be00-cbc58767907f","ios":"levelo://app?vid=b93a357c-54e0-4442-be00-cbc58767907f"},"vehicle_type_id":"4","last_reported":1773260587,"current_range_meters":37600,"station_id":"ce4bhq92rcd13ifvqhkg","pricing_plan_id":"cebpf4jnsgd1na2vs0mg"},{"bike_id":"c1ec77a3-84f4-47db-94b6-6aec401b4b2a","system_id":"levelo_inurba_marseille","lat":43.29605,"lon":5.38109,"is_reserved":false,"is_disabled":false,"rental_uris":{"android":"levelo://app?vid=c1ec77a3-84f4-47db-94b6-6aec401b4b2a","ios":"levelo://app?vid=c1ec77a3-84f4-47db-94b6-6aec401b4b2a"},"vehicle_type_id":"4","last_reported":1773260587,"current_range_meters":19600,"station_id":"ce4bgl12rcd13ifvqbo0","pricing_plan_id":"cebpf4jnsgd1na2vs0mg"},{"bike_id":"4fcad8f7-5602-43c6-a379-def3e1a2790e","system_id":"levelo_inurba_marseille","lat":43.275,"lon":5.42421,"is_reserved":false,"is_disabled":false,"rental_uris":{"android":"levelo://app?vid=4fcad8f7-5602-43c6-a379-def3e1a2790e","ios":"levelo://app?vid=4fcad8f7-5602-43c6-a379-def3e1a2790e"},"vehicle_type_id":"4","last_reported":1773260587,"current_range_meters":22000,"station_id":"ce4bhn92rcd13ifvqgrg","pricing_plan_id":"cebpf4jnsgd1na2vs0mg"},{"bike_id":"55bcc017-9e41-40f3-a9de-397b47690482","system_id":"levelo_inurba_marseille","lat":43.32658,"lon":5.40997,"is_reserved":false,"is_disabled":false,"rental_uris":{"android":"levelo://app?vid=55bcc017-9e41-40f3-a9de-397b47690482","ios":"levelo://app?vid=55bcc017-9e41-40f3-a9de-397b47690482"},"vehicle_type_id":"4","last_reported":1773260587,"current_range_meters":33600,"station_id":"ce4bhpp2rcd13ifvqhgg","pricing_plan_id":"cebpf4jnsgd1na2vs0mg"},{"bike_id":"0fac1ee2-7b00-493e-80ea-8b4c3c2d6dd6","system_id":"levelo_inurba_marseille","lat":43.27928,"lon":5.3958,"is_reserved":false,"is_disabled":false,"rental_uris":{"android":"levelo://app?vid=0fac1ee2-7b00-493e-80ea-8b4c3c2d6dd6","ios":"levelo://app?vid=0fac1ee2-7b00-493e-80ea-8b4c3c2d6dd6"},"vehicle_type_id":"4","last_reported":1773260587,"current_range_meters":35600,"station_id":"ce4bhf92rcd13ifvqf40","pricing_plan_id":"cebpf4jnsgd1na2vs0mg"},{"bike_id":"ee0c4ae4-ffe3-41e3-b01f-c08b28367962","system_id":"levelo_inurba_marseille","lat":43.31074,"lon":5.42516,"is_reserved":false,"is_disabled":false,"rental_uris":{"android":"levelo://app?vid=ee0c4ae4-ffe3-41e3-b01f-c08b28367962","ios":"levelo://app?vid=ee0c4ae4-ffe3-41e3-b01f-c08b28367962"},"vehicle_type_id":"4","last_reported":1773260587,"current_range_meters":32000,"station_id":"","pricing_plan_id":"cebpf4jnsgd1na2vs0mg"},{"bike_id":"f18a97ed-e43a-4a4a-9a1c-f27f3fa368f5","system_id":"levelo_inurba_marseille","lat":43.27972,"lon":5.41045,"is_reserved":false,"is_disabled":false,"rental_uris":{"android":"levelo://app?vid=f18a97ed-e43a-4a4a-9a1c-f27f3fa368f5","ios":"levelo://app?vid=f18a97ed-e43a-4a4a-9a1c-f27f3fa368f5"},"vehicle_type_id":"4","last_reported":1773260587,"current_range_meters":19600,"station_id":"ce4bhnp2rcd13ifvqh0g","pricing_plan_id":"cebpf4jnsgd1na2vs0mg"},{"bike_id":"dff113db-6a7a-461e-b72f-90f51c696866","system_id":"levelo_inurba_marseille","lat":43.31085,"lon":5.42452,"is_reserved":false,"is_disabled":false,"rental_uris":{"android":"levelo://app?vid=dff113db-6a7a-461e-b72f-90f51c696866","ios":"levelo://app?vid=dff113db-6a7a-461e-b72f-90f51c696866"},"vehicle_type_id":"4","last_reported":1773260587,"current_range_meters":32000,"station_id":"ce4bhp92rcd13ifvqhag","pricing_plan_id":"cebpf4jnsgd1na2vs0mg"},{"bike_id":"2910c25c-8e17-4198-83e3-9b82182f5216","system_id":"levelo_inurba_marseille","lat":43.24167,"lon":5.36386,"is_reserved":false,"is_disabled":false,"rental_uris":{"android":"levelo://app?vid=2910c25c-8e17-4198-83e3-9b82182f5216","ios":"levelo://app?vid=2910c25c-8e17-4198-83e3-9b82182f5216"},"vehicle_type_id":"4","last_reported":1773260587,"current_range_meters":32000,"station_id":"cpo36qri1sfpv3e86is0","pricing_plan_id":"cebpf4jnsgd1na2vs0mg"},{"bike_id":"b4c5f4b8-a1ad-40fa-afb2-512ebcf9ac7a","system_id":"levelo_inurba_marseille","lat":43.30137,"lon":5.38777,"is_reserved":false,"is_disabled":true,"rental_uris":{"android":"levelo://app?vid=b4c5f4b8-a1ad-40fa-afb2-512ebcf9ac7a","ios":"levelo://app?vid=b4c5f4b8-a1ad-40fa-afb2-512ebcf9ac7a"},"vehicle_type_id":"4","last_reported":1773260587,"current_range_meters":30400,"station_id":"ce4bghh2rcd13ifvqb60","pricing_plan_id":"cebpf4jnsgd1na2vs0mg"},{"bike_id":"9c251fdd-ca74-4c8d-8d71-2df5ef872bbc","system_id":"levelo_inurba_marseille","lat":43.24465,"lon":5.4254,"is_reserved":false,"is_disabled":false,"rental_uris":{"android":"levelo://app?vid=9c251fdd-ca74-4c8d-8d71-2df5ef872bbc","ios":"levelo://app?vid=9c251fdd-ca74-4c8d-8d71-2df5ef872bbc"},"vehicle_type_id":"4","last_reported":1773260587,"current_range_meters":28400,"station_id":"st_d4a3vfp97mjs738cd8kg","pricing_plan_id":"cebpf4jnsgd1na2vs0mg"},{"bike_id":"79575cb5-230d-45b5-8535-ba65ecb9d505","system_id":"levelo_inurba_marseille","lat":43.258128,"lon":5.376125,"is_reserved":false,"is_disabled":false,"rental_uris":{"android":"levelo://app?vid=79575cb5-230d-45b5-8535-ba65ecb9d505","ios":"levelo://app?vid=79575cb5-230d-45b5-8535-ba65ecb9d505"},"vehicle_type_id":"4","last_reported":1773260587,"current_range_meters":8800,"station_id":"ce4bhh92rcd13ifvqfh0","pricing_plan_id":"cebpf4jnsgd1na2vs0mg"},{"bike_id":"22048dba-791d-40fe-8f4b-149144b0d986","system_id":"levelo_inurba_marseille","lat":43.29302,"lon":5.37166,"is_reserved":false,"is_disabled":false,"rental_uris":{"android":"levelo://app?vid=22048dba-791d-40fe-8f4b-149144b0d986","ios":"levelo://app?vid=22048dba-791d-40fe-8f4b-149144b0d986"},"vehicle_type_id":"4","last_reported":1773260587,"current_range_meters":20400,"station_id":"ce4bgh92rcd13ifvqb40","pricing_plan_id":"cebpf4jnsgd1na2vs0mg"},{"bike_id":"397b6f06-43b8-4664-aa45-b24cbf1f1ac6","system_id":"levelo_inurba_marseille","lat":43.29013,"lon":5.38649,"is_reserved":false,"is_disabled":false,"rental_uris":{"android":"levelo://app?vid=397b6f06-43b8-4664-aa45-b24cbf1f1ac6","ios":"levelo://app?vid=397b6f06-43b8-4664-aa45-b24cbf1f1ac6"},"vehicle_type_id":"4","last_reported":1773260587,"current_range_meters":36400,"station_id":"ce4bh4p2rcd13ifvqe0g","pricing_plan_id":"cebpf4jnsgd1na2vs0mg"},{"bike_id":"5f07755a-3912-4ddf-8464-07c64b4c9887","system_id":"levelo_inurba_marseille","lat":43.29186,"lon":5.39317,"is_reserved":false,"is_disabled":false,"rental_uris":{"android":"levelo://app?vid=5f07755a-3912-4ddf-8464-07c64b4c9887","ios":"levelo://app?vid=5f07755a-3912-4ddf-8464-07c64b4c9887"},"vehicle_type_id":"4","last_reported":1773260587,"current_range_meters":36400,"station_id":"ce4bh192rcd13ifvqdd0","pricing_plan_id":"cebpf4jnsgd1na2vs0mg"},{"bike_id":"c2441c59-7373-49a0-a4bd-68048c9164f3","system_id":"levelo_inurba_marseille","lat":43.25341,"lon":5.42174,"is_reserved":false,"is_disabled":false,"rental_uris":{"android":"levelo://app?vid=c2441c59-7373-49a0-a4bd-68048c9164f3","ios":"levelo://app?vid=c2441c59-7373-49a0-a4bd-68048c9164f3"},"vehicle_type_id":"4","last_reported":1773260587,"current_range_meters":30400,"station_id":"st_d2m65c5bi1j21697t3ng","pricing_plan_id":"cebpf4jnsgd1na2vs0mg"},{"bike_id":"f447dddf-b393-4f20-97e4-b1db10b26633","system_id":"levelo_inurba_marseille","lat":43.25012,"lon":5.38951,"is_reserved":false,"is_disabled":false,"rental_uris":{"android":"levelo://app?vid=f447dddf-b393-4f20-97e4-b1db10b26633","ios":"levelo://app?vid=f447dddf-b393-4f20-97e4-b1db10b26633"},"vehicle_type_id":"4","last_reported":1773260587,"current_range_meters":39200,"station_id":"ce4bhgp2rcd13ifvqfd0","pricing_plan_id":"cebpf4jnsgd1na2vs0mg"},{"bike_id":"9d513335-a090-4c98-94fa-a125c9ccc271","system_id":"levelo_inurba_marseille","lat":43.25337,"lon":5.42173,"is_reserved":false,"is_disabled":false,"rental_uris":{"android":"levelo://app?vid=9d513335-a090-4c98-94fa-a125c9ccc271","ios":"levelo://app?vid=9d513335-a090-4c98-94fa-a125c9ccc271"},"vehicle_type_id":"4","last_reported":1773260587,"current_range_meters":10800,"station_id":"st_d2m65c5bi1j21697t3ng","pricing_plan_id":"cebpf4jnsgd1na2vs0mg"},{"bike_id":"2d139dbe-4a51-46ac-bf7e-5e630dc6608b","system_id":"levelo_inurba_marseille","lat":43.30908,"lon":5.38271,"is_reserved":false,"is_disabled":false,"rental_uris":{"android":"levelo://app?vid=2d139dbe-4a51-46ac-bf7e-5e630dc6608b","ios":"levelo://app?vid=2d139dbe-4a51-46ac-bf7e-5e630dc6608b"},"vehicle_type_id":"4","last_reported":1773260587,"current_range_meters":17600,"station_id":"","pricing_plan_id":"cebpf4jnsgd1na2vs0mg"},{"bike_id":"9885b561-3c5d-4024-b1a5-0a291b22cfd8","system_id":"levelo_inurba_marseille","lat":43.29439,"lon":5.37321,"is_reserved":false,"is_disabled":false,"rental_uris":{"android":"levelo://app?vid=9885b561-3c5d-4024-b1a5-0a291b22cfd8","ios":"levelo://app?vid=9885b561-3c5d-4024-b1a5-0a291b22cfd8"},"vehicle_type_id":"4","last_reported":1773260587,"current_range_meters":7200,"station_id":"","pricing_plan_id":"cebpf4jnsgd1na2vs0mg"},{"bike_id":"35552106-97e8-47c0-84c3-5c4e8316363f","system_id":"levelo_inurba_marseille","lat":43.29776,"lon":5.37111,"is_reserved":false,"is_disabled":false,"rental_uris":{"android":"levelo://app?vid=35552106-97e8-47c0-84c3-5c4e8316363f","ios":"levelo://app?vid=35552106-97e8-47c0-84c3-5c4e8316363f"},"vehicle_type_id":"4","last_reported":1773260587,"current_range_meters":27600,"station_id":"ce4bgop2rcd13ifvqc1g","pricing_plan_id":"cebpf4jnsgd1na2vs0mg"},{"bike_id":"28fd1652-af0c-41ea-bccc-4c14d4c7f590","system_id":"levelo_inurba_marseille","lat":43.30603,"lon":5.37204,"is_reserved":false,"is_disabled":false,"rental_uris":{"android":"levelo://app?vid=28fd1652-af0c-41ea-bccc-4c14d4c7f590","ios":"levelo://app?vid=28fd1652-af0c-41ea-bccc-4c14d4c7f590"},"vehicle_type_id":"4","last_reported":1773260587,"current_range_meters":36000,"station_id":"ce4bgqh2rcd13ifvqc4g","pricing_plan_id":"cebpf4jnsgd1na2vs0mg"},{"bike_id":"17ce7070-d813-4eaf-a544-6259968aa271","system_id":"levelo_inurba_marseille","lat":43.31184,"lon":5.36867,"is_reserved":false,"is_disabled":false,"rental_uris":{"android":"levelo://app?vid=17ce7070-d813-4eaf-a544-6259968aa271","ios":"levelo://app?vid=17ce7070-d813-4eaf-a544-6259968aa271"},"vehicle_type_id":"4","last_reported":1773260587,"current_range_meters":8400,"station_id":"ce4bgl92rcd13ifvqbq0","pricing_plan_id":"cebpf4jnsgd1na2vs0mg"},{"bike_id":"149775d8-c772-45f9-afbd-6e4a652723d7","system_id":"levelo_inurba_marseille","lat":43.337444,"lon":5.374475,"is_reserved":false,"is_disabled":true,"rental_uris":{"android":"levelo://app?vid=149775d8-c772-45f9-afbd-6e4a652723d7","ios":"levelo://app?vid=149775d8-c772-45f9-afbd-6e4a652723d7"},"vehicle_type_id":"4","last_reported":1773260587,"current_range_meters":4400,"station_id":"","pricing_plan_id":"cebpf4jnsgd1na2vs0mg"},{"bike_id":"368f16f3-fb21-431a-a473-b864f7a4ece2","system_id":"levelo_inurba_marseille","lat":43.29736,"lon":5.37666,"is_reserved":false,"is_disabled":false,"rental_uris":{"android":"levelo://app?vid=368f16f3-fb21-431a-a473-b864f7a4ece2","ios":"levelo://app?vid=368f16f3-fb21-431a-a473-b864f7a4ece2"},"vehicle_type_id":"4","last_reported":1773260587,"current_range_meters":37600,"station_id":"ce4bgkh2rcd13ifvqbl0","pricing_plan_id":"cebpf4jnsgd1na2vs0mg"},{"bike_id":"84edac93-97f0-4f16-980c-7e1b057bc44a","system_id":"levelo_inurba_marseille","lat":43.25828,"lon":5.39429,"is_reserved":false,"is_disabled":false,"rental_uris":{"android":"levelo://app?vid=84edac93-97f0-4f16-980c-7e1b057bc44a","ios":"levelo://app?vid=84edac93-97f0-4f16-980c-7e1b057bc44a"},"vehicle_type_id":"4","last_reported":1773260587,"current_range_meters":25200,"station_id":"ce4bhip2rcd13ifvqft0","pricing_plan_id":"cebpf4jnsgd1na2vs0mg"},{"bike_id":"16ced00d-b75b-480f-bfe3-587817c52078","system_id":"levelo_inurba_marseille","lat":43.24673,"lon":5.38898,"is_reserved":false,"is_disabled":false,"rental_uris":{"android":"levelo://app?vid=16ced00d-b75b-480f-bfe3-587817c52078","ios":"levelo://app?vid=16ced00d-b75b-480f-bfe3-587817c52078"},"vehicle_type_id":"4","last_reported":1773260587,"current_range_meters":38000,"station_id":"ce4bhg12rcd13ifvqf60","pricing_plan_id":"cebpf4jnsgd1na2vs0mg"},{"bike_id":"27861645-d5eb-4817-a0ae-26e334136522","system_id":"levelo_inurba_marseille","lat":43.28349,"lon":5.38124,"is_reserved":false,"is_disabled":false,"rental_uris":{"android":"levelo://app?vid=27861645-d5eb-4817-a0ae-26e334136522","ios":"levelo://app?vid=27861645-d5eb-4817-a0ae-26e334136522"},"vehicle_type_id":"4","last_reported":1773260587,"current_range_meters":8000,"station_id":"ce4bh412rcd13ifvqdr0","pricing_plan_id":"cebpf4jnsgd1na2vs0mg"},{"bike_id":"566d1d1a-0852-4e0d-907b-e1334e0d6bf9","system_id":"levelo_inurba_marseille","lat":43.23799,"lon":5.36609,"is_reserved":false,"is_disabled":false,"rental_uris":{"android":"levelo://app?vid=566d1d1a-0852-4e0d-907b-e1334e0d6bf9","ios":"levelo://app?vid=566d1d1a-0852-4e0d-907b-e1334e0d6bf9"},"vehicle_type_id":"4","last_reported":1773260587,"current_range_meters":39200,"station_id":"st_d3nk18o9ro0c73en2l3g","pricing_plan_id":"cebpf4jnsgd1na2vs0mg"},{"bike_id":"ba4d6291-f191-48b7-a6a8-ceee01b66f96","system_id":"levelo_inurba_marseille","lat":43.28137,"lon":5.38214,"is_reserved":false,"is_disabled":false,"rental_uris":{"android":"levelo://app?vid=ba4d6291-f191-48b7-a6a8-ceee01b66f96","ios":"levelo://app?vid=ba4d6291-f191-48b7-a6a8-ceee01b66f96"},"vehicle_type_id":"4","last_reported":1773260587,"current_range_meters":20000,"station_id":"","pricing_plan_id":"cebpf4jnsgd1na2vs0mg"},{"bike_id":"1d184e7b-b9ab-48c7-a958-311d7c32192b","system_id":"levelo_inurba_marseille","lat":43.28733,"lon":5.37914,"is_reserved":false,"is_disabled":false,"rental_uris":{"android":"levelo://app?vid=1d184e7b-b9ab-48c7-a958-311d7c32192b","ios":"levelo://app?vid=1d184e7b-b9ab-48c7-a958-311d7c32192b"},"vehicle_type_id":"4","last_reported":1773260587,"current_range_meters":32000,"station_id":"ce4bh9p2rcd13ifvqec0","pricing_plan_id":"cebpf4jnsgd1na2vs0mg"},{"bike_id":"957ac0aa-86d5-416a-a824-a0cef53797bf","system_id":"levelo_inurba_marseille","lat":43.29702,"lon":5.37691,"is_reserved":false,"is_disabled":false,"rental_uris":{"android":"levelo://app?vid=957ac0aa-86d5-416a-a824-a0cef53797bf","ios":"levelo://app?vid=957ac0aa-86d5-416a-a824-a0cef53797bf"},"vehicle_type_id":"4","last_reported":1773260587,"current_range_meters":11200,"station_id":"ce4bgkh2rcd13ifvqbl0","pricing_plan_id":"cebpf4jnsgd1na2vs0mg"},{"bike_id":"02ffd4f8-78d0-4f83-92f5-2d0d7babe79f","system_id":"levelo_inurba_marseille","lat":43.30655,"lon":5.40087,"is_reserved":false,"is_disabled":false,"rental_uris":{"android":"levelo://app?vid=02ffd4f8-78d0-4f83-92f5-2d0d7babe79f","ios":"levelo://app?vid=02ffd4f8-78d0-4f83-92f5-2d0d7babe79f"},"vehicle_type_id":"4","last_reported":1773260587,"current_range_meters":8400,"station_id":"ce4bh112rcd13ifvqda0","pricing_plan_id":"cebpf4jnsgd1na2vs0mg"},{"bike_id":"1c573354-cf53-44d3-9111-eb37080df88e","system_id":"levelo_inurba_marseille","lat":43.31569,"lon":5.37392,"is_reserved":false,"is_disabled":false,"rental_uris":{"android":"levelo://app?vid=1c573354-cf53-44d3-9111-eb37080df88e","ios":"levelo://app?vid=1c573354-cf53-44d3-9111-eb37080df88e"},"vehicle_type_id":"4","last_reported":1773260587,"current_range_meters":16400,"station_id":"","pricing_plan_id":"cebpf4jnsgd1na2vs0mg"},{"bike_id":"74ac0a3e-5d07-4a64-ace3-8c1c26f2feff","system_id":"levelo_inurba_marseille","lat":43.30894,"lon":5.3682,"is_reserved":false,"is_disabled":true,"rental_uris":{"android":"levelo://app?vid=74ac0a3e-5d07-4a64-ace3-8c1c26f2feff","ios":"levelo://app?vid=74ac0a3e-5d07-4a64-ace3-8c1c26f2feff"},"vehicle_type_id":"4","last_reported":1773260587,"current_range_meters":36800,"station_id":"ce4bgn92rcd13ifvqbvg","pricing_plan_id":"cebpf4jnsgd1na2vs0mg"},{"bike_id":"a5488d65-566e-4618-8b27-f7b8c4578db2","system_id":"levelo_inurba_marseille","lat":43.23194,"lon":5.39985,"is_reserved":false,"is_disabled":false,"rental_uris":{"android":"levelo://app?vid=a5488d65-566e-4618-8b27-f7b8c4578db2","ios":"levelo://app?vid=a5488d65-566e-4618-8b27-f7b8c4578db2"},"vehicle_type_id":"4","last_reported":1773260587,"current_range_meters":29600,"station_id":"ce4bhn12rcd13ifvqgqg","pricing_plan_id":"cebpf4jnsgd1na2vs0mg"},{"bike_id":"969b32d1-6601-49f4-ad5b-5870b4d098ed","system_id":"levelo_inurba_marseille","lat":43.25579,"lon":5.3825,"is_reserved":false,"is_disabled":false,"rental_uris":{"android":"levelo://app?vid=969b32d1-6601-49f4-ad5b-5870b4d098ed","ios":"levelo://app?vid=969b32d1-6601-49f4-ad5b-5870b4d098ed"},"vehicle_type_id":"4","last_reported":1773260587,"current_range_meters":25200,"station_id":"ce4bhih2rcd13ifvqfs0","pricing_plan_id":"cebpf4jnsgd1na2vs0mg"},{"bike_id":"c33732c3-34b3-43cf-9550-258c10091c04","system_id":"levelo_inurba_marseille","lat":43.31432,"lon":5.37218,"is_reserved":false,"is_disabled":false,"rental_uris":{"android":"levelo://app?vid=c33732c3-34b3-43cf-9550-258c10091c04","ios":"levelo://app?vid=c33732c3-34b3-43cf-9550-258c10091c04"},"vehicle_type_id":"4","last_reported":1773260587,"current_range_meters":37600,"station_id":"","pricing_plan_id":"cebpf4jnsgd1na2vs0mg"},{"bike_id":"a7c83a60-ebd4-41a2-9a2f-67597f43b4da","system_id":"levelo_inurba_marseille","lat":43.29985,"lon":5.38483,"is_reserved":false,"is_disabled":false,"rental_uris":{"android":"levelo://app?vid=a7c83a60-ebd4-41a2-9a2f-67597f43b4da","ios":"levelo://app?vid=a7c83a60-ebd4-41a2-9a2f-67597f43b4da"},"vehicle_type_id":"4","last_reported":1773260587,"current_range_meters":16800,"station_id":"ce4bgj92rcd13ifvqbd0","pricing_plan_id":"cebpf4jnsgd1na2vs0mg"},{"bike_id":"df10ebba-30e6-4d3c-b7e0-ba8c3bbe070f","system_id":"levelo_inurba_marseille","lat":43.29552,"lon":5.37475,"is_reserved":false,"is_disabled":false,"rental_uris":{"android":"levelo://app?vid=df10ebba-30e6-4d3c-b7e0-ba8c3bbe070f","ios":"levelo://app?vid=df10ebba-30e6-4d3c-b7e0-ba8c3bbe070f"},"vehicle_type_id":"4","last_reported":1773260587,"current_range_meters":28000,"station_id":"ce4bgkp2rcd13ifvqbmg","pricing_plan_id":"cebpf4jnsgd1na2vs0mg"},{"bike_id":"c0f5bd4a-cbc2-427a-92f0-0be45de4abfd","system_id":"levelo_inurba_marseille","lat":43.28538,"lon":5.44058,"is_reserved":false,"is_disabled":false,"rental_uris":{"android":"levelo://app?vid=c0f5bd4a-cbc2-427a-92f0-0be45de4abfd","ios":"levelo://app?vid=c0f5bd4a-cbc2-427a-92f0-0be45de4abfd"},"vehicle_type_id":"4","last_reported":1773260587,"current_range_meters":4400,"station_id":"st_d3j3df2ikq2c7380ej80","pricing_plan_id":"cebpf4jnsgd1na2vs0mg"},{"bike_id":"98a69b82-3426-4662-b314-8ddb62a05de5","system_id":"levelo_inurba_marseille","lat":43.30064,"lon":5.43719,"is_reserved":false,"is_disabled":false,"rental_uris":{"android":"levelo://app?vid=98a69b82-3426-4662-b314-8ddb62a05de5","ios":"levelo://app?vid=98a69b82-3426-4662-b314-8ddb62a05de5"},"vehicle_type_id":"4","last_reported":1773260587,"current_range_meters":25600,"station_id":"","pricing_plan_id":"cebpf4jnsgd1na2vs0mg"},{"bike_id":"c6c0ebab-0295-4a0b-844e-e34d619beca3","system_id":"levelo_inurba_marseille","lat":43.23182,"lon":5.39986,"is_reserved":false,"is_disabled":false,"rental_uris":{"android":"levelo://app?vid=c6c0ebab-0295-4a0b-844e-e34d619beca3","ios":"levelo://app?vid=c6c0ebab-0295-4a0b-844e-e34d619beca3"},"vehicle_type_id":"4","last_reported":1773260587,"current_range_meters":36800,"station_id":"ce4bhn12rcd13ifvqgqg","pricing_plan_id":"cebpf4jnsgd1na2vs0mg"},{"bike_id":"86316f23-48af-47c9-9efb-f042c127ce18","system_id":"levelo_inurba_marseille","lat":43.30207,"lon":5.39465,"is_reserved":false,"is_disabled":false,"rental_uris":{"android":"levelo://app?vid=86316f23-48af-47c9-9efb-f042c127ce18","ios":"levelo://app?vid=86316f23-48af-47c9-9efb-f042c127ce18"},"vehicle_type_id":"4","last_reported":1773260587,"current_range_meters":9200,"station_id":"ce4bh0p2rcd13ifvqd70","pricing_plan_id":"cebpf4jnsgd1na2vs0mg"},{"bike_id":"a5eb7e2e-f45f-42c7-8ba3-bf76c2472338","system_id":"levelo_inurba_marseille","lat":43.30207,"lon":5.39438,"is_reserved":false,"is_disabled":false,"rental_uris":{"android":"levelo://app?vid=a5eb7e2e-f45f-42c7-8ba3-bf76c2472338","ios":"levelo://app?vid=a5eb7e2e-f45f-42c7-8ba3-bf76c2472338"},"vehicle_type_id":"4","last_reported":1773260587,"current_range_meters":22800,"station_id":"ce4bh0p2rcd13ifvqd70","pricing_plan_id":"cebpf4jnsgd1na2vs0mg"},{"bike_id":"67708bcf-f7f4-4c34-8ed2-51500c6e9c55","system_id":"levelo_inurba_marseille","lat":43.30562,"lon":5.36702,"is_reserved":false,"is_disabled":false,"rental_uris":{"android":"levelo://app?vid=67708bcf-f7f4-4c34-8ed2-51500c6e9c55","ios":"levelo://app?vid=67708bcf-f7f4-4c34-8ed2-51500c6e9c55"},"vehicle_type_id":"4","last_reported":1773260587,"current_range_meters":37600,"station_id":"ce4bgrp2rcd13ifvqc9g","pricing_plan_id":"cebpf4jnsgd1na2vs0mg"},{"bike_id":"7e1abbe1-756e-46e7-ba29-550f152b4425","system_id":"levelo_inurba_marseille","lat":43.29299,"lon":5.37158,"is_reserved":false,"is_disabled":true,"rental_uris":{"android":"levelo://app?vid=7e1abbe1-756e-46e7-ba29-550f152b4425","ios":"levelo://app?vid=7e1abbe1-756e-46e7-ba29-550f152b4425"},"vehicle_type_id":"4","last_reported":1773260587,"current_range_meters":39200,"station_id":"ce4bgh92rcd13ifvqb40","pricing_plan_id":"cebpf4jnsgd1na2vs0mg"},{"bike_id":"38dbf5c5-7b3b-4110-912e-b9968c019577","system_id":"levelo_inurba_marseille","lat":43.31326,"lon":5.39702,"is_reserved":false,"is_disabled":false,"rental_uris":{"android":"levelo://app?vid=38dbf5c5-7b3b-4110-912e-b9968c019577","ios":"levelo://app?vid=38dbf5c5-7b3b-4110-912e-b9968c019577"},"vehicle_type_id":"4","last_reported":1773260587,"current_range_meters":30000,"station_id":"ce4bgvp2rcd13ifvqcu0","pricing_plan_id":"cebpf4jnsgd1na2vs0mg"},{"bike_id":"bab2e5a2-c939-475b-a84c-18023a665078","system_id":"levelo_inurba_marseille","lat":43.27559,"lon":5.38431,"is_reserved":false,"is_disabled":false,"rental_uris":{"android":"levelo://app?vid=bab2e5a2-c939-475b-a84c-18023a665078","ios":"levelo://app?vid=bab2e5a2-c939-475b-a84c-18023a665078"},"vehicle_type_id":"4","last_reported":1773260587,"current_range_meters":4000,"station_id":"ce4bhh92rcd13ifvqfi0","pricing_plan_id":"cebpf4jnsgd1na2vs0mg"},{"bike_id":"0343bfd6-1a51-414d-8d46-212bf15463cf","system_id":"levelo_inurba_marseille","lat":43.29634,"lon":5.37731,"is_reserved":false,"is_disabled":false,"rental_uris":{"android":"levelo://app?vid=0343bfd6-1a51-414d-8d46-212bf15463cf","ios":"levelo://app?vid=0343bfd6-1a51-414d-8d46-212bf15463cf"},"vehicle_type_id":"4","last_reported":1773260587,"current_range_meters":30000,"station_id":"ce4bgi92rcd13ifvqb90","pricing_plan_id":"cebpf4jnsgd1na2vs0mg"},{"bike_id":"05e6bf88-7186-450c-bdbe-c79ec1bfcaf0","system_id":"levelo_inurba_marseille","lat":43.29274,"lon":5.40117,"is_reserved":false,"is_disabled":false,"rental_uris":{"android":"levelo://app?vid=05e6bf88-7186-450c-bdbe-c79ec1bfcaf0","ios":"levelo://app?vid=05e6bf88-7186-450c-bdbe-c79ec1bfcaf0"},"vehicle_type_id":"4","last_reported":1773260587,"current_range_meters":5600,"station_id":"ce4bh312rcd13ifvqdk0","pricing_plan_id":"cebpf4jnsgd1na2vs0mg"},{"bike_id":"9742faba-d8f0-4e78-84a4-7b1f0d90d2b9","system_id":"levelo_inurba_marseille","lat":43.2842,"lon":5.34988,"is_reserved":false,"is_disabled":true,"rental_uris":{"android":"levelo://app?vid=9742faba-d8f0-4e78-84a4-7b1f0d90d2b9","ios":"levelo://app?vid=9742faba-d8f0-4e78-84a4-7b1f0d90d2b9"},"vehicle_type_id":"4","last_reported":1773260587,"current_range_meters":22800,"station_id":"ce4bhbh2rcd13ifvqepg","pricing_plan_id":"cebpf4jnsgd1na2vs0mg"},{"bike_id":"3d7b1bec-2a06-47da-a7d0-796cda99d14f","system_id":"levelo_inurba_marseille","lat":43.27066,"lon":5.38302,"is_reserved":false,"is_disabled":false,"rental_uris":{"android":"levelo://app?vid=3d7b1bec-2a06-47da-a7d0-796cda99d14f","ios":"levelo://app?vid=3d7b1bec-2a06-47da-a7d0-796cda99d14f"},"vehicle_type_id":"4","last_reported":1773260587,"current_range_meters":18800,"station_id":"st_d3n2fo6cfp8s73cte1j0","pricing_plan_id":"cebpf4jnsgd1na2vs0mg"},{"bike_id":"e6b20c19-514f-40dc-9b48-4675190607e5","system_id":"levelo_inurba_marseille","lat":43.29286,"lon":5.36847,"is_reserved":false,"is_disabled":false,"rental_uris":{"android":"levelo://app?vid=e6b20c19-514f-40dc-9b48-4675190607e5","ios":"levelo://app?vid=e6b20c19-514f-40dc-9b48-4675190607e5"},"vehicle_type_id":"4","last_reported":1773260587,"current_range_meters":32400,"station_id":"ce4bhbp2rcd13ifvqesg","pricing_plan_id":"cebpf4jnsgd1na2vs0mg"},{"bike_id":"988db3b8-861f-418c-a7ec-7ae78131696e","system_id":"levelo_inurba_marseille","lat":43.24685,"lon":5.43344,"is_reserved":false,"is_disabled":false,"rental_uris":{"android":"levelo://app?vid=988db3b8-861f-418c-a7ec-7ae78131696e","ios":"levelo://app?vid=988db3b8-861f-418c-a7ec-7ae78131696e"},"vehicle_type_id":"4","last_reported":1773260587,"current_range_meters":28400,"station_id":"","pricing_plan_id":"cebpf4jnsgd1na2vs0mg"},{"bike_id":"c3843561-2c67-41fb-a1f7-6df5ffc75638","system_id":"levelo_inurba_marseille","lat":43.29027,"lon":5.38637,"is_reserved":false,"is_disabled":false,"rental_uris":{"android":"levelo://app?vid=c3843561-2c67-41fb-a1f7-6df5ffc75638","ios":"levelo://app?vid=c3843561-2c67-41fb-a1f7-6df5ffc75638"},"vehicle_type_id":"4","last_reported":1773260587,"current_range_meters":39200,"station_id":"ce4bh4p2rcd13ifvqe0g","pricing_plan_id":"cebpf4jnsgd1na2vs0mg"},{"bike_id":"dd854777-f378-4132-94e6-63027cc18b82","system_id":"levelo_inurba_marseille","lat":43.29727,"lon":5.41059,"is_reserved":false,"is_disabled":false,"rental_uris":{"android":"levelo://app?vid=dd854777-f378-4132-94e6-63027cc18b82","ios":"levelo://app?vid=dd854777-f378-4132-94e6-63027cc18b82"},"vehicle_type_id":"4","last_reported":1773260587,"current_range_meters":27600,"station_id":"","pricing_plan_id":"cebpf4jnsgd1na2vs0mg"},{"bike_id":"0dfbe7ef-b6ff-411a-9597-c501dde94bcd","system_id":"levelo_inurba_marseille","lat":43.29523,"lon":5.39044,"is_reserved":false,"is_disabled":false,"rental_uris":{"android":"levelo://app?vid=0dfbe7ef-b6ff-411a-9597-c501dde94bcd","ios":"levelo://app?vid=0dfbe7ef-b6ff-411a-9597-c501dde94bcd"},"vehicle_type_id":"4","last_reported":1773260587,"current_range_meters":14000,"station_id":"ce4bh3p2rcd13ifvqdp0","pricing_plan_id":"cebpf4jnsgd1na2vs0mg"},{"bike_id":"fca48394-ecb7-48fe-a623-7858b59241b1","system_id":"levelo_inurba_marseille","lat":43.27199,"lon":5.39041,"is_reserved":false,"is_disabled":false,"rental_uris":{"android":"levelo://app?vid=fca48394-ecb7-48fe-a623-7858b59241b1","ios":"levelo://app?vid=fca48394-ecb7-48fe-a623-7858b59241b1"},"vehicle_type_id":"4","last_reported":1773260587,"current_range_meters":28800,"station_id":"","pricing_plan_id":"cebpf4jnsgd1na2vs0mg"},{"bike_id":"61923e1f-87aa-45fd-a287-484a4f729e2f","system_id":"levelo_inurba_marseille","lat":43.29315,"lon":5.3717,"is_reserved":false,"is_disabled":false,"rental_uris":{"android":"levelo://app?vid=61923e1f-87aa-45fd-a287-484a4f729e2f","ios":"levelo://app?vid=61923e1f-87aa-45fd-a287-484a4f729e2f"},"vehicle_type_id":"4","last_reported":1773260587,"current_range_meters":18000,"station_id":"ce4bgh92rcd13ifvqb40","pricing_plan_id":"cebpf4jnsgd1na2vs0mg"},{"bike_id":"5dce8e90-2780-449c-a704-77de0cfb4cc2","system_id":"levelo_inurba_marseille","lat":43.27193,"lon":5.409931,"is_reserved":false,"is_disabled":false,"rental_uris":{"android":"levelo://app?vid=5dce8e90-2780-449c-a704-77de0cfb4cc2","ios":"levelo://app?vid=5dce8e90-2780-449c-a704-77de0cfb4cc2"},"vehicle_type_id":"4","last_reported":1773260587,"current_range_meters":4800,"station_id":"ce4bhl12rcd13ifvqgf0","pricing_plan_id":"cebpf4jnsgd1na2vs0mg"},{"bike_id":"bc54ed14-e159-405f-908b-c5020f892e99","system_id":"levelo_inurba_marseille","lat":43.30975,"lon":5.43878,"is_reserved":false,"is_disabled":false,"rental_uris":{"android":"levelo://app?vid=bc54ed14-e159-405f-908b-c5020f892e99","ios":"levelo://app?vid=bc54ed14-e159-405f-908b-c5020f892e99"},"vehicle_type_id":"4","last_reported":1773260587,"current_range_meters":28000,"station_id":"","pricing_plan_id":"cebpf4jnsgd1na2vs0mg"},{"bike_id":"532f1fe9-6384-4056-88f3-ddfdd084688a","system_id":"levelo_inurba_marseille","lat":43.29811,"lon":5.4188,"is_reserved":false,"is_disabled":false,"rental_uris":{"android":"levelo://app?vid=532f1fe9-6384-4056-88f3-ddfdd084688a","ios":"levelo://app?vid=532f1fe9-6384-4056-88f3-ddfdd084688a"},"vehicle_type_id":"4","last_reported":1773260587,"current_range_meters":28000,"station_id":"","pricing_plan_id":"cebpf4jnsgd1na2vs0mg"},{"bike_id":"1168962b-1d6c-4b98-9fe9-a58b7d08b7bc","system_id":"levelo_inurba_marseille","lat":43.28471,"lon":5.35901,"is_reserved":false,"is_disabled":false,"rental_uris":{"android":"levelo://app?vid=1168962b-1d6c-4b98-9fe9-a58b7d08b7bc","ios":"levelo://app?vid=1168962b-1d6c-4b98-9fe9-a58b7d08b7bc"},"vehicle_type_id":"4","last_reported":1773260587,"current_range_meters":11200,"station_id":"ce4bhah2rcd13ifvqei0","pricing_plan_id":"cebpf4jnsgd1na2vs0mg"},{"bike_id":"4c0ccf91-bafb-4cb2-ada9-07d388c5af7c","system_id":"levelo_inurba_marseille","lat":43.29644,"lon":5.37714,"is_reserved":false,"is_disabled":false,"rental_uris":{"android":"levelo://app?vid=4c0ccf91-bafb-4cb2-ada9-07d388c5af7c","ios":"levelo://app?vid=4c0ccf91-bafb-4cb2-ada9-07d388c5af7c"},"vehicle_type_id":"4","last_reported":1773260587,"current_range_meters":9200,"station_id":"ce4bgi92rcd13ifvqb90","pricing_plan_id":"cebpf4jnsgd1na2vs0mg"},{"bike_id":"fc4795bd-7fd3-4c14-9a9b-bcc5f999d4b0","system_id":"levelo_inurba_marseille","lat":43.23963,"lon":5.36646,"is_reserved":false,"is_disabled":false,"rental_uris":{"android":"levelo://app?vid=fc4795bd-7fd3-4c14-9a9b-bcc5f999d4b0","ios":"levelo://app?vid=fc4795bd-7fd3-4c14-9a9b-bcc5f999d4b0"},"vehicle_type_id":"4","last_reported":1773260587,"current_range_meters":7200,"station_id":"ce4bhi12rcd13ifvqfp0","pricing_plan_id":"cebpf4jnsgd1na2vs0mg"},{"bike_id":"f3aa073f-48b3-4a32-af09-7955b12779b7","system_id":"levelo_inurba_marseille","lat":43.23191,"lon":5.39981,"is_reserved":false,"is_disabled":false,"rental_uris":{"android":"levelo://app?vid=f3aa073f-48b3-4a32-af09-7955b12779b7","ios":"levelo://app?vid=f3aa073f-48b3-4a32-af09-7955b12779b7"},"vehicle_type_id":"4","last_reported":1773260587,"current_range_meters":30400,"station_id":"ce4bhn12rcd13ifvqgqg","pricing_plan_id":"cebpf4jnsgd1na2vs0mg"},{"bike_id":"fee5e17c-0503-4e58-88a2-7484a6df0deb","system_id":"levelo_inurba_marseille","lat":43.28669,"lon":5.36338,"is_reserved":false,"is_disabled":false,"rental_uris":{"android":"levelo://app?vid=fee5e17c-0503-4e58-88a2-7484a6df0deb","ios":"levelo://app?vid=fee5e17c-0503-4e58-88a2-7484a6df0deb"},"vehicle_type_id":"4","last_reported":1773260587,"current_range_meters":28800,"station_id":"ce4bhah2rcd13ifvqej0","pricing_plan_id":"cebpf4jnsgd1na2vs0mg"},{"bike_id":"5ff4eed9-cc94-417e-b8b0-f370f495b41d","system_id":"levelo_inurba_marseille","lat":43.2815,"lon":5.4264,"is_reserved":false,"is_disabled":false,"rental_uris":{"android":"levelo://app?vid=5ff4eed9-cc94-417e-b8b0-f370f495b41d","ios":"levelo://app?vid=5ff4eed9-cc94-417e-b8b0-f370f495b41d"},"vehicle_type_id":"4","last_reported":1773260587,"current_range_meters":22000,"station_id":"ce4bhnh2rcd13ifvqgug","pricing_plan_id":"cebpf4jnsgd1na2vs0mg"},{"bike_id":"f105b2be-1018-4256-9c05-61f61c53dcf1","system_id":"levelo_inurba_marseille","lat":43.29542,"lon":5.38504,"is_reserved":false,"is_disabled":true,"rental_uris":{"android":"levelo://app?vid=f105b2be-1018-4256-9c05-61f61c53dcf1","ios":"levelo://app?vid=f105b2be-1018-4256-9c05-61f61c53dcf1"},"vehicle_type_id":"4","last_reported":1773260587,"current_range_meters":26000,"station_id":"ce4bgih2rcd13ifvqba0","pricing_plan_id":"cebpf4jnsgd1na2vs0mg"},{"bike_id":"f887c440-6ce0-4101-bb01-cca98079b874","system_id":"levelo_inurba_marseille","lat":43.28144,"lon":5.38289,"is_reserved":false,"is_disabled":false,"rental_uris":{"android":"levelo://app?vid=f887c440-6ce0-4101-bb01-cca98079b874","ios":"levelo://app?vid=f887c440-6ce0-4101-bb01-cca98079b874"},"vehicle_type_id":"4","last_reported":1773260587,"current_range_meters":35200,"station_id":"","pricing_plan_id":"cebpf4jnsgd1na2vs0mg"},{"bike_id":"e8cfc960-6b81-4fc9-81a5-40ee7862baf8","system_id":"levelo_inurba_marseille","lat":43.32037,"lon":5.41566,"is_reserved":false,"is_disabled":false,"rental_uris":{"android":"levelo://app?vid=e8cfc960-6b81-4fc9-81a5-40ee7862baf8","ios":"levelo://app?vid=e8cfc960-6b81-4fc9-81a5-40ee7862baf8"},"vehicle_type_id":"4","last_reported":1773260587,"current_range_meters":29600,"station_id":"ce4bhq92rcd13ifvqhkg","pricing_plan_id":"cebpf4jnsgd1na2vs0mg"},{"bike_id":"b94c3b6d-7912-4bb7-bd16-b874ff101a3d","system_id":"levelo_inurba_marseille","lat":43.24802,"lon":5.37458,"is_reserved":false,"is_disabled":false,"rental_uris":{"android":"levelo://app?vid=b94c3b6d-7912-4bb7-bd16-b874ff101a3d","ios":"levelo://app?vid=b94c3b6d-7912-4bb7-bd16-b874ff101a3d"},"vehicle_type_id":"4","last_reported":1773260587,"current_range_meters":28000,"station_id":"ce4bhgh2rcd13ifvqfb0","pricing_plan_id":"cebpf4jnsgd1na2vs0mg"},{"bike_id":"ab6eabd8-cd45-4d44-9050-2a15f860b8ba","system_id":"levelo_inurba_marseille","lat":43.2929,"lon":5.36847,"is_reserved":false,"is_disabled":false,"rental_uris":{"android":"levelo://app?vid=ab6eabd8-cd45-4d44-9050-2a15f860b8ba","ios":"levelo://app?vid=ab6eabd8-cd45-4d44-9050-2a15f860b8ba"},"vehicle_type_id":"4","last_reported":1773260587,"current_range_meters":24400,"station_id":"ce4bhbp2rcd13ifvqesg","pricing_plan_id":"cebpf4jnsgd1na2vs0mg"},{"bike_id":"ed34f104-c481-424c-8f52-ec05a07e82ef","system_id":"levelo_inurba_marseille","lat":43.29321,"lon":5.37159,"is_reserved":false,"is_disabled":false,"rental_uris":{"android":"levelo://app?vid=ed34f104-c481-424c-8f52-ec05a07e82ef","ios":"levelo://app?vid=ed34f104-c481-424c-8f52-ec05a07e82ef"},"vehicle_type_id":"4","last_reported":1773260587,"current_range_meters":36400,"station_id":"ce4bgh92rcd13ifvqb40","pricing_plan_id":"cebpf4jnsgd1na2vs0mg"},{"bike_id":"46581b5c-227f-4c93-a496-16c893b115c2","system_id":"levelo_inurba_marseille","lat":43.30312,"lon":5.40431,"is_reserved":false,"is_disabled":false,"rental_uris":{"android":"levelo://app?vid=46581b5c-227f-4c93-a496-16c893b115c2","ios":"levelo://app?vid=46581b5c-227f-4c93-a496-16c893b115c2"},"vehicle_type_id":"4","last_reported":1773260587,"current_range_meters":24400,"station_id":"ce4bh012rcd13ifvqd10","pricing_plan_id":"cebpf4jnsgd1na2vs0mg"},{"bike_id":"c52459fc-dfb2-4ddf-a65d-9bbba8809c07","system_id":"levelo_inurba_marseille","lat":43.22537,"lon":5.3484,"is_reserved":false,"is_disabled":true,"rental_uris":{"android":"levelo://app?vid=c52459fc-dfb2-4ddf-a65d-9bbba8809c07","ios":"levelo://app?vid=c52459fc-dfb2-4ddf-a65d-9bbba8809c07"},"vehicle_type_id":"4","last_reported":1773260587,"current_range_meters":0,"station_id":"st_cvj5dfep6f1abm77gieg","pricing_plan_id":"cebpf4jnsgd1na2vs0mg"},{"bike_id":"5d0dcbca-099b-4fec-956d-3577d108f5a0","system_id":"levelo_inurba_marseille","lat":43.2944,"lon":5.39757,"is_reserved":false,"is_disabled":false,"rental_uris":{"android":"levelo://app?vid=5d0dcbca-099b-4fec-956d-3577d108f5a0","ios":"levelo://app?vid=5d0dcbca-099b-4fec-956d-3577d108f5a0"},"vehicle_type_id":"4","last_reported":1773260587,"current_range_meters":9600,"station_id":"ce4bh3h2rcd13ifvqdo0","pricing_plan_id":"cebpf4jnsgd1na2vs0mg"},{"bike_id":"d78dec4b-8880-4cf0-a251-49540defddd0","system_id":"levelo_inurba_marseille","lat":43.28039,"lon":5.36939,"is_reserved":false,"is_disabled":false,"rental_uris":{"android":"levelo://app?vid=d78dec4b-8880-4cf0-a251-49540defddd0","ios":"levelo://app?vid=d78dec4b-8880-4cf0-a251-49540defddd0"},"vehicle_type_id":"4","last_reported":1773260587,"current_range_meters":13600,"station_id":"ce4bha12rcd13ifvqef0","pricing_plan_id":"cebpf4jnsgd1na2vs0mg"},{"bike_id":"74cb2b6f-9305-47f1-bb68-6c880d035389","system_id":"levelo_inurba_marseille","lat":43.29627,"lon":5.3715,"is_reserved":false,"is_disabled":false,"rental_uris":{"android":"levelo://app?vid=74cb2b6f-9305-47f1-bb68-6c880d035389","ios":"levelo://app?vid=74cb2b6f-9305-47f1-bb68-6c880d035389"},"vehicle_type_id":"4","last_reported":1773260587,"current_range_meters":39200,"station_id":"ce4bgnh2rcd13ifvqc0g","pricing_plan_id":"cebpf4jnsgd1na2vs0mg"},{"bike_id":"2301d092-fcd2-45f3-804a-bf87c6aa69a3","system_id":"levelo_inurba_marseille","lat":43.29579,"lon":5.37626,"is_reserved":false,"is_disabled":false,"rental_uris":{"android":"levelo://app?vid=2301d092-fcd2-45f3-804a-bf87c6aa69a3","ios":"levelo://app?vid=2301d092-fcd2-45f3-804a-bf87c6aa69a3"},"vehicle_type_id":"4","last_reported":1773260587,"current_range_meters":16800,"station_id":"","pricing_plan_id":"cebpf4jnsgd1na2vs0mg"},{"bike_id":"61a991f1-1c61-4cf7-8c66-0365b5426fe3","system_id":"levelo_inurba_marseille","lat":43.25578,"lon":5.38258,"is_reserved":false,"is_disabled":false,"rental_uris":{"android":"levelo://app?vid=61a991f1-1c61-4cf7-8c66-0365b5426fe3","ios":"levelo://app?vid=61a991f1-1c61-4cf7-8c66-0365b5426fe3"},"vehicle_type_id":"4","last_reported":1773260587,"current_range_meters":29600,"station_id":"ce4bhih2rcd13ifvqfs0","pricing_plan_id":"cebpf4jnsgd1na2vs0mg"},{"bike_id":"d2bcd2b3-b9c0-44b8-b65e-328220c5307e","system_id":"levelo_inurba_marseille","lat":43.29151,"lon":5.43236,"is_reserved":false,"is_disabled":false,"rental_uris":{"android":"levelo://app?vid=d2bcd2b3-b9c0-44b8-b65e-328220c5307e","ios":"levelo://app?vid=d2bcd2b3-b9c0-44b8-b65e-328220c5307e"},"vehicle_type_id":"4","last_reported":1773260587,"current_range_meters":38400,"station_id":"","pricing_plan_id":"cebpf4jnsgd1na2vs0mg"},{"bike_id":"c8eec559-20d1-476b-81d3-c74b175d6c61","system_id":"levelo_inurba_marseille","lat":43.28923,"lon":5.38396,"is_reserved":false,"is_disabled":false,"rental_uris":{"android":"levelo://app?vid=c8eec559-20d1-476b-81d3-c74b175d6c61","ios":"levelo://app?vid=c8eec559-20d1-476b-81d3-c74b175d6c61"},"vehicle_type_id":"4","last_reported":1773260587,"current_range_meters":9200,"station_id":"ce4bh612rcd13ifvqe6g","pricing_plan_id":"cebpf4jnsgd1na2vs0mg"},{"bike_id":"a73d5b8f-fa70-4709-9cb1-394ba61b13c7","system_id":"levelo_inurba_marseille","lat":43.2936,"lon":5.37156,"is_reserved":false,"is_disabled":false,"rental_uris":{"android":"levelo://app?vid=a73d5b8f-fa70-4709-9cb1-394ba61b13c7","ios":"levelo://app?vid=a73d5b8f-fa70-4709-9cb1-394ba61b13c7"},"vehicle_type_id":"4","last_reported":1773260587,"current_range_meters":21600,"station_id":"","pricing_plan_id":"cebpf4jnsgd1na2vs0mg"},{"bike_id":"0fb23761-1e2a-42d2-b6d7-eb56f77a67f3","system_id":"levelo_inurba_marseille","lat":43.29273,"lon":5.40117,"is_reserved":false,"is_disabled":false,"rental_uris":{"android":"levelo://app?vid=0fb23761-1e2a-42d2-b6d7-eb56f77a67f3","ios":"levelo://app?vid=0fb23761-1e2a-42d2-b6d7-eb56f77a67f3"},"vehicle_type_id":"4","last_reported":1773260587,"current_range_meters":35200,"station_id":"ce4bh312rcd13ifvqdk0","pricing_plan_id":"cebpf4jnsgd1na2vs0mg"},{"bike_id":"896440e6-cef8-4268-bb86-ac2c6e2de747","system_id":"levelo_inurba_marseille","lat":43.28476,"lon":5.484,"is_reserved":false,"is_disabled":false,"rental_uris":{"android":"levelo://app?vid=896440e6-cef8-4268-bb86-ac2c6e2de747","ios":"levelo://app?vid=896440e6-cef8-4268-bb86-ac2c6e2de747"},"vehicle_type_id":"4","last_reported":1773260587,"current_range_meters":28800,"station_id":"","pricing_plan_id":"cebpf4jnsgd1na2vs0mg"},{"bike_id":"43922db5-aca7-4d91-a58a-5cd8ffdd4c3c","system_id":"levelo_inurba_marseille","lat":43.29864,"lon":5.391794,"is_reserved":false,"is_disabled":false,"rental_uris":{"android":"levelo://app?vid=43922db5-aca7-4d91-a58a-5cd8ffdd4c3c","ios":"levelo://app?vid=43922db5-aca7-4d91-a58a-5cd8ffdd4c3c"},"vehicle_type_id":"4","last_reported":1773260587,"current_range_meters":14000,"station_id":"ce4bh392rcd13ifvqdl0","pricing_plan_id":"cebpf4jnsgd1na2vs0mg"},{"bike_id":"2b164b46-4b54-4596-b739-c8a344e2c1e7","system_id":"levelo_inurba_marseille","lat":43.30936,"lon":5.40141,"is_reserved":false,"is_disabled":false,"rental_uris":{"android":"levelo://app?vid=2b164b46-4b54-4596-b739-c8a344e2c1e7","ios":"levelo://app?vid=2b164b46-4b54-4596-b739-c8a344e2c1e7"},"vehicle_type_id":"4","last_reported":1773260587,"current_range_meters":11200,"station_id":"ce4bgvp2rcd13ifvqct0","pricing_plan_id":"cebpf4jnsgd1na2vs0mg"},{"bike_id":"2c1215f2-9624-4e50-bbbb-a53264cdd31e","system_id":"levelo_inurba_marseille","lat":43.28476,"lon":5.48406,"is_reserved":false,"is_disabled":false,"rental_uris":{"android":"levelo://app?vid=2c1215f2-9624-4e50-bbbb-a53264cdd31e","ios":"levelo://app?vid=2c1215f2-9624-4e50-bbbb-a53264cdd31e"},"vehicle_type_id":"4","last_reported":1773260587,"current_range_meters":25200,"station_id":"","pricing_plan_id":"cebpf4jnsgd1na2vs0mg"},{"bike_id":"3b950439-ce2b-43b7-96e0-5e3328bee72e","system_id":"levelo_inurba_marseille","lat":43.31749,"lon":5.39015,"is_reserved":false,"is_disabled":false,"rental_uris":{"android":"levelo://app?vid=3b950439-ce2b-43b7-96e0-5e3328bee72e","ios":"levelo://app?vid=3b950439-ce2b-43b7-96e0-5e3328bee72e"},"vehicle_type_id":"4","last_reported":1773260587,"current_range_meters":39200,"station_id":"ce4bhqp2rcd13ifvqhng","pricing_plan_id":"cebpf4jnsgd1na2vs0mg"},{"bike_id":"c1db54c2-038e-4f3d-a503-c0e3fc6c96ed","system_id":"levelo_inurba_marseille","lat":43.33527,"lon":5.37464,"is_reserved":false,"is_disabled":false,"rental_uris":{"android":"levelo://app?vid=c1db54c2-038e-4f3d-a503-c0e3fc6c96ed","ios":"levelo://app?vid=c1db54c2-038e-4f3d-a503-c0e3fc6c96ed"},"vehicle_type_id":"4","last_reported":1773260587,"current_range_meters":14000,"station_id":"st_d46tts09ee8s73dlu43g","pricing_plan_id":"cebpf4jnsgd1na2vs0mg"},{"bike_id":"a0ab89fd-d4e3-4039-8377-577b0acf001d","system_id":"levelo_inurba_marseille","lat":43.2437,"lon":5.44106,"is_reserved":false,"is_disabled":true,"rental_uris":{"android":"levelo://app?vid=a0ab89fd-d4e3-4039-8377-577b0acf001d","ios":"levelo://app?vid=a0ab89fd-d4e3-4039-8377-577b0acf001d"},"vehicle_type_id":"4","last_reported":1773260587,"current_range_meters":9600,"station_id":"","pricing_plan_id":"cebpf4jnsgd1na2vs0mg"},{"bike_id":"c826cb68-eba2-468d-8ed7-3d2806708ba9","system_id":"levelo_inurba_marseille","lat":43.29221,"lon":5.39312,"is_reserved":false,"is_disabled":false,"rental_uris":{"android":"levelo://app?vid=c826cb68-eba2-468d-8ed7-3d2806708ba9","ios":"levelo://app?vid=c826cb68-eba2-468d-8ed7-3d2806708ba9"},"vehicle_type_id":"4","last_reported":1773260587,"current_range_meters":37600,"station_id":"ce4bh192rcd13ifvqdd0","pricing_plan_id":"cebpf4jnsgd1na2vs0mg"},{"bike_id":"00ba69b5-b177-4aab-beaa-0e79f84444ab","system_id":"levelo_inurba_marseille","lat":43.278,"lon":5.38769,"is_reserved":false,"is_disabled":true,"rental_uris":{"android":"levelo://app?vid=00ba69b5-b177-4aab-beaa-0e79f84444ab","ios":"levelo://app?vid=00ba69b5-b177-4aab-beaa-0e79f84444ab"},"vehicle_type_id":"4","last_reported":1773260587,"current_range_meters":39200,"station_id":"","pricing_plan_id":"cebpf4jnsgd1na2vs0mg"},{"bike_id":"074abf32-ac3f-4657-8880-be02438a7ff0","system_id":"levelo_inurba_marseille","lat":43.23186,"lon":5.39983,"is_reserved":false,"is_disabled":false,"rental_uris":{"android":"levelo://app?vid=074abf32-ac3f-4657-8880-be02438a7ff0","ios":"levelo://app?vid=074abf32-ac3f-4657-8880-be02438a7ff0"},"vehicle_type_id":"4","last_reported":1773260587,"current_range_meters":25200,"station_id":"ce4bhn12rcd13ifvqgqg","pricing_plan_id":"cebpf4jnsgd1na2vs0mg"},{"bike_id":"f00a2730-aadb-4a0a-b5af-1ca120a6b332","system_id":"levelo_inurba_marseille","lat":43.29529,"lon":5.38536,"is_reserved":false,"is_disabled":false,"rental_uris":{"android":"levelo://app?vid=f00a2730-aadb-4a0a-b5af-1ca120a6b332","ios":"levelo://app?vid=f00a2730-aadb-4a0a-b5af-1ca120a6b332"},"vehicle_type_id":"4","last_reported":1773260587,"current_range_meters":31200,"station_id":"ce4bghh2rcd13ifvqb60","pricing_plan_id":"cebpf4jnsgd1na2vs0mg"},{"bike_id":"e8b7d766-9ece-4870-a1b8-5b316a1b8e67","system_id":"levelo_inurba_marseille","lat":43.22567,"lon":5.41647,"is_reserved":false,"is_disabled":false,"rental_uris":{"android":"levelo://app?vid=e8b7d766-9ece-4870-a1b8-5b316a1b8e67","ios":"levelo://app?vid=e8b7d766-9ece-4870-a1b8-5b316a1b8e67"},"vehicle_type_id":"4","last_reported":1773260587,"current_range_meters":18000,"station_id":"st_d2o4gvlbi1j2169b742g","pricing_plan_id":"cebpf4jnsgd1na2vs0mg"},{"bike_id":"3ec29e2e-9f07-482a-be09-30e539a4dc16","system_id":"levelo_inurba_marseille","lat":43.27816,"lon":5.40717,"is_reserved":false,"is_disabled":true,"rental_uris":{"android":"levelo://app?vid=3ec29e2e-9f07-482a-be09-30e539a4dc16","ios":"levelo://app?vid=3ec29e2e-9f07-482a-be09-30e539a4dc16"},"vehicle_type_id":"4","last_reported":1773260587,"current_range_meters":39200,"station_id":"ce4bhnh2rcd13ifvqgtg","pricing_plan_id":"cebpf4jnsgd1na2vs0mg"},{"bike_id":"7fec08d5-ee68-460a-ac18-925555054430","system_id":"levelo_inurba_marseille","lat":43.24171,"lon":5.36408,"is_reserved":false,"is_disabled":false,"rental_uris":{"android":"levelo://app?vid=7fec08d5-ee68-460a-ac18-925555054430","ios":"levelo://app?vid=7fec08d5-ee68-460a-ac18-925555054430"},"vehicle_type_id":"4","last_reported":1773260587,"current_range_meters":16000,"station_id":"cpo36qri1sfpv3e86is0","pricing_plan_id":"cebpf4jnsgd1na2vs0mg"},{"bike_id":"493d7934-6f6b-4859-98fe-d173ed1225a0","system_id":"levelo_inurba_marseille","lat":43.29523,"lon":5.38531,"is_reserved":false,"is_disabled":false,"rental_uris":{"android":"levelo://app?vid=493d7934-6f6b-4859-98fe-d173ed1225a0","ios":"levelo://app?vid=493d7934-6f6b-4859-98fe-d173ed1225a0"},"vehicle_type_id":"4","last_reported":1773260587,"current_range_meters":38400,"station_id":"ce4bgih2rcd13ifvqba0","pricing_plan_id":"cebpf4jnsgd1na2vs0mg"},{"bike_id":"0ac46bdc-dba5-49e8-840c-078e0f1eca72","system_id":"levelo_inurba_marseille","lat":43.29031,"lon":5.38641,"is_reserved":false,"is_disabled":false,"rental_uris":{"android":"levelo://app?vid=0ac46bdc-dba5-49e8-840c-078e0f1eca72","ios":"levelo://app?vid=0ac46bdc-dba5-49e8-840c-078e0f1eca72"},"vehicle_type_id":"4","last_reported":1773260587,"current_range_meters":39200,"station_id":"ce4bh4p2rcd13ifvqe0g","pricing_plan_id":"cebpf4jnsgd1na2vs0mg"},{"bike_id":"54c2dd9f-2963-4a6b-ba5f-347efea217be","system_id":"levelo_inurba_marseille","lat":43.31723,"lon":5.40458,"is_reserved":false,"is_disabled":false,"rental_uris":{"android":"levelo://app?vid=54c2dd9f-2963-4a6b-ba5f-347efea217be","ios":"levelo://app?vid=54c2dd9f-2963-4a6b-ba5f-347efea217be"},"vehicle_type_id":"4","last_reported":1773260587,"current_range_meters":7200,"station_id":"ce4bh012rcd13ifvqd00","pricing_plan_id":"cebpf4jnsgd1na2vs0mg"},{"bike_id":"e50c6797-fb66-441b-97d0-c7fbbc3eb9c6","system_id":"levelo_inurba_marseille","lat":43.31715,"lon":5.43705,"is_reserved":false,"is_disabled":false,"rental_uris":{"android":"levelo://app?vid=e50c6797-fb66-441b-97d0-c7fbbc3eb9c6","ios":"levelo://app?vid=e50c6797-fb66-441b-97d0-c7fbbc3eb9c6"},"vehicle_type_id":"4","last_reported":1773260587,"current_range_meters":29600,"station_id":"ce4bhp92rcd13ifvqhcg","pricing_plan_id":"cebpf4jnsgd1na2vs0mg"},{"bike_id":"486154fe-3489-4a13-9146-054eb1e1ad06","system_id":"levelo_inurba_marseille","lat":43.29563,"lon":5.39961,"is_reserved":false,"is_disabled":false,"rental_uris":{"android":"levelo://app?vid=486154fe-3489-4a13-9146-054eb1e1ad06","ios":"levelo://app?vid=486154fe-3489-4a13-9146-054eb1e1ad06"},"vehicle_type_id":"4","last_reported":1773260587,"current_range_meters":38000,"station_id":"ce4bh312rcd13ifvqdj0","pricing_plan_id":"cebpf4jnsgd1na2vs0mg"},{"bike_id":"d936ee88-e6c5-41eb-94c9-c0f089a32b91","system_id":"levelo_inurba_marseille","lat":43.31182,"lon":5.37727,"is_reserved":false,"is_disabled":false,"rental_uris":{"android":"levelo://app?vid=d936ee88-e6c5-41eb-94c9-c0f089a32b91","ios":"levelo://app?vid=d936ee88-e6c5-41eb-94c9-c0f089a32b91"},"vehicle_type_id":"4","last_reported":1773260587,"current_range_meters":32400,"station_id":"","pricing_plan_id":"cebpf4jnsgd1na2vs0mg"},{"bike_id":"07a2050e-212f-4468-a1e0-0dbe3b04cb10","system_id":"levelo_inurba_marseille","lat":43.25012,"lon":5.38928,"is_reserved":false,"is_disabled":false,"rental_uris":{"android":"levelo://app?vid=07a2050e-212f-4468-a1e0-0dbe3b04cb10","ios":"levelo://app?vid=07a2050e-212f-4468-a1e0-0dbe3b04cb10"},"vehicle_type_id":"4","last_reported":1773260587,"current_range_meters":33600,"station_id":"ce4bhgp2rcd13ifvqfd0","pricing_plan_id":"cebpf4jnsgd1na2vs0mg"},{"bike_id":"66cc9538-d158-46fb-94cb-ec9521443935","system_id":"levelo_inurba_marseille","lat":43.27814,"lon":5.40751,"is_reserved":false,"is_disabled":false,"rental_uris":{"android":"levelo://app?vid=66cc9538-d158-46fb-94cb-ec9521443935","ios":"levelo://app?vid=66cc9538-d158-46fb-94cb-ec9521443935"},"vehicle_type_id":"4","last_reported":1773260587,"current_range_meters":6800,"station_id":"ce4bhnh2rcd13ifvqgtg","pricing_plan_id":"cebpf4jnsgd1na2vs0mg"},{"bike_id":"527cd3ff-d70c-47e1-ab19-036f4aa6c5ec","system_id":"levelo_inurba_marseille","lat":43.29517,"lon":5.37501,"is_reserved":false,"is_disabled":false,"rental_uris":{"android":"levelo://app?vid=527cd3ff-d70c-47e1-ab19-036f4aa6c5ec","ios":"levelo://app?vid=527cd3ff-d70c-47e1-ab19-036f4aa6c5ec"},"vehicle_type_id":"4","last_reported":1773260587,"current_range_meters":39200,"station_id":"ce4bgkp2rcd13ifvqbmg","pricing_plan_id":"cebpf4jnsgd1na2vs0mg"},{"bike_id":"7c5d90d1-8ba7-4d11-a859-9263fa5d367b","system_id":"levelo_inurba_marseille","lat":43.337444,"lon":5.374475,"is_reserved":false,"is_disabled":true,"rental_uris":{"android":"levelo://app?vid=7c5d90d1-8ba7-4d11-a859-9263fa5d367b","ios":"levelo://app?vid=7c5d90d1-8ba7-4d11-a859-9263fa5d367b"},"vehicle_type_id":"4","last_reported":1773260587,"current_range_meters":10800,"station_id":"","pricing_plan_id":"cebpf4jnsgd1na2vs0mg"},{"bike_id":"31dcbbef-8b04-4595-b97a-04716353a42c","system_id":"levelo_inurba_marseille","lat":43.27915,"lon":5.39578,"is_reserved":false,"is_disabled":false,"rental_uris":{"android":"levelo://app?vid=31dcbbef-8b04-4595-b97a-04716353a42c","ios":"levelo://app?vid=31dcbbef-8b04-4595-b97a-04716353a42c"},"vehicle_type_id":"4","last_reported":1773260587,"current_range_meters":36800,"station_id":"ce4bhf92rcd13ifvqf40","pricing_plan_id":"cebpf4jnsgd1na2vs0mg"},{"bike_id":"3107859d-1495-4aad-80eb-703d2e7dc114","system_id":"levelo_inurba_marseille","lat":43.2863,"lon":5.37082,"is_reserved":false,"is_disabled":false,"rental_uris":{"android":"levelo://app?vid=3107859d-1495-4aad-80eb-703d2e7dc114","ios":"levelo://app?vid=3107859d-1495-4aad-80eb-703d2e7dc114"},"vehicle_type_id":"4","last_reported":1773260587,"current_range_meters":36800,"station_id":"ce4bht12rcd13ifvqi60","pricing_plan_id":"cebpf4jnsgd1na2vs0mg"},{"bike_id":"f62cbee2-12e5-4cdd-bfbc-04088f9f32fa","system_id":"levelo_inurba_marseille","lat":43.28481,"lon":5.4839,"is_reserved":false,"is_disabled":false,"rental_uris":{"android":"levelo://app?vid=f62cbee2-12e5-4cdd-bfbc-04088f9f32fa","ios":"levelo://app?vid=f62cbee2-12e5-4cdd-bfbc-04088f9f32fa"},"vehicle_type_id":"4","last_reported":1773260587,"current_range_meters":19200,"station_id":"","pricing_plan_id":"cebpf4jnsgd1na2vs0mg"},{"bike_id":"bee700c7-1392-47d2-897a-f8ba605c3dfc","system_id":"levelo_inurba_marseille","lat":43.29294,"lon":5.36814,"is_reserved":false,"is_disabled":false,"rental_uris":{"android":"levelo://app?vid=bee700c7-1392-47d2-897a-f8ba605c3dfc","ios":"levelo://app?vid=bee700c7-1392-47d2-897a-f8ba605c3dfc"},"vehicle_type_id":"4","last_reported":1773260587,"current_range_meters":35200,"station_id":"ce4bhbp2rcd13ifvqesg","pricing_plan_id":"cebpf4jnsgd1na2vs0mg"},{"bike_id":"bee33239-5c3c-4b65-9c48-8fa3b957f997","system_id":"levelo_inurba_marseille","lat":43.27997,"lon":5.40003,"is_reserved":false,"is_disabled":false,"rental_uris":{"android":"levelo://app?vid=bee33239-5c3c-4b65-9c48-8fa3b957f997","ios":"levelo://app?vid=bee33239-5c3c-4b65-9c48-8fa3b957f997"},"vehicle_type_id":"4","last_reported":1773260587,"current_range_meters":40000,"station_id":"ce4bho92rcd13ifvqh4g","pricing_plan_id":"cebpf4jnsgd1na2vs0mg"},{"bike_id":"19789858-1ce6-4714-be96-8a45f06c1294","system_id":"levelo_inurba_marseille","lat":43.29555,"lon":5.42277,"is_reserved":false,"is_disabled":false,"rental_uris":{"android":"levelo://app?vid=19789858-1ce6-4714-be96-8a45f06c1294","ios":"levelo://app?vid=19789858-1ce6-4714-be96-8a45f06c1294"},"vehicle_type_id":"4","last_reported":1773260587,"current_range_meters":39200,"station_id":"ce4bhph2rcd13ifvqhdg","pricing_plan_id":"cebpf4jnsgd1na2vs0mg"},{"bike_id":"681fca49-d7d0-4d64-ba5f-a1615360789c","system_id":"levelo_inurba_marseille","lat":43.25826,"lon":5.39417,"is_reserved":false,"is_disabled":false,"rental_uris":{"android":"levelo://app?vid=681fca49-d7d0-4d64-ba5f-a1615360789c","ios":"levelo://app?vid=681fca49-d7d0-4d64-ba5f-a1615360789c"},"vehicle_type_id":"4","last_reported":1773260587,"current_range_meters":36000,"station_id":"ce4bhip2rcd13ifvqft0","pricing_plan_id":"cebpf4jnsgd1na2vs0mg"},{"bike_id":"1918b481-90ac-4db8-ab90-5b674b0129ea","system_id":"levelo_inurba_marseille","lat":43.29545,"lon":5.38579,"is_reserved":false,"is_disabled":true,"rental_uris":{"android":"levelo://app?vid=1918b481-90ac-4db8-ab90-5b674b0129ea","ios":"levelo://app?vid=1918b481-90ac-4db8-ab90-5b674b0129ea"},"vehicle_type_id":"4","last_reported":1773260587,"current_range_meters":39200,"station_id":"ce4bgih2rcd13ifvqba0","pricing_plan_id":"cebpf4jnsgd1na2vs0mg"},{"bike_id":"ba3a231f-10a0-4302-b0e7-08f11861cd04","system_id":"levelo_inurba_marseille","lat":43.28483,"lon":5.48386,"is_reserved":false,"is_disabled":false,"rental_uris":{"android":"levelo://app?vid=ba3a231f-10a0-4302-b0e7-08f11861cd04","ios":"levelo://app?vid=ba3a231f-10a0-4302-b0e7-08f11861cd04"},"vehicle_type_id":"4","last_reported":1773260587,"current_range_meters":38000,"station_id":"","pricing_plan_id":"cebpf4jnsgd1na2vs0mg"},{"bike_id":"2f280020-4fd0-4c35-a3e5-87e99fea2ecd","system_id":"levelo_inurba_marseille","lat":43.29613,"lon":5.37714,"is_reserved":false,"is_disabled":false,"rental_uris":{"android":"levelo://app?vid=2f280020-4fd0-4c35-a3e5-87e99fea2ecd","ios":"levelo://app?vid=2f280020-4fd0-4c35-a3e5-87e99fea2ecd"},"vehicle_type_id":"4","last_reported":1773260587,"current_range_meters":36000,"station_id":"ce4bgi92rcd13ifvqb90","pricing_plan_id":"cebpf4jnsgd1na2vs0mg"},{"bike_id":"2e75c005-5175-48a0-82e8-e3519aa32705","system_id":"levelo_inurba_marseille","lat":43.28027,"lon":5.36941,"is_reserved":false,"is_disabled":false,"rental_uris":{"android":"levelo://app?vid=2e75c005-5175-48a0-82e8-e3519aa32705","ios":"levelo://app?vid=2e75c005-5175-48a0-82e8-e3519aa32705"},"vehicle_type_id":"4","last_reported":1773260587,"current_range_meters":38800,"station_id":"ce4bha12rcd13ifvqef0","pricing_plan_id":"cebpf4jnsgd1na2vs0mg"},{"bike_id":"be671c5b-fb45-47d4-8232-4da9e39592ca","system_id":"levelo_inurba_marseille","lat":43.24163,"lon":5.36397,"is_reserved":false,"is_disabled":false,"rental_uris":{"android":"levelo://app?vid=be671c5b-fb45-47d4-8232-4da9e39592ca","ios":"levelo://app?vid=be671c5b-fb45-47d4-8232-4da9e39592ca"},"vehicle_type_id":"4","last_reported":1773260587,"current_range_meters":17200,"station_id":"cpo36qri1sfpv3e86is0","pricing_plan_id":"cebpf4jnsgd1na2vs0mg"},{"bike_id":"352c9f7d-89b4-42e5-9e2e-76d972a274bd","system_id":"levelo_inurba_marseille","lat":43.28901,"lon":5.43248,"is_reserved":false,"is_disabled":false,"rental_uris":{"android":"levelo://app?vid=352c9f7d-89b4-42e5-9e2e-76d972a274bd","ios":"levelo://app?vid=352c9f7d-89b4-42e5-9e2e-76d972a274bd"},"vehicle_type_id":"4","last_reported":1773260587,"current_range_meters":9600,"station_id":"","pricing_plan_id":"cebpf4jnsgd1na2vs0mg"},{"bike_id":"ee3b92e6-e978-4a74-aa9d-70851b374002","system_id":"levelo_inurba_marseille","lat":43.29255,"lon":5.368,"is_reserved":false,"is_disabled":false,"rental_uris":{"android":"levelo://app?vid=ee3b92e6-e978-4a74-aa9d-70851b374002","ios":"levelo://app?vid=ee3b92e6-e978-4a74-aa9d-70851b374002"},"vehicle_type_id":"4","last_reported":1773260587,"current_range_meters":38400,"station_id":"ce4bhbp2rcd13ifvqesg","pricing_plan_id":"cebpf4jnsgd1na2vs0mg"},{"bike_id":"9f80a822-225d-4c57-92f9-03d4899dcd53","system_id":"levelo_inurba_marseille","lat":43.24801,"lon":5.37447,"is_reserved":false,"is_disabled":false,"rental_uris":{"android":"levelo://app?vid=9f80a822-225d-4c57-92f9-03d4899dcd53","ios":"levelo://app?vid=9f80a822-225d-4c57-92f9-03d4899dcd53"},"vehicle_type_id":"4","last_reported":1773260587,"current_range_meters":4400,"station_id":"ce4bhgh2rcd13ifvqfb0","pricing_plan_id":"cebpf4jnsgd1na2vs0mg"},{"bike_id":"c59a5209-1b70-42df-8250-859beecf23e1","system_id":"levelo_inurba_marseille","lat":43.23202,"lon":5.35552,"is_reserved":false,"is_disabled":false,"rental_uris":{"android":"levelo://app?vid=c59a5209-1b70-42df-8250-859beecf23e1","ios":"levelo://app?vid=c59a5209-1b70-42df-8250-859beecf23e1"},"vehicle_type_id":"4","last_reported":1773260587,"current_range_meters":35200,"station_id":"ce4bhu92rcd13ifvqi70","pricing_plan_id":"cebpf4jnsgd1na2vs0mg"},{"bike_id":"f336589f-866f-46c6-b212-a692ab2ba293","system_id":"levelo_inurba_marseille","lat":43.29684,"lon":5.37138,"is_reserved":false,"is_disabled":false,"rental_uris":{"android":"levelo://app?vid=f336589f-866f-46c6-b212-a692ab2ba293","ios":"levelo://app?vid=f336589f-866f-46c6-b212-a692ab2ba293"},"vehicle_type_id":"4","last_reported":1773260587,"current_range_meters":10000,"station_id":"","pricing_plan_id":"cebpf4jnsgd1na2vs0mg"},{"bike_id":"0cd66d28-7e82-45b0-8ff1-67acc098f64b","system_id":"levelo_inurba_marseille","lat":43.28422,"lon":5.34983,"is_reserved":false,"is_disabled":false,"rental_uris":{"android":"levelo://app?vid=0cd66d28-7e82-45b0-8ff1-67acc098f64b","ios":"levelo://app?vid=0cd66d28-7e82-45b0-8ff1-67acc098f64b"},"vehicle_type_id":"4","last_reported":1773260587,"current_range_meters":16800,"station_id":"ce4bhbh2rcd13ifvqepg","pricing_plan_id":"cebpf4jnsgd1na2vs0mg"},{"bike_id":"fed428a6-a508-4132-94d7-783075e10fe3","system_id":"levelo_inurba_marseille","lat":43.32355,"lon":5.36747,"is_reserved":false,"is_disabled":false,"rental_uris":{"android":"levelo://app?vid=fed428a6-a508-4132-94d7-783075e10fe3","ios":"levelo://app?vid=fed428a6-a508-4132-94d7-783075e10fe3"},"vehicle_type_id":"4","last_reported":1773260587,"current_range_meters":34000,"station_id":"ce4bhsh2rcd13ifvqi2g","pricing_plan_id":"cebpf4jnsgd1na2vs0mg"},{"bike_id":"4572d583-c559-41df-affc-23ace8c52434","system_id":"levelo_inurba_marseille","lat":43.26564,"lon":5.39058,"is_reserved":false,"is_disabled":false,"rental_uris":{"android":"levelo://app?vid=4572d583-c559-41df-affc-23ace8c52434","ios":"levelo://app?vid=4572d583-c559-41df-affc-23ace8c52434"},"vehicle_type_id":"4","last_reported":1773260587,"current_range_meters":6000,"station_id":"ce4bhe12rcd13ifvqf30","pricing_plan_id":"cebpf4jnsgd1na2vs0mg"},{"bike_id":"b77fb604-0801-47d9-99a2-3844aa44df9a","system_id":"levelo_inurba_marseille","lat":43.25332,"lon":5.42175,"is_reserved":false,"is_disabled":false,"rental_uris":{"android":"levelo://app?vid=b77fb604-0801-47d9-99a2-3844aa44df9a","ios":"levelo://app?vid=b77fb604-0801-47d9-99a2-3844aa44df9a"},"vehicle_type_id":"4","last_reported":1773260587,"current_range_meters":27600,"station_id":"st_d2m65c5bi1j21697t3ng","pricing_plan_id":"cebpf4jnsgd1na2vs0mg"},{"bike_id":"dcad9259-a4d3-4cc7-94fc-0c8a7321317d","system_id":"levelo_inurba_marseille","lat":43.27079,"lon":5.38281,"is_reserved":false,"is_disabled":false,"rental_uris":{"android":"levelo://app?vid=dcad9259-a4d3-4cc7-94fc-0c8a7321317d","ios":"levelo://app?vid=dcad9259-a4d3-4cc7-94fc-0c8a7321317d"},"vehicle_type_id":"4","last_reported":1773260587,"current_range_meters":28800,"station_id":"st_d3n2fo6cfp8s73cte1j0","pricing_plan_id":"cebpf4jnsgd1na2vs0mg"},{"bike_id":"a6308c57-1a36-41de-bb48-5ab4640b043f","system_id":"levelo_inurba_marseille","lat":43.29524,"lon":5.38552,"is_reserved":false,"is_disabled":false,"rental_uris":{"android":"levelo://app?vid=a6308c57-1a36-41de-bb48-5ab4640b043f","ios":"levelo://app?vid=a6308c57-1a36-41de-bb48-5ab4640b043f"},"vehicle_type_id":"4","last_reported":1773260587,"current_range_meters":25200,"station_id":"ce4bgih2rcd13ifvqba0","pricing_plan_id":"cebpf4jnsgd1na2vs0mg"},{"bike_id":"0bd65bd6-432d-4f03-9bc1-a502b4962690","system_id":"levelo_inurba_marseille","lat":43.30229,"lon":5.36831,"is_reserved":false,"is_disabled":false,"rental_uris":{"android":"levelo://app?vid=0bd65bd6-432d-4f03-9bc1-a502b4962690","ios":"levelo://app?vid=0bd65bd6-432d-4f03-9bc1-a502b4962690"},"vehicle_type_id":"4","last_reported":1773260587,"current_range_meters":26000,"station_id":"","pricing_plan_id":"cebpf4jnsgd1na2vs0mg"},{"bike_id":"e8e891cf-164b-4375-8667-e5eaa1ef09df","system_id":"levelo_inurba_marseille","lat":43.31752,"lon":5.39013,"is_reserved":false,"is_disabled":false,"rental_uris":{"android":"levelo://app?vid=e8e891cf-164b-4375-8667-e5eaa1ef09df","ios":"levelo://app?vid=e8e891cf-164b-4375-8667-e5eaa1ef09df"},"vehicle_type_id":"4","last_reported":1773260587,"current_range_meters":37600,"station_id":"ce4bhqp2rcd13ifvqhng","pricing_plan_id":"cebpf4jnsgd1na2vs0mg"},{"bike_id":"d54dd028-8c0c-4475-883d-9121345203c0","system_id":"levelo_inurba_marseille","lat":43.28447,"lon":5.39206,"is_reserved":false,"is_disabled":false,"rental_uris":{"android":"levelo://app?vid=d54dd028-8c0c-4475-883d-9121345203c0","ios":"levelo://app?vid=d54dd028-8c0c-4475-883d-9121345203c0"},"vehicle_type_id":"4","last_reported":1773260587,"current_range_meters":36800,"station_id":"ce4bhoh2rcd13ifvqh5g","pricing_plan_id":"cebpf4jnsgd1na2vs0mg"},{"bike_id":"a540b441-3928-4042-84dc-78cbd8de6fd0","system_id":"levelo_inurba_marseille","lat":43.244,"lon":5.37067,"is_reserved":false,"is_disabled":false,"rental_uris":{"android":"levelo://app?vid=a540b441-3928-4042-84dc-78cbd8de6fd0","ios":"levelo://app?vid=a540b441-3928-4042-84dc-78cbd8de6fd0"},"vehicle_type_id":"4","last_reported":1773260587,"current_range_meters":32800,"station_id":"ce4bhhh2rcd13ifvqfk0","pricing_plan_id":"cebpf4jnsgd1na2vs0mg"},{"bike_id":"d2a1bddb-abc2-4ccc-9c5f-dc2c9be0a497","system_id":"levelo_inurba_marseille","lat":43.29722,"lon":5.42615,"is_reserved":false,"is_disabled":true,"rental_uris":{"android":"levelo://app?vid=d2a1bddb-abc2-4ccc-9c5f-dc2c9be0a497","ios":"levelo://app?vid=d2a1bddb-abc2-4ccc-9c5f-dc2c9be0a497"},"vehicle_type_id":"4","last_reported":1773260587,"current_range_meters":0,"station_id":"","pricing_plan_id":"cebpf4jnsgd1na2vs0mg"},{"bike_id":"ef8a725e-5a72-4194-a622-63624b018fbd","system_id":"levelo_inurba_marseille","lat":43.30417,"lon":5.41287,"is_reserved":false,"is_disabled":false,"rental_uris":{"android":"levelo://app?vid=ef8a725e-5a72-4194-a622-63624b018fbd","ios":"levelo://app?vid=ef8a725e-5a72-4194-a622-63624b018fbd"},"vehicle_type_id":"4","last_reported":1773260587,"current_range_meters":37600,"station_id":"ce4bhop2rcd13ifvqh8g","pricing_plan_id":"cebpf4jnsgd1na2vs0mg"},{"bike_id":"809b7623-0e13-4184-a3c5-f483d3816773","system_id":"levelo_inurba_marseille","lat":43.29555,"lon":5.37537,"is_reserved":false,"is_disabled":true,"rental_uris":{"android":"levelo://app?vid=809b7623-0e13-4184-a3c5-f483d3816773","ios":"levelo://app?vid=809b7623-0e13-4184-a3c5-f483d3816773"},"vehicle_type_id":"4","last_reported":1773260587,"current_range_meters":2800,"station_id":"ce4bgh92rcd13ifvqb50","pricing_plan_id":"cebpf4jnsgd1na2vs0mg"},{"bike_id":"a9d3a396-4320-4aa2-8b28-7de67ef5885e","system_id":"levelo_inurba_marseille","lat":43.28143,"lon":5.42647,"is_reserved":false,"is_disabled":false,"rental_uris":{"android":"levelo://app?vid=a9d3a396-4320-4aa2-8b28-7de67ef5885e","ios":"levelo://app?vid=a9d3a396-4320-4aa2-8b28-7de67ef5885e"},"vehicle_type_id":"4","last_reported":1773260587,"current_range_meters":12400,"station_id":"ce4bhnh2rcd13ifvqgug","pricing_plan_id":"cebpf4jnsgd1na2vs0mg"},{"bike_id":"81f0010b-56c3-410c-a4c8-faf88f50003e","system_id":"levelo_inurba_marseille","lat":43.29579,"lon":5.39968,"is_reserved":false,"is_disabled":false,"rental_uris":{"android":"levelo://app?vid=81f0010b-56c3-410c-a4c8-faf88f50003e","ios":"levelo://app?vid=81f0010b-56c3-410c-a4c8-faf88f50003e"},"vehicle_type_id":"4","last_reported":1773260587,"current_range_meters":22400,"station_id":"ce4bh312rcd13ifvqdj0","pricing_plan_id":"cebpf4jnsgd1na2vs0mg"},{"bike_id":"412ebc32-5589-4f6e-8ac6-13ac9134d8c4","system_id":"levelo_inurba_marseille","lat":43.279694,"lon":5.387333,"is_reserved":false,"is_disabled":false,"rental_uris":{"android":"levelo://app?vid=412ebc32-5589-4f6e-8ac6-13ac9134d8c4","ios":"levelo://app?vid=412ebc32-5589-4f6e-8ac6-13ac9134d8c4"},"vehicle_type_id":"4","last_reported":1773260587,"current_range_meters":12400,"station_id":"ce4bhg12rcd13ifvqf80","pricing_plan_id":"cebpf4jnsgd1na2vs0mg"},{"bike_id":"333c6d19-9b97-49d6-a310-23161fb58ed2","system_id":"levelo_inurba_marseille","lat":43.25512,"lon":5.3766,"is_reserved":false,"is_disabled":false,"rental_uris":{"android":"levelo://app?vid=333c6d19-9b97-49d6-a310-23161fb58ed2","ios":"levelo://app?vid=333c6d19-9b97-49d6-a310-23161fb58ed2"},"vehicle_type_id":"4","last_reported":1773260587,"current_range_meters":10800,"station_id":"ce4bhh12rcd13ifvqff0","pricing_plan_id":"cebpf4jnsgd1na2vs0mg"},{"bike_id":"9c37c959-e40e-4036-bb6d-05b7579986fd","system_id":"levelo_inurba_marseille","lat":43.23186,"lon":5.3556,"is_reserved":false,"is_disabled":false,"rental_uris":{"android":"levelo://app?vid=9c37c959-e40e-4036-bb6d-05b7579986fd","ios":"levelo://app?vid=9c37c959-e40e-4036-bb6d-05b7579986fd"},"vehicle_type_id":"4","last_reported":1773260587,"current_range_meters":31200,"station_id":"ce4bhu92rcd13ifvqi70","pricing_plan_id":"cebpf4jnsgd1na2vs0mg"},{"bike_id":"d551195e-f5b0-490f-bac9-9dae68d902a4","system_id":"levelo_inurba_marseille","lat":43.21782,"lon":5.34586,"is_reserved":false,"is_disabled":false,"rental_uris":{"android":"levelo://app?vid=d551195e-f5b0-490f-bac9-9dae68d902a4","ios":"levelo://app?vid=d551195e-f5b0-490f-bac9-9dae68d902a4"},"vehicle_type_id":"4","last_reported":1773260587,"current_range_meters":36400,"station_id":"","pricing_plan_id":"cebpf4jnsgd1na2vs0mg"},{"bike_id":"f1bd63c5-a502-46f8-ba07-32edd3c6a892","system_id":"levelo_inurba_marseille","lat":43.29372,"lon":5.37849,"is_reserved":false,"is_disabled":false,"rental_uris":{"android":"levelo://app?vid=f1bd63c5-a502-46f8-ba07-32edd3c6a892","ios":"levelo://app?vid=f1bd63c5-a502-46f8-ba07-32edd3c6a892"},"vehicle_type_id":"4","last_reported":1773260587,"current_range_meters":39200,"station_id":"ce4bgjh2rcd13ifvqbf0","pricing_plan_id":"cebpf4jnsgd1na2vs0mg"},{"bike_id":"0a2f9b28-6219-4106-b011-3026133a767c","system_id":"levelo_inurba_marseille","lat":43.29614,"lon":5.38129,"is_reserved":false,"is_disabled":true,"rental_uris":{"android":"levelo://app?vid=0a2f9b28-6219-4106-b011-3026133a767c","ios":"levelo://app?vid=0a2f9b28-6219-4106-b011-3026133a767c"},"vehicle_type_id":"4","last_reported":1773260587,"current_range_meters":21600,"station_id":"ce4bgl12rcd13ifvqbo0","pricing_plan_id":"cebpf4jnsgd1na2vs0mg"},{"bike_id":"eb6dabef-f311-4a48-b3c1-4895808c6f3d","system_id":"levelo_inurba_marseille","lat":43.30914,"lon":5.36844,"is_reserved":false,"is_disabled":false,"rental_uris":{"android":"levelo://app?vid=eb6dabef-f311-4a48-b3c1-4895808c6f3d","ios":"levelo://app?vid=eb6dabef-f311-4a48-b3c1-4895808c6f3d"},"vehicle_type_id":"4","last_reported":1773260587,"current_range_meters":26000,"station_id":"ce4bgn92rcd13ifvqbvg","pricing_plan_id":"cebpf4jnsgd1na2vs0mg"},{"bike_id":"698d9a52-efc3-47db-9af6-f5c36a11a425","system_id":"levelo_inurba_marseille","lat":43.29866,"lon":5.39758,"is_reserved":false,"is_disabled":false,"rental_uris":{"android":"levelo://app?vid=698d9a52-efc3-47db-9af6-f5c36a11a425","ios":"levelo://app?vid=698d9a52-efc3-47db-9af6-f5c36a11a425"},"vehicle_type_id":"4","last_reported":1773260587,"current_range_meters":22800,"station_id":"ce4bh0h2rcd13ifvqd50","pricing_plan_id":"cebpf4jnsgd1na2vs0mg"},{"bike_id":"8f12366d-bd54-40c2-8054-8aef3d861465","system_id":"levelo_inurba_marseille","lat":43.31326,"lon":5.39693,"is_reserved":false,"is_disabled":false,"rental_uris":{"android":"levelo://app?vid=8f12366d-bd54-40c2-8054-8aef3d861465","ios":"levelo://app?vid=8f12366d-bd54-40c2-8054-8aef3d861465"},"vehicle_type_id":"4","last_reported":1773260587,"current_range_meters":16800,"station_id":"ce4bgvp2rcd13ifvqcu0","pricing_plan_id":"cebpf4jnsgd1na2vs0mg"},{"bike_id":"c73dc152-9938-46ce-972e-77003c30697b","system_id":"levelo_inurba_marseille","lat":43.25824,"lon":5.39429,"is_reserved":false,"is_disabled":false,"rental_uris":{"android":"levelo://app?vid=c73dc152-9938-46ce-972e-77003c30697b","ios":"levelo://app?vid=c73dc152-9938-46ce-972e-77003c30697b"},"vehicle_type_id":"4","last_reported":1773260587,"current_range_meters":38400,"station_id":"ce4bhip2rcd13ifvqft0","pricing_plan_id":"cebpf4jnsgd1na2vs0mg"},{"bike_id":"1ca4f37a-c665-4f5a-bf5a-4bcd8eeadb2f","system_id":"levelo_inurba_marseille","lat":43.24078,"lon":5.37743,"is_reserved":false,"is_disabled":false,"rental_uris":{"android":"levelo://app?vid=1ca4f37a-c665-4f5a-bf5a-4bcd8eeadb2f","ios":"levelo://app?vid=1ca4f37a-c665-4f5a-bf5a-4bcd8eeadb2f"},"vehicle_type_id":"4","last_reported":1773260587,"current_range_meters":4000,"station_id":"ce4bhnp2rcd13ifvqgvg","pricing_plan_id":"cebpf4jnsgd1na2vs0mg"},{"bike_id":"a975d39d-4a14-4e0c-8235-9aa6495c9757","system_id":"levelo_inurba_marseille","lat":43.275,"lon":5.42457,"is_reserved":false,"is_disabled":false,"rental_uris":{"android":"levelo://app?vid=a975d39d-4a14-4e0c-8235-9aa6495c9757","ios":"levelo://app?vid=a975d39d-4a14-4e0c-8235-9aa6495c9757"},"vehicle_type_id":"4","last_reported":1773260587,"current_range_meters":16800,"station_id":"ce4bhn92rcd13ifvqgrg","pricing_plan_id":"cebpf4jnsgd1na2vs0mg"},{"bike_id":"91e32d86-1b24-451a-ad1f-a39cf912c8f9","system_id":"levelo_inurba_marseille","lat":43.27812,"lon":5.40713,"is_reserved":false,"is_disabled":false,"rental_uris":{"android":"levelo://app?vid=91e32d86-1b24-451a-ad1f-a39cf912c8f9","ios":"levelo://app?vid=91e32d86-1b24-451a-ad1f-a39cf912c8f9"},"vehicle_type_id":"4","last_reported":1773260587,"current_range_meters":9200,"station_id":"ce4bhnh2rcd13ifvqgtg","pricing_plan_id":"cebpf4jnsgd1na2vs0mg"},{"bike_id":"190aeb3d-9b19-4215-a0b5-4ec8ba77c7d4","system_id":"levelo_inurba_marseille","lat":43.2925,"lon":5.3845,"is_reserved":false,"is_disabled":false,"rental_uris":{"android":"levelo://app?vid=190aeb3d-9b19-4215-a0b5-4ec8ba77c7d4","ios":"levelo://app?vid=190aeb3d-9b19-4215-a0b5-4ec8ba77c7d4"},"vehicle_type_id":"4","last_reported":1773260587,"current_range_meters":30400,"station_id":"ce4bh692rcd13ifvqea0","pricing_plan_id":"cebpf4jnsgd1na2vs0mg"},{"bike_id":"264724dc-f94b-40a3-84e3-1ac3492adf5a","system_id":"levelo_inurba_marseille","lat":43.28967,"lon":5.39207,"is_reserved":false,"is_disabled":false,"rental_uris":{"android":"levelo://app?vid=264724dc-f94b-40a3-84e3-1ac3492adf5a","ios":"levelo://app?vid=264724dc-f94b-40a3-84e3-1ac3492adf5a"},"vehicle_type_id":"4","last_reported":1773260587,"current_range_meters":24400,"station_id":"","pricing_plan_id":"cebpf4jnsgd1na2vs0mg"},{"bike_id":"8848e8a4-b487-4cd3-81bd-7db9a47a717f","system_id":"levelo_inurba_marseille","lat":43.29586,"lon":5.39976,"is_reserved":false,"is_disabled":false,"rental_uris":{"android":"levelo://app?vid=8848e8a4-b487-4cd3-81bd-7db9a47a717f","ios":"levelo://app?vid=8848e8a4-b487-4cd3-81bd-7db9a47a717f"},"vehicle_type_id":"4","last_reported":1773260587,"current_range_meters":38400,"station_id":"ce4bh312rcd13ifvqdj0","pricing_plan_id":"cebpf4jnsgd1na2vs0mg"},{"bike_id":"e0a31661-3884-4f1e-8b17-8ab88bd486c3","system_id":"levelo_inurba_marseille","lat":43.29285,"lon":5.40119,"is_reserved":false,"is_disabled":false,"rental_uris":{"android":"levelo://app?vid=e0a31661-3884-4f1e-8b17-8ab88bd486c3","ios":"levelo://app?vid=e0a31661-3884-4f1e-8b17-8ab88bd486c3"},"vehicle_type_id":"4","last_reported":1773260587,"current_range_meters":8000,"station_id":"ce4bh312rcd13ifvqdk0","pricing_plan_id":"cebpf4jnsgd1na2vs0mg"},{"bike_id":"6e6a11b7-c6a2-43bb-9b3d-8cae64a5805a","system_id":"levelo_inurba_marseille","lat":43.28843,"lon":5.35838,"is_reserved":false,"is_disabled":false,"rental_uris":{"android":"levelo://app?vid=6e6a11b7-c6a2-43bb-9b3d-8cae64a5805a","ios":"levelo://app?vid=6e6a11b7-c6a2-43bb-9b3d-8cae64a5805a"},"vehicle_type_id":"4","last_reported":1773260587,"current_range_meters":35200,"station_id":"ce4bhb12rcd13ifvqem0","pricing_plan_id":"cebpf4jnsgd1na2vs0mg"},{"bike_id":"6fb5ab57-ef29-41f3-8acd-c554076c0bbe","system_id":"levelo_inurba_marseille","lat":43.29267,"lon":5.36842,"is_reserved":false,"is_disabled":true,"rental_uris":{"android":"levelo://app?vid=6fb5ab57-ef29-41f3-8acd-c554076c0bbe","ios":"levelo://app?vid=6fb5ab57-ef29-41f3-8acd-c554076c0bbe"},"vehicle_type_id":"4","last_reported":1773260587,"current_range_meters":38000,"station_id":"ce4bhbp2rcd13ifvqesg","pricing_plan_id":"cebpf4jnsgd1na2vs0mg"},{"bike_id":"841ff32f-7656-4dac-bf2f-0ce77f8d7bff","system_id":"levelo_inurba_marseille","lat":43.27176,"lon":5.40999,"is_reserved":false,"is_disabled":false,"rental_uris":{"android":"levelo://app?vid=841ff32f-7656-4dac-bf2f-0ce77f8d7bff","ios":"levelo://app?vid=841ff32f-7656-4dac-bf2f-0ce77f8d7bff"},"vehicle_type_id":"4","last_reported":1773260587,"current_range_meters":34800,"station_id":"ce4bhl12rcd13ifvqgf0","pricing_plan_id":"cebpf4jnsgd1na2vs0mg"},{"bike_id":"2f366023-0485-43bc-98b5-e57cb9119606","system_id":"levelo_inurba_marseille","lat":43.30652,"lon":5.40093,"is_reserved":false,"is_disabled":false,"rental_uris":{"android":"levelo://app?vid=2f366023-0485-43bc-98b5-e57cb9119606","ios":"levelo://app?vid=2f366023-0485-43bc-98b5-e57cb9119606"},"vehicle_type_id":"4","last_reported":1773260587,"current_range_meters":6400,"station_id":"ce4bh112rcd13ifvqda0","pricing_plan_id":"cebpf4jnsgd1na2vs0mg"},{"bike_id":"34f67e69-6b22-4c95-8433-44ed5a9fe043","system_id":"levelo_inurba_marseille","lat":43.23195,"lon":5.35548,"is_reserved":false,"is_disabled":false,"rental_uris":{"android":"levelo://app?vid=34f67e69-6b22-4c95-8433-44ed5a9fe043","ios":"levelo://app?vid=34f67e69-6b22-4c95-8433-44ed5a9fe043"},"vehicle_type_id":"4","last_reported":1773260587,"current_range_meters":15200,"station_id":"ce4bhu92rcd13ifvqi70","pricing_plan_id":"cebpf4jnsgd1na2vs0mg"},{"bike_id":"bf1928a7-9675-4e72-b8af-9fcd53605e19","system_id":"levelo_inurba_marseille","lat":43.2756,"lon":5.38429,"is_reserved":false,"is_disabled":false,"rental_uris":{"android":"levelo://app?vid=bf1928a7-9675-4e72-b8af-9fcd53605e19","ios":"levelo://app?vid=bf1928a7-9675-4e72-b8af-9fcd53605e19"},"vehicle_type_id":"4","last_reported":1773260587,"current_range_meters":12800,"station_id":"ce4bhh92rcd13ifvqfi0","pricing_plan_id":"cebpf4jnsgd1na2vs0mg"},{"bike_id":"a63d22a1-9803-47da-97c5-9eb5069b8019","system_id":"levelo_inurba_marseille","lat":43.25836,"lon":5.39416,"is_reserved":false,"is_disabled":false,"rental_uris":{"android":"levelo://app?vid=a63d22a1-9803-47da-97c5-9eb5069b8019","ios":"levelo://app?vid=a63d22a1-9803-47da-97c5-9eb5069b8019"},"vehicle_type_id":"4","last_reported":1773260587,"current_range_meters":38400,"station_id":"ce4bhip2rcd13ifvqft0","pricing_plan_id":"cebpf4jnsgd1na2vs0mg"},{"bike_id":"dca5e579-20a1-445a-b2af-4f6dc2e8ffa0","system_id":"levelo_inurba_marseille","lat":43.296,"lon":5.38104,"is_reserved":false,"is_disabled":false,"rental_uris":{"android":"levelo://app?vid=dca5e579-20a1-445a-b2af-4f6dc2e8ffa0","ios":"levelo://app?vid=dca5e579-20a1-445a-b2af-4f6dc2e8ffa0"},"vehicle_type_id":"4","last_reported":1773260587,"current_range_meters":16400,"station_id":"ce4bgl12rcd13ifvqbo0","pricing_plan_id":"cebpf4jnsgd1na2vs0mg"},{"bike_id":"8b2e521b-1101-44fe-9d4a-0344f080c81c","system_id":"levelo_inurba_marseille","lat":43.28476,"lon":5.48405,"is_reserved":false,"is_disabled":false,"rental_uris":{"android":"levelo://app?vid=8b2e521b-1101-44fe-9d4a-0344f080c81c","ios":"levelo://app?vid=8b2e521b-1101-44fe-9d4a-0344f080c81c"},"vehicle_type_id":"4","last_reported":1773260587,"current_range_meters":36000,"station_id":"","pricing_plan_id":"cebpf4jnsgd1na2vs0mg"},{"bike_id":"95589260-830c-4b7a-b45f-29b29c821038","system_id":"levelo_inurba_marseille","lat":43.29879,"lon":5.3891,"is_reserved":false,"is_disabled":false,"rental_uris":{"android":"levelo://app?vid=95589260-830c-4b7a-b45f-29b29c821038","ios":"levelo://app?vid=95589260-830c-4b7a-b45f-29b29c821038"},"vehicle_type_id":"4","last_reported":1773260587,"current_range_meters":24800,"station_id":"ce4bh392rcd13ifvqdl0","pricing_plan_id":"cebpf4jnsgd1na2vs0mg"},{"bike_id":"1697678c-c8a4-4c47-ade7-901915c540a8","system_id":"levelo_inurba_marseille","lat":43.29598,"lon":5.381,"is_reserved":false,"is_disabled":true,"rental_uris":{"android":"levelo://app?vid=1697678c-c8a4-4c47-ade7-901915c540a8","ios":"levelo://app?vid=1697678c-c8a4-4c47-ade7-901915c540a8"},"vehicle_type_id":"4","last_reported":1773260587,"current_range_meters":5600,"station_id":"ce4bgl12rcd13ifvqbo0","pricing_plan_id":"cebpf4jnsgd1na2vs0mg"},{"bike_id":"d80f8b21-307b-47a6-b275-9c8747f4f8fb","system_id":"levelo_inurba_marseille","lat":43.25091,"lon":5.39521,"is_reserved":false,"is_disabled":false,"rental_uris":{"android":"levelo://app?vid=d80f8b21-307b-47a6-b275-9c8747f4f8fb","ios":"levelo://app?vid=d80f8b21-307b-47a6-b275-9c8747f4f8fb"},"vehicle_type_id":"4","last_reported":1773260587,"current_range_meters":12800,"station_id":"ce4bhm12rcd13ifvqgkg","pricing_plan_id":"cebpf4jnsgd1na2vs0mg"},{"bike_id":"66528f80-fb68-498d-bd2d-ca4ea15bdef0","system_id":"levelo_inurba_marseille","lat":43.26494,"lon":5.39558,"is_reserved":false,"is_disabled":false,"rental_uris":{"android":"levelo://app?vid=66528f80-fb68-498d-bd2d-ca4ea15bdef0","ios":"levelo://app?vid=66528f80-fb68-498d-bd2d-ca4ea15bdef0"},"vehicle_type_id":"4","last_reported":1773260587,"current_range_meters":36800,"station_id":"ce4bhi12rcd13ifvqfq0","pricing_plan_id":"cebpf4jnsgd1na2vs0mg"},{"bike_id":"4ce569eb-e43d-41ec-b666-411392434e4c","system_id":"levelo_inurba_marseille","lat":43.2927,"lon":5.38468,"is_reserved":false,"is_disabled":false,"rental_uris":{"android":"levelo://app?vid=4ce569eb-e43d-41ec-b666-411392434e4c","ios":"levelo://app?vid=4ce569eb-e43d-41ec-b666-411392434e4c"},"vehicle_type_id":"4","last_reported":1773260587,"current_range_meters":30400,"station_id":"ce4bh692rcd13ifvqea0","pricing_plan_id":"cebpf4jnsgd1na2vs0mg"},{"bike_id":"cb6cccbe-5f44-4b6e-a9b7-32582ca4b7c1","system_id":"levelo_inurba_marseille","lat":43.31894,"lon":5.40729,"is_reserved":false,"is_disabled":false,"rental_uris":{"android":"levelo://app?vid=cb6cccbe-5f44-4b6e-a9b7-32582ca4b7c1","ios":"levelo://app?vid=cb6cccbe-5f44-4b6e-a9b7-32582ca4b7c1"},"vehicle_type_id":"4","last_reported":1773260587,"current_range_meters":14800,"station_id":"ce4bhq12rcd13ifvqhig","pricing_plan_id":"cebpf4jnsgd1na2vs0mg"},{"bike_id":"c67ea42e-7de9-481c-81f7-f0ae210e353e","system_id":"levelo_inurba_marseille","lat":43.31997,"lon":5.38151,"is_reserved":false,"is_disabled":false,"rental_uris":{"android":"levelo://app?vid=c67ea42e-7de9-481c-81f7-f0ae210e353e","ios":"levelo://app?vid=c67ea42e-7de9-481c-81f7-f0ae210e353e"},"vehicle_type_id":"4","last_reported":1773260587,"current_range_meters":39200,"station_id":"ce4bhr12rcd13ifvqhpg","pricing_plan_id":"cebpf4jnsgd1na2vs0mg"},{"bike_id":"7ccf4f3a-167c-4db8-be20-52dc77905c7c","system_id":"levelo_inurba_marseille","lat":43.26498,"lon":5.39572,"is_reserved":false,"is_disabled":false,"rental_uris":{"android":"levelo://app?vid=7ccf4f3a-167c-4db8-be20-52dc77905c7c","ios":"levelo://app?vid=7ccf4f3a-167c-4db8-be20-52dc77905c7c"},"vehicle_type_id":"4","last_reported":1773260587,"current_range_meters":19600,"station_id":"ce4bhi12rcd13ifvqfq0","pricing_plan_id":"cebpf4jnsgd1na2vs0mg"},{"bike_id":"a76fd0bc-5142-4d71-8a90-0cc97361118e","system_id":"levelo_inurba_marseille","lat":43.28936,"lon":5.3663,"is_reserved":false,"is_disabled":true,"rental_uris":{"android":"levelo://app?vid=a76fd0bc-5142-4d71-8a90-0cc97361118e","ios":"levelo://app?vid=a76fd0bc-5142-4d71-8a90-0cc97361118e"},"vehicle_type_id":"4","last_reported":1773260587,"current_range_meters":400,"station_id":"ce4bhap2rcd13ifvqek0","pricing_plan_id":"cebpf4jnsgd1na2vs0mg"},{"bike_id":"20ef9d47-9471-4c6c-9fe4-852f5a927718","system_id":"levelo_inurba_marseille","lat":43.26406,"lon":5.41047,"is_reserved":false,"is_disabled":false,"rental_uris":{"android":"levelo://app?vid=20ef9d47-9471-4c6c-9fe4-852f5a927718","ios":"levelo://app?vid=20ef9d47-9471-4c6c-9fe4-852f5a927718"},"vehicle_type_id":"4","last_reported":1773260587,"current_range_meters":25200,"station_id":"st_d4e5ca6na9uc73bfl5fg","pricing_plan_id":"cebpf4jnsgd1na2vs0mg"},{"bike_id":"2ec0d240-9fa8-4251-9c9b-1cc6d98b3d6c","system_id":"levelo_inurba_marseille","lat":43.25577,"lon":5.3824,"is_reserved":false,"is_disabled":false,"rental_uris":{"android":"levelo://app?vid=2ec0d240-9fa8-4251-9c9b-1cc6d98b3d6c","ios":"levelo://app?vid=2ec0d240-9fa8-4251-9c9b-1cc6d98b3d6c"},"vehicle_type_id":"4","last_reported":1773260587,"current_range_meters":24000,"station_id":"ce4bhih2rcd13ifvqfs0","pricing_plan_id":"cebpf4jnsgd1na2vs0mg"},{"bike_id":"26a6b2e2-002a-4072-a1a2-b594f4e8b66c","system_id":"levelo_inurba_marseille","lat":43.30879,"lon":5.37342,"is_reserved":false,"is_disabled":false,"rental_uris":{"android":"levelo://app?vid=26a6b2e2-002a-4072-a1a2-b594f4e8b66c","ios":"levelo://app?vid=26a6b2e2-002a-4072-a1a2-b594f4e8b66c"},"vehicle_type_id":"4","last_reported":1773260587,"current_range_meters":28800,"station_id":"","pricing_plan_id":"cebpf4jnsgd1na2vs0mg"},{"bike_id":"648c82f4-35a0-4c3b-9c06-60b99e1dc22d","system_id":"levelo_inurba_marseille","lat":43.29782,"lon":5.39347,"is_reserved":false,"is_disabled":false,"rental_uris":{"android":"levelo://app?vid=648c82f4-35a0-4c3b-9c06-60b99e1dc22d","ios":"levelo://app?vid=648c82f4-35a0-4c3b-9c06-60b99e1dc22d"},"vehicle_type_id":"4","last_reported":1773260587,"current_range_meters":30400,"station_id":"chh1huq6cuj3fo74tm60","pricing_plan_id":"cebpf4jnsgd1na2vs0mg"},{"bike_id":"5427f33b-9c12-4d35-9e4f-95e705df3b08","system_id":"levelo_inurba_marseille","lat":43.30272,"lon":5.40082,"is_reserved":false,"is_disabled":false,"rental_uris":{"android":"levelo://app?vid=5427f33b-9c12-4d35-9e4f-95e705df3b08","ios":"levelo://app?vid=5427f33b-9c12-4d35-9e4f-95e705df3b08"},"vehicle_type_id":"4","last_reported":1773260587,"current_range_meters":20400,"station_id":"ce4bgvh2rcd13ifvqcs0","pricing_plan_id":"cebpf4jnsgd1na2vs0mg"},{"bike_id":"270d1b7c-42f5-4a51-af79-d949686283d3","system_id":"levelo_inurba_marseille","lat":43.27557,"lon":5.38426,"is_reserved":false,"is_disabled":false,"rental_uris":{"android":"levelo://app?vid=270d1b7c-42f5-4a51-af79-d949686283d3","ios":"levelo://app?vid=270d1b7c-42f5-4a51-af79-d949686283d3"},"vehicle_type_id":"4","last_reported":1773260587,"current_range_meters":14400,"station_id":"ce4bhh92rcd13ifvqfi0","pricing_plan_id":"cebpf4jnsgd1na2vs0mg"},{"bike_id":"16b990bd-4606-4271-8a2e-8a3444597059","system_id":"levelo_inurba_marseille","lat":43.24667,"lon":5.38168,"is_reserved":false,"is_disabled":false,"rental_uris":{"android":"levelo://app?vid=16b990bd-4606-4271-8a2e-8a3444597059","ios":"levelo://app?vid=16b990bd-4606-4271-8a2e-8a3444597059"},"vehicle_type_id":"4","last_reported":1773260587,"current_range_meters":13600,"station_id":"ce4bhih2rcd13ifvqfr0","pricing_plan_id":"cebpf4jnsgd1na2vs0mg"},{"bike_id":"43dec2c9-0ed1-464f-872a-fff85f3760db","system_id":"levelo_inurba_marseille","lat":43.29591,"lon":5.36747,"is_reserved":false,"is_disabled":false,"rental_uris":{"android":"levelo://app?vid=43dec2c9-0ed1-464f-872a-fff85f3760db","ios":"levelo://app?vid=43dec2c9-0ed1-464f-872a-fff85f3760db"},"vehicle_type_id":"4","last_reported":1773260587,"current_range_meters":30400,"station_id":"ce4bgph2rcd13ifvqc2g","pricing_plan_id":"cebpf4jnsgd1na2vs0mg"},{"bike_id":"56f16281-f82a-491a-9201-f5634cda2ef9","system_id":"levelo_inurba_marseille","lat":43.26037,"lon":5.37541,"is_reserved":false,"is_disabled":false,"rental_uris":{"android":"levelo://app?vid=56f16281-f82a-491a-9201-f5634cda2ef9","ios":"levelo://app?vid=56f16281-f82a-491a-9201-f5634cda2ef9"},"vehicle_type_id":"4","last_reported":1773260587,"current_range_meters":39200,"station_id":"ce4bhgh2rcd13ifvqfa0","pricing_plan_id":"cebpf4jnsgd1na2vs0mg"},{"bike_id":"f46b5aee-9b48-4ec0-8861-80cf0777d963","system_id":"levelo_inurba_marseille","lat":43.29621,"lon":5.37731,"is_reserved":false,"is_disabled":false,"rental_uris":{"android":"levelo://app?vid=f46b5aee-9b48-4ec0-8861-80cf0777d963","ios":"levelo://app?vid=f46b5aee-9b48-4ec0-8861-80cf0777d963"},"vehicle_type_id":"4","last_reported":1773260587,"current_range_meters":14000,"station_id":"ce4bgi92rcd13ifvqb90","pricing_plan_id":"cebpf4jnsgd1na2vs0mg"},{"bike_id":"65633d4a-0725-46b4-a261-49fd9deff099","system_id":"levelo_inurba_marseille","lat":43.28733,"lon":5.37957,"is_reserved":false,"is_disabled":false,"rental_uris":{"android":"levelo://app?vid=65633d4a-0725-46b4-a261-49fd9deff099","ios":"levelo://app?vid=65633d4a-0725-46b4-a261-49fd9deff099"},"vehicle_type_id":"4","last_reported":1773260587,"current_range_meters":10800,"station_id":"ce4bh9p2rcd13ifvqec0","pricing_plan_id":"cebpf4jnsgd1na2vs0mg"},{"bike_id":"f7dafe7c-4b45-481f-a427-ab6708f3f1d8","system_id":"levelo_inurba_marseille","lat":43.28137,"lon":5.42628,"is_reserved":false,"is_disabled":true,"rental_uris":{"android":"levelo://app?vid=f7dafe7c-4b45-481f-a427-ab6708f3f1d8","ios":"levelo://app?vid=f7dafe7c-4b45-481f-a427-ab6708f3f1d8"},"vehicle_type_id":"4","last_reported":1773260587,"current_range_meters":0,"station_id":"ce4bhnh2rcd13ifvqgug","pricing_plan_id":"cebpf4jnsgd1na2vs0mg"},{"bike_id":"a0c784b9-42c4-491d-a0d9-55090cde3956","system_id":"levelo_inurba_marseille","lat":43.28456,"lon":5.35886,"is_reserved":false,"is_disabled":false,"rental_uris":{"android":"levelo://app?vid=a0c784b9-42c4-491d-a0d9-55090cde3956","ios":"levelo://app?vid=a0c784b9-42c4-491d-a0d9-55090cde3956"},"vehicle_type_id":"4","last_reported":1773260587,"current_range_meters":6800,"station_id":"ce4bhah2rcd13ifvqei0","pricing_plan_id":"cebpf4jnsgd1na2vs0mg"},{"bike_id":"354b5bda-3949-4498-85b6-eb76538c91b8","system_id":"levelo_inurba_marseille","lat":43.26062,"lon":5.39386,"is_reserved":false,"is_disabled":false,"rental_uris":{"android":"levelo://app?vid=354b5bda-3949-4498-85b6-eb76538c91b8","ios":"levelo://app?vid=354b5bda-3949-4498-85b6-eb76538c91b8"},"vehicle_type_id":"4","last_reported":1773260587,"current_range_meters":31200,"station_id":"ce4bhh92rcd13ifvqfj0","pricing_plan_id":"cebpf4jnsgd1na2vs0mg"},{"bike_id":"12fe9704-c16a-418e-bb73-6f796b92e6ae","system_id":"levelo_inurba_marseille","lat":43.29649,"lon":5.44365,"is_reserved":false,"is_disabled":true,"rental_uris":{"android":"levelo://app?vid=12fe9704-c16a-418e-bb73-6f796b92e6ae","ios":"levelo://app?vid=12fe9704-c16a-418e-bb73-6f796b92e6ae"},"vehicle_type_id":"4","last_reported":1773260587,"current_range_meters":0,"station_id":"","pricing_plan_id":"cebpf4jnsgd1na2vs0mg"},{"bike_id":"31eab7aa-d2ff-4d19-8af0-c2c63f0c6b5f","system_id":"levelo_inurba_marseille","lat":43.23187,"lon":5.35553,"is_reserved":false,"is_disabled":false,"rental_uris":{"android":"levelo://app?vid=31eab7aa-d2ff-4d19-8af0-c2c63f0c6b5f","ios":"levelo://app?vid=31eab7aa-d2ff-4d19-8af0-c2c63f0c6b5f"},"vehicle_type_id":"4","last_reported":1773260587,"current_range_meters":24400,"station_id":"ce4bhu92rcd13ifvqi70","pricing_plan_id":"cebpf4jnsgd1na2vs0mg"},{"bike_id":"9213625e-e9db-49ce-8252-de6908a52240","system_id":"levelo_inurba_marseille","lat":43.24804,"lon":5.37452,"is_reserved":false,"is_disabled":false,"rental_uris":{"android":"levelo://app?vid=9213625e-e9db-49ce-8252-de6908a52240","ios":"levelo://app?vid=9213625e-e9db-49ce-8252-de6908a52240"},"vehicle_type_id":"4","last_reported":1773260587,"current_range_meters":40000,"station_id":"ce4bhgh2rcd13ifvqfb0","pricing_plan_id":"cebpf4jnsgd1na2vs0mg"},{"bike_id":"785376c8-0f15-4beb-96fa-7243979c8300","system_id":"levelo_inurba_marseille","lat":43.27826,"lon":5.40757,"is_reserved":false,"is_disabled":false,"rental_uris":{"android":"levelo://app?vid=785376c8-0f15-4beb-96fa-7243979c8300","ios":"levelo://app?vid=785376c8-0f15-4beb-96fa-7243979c8300"},"vehicle_type_id":"4","last_reported":1773260587,"current_range_meters":6000,"station_id":"ce4bhnh2rcd13ifvqgtg","pricing_plan_id":"cebpf4jnsgd1na2vs0mg"},{"bike_id":"dd46cbe1-dfe8-4958-abe7-3699fb39f2c0","system_id":"levelo_inurba_marseille","lat":43.28459,"lon":5.35894,"is_reserved":false,"is_disabled":false,"rental_uris":{"android":"levelo://app?vid=dd46cbe1-dfe8-4958-abe7-3699fb39f2c0","ios":"levelo://app?vid=dd46cbe1-dfe8-4958-abe7-3699fb39f2c0"},"vehicle_type_id":"4","last_reported":1773260587,"current_range_meters":34000,"station_id":"ce4bhah2rcd13ifvqei0","pricing_plan_id":"cebpf4jnsgd1na2vs0mg"},{"bike_id":"a0aa8461-cd6a-4db7-9d35-4a39cc18dc6b","system_id":"levelo_inurba_marseille","lat":43.30513,"lon":5.36647,"is_reserved":false,"is_disabled":true,"rental_uris":{"android":"levelo://app?vid=a0aa8461-cd6a-4db7-9d35-4a39cc18dc6b","ios":"levelo://app?vid=a0aa8461-cd6a-4db7-9d35-4a39cc18dc6b"},"vehicle_type_id":"4","last_reported":1773260587,"current_range_meters":24400,"station_id":"","pricing_plan_id":"cebpf4jnsgd1na2vs0mg"},{"bike_id":"4e381daf-665f-46c2-ab70-becfa23c1f4e","system_id":"levelo_inurba_marseille","lat":43.28262,"lon":5.35069,"is_reserved":false,"is_disabled":false,"rental_uris":{"android":"levelo://app?vid=4e381daf-665f-46c2-ab70-becfa23c1f4e","ios":"levelo://app?vid=4e381daf-665f-46c2-ab70-becfa23c1f4e"},"vehicle_type_id":"4","last_reported":1773260587,"current_range_meters":40000,"station_id":"ce4bhbp2rcd13ifvqerg","pricing_plan_id":"cebpf4jnsgd1na2vs0mg"},{"bike_id":"229ffee0-5f42-4769-891d-25241baabe25","system_id":"levelo_inurba_marseille","lat":43.28039,"lon":5.36941,"is_reserved":false,"is_disabled":false,"rental_uris":{"android":"levelo://app?vid=229ffee0-5f42-4769-891d-25241baabe25","ios":"levelo://app?vid=229ffee0-5f42-4769-891d-25241baabe25"},"vehicle_type_id":"4","last_reported":1773260587,"current_range_meters":8800,"station_id":"ce4bha12rcd13ifvqef0","pricing_plan_id":"cebpf4jnsgd1na2vs0mg"},{"bike_id":"f867b88c-51b1-4ee5-b323-730e045c4c1e","system_id":"levelo_inurba_marseille","lat":43.28183,"lon":5.42642,"is_reserved":false,"is_disabled":false,"rental_uris":{"android":"levelo://app?vid=f867b88c-51b1-4ee5-b323-730e045c4c1e","ios":"levelo://app?vid=f867b88c-51b1-4ee5-b323-730e045c4c1e"},"vehicle_type_id":"4","last_reported":1773260587,"current_range_meters":19600,"station_id":"ce4bhnh2rcd13ifvqgug","pricing_plan_id":"cebpf4jnsgd1na2vs0mg"},