{"last_updated":1773779303,"ttl":60,"version":"2.2","data":{"bikes":[{"bike_id":"5546bd0f-7ced-4964-ba48-a430fa2adf47","system_id":"levelo_inurba_marseille","lat":43.21737,"lon":5.34618,"is_reserved":false,"is_disabled":true,"rental_uris":{"android":"levelo://app?vid=5546bd0f-7ced-4964-ba48-a430fa2adf47","ios":"levelo://app?vid=5546bd0f-7ced-4964-ba48-a430fa2adf47"},"vehicle_type_id":"4","last_reported":1773779303,"current_range_meters":2800,"station_id":"st_cvj6r9ubvosntc0bgbag","pricing_plan_id":"cebpf4jnsgd1na2vs0mg"},{"bike_id":"ab8ed3cf-dd65-453b-87ca-077ce7ed25e8","system_id":"levelo_inurba_marseille","lat":43.31891,"lon":5.36806,"is_reserved":false,"is_disabled":false,"rental_uris":{"android":"levelo://app?vid=ab8ed3cf-dd65-453b-87ca-077ce7ed25e8","ios":"levelo://app?vid=ab8ed3cf-dd65-453b-87ca-077ce7ed25e8"},"vehicle_type_id":"4","last_reported":1773779303,"current_range_meters":2800,"station_id":"st_d6o2h0d0559c73evc1b0","pricing_plan_id":"cebpf4jnsgd1na2vs0mg"},{"bike_id":"2d475c7c-0764-4ac9-8950-41d5059b573b","system_id":"levelo_inurba_marseille","lat":43.28461,"lon":5.484,"is_reserved":false,"is_disabled":false,"rental_uris":{"android":"levelo://app?vid=2d475c7c-0764-4ac9-8950-41d5059b573b","ios":"levelo://app?vid=2d475c7c-0764-4ac9-8950-41d5059b573b"},"vehicle_type_id":"4","last_reported":1773779303,"current_range_meters":2800,"station_id":"","pricing_plan_id":"cebpf4jnsgd1na2vs0mg"},{"bike_id":"70dc4d05-aae3-4732-b154-15fa01d1cd08","system_id":"levelo_inurba_marseille","lat":43.27805,"lon":5.40746,"is_reserved":false,"is_disabled":false,"rental_uris":{"android":"levelo://app?vid=70dc4d05-aae3-4732-b154-15fa01d1cd08","ios":"levelo://app?vid=70dc4d05-aae3-4732-b154-15fa01d1cd08"},"vehicle_type_id":"4","last_reported":1773779303,"current_range_meters":2800,"station_id":"ce4bhnh2rcd13ifvqgtg","pricing_plan_id":"cebpf4jnsgd1na2vs0mg"},{"bike_id":"2f6af145-9965-4232-ba20-a2113c18cb78","system_id":"levelo_inurba_marseille","lat":43.29577,"lon":5.39978,"is_reserved":false,"is_disabled":true,"rental_uris":{"android":"levelo://app?vid=2f6af145-9965-4232-ba20-a2113c18cb78","ios":"levelo://app?vid=2f6af145-9965-4232-ba20-a2113c18cb78"},"vehicle_type_id":"4","last_reported":1773779303,"current_range_meters":2800,"station_id":"ce4bh312rcd13ifvqdj0","pricing_plan_id":"cebpf4jnsgd1na2vs0mg"},{"bike_id":"9f165d77-ec02-4a27-95b3-ea36b28adc99","system_id":"levelo_inurba_marseille","lat":43.28938,"lon":5.3665,"is_reserved":false,"is_disabled":false,"rental_uris":{"android":"levelo://app?vid=9f165d77-ec02-4a27-95b3-ea36b28adc99","ios":"levelo://app?vid=9f165d77-ec02-4a27-95b3-ea36b28adc99"},"vehicle_type_id":"4","last_reported":1773779303,"current_range_meters":2800,"station_id":"ce4bhap2rcd13ifvqek0","pricing_plan_id":"cebpf4jnsgd1na2vs0mg"},{"bike_id":"796ed888-5e80-4248-a7be-20570706635d","system_id":"levelo_inurba_marseille","lat":43.23786,"lon":5.36629,"is_reserved":false,"is_disabled":false,"rental_uris":{"android":"levelo://app?vid=796ed888-5e80-4248-a7be-20570706635d","ios":"levelo://app?vid=796ed888-5e80-4248-a7be-20570706635d"},"vehicle_type_id":"4","last_reported":1773779303,"current_range_meters":2800,"station_id":"st_d3nk18o9ro0c73en2l3g","pricing_plan_id":"cebpf4jnsgd1na2vs0mg"},{"bike_id":"eab877d8-243e-4fe9-821c-f36a338ad83d","system_id":"levelo_inurba_marseille","lat":43.2957,"lon":5.37499,"is_reserved":false,"is_disabled":true,"rental_uris":{"android":"levelo://app?vid=eab877d8-243e-4fe9-821c-f36a338ad83d","ios":"levelo://app?vid=eab877d8-243e-4fe9-821c-f36a338ad83d"},"vehicle_type_id":"4","last_reported":1773779303,"current_range_meters":2800,"station_id":"ce4bgh92rcd13ifvqb50","pricing_plan_id":"cebpf4jnsgd1na2vs0mg"},{"bike_id":"5c13d3bc-3946-4016-b223-a96c424763ee","system_id":"levelo_inurba_marseille","lat":43.24162,"lon":5.36399,"is_reserved":false,"is_disabled":false,"rental_uris":{"android":"levelo://app?vid=5c13d3bc-3946-4016-b223-a96c424763ee","ios":"levelo://app?vid=5c13d3bc-3946-4016-b223-a96c424763ee"},"vehicle_type_id":"4","last_reported":1773779303,"current_range_meters":2800,"station_id":"cpo36qri1sfpv3e86is0","pricing_plan_id":"cebpf4jnsgd1na2vs0mg"},{"bike_id":"4331183c-b3d2-472f-a3b5-2958171fa0b7","system_id":"levelo_inurba_marseille","lat":43.297034,"lon":5.382592,"is_reserved":false,"is_disabled":false,"rental_uris":{"android":"levelo://app?vid=4331183c-b3d2-472f-a3b5-2958171fa0b7","ios":"levelo://app?vid=4331183c-b3d2-472f-a3b5-2958171fa0b7"},"vehicle_type_id":"4","last_reported":1773779303,"current_range_meters":2800,"station_id":"","pricing_plan_id":"cebpf4jnsgd1na2vs0mg"},{"bike_id":"5ccf8cb4-d0dd-413c-927f-a11143b121a7","system_id":"levelo_inurba_marseille","lat":43.30422,"lon":5.38891,"is_reserved":false,"is_disabled":false,"rental_uris":{"android":"levelo://app?vid=5ccf8cb4-d0dd-413c-927f-a11143b121a7","ios":"levelo://app?vid=5ccf8cb4-d0dd-413c-927f-a11143b121a7"},"vehicle_type_id":"4","last_reported":1773779303,"current_range_meters":2800,"station_id":"ce4bgk12rcd13ifvqbi0","pricing_plan_id":"cebpf4jnsgd1na2vs0mg"},{"bike_id":"d401f119-2286-44ba-9651-5fe652bb5682","system_id":"levelo_inurba_marseille","lat":43.282669,"lon":5.350592,"is_reserved":false,"is_disabled":false,"rental_uris":{"android":"levelo://app?vid=d401f119-2286-44ba-9651-5fe652bb5682","ios":"levelo://app?vid=d401f119-2286-44ba-9651-5fe652bb5682"},"vehicle_type_id":"4","last_reported":1773779303,"current_range_meters":2800,"station_id":"ce4bhbp2rcd13ifvqerg","pricing_plan_id":"cebpf4jnsgd1na2vs0mg"},{"bike_id":"90da0256-45c5-4a39-b1ac-e8f193bf6d2b","system_id":"levelo_inurba_marseille","lat":43.29533,"lon":5.38554,"is_reserved":false,"is_disabled":false,"rental_uris":{"android":"levelo://app?vid=90da0256-45c5-4a39-b1ac-e8f193bf6d2b","ios":"levelo://app?vid=90da0256-45c5-4a39-b1ac-e8f193bf6d2b"},"vehicle_type_id":"4","last_reported":1773779303,"current_range_meters":2800,"station_id":"ce4bgih2rcd13ifvqba0","pricing_plan_id":"cebpf4jnsgd1na2vs0mg"},{"bike_id":"06601fe6-7e75-4b1b-8ebc-99db5c5bc65f","system_id":"levelo_inurba_marseille","lat":43.30035,"lon":5.37847,"is_reserved":false,"is_disabled":false,"rental_uris":{"android":"levelo://app?vid=06601fe6-7e75-4b1b-8ebc-99db5c5bc65f","ios":"levelo://app?vid=06601fe6-7e75-4b1b-8ebc-99db5c5bc65f"},"vehicle_type_id":"4","last_reported":1773779303,"current_range_meters":2800,"station_id":"","pricing_plan_id":"cebpf4jnsgd1na2vs0mg"},{"bike_id":"2d472ab9-04f5-4199-a05b-5747cb3039a8","system_id":"levelo_inurba_marseille","lat":43.28189,"lon":5.35118,"is_reserved":false,"is_disabled":false,"rental_uris":{"android":"levelo://app?vid=2d472ab9-04f5-4199-a05b-5747cb3039a8","ios":"levelo://app?vid=2d472ab9-04f5-4199-a05b-5747cb3039a8"},"vehicle_type_id":"4","last_reported":1773779303,"current_range_meters":2800,"station_id":"","pricing_plan_id":"cebpf4jnsgd1na2vs0mg"},{"bike_id":"8be39cc8-f960-4e83-a50a-77058fece699","system_id":"levelo_inurba_marseille","lat":43.28444,"lon":5.39221,"is_reserved":false,"is_disabled":false,"rental_uris":{"android":"levelo://app?vid=8be39cc8-f960-4e83-a50a-77058fece699","ios":"levelo://app?vid=8be39cc8-f960-4e83-a50a-77058fece699"},"vehicle_type_id":"4","last_reported":1773779303,"current_range_meters":2800,"station_id":"ce4bhoh2rcd13ifvqh5g","pricing_plan_id":"cebpf4jnsgd1na2vs0mg"},{"bike_id":"91b10ad0-d860-4adb-a4d4-92ce09a0fc3d","system_id":"levelo_inurba_marseille","lat":43.29259,"lon":5.40897,"is_reserved":false,"is_disabled":false,"rental_uris":{"android":"levelo://app?vid=91b10ad0-d860-4adb-a4d4-92ce09a0fc3d","ios":"levelo://app?vid=91b10ad0-d860-4adb-a4d4-92ce09a0fc3d"},"vehicle_type_id":"4","last_reported":1773779303,"current_range_meters":2800,"station_id":"ce4bh192rcd13ifvqdc0","pricing_plan_id":"cebpf4jnsgd1na2vs0mg"},{"bike_id":"e4ba2d6a-365b-4b8e-bf4b-f5d553c3a7d0","system_id":"levelo_inurba_marseille","lat":43.248126,"lon":5.374522,"is_reserved":false,"is_disabled":false,"rental_uris":{"android":"levelo://app?vid=e4ba2d6a-365b-4b8e-bf4b-f5d553c3a7d0","ios":"levelo://app?vid=e4ba2d6a-365b-4b8e-bf4b-f5d553c3a7d0"},"vehicle_type_id":"4","last_reported":1773779303,"current_range_meters":2800,"station_id":"ce4bhgh2rcd13ifvqfb0","pricing_plan_id":"cebpf4jnsgd1na2vs0mg"},{"bike_id":"963f0a96-4b4f-40e1-a6e6-9f2d21eb0b8e","system_id":"levelo_inurba_marseille","lat":43.22925,"lon":5.35372,"is_reserved":false,"is_disabled":false,"rental_uris":{"android":"levelo://app?vid=963f0a96-4b4f-40e1-a6e6-9f2d21eb0b8e","ios":"levelo://app?vid=963f0a96-4b4f-40e1-a6e6-9f2d21eb0b8e"},"vehicle_type_id":"4","last_reported":1773779303,"current_range_meters":2800,"station_id":"cpo3532slgdg3j2ikp40","pricing_plan_id":"cebpf4jnsgd1na2vs0mg"},{"bike_id":"4a22a1c6-ebd5-43bb-a8f4-cd8f6e8c8060","system_id":"levelo_inurba_marseille","lat":43.31179,"lon":5.38669,"is_reserved":false,"is_disabled":false,"rental_uris":{"android":"levelo://app?vid=4a22a1c6-ebd5-43bb-a8f4-cd8f6e8c8060","ios":"levelo://app?vid=4a22a1c6-ebd5-43bb-a8f4-cd8f6e8c8060"},"vehicle_type_id":"4","last_reported":1773779303,"current_range_meters":2800,"station_id":"ce4bgv12rcd13ifvqcp0","pricing_plan_id":"cebpf4jnsgd1na2vs0mg"},{"bike_id":"d89134ff-a044-45c7-94db-9ed2eccb039f","system_id":"levelo_inurba_marseille","lat":43.3135,"lon":5.38497,"is_reserved":false,"is_disabled":true,"rental_uris":{"android":"levelo://app?vid=d89134ff-a044-45c7-94db-9ed2eccb039f","ios":"levelo://app?vid=d89134ff-a044-45c7-94db-9ed2eccb039f"},"vehicle_type_id":"4","last_reported":1773779303,"current_range_meters":2800,"station_id":"ce4bgt92rcd13ifvqcf0","pricing_plan_id":"cebpf4jnsgd1na2vs0mg"},{"bike_id":"550c6f48-64d4-43bc-a0e4-444a1f8184af","system_id":"levelo_inurba_marseille","lat":43.21741,"lon":5.34612,"is_reserved":false,"is_disabled":false,"rental_uris":{"android":"levelo://app?vid=550c6f48-64d4-43bc-a0e4-444a1f8184af","ios":"levelo://app?vid=550c6f48-64d4-43bc-a0e4-444a1f8184af"},"vehicle_type_id":"4","last_reported":1773779303,"current_range_meters":2800,"station_id":"st_cvj6r9ubvosntc0bgbag","pricing_plan_id":"cebpf4jnsgd1na2vs0mg"},{"bike_id":"c25cbe76-96ec-49c6-a605-26ea02b1ed89","system_id":"levelo_inurba_marseille","lat":43.30423,"lon":5.38903,"is_reserved":false,"is_disabled":false,"rental_uris":{"android":"levelo://app?vid=c25cbe76-96ec-49c6-a605-26ea02b1ed89","ios":"levelo://app?vid=c25cbe76-96ec-49c6-a605-26ea02b1ed89"},"vehicle_type_id":"4","last_reported":1773779303,"current_range_meters":2800,"station_id":"ce4bgk12rcd13ifvqbi0","pricing_plan_id":"cebpf4jnsgd1na2vs0mg"},{"bike_id":"6361ec36-089a-4c4a-9794-b79e90feec50","system_id":"levelo_inurba_marseille","lat":43.27834,"lon":5.40708,"is_reserved":false,"is_disabled":false,"rental_uris":{"android":"levelo://app?vid=6361ec36-089a-4c4a-9794-b79e90feec50","ios":"levelo://app?vid=6361ec36-089a-4c4a-9794-b79e90feec50"},"vehicle_type_id":"4","last_reported":1773779303,"current_range_meters":2800,"station_id":"ce4bhnh2rcd13ifvqgtg","pricing_plan_id":"cebpf4jnsgd1na2vs0mg"},{"bike_id":"dcfcacf9-6fd7-45ad-9c7e-19c4b64a0627","system_id":"levelo_inurba_marseille","lat":43.290333,"lon":5.386439,"is_reserved":false,"is_disabled":false,"rental_uris":{"android":"levelo://app?vid=dcfcacf9-6fd7-45ad-9c7e-19c4b64a0627","ios":"levelo://app?vid=dcfcacf9-6fd7-45ad-9c7e-19c4b64a0627"},"vehicle_type_id":"4","last_reported":1773779303,"current_range_meters":2800,"station_id":"ce4bh4p2rcd13ifvqe0g","pricing_plan_id":"cebpf4jnsgd1na2vs0mg"},{"bike_id":"1a06880f-d956-4b24-af36-bd096fd8331b","system_id":"levelo_inurba_marseille","lat":43.30126,"lon":5.39877,"is_reserved":false,"is_disabled":false,"rental_uris":{"android":"levelo://app?vid=1a06880f-d956-4b24-af36-bd096fd8331b","ios":"levelo://app?vid=1a06880f-d956-4b24-af36-bd096fd8331b"},"vehicle_type_id":"4","last_reported":1773779303,"current_range_meters":3200,"station_id":"ce4bh0h2rcd13ifvqd40","pricing_plan_id":"cebpf4jnsgd1na2vs0mg"},{"bike_id":"7fee35ce-b86d-49fe-8ff4-ee25d80239c7","system_id":"levelo_inurba_marseille","lat":43.28442,"lon":5.35876,"is_reserved":false,"is_disabled":false,"rental_uris":{"android":"levelo://app?vid=7fee35ce-b86d-49fe-8ff4-ee25d80239c7","ios":"levelo://app?vid=7fee35ce-b86d-49fe-8ff4-ee25d80239c7"},"vehicle_type_id":"4","last_reported":1773779303,"current_range_meters":3200,"station_id":"ce4bhah2rcd13ifvqei0","pricing_plan_id":"cebpf4jnsgd1na2vs0mg"},{"bike_id":"136e19d8-4441-48b6-92a5-e128c8c01ed2","system_id":"levelo_inurba_marseille","lat":43.28566,"lon":5.42934,"is_reserved":false,"is_disabled":false,"rental_uris":{"android":"levelo://app?vid=136e19d8-4441-48b6-92a5-e128c8c01ed2","ios":"levelo://app?vid=136e19d8-4441-48b6-92a5-e128c8c01ed2"},"vehicle_type_id":"4","last_reported":1773779303,"current_range_meters":3200,"station_id":"","pricing_plan_id":"cebpf4jnsgd1na2vs0mg"},{"bike_id":"5ceea874-16bc-4dc6-9858-1b3ce34dfda6","system_id":"levelo_inurba_marseille","lat":43.28464,"lon":5.48417,"is_reserved":false,"is_disabled":false,"rental_uris":{"android":"levelo://app?vid=5ceea874-16bc-4dc6-9858-1b3ce34dfda6","ios":"levelo://app?vid=5ceea874-16bc-4dc6-9858-1b3ce34dfda6"},"vehicle_type_id":"4","last_reported":1773779303,"current_range_meters":3200,"station_id":"st_d3svhcjqgbts73a3dn0g","pricing_plan_id":"cebpf4jnsgd1na2vs0mg"},{"bike_id":"f04bf08a-8229-41a0-90bf-f47a54223562","system_id":"levelo_inurba_marseille","lat":43.29244,"lon":5.38448,"is_reserved":false,"is_disabled":false,"rental_uris":{"android":"levelo://app?vid=f04bf08a-8229-41a0-90bf-f47a54223562","ios":"levelo://app?vid=f04bf08a-8229-41a0-90bf-f47a54223562"},"vehicle_type_id":"4","last_reported":1773779303,"current_range_meters":3200,"station_id":"ce4bh692rcd13ifvqea0","pricing_plan_id":"cebpf4jnsgd1na2vs0mg"},{"bike_id":"b7c94e15-1680-41d8-aee8-ddcfff8b38e1","system_id":"levelo_inurba_marseille","lat":43.2997,"lon":5.38486,"is_reserved":false,"is_disabled":false,"rental_uris":{"android":"levelo://app?vid=b7c94e15-1680-41d8-aee8-ddcfff8b38e1","ios":"levelo://app?vid=b7c94e15-1680-41d8-aee8-ddcfff8b38e1"},"vehicle_type_id":"4","last_reported":1773779303,"current_range_meters":3200,"station_id":"ce4bgj92rcd13ifvqbd0","pricing_plan_id":"cebpf4jnsgd1na2vs0mg"},{"bike_id":"a3f96e24-2eee-40d5-9be0-fa9d82cf3dcd","system_id":"levelo_inurba_marseille","lat":43.27327,"lon":5.39072,"is_reserved":false,"is_disabled":false,"rental_uris":{"android":"levelo://app?vid=a3f96e24-2eee-40d5-9be0-fa9d82cf3dcd","ios":"levelo://app?vid=a3f96e24-2eee-40d5-9be0-fa9d82cf3dcd"},"vehicle_type_id":"4","last_reported":1773779303,"current_range_meters":3200,"station_id":"ce4bhgp2rcd13ifvqfe0","pricing_plan_id":"cebpf4jnsgd1na2vs0mg"},{"bike_id":"c689c5db-592c-47e9-a293-c7e9eb6b0cc4","system_id":"levelo_inurba_marseille","lat":43.3048,"lon":5.39002,"is_reserved":false,"is_disabled":false,"rental_uris":{"android":"levelo://app?vid=c689c5db-592c-47e9-a293-c7e9eb6b0cc4","ios":"levelo://app?vid=c689c5db-592c-47e9-a293-c7e9eb6b0cc4"},"vehicle_type_id":"4","last_reported":1773779303,"current_range_meters":3200,"station_id":"","pricing_plan_id":"cebpf4jnsgd1na2vs0mg"},{"bike_id":"8e1dfafb-6a2c-4e04-9255-bbac0a558e7f","system_id":"levelo_inurba_marseille","lat":43.24053,"lon":5.37748,"is_reserved":false,"is_disabled":false,"rental_uris":{"android":"levelo://app?vid=8e1dfafb-6a2c-4e04-9255-bbac0a558e7f","ios":"levelo://app?vid=8e1dfafb-6a2c-4e04-9255-bbac0a558e7f"},"vehicle_type_id":"4","last_reported":1773779303,"current_range_meters":3200,"station_id":"ce4bhnp2rcd13ifvqgvg","pricing_plan_id":"cebpf4jnsgd1na2vs0mg"},{"bike_id":"bff2c16d-246c-41a4-adf2-b8d536bc476f","system_id":"levelo_inurba_marseille","lat":43.29185,"lon":5.39322,"is_reserved":false,"is_disabled":false,"rental_uris":{"android":"levelo://app?vid=bff2c16d-246c-41a4-adf2-b8d536bc476f","ios":"levelo://app?vid=bff2c16d-246c-41a4-adf2-b8d536bc476f"},"vehicle_type_id":"4","last_reported":1773779303,"current_range_meters":3200,"station_id":"ce4bh192rcd13ifvqdd0","pricing_plan_id":"cebpf4jnsgd1na2vs0mg"},{"bike_id":"fb22ab39-4722-4e5e-938b-dc20094c7233","system_id":"levelo_inurba_marseille","lat":43.21194,"lon":5.35069,"is_reserved":false,"is_disabled":false,"rental_uris":{"android":"levelo://app?vid=fb22ab39-4722-4e5e-938b-dc20094c7233","ios":"levelo://app?vid=fb22ab39-4722-4e5e-938b-dc20094c7233"},"vehicle_type_id":"4","last_reported":1773779303,"current_range_meters":3200,"station_id":"st_cvj6sg6p6f1abm77japg","pricing_plan_id":"cebpf4jnsgd1na2vs0mg"},{"bike_id":"d06b1804-70fd-40ad-8edd-a00949173812","system_id":"levelo_inurba_marseille","lat":43.23178,"lon":5.39982,"is_reserved":false,"is_disabled":false,"rental_uris":{"android":"levelo://app?vid=d06b1804-70fd-40ad-8edd-a00949173812","ios":"levelo://app?vid=d06b1804-70fd-40ad-8edd-a00949173812"},"vehicle_type_id":"4","last_reported":1773779303,"current_range_meters":3200,"station_id":"ce4bhn12rcd13ifvqgqg","pricing_plan_id":"cebpf4jnsgd1na2vs0mg"},{"bike_id":"0329e7d3-140c-492b-b1cc-46c2ce34aeb3","system_id":"levelo_inurba_marseille","lat":43.30211,"lon":5.39459,"is_reserved":false,"is_disabled":false,"rental_uris":{"android":"levelo://app?vid=0329e7d3-140c-492b-b1cc-46c2ce34aeb3","ios":"levelo://app?vid=0329e7d3-140c-492b-b1cc-46c2ce34aeb3"},"vehicle_type_id":"4","last_reported":1773779303,"current_range_meters":3200,"station_id":"ce4bh0p2rcd13ifvqd70","pricing_plan_id":"cebpf4jnsgd1na2vs0mg"},{"bike_id":"518a9e2b-1856-453a-8c9a-8cd7b6100ad5","system_id":"levelo_inurba_marseille","lat":43.28842,"lon":5.393,"is_reserved":false,"is_disabled":false,"rental_uris":{"android":"levelo://app?vid=518a9e2b-1856-453a-8c9a-8cd7b6100ad5","ios":"levelo://app?vid=518a9e2b-1856-453a-8c9a-8cd7b6100ad5"},"vehicle_type_id":"4","last_reported":1773779303,"current_range_meters":3200,"station_id":"ce4bh2p2rcd13ifvqdi0","pricing_plan_id":"cebpf4jnsgd1na2vs0mg"},{"bike_id":"aad72317-ac82-4e47-986a-51c11042c7d1","system_id":"levelo_inurba_marseille","lat":43.28077,"lon":5.39661,"is_reserved":false,"is_disabled":false,"rental_uris":{"android":"levelo://app?vid=aad72317-ac82-4e47-986a-51c11042c7d1","ios":"levelo://app?vid=aad72317-ac82-4e47-986a-51c11042c7d1"},"vehicle_type_id":"4","last_reported":1773779303,"current_range_meters":3200,"station_id":"ce4bho12rcd13ifvqh2g","pricing_plan_id":"cebpf4jnsgd1na2vs0mg"},{"bike_id":"c212086a-b8aa-48e3-8803-264427625d31","system_id":"levelo_inurba_marseille","lat":43.3019,"lon":5.36611,"is_reserved":false,"is_disabled":false,"rental_uris":{"android":"levelo://app?vid=c212086a-b8aa-48e3-8803-264427625d31","ios":"levelo://app?vid=c212086a-b8aa-48e3-8803-264427625d31"},"vehicle_type_id":"4","last_reported":1773779303,"current_range_meters":3200,"station_id":"ce4bgrh2rcd13ifvqc8g","pricing_plan_id":"cebpf4jnsgd1na2vs0mg"},{"bike_id":"3a4c5940-fb7b-4141-92ed-b93b9045a12f","system_id":"levelo_inurba_marseille","lat":43.29532,"lon":5.38537,"is_reserved":false,"is_disabled":false,"rental_uris":{"android":"levelo://app?vid=3a4c5940-fb7b-4141-92ed-b93b9045a12f","ios":"levelo://app?vid=3a4c5940-fb7b-4141-92ed-b93b9045a12f"},"vehicle_type_id":"4","last_reported":1773779303,"current_range_meters":3200,"station_id":"ce4bgih2rcd13ifvqba0","pricing_plan_id":"cebpf4jnsgd1na2vs0mg"},{"bike_id":"5db3acbf-a67d-4809-8e60-f78bd88aad8f","system_id":"levelo_inurba_marseille","lat":43.24957,"lon":5.4049,"is_reserved":false,"is_disabled":false,"rental_uris":{"android":"levelo://app?vid=5db3acbf-a67d-4809-8e60-f78bd88aad8f","ios":"levelo://app?vid=5db3acbf-a67d-4809-8e60-f78bd88aad8f"},"vehicle_type_id":"4","last_reported":1773779303,"current_range_meters":3600,"station_id":"st_d2ngiaodas8pm72gd1h0","pricing_plan_id":"cebpf4jnsgd1na2vs0mg"},{"bike_id":"e25e2587-cd8e-4eea-830d-023ee6efe935","system_id":"levelo_inurba_marseille","lat":43.30437,"lon":5.38869,"is_reserved":false,"is_disabled":false,"rental_uris":{"android":"levelo://app?vid=e25e2587-cd8e-4eea-830d-023ee6efe935","ios":"levelo://app?vid=e25e2587-cd8e-4eea-830d-023ee6efe935"},"vehicle_type_id":"4","last_reported":1773779303,"current_range_meters":3600,"station_id":"ce4bgk12rcd13ifvqbi0","pricing_plan_id":"cebpf4jnsgd1na2vs0mg"},{"bike_id":"a5825b67-70c9-4265-8c64-85da9bd3f737","system_id":"levelo_inurba_marseille","lat":43.31336,"lon":5.38369,"is_reserved":false,"is_disabled":false,"rental_uris":{"android":"levelo://app?vid=a5825b67-70c9-4265-8c64-85da9bd3f737","ios":"levelo://app?vid=a5825b67-70c9-4265-8c64-85da9bd3f737"},"vehicle_type_id":"4","last_reported":1773779303,"current_range_meters":3600,"station_id":"","pricing_plan_id":"cebpf4jnsgd1na2vs0mg"},{"bike_id":"79d7e2d8-96ed-465e-b31b-1696801515fd","system_id":"levelo_inurba_marseille","lat":43.24163,"lon":5.36385,"is_reserved":false,"is_disabled":false,"rental_uris":{"android":"levelo://app?vid=79d7e2d8-96ed-465e-b31b-1696801515fd","ios":"levelo://app?vid=79d7e2d8-96ed-465e-b31b-1696801515fd"},"vehicle_type_id":"4","last_reported":1773779303,"current_range_meters":3600,"station_id":"cpo36qri1sfpv3e86is0","pricing_plan_id":"cebpf4jnsgd1na2vs0mg"},{"bike_id":"b589ddb8-6293-4717-90f0-ca20bbe4439f","system_id":"levelo_inurba_marseille","lat":43.30319,"lon":5.40432,"is_reserved":false,"is_disabled":false,"rental_uris":{"android":"levelo://app?vid=b589ddb8-6293-4717-90f0-ca20bbe4439f","ios":"levelo://app?vid=b589ddb8-6293-4717-90f0-ca20bbe4439f"},"vehicle_type_id":"4","last_reported":1773779303,"current_range_meters":3600,"station_id":"ce4bh012rcd13ifvqd10","pricing_plan_id":"cebpf4jnsgd1na2vs0mg"},{"bike_id":"8fd448dc-dc7c-417d-97c3-f57de3be53ac","system_id":"levelo_inurba_marseille","lat":43.28334,"lon":5.38102,"is_reserved":false,"is_disabled":false,"rental_uris":{"android":"levelo://app?vid=8fd448dc-dc7c-417d-97c3-f57de3be53ac","ios":"levelo://app?vid=8fd448dc-dc7c-417d-97c3-f57de3be53ac"},"vehicle_type_id":"4","last_reported":1773779303,"current_range_meters":3600,"station_id":"ce4bh412rcd13ifvqdr0","pricing_plan_id":"cebpf4jnsgd1na2vs0mg"},{"bike_id":"0f53d472-bee4-40de-8ab2-7656a789b4f7","system_id":"levelo_inurba_marseille","lat":43.22549,"lon":5.34935,"is_reserved":false,"is_disabled":false,"rental_uris":{"android":"levelo://app?vid=0f53d472-bee4-40de-8ab2-7656a789b4f7","ios":"levelo://app?vid=0f53d472-bee4-40de-8ab2-7656a789b4f7"},"vehicle_type_id":"4","last_reported":1773779303,"current_range_meters":3600,"station_id":"","pricing_plan_id":"cebpf4jnsgd1na2vs0mg"},{"bike_id":"232b6ff7-2c3c-4ecc-9c1d-f042e0f1ff82","system_id":"levelo_inurba_marseille","lat":43.27998,"lon":5.40029,"is_reserved":false,"is_disabled":false,"rental_uris":{"android":"levelo://app?vid=232b6ff7-2c3c-4ecc-9c1d-f042e0f1ff82","ios":"levelo://app?vid=232b6ff7-2c3c-4ecc-9c1d-f042e0f1ff82"},"vehicle_type_id":"4","last_reported":1773779303,"current_range_meters":3600,"station_id":"ce4bho92rcd13ifvqh4g","pricing_plan_id":"cebpf4jnsgd1na2vs0mg"},{"bike_id":"89f6044f-7e57-49f5-8263-c2e55e117b58","system_id":"levelo_inurba_marseille","lat":43.27807,"lon":5.40718,"is_reserved":false,"is_disabled":false,"rental_uris":{"android":"levelo://app?vid=89f6044f-7e57-49f5-8263-c2e55e117b58","ios":"levelo://app?vid=89f6044f-7e57-49f5-8263-c2e55e117b58"},"vehicle_type_id":"4","last_reported":1773779303,"current_range_meters":3600,"station_id":"ce4bhnh2rcd13ifvqgtg","pricing_plan_id":"cebpf4jnsgd1na2vs0mg"},{"bike_id":"07c70547-999e-4a49-b6ff-554822d1660f","system_id":"levelo_inurba_marseille","lat":43.29559,"lon":5.39981,"is_reserved":false,"is_disabled":false,"rental_uris":{"android":"levelo://app?vid=07c70547-999e-4a49-b6ff-554822d1660f","ios":"levelo://app?vid=07c70547-999e-4a49-b6ff-554822d1660f"},"vehicle_type_id":"4","last_reported":1773779303,"current_range_meters":3600,"station_id":"ce4bh312rcd13ifvqdj0","pricing_plan_id":"cebpf4jnsgd1na2vs0mg"},{"bike_id":"0161222e-e5b4-4971-92ac-fc9cfa20b11b","system_id":"levelo_inurba_marseille","lat":43.29976,"lon":5.38504,"is_reserved":false,"is_disabled":false,"rental_uris":{"android":"levelo://app?vid=0161222e-e5b4-4971-92ac-fc9cfa20b11b","ios":"levelo://app?vid=0161222e-e5b4-4971-92ac-fc9cfa20b11b"},"vehicle_type_id":"4","last_reported":1773779303,"current_range_meters":3600,"station_id":"ce4bgj92rcd13ifvqbd0","pricing_plan_id":"cebpf4jnsgd1na2vs0mg"},{"bike_id":"141798c6-b33f-46b1-a681-bc0576000feb","system_id":"levelo_inurba_marseille","lat":43.29017,"lon":5.38652,"is_reserved":false,"is_disabled":false,"rental_uris":{"android":"levelo://app?vid=141798c6-b33f-46b1-a681-bc0576000feb","ios":"levelo://app?vid=141798c6-b33f-46b1-a681-bc0576000feb"},"vehicle_type_id":"4","last_reported":1773779303,"current_range_meters":3600,"station_id":"ce4bh4p2rcd13ifvqe0g","pricing_plan_id":"cebpf4jnsgd1na2vs0mg"},{"bike_id":"dc678b45-ea6b-4737-8312-98aa9cd31d64","system_id":"levelo_inurba_marseille","lat":43.24797,"lon":5.37455,"is_reserved":false,"is_disabled":false,"rental_uris":{"android":"levelo://app?vid=dc678b45-ea6b-4737-8312-98aa9cd31d64","ios":"levelo://app?vid=dc678b45-ea6b-4737-8312-98aa9cd31d64"},"vehicle_type_id":"4","last_reported":1773779303,"current_range_meters":3600,"station_id":"ce4bhgh2rcd13ifvqfb0","pricing_plan_id":"cebpf4jnsgd1na2vs0mg"},{"bike_id":"c23e78c1-b52f-46b2-8f14-0efe3b06f55f","system_id":"levelo_inurba_marseille","lat":43.28698,"lon":5.37387,"is_reserved":false,"is_disabled":false,"rental_uris":{"android":"levelo://app?vid=c23e78c1-b52f-46b2-8f14-0efe3b06f55f","ios":"levelo://app?vid=c23e78c1-b52f-46b2-8f14-0efe3b06f55f"},"vehicle_type_id":"4","last_reported":1773779303,"current_range_meters":3600,"station_id":"ce4bh3p2rcd13ifvqdq0","pricing_plan_id":"cebpf4jnsgd1na2vs0mg"},{"bike_id":"10f03dd5-0010-400b-9408-8220e47acc09","system_id":"levelo_inurba_marseille","lat":43.2952,"lon":5.39027,"is_reserved":false,"is_disabled":false,"rental_uris":{"android":"levelo://app?vid=10f03dd5-0010-400b-9408-8220e47acc09","ios":"levelo://app?vid=10f03dd5-0010-400b-9408-8220e47acc09"},"vehicle_type_id":"4","last_reported":1773779303,"current_range_meters":3600,"station_id":"ce4bh3p2rcd13ifvqdp0","pricing_plan_id":"cebpf4jnsgd1na2vs0mg"},{"bike_id":"ba660dae-40dc-42cc-9dd4-38c62514347b","system_id":"levelo_inurba_marseille","lat":43.23782,"lon":5.36634,"is_reserved":false,"is_disabled":false,"rental_uris":{"android":"levelo://app?vid=ba660dae-40dc-42cc-9dd4-38c62514347b","ios":"levelo://app?vid=ba660dae-40dc-42cc-9dd4-38c62514347b"},"vehicle_type_id":"4","last_reported":1773779303,"current_range_meters":3600,"station_id":"st_d3nk18o9ro0c73en2l3g","pricing_plan_id":"cebpf4jnsgd1na2vs0mg"},{"bike_id":"29a54209-1805-4985-95a0-2df2873998c5","system_id":"levelo_inurba_marseille","lat":43.28402,"lon":5.35018,"is_reserved":false,"is_disabled":false,"rental_uris":{"android":"levelo://app?vid=29a54209-1805-4985-95a0-2df2873998c5","ios":"levelo://app?vid=29a54209-1805-4985-95a0-2df2873998c5"},"vehicle_type_id":"4","last_reported":1773779303,"current_range_meters":3600,"station_id":"ce4bhbh2rcd13ifvqepg","pricing_plan_id":"cebpf4jnsgd1na2vs0mg"},{"bike_id":"b02b55c0-46f9-42b6-aa10-106de5736de3","system_id":"levelo_inurba_marseille","lat":43.30213,"lon":5.39468,"is_reserved":false,"is_disabled":false,"rental_uris":{"android":"levelo://app?vid=b02b55c0-46f9-42b6-aa10-106de5736de3","ios":"levelo://app?vid=b02b55c0-46f9-42b6-aa10-106de5736de3"},"vehicle_type_id":"4","last_reported":1773779303,"current_range_meters":3600,"station_id":"ce4bh0p2rcd13ifvqd70","pricing_plan_id":"cebpf4jnsgd1na2vs0mg"},{"bike_id":"351ed143-f966-444e-b432-fd239822a2ca","system_id":"levelo_inurba_marseille","lat":43.3079,"lon":5.37644,"is_reserved":false,"is_disabled":false,"rental_uris":{"android":"levelo://app?vid=351ed143-f966-444e-b432-fd239822a2ca","ios":"levelo://app?vid=351ed143-f966-444e-b432-fd239822a2ca"},"vehicle_type_id":"4","last_reported":1773779303,"current_range_meters":3600,"station_id":"ce4bgv92rcd13ifvqcq0","pricing_plan_id":"cebpf4jnsgd1na2vs0mg"},{"bike_id":"cace3d1d-1bca-4b13-a9d9-15d4fe451dee","system_id":"levelo_inurba_marseille","lat":43.24629,"lon":5.43154,"is_reserved":false,"is_disabled":false,"rental_uris":{"android":"levelo://app?vid=cace3d1d-1bca-4b13-a9d9-15d4fe451dee","ios":"levelo://app?vid=cace3d1d-1bca-4b13-a9d9-15d4fe451dee"},"vehicle_type_id":"4","last_reported":1773779303,"current_range_meters":3600,"station_id":"","pricing_plan_id":"cebpf4jnsgd1na2vs0mg"},{"bike_id":"8ef0d5e0-e3a0-4aef-b9bb-9659df8031aa","system_id":"levelo_inurba_marseille","lat":43.28039,"lon":5.36934,"is_reserved":false,"is_disabled":false,"rental_uris":{"android":"levelo://app?vid=8ef0d5e0-e3a0-4aef-b9bb-9659df8031aa","ios":"levelo://app?vid=8ef0d5e0-e3a0-4aef-b9bb-9659df8031aa"},"vehicle_type_id":"4","last_reported":1773779303,"current_range_meters":4000,"station_id":"ce4bha12rcd13ifvqef0","pricing_plan_id":"cebpf4jnsgd1na2vs0mg"},{"bike_id":"ccb98674-98ae-488b-aa54-b3ffafd6d32b","system_id":"levelo_inurba_marseille","lat":43.29695,"lon":5.3769,"is_reserved":false,"is_disabled":false,"rental_uris":{"android":"levelo://app?vid=ccb98674-98ae-488b-aa54-b3ffafd6d32b","ios":"levelo://app?vid=ccb98674-98ae-488b-aa54-b3ffafd6d32b"},"vehicle_type_id":"4","last_reported":1773779303,"current_range_meters":4000,"station_id":"ce4bgkh2rcd13ifvqbl0","pricing_plan_id":"cebpf4jnsgd1na2vs0mg"},{"bike_id":"03fc9476-1e7a-47c9-a89b-ab8c5a9ef4f0","system_id":"levelo_inurba_marseille","lat":43.24807,"lon":5.37446,"is_reserved":false,"is_disabled":false,"rental_uris":{"android":"levelo://app?vid=03fc9476-1e7a-47c9-a89b-ab8c5a9ef4f0","ios":"levelo://app?vid=03fc9476-1e7a-47c9-a89b-ab8c5a9ef4f0"},"vehicle_type_id":"4","last_reported":1773779303,"current_range_meters":4000,"station_id":"ce4bhgh2rcd13ifvqfb0","pricing_plan_id":"cebpf4jnsgd1na2vs0mg"},{"bike_id":"39c96c64-9938-42d4-9d9d-0beb3c81534e","system_id":"levelo_inurba_marseille","lat":43.28931,"lon":5.39075,"is_reserved":false,"is_disabled":false,"rental_uris":{"android":"levelo://app?vid=39c96c64-9938-42d4-9d9d-0beb3c81534e","ios":"levelo://app?vid=39c96c64-9938-42d4-9d9d-0beb3c81534e"},"vehicle_type_id":"4","last_reported":1773779303,"current_range_meters":4000,"station_id":"","pricing_plan_id":"cebpf4jnsgd1na2vs0mg"},{"bike_id":"69d2e5d2-aab9-4fc9-a42e-b520c7e8b4f1","system_id":"levelo_inurba_marseille","lat":43.23049,"lon":5.35497,"is_reserved":false,"is_disabled":false,"rental_uris":{"android":"levelo://app?vid=69d2e5d2-aab9-4fc9-a42e-b520c7e8b4f1","ios":"levelo://app?vid=69d2e5d2-aab9-4fc9-a42e-b520c7e8b4f1"},"vehicle_type_id":"4","last_reported":1773779303,"current_range_meters":4000,"station_id":"cpo3342slgdg3j2ifvpg","pricing_plan_id":"cebpf4jnsgd1na2vs0mg"},{"bike_id":"3e799d01-bc3b-4776-b695-faeeae742520","system_id":"levelo_inurba_marseille","lat":43.31175,"lon":5.38604,"is_reserved":false,"is_disabled":false,"rental_uris":{"android":"levelo://app?vid=3e799d01-bc3b-4776-b695-faeeae742520","ios":"levelo://app?vid=3e799d01-bc3b-4776-b695-faeeae742520"},"vehicle_type_id":"4","last_reported":1773779303,"current_range_meters":4000,"station_id":"","pricing_plan_id":"cebpf4jnsgd1na2vs0mg"},{"bike_id":"80e6734b-3764-4853-8c63-15cb07f7249f","system_id":"levelo_inurba_marseille","lat":43.29695,"lon":5.44092,"is_reserved":false,"is_disabled":false,"rental_uris":{"android":"levelo://app?vid=80e6734b-3764-4853-8c63-15cb07f7249f","ios":"levelo://app?vid=80e6734b-3764-4853-8c63-15cb07f7249f"},"vehicle_type_id":"4","last_reported":1773779303,"current_range_meters":4000,"station_id":"st_d3jp68qikq2c7381ktn0","pricing_plan_id":"cebpf4jnsgd1na2vs0mg"},{"bike_id":"ae5d96cc-dd36-464e-aa14-f8f0c09b7a23","system_id":"levelo_inurba_marseille","lat":43.31369,"lon":5.385,"is_reserved":false,"is_disabled":false,"rental_uris":{"android":"levelo://app?vid=ae5d96cc-dd36-464e-aa14-f8f0c09b7a23","ios":"levelo://app?vid=ae5d96cc-dd36-464e-aa14-f8f0c09b7a23"},"vehicle_type_id":"4","last_reported":1773779303,"current_range_meters":4000,"station_id":"ce4bgt92rcd13ifvqcf0","pricing_plan_id":"cebpf4jnsgd1na2vs0mg"},{"bike_id":"38eba9af-987b-45b6-b3c0-f366153b6fd5","system_id":"levelo_inurba_marseille","lat":43.31987,"lon":5.38108,"is_reserved":false,"is_disabled":false,"rental_uris":{"android":"levelo://app?vid=38eba9af-987b-45b6-b3c0-f366153b6fd5","ios":"levelo://app?vid=38eba9af-987b-45b6-b3c0-f366153b6fd5"},"vehicle_type_id":"4","last_reported":1773779303,"current_range_meters":4000,"station_id":"ce4bhr12rcd13ifvqhpg","pricing_plan_id":"cebpf4jnsgd1na2vs0mg"},{"bike_id":"2c12c9f8-8eb0-4635-9682-ce8a307e47e5","system_id":"levelo_inurba_marseille","lat":43.28001,"lon":5.40006,"is_reserved":false,"is_disabled":false,"rental_uris":{"android":"levelo://app?vid=2c12c9f8-8eb0-4635-9682-ce8a307e47e5","ios":"levelo://app?vid=2c12c9f8-8eb0-4635-9682-ce8a307e47e5"},"vehicle_type_id":"4","last_reported":1773779303,"current_range_meters":4000,"station_id":"ce4bho92rcd13ifvqh4g","pricing_plan_id":"cebpf4jnsgd1na2vs0mg"},{"bike_id":"825611e0-923b-4202-baff-3bfea98badb9","system_id":"levelo_inurba_marseille","lat":43.29028,"lon":5.3865,"is_reserved":false,"is_disabled":false,"rental_uris":{"android":"levelo://app?vid=825611e0-923b-4202-baff-3bfea98badb9","ios":"levelo://app?vid=825611e0-923b-4202-baff-3bfea98badb9"},"vehicle_type_id":"4","last_reported":1773779303,"current_range_meters":4000,"station_id":"ce4bh4p2rcd13ifvqe0g","pricing_plan_id":"cebpf4jnsgd1na2vs0mg"},{"bike_id":"6d111506-9c0a-4187-b812-fadeb2f56e6f","system_id":"levelo_inurba_marseille","lat":43.29166,"lon":5.3715,"is_reserved":false,"is_disabled":false,"rental_uris":{"android":"levelo://app?vid=6d111506-9c0a-4187-b812-fadeb2f56e6f","ios":"levelo://app?vid=6d111506-9c0a-4187-b812-fadeb2f56e6f"},"vehicle_type_id":"4","last_reported":1773779303,"current_range_meters":4000,"station_id":"ce4bha92rcd13ifvqeh0","pricing_plan_id":"cebpf4jnsgd1na2vs0mg"},{"bike_id":"11ff61a0-a636-48df-ba6b-194120ca29c3","system_id":"levelo_inurba_marseille","lat":43.29739,"lon":5.42761,"is_reserved":false,"is_disabled":false,"rental_uris":{"android":"levelo://app?vid=11ff61a0-a636-48df-ba6b-194120ca29c3","ios":"levelo://app?vid=11ff61a0-a636-48df-ba6b-194120ca29c3"},"vehicle_type_id":"4","last_reported":1773779303,"current_range_meters":4000,"station_id":"st_d3md5207bmas73dh9klg","pricing_plan_id":"cebpf4jnsgd1na2vs0mg"},{"bike_id":"9bca5011-706b-4d29-81bb-d031e7b5c35e","system_id":"levelo_inurba_marseille","lat":43.31173,"lon":5.38737,"is_reserved":false,"is_disabled":false,"rental_uris":{"android":"levelo://app?vid=9bca5011-706b-4d29-81bb-d031e7b5c35e","ios":"levelo://app?vid=9bca5011-706b-4d29-81bb-d031e7b5c35e"},"vehicle_type_id":"4","last_reported":1773779303,"current_range_meters":4000,"station_id":"ce4bgv12rcd13ifvqcp0","pricing_plan_id":"cebpf4jnsgd1na2vs0mg"},{"bike_id":"45b3e7e5-61e2-4235-a8cd-38592e76ad4f","system_id":"levelo_inurba_marseille","lat":43.29519,"lon":5.39034,"is_reserved":false,"is_disabled":false,"rental_uris":{"android":"levelo://app?vid=45b3e7e5-61e2-4235-a8cd-38592e76ad4f","ios":"levelo://app?vid=45b3e7e5-61e2-4235-a8cd-38592e76ad4f"},"vehicle_type_id":"4","last_reported":1773779303,"current_range_meters":4000,"station_id":"ce4bh3p2rcd13ifvqdp0","pricing_plan_id":"cebpf4jnsgd1na2vs0mg"},{"bike_id":"6068a44a-1a48-4d46-8367-5049c7b39445","system_id":"levelo_inurba_marseille","lat":43.28664,"lon":5.38678,"is_reserved":false,"is_disabled":false,"rental_uris":{"android":"levelo://app?vid=6068a44a-1a48-4d46-8367-5049c7b39445","ios":"levelo://app?vid=6068a44a-1a48-4d46-8367-5049c7b39445"},"vehicle_type_id":"4","last_reported":1773779303,"current_range_meters":4000,"station_id":"ce4bh492rcd13ifvqdug","pricing_plan_id":"cebpf4jnsgd1na2vs0mg"},{"bike_id":"18f98a8b-c03e-4c31-a9b6-807ac49b4a98","system_id":"levelo_inurba_marseille","lat":43.29519,"lon":5.39401,"is_reserved":false,"is_disabled":false,"rental_uris":{"android":"levelo://app?vid=18f98a8b-c03e-4c31-a9b6-807ac49b4a98","ios":"levelo://app?vid=18f98a8b-c03e-4c31-a9b6-807ac49b4a98"},"vehicle_type_id":"4","last_reported":1773779303,"current_range_meters":4000,"station_id":"ce4bh292rcd13ifvqdf0","pricing_plan_id":"cebpf4jnsgd1na2vs0mg"},{"bike_id":"464d46c4-c65b-4ebf-ac5c-3e1056acffce","system_id":"levelo_inurba_marseille","lat":43.29785,"lon":5.37116,"is_reserved":false,"is_disabled":false,"rental_uris":{"android":"levelo://app?vid=464d46c4-c65b-4ebf-ac5c-3e1056acffce","ios":"levelo://app?vid=464d46c4-c65b-4ebf-ac5c-3e1056acffce"},"vehicle_type_id":"4","last_reported":1773779303,"current_range_meters":4000,"station_id":"ce4bgop2rcd13ifvqc1g","pricing_plan_id":"cebpf4jnsgd1na2vs0mg"},{"bike_id":"46778be6-65e2-4a7d-b9d8-c7bf63c5725a","system_id":"levelo_inurba_marseille","lat":43.29274,"lon":5.36851,"is_reserved":false,"is_disabled":false,"rental_uris":{"android":"levelo://app?vid=46778be6-65e2-4a7d-b9d8-c7bf63c5725a","ios":"levelo://app?vid=46778be6-65e2-4a7d-b9d8-c7bf63c5725a"},"vehicle_type_id":"4","last_reported":1773779303,"current_range_meters":4000,"station_id":"ce4bhbp2rcd13ifvqesg","pricing_plan_id":"cebpf4jnsgd1na2vs0mg"},{"bike_id":"e419d871-e1a6-4e44-a2bc-6549917b77ec","system_id":"levelo_inurba_marseille","lat":43.29265,"lon":5.38427,"is_reserved":false,"is_disabled":false,"rental_uris":{"android":"levelo://app?vid=e419d871-e1a6-4e44-a2bc-6549917b77ec","ios":"levelo://app?vid=e419d871-e1a6-4e44-a2bc-6549917b77ec"},"vehicle_type_id":"4","last_reported":1773779303,"current_range_meters":4000,"station_id":"ce4bh692rcd13ifvqea0","pricing_plan_id":"cebpf4jnsgd1na2vs0mg"},{"bike_id":"ebcbd13b-5ca0-4cd1-9faa-b6aabf2568c7","system_id":"levelo_inurba_marseille","lat":43.30134,"lon":5.37447,"is_reserved":false,"is_disabled":false,"rental_uris":{"android":"levelo://app?vid=ebcbd13b-5ca0-4cd1-9faa-b6aabf2568c7","ios":"levelo://app?vid=ebcbd13b-5ca0-4cd1-9faa-b6aabf2568c7"},"vehicle_type_id":"4","last_reported":1773779303,"current_range_meters":4000,"station_id":"ce4bgs92rcd13ifvqcc0","pricing_plan_id":"cebpf4jnsgd1na2vs0mg"},{"bike_id":"e70f140f-782f-4fd9-ba91-93f6fc2e4b1c","system_id":"levelo_inurba_marseille","lat":43.28941,"lon":5.36639,"is_reserved":false,"is_disabled":false,"rental_uris":{"android":"levelo://app?vid=e70f140f-782f-4fd9-ba91-93f6fc2e4b1c","ios":"levelo://app?vid=e70f140f-782f-4fd9-ba91-93f6fc2e4b1c"},"vehicle_type_id":"4","last_reported":1773779303,"current_range_meters":4000,"station_id":"ce4bhap2rcd13ifvqek0","pricing_plan_id":"cebpf4jnsgd1na2vs0mg"},{"bike_id":"2df048df-d180-4cdd-8c6c-8e45106d12df","system_id":"levelo_inurba_marseille","lat":43.21746,"lon":5.346,"is_reserved":false,"is_disabled":false,"rental_uris":{"android":"levelo://app?vid=2df048df-d180-4cdd-8c6c-8e45106d12df","ios":"levelo://app?vid=2df048df-d180-4cdd-8c6c-8e45106d12df"},"vehicle_type_id":"4","last_reported":1773779303,"current_range_meters":4000,"station_id":"st_cvj6r9ubvosntc0bgbag","pricing_plan_id":"cebpf4jnsgd1na2vs0mg"},{"bike_id":"9148948f-45af-422b-b4ea-0a1f4a5096ba","system_id":"levelo_inurba_marseille","lat":43.28447,"lon":5.35886,"is_reserved":false,"is_disabled":false,"rental_uris":{"android":"levelo://app?vid=9148948f-45af-422b-b4ea-0a1f4a5096ba","ios":"levelo://app?vid=9148948f-45af-422b-b4ea-0a1f4a5096ba"},"vehicle_type_id":"4","last_reported":1773779303,"current_range_meters":4400,"station_id":"ce4bhah2rcd13ifvqei0","pricing_plan_id":"cebpf4jnsgd1na2vs0mg"},{"bike_id":"55ad6576-3c79-4a6b-881b-323a7e8b70a1","system_id":"levelo_inurba_marseille","lat":43.2498,"lon":5.38938,"is_reserved":false,"is_disabled":false,"rental_uris":{"android":"levelo://app?vid=55ad6576-3c79-4a6b-881b-323a7e8b70a1","ios":"levelo://app?vid=55ad6576-3c79-4a6b-881b-323a7e8b70a1"},"vehicle_type_id":"4","last_reported":1773779303,"current_range_meters":4400,"station_id":"ce4bhgp2rcd13ifvqfd0","pricing_plan_id":"cebpf4jnsgd1na2vs0mg"},{"bike_id":"fcc16676-bdcc-453d-943e-a6082336e83f","system_id":"levelo_inurba_marseille","lat":43.29824,"lon":5.44056,"is_reserved":false,"is_disabled":false,"rental_uris":{"android":"levelo://app?vid=fcc16676-bdcc-453d-943e-a6082336e83f","ios":"levelo://app?vid=fcc16676-bdcc-453d-943e-a6082336e83f"},"vehicle_type_id":"4","last_reported":1773779303,"current_range_meters":4400,"station_id":"st_d3jp68qikq2c7381ktn0","pricing_plan_id":"cebpf4jnsgd1na2vs0mg"},{"bike_id":"729cb1ee-ec0b-41e2-8181-51835945913f","system_id":"levelo_inurba_marseille","lat":43.27904,"lon":5.38022,"is_reserved":false,"is_disabled":false,"rental_uris":{"android":"levelo://app?vid=729cb1ee-ec0b-41e2-8181-51835945913f","ios":"levelo://app?vid=729cb1ee-ec0b-41e2-8181-51835945913f"},"vehicle_type_id":"4","last_reported":1773779303,"current_range_meters":4400,"station_id":"ce4bhf92rcd13ifvqf50","pricing_plan_id":"cebpf4jnsgd1na2vs0mg"},{"bike_id":"0a5e0654-174d-486a-8828-a7d5caf5d177","system_id":"levelo_inurba_marseille","lat":43.29586,"lon":5.36734,"is_reserved":false,"is_disabled":false,"rental_uris":{"android":"levelo://app?vid=0a5e0654-174d-486a-8828-a7d5caf5d177","ios":"levelo://app?vid=0a5e0654-174d-486a-8828-a7d5caf5d177"},"vehicle_type_id":"4","last_reported":1773779303,"current_range_meters":4400,"station_id":"ce4bgph2rcd13ifvqc2g","pricing_plan_id":"cebpf4jnsgd1na2vs0mg"},{"bike_id":"ca2786e6-5157-4ab3-8916-81d583d6acde","system_id":"levelo_inurba_marseille","lat":43.2293,"lon":5.35386,"is_reserved":false,"is_disabled":false,"rental_uris":{"android":"levelo://app?vid=ca2786e6-5157-4ab3-8916-81d583d6acde","ios":"levelo://app?vid=ca2786e6-5157-4ab3-8916-81d583d6acde"},"vehicle_type_id":"4","last_reported":1773779303,"current_range_meters":4400,"station_id":"cpo3532slgdg3j2ikp40","pricing_plan_id":"cebpf4jnsgd1na2vs0mg"},{"bike_id":"fc47abe7-cfea-4603-9b16-e89f62a15b75","system_id":"levelo_inurba_marseille","lat":43.29943,"lon":5.38515,"is_reserved":false,"is_disabled":true,"rental_uris":{"android":"levelo://app?vid=fc47abe7-cfea-4603-9b16-e89f62a15b75","ios":"levelo://app?vid=fc47abe7-cfea-4603-9b16-e89f62a15b75"},"vehicle_type_id":"4","last_reported":1773779303,"current_range_meters":4400,"station_id":"ce4bgj92rcd13ifvqbd0","pricing_plan_id":"cebpf4jnsgd1na2vs0mg"},{"bike_id":"f52404f4-49e0-415f-b5b2-f416addddb9e","system_id":"levelo_inurba_marseille","lat":43.29267,"lon":5.38443,"is_reserved":false,"is_disabled":false,"rental_uris":{"android":"levelo://app?vid=f52404f4-49e0-415f-b5b2-f416addddb9e","ios":"levelo://app?vid=f52404f4-49e0-415f-b5b2-f416addddb9e"},"vehicle_type_id":"4","last_reported":1773779303,"current_range_meters":4400,"station_id":"ce4bh692rcd13ifvqea0","pricing_plan_id":"cebpf4jnsgd1na2vs0mg"},{"bike_id":"f7ecc266-1639-4063-a0fb-e173ee597dff","system_id":"levelo_inurba_marseille","lat":43.29555,"lon":5.39013,"is_reserved":false,"is_disabled":false,"rental_uris":{"android":"levelo://app?vid=f7ecc266-1639-4063-a0fb-e173ee597dff","ios":"levelo://app?vid=f7ecc266-1639-4063-a0fb-e173ee597dff"},"vehicle_type_id":"4","last_reported":1773779303,"current_range_meters":4400,"station_id":"ce4bh3p2rcd13ifvqdp0","pricing_plan_id":"cebpf4jnsgd1na2vs0mg"},{"bike_id":"69bf9e8b-c547-434e-a4d1-6bed38cb9a3a","system_id":"levelo_inurba_marseille","lat":43.292671,"lon":5.40874,"is_reserved":false,"is_disabled":false,"rental_uris":{"android":"levelo://app?vid=69bf9e8b-c547-434e-a4d1-6bed38cb9a3a","ios":"levelo://app?vid=69bf9e8b-c547-434e-a4d1-6bed38cb9a3a"},"vehicle_type_id":"4","last_reported":1773779303,"current_range_meters":4400,"station_id":"ce4bh192rcd13ifvqdc0","pricing_plan_id":"cebpf4jnsgd1na2vs0mg"},{"bike_id":"9719b0b0-6c17-44bd-a7d7-37fed419675e","system_id":"levelo_inurba_marseille","lat":43.2809,"lon":5.39659,"is_reserved":false,"is_disabled":false,"rental_uris":{"android":"levelo://app?vid=9719b0b0-6c17-44bd-a7d7-37fed419675e","ios":"levelo://app?vid=9719b0b0-6c17-44bd-a7d7-37fed419675e"},"vehicle_type_id":"4","last_reported":1773779303,"current_range_meters":4400,"station_id":"ce4bho12rcd13ifvqh2g","pricing_plan_id":"cebpf4jnsgd1na2vs0mg"},{"bike_id":"880f606a-acb1-494d-8d28-ce6b12c4f2e1","system_id":"levelo_inurba_marseille","lat":43.29777,"lon":5.36587,"is_reserved":false,"is_disabled":false,"rental_uris":{"android":"levelo://app?vid=880f606a-acb1-494d-8d28-ce6b12c4f2e1","ios":"levelo://app?vid=880f606a-acb1-494d-8d28-ce6b12c4f2e1"},"vehicle_type_id":"4","last_reported":1773779303,"current_range_meters":4400,"station_id":"","pricing_plan_id":"cebpf4jnsgd1na2vs0mg"},{"bike_id":"88858f89-fe21-45f8-acbb-9ce67472ddb3","system_id":"levelo_inurba_marseille","lat":43.22926,"lon":5.35379,"is_reserved":false,"is_disabled":false,"rental_uris":{"android":"levelo://app?vid=88858f89-fe21-45f8-acbb-9ce67472ddb3","ios":"levelo://app?vid=88858f89-fe21-45f8-acbb-9ce67472ddb3"},"vehicle_type_id":"4","last_reported":1773779303,"current_range_meters":4400,"station_id":"cpo3532slgdg3j2ikp40","pricing_plan_id":"cebpf4jnsgd1na2vs0mg"},{"bike_id":"96dac97a-0c76-4079-a74f-d3b50e0ff04c","system_id":"levelo_inurba_marseille","lat":43.21198,"lon":5.35068,"is_reserved":false,"is_disabled":false,"rental_uris":{"android":"levelo://app?vid=96dac97a-0c76-4079-a74f-d3b50e0ff04c","ios":"levelo://app?vid=96dac97a-0c76-4079-a74f-d3b50e0ff04c"},"vehicle_type_id":"4","last_reported":1773779303,"current_range_meters":4400,"station_id":"st_cvj6sg6p6f1abm77japg","pricing_plan_id":"cebpf4jnsgd1na2vs0mg"},{"bike_id":"8f3b9aaa-ef1e-465a-983b-14400c4d21e3","system_id":"levelo_inurba_marseille","lat":43.31323,"lon":5.397,"is_reserved":false,"is_disabled":false,"rental_uris":{"android":"levelo://app?vid=8f3b9aaa-ef1e-465a-983b-14400c4d21e3","ios":"levelo://app?vid=8f3b9aaa-ef1e-465a-983b-14400c4d21e3"},"vehicle_type_id":"4","last_reported":1773779303,"current_range_meters":4400,"station_id":"ce4bgvp2rcd13ifvqcu0","pricing_plan_id":"cebpf4jnsgd1na2vs0mg"},{"bike_id":"59940191-c20b-4927-9f8c-0b78fb7467e9","system_id":"levelo_inurba_marseille","lat":43.299273,"lon":5.374941,"is_reserved":false,"is_disabled":false,"rental_uris":{"android":"levelo://app?vid=59940191-c20b-4927-9f8c-0b78fb7467e9","ios":"levelo://app?vid=59940191-c20b-4927-9f8c-0b78fb7467e9"},"vehicle_type_id":"4","last_reported":1773779303,"current_range_meters":4400,"station_id":"ce4bgjh2rcd13ifvqbg0","pricing_plan_id":"cebpf4jnsgd1na2vs0mg"},{"bike_id":"7efd7b82-e967-45a4-b4c4-d1ee32524131","system_id":"levelo_inurba_marseille","lat":43.29532,"lon":5.38533,"is_reserved":false,"is_disabled":false,"rental_uris":{"android":"levelo://app?vid=7efd7b82-e967-45a4-b4c4-d1ee32524131","ios":"levelo://app?vid=7efd7b82-e967-45a4-b4c4-d1ee32524131"},"vehicle_type_id":"4","last_reported":1773779303,"current_range_meters":4400,"station_id":"ce4bgih2rcd13ifvqba0","pricing_plan_id":"cebpf4jnsgd1na2vs0mg"},{"bike_id":"3ef197c1-5d1a-4877-838d-0e70367f0924","system_id":"levelo_inurba_marseille","lat":43.30927,"lon":5.40137,"is_reserved":false,"is_disabled":false,"rental_uris":{"android":"levelo://app?vid=3ef197c1-5d1a-4877-838d-0e70367f0924","ios":"levelo://app?vid=3ef197c1-5d1a-4877-838d-0e70367f0924"},"vehicle_type_id":"4","last_reported":1773779303,"current_range_meters":4400,"station_id":"ce4bgvp2rcd13ifvqct0","pricing_plan_id":"cebpf4jnsgd1na2vs0mg"},{"bike_id":"b940a8c4-e532-4d36-af54-8e321521d405","system_id":"levelo_inurba_marseille","lat":43.29273,"lon":5.40137,"is_reserved":false,"is_disabled":false,"rental_uris":{"android":"levelo://app?vid=b940a8c4-e532-4d36-af54-8e321521d405","ios":"levelo://app?vid=b940a8c4-e532-4d36-af54-8e321521d405"},"vehicle_type_id":"4","last_reported":1773779303,"current_range_meters":4400,"station_id":"ce4bh312rcd13ifvqdk0","pricing_plan_id":"cebpf4jnsgd1na2vs0mg"},{"bike_id":"ab590e8d-a6c9-4d54-a5ce-91ca13a2c118","system_id":"levelo_inurba_marseille","lat":43.29798,"lon":5.39339,"is_reserved":false,"is_disabled":false,"rental_uris":{"android":"levelo://app?vid=ab590e8d-a6c9-4d54-a5ce-91ca13a2c118","ios":"levelo://app?vid=ab590e8d-a6c9-4d54-a5ce-91ca13a2c118"},"vehicle_type_id":"4","last_reported":1773779303,"current_range_meters":4400,"station_id":"chh1huq6cuj3fo74tm60","pricing_plan_id":"cebpf4jnsgd1na2vs0mg"},{"bike_id":"6b40fc53-88b4-49ac-921b-e4ffe1669a10","system_id":"levelo_inurba_marseille","lat":43.25335,"lon":5.42171,"is_reserved":false,"is_disabled":false,"rental_uris":{"android":"levelo://app?vid=6b40fc53-88b4-49ac-921b-e4ffe1669a10","ios":"levelo://app?vid=6b40fc53-88b4-49ac-921b-e4ffe1669a10"},"vehicle_type_id":"4","last_reported":1773779303,"current_range_meters":4800,"station_id":"st_d2m65c5bi1j21697t3ng","pricing_plan_id":"cebpf4jnsgd1na2vs0mg"},{"bike_id":"2308325c-0d1f-40b6-8813-c48c20aa4af8","system_id":"levelo_inurba_marseille","lat":43.2293,"lon":5.35372,"is_reserved":false,"is_disabled":false,"rental_uris":{"android":"levelo://app?vid=2308325c-0d1f-40b6-8813-c48c20aa4af8","ios":"levelo://app?vid=2308325c-0d1f-40b6-8813-c48c20aa4af8"},"vehicle_type_id":"4","last_reported":1773779303,"current_range_meters":4800,"station_id":"cpo3532slgdg3j2ikp40","pricing_plan_id":"cebpf4jnsgd1na2vs0mg"},{"bike_id":"faf9f9af-256a-4053-b085-29bf6e1ab79a","system_id":"levelo_inurba_marseille","lat":43.29513,"lon":5.39407,"is_reserved":false,"is_disabled":false,"rental_uris":{"android":"levelo://app?vid=faf9f9af-256a-4053-b085-29bf6e1ab79a","ios":"levelo://app?vid=faf9f9af-256a-4053-b085-29bf6e1ab79a"},"vehicle_type_id":"4","last_reported":1773779303,"current_range_meters":4800,"station_id":"ce4bh292rcd13ifvqdf0","pricing_plan_id":"cebpf4jnsgd1na2vs0mg"},{"bike_id":"3e31868c-16f5-443c-b204-6671d1ea3f46","system_id":"levelo_inurba_marseille","lat":43.30126,"lon":5.39883,"is_reserved":false,"is_disabled":false,"rental_uris":{"android":"levelo://app?vid=3e31868c-16f5-443c-b204-6671d1ea3f46","ios":"levelo://app?vid=3e31868c-16f5-443c-b204-6671d1ea3f46"},"vehicle_type_id":"4","last_reported":1773779303,"current_range_meters":4800,"station_id":"ce4bh0h2rcd13ifvqd40","pricing_plan_id":"cebpf4jnsgd1na2vs0mg"},{"bike_id":"02c25ce9-4f7a-4a05-b97a-2ec2392d4eea","system_id":"levelo_inurba_marseille","lat":43.29561,"lon":5.39955,"is_reserved":false,"is_disabled":false,"rental_uris":{"android":"levelo://app?vid=02c25ce9-4f7a-4a05-b97a-2ec2392d4eea","ios":"levelo://app?vid=02c25ce9-4f7a-4a05-b97a-2ec2392d4eea"},"vehicle_type_id":"4","last_reported":1773779303,"current_range_meters":4800,"station_id":"ce4bh312rcd13ifvqdj0","pricing_plan_id":"cebpf4jnsgd1na2vs0mg"},{"bike_id":"3ee20e24-ce5b-4d2b-a227-79f9d22e4d4c","system_id":"levelo_inurba_marseille","lat":43.31167,"lon":5.38731,"is_reserved":false,"is_disabled":false,"rental_uris":{"android":"levelo://app?vid=3ee20e24-ce5b-4d2b-a227-79f9d22e4d4c","ios":"levelo://app?vid=3ee20e24-ce5b-4d2b-a227-79f9d22e4d4c"},"vehicle_type_id":"4","last_reported":1773779303,"current_range_meters":4800,"station_id":"ce4bgv12rcd13ifvqcp0","pricing_plan_id":"cebpf4jnsgd1na2vs0mg"},{"bike_id":"bca8eef2-ef7f-439c-b224-1b9bc2637db5","system_id":"levelo_inurba_marseille","lat":43.29896,"lon":5.38449,"is_reserved":false,"is_disabled":false,"rental_uris":{"android":"levelo://app?vid=bca8eef2-ef7f-439c-b224-1b9bc2637db5","ios":"levelo://app?vid=bca8eef2-ef7f-439c-b224-1b9bc2637db5"},"vehicle_type_id":"4","last_reported":1773779303,"current_range_meters":4800,"station_id":"","pricing_plan_id":"cebpf4jnsgd1na2vs0mg"},{"bike_id":"f8fc1ee2-4bb0-4484-af60-11ffdc59a896","system_id":"levelo_inurba_marseille","lat":43.29777,"lon":5.37067,"is_reserved":false,"is_disabled":false,"rental_uris":{"android":"levelo://app?vid=f8fc1ee2-4bb0-4484-af60-11ffdc59a896","ios":"levelo://app?vid=f8fc1ee2-4bb0-4484-af60-11ffdc59a896"},"vehicle_type_id":"4","last_reported":1773779303,"current_range_meters":4800,"station_id":"ce4bgop2rcd13ifvqc1g","pricing_plan_id":"cebpf4jnsgd1na2vs0mg"},{"bike_id":"302458cf-bcd2-497e-adf1-3a5d2d42a979","system_id":"levelo_inurba_marseille","lat":43.27829,"lon":5.40659,"is_reserved":false,"is_disabled":false,"rental_uris":{"android":"levelo://app?vid=302458cf-bcd2-497e-adf1-3a5d2d42a979","ios":"levelo://app?vid=302458cf-bcd2-497e-adf1-3a5d2d42a979"},"vehicle_type_id":"4","last_reported":1773779303,"current_range_meters":4800,"station_id":"","pricing_plan_id":"cebpf4jnsgd1na2vs0mg"},{"bike_id":"2a394174-fa6b-4212-913a-1ddaad9b7087","system_id":"levelo_inurba_marseille","lat":43.22953,"lon":5.35369,"is_reserved":false,"is_disabled":false,"rental_uris":{"android":"levelo://app?vid=2a394174-fa6b-4212-913a-1ddaad9b7087","ios":"levelo://app?vid=2a394174-fa6b-4212-913a-1ddaad9b7087"},"vehicle_type_id":"4","last_reported":1773779303,"current_range_meters":4800,"station_id":"cpo3532slgdg3j2ikp40","pricing_plan_id":"cebpf4jnsgd1na2vs0mg"},{"bike_id":"e74cecf2-6544-4598-aa28-9a53259f43e0","system_id":"levelo_inurba_marseille","lat":43.29264,"lon":5.38436,"is_reserved":false,"is_disabled":false,"rental_uris":{"android":"levelo://app?vid=e74cecf2-6544-4598-aa28-9a53259f43e0","ios":"levelo://app?vid=e74cecf2-6544-4598-aa28-9a53259f43e0"},"vehicle_type_id":"4","last_reported":1773779303,"current_range_meters":4800,"station_id":"ce4bh692rcd13ifvqea0","pricing_plan_id":"cebpf4jnsgd1na2vs0mg"},{"bike_id":"d6f4fcc9-529e-44c9-8ab1-66a46ec0a2d7","system_id":"levelo_inurba_marseille","lat":43.29658,"lon":5.37461,"is_reserved":false,"is_disabled":false,"rental_uris":{"android":"levelo://app?vid=d6f4fcc9-529e-44c9-8ab1-66a46ec0a2d7","ios":"levelo://app?vid=d6f4fcc9-529e-44c9-8ab1-66a46ec0a2d7"},"vehicle_type_id":"4","last_reported":1773779303,"current_range_meters":4800,"station_id":"","pricing_plan_id":"cebpf4jnsgd1na2vs0mg"},{"bike_id":"0793a9c4-06c4-4884-973c-c147a3437c39","system_id":"levelo_inurba_marseille","lat":43.28931,"lon":5.36635,"is_reserved":false,"is_disabled":false,"rental_uris":{"android":"levelo://app?vid=0793a9c4-06c4-4884-973c-c147a3437c39","ios":"levelo://app?vid=0793a9c4-06c4-4884-973c-c147a3437c39"},"vehicle_type_id":"4","last_reported":1773779303,"current_range_meters":4800,"station_id":"ce4bhap2rcd13ifvqek0","pricing_plan_id":"cebpf4jnsgd1na2vs0mg"},{"bike_id":"5fb3367a-3f54-4644-b869-3b2e4fa4bcf1","system_id":"levelo_inurba_marseille","lat":43.29034,"lon":5.38653,"is_reserved":false,"is_disabled":false,"rental_uris":{"android":"levelo://app?vid=5fb3367a-3f54-4644-b869-3b2e4fa4bcf1","ios":"levelo://app?vid=5fb3367a-3f54-4644-b869-3b2e4fa4bcf1"},"vehicle_type_id":"4","last_reported":1773779303,"current_range_meters":4800,"station_id":"ce4bh4p2rcd13ifvqe0g","pricing_plan_id":"cebpf4jnsgd1na2vs0mg"},{"bike_id":"dc33a33b-693b-408a-8296-40c638246513","system_id":"levelo_inurba_marseille","lat":43.29514,"lon":5.38555,"is_reserved":false,"is_disabled":false,"rental_uris":{"android":"levelo://app?vid=dc33a33b-693b-408a-8296-40c638246513","ios":"levelo://app?vid=dc33a33b-693b-408a-8296-40c638246513"},"vehicle_type_id":"4","last_reported":1773779303,"current_range_meters":4800,"station_id":"ce4bgih2rcd13ifvqba0","pricing_plan_id":"cebpf4jnsgd1na2vs0mg"},{"bike_id":"39757e8b-d2c8-405f-8c0e-8e295340c708","system_id":"levelo_inurba_marseille","lat":43.2796,"lon":5.38715,"is_reserved":false,"is_disabled":false,"rental_uris":{"android":"levelo://app?vid=39757e8b-d2c8-405f-8c0e-8e295340c708","ios":"levelo://app?vid=39757e8b-d2c8-405f-8c0e-8e295340c708"},"vehicle_type_id":"4","last_reported":1773779303,"current_range_meters":4800,"station_id":"ce4bhg12rcd13ifvqf80","pricing_plan_id":"cebpf4jnsgd1na2vs0mg"},{"bike_id":"6143b1cb-332a-47ea-b076-e3f92c1d984d","system_id":"levelo_inurba_marseille","lat":43.28679,"lon":5.37412,"is_reserved":false,"is_disabled":false,"rental_uris":{"android":"levelo://app?vid=6143b1cb-332a-47ea-b076-e3f92c1d984d","ios":"levelo://app?vid=6143b1cb-332a-47ea-b076-e3f92c1d984d"},"vehicle_type_id":"4","last_reported":1773779303,"current_range_meters":4800,"station_id":"ce4bh3p2rcd13ifvqdq0","pricing_plan_id":"cebpf4jnsgd1na2vs0mg"},{"bike_id":"b3e3399c-3837-42b8-afac-39674642005e","system_id":"levelo_inurba_marseille","lat":43.2973,"lon":5.42764,"is_reserved":false,"is_disabled":false,"rental_uris":{"android":"levelo://app?vid=b3e3399c-3837-42b8-afac-39674642005e","ios":"levelo://app?vid=b3e3399c-3837-42b8-afac-39674642005e"},"vehicle_type_id":"4","last_reported":1773779303,"current_range_meters":4800,"station_id":"st_d3md5207bmas73dh9klg","pricing_plan_id":"cebpf4jnsgd1na2vs0mg"},{"bike_id":"2be4c2db-a947-4903-b865-0449b707427e","system_id":"levelo_inurba_marseille","lat":43.30311,"lon":5.36907,"is_reserved":false,"is_disabled":false,"rental_uris":{"android":"levelo://app?vid=2be4c2db-a947-4903-b865-0449b707427e","ios":"levelo://app?vid=2be4c2db-a947-4903-b865-0449b707427e"},"vehicle_type_id":"4","last_reported":1773779303,"current_range_meters":4800,"station_id":"ce4bgqh2rcd13ifvqc5g","pricing_plan_id":"cebpf4jnsgd1na2vs0mg"},{"bike_id":"da15407c-b052-4cba-96e5-d14b28dc9cbe","system_id":"levelo_inurba_marseille","lat":43.28392,"lon":5.37515,"is_reserved":false,"is_disabled":false,"rental_uris":{"android":"levelo://app?vid=da15407c-b052-4cba-96e5-d14b28dc9cbe","ios":"levelo://app?vid=da15407c-b052-4cba-96e5-d14b28dc9cbe"},"vehicle_type_id":"4","last_reported":1773779303,"current_range_meters":4800,"station_id":"ce4bh412rcd13ifvqds0","pricing_plan_id":"cebpf4jnsgd1na2vs0mg"},{"bike_id":"7b4a33e2-c319-438c-b021-8c3e6bad0b34","system_id":"levelo_inurba_marseille","lat":43.3059,"lon":5.39359,"is_reserved":false,"is_disabled":false,"rental_uris":{"android":"levelo://app?vid=7b4a33e2-c319-438c-b021-8c3e6bad0b34","ios":"levelo://app?vid=7b4a33e2-c319-438c-b021-8c3e6bad0b34"},"vehicle_type_id":"4","last_reported":1773779303,"current_range_meters":4800,"station_id":"ce4bh0p2rcd13ifvqd80","pricing_plan_id":"cebpf4jnsgd1na2vs0mg"},{"bike_id":"4edc1e69-f919-4c2f-a6b8-66257e87a54f","system_id":"levelo_inurba_marseille","lat":43.28479,"lon":5.48402,"is_reserved":false,"is_disabled":false,"rental_uris":{"android":"levelo://app?vid=4edc1e69-f919-4c2f-a6b8-66257e87a54f","ios":"levelo://app?vid=4edc1e69-f919-4c2f-a6b8-66257e87a54f"},"vehicle_type_id":"4","last_reported":1773779303,"current_range_meters":4800,"station_id":"","pricing_plan_id":"cebpf4jnsgd1na2vs0mg"},{"bike_id":"e4b515b3-5a64-4f24-8a63-3407e3500a15","system_id":"levelo_inurba_marseille","lat":43.24324,"lon":5.40234,"is_reserved":false,"is_disabled":false,"rental_uris":{"android":"levelo://app?vid=e4b515b3-5a64-4f24-8a63-3407e3500a15","ios":"levelo://app?vid=e4b515b3-5a64-4f24-8a63-3407e3500a15"},"vehicle_type_id":"4","last_reported":1773779303,"current_range_meters":4800,"station_id":"","pricing_plan_id":"cebpf4jnsgd1na2vs0mg"},{"bike_id":"8a9cf55b-22f5-4ff3-9d9e-e57e2d5a3ccc","system_id":"levelo_inurba_marseille","lat":43.29022,"lon":5.38639,"is_reserved":false,"is_disabled":false,"rental_uris":{"android":"levelo://app?vid=8a9cf55b-22f5-4ff3-9d9e-e57e2d5a3ccc","ios":"levelo://app?vid=8a9cf55b-22f5-4ff3-9d9e-e57e2d5a3ccc"},"vehicle_type_id":"4","last_reported":1773779303,"current_range_meters":4800,"station_id":"ce4bh4p2rcd13ifvqe0g","pricing_plan_id":"cebpf4jnsgd1na2vs0mg"},{"bike_id":"feaf2e83-6bc7-46d3-b8dc-e52b9fc8cf3e","system_id":"levelo_inurba_marseille","lat":43.22555,"lon":5.41649,"is_reserved":false,"is_disabled":false,"rental_uris":{"android":"levelo://app?vid=feaf2e83-6bc7-46d3-b8dc-e52b9fc8cf3e","ios":"levelo://app?vid=feaf2e83-6bc7-46d3-b8dc-e52b9fc8cf3e"},"vehicle_type_id":"4","last_reported":1773779303,"current_range_meters":5600,"station_id":"st_d2o4gvlbi1j2169b742g","pricing_plan_id":"cebpf4jnsgd1na2vs0mg"},{"bike_id":"ad57a056-3130-4f3f-bc53-0bcc19e0ad87","system_id":"levelo_inurba_marseille","lat":43.30252,"lon":5.40062,"is_reserved":false,"is_disabled":false,"rental_uris":{"android":"levelo://app?vid=ad57a056-3130-4f3f-bc53-0bcc19e0ad87","ios":"levelo://app?vid=ad57a056-3130-4f3f-bc53-0bcc19e0ad87"},"vehicle_type_id":"4","last_reported":1773779303,"current_range_meters":5600,"station_id":"ce4bgvh2rcd13ifvqcs0","pricing_plan_id":"cebpf4jnsgd1na2vs0mg"},{"bike_id":"07b2a149-dcbc-4081-ae8c-4b0d91f479bb","system_id":"levelo_inurba_marseille","lat":43.30124,"lon":5.39869,"is_reserved":false,"is_disabled":false,"rental_uris":{"android":"levelo://app?vid=07b2a149-dcbc-4081-ae8c-4b0d91f479bb","ios":"levelo://app?vid=07b2a149-dcbc-4081-ae8c-4b0d91f479bb"},"vehicle_type_id":"4","last_reported":1773779303,"current_range_meters":5600,"station_id":"ce4bh0h2rcd13ifvqd40","pricing_plan_id":"cebpf4jnsgd1na2vs0mg"},{"bike_id":"03812eec-b185-465c-8c48-7984e651c3d0","system_id":"levelo_inurba_marseille","lat":43.33092,"lon":5.3908,"is_reserved":false,"is_disabled":false,"rental_uris":{"android":"levelo://app?vid=03812eec-b185-465c-8c48-7984e651c3d0","ios":"levelo://app?vid=03812eec-b185-465c-8c48-7984e651c3d0"},"vehicle_type_id":"4","last_reported":1773779303,"current_range_meters":5600,"station_id":"","pricing_plan_id":"cebpf4jnsgd1na2vs0mg"},{"bike_id":"2f5b109f-3597-49b8-81a6-d4917520df7d","system_id":"levelo_inurba_marseille","lat":43.30883,"lon":5.39651,"is_reserved":false,"is_disabled":false,"rental_uris":{"android":"levelo://app?vid=2f5b109f-3597-49b8-81a6-d4917520df7d","ios":"levelo://app?vid=2f5b109f-3597-49b8-81a6-d4917520df7d"},"vehicle_type_id":"4","last_reported":1773779303,"current_range_meters":5600,"station_id":"ce4bh012rcd13ifvqcv0","pricing_plan_id":"cebpf4jnsgd1na2vs0mg"},{"bike_id":"9761ea07-5436-44a3-b47a-edd5aaaf46a7","system_id":"levelo_inurba_marseille","lat":43.24798,"lon":5.37463,"is_reserved":false,"is_disabled":false,"rental_uris":{"android":"levelo://app?vid=9761ea07-5436-44a3-b47a-edd5aaaf46a7","ios":"levelo://app?vid=9761ea07-5436-44a3-b47a-edd5aaaf46a7"},"vehicle_type_id":"4","last_reported":1773779303,"current_range_meters":5600,"station_id":"ce4bhgh2rcd13ifvqfb0","pricing_plan_id":"cebpf4jnsgd1na2vs0mg"},{"bike_id":"9df6a4db-22f2-4127-971d-b856888ab0b6","system_id":"levelo_inurba_marseille","lat":43.30211,"lon":5.39465,"is_reserved":false,"is_disabled":false,"rental_uris":{"android":"levelo://app?vid=9df6a4db-22f2-4127-971d-b856888ab0b6","ios":"levelo://app?vid=9df6a4db-22f2-4127-971d-b856888ab0b6"},"vehicle_type_id":"4","last_reported":1773779303,"current_range_meters":5600,"station_id":"ce4bh0p2rcd13ifvqd70","pricing_plan_id":"cebpf4jnsgd1na2vs0mg"},{"bike_id":"41f36177-8aac-4464-a4eb-29abc2157843","system_id":"levelo_inurba_marseille","lat":43.27806,"lon":5.40717,"is_reserved":false,"is_disabled":false,"rental_uris":{"android":"levelo://app?vid=41f36177-8aac-4464-a4eb-29abc2157843","ios":"levelo://app?vid=41f36177-8aac-4464-a4eb-29abc2157843"},"vehicle_type_id":"4","last_reported":1773779303,"current_range_meters":5600,"station_id":"ce4bhnh2rcd13ifvqgtg","pricing_plan_id":"cebpf4jnsgd1na2vs0mg"},{"bike_id":"74b8b5d0-586c-4a88-b891-f5dc5b242cb3","system_id":"levelo_inurba_marseille","lat":43.29194,"lon":5.39335,"is_reserved":false,"is_disabled":false,"rental_uris":{"android":"levelo://app?vid=74b8b5d0-586c-4a88-b891-f5dc5b242cb3","ios":"levelo://app?vid=74b8b5d0-586c-4a88-b891-f5dc5b242cb3"},"vehicle_type_id":"4","last_reported":1773779303,"current_range_meters":5600,"station_id":"ce4bh192rcd13ifvqdd0","pricing_plan_id":"cebpf4jnsgd1na2vs0mg"},{"bike_id":"2567a655-2c75-4ae5-a8b5-6cd436626987","system_id":"levelo_inurba_marseille","lat":43.28145,"lon":5.42636,"is_reserved":false,"is_disabled":false,"rental_uris":{"android":"levelo://app?vid=2567a655-2c75-4ae5-a8b5-6cd436626987","ios":"levelo://app?vid=2567a655-2c75-4ae5-a8b5-6cd436626987"},"vehicle_type_id":"4","last_reported":1773779303,"current_range_meters":5600,"station_id":"ce4bhnh2rcd13ifvqgug","pricing_plan_id":"cebpf4jnsgd1na2vs0mg"},{"bike_id":"c84865df-58a0-485a-b466-02fb26eb4ff0","system_id":"levelo_inurba_marseille","lat":43.23204,"lon":5.35555,"is_reserved":false,"is_disabled":false,"rental_uris":{"android":"levelo://app?vid=c84865df-58a0-485a-b466-02fb26eb4ff0","ios":"levelo://app?vid=c84865df-58a0-485a-b466-02fb26eb4ff0"},"vehicle_type_id":"4","last_reported":1773779303,"current_range_meters":5600,"station_id":"ce4bhu92rcd13ifvqi70","pricing_plan_id":"cebpf4jnsgd1na2vs0mg"},{"bike_id":"3dad20a7-e396-4101-adc6-30f4c7f64d56","system_id":"levelo_inurba_marseille","lat":43.24995,"lon":5.38919,"is_reserved":false,"is_disabled":false,"rental_uris":{"android":"levelo://app?vid=3dad20a7-e396-4101-adc6-30f4c7f64d56","ios":"levelo://app?vid=3dad20a7-e396-4101-adc6-30f4c7f64d56"},"vehicle_type_id":"4","last_reported":1773779303,"current_range_meters":5600,"station_id":"ce4bhgp2rcd13ifvqfd0","pricing_plan_id":"cebpf4jnsgd1na2vs0mg"},{"bike_id":"1a0702e8-bf55-4a27-806d-96625155e9d3","system_id":"levelo_inurba_marseille","lat":43.28073,"lon":5.39651,"is_reserved":false,"is_disabled":false,"rental_uris":{"android":"levelo://app?vid=1a0702e8-bf55-4a27-806d-96625155e9d3","ios":"levelo://app?vid=1a0702e8-bf55-4a27-806d-96625155e9d3"},"vehicle_type_id":"4","last_reported":1773779303,"current_range_meters":5600,"station_id":"ce4bho12rcd13ifvqh2g","pricing_plan_id":"cebpf4jnsgd1na2vs0mg"},{"bike_id":"d419067c-8776-4433-837a-8aa80a12a8f1","system_id":"levelo_inurba_marseille","lat":43.29605,"lon":5.38094,"is_reserved":false,"is_disabled":false,"rental_uris":{"android":"levelo://app?vid=d419067c-8776-4433-837a-8aa80a12a8f1","ios":"levelo://app?vid=d419067c-8776-4433-837a-8aa80a12a8f1"},"vehicle_type_id":"4","last_reported":1773779303,"current_range_meters":5600,"station_id":"ce4bgl12rcd13ifvqbo0","pricing_plan_id":"cebpf4jnsgd1na2vs0mg"},{"bike_id":"542cfb94-78e0-4643-9e5c-42b7a993ca18","system_id":"levelo_inurba_marseille","lat":43.31322,"lon":5.39685,"is_reserved":false,"is_disabled":false,"rental_uris":{"android":"levelo://app?vid=542cfb94-78e0-4643-9e5c-42b7a993ca18","ios":"levelo://app?vid=542cfb94-78e0-4643-9e5c-42b7a993ca18"},"vehicle_type_id":"4","last_reported":1773779303,"current_range_meters":5600,"station_id":"ce4bgvp2rcd13ifvqcu0","pricing_plan_id":"cebpf4jnsgd1na2vs0mg"},{"bike_id":"7c245f6b-63fb-4c36-8493-afb8fd5288f8","system_id":"levelo_inurba_marseille","lat":43.31184,"lon":5.39084,"is_reserved":false,"is_disabled":false,"rental_uris":{"android":"levelo://app?vid=7c245f6b-63fb-4c36-8493-afb8fd5288f8","ios":"levelo://app?vid=7c245f6b-63fb-4c36-8493-afb8fd5288f8"},"vehicle_type_id":"4","last_reported":1773779303,"current_range_meters":5600,"station_id":"","pricing_plan_id":"cebpf4jnsgd1na2vs0mg"},{"bike_id":"bb6b8858-f9a3-4d2c-91cd-dfaaab52d9fe","system_id":"levelo_inurba_marseille","lat":43.27058,"lon":5.40256,"is_reserved":false,"is_disabled":false,"rental_uris":{"android":"levelo://app?vid=bb6b8858-f9a3-4d2c-91cd-dfaaab52d9fe","ios":"levelo://app?vid=bb6b8858-f9a3-4d2c-91cd-dfaaab52d9fe"},"vehicle_type_id":"4","last_reported":1773779303,"current_range_meters":5600,"station_id":"ce4bhk92rcd13ifvqgc0","pricing_plan_id":"cebpf4jnsgd1na2vs0mg"},{"bike_id":"2a985472-264c-4fbd-9a10-fd79e3665a62","system_id":"levelo_inurba_marseille","lat":43.30133,"lon":5.37421,"is_reserved":false,"is_disabled":false,"rental_uris":{"android":"levelo://app?vid=2a985472-264c-4fbd-9a10-fd79e3665a62","ios":"levelo://app?vid=2a985472-264c-4fbd-9a10-fd79e3665a62"},"vehicle_type_id":"4","last_reported":1773779303,"current_range_meters":5600,"station_id":"ce4bgs92rcd13ifvqcc0","pricing_plan_id":"cebpf4jnsgd1na2vs0mg"},{"bike_id":"36bcefea-1744-478b-a4f4-a282d99e8251","system_id":"levelo_inurba_marseille","lat":43.24549,"lon":5.3954,"is_reserved":false,"is_disabled":true,"rental_uris":{"android":"levelo://app?vid=36bcefea-1744-478b-a4f4-a282d99e8251","ios":"levelo://app?vid=36bcefea-1744-478b-a4f4-a282d99e8251"},"vehicle_type_id":"4","last_reported":1773779303,"current_range_meters":5600,"station_id":"ce4bhlp2rcd13ifvqgjg","pricing_plan_id":"cebpf4jnsgd1na2vs0mg"},{"bike_id":"3df75077-2666-4436-8a3f-a69331f9ce94","system_id":"levelo_inurba_marseille","lat":43.24953,"lon":5.40486,"is_reserved":false,"is_disabled":false,"rental_uris":{"android":"levelo://app?vid=3df75077-2666-4436-8a3f-a69331f9ce94","ios":"levelo://app?vid=3df75077-2666-4436-8a3f-a69331f9ce94"},"vehicle_type_id":"4","last_reported":1773779303,"current_range_meters":5600,"station_id":"st_d2ngiaodas8pm72gd1h0","pricing_plan_id":"cebpf4jnsgd1na2vs0mg"},{"bike_id":"1d8cb52d-d5c1-4095-8f28-39f8f19cdb6b","system_id":"levelo_inurba_marseille","lat":43.29264,"lon":5.38426,"is_reserved":false,"is_disabled":false,"rental_uris":{"android":"levelo://app?vid=1d8cb52d-d5c1-4095-8f28-39f8f19cdb6b","ios":"levelo://app?vid=1d8cb52d-d5c1-4095-8f28-39f8f19cdb6b"},"vehicle_type_id":"4","last_reported":1773779303,"current_range_meters":6000,"station_id":"ce4bh692rcd13ifvqea0","pricing_plan_id":"cebpf4jnsgd1na2vs0mg"},{"bike_id":"02069907-22a3-4b54-8d6a-4533b0f28256","system_id":"levelo_inurba_marseille","lat":43.30611,"lon":5.37223,"is_reserved":false,"is_disabled":false,"rental_uris":{"android":"levelo://app?vid=02069907-22a3-4b54-8d6a-4533b0f28256","ios":"levelo://app?vid=02069907-22a3-4b54-8d6a-4533b0f28256"},"vehicle_type_id":"4","last_reported":1773779303,"current_range_meters":6000,"station_id":"ce4bgqh2rcd13ifvqc4g","pricing_plan_id":"cebpf4jnsgd1na2vs0mg"},{"bike_id":"bfcc8fdd-63e4-4461-98fe-26f3cee9722d","system_id":"levelo_inurba_marseille","lat":43.28,"lon":5.40008,"is_reserved":false,"is_disabled":false,"rental_uris":{"android":"levelo://app?vid=bfcc8fdd-63e4-4461-98fe-26f3cee9722d","ios":"levelo://app?vid=bfcc8fdd-63e4-4461-98fe-26f3cee9722d"},"vehicle_type_id":"4","last_reported":1773779303,"current_range_meters":6000,"station_id":"ce4bho92rcd13ifvqh4g","pricing_plan_id":"cebpf4jnsgd1na2vs0mg"},{"bike_id":"9fc44211-c662-4f66-9a1f-0c72040d8ccf","system_id":"levelo_inurba_marseille","lat":43.295244,"lon":5.390313,"is_reserved":false,"is_disabled":false,"rental_uris":{"android":"levelo://app?vid=9fc44211-c662-4f66-9a1f-0c72040d8ccf","ios":"levelo://app?vid=9fc44211-c662-4f66-9a1f-0c72040d8ccf"},"vehicle_type_id":"4","last_reported":1773779303,"current_range_meters":6000,"station_id":"ce4bh3p2rcd13ifvqdp0","pricing_plan_id":"cebpf4jnsgd1na2vs0mg"},{"bike_id":"57f59ea7-9661-484b-ab62-8930e39b76a3","system_id":"levelo_inurba_marseille","lat":43.2379,"lon":5.36635,"is_reserved":false,"is_disabled":false,"rental_uris":{"android":"levelo://app?vid=57f59ea7-9661-484b-ab62-8930e39b76a3","ios":"levelo://app?vid=57f59ea7-9661-484b-ab62-8930e39b76a3"},"vehicle_type_id":"4","last_reported":1773779303,"current_range_meters":6000,"station_id":"st_d3nk18o9ro0c73en2l3g","pricing_plan_id":"cebpf4jnsgd1na2vs0mg"},{"bike_id":"3aa3d11b-ad41-4898-aa7f-dcaaf47f06cb","system_id":"levelo_inurba_marseille","lat":43.33541,"lon":5.37466,"is_reserved":false,"is_disabled":false,"rental_uris":{"android":"levelo://app?vid=3aa3d11b-ad41-4898-aa7f-dcaaf47f06cb","ios":"levelo://app?vid=3aa3d11b-ad41-4898-aa7f-dcaaf47f06cb"},"vehicle_type_id":"4","last_reported":1773779303,"current_range_meters":6000,"station_id":"st_d46tts09ee8s73dlu43g","pricing_plan_id":"cebpf4jnsgd1na2vs0mg"},{"bike_id":"5374df13-6b9e-46c6-9517-5dffd87d7ebd","system_id":"levelo_inurba_marseille","lat":43.29554,"lon":5.3853,"is_reserved":false,"is_disabled":false,"rental_uris":{"android":"levelo://app?vid=5374df13-6b9e-46c6-9517-5dffd87d7ebd","ios":"levelo://app?vid=5374df13-6b9e-46c6-9517-5dffd87d7ebd"},"vehicle_type_id":"4","last_reported":1773779303,"current_range_meters":6000,"station_id":"ce4bgih2rcd13ifvqba0","pricing_plan_id":"cebpf4jnsgd1na2vs0mg"},{"bike_id":"9581202a-9f0b-4e3d-8ba8-487d1612fe8d","system_id":"levelo_inurba_marseille","lat":43.2988,"lon":5.37992,"is_reserved":false,"is_disabled":false,"rental_uris":{"android":"levelo://app?vid=9581202a-9f0b-4e3d-8ba8-487d1612fe8d","ios":"levelo://app?vid=9581202a-9f0b-4e3d-8ba8-487d1612fe8d"},"vehicle_type_id":"4","last_reported":1773779303,"current_range_meters":6000,"station_id":"","pricing_plan_id":"cebpf4jnsgd1na2vs0mg"},{"bike_id":"93bf3373-aa9f-4711-bcb6-c37caad775eb","system_id":"levelo_inurba_marseille","lat":43.28073,"lon":5.39662,"is_reserved":false,"is_disabled":false,"rental_uris":{"android":"levelo://app?vid=93bf3373-aa9f-4711-bcb6-c37caad775eb","ios":"levelo://app?vid=93bf3373-aa9f-4711-bcb6-c37caad775eb"},"vehicle_type_id":"4","last_reported":1773779303,"current_range_meters":6000,"station_id":"ce4bho12rcd13ifvqh2g","pricing_plan_id":"cebpf4jnsgd1na2vs0mg"},{"bike_id":"8f9fb6c5-515a-4134-b8b7-8ef7c569799d","system_id":"levelo_inurba_marseille","lat":43.27994,"lon":5.40008,"is_reserved":false,"is_disabled":false,"rental_uris":{"android":"levelo://app?vid=8f9fb6c5-515a-4134-b8b7-8ef7c569799d","ios":"levelo://app?vid=8f9fb6c5-515a-4134-b8b7-8ef7c569799d"},"vehicle_type_id":"4","last_reported":1773779303,"current_range_meters":6000,"station_id":"ce4bho92rcd13ifvqh4g","pricing_plan_id":"cebpf4jnsgd1na2vs0mg"},{"bike_id":"66306e08-d883-479c-9bea-b29d77f64f8b","system_id":"levelo_inurba_marseille","lat":43.29035,"lon":5.38655,"is_reserved":false,"is_disabled":false,"rental_uris":{"android":"levelo://app?vid=66306e08-d883-479c-9bea-b29d77f64f8b","ios":"levelo://app?vid=66306e08-d883-479c-9bea-b29d77f64f8b"},"vehicle_type_id":"4","last_reported":1773779303,"current_range_meters":6000,"station_id":"ce4bh4p2rcd13ifvqe0g","pricing_plan_id":"cebpf4jnsgd1na2vs0mg"},{"bike_id":"da2a1614-765d-42d2-8b44-e33ea5638c08","system_id":"levelo_inurba_marseille","lat":43.256865,"lon":5.410526,"is_reserved":false,"is_disabled":false,"rental_uris":{"android":"levelo://app?vid=da2a1614-765d-42d2-8b44-e33ea5638c08","ios":"levelo://app?vid=da2a1614-765d-42d2-8b44-e33ea5638c08"},"vehicle_type_id":"4","last_reported":1773779303,"current_range_meters":6000,"station_id":"ce4bhkp2rcd13ifvqgd0","pricing_plan_id":"cebpf4jnsgd1na2vs0mg"},{"bike_id":"25c5a53f-1c81-4ae2-a908-0e7de3ad45b1","system_id":"levelo_inurba_marseille","lat":43.30258,"lon":5.40051,"is_reserved":false,"is_disabled":false,"rental_uris":{"android":"levelo://app?vid=25c5a53f-1c81-4ae2-a908-0e7de3ad45b1","ios":"levelo://app?vid=25c5a53f-1c81-4ae2-a908-0e7de3ad45b1"},"vehicle_type_id":"4","last_reported":1773779303,"current_range_meters":6000,"station_id":"ce4bgvh2rcd13ifvqcs0","pricing_plan_id":"cebpf4jnsgd1na2vs0mg"},{"bike_id":"695b3c36-6b3c-44b6-be55-ff0bb1adecba","system_id":"levelo_inurba_marseille","lat":43.24393,"lon":5.37067,"is_reserved":false,"is_disabled":false,"rental_uris":{"android":"levelo://app?vid=695b3c36-6b3c-44b6-be55-ff0bb1adecba","ios":"levelo://app?vid=695b3c36-6b3c-44b6-be55-ff0bb1adecba"},"vehicle_type_id":"4","last_reported":1773779303,"current_range_meters":6000,"station_id":"ce4bhhh2rcd13ifvqfk0","pricing_plan_id":"cebpf4jnsgd1na2vs0mg"},{"bike_id":"ebd201db-6b0d-4b0b-afef-9306224c354d","system_id":"levelo_inurba_marseille","lat":43.29521,"lon":5.39018,"is_reserved":false,"is_disabled":true,"rental_uris":{"android":"levelo://app?vid=ebd201db-6b0d-4b0b-afef-9306224c354d","ios":"levelo://app?vid=ebd201db-6b0d-4b0b-afef-9306224c354d"},"vehicle_type_id":"4","last_reported":1773779303,"current_range_meters":6000,"station_id":"ce4bh3p2rcd13ifvqdp0","pricing_plan_id":"cebpf4jnsgd1na2vs0mg"},{"bike_id":"34d11841-5fe4-4ca3-abe1-f37a08f0ed2d","system_id":"levelo_inurba_marseille","lat":43.25516,"lon":5.37654,"is_reserved":false,"is_disabled":false,"rental_uris":{"android":"levelo://app?vid=34d11841-5fe4-4ca3-abe1-f37a08f0ed2d","ios":"levelo://app?vid=34d11841-5fe4-4ca3-abe1-f37a08f0ed2d"},"vehicle_type_id":"4","last_reported":1773779303,"current_range_meters":6400,"station_id":"ce4bhh12rcd13ifvqff0","pricing_plan_id":"cebpf4jnsgd1na2vs0mg"},{"bike_id":"f6c860f4-9c2e-4a13-b509-50fb1709859b","system_id":"levelo_inurba_marseille","lat":43.2121,"lon":5.35062,"is_reserved":false,"is_disabled":false,"rental_uris":{"android":"levelo://app?vid=f6c860f4-9c2e-4a13-b509-50fb1709859b","ios":"levelo://app?vid=f6c860f4-9c2e-4a13-b509-50fb1709859b"},"vehicle_type_id":"4","last_reported":1773779303,"current_range_meters":6400,"station_id":"st_cvj6sg6p6f1abm77japg","pricing_plan_id":"cebpf4jnsgd1na2vs0mg"},{"bike_id":"7bd419bf-7063-4648-840f-e4e63ac8cb30","system_id":"levelo_inurba_marseille","lat":43.2799,"lon":5.40016,"is_reserved":false,"is_disabled":true,"rental_uris":{"android":"levelo://app?vid=7bd419bf-7063-4648-840f-e4e63ac8cb30","ios":"levelo://app?vid=7bd419bf-7063-4648-840f-e4e63ac8cb30"},"vehicle_type_id":"4","last_reported":1773779303,"current_range_meters":6400,"station_id":"ce4bho92rcd13ifvqh4g","pricing_plan_id":"cebpf4jnsgd1na2vs0mg"},{"bike_id":"4eeecf6d-6108-42a0-b77f-fc0c0b55b73c","system_id":"levelo_inurba_marseille","lat":43.29908,"lon":5.37422,"is_reserved":false,"is_disabled":true,"rental_uris":{"android":"levelo://app?vid=4eeecf6d-6108-42a0-b77f-fc0c0b55b73c","ios":"levelo://app?vid=4eeecf6d-6108-42a0-b77f-fc0c0b55b73c"},"vehicle_type_id":"4","last_reported":1773779303,"current_range_meters":6400,"station_id":"ce4bgjh2rcd13ifvqbg0","pricing_plan_id":"cebpf4jnsgd1na2vs0mg"},{"bike_id":"1d851264-6ba3-48c2-86f6-b84e8d5a0c62","system_id":"levelo_inurba_marseille","lat":43.29191,"lon":5.35785,"is_reserved":false,"is_disabled":true,"rental_uris":{"android":"levelo://app?vid=1d851264-6ba3-48c2-86f6-b84e8d5a0c62","ios":"levelo://app?vid=1d851264-6ba3-48c2-86f6-b84e8d5a0c62"},"vehicle_type_id":"4","last_reported":1773779303,"current_range_meters":6400,"station_id":"ce4bhb12rcd13ifvqel0","pricing_plan_id":"cebpf4jnsgd1na2vs0mg"},{"bike_id":"8afa82e0-443b-485e-812c-b0c0213ccf6b","system_id":"levelo_inurba_marseille","lat":43.29692,"lon":5.37692,"is_reserved":false,"is_disabled":true,"rental_uris":{"android":"levelo://app?vid=8afa82e0-443b-485e-812c-b0c0213ccf6b","ios":"levelo://app?vid=8afa82e0-443b-485e-812c-b0c0213ccf6b"},"vehicle_type_id":"4","last_reported":1773779303,"current_range_meters":6400,"station_id":"ce4bgkh2rcd13ifvqbl0","pricing_plan_id":"cebpf4jnsgd1na2vs0mg"},{"bike_id":"58df6535-2746-4ca5-8ec4-a2736cc7519f","system_id":"levelo_inurba_marseille","lat":43.21182,"lon":5.35074,"is_reserved":false,"is_disabled":false,"rental_uris":{"android":"levelo://app?vid=58df6535-2746-4ca5-8ec4-a2736cc7519f","ios":"levelo://app?vid=58df6535-2746-4ca5-8ec4-a2736cc7519f"},"vehicle_type_id":"4","last_reported":1773779303,"current_range_meters":6400,"station_id":"st_cvj6sg6p6f1abm77japg","pricing_plan_id":"cebpf4jnsgd1na2vs0mg"},{"bike_id":"88dbdb16-ecaf-4ede-ba64-5046b576ddb1","system_id":"levelo_inurba_marseille","lat":43.29865,"lon":5.38921,"is_reserved":false,"is_disabled":false,"rental_uris":{"android":"levelo://app?vid=88dbdb16-ecaf-4ede-ba64-5046b576ddb1","ios":"levelo://app?vid=88dbdb16-ecaf-4ede-ba64-5046b576ddb1"},"vehicle_type_id":"4","last_reported":1773779303,"current_range_meters":6400,"station_id":"ce4bh392rcd13ifvqdl0","pricing_plan_id":"cebpf4jnsgd1na2vs0mg"},{"bike_id":"a650f10d-9ab2-42e1-a1ec-b23d66310508","system_id":"levelo_inurba_marseille","lat":43.27351,"lon":5.42389,"is_reserved":false,"is_disabled":true,"rental_uris":{"android":"levelo://app?vid=a650f10d-9ab2-42e1-a1ec-b23d66310508","ios":"levelo://app?vid=a650f10d-9ab2-42e1-a1ec-b23d66310508"},"vehicle_type_id":"4","last_reported":1773779303,"current_range_meters":6400,"station_id":"","pricing_plan_id":"cebpf4jnsgd1na2vs0mg"},{"bike_id":"795d157b-86e6-46ae-a250-49501762a369","system_id":"levelo_inurba_marseille","lat":43.30143,"lon":5.38785,"is_reserved":false,"is_disabled":false,"rental_uris":{"android":"levelo://app?vid=795d157b-86e6-46ae-a250-49501762a369","ios":"levelo://app?vid=795d157b-86e6-46ae-a250-49501762a369"},"vehicle_type_id":"4","last_reported":1773779303,"current_range_meters":6400,"station_id":"ce4bghh2rcd13ifvqb60","pricing_plan_id":"cebpf4jnsgd1na2vs0mg"},{"bike_id":"5711bf4b-ed5b-4045-b5ba-d965c10b875b","system_id":"levelo_inurba_marseille","lat":43.284,"lon":5.37521,"is_reserved":false,"is_disabled":false,"rental_uris":{"android":"levelo://app?vid=5711bf4b-ed5b-4045-b5ba-d965c10b875b","ios":"levelo://app?vid=5711bf4b-ed5b-4045-b5ba-d965c10b875b"},"vehicle_type_id":"4","last_reported":1773779303,"current_range_meters":6400,"station_id":"ce4bh412rcd13ifvqds0","pricing_plan_id":"cebpf4jnsgd1na2vs0mg"},{"bike_id":"5a078d8c-d448-48a4-8671-630ca46a4a69","system_id":"levelo_inurba_marseille","lat":43.24845,"lon":5.37445,"is_reserved":false,"is_disabled":false,"rental_uris":{"android":"levelo://app?vid=5a078d8c-d448-48a4-8671-630ca46a4a69","ios":"levelo://app?vid=5a078d8c-d448-48a4-8671-630ca46a4a69"},"vehicle_type_id":"4","last_reported":1773779303,"current_range_meters":6400,"station_id":"ce4bhgh2rcd13ifvqfb0","pricing_plan_id":"cebpf4jnsgd1na2vs0mg"},{"bike_id":"b5f71bd9-9520-49be-8114-6ba9e6cfa978","system_id":"levelo_inurba_marseille","lat":43.27902,"lon":5.39578,"is_reserved":false,"is_disabled":false,"rental_uris":{"android":"levelo://app?vid=b5f71bd9-9520-49be-8114-6ba9e6cfa978","ios":"levelo://app?vid=b5f71bd9-9520-49be-8114-6ba9e6cfa978"},"vehicle_type_id":"4","last_reported":1773779303,"current_range_meters":6400,"station_id":"ce4bhf92rcd13ifvqf40","pricing_plan_id":"cebpf4jnsgd1na2vs0mg"},{"bike_id":"620bb717-74f7-449f-a7df-99cb09ee3afb","system_id":"levelo_inurba_marseille","lat":43.28874,"lon":5.38512,"is_reserved":false,"is_disabled":false,"rental_uris":{"android":"levelo://app?vid=620bb717-74f7-449f-a7df-99cb09ee3afb","ios":"levelo://app?vid=620bb717-74f7-449f-a7df-99cb09ee3afb"},"vehicle_type_id":"4","last_reported":1773779303,"current_range_meters":6400,"station_id":"ce4bh612rcd13ifvqe6g","pricing_plan_id":"cebpf4jnsgd1na2vs0mg"},{"bike_id":"e0d6593a-0328-44a4-af3c-98c409d8dd20","system_id":"levelo_inurba_marseille","lat":43.29497,"lon":5.38662,"is_reserved":false,"is_disabled":false,"rental_uris":{"android":"levelo://app?vid=e0d6593a-0328-44a4-af3c-98c409d8dd20","ios":"levelo://app?vid=e0d6593a-0328-44a4-af3c-98c409d8dd20"},"vehicle_type_id":"4","last_reported":1773779303,"current_range_meters":6400,"station_id":"","pricing_plan_id":"cebpf4jnsgd1na2vs0mg"},{"bike_id":"a2aa2a1e-acff-4948-8382-65ccede6ee91","system_id":"levelo_inurba_marseille","lat":43.29002,"lon":5.35593,"is_reserved":false,"is_disabled":false,"rental_uris":{"android":"levelo://app?vid=a2aa2a1e-acff-4948-8382-65ccede6ee91","ios":"levelo://app?vid=a2aa2a1e-acff-4948-8382-65ccede6ee91"},"vehicle_type_id":"4","last_reported":1773779303,"current_range_meters":6400,"station_id":"ce4bhb92rcd13ifvqen0","pricing_plan_id":"cebpf4jnsgd1na2vs0mg"},{"bike_id":"c2e98a5d-53fe-4a80-8419-90b0be0d3ccd","system_id":"levelo_inurba_marseille","lat":43.29041,"lon":5.38614,"is_reserved":false,"is_disabled":false,"rental_uris":{"android":"levelo://app?vid=c2e98a5d-53fe-4a80-8419-90b0be0d3ccd","ios":"levelo://app?vid=c2e98a5d-53fe-4a80-8419-90b0be0d3ccd"},"vehicle_type_id":"4","last_reported":1773779303,"current_range_meters":6400,"station_id":"ce4bh4p2rcd13ifvqe0g","pricing_plan_id":"cebpf4jnsgd1na2vs0mg"},{"bike_id":"6dc6360c-21bc-4e4e-8cfd-a8d5b5156050","system_id":"levelo_inurba_marseille","lat":43.27803,"lon":5.40709,"is_reserved":false,"is_disabled":false,"rental_uris":{"android":"levelo://app?vid=6dc6360c-21bc-4e4e-8cfd-a8d5b5156050","ios":"levelo://app?vid=6dc6360c-21bc-4e4e-8cfd-a8d5b5156050"},"vehicle_type_id":"4","last_reported":1773779303,"current_range_meters":6400,"station_id":"ce4bhnh2rcd13ifvqgtg","pricing_plan_id":"cebpf4jnsgd1na2vs0mg"},{"bike_id":"5fe453e8-63f8-45b7-a117-7a751d4a202c","system_id":"levelo_inurba_marseille","lat":43.22931,"lon":5.35382,"is_reserved":false,"is_disabled":false,"rental_uris":{"android":"levelo://app?vid=5fe453e8-63f8-45b7-a117-7a751d4a202c","ios":"levelo://app?vid=5fe453e8-63f8-45b7-a117-7a751d4a202c"},"vehicle_type_id":"4","last_reported":1773779303,"current_range_meters":6400,"station_id":"cpo3532slgdg3j2ikp40","pricing_plan_id":"cebpf4jnsgd1na2vs0mg"},{"bike_id":"9c14d8ed-f52c-4a3d-92f0-138966bd1a86","system_id":"levelo_inurba_marseille","lat":43.27993,"lon":5.40008,"is_reserved":false,"is_disabled":false,"rental_uris":{"android":"levelo://app?vid=9c14d8ed-f52c-4a3d-92f0-138966bd1a86","ios":"levelo://app?vid=9c14d8ed-f52c-4a3d-92f0-138966bd1a86"},"vehicle_type_id":"4","last_reported":1773779303,"current_range_meters":6400,"station_id":"ce4bho92rcd13ifvqh4g","pricing_plan_id":"cebpf4jnsgd1na2vs0mg"},{"bike_id":"ff596f64-d8ad-4cb4-8220-cbd0d9f525fd","system_id":"levelo_inurba_marseille","lat":43.29218,"lon":5.35786,"is_reserved":false,"is_disabled":false,"rental_uris":{"android":"levelo://app?vid=ff596f64-d8ad-4cb4-8220-cbd0d9f525fd","ios":"levelo://app?vid=ff596f64-d8ad-4cb4-8220-cbd0d9f525fd"},"vehicle_type_id":"4","last_reported":1773779303,"current_range_meters":6400,"station_id":"ce4bhb12rcd13ifvqel0","pricing_plan_id":"cebpf4jnsgd1na2vs0mg"},{"bike_id":"a4456d89-d17c-400e-b5f6-bacb94ff5823","system_id":"levelo_inurba_marseille","lat":43.28161,"lon":5.42633,"is_reserved":false,"is_disabled":false,"rental_uris":{"android":"levelo://app?vid=a4456d89-d17c-400e-b5f6-bacb94ff5823","ios":"levelo://app?vid=a4456d89-d17c-400e-b5f6-bacb94ff5823"},"vehicle_type_id":"4","last_reported":1773779303,"current_range_meters":6800,"station_id":"ce4bhnh2rcd13ifvqgug","pricing_plan_id":"cebpf4jnsgd1na2vs0mg"},{"bike_id":"95841494-38ef-466c-9a5f-cbd9140c0794","system_id":"levelo_inurba_marseille","lat":43.28227,"lon":5.39072,"is_reserved":false,"is_disabled":false,"rental_uris":{"android":"levelo://app?vid=95841494-38ef-466c-9a5f-cbd9140c0794","ios":"levelo://app?vid=95841494-38ef-466c-9a5f-cbd9140c0794"},"vehicle_type_id":"4","last_reported":1773779303,"current_range_meters":6800,"station_id":"ce4bhn92rcd13ifvqgsg","pricing_plan_id":"cebpf4jnsgd1na2vs0mg"},{"bike_id":"33d89ae0-17cd-4ef3-986f-949bbe64e679","system_id":"levelo_inurba_marseille","lat":43.29519,"lon":5.394,"is_reserved":false,"is_disabled":false,"rental_uris":{"android":"levelo://app?vid=33d89ae0-17cd-4ef3-986f-949bbe64e679","ios":"levelo://app?vid=33d89ae0-17cd-4ef3-986f-949bbe64e679"},"vehicle_type_id":"4","last_reported":1773779303,"current_range_meters":6800,"station_id":"ce4bh292rcd13ifvqdf0","pricing_plan_id":"cebpf4jnsgd1na2vs0mg"},{"bike_id":"7a73b128-6eb2-47bb-8ea6-432d8e929d53","system_id":"levelo_inurba_marseille","lat":43.29969,"lon":5.41312,"is_reserved":false,"is_disabled":false,"rental_uris":{"android":"levelo://app?vid=7a73b128-6eb2-47bb-8ea6-432d8e929d53","ios":"levelo://app?vid=7a73b128-6eb2-47bb-8ea6-432d8e929d53"},"vehicle_type_id":"4","last_reported":1773779303,"current_range_meters":6800,"station_id":"ce4bhp12rcd13ifvqh9g","pricing_plan_id":"cebpf4jnsgd1na2vs0mg"},{"bike_id":"fe12b3d7-6bf8-4025-b6cd-96298bb73495","system_id":"levelo_inurba_marseille","lat":43.31162,"lon":5.3872,"is_reserved":false,"is_disabled":false,"rental_uris":{"android":"levelo://app?vid=fe12b3d7-6bf8-4025-b6cd-96298bb73495","ios":"levelo://app?vid=fe12b3d7-6bf8-4025-b6cd-96298bb73495"},"vehicle_type_id":"4","last_reported":1773779303,"current_range_meters":6800,"station_id":"ce4bgv12rcd13ifvqcp0","pricing_plan_id":"cebpf4jnsgd1na2vs0mg"},{"bike_id":"b5b8b144-cfaf-4287-9933-5469d18ff1ca","system_id":"levelo_inurba_marseille","lat":43.28717,"lon":5.37943,"is_reserved":false,"is_disabled":true,"rental_uris":{"android":"levelo://app?vid=b5b8b144-cfaf-4287-9933-5469d18ff1ca","ios":"levelo://app?vid=b5b8b144-cfaf-4287-9933-5469d18ff1ca"},"vehicle_type_id":"4","last_reported":1773779303,"current_range_meters":6800,"station_id":"ce4bh9p2rcd13ifvqec0","pricing_plan_id":"cebpf4jnsgd1na2vs0mg"},{"bike_id":"53336338-5141-44ec-bb59-6df2460b79a8","system_id":"levelo_inurba_marseille","lat":43.3021,"lon":5.39467,"is_reserved":false,"is_disabled":true,"rental_uris":{"android":"levelo://app?vid=53336338-5141-44ec-bb59-6df2460b79a8","ios":"levelo://app?vid=53336338-5141-44ec-bb59-6df2460b79a8"},"vehicle_type_id":"4","last_reported":1773779303,"current_range_meters":6800,"station_id":"ce4bh0p2rcd13ifvqd70","pricing_plan_id":"cebpf4jnsgd1na2vs0mg"},{"bike_id":"cd6054ed-1784-4089-b36a-73e5ffbfe83c","system_id":"levelo_inurba_marseille","lat":43.2886,"lon":5.39316,"is_reserved":false,"is_disabled":false,"rental_uris":{"android":"levelo://app?vid=cd6054ed-1784-4089-b36a-73e5ffbfe83c","ios":"levelo://app?vid=cd6054ed-1784-4089-b36a-73e5ffbfe83c"},"vehicle_type_id":"4","last_reported":1773779303,"current_range_meters":6800,"station_id":"ce4bh2p2rcd13ifvqdi0","pricing_plan_id":"cebpf4jnsgd1na2vs0mg"},{"bike_id":"5116e78b-3032-4839-a233-0a240d066375","system_id":"levelo_inurba_marseille","lat":43.29878,"lon":5.39737,"is_reserved":false,"is_disabled":false,"rental_uris":{"android":"levelo://app?vid=5116e78b-3032-4839-a233-0a240d066375","ios":"levelo://app?vid=5116e78b-3032-4839-a233-0a240d066375"},"vehicle_type_id":"4","last_reported":1773779303,"current_range_meters":6800,"station_id":"ce4bh0h2rcd13ifvqd50","pricing_plan_id":"cebpf4jnsgd1na2vs0mg"},{"bike_id":"c953d814-a7de-41c6-9b55-1d4312c0ff64","system_id":"levelo_inurba_marseille","lat":43.28095,"lon":5.37839,"is_reserved":false,"is_disabled":false,"rental_uris":{"android":"levelo://app?vid=c953d814-a7de-41c6-9b55-1d4312c0ff64","ios":"levelo://app?vid=c953d814-a7de-41c6-9b55-1d4312c0ff64"},"vehicle_type_id":"4","last_reported":1773779303,"current_range_meters":6800,"station_id":"ce4bha12rcd13ifvqee0","pricing_plan_id":"cebpf4jnsgd1na2vs0mg"},{"bike_id":"8fd49321-6401-4fc8-8878-58eb4a3e3da3","system_id":"levelo_inurba_marseille","lat":43.30137,"lon":5.39871,"is_reserved":false,"is_disabled":false,"rental_uris":{"android":"levelo://app?vid=8fd49321-6401-4fc8-8878-58eb4a3e3da3","ios":"levelo://app?vid=8fd49321-6401-4fc8-8878-58eb4a3e3da3"},"vehicle_type_id":"4","last_reported":1773779303,"current_range_meters":6800,"station_id":"ce4bh0h2rcd13ifvqd40","pricing_plan_id":"cebpf4jnsgd1na2vs0mg"},{"bike_id":"4e4ba8f7-60dc-4959-9a01-6da668abb084","system_id":"levelo_inurba_marseille","lat":43.21159,"lon":5.35081,"is_reserved":false,"is_disabled":false,"rental_uris":{"android":"levelo://app?vid=4e4ba8f7-60dc-4959-9a01-6da668abb084","ios":"levelo://app?vid=4e4ba8f7-60dc-4959-9a01-6da668abb084"},"vehicle_type_id":"4","last_reported":1773779303,"current_range_meters":6800,"station_id":"st_cvj6sg6p6f1abm77japg","pricing_plan_id":"cebpf4jnsgd1na2vs0mg"},{"bike_id":"dd188820-4bb9-4c69-9494-e095d2fc04fb","system_id":"levelo_inurba_marseille","lat":43.29604,"lon":5.38085,"is_reserved":false,"is_disabled":false,"rental_uris":{"android":"levelo://app?vid=dd188820-4bb9-4c69-9494-e095d2fc04fb","ios":"levelo://app?vid=dd188820-4bb9-4c69-9494-e095d2fc04fb"},"vehicle_type_id":"4","last_reported":1773779303,"current_range_meters":6800,"station_id":"ce4bgl12rcd13ifvqbo0","pricing_plan_id":"cebpf4jnsgd1na2vs0mg"},{"bike_id":"dbac3717-12f2-49ae-8db7-42aa1437f387","system_id":"levelo_inurba_marseille","lat":43.28724,"lon":5.36087,"is_reserved":false,"is_disabled":false,"rental_uris":{"android":"levelo://app?vid=dbac3717-12f2-49ae-8db7-42aa1437f387","ios":"levelo://app?vid=dbac3717-12f2-49ae-8db7-42aa1437f387"},"vehicle_type_id":"4","last_reported":1773779303,"current_range_meters":6800,"station_id":"cki0cbj6b192h4jlfktg","pricing_plan_id":"cebpf4jnsgd1na2vs0mg"},{"bike_id":"d66389f2-6524-4402-b83b-74973c3343be","system_id":"levelo_inurba_marseille","lat":43.27679,"lon":5.38878,"is_reserved":false,"is_disabled":false,"rental_uris":{"android":"levelo://app?vid=d66389f2-6524-4402-b83b-74973c3343be","ios":"levelo://app?vid=d66389f2-6524-4402-b83b-74973c3343be"},"vehicle_type_id":"4","last_reported":1773779303,"current_range_meters":6800,"station_id":"ce4bhi12rcd13ifvqfo0","pricing_plan_id":"cebpf4jnsgd1na2vs0mg"},{"bike_id":"48c37c92-6207-4fae-a861-7faac1da2d8a","system_id":"levelo_inurba_marseille","lat":43.28981,"lon":5.37814,"is_reserved":false,"is_disabled":false,"rental_uris":{"android":"levelo://app?vid=48c37c92-6207-4fae-a861-7faac1da2d8a","ios":"levelo://app?vid=48c37c92-6207-4fae-a861-7faac1da2d8a"},"vehicle_type_id":"4","last_reported":1773779303,"current_range_meters":6800,"station_id":"ce4bh9p2rcd13ifvqed0","pricing_plan_id":"cebpf4jnsgd1na2vs0mg"},{"bike_id":"ab2125f0-f477-425b-9c9a-e4231f7f002b","system_id":"levelo_inurba_marseille","lat":43.21733,"lon":5.34596,"is_reserved":false,"is_disabled":true,"rental_uris":{"android":"levelo://app?vid=ab2125f0-f477-425b-9c9a-e4231f7f002b","ios":"levelo://app?vid=ab2125f0-f477-425b-9c9a-e4231f7f002b"},"vehicle_type_id":"4","last_reported":1773779303,"current_range_meters":6800,"station_id":"st_cvj6r9ubvosntc0bgbag","pricing_plan_id":"cebpf4jnsgd1na2vs0mg"},{"bike_id":"4749e653-fe53-4940-a95a-8d5b9b0bc481","system_id":"levelo_inurba_marseille","lat":43.25718,"lon":5.41114,"is_reserved":false,"is_disabled":false,"rental_uris":{"android":"levelo://app?vid=4749e653-fe53-4940-a95a-8d5b9b0bc481","ios":"levelo://app?vid=4749e653-fe53-4940-a95a-8d5b9b0bc481"},"vehicle_type_id":"4","last_reported":1773779303,"current_range_meters":6800,"station_id":"ce4bhkp2rcd13ifvqgd0","pricing_plan_id":"cebpf4jnsgd1na2vs0mg"},{"bike_id":"359b38cd-f42e-4f14-a350-23f754fcfa14","system_id":"levelo_inurba_marseille","lat":43.30207,"lon":5.39466,"is_reserved":false,"is_disabled":false,"rental_uris":{"android":"levelo://app?vid=359b38cd-f42e-4f14-a350-23f754fcfa14","ios":"levelo://app?vid=359b38cd-f42e-4f14-a350-23f754fcfa14"},"vehicle_type_id":"4","last_reported":1773779303,"current_range_meters":6800,"station_id":"ce4bh0p2rcd13ifvqd70","pricing_plan_id":"cebpf4jnsgd1na2vs0mg"},{"bike_id":"2dcbab98-03bd-4413-ba77-d079bee1965d","system_id":"levelo_inurba_marseille","lat":43.30304,"lon":5.3688,"is_reserved":false,"is_disabled":false,"rental_uris":{"android":"levelo://app?vid=2dcbab98-03bd-4413-ba77-d079bee1965d","ios":"levelo://app?vid=2dcbab98-03bd-4413-ba77-d079bee1965d"},"vehicle_type_id":"4","last_reported":1773779303,"current_range_meters":6800,"station_id":"ce4bgqh2rcd13ifvqc5g","pricing_plan_id":"cebpf4jnsgd1na2vs0mg"},{"bike_id":"2874775b-146e-45de-9a13-98bbe699d55d","system_id":"levelo_inurba_marseille","lat":43.24634,"lon":5.43149,"is_reserved":false,"is_disabled":true,"rental_uris":{"android":"levelo://app?vid=2874775b-146e-45de-9a13-98bbe699d55d","ios":"levelo://app?vid=2874775b-146e-45de-9a13-98bbe699d55d"},"vehicle_type_id":"4","last_reported":1773779303,"current_range_meters":6800,"station_id":"","pricing_plan_id":"cebpf4jnsgd1na2vs0mg"},{"bike_id":"6c7da26a-6e3c-4915-81a4-435886bc144f","system_id":"levelo_inurba_marseille","lat":43.23191,"lon":5.35543,"is_reserved":false,"is_disabled":false,"rental_uris":{"android":"levelo://app?vid=6c7da26a-6e3c-4915-81a4-435886bc144f","ios":"levelo://app?vid=6c7da26a-6e3c-4915-81a4-435886bc144f"},"vehicle_type_id":"4","last_reported":1773779303,"current_range_meters":6800,"station_id":"ce4bhu92rcd13ifvqi70","pricing_plan_id":"cebpf4jnsgd1na2vs0mg"},{"bike_id":"c0a12be5-261f-482c-b115-781797164a47","system_id":"levelo_inurba_marseille","lat":43.30459,"lon":5.37911,"is_reserved":false,"is_disabled":false,"rental_uris":{"android":"levelo://app?vid=c0a12be5-261f-482c-b115-781797164a47","ios":"levelo://app?vid=c0a12be5-261f-482c-b115-781797164a47"},"vehicle_type_id":"4","last_reported":1773779303,"current_range_meters":6800,"station_id":"","pricing_plan_id":"cebpf4jnsgd1na2vs0mg"},{"bike_id":"634da91a-4883-496d-8855-956d3d1d964e","system_id":"levelo_inurba_marseille","lat":43.30589,"lon":5.37224,"is_reserved":false,"is_disabled":false,"rental_uris":{"android":"levelo://app?vid=634da91a-4883-496d-8855-956d3d1d964e","ios":"levelo://app?vid=634da91a-4883-496d-8855-956d3d1d964e"},"vehicle_type_id":"4","last_reported":1773779303,"current_range_meters":6800,"station_id":"ce4bgqh2rcd13ifvqc4g","pricing_plan_id":"cebpf4jnsgd1na2vs0mg"},{"bike_id":"a1cfb408-da52-4413-a934-9b5c4a9189a4","system_id":"levelo_inurba_marseille","lat":43.29584,"lon":5.37524,"is_reserved":false,"is_disabled":false,"rental_uris":{"android":"levelo://app?vid=a1cfb408-da52-4413-a934-9b5c4a9189a4","ios":"levelo://app?vid=a1cfb408-da52-4413-a934-9b5c4a9189a4"},"vehicle_type_id":"4","last_reported":1773779303,"current_range_meters":6800,"station_id":"ce4bgh92rcd13ifvqb50","pricing_plan_id":"cebpf4jnsgd1na2vs0mg"},{"bike_id":"51d26f3c-b1ea-48f5-846f-ef57458c2065","system_id":"levelo_inurba_marseille","lat":43.29544,"lon":5.39055,"is_reserved":false,"is_disabled":false,"rental_uris":{"android":"levelo://app?vid=51d26f3c-b1ea-48f5-846f-ef57458c2065","ios":"levelo://app?vid=51d26f3c-b1ea-48f5-846f-ef57458c2065"},"vehicle_type_id":"4","last_reported":1773779303,"current_range_meters":6800,"station_id":"ce4bh3p2rcd13ifvqdp0","pricing_plan_id":"cebpf4jnsgd1na2vs0mg"},{"bike_id":"ba3c65db-1215-4f2e-ac05-b6a6275265ad","system_id":"levelo_inurba_marseille","lat":43.30227,"lon":5.39464,"is_reserved":false,"is_disabled":false,"rental_uris":{"android":"levelo://app?vid=ba3c65db-1215-4f2e-ac05-b6a6275265ad","ios":"levelo://app?vid=ba3c65db-1215-4f2e-ac05-b6a6275265ad"},"vehicle_type_id":"4","last_reported":1773779303,"current_range_meters":6800,"station_id":"ce4bh0p2rcd13ifvqd70","pricing_plan_id":"cebpf4jnsgd1na2vs0mg"},{"bike_id":"52258283-b696-4104-9762-ecd725fe2d53","system_id":"levelo_inurba_marseille","lat":43.29527,"lon":5.38539,"is_reserved":false,"is_disabled":false,"rental_uris":{"android":"levelo://app?vid=52258283-b696-4104-9762-ecd725fe2d53","ios":"levelo://app?vid=52258283-b696-4104-9762-ecd725fe2d53"},"vehicle_type_id":"4","last_reported":1773779303,"current_range_meters":6800,"station_id":"ce4bgih2rcd13ifvqba0","pricing_plan_id":"cebpf4jnsgd1na2vs0mg"},{"bike_id":"fd5046c0-5dee-4acc-81ce-1eba9607bc0d","system_id":"levelo_inurba_marseille","lat":43.31166,"lon":5.3872,"is_reserved":false,"is_disabled":false,"rental_uris":{"android":"levelo://app?vid=fd5046c0-5dee-4acc-81ce-1eba9607bc0d","ios":"levelo://app?vid=fd5046c0-5dee-4acc-81ce-1eba9607bc0d"},"vehicle_type_id":"4","last_reported":1773779303,"current_range_meters":7200,"station_id":"ce4bgv12rcd13ifvqcp0","pricing_plan_id":"cebpf4jnsgd1na2vs0mg"},{"bike_id":"3ec376dd-9cda-4bb4-955e-bc624f0b91bd","system_id":"levelo_inurba_marseille","lat":43.292266,"lon":5.360614,"is_reserved":false,"is_disabled":false,"rental_uris":{"android":"levelo://app?vid=3ec376dd-9cda-4bb4-955e-bc624f0b91bd","ios":"levelo://app?vid=3ec376dd-9cda-4bb4-955e-bc624f0b91bd"},"vehicle_type_id":"4","last_reported":1773779303,"current_range_meters":7200,"station_id":"ce4bhbh2rcd13ifvqeqg","pricing_plan_id":"cebpf4jnsgd1na2vs0mg"},{"bike_id":"458f604b-e062-47bf-ac14-a001a31d10d8","system_id":"levelo_inurba_marseille","lat":43.28473,"lon":5.48388,"is_reserved":false,"is_disabled":false,"rental_uris":{"android":"levelo://app?vid=458f604b-e062-47bf-ac14-a001a31d10d8","ios":"levelo://app?vid=458f604b-e062-47bf-ac14-a001a31d10d8"},"vehicle_type_id":"4","last_reported":1773779303,"current_range_meters":7200,"station_id":"","pricing_plan_id":"cebpf4jnsgd1na2vs0mg"},{"bike_id":"1e21c33a-4940-4e7e-acd7-df31f61f9fb2","system_id":"levelo_inurba_marseille","lat":43.29514,"lon":5.39039,"is_reserved":false,"is_disabled":false,"rental_uris":{"android":"levelo://app?vid=1e21c33a-4940-4e7e-acd7-df31f61f9fb2","ios":"levelo://app?vid=1e21c33a-4940-4e7e-acd7-df31f61f9fb2"},"vehicle_type_id":"4","last_reported":1773779303,"current_range_meters":7200,"station_id":"ce4bh3p2rcd13ifvqdp0","pricing_plan_id":"cebpf4jnsgd1na2vs0mg"},{"bike_id":"f7e79517-161a-451a-8a95-bb710b1b4d21","system_id":"levelo_inurba_marseille","lat":43.296,"lon":5.36753,"is_reserved":false,"is_disabled":true,"rental_uris":{"android":"levelo://app?vid=f7e79517-161a-451a-8a95-bb710b1b4d21","ios":"levelo://app?vid=f7e79517-161a-451a-8a95-bb710b1b4d21"},"vehicle_type_id":"4","last_reported":1773779303,"current_range_meters":7200,"station_id":"ce4bgph2rcd13ifvqc2g","pricing_plan_id":"cebpf4jnsgd1na2vs0mg"},{"bike_id":"2134a193-4b3a-4038-a280-1a0ba6458570","system_id":"levelo_inurba_marseille","lat":43.29802,"lon":5.42123,"is_reserved":false,"is_disabled":false,"rental_uris":{"android":"levelo://app?vid=2134a193-4b3a-4038-a280-1a0ba6458570","ios":"levelo://app?vid=2134a193-4b3a-4038-a280-1a0ba6458570"},"vehicle_type_id":"4","last_reported":1773779303,"current_range_meters":7200,"station_id":"","pricing_plan_id":"cebpf4jnsgd1na2vs0mg"},{"bike_id":"bf6a3964-59b8-4a44-8aea-27ace606ed1b","system_id":"levelo_inurba_marseille","lat":43.27993,"lon":5.40018,"is_reserved":false,"is_disabled":false,"rental_uris":{"android":"levelo://app?vid=bf6a3964-59b8-4a44-8aea-27ace606ed1b","ios":"levelo://app?vid=bf6a3964-59b8-4a44-8aea-27ace606ed1b"},"vehicle_type_id":"4","last_reported":1773779303,"current_range_meters":7200,"station_id":"ce4bho92rcd13ifvqh4g","pricing_plan_id":"cebpf4jnsgd1na2vs0mg"},