{"last_updated":1753888320,"ttl":60,"version":"2.2","data":{"bikes":[{"bike_id":"12809f2f-f357-41bc-b8e0-34f81e536f51","system_id":"levelo_inurba_marseille","lat":43.30206,"lon":5.39465,"is_reserved":false,"is_disabled":false,"rental_uris":{"android":"levelo://app?vid=12809f2f-f357-41bc-b8e0-34f81e536f51","ios":"levelo://app?vid=12809f2f-f357-41bc-b8e0-34f81e536f51"},"vehicle_type_id":"4","last_reported":1753888320,"current_range_meters":2800,"station_id":"ce4bh0p2rcd13ifvqd70","pricing_plan_id":"cebpf4jnsgd1na2vs0mg"},{"bike_id":"80915a30-ef88-4d81-b5d1-969d1c17a42d","system_id":"levelo_inurba_marseille","lat":43.30409,"lon":5.40836,"is_reserved":false,"is_disabled":false,"rental_uris":{"android":"levelo://app?vid=80915a30-ef88-4d81-b5d1-969d1c17a42d","ios":"levelo://app?vid=80915a30-ef88-4d81-b5d1-969d1c17a42d"},"vehicle_type_id":"4","last_reported":1753888320,"current_range_meters":3200,"station_id":"","pricing_plan_id":"cebpf4jnsgd1na2vs0mg"},{"bike_id":"9db6a2dc-9458-492e-8246-ebaf7f12ff8b","system_id":"levelo_inurba_marseille","lat":43.262,"lon":5.37933,"is_reserved":false,"is_disabled":false,"rental_uris":{"android":"levelo://app?vid=9db6a2dc-9458-492e-8246-ebaf7f12ff8b","ios":"levelo://app?vid=9db6a2dc-9458-492e-8246-ebaf7f12ff8b"},"vehicle_type_id":"4","last_reported":1753888320,"current_range_meters":3200,"station_id":"ce4bhjp2rcd13ifvqg90","pricing_plan_id":"cebpf4jnsgd1na2vs0mg"},{"bike_id":"8a569b31-55c0-441f-9435-5ac594ac9c22","system_id":"levelo_inurba_marseille","lat":43.297302,"lon":5.374166,"is_reserved":false,"is_disabled":false,"rental_uris":{"android":"levelo://app?vid=8a569b31-55c0-441f-9435-5ac594ac9c22","ios":"levelo://app?vid=8a569b31-55c0-441f-9435-5ac594ac9c22"},"vehicle_type_id":"4","last_reported":1753888320,"current_range_meters":3600,"station_id":"","pricing_plan_id":"cebpf4jnsgd1na2vs0mg"},{"bike_id":"209c73e6-1f69-4d13-9fed-77cb46eecd05","system_id":"levelo_inurba_marseille","lat":43.34681,"lon":5.38065,"is_reserved":false,"is_disabled":false,"rental_uris":{"android":"levelo://app?vid=209c73e6-1f69-4d13-9fed-77cb46eecd05","ios":"levelo://app?vid=209c73e6-1f69-4d13-9fed-77cb46eecd05"},"vehicle_type_id":"4","last_reported":1753888320,"current_range_meters":3600,"station_id":"","pricing_plan_id":"cebpf4jnsgd1na2vs0mg"},{"bike_id":"181c8049-4fb7-4c27-a6b2-7bb8fea4f09f","system_id":"levelo_inurba_marseille","lat":43.29532,"lon":5.39268,"is_reserved":false,"is_disabled":false,"rental_uris":{"android":"levelo://app?vid=181c8049-4fb7-4c27-a6b2-7bb8fea4f09f","ios":"levelo://app?vid=181c8049-4fb7-4c27-a6b2-7bb8fea4f09f"},"vehicle_type_id":"4","last_reported":1753888320,"current_range_meters":4000,"station_id":"","pricing_plan_id":"cebpf4jnsgd1na2vs0mg"},{"bike_id":"b530d9b8-cc75-4f08-899f-e4717c9ca74b","system_id":"levelo_inurba_marseille","lat":43.30208,"lon":5.39468,"is_reserved":false,"is_disabled":false,"rental_uris":{"android":"levelo://app?vid=b530d9b8-cc75-4f08-899f-e4717c9ca74b","ios":"levelo://app?vid=b530d9b8-cc75-4f08-899f-e4717c9ca74b"},"vehicle_type_id":"4","last_reported":1753888320,"current_range_meters":4000,"station_id":"ce4bh0p2rcd13ifvqd70","pricing_plan_id":"cebpf4jnsgd1na2vs0mg"},{"bike_id":"f2ed36f9-0f01-4b33-af18-8a277c95e69c","system_id":"levelo_inurba_marseille","lat":43.29914,"lon":5.38146,"is_reserved":false,"is_disabled":false,"rental_uris":{"android":"levelo://app?vid=f2ed36f9-0f01-4b33-af18-8a277c95e69c","ios":"levelo://app?vid=f2ed36f9-0f01-4b33-af18-8a277c95e69c"},"vehicle_type_id":"4","last_reported":1753888320,"current_range_meters":4000,"station_id":"ce4bgj12rcd13ifvqbc0","pricing_plan_id":"cebpf4jnsgd1na2vs0mg"},{"bike_id":"95dd70e4-879c-49e7-b318-a6c71b22a43e","system_id":"levelo_inurba_marseille","lat":43.2703,"lon":5.39295,"is_reserved":false,"is_disabled":false,"rental_uris":{"android":"levelo://app?vid=95dd70e4-879c-49e7-b318-a6c71b22a43e","ios":"levelo://app?vid=95dd70e4-879c-49e7-b318-a6c71b22a43e"},"vehicle_type_id":"4","last_reported":1753888320,"current_range_meters":4000,"station_id":"","pricing_plan_id":"cebpf4jnsgd1na2vs0mg"},{"bike_id":"7c799684-ce9e-4f6f-bde9-d40ddcb1b0b0","system_id":"levelo_inurba_marseille","lat":43.31081,"lon":5.38354,"is_reserved":false,"is_disabled":false,"rental_uris":{"android":"levelo://app?vid=7c799684-ce9e-4f6f-bde9-d40ddcb1b0b0","ios":"levelo://app?vid=7c799684-ce9e-4f6f-bde9-d40ddcb1b0b0"},"vehicle_type_id":"4","last_reported":1753888320,"current_range_meters":4400,"station_id":"ce4bgv92rcd13ifvqcr0","pricing_plan_id":"cebpf4jnsgd1na2vs0mg"},{"bike_id":"e5c3719f-11dc-4a0d-9b61-3bff95d58b78","system_id":"levelo_inurba_marseille","lat":43.28666,"lon":5.38662,"is_reserved":false,"is_disabled":false,"rental_uris":{"android":"levelo://app?vid=e5c3719f-11dc-4a0d-9b61-3bff95d58b78","ios":"levelo://app?vid=e5c3719f-11dc-4a0d-9b61-3bff95d58b78"},"vehicle_type_id":"4","last_reported":1753888320,"current_range_meters":4400,"station_id":"ce4bh492rcd13ifvqdug","pricing_plan_id":"cebpf4jnsgd1na2vs0mg"},{"bike_id":"7ead535a-e7f2-4489-9051-59e4f5eeec8a","system_id":"levelo_inurba_marseille","lat":43.3069,"lon":5.37342,"is_reserved":false,"is_disabled":false,"rental_uris":{"android":"levelo://app?vid=7ead535a-e7f2-4489-9051-59e4f5eeec8a","ios":"levelo://app?vid=7ead535a-e7f2-4489-9051-59e4f5eeec8a"},"vehicle_type_id":"4","last_reported":1753888320,"current_range_meters":4800,"station_id":"","pricing_plan_id":"cebpf4jnsgd1na2vs0mg"},{"bike_id":"ca538d06-b8c5-4455-acd3-aa1ee1f57388","system_id":"levelo_inurba_marseille","lat":43.217491,"lon":5.346044,"is_reserved":false,"is_disabled":false,"rental_uris":{"android":"levelo://app?vid=ca538d06-b8c5-4455-acd3-aa1ee1f57388","ios":"levelo://app?vid=ca538d06-b8c5-4455-acd3-aa1ee1f57388"},"vehicle_type_id":"4","last_reported":1753888320,"current_range_meters":4800,"station_id":"","pricing_plan_id":"cebpf4jnsgd1na2vs0mg"},{"bike_id":"20842f99-d9d0-41db-a67a-bd9c7214f832","system_id":"levelo_inurba_marseille","lat":43.2844,"lon":5.39192,"is_reserved":false,"is_disabled":false,"rental_uris":{"android":"levelo://app?vid=20842f99-d9d0-41db-a67a-bd9c7214f832","ios":"levelo://app?vid=20842f99-d9d0-41db-a67a-bd9c7214f832"},"vehicle_type_id":"4","last_reported":1753888320,"current_range_meters":4400,"station_id":"ce4bhoh2rcd13ifvqh5g","pricing_plan_id":"cebpf4jnsgd1na2vs0mg"},{"bike_id":"cbd9534f-529b-4669-b2ce-8d2523752a73","system_id":"levelo_inurba_marseille","lat":43.30645,"lon":5.40079,"is_reserved":false,"is_disabled":false,"rental_uris":{"android":"levelo://app?vid=cbd9534f-529b-4669-b2ce-8d2523752a73","ios":"levelo://app?vid=cbd9534f-529b-4669-b2ce-8d2523752a73"},"vehicle_type_id":"4","last_reported":1753888320,"current_range_meters":5600,"station_id":"ce4bh112rcd13ifvqda0","pricing_plan_id":"cebpf4jnsgd1na2vs0mg"},{"bike_id":"52700a06-1a37-417f-a3d1-d5a6cc502f63","system_id":"levelo_inurba_marseille","lat":43.296234,"lon":5.377053,"is_reserved":false,"is_disabled":false,"rental_uris":{"android":"levelo://app?vid=52700a06-1a37-417f-a3d1-d5a6cc502f63","ios":"levelo://app?vid=52700a06-1a37-417f-a3d1-d5a6cc502f63"},"vehicle_type_id":"4","last_reported":1753888320,"current_range_meters":400,"station_id":"ce4bgi92rcd13ifvqb90","pricing_plan_id":"cebpf4jnsgd1na2vs0mg"},{"bike_id":"149fbe11-3bce-47a0-b584-c7c7bd6bb12f","system_id":"levelo_inurba_marseille","lat":43.216215,"lon":5.344451,"is_reserved":false,"is_disabled":false,"rental_uris":{"android":"levelo://app?vid=149fbe11-3bce-47a0-b584-c7c7bd6bb12f","ios":"levelo://app?vid=149fbe11-3bce-47a0-b584-c7c7bd6bb12f"},"vehicle_type_id":"4","last_reported":1753888320,"current_range_meters":5600,"station_id":"","pricing_plan_id":"cebpf4jnsgd1na2vs0mg"},{"bike_id":"882bdff1-651a-41c1-9ab0-596f43205cf1","system_id":"levelo_inurba_marseille","lat":43.337444,"lon":5.374475,"is_reserved":false,"is_disabled":false,"rental_uris":{"android":"levelo://app?vid=882bdff1-651a-41c1-9ab0-596f43205cf1","ios":"levelo://app?vid=882bdff1-651a-41c1-9ab0-596f43205cf1"},"vehicle_type_id":"4","last_reported":1753888320,"current_range_meters":6000,"station_id":"ce4bgkp2rcd13ifvqbmg","pricing_plan_id":"cebpf4jnsgd1na2vs0mg"},{"bike_id":"0e36fba3-4a0e-495d-884f-00d86bc6564b","system_id":"levelo_inurba_marseille","lat":43.29895,"lon":5.38154,"is_reserved":false,"is_disabled":false,"rental_uris":{"android":"levelo://app?vid=0e36fba3-4a0e-495d-884f-00d86bc6564b","ios":"levelo://app?vid=0e36fba3-4a0e-495d-884f-00d86bc6564b"},"vehicle_type_id":"4","last_reported":1753888320,"current_range_meters":6000,"station_id":"ce4bgj12rcd13ifvqbc0","pricing_plan_id":"cebpf4jnsgd1na2vs0mg"},{"bike_id":"8f8d6523-0c65-4f20-a400-ce1a4ea93e17","system_id":"levelo_inurba_marseille","lat":43.314895,"lon":5.373037,"is_reserved":false,"is_disabled":false,"rental_uris":{"android":"levelo://app?vid=8f8d6523-0c65-4f20-a400-ce1a4ea93e17","ios":"levelo://app?vid=8f8d6523-0c65-4f20-a400-ce1a4ea93e17"},"vehicle_type_id":"4","last_reported":1753888320,"current_range_meters":6000,"station_id":"ce4bgt12rcd13ifvqcd0","pricing_plan_id":"cebpf4jnsgd1na2vs0mg"},{"bike_id":"69da9c23-743e-400e-97d8-aa47e26639ef","system_id":"levelo_inurba_marseille","lat":43.30251,"lon":5.40083,"is_reserved":false,"is_disabled":false,"rental_uris":{"android":"levelo://app?vid=69da9c23-743e-400e-97d8-aa47e26639ef","ios":"levelo://app?vid=69da9c23-743e-400e-97d8-aa47e26639ef"},"vehicle_type_id":"4","last_reported":1753888320,"current_range_meters":6400,"station_id":"ce4bgvh2rcd13ifvqcs0","pricing_plan_id":"cebpf4jnsgd1na2vs0mg"},{"bike_id":"ad87a0a6-e8be-4acf-9882-e7a518d0c316","system_id":"levelo_inurba_marseille","lat":43.31276,"lon":5.40167,"is_reserved":false,"is_disabled":false,"rental_uris":{"android":"levelo://app?vid=ad87a0a6-e8be-4acf-9882-e7a518d0c316","ios":"levelo://app?vid=ad87a0a6-e8be-4acf-9882-e7a518d0c316"},"vehicle_type_id":"4","last_reported":1753888320,"current_range_meters":6400,"station_id":"ce4bh092rcd13ifvqd30","pricing_plan_id":"cebpf4jnsgd1na2vs0mg"},{"bike_id":"d4b0442d-37e3-4887-8827-87b59f4e9086","system_id":"levelo_inurba_marseille","lat":43.2977,"lon":5.38108,"is_reserved":false,"is_disabled":false,"rental_uris":{"android":"levelo://app?vid=d4b0442d-37e3-4887-8827-87b59f4e9086","ios":"levelo://app?vid=d4b0442d-37e3-4887-8827-87b59f4e9086"},"vehicle_type_id":"4","last_reported":1753888320,"current_range_meters":6400,"station_id":"","pricing_plan_id":"cebpf4jnsgd1na2vs0mg"},{"bike_id":"a3558f75-e4c2-448f-87cd-d3a0b3cede54","system_id":"levelo_inurba_marseille","lat":43.29893,"lon":5.38898,"is_reserved":false,"is_disabled":false,"rental_uris":{"android":"levelo://app?vid=a3558f75-e4c2-448f-87cd-d3a0b3cede54","ios":"levelo://app?vid=a3558f75-e4c2-448f-87cd-d3a0b3cede54"},"vehicle_type_id":"4","last_reported":1753888320,"current_range_meters":6000,"station_id":"ce4bh392rcd13ifvqdl0","pricing_plan_id":"cebpf4jnsgd1na2vs0mg"},{"bike_id":"d652bb54-42e4-4304-9177-03b26d6a53d6","system_id":"levelo_inurba_marseille","lat":43.29293,"lon":5.40118,"is_reserved":false,"is_disabled":false,"rental_uris":{"android":"levelo://app?vid=d652bb54-42e4-4304-9177-03b26d6a53d6","ios":"levelo://app?vid=d652bb54-42e4-4304-9177-03b26d6a53d6"},"vehicle_type_id":"4","last_reported":1753888320,"current_range_meters":6400,"station_id":"ce4bh312rcd13ifvqdk0","pricing_plan_id":"cebpf4jnsgd1na2vs0mg"},{"bike_id":"37fcf059-83b8-4b6e-bc28-0c83f77e3c05","system_id":"levelo_inurba_marseille","lat":43.22557,"lon":5.34759,"is_reserved":false,"is_disabled":false,"rental_uris":{"android":"levelo://app?vid=37fcf059-83b8-4b6e-bc28-0c83f77e3c05","ios":"levelo://app?vid=37fcf059-83b8-4b6e-bc28-0c83f77e3c05"},"vehicle_type_id":"4","last_reported":1753888320,"current_range_meters":6800,"station_id":"","pricing_plan_id":"cebpf4jnsgd1na2vs0mg"},{"bike_id":"7e4a0d00-0d9a-4f5f-84b1-5c2ccf9f1b2f","system_id":"levelo_inurba_marseille","lat":43.32032,"lon":5.415663,"is_reserved":false,"is_disabled":true,"rental_uris":{"android":"levelo://app?vid=7e4a0d00-0d9a-4f5f-84b1-5c2ccf9f1b2f","ios":"levelo://app?vid=7e4a0d00-0d9a-4f5f-84b1-5c2ccf9f1b2f"},"vehicle_type_id":"4","last_reported":1753888320,"current_range_meters":6800,"station_id":"ce4bhq92rcd13ifvqhkg","pricing_plan_id":"cebpf4jnsgd1na2vs0mg"},{"bike_id":"a123e3e4-263d-4cdf-a385-b17478a576cc","system_id":"levelo_inurba_marseille","lat":43.29901,"lon":5.38156,"is_reserved":false,"is_disabled":false,"rental_uris":{"android":"levelo://app?vid=a123e3e4-263d-4cdf-a385-b17478a576cc","ios":"levelo://app?vid=a123e3e4-263d-4cdf-a385-b17478a576cc"},"vehicle_type_id":"4","last_reported":1753888320,"current_range_meters":6800,"station_id":"ce4bgj12rcd13ifvqbc0","pricing_plan_id":"cebpf4jnsgd1na2vs0mg"},{"bike_id":"da51c9b2-f92c-4496-8a28-f4b39db1d01a","system_id":"levelo_inurba_marseille","lat":43.27393,"lon":5.36285,"is_reserved":false,"is_disabled":false,"rental_uris":{"android":"levelo://app?vid=da51c9b2-f92c-4496-8a28-f4b39db1d01a","ios":"levelo://app?vid=da51c9b2-f92c-4496-8a28-f4b39db1d01a"},"vehicle_type_id":"4","last_reported":1753888320,"current_range_meters":6800,"station_id":"ce4bhbh2rcd13ifvqeo0","pricing_plan_id":"cebpf4jnsgd1na2vs0mg"},{"bike_id":"cd5aed37-3098-416b-9e7d-aa16cc1caf3c","system_id":"levelo_inurba_marseille","lat":43.2439,"lon":5.37062,"is_reserved":false,"is_disabled":false,"rental_uris":{"android":"levelo://app?vid=cd5aed37-3098-416b-9e7d-aa16cc1caf3c","ios":"levelo://app?vid=cd5aed37-3098-416b-9e7d-aa16cc1caf3c"},"vehicle_type_id":"4","last_reported":1753888320,"current_range_meters":7200,"station_id":"ce4bhhh2rcd13ifvqfk0","pricing_plan_id":"cebpf4jnsgd1na2vs0mg"},{"bike_id":"c9e5cf98-36fd-4b86-b6b1-31cf99619f3e","system_id":"levelo_inurba_marseille","lat":43.23181,"lon":5.400041,"is_reserved":false,"is_disabled":true,"rental_uris":{"android":"levelo://app?vid=c9e5cf98-36fd-4b86-b6b1-31cf99619f3e","ios":"levelo://app?vid=c9e5cf98-36fd-4b86-b6b1-31cf99619f3e"},"vehicle_type_id":"4","last_reported":1753888320,"current_range_meters":7200,"station_id":"ce4bhn12rcd13ifvqgqg","pricing_plan_id":"cebpf4jnsgd1na2vs0mg"},{"bike_id":"773a2503-609f-4bad-a1c3-11c97bbd6d39","system_id":"levelo_inurba_marseille","lat":43.2175,"lon":5.34604,"is_reserved":false,"is_disabled":false,"rental_uris":{"android":"levelo://app?vid=773a2503-609f-4bad-a1c3-11c97bbd6d39","ios":"levelo://app?vid=773a2503-609f-4bad-a1c3-11c97bbd6d39"},"vehicle_type_id":"4","last_reported":1753888320,"current_range_meters":7200,"station_id":"","pricing_plan_id":"cebpf4jnsgd1na2vs0mg"},{"bike_id":"b5e469a6-8e8f-4b1a-91cc-e9f6f04151ad","system_id":"levelo_inurba_marseille","lat":43.295819,"lon":5.436889,"is_reserved":false,"is_disabled":false,"rental_uris":{"android":"levelo://app?vid=b5e469a6-8e8f-4b1a-91cc-e9f6f04151ad","ios":"levelo://app?vid=b5e469a6-8e8f-4b1a-91cc-e9f6f04151ad"},"vehicle_type_id":"4","last_reported":1753888320,"current_range_meters":8400,"station_id":"","pricing_plan_id":"cebpf4jnsgd1na2vs0mg"},{"bike_id":"1649d781-8c14-4d51-8c15-d4c61cd6fa06","system_id":"levelo_inurba_marseille","lat":43.29967,"lon":5.37163,"is_reserved":false,"is_disabled":false,"rental_uris":{"android":"levelo://app?vid=1649d781-8c14-4d51-8c15-d4c61cd6fa06","ios":"levelo://app?vid=1649d781-8c14-4d51-8c15-d4c61cd6fa06"},"vehicle_type_id":"4","last_reported":1753888320,"current_range_meters":8000,"station_id":"ce4bgr92rcd13ifvqc7g","pricing_plan_id":"cebpf4jnsgd1na2vs0mg"},{"bike_id":"42be1402-3ccc-43c0-ab9e-dae6ccccabf2","system_id":"levelo_inurba_marseille","lat":43.24387,"lon":5.37057,"is_reserved":false,"is_disabled":false,"rental_uris":{"android":"levelo://app?vid=42be1402-3ccc-43c0-ab9e-dae6ccccabf2","ios":"levelo://app?vid=42be1402-3ccc-43c0-ab9e-dae6ccccabf2"},"vehicle_type_id":"4","last_reported":1753888320,"current_range_meters":8400,"station_id":"ce4bhhh2rcd13ifvqfk0","pricing_plan_id":"cebpf4jnsgd1na2vs0mg"},{"bike_id":"a21b862f-2b55-4cd1-96f3-4b2a0e0f8a81","system_id":"levelo_inurba_marseille","lat":43.30429,"lon":5.397576,"is_reserved":false,"is_disabled":false,"rental_uris":{"android":"levelo://app?vid=a21b862f-2b55-4cd1-96f3-4b2a0e0f8a81","ios":"levelo://app?vid=a21b862f-2b55-4cd1-96f3-4b2a0e0f8a81"},"vehicle_type_id":"4","last_reported":1753888320,"current_range_meters":8800,"station_id":"ce4bh092rcd13ifvqd20","pricing_plan_id":"cebpf4jnsgd1na2vs0mg"},{"bike_id":"dc1039ad-b022-40c9-a822-6accf8ce4ed9","system_id":"levelo_inurba_marseille","lat":43.29267,"lon":5.36839,"is_reserved":false,"is_disabled":false,"rental_uris":{"android":"levelo://app?vid=dc1039ad-b022-40c9-a822-6accf8ce4ed9","ios":"levelo://app?vid=dc1039ad-b022-40c9-a822-6accf8ce4ed9"},"vehicle_type_id":"4","last_reported":1753888320,"current_range_meters":8800,"station_id":"ce4bhbp2rcd13ifvqesg","pricing_plan_id":"cebpf4jnsgd1na2vs0mg"},{"bike_id":"b0f2b2c1-b378-4164-a22b-6eceaa434acc","system_id":"levelo_inurba_marseille","lat":43.29215,"lon":5.42729,"is_reserved":false,"is_disabled":false,"rental_uris":{"android":"levelo://app?vid=b0f2b2c1-b378-4164-a22b-6eceaa434acc","ios":"levelo://app?vid=b0f2b2c1-b378-4164-a22b-6eceaa434acc"},"vehicle_type_id":"4","last_reported":1753888320,"current_range_meters":8800,"station_id":"","pricing_plan_id":"cebpf4jnsgd1na2vs0mg"},{"bike_id":"e137dc03-26cf-440c-b3ea-1ea522645199","system_id":"levelo_inurba_marseille","lat":43.280815,"lon":5.396626,"is_reserved":false,"is_disabled":false,"rental_uris":{"android":"levelo://app?vid=e137dc03-26cf-440c-b3ea-1ea522645199","ios":"levelo://app?vid=e137dc03-26cf-440c-b3ea-1ea522645199"},"vehicle_type_id":"4","last_reported":1753888320,"current_range_meters":8800,"station_id":"","pricing_plan_id":"cebpf4jnsgd1na2vs0mg"},{"bike_id":"2fd6789e-ae21-49f0-ae35-4894fc7d3f28","system_id":"levelo_inurba_marseille","lat":43.28573,"lon":5.39499,"is_reserved":false,"is_disabled":false,"rental_uris":{"android":"levelo://app?vid=2fd6789e-ae21-49f0-ae35-4894fc7d3f28","ios":"levelo://app?vid=2fd6789e-ae21-49f0-ae35-4894fc7d3f28"},"vehicle_type_id":"4","last_reported":1753888320,"current_range_meters":8400,"station_id":"ce4bh292rcd13ifvqdg0","pricing_plan_id":"cebpf4jnsgd1na2vs0mg"},{"bike_id":"0dc99cab-1546-4588-8ef9-e9c6ae8e0a6f","system_id":"levelo_inurba_marseille","lat":43.23055,"lon":5.35477,"is_reserved":false,"is_disabled":true,"rental_uris":{"android":"levelo://app?vid=0dc99cab-1546-4588-8ef9-e9c6ae8e0a6f","ios":"levelo://app?vid=0dc99cab-1546-4588-8ef9-e9c6ae8e0a6f"},"vehicle_type_id":"4","last_reported":1753888320,"current_range_meters":8800,"station_id":"cpo3342slgdg3j2ifvpg","pricing_plan_id":"cebpf4jnsgd1na2vs0mg"},{"bike_id":"92970e44-abdf-4331-9161-6ef73a42dfac","system_id":"levelo_inurba_marseille","lat":43.299081,"lon":5.38152,"is_reserved":false,"is_disabled":false,"rental_uris":{"android":"levelo://app?vid=92970e44-abdf-4331-9161-6ef73a42dfac","ios":"levelo://app?vid=92970e44-abdf-4331-9161-6ef73a42dfac"},"vehicle_type_id":"4","last_reported":1753888320,"current_range_meters":8800,"station_id":"ce4bgj12rcd13ifvqbc0","pricing_plan_id":"cebpf4jnsgd1na2vs0mg"},{"bike_id":"040aa86f-9e16-451f-abee-979745142bcd","system_id":"levelo_inurba_marseille","lat":43.29008,"lon":5.3561,"is_reserved":false,"is_disabled":false,"rental_uris":{"android":"levelo://app?vid=040aa86f-9e16-451f-abee-979745142bcd","ios":"levelo://app?vid=040aa86f-9e16-451f-abee-979745142bcd"},"vehicle_type_id":"4","last_reported":1753888320,"current_range_meters":9200,"station_id":"ce4bhb92rcd13ifvqen0","pricing_plan_id":"cebpf4jnsgd1na2vs0mg"},{"bike_id":"9a96198c-07c7-4b35-8a70-3f8f7bd8f1e5","system_id":"levelo_inurba_marseille","lat":43.29908,"lon":5.38155,"is_reserved":false,"is_disabled":false,"rental_uris":{"android":"levelo://app?vid=9a96198c-07c7-4b35-8a70-3f8f7bd8f1e5","ios":"levelo://app?vid=9a96198c-07c7-4b35-8a70-3f8f7bd8f1e5"},"vehicle_type_id":"4","last_reported":1753888320,"current_range_meters":9600,"station_id":"ce4bgj12rcd13ifvqbc0","pricing_plan_id":"cebpf4jnsgd1na2vs0mg"},{"bike_id":"f8a72686-275c-427d-953c-ff6bf27d6124","system_id":"levelo_inurba_marseille","lat":43.29033,"lon":5.39965,"is_reserved":false,"is_disabled":true,"rental_uris":{"android":"levelo://app?vid=f8a72686-275c-427d-953c-ff6bf27d6124","ios":"levelo://app?vid=f8a72686-275c-427d-953c-ff6bf27d6124"},"vehicle_type_id":"4","last_reported":1753888320,"current_range_meters":9600,"station_id":"ce4bh392rcd13ifvqdm0","pricing_plan_id":"cebpf4jnsgd1na2vs0mg"},{"bike_id":"fef63e5d-55f5-49ab-b569-233189cc5b6d","system_id":"levelo_inurba_marseille","lat":43.31325,"lon":5.39701,"is_reserved":false,"is_disabled":false,"rental_uris":{"android":"levelo://app?vid=fef63e5d-55f5-49ab-b569-233189cc5b6d","ios":"levelo://app?vid=fef63e5d-55f5-49ab-b569-233189cc5b6d"},"vehicle_type_id":"4","last_reported":1753888320,"current_range_meters":9600,"station_id":"ce4bgvp2rcd13ifvqcu0","pricing_plan_id":"cebpf4jnsgd1na2vs0mg"},{"bike_id":"d6638124-3f9f-4e2d-bf12-a20f074c0f50","system_id":"levelo_inurba_marseille","lat":43.30649,"lon":5.4008,"is_reserved":false,"is_disabled":false,"rental_uris":{"android":"levelo://app?vid=d6638124-3f9f-4e2d-bf12-a20f074c0f50","ios":"levelo://app?vid=d6638124-3f9f-4e2d-bf12-a20f074c0f50"},"vehicle_type_id":"4","last_reported":1753888320,"current_range_meters":9600,"station_id":"ce4bh112rcd13ifvqda0","pricing_plan_id":"cebpf4jnsgd1na2vs0mg"},{"bike_id":"c76223f6-7b0b-453f-93fd-2e5515e81d15","system_id":"levelo_inurba_marseille","lat":43.28933,"lon":5.38401,"is_reserved":false,"is_disabled":false,"rental_uris":{"android":"levelo://app?vid=c76223f6-7b0b-453f-93fd-2e5515e81d15","ios":"levelo://app?vid=c76223f6-7b0b-453f-93fd-2e5515e81d15"},"vehicle_type_id":"4","last_reported":1753888320,"current_range_meters":9600,"station_id":"ce4bh612rcd13ifvqe6g","pricing_plan_id":"cebpf4jnsgd1na2vs0mg"},{"bike_id":"5fcc513a-05c8-422a-af03-7b9551ce69b6","system_id":"levelo_inurba_marseille","lat":43.27806,"lon":5.40713,"is_reserved":false,"is_disabled":false,"rental_uris":{"android":"levelo://app?vid=5fcc513a-05c8-422a-af03-7b9551ce69b6","ios":"levelo://app?vid=5fcc513a-05c8-422a-af03-7b9551ce69b6"},"vehicle_type_id":"4","last_reported":1753888320,"current_range_meters":9600,"station_id":"ce4bhnh2rcd13ifvqgtg","pricing_plan_id":"cebpf4jnsgd1na2vs0mg"},{"bike_id":"8617cfe5-46f7-46b1-805c-0d90b9cd18cc","system_id":"levelo_inurba_marseille","lat":43.272185,"lon":5.390678,"is_reserved":false,"is_disabled":false,"rental_uris":{"android":"levelo://app?vid=8617cfe5-46f7-46b1-805c-0d90b9cd18cc","ios":"levelo://app?vid=8617cfe5-46f7-46b1-805c-0d90b9cd18cc"},"vehicle_type_id":"4","last_reported":1753888320,"current_range_meters":10000,"station_id":"ce4bh392rcd13ifvqdm0","pricing_plan_id":"cebpf4jnsgd1na2vs0mg"},{"bike_id":"00de3457-bb26-4f86-be97-d29604933a4d","system_id":"levelo_inurba_marseille","lat":43.28644,"lon":5.37183,"is_reserved":false,"is_disabled":false,"rental_uris":{"android":"levelo://app?vid=00de3457-bb26-4f86-be97-d29604933a4d","ios":"levelo://app?vid=00de3457-bb26-4f86-be97-d29604933a4d"},"vehicle_type_id":"4","last_reported":1753888320,"current_range_meters":10000,"station_id":"","pricing_plan_id":"cebpf4jnsgd1na2vs0mg"},{"bike_id":"ccac54c4-96f5-494a-86ac-dcf6f6a4f07c","system_id":"levelo_inurba_marseille","lat":43.21195,"lon":5.35069,"is_reserved":false,"is_disabled":false,"rental_uris":{"android":"levelo://app?vid=ccac54c4-96f5-494a-86ac-dcf6f6a4f07c","ios":"levelo://app?vid=ccac54c4-96f5-494a-86ac-dcf6f6a4f07c"},"vehicle_type_id":"4","last_reported":1753888320,"current_range_meters":10800,"station_id":"","pricing_plan_id":"cebpf4jnsgd1na2vs0mg"},{"bike_id":"43d63219-1aa2-4c91-90fe-88b28ddfbee3","system_id":"levelo_inurba_marseille","lat":43.29018,"lon":5.38141,"is_reserved":false,"is_disabled":true,"rental_uris":{"android":"levelo://app?vid=43d63219-1aa2-4c91-90fe-88b28ddfbee3","ios":"levelo://app?vid=43d63219-1aa2-4c91-90fe-88b28ddfbee3"},"vehicle_type_id":"4","last_reported":1753888320,"current_range_meters":10800,"station_id":"ce4bh4p2rcd13ifvqe1g","pricing_plan_id":"cebpf4jnsgd1na2vs0mg"},{"bike_id":"a4afc66d-7daa-4439-a8dd-c279529e25ea","system_id":"levelo_inurba_marseille","lat":43.30142,"lon":5.38792,"is_reserved":false,"is_disabled":true,"rental_uris":{"android":"levelo://app?vid=a4afc66d-7daa-4439-a8dd-c279529e25ea","ios":"levelo://app?vid=a4afc66d-7daa-4439-a8dd-c279529e25ea"},"vehicle_type_id":"4","last_reported":1753888320,"current_range_meters":10800,"station_id":"ce4bghh2rcd13ifvqb60","pricing_plan_id":"cebpf4jnsgd1na2vs0mg"},{"bike_id":"1fe81876-bf8c-42af-9ca3-98c417ed882c","system_id":"levelo_inurba_marseille","lat":43.30147,"lon":5.38074,"is_reserved":false,"is_disabled":false,"rental_uris":{"android":"levelo://app?vid=1fe81876-bf8c-42af-9ca3-98c417ed882c","ios":"levelo://app?vid=1fe81876-bf8c-42af-9ca3-98c417ed882c"},"vehicle_type_id":"4","last_reported":1753888320,"current_range_meters":11200,"station_id":"ce4bgjp2rcd13ifvqbh0","pricing_plan_id":"cebpf4jnsgd1na2vs0mg"},{"bike_id":"f4d4f9ad-2a91-4211-98aa-f1c7dca60998","system_id":"levelo_inurba_marseille","lat":43.32046,"lon":5.41551,"is_reserved":false,"is_disabled":false,"rental_uris":{"android":"levelo://app?vid=f4d4f9ad-2a91-4211-98aa-f1c7dca60998","ios":"levelo://app?vid=f4d4f9ad-2a91-4211-98aa-f1c7dca60998"},"vehicle_type_id":"4","last_reported":1753888320,"current_range_meters":10800,"station_id":"ce4bhq92rcd13ifvqhkg","pricing_plan_id":"cebpf4jnsgd1na2vs0mg"},{"bike_id":"4734f95c-8fe4-4eac-950e-a8c9b4db3797","system_id":"levelo_inurba_marseille","lat":43.29532,"lon":5.3855,"is_reserved":false,"is_disabled":false,"rental_uris":{"android":"levelo://app?vid=4734f95c-8fe4-4eac-950e-a8c9b4db3797","ios":"levelo://app?vid=4734f95c-8fe4-4eac-950e-a8c9b4db3797"},"vehicle_type_id":"4","last_reported":1753888320,"current_range_meters":11200,"station_id":"ce4bgih2rcd13ifvqba0","pricing_plan_id":"cebpf4jnsgd1na2vs0mg"},{"bike_id":"bbb4218b-6cc3-4d8b-90d4-2591ff2cb0ec","system_id":"levelo_inurba_marseille","lat":43.24173,"lon":5.36383,"is_reserved":false,"is_disabled":false,"rental_uris":{"android":"levelo://app?vid=bbb4218b-6cc3-4d8b-90d4-2591ff2cb0ec","ios":"levelo://app?vid=bbb4218b-6cc3-4d8b-90d4-2591ff2cb0ec"},"vehicle_type_id":"4","last_reported":1753888320,"current_range_meters":11200,"station_id":"cpo36qri1sfpv3e86is0","pricing_plan_id":"cebpf4jnsgd1na2vs0mg"},{"bike_id":"723b789a-f6dc-4638-9a2b-a4d57fddd063","system_id":"levelo_inurba_marseille","lat":43.29634,"lon":5.37152,"is_reserved":false,"is_disabled":false,"rental_uris":{"android":"levelo://app?vid=723b789a-f6dc-4638-9a2b-a4d57fddd063","ios":"levelo://app?vid=723b789a-f6dc-4638-9a2b-a4d57fddd063"},"vehicle_type_id":"4","last_reported":1753888320,"current_range_meters":11600,"station_id":"ce4bgnh2rcd13ifvqc0g","pricing_plan_id":"cebpf4jnsgd1na2vs0mg"},{"bike_id":"58d60ef7-501e-48a0-a97f-c0e09ff3aab0","system_id":"levelo_inurba_marseille","lat":43.222792,"lon":5.345958,"is_reserved":false,"is_disabled":false,"rental_uris":{"android":"levelo://app?vid=58d60ef7-501e-48a0-a97f-c0e09ff3aab0","ios":"levelo://app?vid=58d60ef7-501e-48a0-a97f-c0e09ff3aab0"},"vehicle_type_id":"4","last_reported":1753888320,"current_range_meters":11600,"station_id":"ce4bhp92rcd13ifvqhag","pricing_plan_id":"cebpf4jnsgd1na2vs0mg"},{"bike_id":"f129605f-c561-462b-9dd8-38b1fae764e6","system_id":"levelo_inurba_marseille","lat":43.32368,"lon":5.36767,"is_reserved":false,"is_disabled":false,"rental_uris":{"android":"levelo://app?vid=f129605f-c561-462b-9dd8-38b1fae764e6","ios":"levelo://app?vid=f129605f-c561-462b-9dd8-38b1fae764e6"},"vehicle_type_id":"4","last_reported":1753888320,"current_range_meters":11600,"station_id":"ce4bhsh2rcd13ifvqi2g","pricing_plan_id":"cebpf4jnsgd1na2vs0mg"},{"bike_id":"964907a1-8582-469e-9626-3006d22e7461","system_id":"levelo_inurba_marseille","lat":43.28235,"lon":5.35038,"is_reserved":false,"is_disabled":false,"rental_uris":{"android":"levelo://app?vid=964907a1-8582-469e-9626-3006d22e7461","ios":"levelo://app?vid=964907a1-8582-469e-9626-3006d22e7461"},"vehicle_type_id":"4","last_reported":1753888320,"current_range_meters":11600,"station_id":"ce4bhbp2rcd13ifvqerg","pricing_plan_id":"cebpf4jnsgd1na2vs0mg"},{"bike_id":"7a51672a-c4ae-4afb-958f-93daa736f61e","system_id":"levelo_inurba_marseille","lat":43.299655,"lon":5.396095,"is_reserved":false,"is_disabled":false,"rental_uris":{"android":"levelo://app?vid=7a51672a-c4ae-4afb-958f-93daa736f61e","ios":"levelo://app?vid=7a51672a-c4ae-4afb-958f-93daa736f61e"},"vehicle_type_id":"4","last_reported":1753888320,"current_range_meters":11600,"station_id":"ce4bh0h2rcd13ifvqd50","pricing_plan_id":"cebpf4jnsgd1na2vs0mg"},{"bike_id":"5fdeab66-ff2a-4660-8fe8-cacaa04824fe","system_id":"levelo_inurba_marseille","lat":43.28914,"lon":5.3639,"is_reserved":false,"is_disabled":false,"rental_uris":{"android":"levelo://app?vid=5fdeab66-ff2a-4660-8fe8-cacaa04824fe","ios":"levelo://app?vid=5fdeab66-ff2a-4660-8fe8-cacaa04824fe"},"vehicle_type_id":"4","last_reported":1753888320,"current_range_meters":11600,"station_id":"ce4bhc92rcd13ifvqetg","pricing_plan_id":"cebpf4jnsgd1na2vs0mg"},{"bike_id":"135ab1ea-fc9a-4785-9240-6bfa3adf7c7c","system_id":"levelo_inurba_marseille","lat":43.32258,"lon":5.36635,"is_reserved":false,"is_disabled":false,"rental_uris":{"android":"levelo://app?vid=135ab1ea-fc9a-4785-9240-6bfa3adf7c7c","ios":"levelo://app?vid=135ab1ea-fc9a-4785-9240-6bfa3adf7c7c"},"vehicle_type_id":"4","last_reported":1753888320,"current_range_meters":12000,"station_id":"","pricing_plan_id":"cebpf4jnsgd1na2vs0mg"},{"bike_id":"23cb5642-15b1-4dff-8751-77349dab4204","system_id":"levelo_inurba_marseille","lat":43.22931,"lon":5.35388,"is_reserved":false,"is_disabled":false,"rental_uris":{"android":"levelo://app?vid=23cb5642-15b1-4dff-8751-77349dab4204","ios":"levelo://app?vid=23cb5642-15b1-4dff-8751-77349dab4204"},"vehicle_type_id":"4","last_reported":1753888320,"current_range_meters":12000,"station_id":"cpo3532slgdg3j2ikp40","pricing_plan_id":"cebpf4jnsgd1na2vs0mg"},{"bike_id":"b48f5dd0-6dba-4454-bab2-8fe0e77c0439","system_id":"levelo_inurba_marseille","lat":43.24171,"lon":5.36399,"is_reserved":false,"is_disabled":false,"rental_uris":{"android":"levelo://app?vid=b48f5dd0-6dba-4454-bab2-8fe0e77c0439","ios":"levelo://app?vid=b48f5dd0-6dba-4454-bab2-8fe0e77c0439"},"vehicle_type_id":"4","last_reported":1753888320,"current_range_meters":12000,"station_id":"cpo36qri1sfpv3e86is0","pricing_plan_id":"cebpf4jnsgd1na2vs0mg"},{"bike_id":"868a8985-ec0c-455e-9822-6fe21f6d7c90","system_id":"levelo_inurba_marseille","lat":43.28416,"lon":5.3499,"is_reserved":false,"is_disabled":false,"rental_uris":{"android":"levelo://app?vid=868a8985-ec0c-455e-9822-6fe21f6d7c90","ios":"levelo://app?vid=868a8985-ec0c-455e-9822-6fe21f6d7c90"},"vehicle_type_id":"4","last_reported":1753888320,"current_range_meters":12000,"station_id":"ce4bhbh2rcd13ifvqepg","pricing_plan_id":"cebpf4jnsgd1na2vs0mg"},{"bike_id":"056e4f3d-4ab7-42da-9834-2ca05b8a0f52","system_id":"levelo_inurba_marseille","lat":43.31492,"lon":5.3683,"is_reserved":false,"is_disabled":false,"rental_uris":{"android":"levelo://app?vid=056e4f3d-4ab7-42da-9834-2ca05b8a0f52","ios":"levelo://app?vid=056e4f3d-4ab7-42da-9834-2ca05b8a0f52"},"vehicle_type_id":"4","last_reported":1753888320,"current_range_meters":12000,"station_id":"","pricing_plan_id":"cebpf4jnsgd1na2vs0mg"},{"bike_id":"6c530f22-14a5-4ecf-b312-4642c2d6b9fb","system_id":"levelo_inurba_marseille","lat":43.28266,"lon":5.3507,"is_reserved":false,"is_disabled":false,"rental_uris":{"android":"levelo://app?vid=6c530f22-14a5-4ecf-b312-4642c2d6b9fb","ios":"levelo://app?vid=6c530f22-14a5-4ecf-b312-4642c2d6b9fb"},"vehicle_type_id":"4","last_reported":1753888320,"current_range_meters":12000,"station_id":"ce4bhbp2rcd13ifvqerg","pricing_plan_id":"cebpf4jnsgd1na2vs0mg"},{"bike_id":"a933fbfe-c0a0-4974-a0cb-6f447cddc3b7","system_id":"levelo_inurba_marseille","lat":43.28934,"lon":5.36402,"is_reserved":false,"is_disabled":false,"rental_uris":{"android":"levelo://app?vid=a933fbfe-c0a0-4974-a0cb-6f447cddc3b7","ios":"levelo://app?vid=a933fbfe-c0a0-4974-a0cb-6f447cddc3b7"},"vehicle_type_id":"4","last_reported":1753888320,"current_range_meters":12400,"station_id":"ce4bhc92rcd13ifvqetg","pricing_plan_id":"cebpf4jnsgd1na2vs0mg"},{"bike_id":"85d95a9a-bae1-4127-a50f-dff98ce29fd5","system_id":"levelo_inurba_marseille","lat":43.32468,"lon":5.3737,"is_reserved":false,"is_disabled":false,"rental_uris":{"android":"levelo://app?vid=85d95a9a-bae1-4127-a50f-dff98ce29fd5","ios":"levelo://app?vid=85d95a9a-bae1-4127-a50f-dff98ce29fd5"},"vehicle_type_id":"4","last_reported":1753888320,"current_range_meters":12400,"station_id":"","pricing_plan_id":"cebpf4jnsgd1na2vs0mg"},{"bike_id":"047bf4f0-09b8-4f0d-b0b6-a822a136bb1f","system_id":"levelo_inurba_marseille","lat":43.29362,"lon":5.37863,"is_reserved":false,"is_disabled":false,"rental_uris":{"android":"levelo://app?vid=047bf4f0-09b8-4f0d-b0b6-a822a136bb1f","ios":"levelo://app?vid=047bf4f0-09b8-4f0d-b0b6-a822a136bb1f"},"vehicle_type_id":"4","last_reported":1753888320,"current_range_meters":12400,"station_id":"ce4bgjh2rcd13ifvqbf0","pricing_plan_id":"cebpf4jnsgd1na2vs0mg"},{"bike_id":"52a6e8e9-1d80-41af-a541-1db8955c68ec","system_id":"levelo_inurba_marseille","lat":43.28265,"lon":5.3507,"is_reserved":false,"is_disabled":false,"rental_uris":{"android":"levelo://app?vid=52a6e8e9-1d80-41af-a541-1db8955c68ec","ios":"levelo://app?vid=52a6e8e9-1d80-41af-a541-1db8955c68ec"},"vehicle_type_id":"4","last_reported":1753888320,"current_range_meters":12400,"station_id":"ce4bhbp2rcd13ifvqerg","pricing_plan_id":"cebpf4jnsgd1na2vs0mg"},{"bike_id":"24ddc855-9db1-447b-8cc7-fb33f85a47fb","system_id":"levelo_inurba_marseille","lat":43.30595,"lon":5.37213,"is_reserved":false,"is_disabled":false,"rental_uris":{"android":"levelo://app?vid=24ddc855-9db1-447b-8cc7-fb33f85a47fb","ios":"levelo://app?vid=24ddc855-9db1-447b-8cc7-fb33f85a47fb"},"vehicle_type_id":"4","last_reported":1753888320,"current_range_meters":12400,"station_id":"ce4bgqh2rcd13ifvqc4g","pricing_plan_id":"cebpf4jnsgd1na2vs0mg"},{"bike_id":"8f41ed9d-1778-4af7-b2ad-fd1607beff4e","system_id":"levelo_inurba_marseille","lat":43.22521,"lon":5.34773,"is_reserved":false,"is_disabled":false,"rental_uris":{"android":"levelo://app?vid=8f41ed9d-1778-4af7-b2ad-fd1607beff4e","ios":"levelo://app?vid=8f41ed9d-1778-4af7-b2ad-fd1607beff4e"},"vehicle_type_id":"4","last_reported":1753888320,"current_range_meters":12400,"station_id":"st_cvj5dfep6f1abm77gieg","pricing_plan_id":"cebpf4jnsgd1na2vs0mg"},{"bike_id":"4369ab26-21c1-4540-8fe1-6c8951ade23e","system_id":"levelo_inurba_marseille","lat":43.28412,"lon":5.3753,"is_reserved":false,"is_disabled":false,"rental_uris":{"android":"levelo://app?vid=4369ab26-21c1-4540-8fe1-6c8951ade23e","ios":"levelo://app?vid=4369ab26-21c1-4540-8fe1-6c8951ade23e"},"vehicle_type_id":"4","last_reported":1753888320,"current_range_meters":12000,"station_id":"ce4bh412rcd13ifvqds0","pricing_plan_id":"cebpf4jnsgd1na2vs0mg"},{"bike_id":"7fc208ed-e911-4d82-a986-8e995f97f293","system_id":"levelo_inurba_marseille","lat":43.282723,"lon":5.350716,"is_reserved":false,"is_disabled":false,"rental_uris":{"android":"levelo://app?vid=7fc208ed-e911-4d82-a986-8e995f97f293","ios":"levelo://app?vid=7fc208ed-e911-4d82-a986-8e995f97f293"},"vehicle_type_id":"4","last_reported":1753888320,"current_range_meters":12400,"station_id":"ce4bhbp2rcd13ifvqerg","pricing_plan_id":"cebpf4jnsgd1na2vs0mg"},{"bike_id":"b879b8fc-7c17-42d7-b1e3-d28ef5c9d887","system_id":"levelo_inurba_marseille","lat":43.29904,"lon":5.3815,"is_reserved":false,"is_disabled":false,"rental_uris":{"android":"levelo://app?vid=b879b8fc-7c17-42d7-b1e3-d28ef5c9d887","ios":"levelo://app?vid=b879b8fc-7c17-42d7-b1e3-d28ef5c9d887"},"vehicle_type_id":"4","last_reported":1753888320,"current_range_meters":12400,"station_id":"ce4bgj12rcd13ifvqbc0","pricing_plan_id":"cebpf4jnsgd1na2vs0mg"},{"bike_id":"887f6f93-0eac-4bcd-a75b-a8c98047a14d","system_id":"levelo_inurba_marseille","lat":43.21207,"lon":5.35092,"is_reserved":false,"is_disabled":false,"rental_uris":{"android":"levelo://app?vid=887f6f93-0eac-4bcd-a75b-a8c98047a14d","ios":"levelo://app?vid=887f6f93-0eac-4bcd-a75b-a8c98047a14d"},"vehicle_type_id":"4","last_reported":1753888320,"current_range_meters":12800,"station_id":"","pricing_plan_id":"cebpf4jnsgd1na2vs0mg"},{"bike_id":"b027c649-b0cb-401b-b25f-946953acbc99","system_id":"levelo_inurba_marseille","lat":43.29969,"lon":5.37176,"is_reserved":false,"is_disabled":false,"rental_uris":{"android":"levelo://app?vid=b027c649-b0cb-401b-b25f-946953acbc99","ios":"levelo://app?vid=b027c649-b0cb-401b-b25f-946953acbc99"},"vehicle_type_id":"4","last_reported":1753888320,"current_range_meters":12800,"station_id":"ce4bgr92rcd13ifvqc7g","pricing_plan_id":"cebpf4jnsgd1na2vs0mg"},{"bike_id":"671701a9-7243-46ba-9df9-fa49b6935265","system_id":"levelo_inurba_marseille","lat":43.25984,"lon":5.37233,"is_reserved":false,"is_disabled":false,"rental_uris":{"android":"levelo://app?vid=671701a9-7243-46ba-9df9-fa49b6935265","ios":"levelo://app?vid=671701a9-7243-46ba-9df9-fa49b6935265"},"vehicle_type_id":"4","last_reported":1753888320,"current_range_meters":12800,"station_id":"","pricing_plan_id":"cebpf4jnsgd1na2vs0mg"},{"bike_id":"a6a46ae2-d764-44ee-baf2-a76e49bd9084","system_id":"levelo_inurba_marseille","lat":43.27001,"lon":5.40304,"is_reserved":false,"is_disabled":false,"rental_uris":{"android":"levelo://app?vid=a6a46ae2-d764-44ee-baf2-a76e49bd9084","ios":"levelo://app?vid=a6a46ae2-d764-44ee-baf2-a76e49bd9084"},"vehicle_type_id":"4","last_reported":1753888320,"current_range_meters":12800,"station_id":"","pricing_plan_id":"cebpf4jnsgd1na2vs0mg"},{"bike_id":"c686771c-e4d6-4ee5-934b-f3ca190b833e","system_id":"levelo_inurba_marseille","lat":43.32765,"lon":5.39204,"is_reserved":false,"is_disabled":false,"rental_uris":{"android":"levelo://app?vid=c686771c-e4d6-4ee5-934b-f3ca190b833e","ios":"levelo://app?vid=c686771c-e4d6-4ee5-934b-f3ca190b833e"},"vehicle_type_id":"4","last_reported":1753888320,"current_range_meters":12800,"station_id":"","pricing_plan_id":"cebpf4jnsgd1na2vs0mg"},{"bike_id":"5ff7b424-be72-460e-9279-c80ac3b388ac","system_id":"levelo_inurba_marseille","lat":43.231933,"lon":5.399963,"is_reserved":false,"is_disabled":false,"rental_uris":{"android":"levelo://app?vid=5ff7b424-be72-460e-9279-c80ac3b388ac","ios":"levelo://app?vid=5ff7b424-be72-460e-9279-c80ac3b388ac"},"vehicle_type_id":"4","last_reported":1753888320,"current_range_meters":12800,"station_id":"ce4bhn12rcd13ifvqgqg","pricing_plan_id":"cebpf4jnsgd1na2vs0mg"},{"bike_id":"3d60e95a-8706-4e13-b31f-ac7a913f607a","system_id":"levelo_inurba_marseille","lat":43.22927,"lon":5.353947,"is_reserved":false,"is_disabled":false,"rental_uris":{"android":"levelo://app?vid=3d60e95a-8706-4e13-b31f-ac7a913f607a","ios":"levelo://app?vid=3d60e95a-8706-4e13-b31f-ac7a913f607a"},"vehicle_type_id":"4","last_reported":1753888320,"current_range_meters":13600,"station_id":"cpo3532slgdg3j2ikp40","pricing_plan_id":"cebpf4jnsgd1na2vs0mg"},{"bike_id":"0bef31eb-9cca-4cac-b421-14ec416d45ff","system_id":"levelo_inurba_marseille","lat":43.26191,"lon":5.37451,"is_reserved":false,"is_disabled":false,"rental_uris":{"android":"levelo://app?vid=0bef31eb-9cca-4cac-b421-14ec416d45ff","ios":"levelo://app?vid=0bef31eb-9cca-4cac-b421-14ec416d45ff"},"vehicle_type_id":"4","last_reported":1753888320,"current_range_meters":13600,"station_id":"ce4bhgp2rcd13ifvqfc0","pricing_plan_id":"cebpf4jnsgd1na2vs0mg"},{"bike_id":"ae6c8428-e39e-40be-9df7-f418521aa777","system_id":"levelo_inurba_marseille","lat":43.2292,"lon":5.35389,"is_reserved":false,"is_disabled":false,"rental_uris":{"android":"levelo://app?vid=ae6c8428-e39e-40be-9df7-f418521aa777","ios":"levelo://app?vid=ae6c8428-e39e-40be-9df7-f418521aa777"},"vehicle_type_id":"4","last_reported":1753888320,"current_range_meters":13600,"station_id":"cpo3532slgdg3j2ikp40","pricing_plan_id":"cebpf4jnsgd1na2vs0mg"},{"bike_id":"e8b3569f-0ead-4e48-a67b-42a7df385627","system_id":"levelo_inurba_marseille","lat":43.26687,"lon":5.38256,"is_reserved":false,"is_disabled":false,"rental_uris":{"android":"levelo://app?vid=e8b3569f-0ead-4e48-a67b-42a7df385627","ios":"levelo://app?vid=e8b3569f-0ead-4e48-a67b-42a7df385627"},"vehicle_type_id":"4","last_reported":1753888320,"current_range_meters":13600,"station_id":"ce4bhg92rcd13ifvqf90","pricing_plan_id":"cebpf4jnsgd1na2vs0mg"},{"bike_id":"1f9e576a-5838-4671-bde9-9d129b90c7fb","system_id":"levelo_inurba_marseille","lat":43.284845,"lon":5.385605,"is_reserved":false,"is_disabled":false,"rental_uris":{"android":"levelo://app?vid=1f9e576a-5838-4671-bde9-9d129b90c7fb","ios":"levelo://app?vid=1f9e576a-5838-4671-bde9-9d129b90c7fb"},"vehicle_type_id":"4","last_reported":1753888320,"current_range_meters":13600,"station_id":"ce4bgjh2rcd13ifvqbg0","pricing_plan_id":"cebpf4jnsgd1na2vs0mg"},{"bike_id":"79487424-22bb-4578-99a4-da7f1480cf68","system_id":"levelo_inurba_marseille","lat":43.27368,"lon":5.36254,"is_reserved":false,"is_disabled":false,"rental_uris":{"android":"levelo://app?vid=79487424-22bb-4578-99a4-da7f1480cf68","ios":"levelo://app?vid=79487424-22bb-4578-99a4-da7f1480cf68"},"vehicle_type_id":"4","last_reported":1753888320,"current_range_meters":13600,"station_id":"ce4bhbh2rcd13ifvqeo0","pricing_plan_id":"cebpf4jnsgd1na2vs0mg"},{"bike_id":"09906c11-8989-42b0-9fc4-fbd822010bc3","system_id":"levelo_inurba_marseille","lat":43.30146,"lon":5.38079,"is_reserved":false,"is_disabled":false,"rental_uris":{"android":"levelo://app?vid=09906c11-8989-42b0-9fc4-fbd822010bc3","ios":"levelo://app?vid=09906c11-8989-42b0-9fc4-fbd822010bc3"},"vehicle_type_id":"4","last_reported":1753888320,"current_range_meters":14000,"station_id":"ce4bgjp2rcd13ifvqbh0","pricing_plan_id":"cebpf4jnsgd1na2vs0mg"},{"bike_id":"b44d763b-4f92-4731-b76a-85ebcd91acd5","system_id":"levelo_inurba_marseille","lat":43.30221,"lon":5.37152,"is_reserved":false,"is_disabled":false,"rental_uris":{"android":"levelo://app?vid=b44d763b-4f92-4731-b76a-85ebcd91acd5","ios":"levelo://app?vid=b44d763b-4f92-4731-b76a-85ebcd91acd5"},"vehicle_type_id":"4","last_reported":1753888320,"current_range_meters":14000,"station_id":"","pricing_plan_id":"cebpf4jnsgd1na2vs0mg"},{"bike_id":"46327a3a-b112-4747-b636-17ebf6146226","system_id":"levelo_inurba_marseille","lat":43.29901,"lon":5.38151,"is_reserved":false,"is_disabled":false,"rental_uris":{"android":"levelo://app?vid=46327a3a-b112-4747-b636-17ebf6146226","ios":"levelo://app?vid=46327a3a-b112-4747-b636-17ebf6146226"},"vehicle_type_id":"4","last_reported":1753888320,"current_range_meters":13600,"station_id":"ce4bgj12rcd13ifvqbc0","pricing_plan_id":"cebpf4jnsgd1na2vs0mg"},{"bike_id":"97e0cc1c-fa5d-41b9-8b72-3eed848ec1f7","system_id":"levelo_inurba_marseille","lat":43.330295,"lon":5.390706,"is_reserved":false,"is_disabled":false,"rental_uris":{"android":"levelo://app?vid=97e0cc1c-fa5d-41b9-8b72-3eed848ec1f7","ios":"levelo://app?vid=97e0cc1c-fa5d-41b9-8b72-3eed848ec1f7"},"vehicle_type_id":"4","last_reported":1753888320,"current_range_meters":14000,"station_id":"ce4bhr92rcd13ifvqhrg","pricing_plan_id":"cebpf4jnsgd1na2vs0mg"},{"bike_id":"ef03ba52-1350-401a-a314-09ea1f8fa069","system_id":"levelo_inurba_marseille","lat":43.30141,"lon":5.37421,"is_reserved":false,"is_disabled":false,"rental_uris":{"android":"levelo://app?vid=ef03ba52-1350-401a-a314-09ea1f8fa069","ios":"levelo://app?vid=ef03ba52-1350-401a-a314-09ea1f8fa069"},"vehicle_type_id":"4","last_reported":1753888320,"current_range_meters":14000,"station_id":"ce4bgs92rcd13ifvqcc0","pricing_plan_id":"cebpf4jnsgd1na2vs0mg"},{"bike_id":"116d91c8-22c6-44b9-ad68-dfbfbe9e23dc","system_id":"levelo_inurba_marseille","lat":43.324893,"lon":5.365855,"is_reserved":false,"is_disabled":false,"rental_uris":{"android":"levelo://app?vid=116d91c8-22c6-44b9-ad68-dfbfbe9e23dc","ios":"levelo://app?vid=116d91c8-22c6-44b9-ad68-dfbfbe9e23dc"},"vehicle_type_id":"4","last_reported":1753888320,"current_range_meters":14000,"station_id":"ce4bhs12rcd13ifvqhvg","pricing_plan_id":"cebpf4jnsgd1na2vs0mg"},{"bike_id":"cc5a6309-7e06-48c6-9346-99bb106d400a","system_id":"levelo_inurba_marseille","lat":43.29011,"lon":5.35613,"is_reserved":false,"is_disabled":false,"rental_uris":{"android":"levelo://app?vid=cc5a6309-7e06-48c6-9346-99bb106d400a","ios":"levelo://app?vid=cc5a6309-7e06-48c6-9346-99bb106d400a"},"vehicle_type_id":"4","last_reported":1753888320,"current_range_meters":14000,"station_id":"ce4bhb92rcd13ifvqen0","pricing_plan_id":"cebpf4jnsgd1na2vs0mg"},{"bike_id":"3626b032-35eb-4f57-b7c9-1db761fc122f","system_id":"levelo_inurba_marseille","lat":43.26766,"lon":5.39433,"is_reserved":false,"is_disabled":false,"rental_uris":{"android":"levelo://app?vid=3626b032-35eb-4f57-b7c9-1db761fc122f","ios":"levelo://app?vid=3626b032-35eb-4f57-b7c9-1db761fc122f"},"vehicle_type_id":"4","last_reported":1753888320,"current_range_meters":14000,"station_id":"ce4bhh12rcd13ifvqfg0","pricing_plan_id":"cebpf4jnsgd1na2vs0mg"},{"bike_id":"6e017fb5-135a-4d8c-8286-f6e93df9abaf","system_id":"levelo_inurba_marseille","lat":43.26579,"lon":5.39008,"is_reserved":false,"is_disabled":false,"rental_uris":{"android":"levelo://app?vid=6e017fb5-135a-4d8c-8286-f6e93df9abaf","ios":"levelo://app?vid=6e017fb5-135a-4d8c-8286-f6e93df9abaf"},"vehicle_type_id":"4","last_reported":1753888320,"current_range_meters":14000,"station_id":"ce4bhe12rcd13ifvqf30","pricing_plan_id":"cebpf4jnsgd1na2vs0mg"},{"bike_id":"5c9160ef-4dfa-47d2-93ef-2b30f19b283e","system_id":"levelo_inurba_marseille","lat":43.2295,"lon":5.35375,"is_reserved":false,"is_disabled":false,"rental_uris":{"android":"levelo://app?vid=5c9160ef-4dfa-47d2-93ef-2b30f19b283e","ios":"levelo://app?vid=5c9160ef-4dfa-47d2-93ef-2b30f19b283e"},"vehicle_type_id":"4","last_reported":1753888320,"current_range_meters":14000,"station_id":"cpo3532slgdg3j2ikp40","pricing_plan_id":"cebpf4jnsgd1na2vs0mg"},{"bike_id":"a6446033-169b-427c-87e2-0da7a393497c","system_id":"levelo_inurba_marseille","lat":43.28405,"lon":5.37503,"is_reserved":false,"is_disabled":false,"rental_uris":{"android":"levelo://app?vid=a6446033-169b-427c-87e2-0da7a393497c","ios":"levelo://app?vid=a6446033-169b-427c-87e2-0da7a393497c"},"vehicle_type_id":"4","last_reported":1753888320,"current_range_meters":14000,"station_id":"ce4bh412rcd13ifvqds0","pricing_plan_id":"cebpf4jnsgd1na2vs0mg"},{"bike_id":"f4dd1d6b-69f7-4979-8b59-33b6c8a3403c","system_id":"levelo_inurba_marseille","lat":43.27392,"lon":5.36268,"is_reserved":false,"is_disabled":false,"rental_uris":{"android":"levelo://app?vid=f4dd1d6b-69f7-4979-8b59-33b6c8a3403c","ios":"levelo://app?vid=f4dd1d6b-69f7-4979-8b59-33b6c8a3403c"},"vehicle_type_id":"4","last_reported":1753888320,"current_range_meters":14400,"station_id":"ce4bhbh2rcd13ifvqeo0","pricing_plan_id":"cebpf4jnsgd1na2vs0mg"},{"bike_id":"49ac42e3-46a9-464c-add5-aa76569577fd","system_id":"levelo_inurba_marseille","lat":43.26205,"lon":5.37444,"is_reserved":false,"is_disabled":false,"rental_uris":{"android":"levelo://app?vid=49ac42e3-46a9-464c-add5-aa76569577fd","ios":"levelo://app?vid=49ac42e3-46a9-464c-add5-aa76569577fd"},"vehicle_type_id":"4","last_reported":1753888320,"current_range_meters":14400,"station_id":"ce4bhgp2rcd13ifvqfc0","pricing_plan_id":"cebpf4jnsgd1na2vs0mg"},{"bike_id":"19295018-235d-4f62-9c12-0203c908e699","system_id":"levelo_inurba_marseille","lat":43.2292,"lon":5.35369,"is_reserved":false,"is_disabled":false,"rental_uris":{"android":"levelo://app?vid=19295018-235d-4f62-9c12-0203c908e699","ios":"levelo://app?vid=19295018-235d-4f62-9c12-0203c908e699"},"vehicle_type_id":"4","last_reported":1753888320,"current_range_meters":14400,"station_id":"cpo3532slgdg3j2ikp40","pricing_plan_id":"cebpf4jnsgd1na2vs0mg"},{"bike_id":"5f72df66-2d68-4c6e-a917-44e1dcfede98","system_id":"levelo_inurba_marseille","lat":43.2289,"lon":5.35391,"is_reserved":false,"is_disabled":false,"rental_uris":{"android":"levelo://app?vid=5f72df66-2d68-4c6e-a917-44e1dcfede98","ios":"levelo://app?vid=5f72df66-2d68-4c6e-a917-44e1dcfede98"},"vehicle_type_id":"4","last_reported":1753888320,"current_range_meters":14400,"station_id":"cpo3532slgdg3j2ikp40","pricing_plan_id":"cebpf4jnsgd1na2vs0mg"},{"bike_id":"0143bc07-02f9-46ea-8811-3bf1158d74e2","system_id":"levelo_inurba_marseille","lat":43.24171,"lon":5.36398,"is_reserved":false,"is_disabled":false,"rental_uris":{"android":"levelo://app?vid=0143bc07-02f9-46ea-8811-3bf1158d74e2","ios":"levelo://app?vid=0143bc07-02f9-46ea-8811-3bf1158d74e2"},"vehicle_type_id":"4","last_reported":1753888320,"current_range_meters":14400,"station_id":"cpo36qri1sfpv3e86is0","pricing_plan_id":"cebpf4jnsgd1na2vs0mg"},{"bike_id":"daabd21d-fe72-4bef-9caa-c5886e1b6fe4","system_id":"levelo_inurba_marseille","lat":43.31661,"lon":5.37282,"is_reserved":false,"is_disabled":false,"rental_uris":{"android":"levelo://app?vid=daabd21d-fe72-4bef-9caa-c5886e1b6fe4","ios":"levelo://app?vid=daabd21d-fe72-4bef-9caa-c5886e1b6fe4"},"vehicle_type_id":"4","last_reported":1753888320,"current_range_meters":14400,"station_id":"","pricing_plan_id":"cebpf4jnsgd1na2vs0mg"},{"bike_id":"a05992f6-1f51-4dbf-8921-4ad77bab57e9","system_id":"levelo_inurba_marseille","lat":43.241695,"lon":5.363995,"is_reserved":false,"is_disabled":false,"rental_uris":{"android":"levelo://app?vid=a05992f6-1f51-4dbf-8921-4ad77bab57e9","ios":"levelo://app?vid=a05992f6-1f51-4dbf-8921-4ad77bab57e9"},"vehicle_type_id":"4","last_reported":1753888320,"current_range_meters":14400,"station_id":"cpo36qri1sfpv3e86is0","pricing_plan_id":"cebpf4jnsgd1na2vs0mg"},{"bike_id":"0a9596ec-e9ea-4e63-911b-f6338facf6d4","system_id":"levelo_inurba_marseille","lat":43.301392,"lon":5.387751,"is_reserved":false,"is_disabled":false,"rental_uris":{"android":"levelo://app?vid=0a9596ec-e9ea-4e63-911b-f6338facf6d4","ios":"levelo://app?vid=0a9596ec-e9ea-4e63-911b-f6338facf6d4"},"vehicle_type_id":"4","last_reported":1753888320,"current_range_meters":14800,"station_id":"ce4bghh2rcd13ifvqb60","pricing_plan_id":"cebpf4jnsgd1na2vs0mg"},{"bike_id":"258208fd-626e-4fa2-a64c-19fbd71af95f","system_id":"levelo_inurba_marseille","lat":43.30141,"lon":5.39058,"is_reserved":false,"is_disabled":true,"rental_uris":{"android":"levelo://app?vid=258208fd-626e-4fa2-a64c-19fbd71af95f","ios":"levelo://app?vid=258208fd-626e-4fa2-a64c-19fbd71af95f"},"vehicle_type_id":"4","last_reported":1753888320,"current_range_meters":14800,"station_id":"ce4bh192rcd13ifvqdb0","pricing_plan_id":"cebpf4jnsgd1na2vs0mg"},{"bike_id":"807ee3ac-ec42-44be-a33b-e36724ceb7c0","system_id":"levelo_inurba_marseille","lat":43.308,"lon":5.38164,"is_reserved":false,"is_disabled":true,"rental_uris":{"android":"levelo://app?vid=807ee3ac-ec42-44be-a33b-e36724ceb7c0","ios":"levelo://app?vid=807ee3ac-ec42-44be-a33b-e36724ceb7c0"},"vehicle_type_id":"4","last_reported":1753888320,"current_range_meters":14800,"station_id":"ce4bgt12rcd13ifvqce0","pricing_plan_id":"cebpf4jnsgd1na2vs0mg"},{"bike_id":"0569760a-f748-4bd7-863f-279bd7fcdc8b","system_id":"levelo_inurba_marseille","lat":43.2959,"lon":5.36748,"is_reserved":false,"is_disabled":false,"rental_uris":{"android":"levelo://app?vid=0569760a-f748-4bd7-863f-279bd7fcdc8b","ios":"levelo://app?vid=0569760a-f748-4bd7-863f-279bd7fcdc8b"},"vehicle_type_id":"4","last_reported":1753888320,"current_range_meters":15200,"station_id":"ce4bgph2rcd13ifvqc2g","pricing_plan_id":"cebpf4jnsgd1na2vs0mg"},{"bike_id":"1a0ca16f-4b93-4052-acd5-440501907ad3","system_id":"levelo_inurba_marseille","lat":43.23193,"lon":5.35558,"is_reserved":false,"is_disabled":false,"rental_uris":{"android":"levelo://app?vid=1a0ca16f-4b93-4052-acd5-440501907ad3","ios":"levelo://app?vid=1a0ca16f-4b93-4052-acd5-440501907ad3"},"vehicle_type_id":"4","last_reported":1753888320,"current_range_meters":15200,"station_id":"ce4bhu92rcd13ifvqi70","pricing_plan_id":"cebpf4jnsgd1na2vs0mg"},{"bike_id":"2e1bdbd1-042c-4bf4-b623-908b6301c20d","system_id":"levelo_inurba_marseille","lat":43.28149,"lon":5.44182,"is_reserved":false,"is_disabled":false,"rental_uris":{"android":"levelo://app?vid=2e1bdbd1-042c-4bf4-b623-908b6301c20d","ios":"levelo://app?vid=2e1bdbd1-042c-4bf4-b623-908b6301c20d"},"vehicle_type_id":"4","last_reported":1753888320,"current_range_meters":15200,"station_id":"","pricing_plan_id":"cebpf4jnsgd1na2vs0mg"},{"bike_id":"09a2e990-ea89-4812-8f12-fc6d1dfffb3d","system_id":"levelo_inurba_marseille","lat":43.29935,"lon":5.36548,"is_reserved":false,"is_disabled":false,"rental_uris":{"android":"levelo://app?vid=09a2e990-ea89-4812-8f12-fc6d1dfffb3d","ios":"levelo://app?vid=09a2e990-ea89-4812-8f12-fc6d1dfffb3d"},"vehicle_type_id":"4","last_reported":1753888320,"current_range_meters":16000,"station_id":"ce4bgm92rcd13ifvqbr0","pricing_plan_id":"cebpf4jnsgd1na2vs0mg"},{"bike_id":"f1d16b38-eb02-49d0-814e-c8fceeb36cb8","system_id":"levelo_inurba_marseille","lat":43.28708,"lon":5.39988,"is_reserved":false,"is_disabled":false,"rental_uris":{"android":"levelo://app?vid=f1d16b38-eb02-49d0-814e-c8fceeb36cb8","ios":"levelo://app?vid=f1d16b38-eb02-49d0-814e-c8fceeb36cb8"},"vehicle_type_id":"4","last_reported":1753888320,"current_range_meters":16000,"station_id":"ce4bho92rcd13ifvqh3g","pricing_plan_id":"cebpf4jnsgd1na2vs0mg"},{"bike_id":"a4ed5e52-6b88-4de2-b435-4f5cc4ed4ecb","system_id":"levelo_inurba_marseille","lat":43.29034,"lon":5.38644,"is_reserved":false,"is_disabled":false,"rental_uris":{"android":"levelo://app?vid=a4ed5e52-6b88-4de2-b435-4f5cc4ed4ecb","ios":"levelo://app?vid=a4ed5e52-6b88-4de2-b435-4f5cc4ed4ecb"},"vehicle_type_id":"4","last_reported":1753888320,"current_range_meters":16000,"station_id":"ce4bh4p2rcd13ifvqe0g","pricing_plan_id":"cebpf4jnsgd1na2vs0mg"},{"bike_id":"6590494b-43e7-43e0-b312-c754fd5ea433","system_id":"levelo_inurba_marseille","lat":43.29062,"lon":5.43008,"is_reserved":false,"is_disabled":false,"rental_uris":{"android":"levelo://app?vid=6590494b-43e7-43e0-b312-c754fd5ea433","ios":"levelo://app?vid=6590494b-43e7-43e0-b312-c754fd5ea433"},"vehicle_type_id":"4","last_reported":1753888320,"current_range_meters":16000,"station_id":"","pricing_plan_id":"cebpf4jnsgd1na2vs0mg"},{"bike_id":"2c4400c7-2bd6-4d8f-805d-b1037b3fe518","system_id":"levelo_inurba_marseille","lat":43.22517,"lon":5.34778,"is_reserved":false,"is_disabled":false,"rental_uris":{"android":"levelo://app?vid=2c4400c7-2bd6-4d8f-805d-b1037b3fe518","ios":"levelo://app?vid=2c4400c7-2bd6-4d8f-805d-b1037b3fe518"},"vehicle_type_id":"4","last_reported":1753888320,"current_range_meters":16000,"station_id":"st_cvj5dfep6f1abm77gieg","pricing_plan_id":"cebpf4jnsgd1na2vs0mg"},{"bike_id":"8e5ebe0b-e41b-476c-9ebf-5f3a0a4d99ed","system_id":"levelo_inurba_marseille","lat":43.2439,"lon":5.37059,"is_reserved":false,"is_disabled":false,"rental_uris":{"android":"levelo://app?vid=8e5ebe0b-e41b-476c-9ebf-5f3a0a4d99ed","ios":"levelo://app?vid=8e5ebe0b-e41b-476c-9ebf-5f3a0a4d99ed"},"vehicle_type_id":"4","last_reported":1753888320,"current_range_meters":16000,"station_id":"ce4bhhh2rcd13ifvqfk0","pricing_plan_id":"cebpf4jnsgd1na2vs0mg"},{"bike_id":"d076e265-2a54-4297-9670-5745543050ab","system_id":"levelo_inurba_marseille","lat":43.28419,"lon":5.3499,"is_reserved":false,"is_disabled":false,"rental_uris":{"android":"levelo://app?vid=d076e265-2a54-4297-9670-5745543050ab","ios":"levelo://app?vid=d076e265-2a54-4297-9670-5745543050ab"},"vehicle_type_id":"4","last_reported":1753888320,"current_range_meters":16000,"station_id":"ce4bhbh2rcd13ifvqepg","pricing_plan_id":"cebpf4jnsgd1na2vs0mg"},{"bike_id":"27b9c343-0788-46cc-8a44-f364779e80d4","system_id":"levelo_inurba_marseille","lat":43.27053,"lon":5.40265,"is_reserved":false,"is_disabled":false,"rental_uris":{"android":"levelo://app?vid=27b9c343-0788-46cc-8a44-f364779e80d4","ios":"levelo://app?vid=27b9c343-0788-46cc-8a44-f364779e80d4"},"vehicle_type_id":"4","last_reported":1753888320,"current_range_meters":16000,"station_id":"ce4bhk92rcd13ifvqgc0","pricing_plan_id":"cebpf4jnsgd1na2vs0mg"},{"bike_id":"6edee4fe-46f2-43ea-a18a-6ec975f8373c","system_id":"levelo_inurba_marseille","lat":43.28853,"lon":5.358465,"is_reserved":false,"is_disabled":false,"rental_uris":{"android":"levelo://app?vid=6edee4fe-46f2-43ea-a18a-6ec975f8373c","ios":"levelo://app?vid=6edee4fe-46f2-43ea-a18a-6ec975f8373c"},"vehicle_type_id":"4","last_reported":1753888320,"current_range_meters":16000,"station_id":"","pricing_plan_id":"cebpf4jnsgd1na2vs0mg"},{"bike_id":"de51aa0b-260c-4c1e-8b5a-1392239894a3","system_id":"levelo_inurba_marseille","lat":43.24065,"lon":5.37774,"is_reserved":false,"is_disabled":false,"rental_uris":{"android":"levelo://app?vid=de51aa0b-260c-4c1e-8b5a-1392239894a3","ios":"levelo://app?vid=de51aa0b-260c-4c1e-8b5a-1392239894a3"},"vehicle_type_id":"4","last_reported":1753888320,"current_range_meters":16000,"station_id":"ce4bhnp2rcd13ifvqgvg","pricing_plan_id":"cebpf4jnsgd1na2vs0mg"},{"bike_id":"b89ad748-f7c1-4685-8c85-3009b186b7d0","system_id":"levelo_inurba_marseille","lat":43.24826,"lon":5.37454,"is_reserved":false,"is_disabled":false,"rental_uris":{"android":"levelo://app?vid=b89ad748-f7c1-4685-8c85-3009b186b7d0","ios":"levelo://app?vid=b89ad748-f7c1-4685-8c85-3009b186b7d0"},"vehicle_type_id":"4","last_reported":1753888320,"current_range_meters":16000,"station_id":"ce4bhgh2rcd13ifvqfb0","pricing_plan_id":"cebpf4jnsgd1na2vs0mg"},{"bike_id":"adf455d0-87b7-46d0-a7e1-9bcccde49058","system_id":"levelo_inurba_marseille","lat":43.2768,"lon":5.38875,"is_reserved":false,"is_disabled":false,"rental_uris":{"android":"levelo://app?vid=adf455d0-87b7-46d0-a7e1-9bcccde49058","ios":"levelo://app?vid=adf455d0-87b7-46d0-a7e1-9bcccde49058"},"vehicle_type_id":"4","last_reported":1753888320,"current_range_meters":16000,"station_id":"ce4bhi12rcd13ifvqfo0","pricing_plan_id":"cebpf4jnsgd1na2vs0mg"},{"bike_id":"30d425b9-6532-4584-ae56-a015f4c9f632","system_id":"levelo_inurba_marseille","lat":43.29212,"lon":5.36051,"is_reserved":false,"is_disabled":false,"rental_uris":{"android":"levelo://app?vid=30d425b9-6532-4584-ae56-a015f4c9f632","ios":"levelo://app?vid=30d425b9-6532-4584-ae56-a015f4c9f632"},"vehicle_type_id":"4","last_reported":1753888320,"current_range_meters":16400,"station_id":"ce4bhbh2rcd13ifvqeqg","pricing_plan_id":"cebpf4jnsgd1na2vs0mg"},{"bike_id":"ecc302c0-1384-4a20-b561-1c551d6ae235","system_id":"levelo_inurba_marseille","lat":43.28154,"lon":5.4264,"is_reserved":false,"is_disabled":false,"rental_uris":{"android":"levelo://app?vid=ecc302c0-1384-4a20-b561-1c551d6ae235","ios":"levelo://app?vid=ecc302c0-1384-4a20-b561-1c551d6ae235"},"vehicle_type_id":"4","last_reported":1753888320,"current_range_meters":16400,"station_id":"ce4bhnh2rcd13ifvqgug","pricing_plan_id":"cebpf4jnsgd1na2vs0mg"},{"bike_id":"fc72750c-8629-412d-8606-ffe7b2eda556","system_id":"levelo_inurba_marseille","lat":43.275051,"lon":5.424436,"is_reserved":false,"is_disabled":false,"rental_uris":{"android":"levelo://app?vid=fc72750c-8629-412d-8606-ffe7b2eda556","ios":"levelo://app?vid=fc72750c-8629-412d-8606-ffe7b2eda556"},"vehicle_type_id":"4","last_reported":1753888320,"current_range_meters":16400,"station_id":"ce4bhn92rcd13ifvqgrg","pricing_plan_id":"cebpf4jnsgd1na2vs0mg"},{"bike_id":"36c11242-6e7f-4d89-97be-c2933f4606a5","system_id":"levelo_inurba_marseille","lat":43.26207,"lon":5.37449,"is_reserved":false,"is_disabled":false,"rental_uris":{"android":"levelo://app?vid=36c11242-6e7f-4d89-97be-c2933f4606a5","ios":"levelo://app?vid=36c11242-6e7f-4d89-97be-c2933f4606a5"},"vehicle_type_id":"4","last_reported":1753888320,"current_range_meters":16400,"station_id":"ce4bhgp2rcd13ifvqfc0","pricing_plan_id":"cebpf4jnsgd1na2vs0mg"},{"bike_id":"e607f90d-dce3-465a-a040-dd245aa9205c","system_id":"levelo_inurba_marseille","lat":43.21744,"lon":5.34606,"is_reserved":false,"is_disabled":false,"rental_uris":{"android":"levelo://app?vid=e607f90d-dce3-465a-a040-dd245aa9205c","ios":"levelo://app?vid=e607f90d-dce3-465a-a040-dd245aa9205c"},"vehicle_type_id":"4","last_reported":1753888320,"current_range_meters":16400,"station_id":"st_cvj6r9ubvosntc0bgbag","pricing_plan_id":"cebpf4jnsgd1na2vs0mg"},{"bike_id":"a48a5c83-9006-49af-bdd9-090cfce3dc6e","system_id":"levelo_inurba_marseille","lat":43.27378,"lon":5.36248,"is_reserved":false,"is_disabled":false,"rental_uris":{"android":"levelo://app?vid=a48a5c83-9006-49af-bdd9-090cfce3dc6e","ios":"levelo://app?vid=a48a5c83-9006-49af-bdd9-090cfce3dc6e"},"vehicle_type_id":"4","last_reported":1753888320,"current_range_meters":16400,"station_id":"ce4bhbh2rcd13ifvqeo0","pricing_plan_id":"cebpf4jnsgd1na2vs0mg"},{"bike_id":"52aa1d0d-4466-44b5-a116-ec1102c8f422","system_id":"levelo_inurba_marseille","lat":43.32899,"lon":5.36072,"is_reserved":false,"is_disabled":false,"rental_uris":{"android":"levelo://app?vid=52aa1d0d-4466-44b5-a116-ec1102c8f422","ios":"levelo://app?vid=52aa1d0d-4466-44b5-a116-ec1102c8f422"},"vehicle_type_id":"4","last_reported":1753888320,"current_range_meters":16400,"station_id":"","pricing_plan_id":"cebpf4jnsgd1na2vs0mg"},{"bike_id":"0919c60b-1599-4a18-b5e7-8c5cc43233d2","system_id":"levelo_inurba_marseille","lat":43.28857,"lon":5.39311,"is_reserved":false,"is_disabled":false,"rental_uris":{"android":"levelo://app?vid=0919c60b-1599-4a18-b5e7-8c5cc43233d2","ios":"levelo://app?vid=0919c60b-1599-4a18-b5e7-8c5cc43233d2"},"vehicle_type_id":"4","last_reported":1753888320,"current_range_meters":16800,"station_id":"ce4bh2p2rcd13ifvqdi0","pricing_plan_id":"cebpf4jnsgd1na2vs0mg"},{"bike_id":"cd135ec5-1f0e-488f-a7bf-0e94c2e06e6f","system_id":"levelo_inurba_marseille","lat":43.21209,"lon":5.35051,"is_reserved":false,"is_disabled":false,"rental_uris":{"android":"levelo://app?vid=cd135ec5-1f0e-488f-a7bf-0e94c2e06e6f","ios":"levelo://app?vid=cd135ec5-1f0e-488f-a7bf-0e94c2e06e6f"},"vehicle_type_id":"4","last_reported":1753888320,"current_range_meters":16800,"station_id":"st_cvj6sg6p6f1abm77japg","pricing_plan_id":"cebpf4jnsgd1na2vs0mg"},{"bike_id":"42def24e-0a17-4aab-b576-3fa28034a480","system_id":"levelo_inurba_marseille","lat":43.28613,"lon":5.35106,"is_reserved":false,"is_disabled":false,"rental_uris":{"android":"levelo://app?vid=42def24e-0a17-4aab-b576-3fa28034a480","ios":"levelo://app?vid=42def24e-0a17-4aab-b576-3fa28034a480"},"vehicle_type_id":"4","last_reported":1753888320,"current_range_meters":16800,"station_id":"ce4bhch2rcd13ifvqeug","pricing_plan_id":"cebpf4jnsgd1na2vs0mg"},{"bike_id":"fa3aaadb-2999-4c99-ad0b-eff3f9ff3b2b","system_id":"levelo_inurba_marseille","lat":43.30306,"lon":5.3691,"is_reserved":false,"is_disabled":false,"rental_uris":{"android":"levelo://app?vid=fa3aaadb-2999-4c99-ad0b-eff3f9ff3b2b","ios":"levelo://app?vid=fa3aaadb-2999-4c99-ad0b-eff3f9ff3b2b"},"vehicle_type_id":"4","last_reported":1753888320,"current_range_meters":16800,"station_id":"ce4bgqh2rcd13ifvqc5g","pricing_plan_id":"cebpf4jnsgd1na2vs0mg"},{"bike_id":"7e59fc49-9584-4566-b5b5-bc2b7b34669e","system_id":"levelo_inurba_marseille","lat":43.28409,"lon":5.37507,"is_reserved":false,"is_disabled":false,"rental_uris":{"android":"levelo://app?vid=7e59fc49-9584-4566-b5b5-bc2b7b34669e","ios":"levelo://app?vid=7e59fc49-9584-4566-b5b5-bc2b7b34669e"},"vehicle_type_id":"4","last_reported":1753888320,"current_range_meters":16800,"station_id":"ce4bh412rcd13ifvqds0","pricing_plan_id":"cebpf4jnsgd1na2vs0mg"},{"bike_id":"d1fb9e28-f961-4809-b2a0-53ee553824e7","system_id":"levelo_inurba_marseille","lat":43.30144,"lon":5.38087,"is_reserved":false,"is_disabled":false,"rental_uris":{"android":"levelo://app?vid=d1fb9e28-f961-4809-b2a0-53ee553824e7","ios":"levelo://app?vid=d1fb9e28-f961-4809-b2a0-53ee553824e7"},"vehicle_type_id":"4","last_reported":1753888320,"current_range_meters":17200,"station_id":"ce4bgjp2rcd13ifvqbh0","pricing_plan_id":"cebpf4jnsgd1na2vs0mg"},{"bike_id":"85571ceb-5dfe-407f-a57f-e3e4a5c0e31a","system_id":"levelo_inurba_marseille","lat":43.241648,"lon":5.39692,"is_reserved":false,"is_disabled":false,"rental_uris":{"android":"levelo://app?vid=85571ceb-5dfe-407f-a57f-e3e4a5c0e31a","ios":"levelo://app?vid=85571ceb-5dfe-407f-a57f-e3e4a5c0e31a"},"vehicle_type_id":"4","last_reported":1753888320,"current_range_meters":17200,"station_id":"ce4bhn12rcd13ifvqgpg","pricing_plan_id":"cebpf4jnsgd1na2vs0mg"},{"bike_id":"5672b545-467c-4b90-9ce0-8b09b0fac6eb","system_id":"levelo_inurba_marseille","lat":43.2417,"lon":5.36397,"is_reserved":false,"is_disabled":false,"rental_uris":{"android":"levelo://app?vid=5672b545-467c-4b90-9ce0-8b09b0fac6eb","ios":"levelo://app?vid=5672b545-467c-4b90-9ce0-8b09b0fac6eb"},"vehicle_type_id":"4","last_reported":1753888320,"current_range_meters":17200,"station_id":"cpo36qri1sfpv3e86is0","pricing_plan_id":"cebpf4jnsgd1na2vs0mg"},{"bike_id":"4c2576f3-5f3f-49d0-9ce3-b17e5768bc2e","system_id":"levelo_inurba_marseille","lat":43.31169,"lon":5.38719,"is_reserved":false,"is_disabled":false,"rental_uris":{"android":"levelo://app?vid=4c2576f3-5f3f-49d0-9ce3-b17e5768bc2e","ios":"levelo://app?vid=4c2576f3-5f3f-49d0-9ce3-b17e5768bc2e"},"vehicle_type_id":"4","last_reported":1753888320,"current_range_meters":17200,"station_id":"ce4bgv12rcd13ifvqcp0","pricing_plan_id":"cebpf4jnsgd1na2vs0mg"},{"bike_id":"a8bb325e-fced-474d-adcd-a25f64016430","system_id":"levelo_inurba_marseille","lat":43.22517,"lon":5.34768,"is_reserved":false,"is_disabled":false,"rental_uris":{"android":"levelo://app?vid=a8bb325e-fced-474d-adcd-a25f64016430","ios":"levelo://app?vid=a8bb325e-fced-474d-adcd-a25f64016430"},"vehicle_type_id":"4","last_reported":1753888320,"current_range_meters":17200,"station_id":"","pricing_plan_id":"cebpf4jnsgd1na2vs0mg"},{"bike_id":"be4e370a-d26c-4e60-a38e-3686ec03083e","system_id":"levelo_inurba_marseille","lat":43.2931,"lon":5.37186,"is_reserved":false,"is_disabled":false,"rental_uris":{"android":"levelo://app?vid=be4e370a-d26c-4e60-a38e-3686ec03083e","ios":"levelo://app?vid=be4e370a-d26c-4e60-a38e-3686ec03083e"},"vehicle_type_id":"4","last_reported":1753888320,"current_range_meters":17200,"station_id":"ce4bgh92rcd13ifvqb40","pricing_plan_id":"cebpf4jnsgd1na2vs0mg"},{"bike_id":"e0b7cca9-a1e4-4c41-8dd5-0c08c31f86d8","system_id":"levelo_inurba_marseille","lat":43.27387,"lon":5.36254,"is_reserved":false,"is_disabled":false,"rental_uris":{"android":"levelo://app?vid=e0b7cca9-a1e4-4c41-8dd5-0c08c31f86d8","ios":"levelo://app?vid=e0b7cca9-a1e4-4c41-8dd5-0c08c31f86d8"},"vehicle_type_id":"4","last_reported":1753888320,"current_range_meters":17200,"station_id":"ce4bhbh2rcd13ifvqeo0","pricing_plan_id":"cebpf4jnsgd1na2vs0mg"},{"bike_id":"08ca8ae8-b77c-49d8-b9a3-9de07830275f","system_id":"levelo_inurba_marseille","lat":43.2748,"lon":5.42468,"is_reserved":false,"is_disabled":false,"rental_uris":{"android":"levelo://app?vid=08ca8ae8-b77c-49d8-b9a3-9de07830275f","ios":"levelo://app?vid=08ca8ae8-b77c-49d8-b9a3-9de07830275f"},"vehicle_type_id":"4","last_reported":1753888320,"current_range_meters":17200,"station_id":"ce4bhn92rcd13ifvqgrg","pricing_plan_id":"cebpf4jnsgd1na2vs0mg"},{"bike_id":"d1ef298e-87b7-47a5-aaec-79fd9c0baa71","system_id":"levelo_inurba_marseille","lat":43.24831,"lon":5.3743,"is_reserved":false,"is_disabled":false,"rental_uris":{"android":"levelo://app?vid=d1ef298e-87b7-47a5-aaec-79fd9c0baa71","ios":"levelo://app?vid=d1ef298e-87b7-47a5-aaec-79fd9c0baa71"},"vehicle_type_id":"4","last_reported":1753888320,"current_range_meters":17200,"station_id":"ce4bhgh2rcd13ifvqfb0","pricing_plan_id":"cebpf4jnsgd1na2vs0mg"},{"bike_id":"34be742c-6e59-4c4c-a509-950f8293f589","system_id":"levelo_inurba_marseille","lat":43.229199,"lon":5.354015,"is_reserved":false,"is_disabled":false,"rental_uris":{"android":"levelo://app?vid=34be742c-6e59-4c4c-a509-950f8293f589","ios":"levelo://app?vid=34be742c-6e59-4c4c-a509-950f8293f589"},"vehicle_type_id":"4","last_reported":1753888320,"current_range_meters":17200,"station_id":"cpo3532slgdg3j2ikp40","pricing_plan_id":"cebpf4jnsgd1na2vs0mg"},{"bike_id":"82421548-9820-4ad4-b3c2-dfb64180eb25","system_id":"levelo_inurba_marseille","lat":43.21193,"lon":5.35075,"is_reserved":false,"is_disabled":false,"rental_uris":{"android":"levelo://app?vid=82421548-9820-4ad4-b3c2-dfb64180eb25","ios":"levelo://app?vid=82421548-9820-4ad4-b3c2-dfb64180eb25"},"vehicle_type_id":"4","last_reported":1753888320,"current_range_meters":17200,"station_id":"st_cvj6sg6p6f1abm77japg","pricing_plan_id":"cebpf4jnsgd1na2vs0mg"},{"bike_id":"61ce16ec-9adf-465d-b350-68a3ac024d37","system_id":"levelo_inurba_marseille","lat":43.24166,"lon":5.39691,"is_reserved":false,"is_disabled":false,"rental_uris":{"android":"levelo://app?vid=61ce16ec-9adf-465d-b350-68a3ac024d37","ios":"levelo://app?vid=61ce16ec-9adf-465d-b350-68a3ac024d37"},"vehicle_type_id":"4","last_reported":1753888320,"current_range_meters":17200,"station_id":"ce4bhn12rcd13ifvqgpg","pricing_plan_id":"cebpf4jnsgd1na2vs0mg"},{"bike_id":"9f5fba08-5d1a-4a60-9f27-a4f6e760f703","system_id":"levelo_inurba_marseille","lat":43.323628,"lon":5.367642,"is_reserved":false,"is_disabled":false,"rental_uris":{"android":"levelo://app?vid=9f5fba08-5d1a-4a60-9f27-a4f6e760f703","ios":"levelo://app?vid=9f5fba08-5d1a-4a60-9f27-a4f6e760f703"},"vehicle_type_id":"4","last_reported":1753888320,"current_range_meters":17600,"station_id":"ce4bhsh2rcd13ifvqi2g","pricing_plan_id":"cebpf4jnsgd1na2vs0mg"},{"bike_id":"4b5f0d4d-2be5-430d-b665-9b5d98660f05","system_id":"levelo_inurba_marseille","lat":43.29004,"lon":5.35608,"is_reserved":false,"is_disabled":false,"rental_uris":{"android":"levelo://app?vid=4b5f0d4d-2be5-430d-b665-9b5d98660f05","ios":"levelo://app?vid=4b5f0d4d-2be5-430d-b665-9b5d98660f05"},"vehicle_type_id":"4","last_reported":1753888320,"current_range_meters":17600,"station_id":"ce4bhb92rcd13ifvqen0","pricing_plan_id":"cebpf4jnsgd1na2vs0mg"},{"bike_id":"dde14108-bfb5-4f3f-860a-ebec75a4170c","system_id":"levelo_inurba_marseille","lat":43.28615,"lon":5.35105,"is_reserved":false,"is_disabled":false,"rental_uris":{"android":"levelo://app?vid=dde14108-bfb5-4f3f-860a-ebec75a4170c","ios":"levelo://app?vid=dde14108-bfb5-4f3f-860a-ebec75a4170c"},"vehicle_type_id":"4","last_reported":1753888320,"current_range_meters":17600,"station_id":"ce4bhch2rcd13ifvqeug","pricing_plan_id":"cebpf4jnsgd1na2vs0mg"},{"bike_id":"2093a2b7-8bbc-4356-896c-88cd021ab676","system_id":"levelo_inurba_marseille","lat":43.286156,"lon":5.351066,"is_reserved":false,"is_disabled":false,"rental_uris":{"android":"levelo://app?vid=2093a2b7-8bbc-4356-896c-88cd021ab676","ios":"levelo://app?vid=2093a2b7-8bbc-4356-896c-88cd021ab676"},"vehicle_type_id":"4","last_reported":1753888320,"current_range_meters":17600,"station_id":"ce4bhch2rcd13ifvqeug","pricing_plan_id":"cebpf4jnsgd1na2vs0mg"},{"bike_id":"2ee11309-b128-4167-9754-7af3a2439b0e","system_id":"levelo_inurba_marseille","lat":43.241644,"lon":5.363893,"is_reserved":false,"is_disabled":false,"rental_uris":{"android":"levelo://app?vid=2ee11309-b128-4167-9754-7af3a2439b0e","ios":"levelo://app?vid=2ee11309-b128-4167-9754-7af3a2439b0e"},"vehicle_type_id":"4","last_reported":1753888320,"current_range_meters":17600,"station_id":"cpo36qri1sfpv3e86is0","pricing_plan_id":"cebpf4jnsgd1na2vs0mg"},{"bike_id":"6f945904-e30e-4baa-be01-1bd0424776dc","system_id":"levelo_inurba_marseille","lat":43.231922,"lon":5.35568,"is_reserved":false,"is_disabled":false,"rental_uris":{"android":"levelo://app?vid=6f945904-e30e-4baa-be01-1bd0424776dc","ios":"levelo://app?vid=6f945904-e30e-4baa-be01-1bd0424776dc"},"vehicle_type_id":"4","last_reported":1753888320,"current_range_meters":17600,"station_id":"ce4bhu92rcd13ifvqi70","pricing_plan_id":"cebpf4jnsgd1na2vs0mg"},{"bike_id":"6c6cd3ce-d4ae-40ca-9b77-356c74c41b68","system_id":"levelo_inurba_marseille","lat":43.27565,"lon":5.3841,"is_reserved":false,"is_disabled":false,"rental_uris":{"android":"levelo://app?vid=6c6cd3ce-d4ae-40ca-9b77-356c74c41b68","ios":"levelo://app?vid=6c6cd3ce-d4ae-40ca-9b77-356c74c41b68"},"vehicle_type_id":"4","last_reported":1753888320,"current_range_meters":18000,"station_id":"ce4bhh92rcd13ifvqfi0","pricing_plan_id":"cebpf4jnsgd1na2vs0mg"},{"bike_id":"2f55d4f4-e017-494b-83ef-a61716d381e4","system_id":"levelo_inurba_marseille","lat":43.24166,"lon":5.36404,"is_reserved":false,"is_disabled":false,"rental_uris":{"android":"levelo://app?vid=2f55d4f4-e017-494b-83ef-a61716d381e4","ios":"levelo://app?vid=2f55d4f4-e017-494b-83ef-a61716d381e4"},"vehicle_type_id":"4","last_reported":1753888320,"current_range_meters":18000,"station_id":"cpo36qri1sfpv3e86is0","pricing_plan_id":"cebpf4jnsgd1na2vs0mg"},{"bike_id":"f605ff71-c624-4936-a518-95ee9acc86fd","system_id":"levelo_inurba_marseille","lat":43.22494,"lon":5.34821,"is_reserved":false,"is_disabled":false,"rental_uris":{"android":"levelo://app?vid=f605ff71-c624-4936-a518-95ee9acc86fd","ios":"levelo://app?vid=f605ff71-c624-4936-a518-95ee9acc86fd"},"vehicle_type_id":"4","last_reported":1753888320,"current_range_meters":18000,"station_id":"st_cvj5dfep6f1abm77gieg","pricing_plan_id":"cebpf4jnsgd1na2vs0mg"},{"bike_id":"bc2051c9-10da-416b-83df-7c5580970150","system_id":"levelo_inurba_marseille","lat":43.2893,"lon":5.36644,"is_reserved":false,"is_disabled":false,"rental_uris":{"android":"levelo://app?vid=bc2051c9-10da-416b-83df-7c5580970150","ios":"levelo://app?vid=bc2051c9-10da-416b-83df-7c5580970150"},"vehicle_type_id":"4","last_reported":1753888320,"current_range_meters":18000,"station_id":"ce4bhap2rcd13ifvqek0","pricing_plan_id":"cebpf4jnsgd1na2vs0mg"},{"bike_id":"b565b853-9616-4ab3-9cae-8b1d09dd4831","system_id":"levelo_inurba_marseille","lat":43.22506,"lon":5.34773,"is_reserved":false,"is_disabled":false,"rental_uris":{"android":"levelo://app?vid=b565b853-9616-4ab3-9cae-8b1d09dd4831","ios":"levelo://app?vid=b565b853-9616-4ab3-9cae-8b1d09dd4831"},"vehicle_type_id":"4","last_reported":1753888320,"current_range_meters":18000,"station_id":"st_cvj5dfep6f1abm77gieg","pricing_plan_id":"cebpf4jnsgd1na2vs0mg"},{"bike_id":"a4d3c2bc-3c58-4836-9ee8-017766644c24","system_id":"levelo_inurba_marseille","lat":43.2937,"lon":5.37856,"is_reserved":false,"is_disabled":false,"rental_uris":{"android":"levelo://app?vid=a4d3c2bc-3c58-4836-9ee8-017766644c24","ios":"levelo://app?vid=a4d3c2bc-3c58-4836-9ee8-017766644c24"},"vehicle_type_id":"4","last_reported":1753888320,"current_range_meters":18000,"station_id":"ce4bgjh2rcd13ifvqbf0","pricing_plan_id":"cebpf4jnsgd1na2vs0mg"},{"bike_id":"64235ca2-2444-40a0-bd0f-fc13f00f9659","system_id":"levelo_inurba_marseille","lat":43.21747,"lon":5.34604,"is_reserved":false,"is_disabled":false,"rental_uris":{"android":"levelo://app?vid=64235ca2-2444-40a0-bd0f-fc13f00f9659","ios":"levelo://app?vid=64235ca2-2444-40a0-bd0f-fc13f00f9659"},"vehicle_type_id":"4","last_reported":1753888320,"current_range_meters":18000,"station_id":"st_cvj6r9ubvosntc0bgbag","pricing_plan_id":"cebpf4jnsgd1na2vs0mg"},{"bike_id":"635376a1-5d0c-4821-bf1a-f4af997a9af6","system_id":"levelo_inurba_marseille","lat":43.2885,"lon":5.3585,"is_reserved":false,"is_disabled":false,"rental_uris":{"android":"levelo://app?vid=635376a1-5d0c-4821-bf1a-f4af997a9af6","ios":"levelo://app?vid=635376a1-5d0c-4821-bf1a-f4af997a9af6"},"vehicle_type_id":"4","last_reported":1753888320,"current_range_meters":18000,"station_id":"ce4bhb12rcd13ifvqem0","pricing_plan_id":"cebpf4jnsgd1na2vs0mg"},{"bike_id":"55bf355c-8c8a-4339-b38b-30b6f9dd8dd7","system_id":"levelo_inurba_marseille","lat":43.28616,"lon":5.35089,"is_reserved":false,"is_disabled":false,"rental_uris":{"android":"levelo://app?vid=55bf355c-8c8a-4339-b38b-30b6f9dd8dd7","ios":"levelo://app?vid=55bf355c-8c8a-4339-b38b-30b6f9dd8dd7"},"vehicle_type_id":"4","last_reported":1753888320,"current_range_meters":18000,"station_id":"ce4bhch2rcd13ifvqeug","pricing_plan_id":"cebpf4jnsgd1na2vs0mg"},{"bike_id":"a680cfd1-5b43-4211-9ae3-0ecb95596e08","system_id":"levelo_inurba_marseille","lat":43.28623,"lon":5.35097,"is_reserved":false,"is_disabled":false,"rental_uris":{"android":"levelo://app?vid=a680cfd1-5b43-4211-9ae3-0ecb95596e08","ios":"levelo://app?vid=a680cfd1-5b43-4211-9ae3-0ecb95596e08"},"vehicle_type_id":"4","last_reported":1753888320,"current_range_meters":18000,"station_id":"ce4bhch2rcd13ifvqeug","pricing_plan_id":"cebpf4jnsgd1na2vs0mg"},{"bike_id":"c48e6e64-9d08-4fca-a774-7cc6169cfde3","system_id":"levelo_inurba_marseille","lat":43.29826,"lon":5.38337,"is_reserved":false,"is_disabled":false,"rental_uris":{"android":"levelo://app?vid=c48e6e64-9d08-4fca-a774-7cc6169cfde3","ios":"levelo://app?vid=c48e6e64-9d08-4fca-a774-7cc6169cfde3"},"vehicle_type_id":"4","last_reported":1753888320,"current_range_meters":18800,"station_id":"","pricing_plan_id":"cebpf4jnsgd1na2vs0mg"},{"bike_id":"e48d15e8-73e9-4c75-b463-f8136db77abd","system_id":"levelo_inurba_marseille","lat":43.27377,"lon":5.36254,"is_reserved":false,"is_disabled":false,"rental_uris":{"android":"levelo://app?vid=e48d15e8-73e9-4c75-b463-f8136db77abd","ios":"levelo://app?vid=e48d15e8-73e9-4c75-b463-f8136db77abd"},"vehicle_type_id":"4","last_reported":1753888320,"current_range_meters":18800,"station_id":"ce4bhbh2rcd13ifvqeo0","pricing_plan_id":"cebpf4jnsgd1na2vs0mg"},{"bike_id":"adf1e8b2-7720-4523-af36-c26fd6f78611","system_id":"levelo_inurba_marseille","lat":43.267836,"lon":5.394215,"is_reserved":false,"is_disabled":false,"rental_uris":{"android":"levelo://app?vid=adf1e8b2-7720-4523-af36-c26fd6f78611","ios":"levelo://app?vid=adf1e8b2-7720-4523-af36-c26fd6f78611"},"vehicle_type_id":"4","last_reported":1753888320,"current_range_meters":18800,"station_id":"ce4bhh12rcd13ifvqfg0","pricing_plan_id":"cebpf4jnsgd1na2vs0mg"},{"bike_id":"63935d37-5768-4aec-86eb-9234c0019860","system_id":"levelo_inurba_marseille","lat":43.29592,"lon":5.36736,"is_reserved":false,"is_disabled":false,"rental_uris":{"android":"levelo://app?vid=63935d37-5768-4aec-86eb-9234c0019860","ios":"levelo://app?vid=63935d37-5768-4aec-86eb-9234c0019860"},"vehicle_type_id":"4","last_reported":1753888320,"current_range_meters":18800,"station_id":"ce4bgph2rcd13ifvqc2g","pricing_plan_id":"cebpf4jnsgd1na2vs0mg"},{"bike_id":"4f311b95-16d0-4152-9b03-677da880350c","system_id":"levelo_inurba_marseille","lat":43.23938,"lon":5.36655,"is_reserved":false,"is_disabled":false,"rental_uris":{"android":"levelo://app?vid=4f311b95-16d0-4152-9b03-677da880350c","ios":"levelo://app?vid=4f311b95-16d0-4152-9b03-677da880350c"},"vehicle_type_id":"4","last_reported":1753888320,"current_range_meters":18800,"station_id":"ce4bhi12rcd13ifvqfp0","pricing_plan_id":"cebpf4jnsgd1na2vs0mg"},{"bike_id":"412bd482-58ca-447a-9c38-c17bfb84c265","system_id":"levelo_inurba_marseille","lat":43.21758,"lon":5.34598,"is_reserved":false,"is_disabled":false,"rental_uris":{"android":"levelo://app?vid=412bd482-58ca-447a-9c38-c17bfb84c265","ios":"levelo://app?vid=412bd482-58ca-447a-9c38-c17bfb84c265"},"vehicle_type_id":"4","last_reported":1753888320,"current_range_meters":18800,"station_id":"st_cvj6r9ubvosntc0bgbag","pricing_plan_id":"cebpf4jnsgd1na2vs0mg"},{"bike_id":"d0e68786-d337-4e6e-9ee9-8bd9daa48758","system_id":"levelo_inurba_marseille","lat":43.24816,"lon":5.37455,"is_reserved":false,"is_disabled":false,"rental_uris":{"android":"levelo://app?vid=d0e68786-d337-4e6e-9ee9-8bd9daa48758","ios":"levelo://app?vid=d0e68786-d337-4e6e-9ee9-8bd9daa48758"},"vehicle_type_id":"4","last_reported":1753888320,"current_range_meters":18800,"station_id":"ce4bhgh2rcd13ifvqfb0","pricing_plan_id":"cebpf4jnsgd1na2vs0mg"},{"bike_id":"20782440-32e2-4e26-a85a-d8b01db73401","system_id":"levelo_inurba_marseille","lat":43.24171,"lon":5.36393,"is_reserved":false,"is_disabled":false,"rental_uris":{"android":"levelo://app?vid=20782440-32e2-4e26-a85a-d8b01db73401","ios":"levelo://app?vid=20782440-32e2-4e26-a85a-d8b01db73401"},"vehicle_type_id":"4","last_reported":1753888320,"current_range_meters":18800,"station_id":"cpo36qri1sfpv3e86is0","pricing_plan_id":"cebpf4jnsgd1na2vs0mg"},{"bike_id":"572af9bc-8afd-4bd2-9fef-834a531a85c7","system_id":"levelo_inurba_marseille","lat":43.29865,"lon":5.3973,"is_reserved":false,"is_disabled":false,"rental_uris":{"android":"levelo://app?vid=572af9bc-8afd-4bd2-9fef-834a531a85c7","ios":"levelo://app?vid=572af9bc-8afd-4bd2-9fef-834a531a85c7"},"vehicle_type_id":"4","last_reported":1753888320,"current_range_meters":18800,"station_id":"ce4bh0h2rcd13ifvqd50","pricing_plan_id":"cebpf4jnsgd1na2vs0mg"},{"bike_id":"beca29cd-ca74-4788-b172-44f99ff38831","system_id":"levelo_inurba_marseille","lat":43.29796,"lon":5.40402,"is_reserved":false,"is_disabled":false,"rental_uris":{"android":"levelo://app?vid=beca29cd-ca74-4788-b172-44f99ff38831","ios":"levelo://app?vid=beca29cd-ca74-4788-b172-44f99ff38831"},"vehicle_type_id":"4","last_reported":1753888320,"current_range_meters":18800,"station_id":"ce4bh112rcd13ifvqd90","pricing_plan_id":"cebpf4jnsgd1na2vs0mg"},{"bike_id":"ae9b0dc1-8464-425a-ada5-b8d7aa445a9f","system_id":"levelo_inurba_marseille","lat":43.22504,"lon":5.3477,"is_reserved":false,"is_disabled":false,"rental_uris":{"android":"levelo://app?vid=ae9b0dc1-8464-425a-ada5-b8d7aa445a9f","ios":"levelo://app?vid=ae9b0dc1-8464-425a-ada5-b8d7aa445a9f"},"vehicle_type_id":"4","last_reported":1753888320,"current_range_meters":18800,"station_id":"st_cvj5dfep6f1abm77gieg","pricing_plan_id":"cebpf4jnsgd1na2vs0mg"},{"bike_id":"5dfc7ccc-a2cb-41dd-93be-96a443b2c64c","system_id":"levelo_inurba_marseille","lat":43.28391,"lon":5.34985,"is_reserved":false,"is_disabled":false,"rental_uris":{"android":"levelo://app?vid=5dfc7ccc-a2cb-41dd-93be-96a443b2c64c","ios":"levelo://app?vid=5dfc7ccc-a2cb-41dd-93be-96a443b2c64c"},"vehicle_type_id":"4","last_reported":1753888320,"current_range_meters":18800,"station_id":"ce4bhbh2rcd13ifvqepg","pricing_plan_id":"cebpf4jnsgd1na2vs0mg"},{"bike_id":"02ba587b-fdc4-4538-91bf-a3fcb628a435","system_id":"levelo_inurba_marseille","lat":43.34619,"lon":5.44891,"is_reserved":false,"is_disabled":false,"rental_uris":{"android":"levelo://app?vid=02ba587b-fdc4-4538-91bf-a3fcb628a435","ios":"levelo://app?vid=02ba587b-fdc4-4538-91bf-a3fcb628a435"},"vehicle_type_id":"4","last_reported":1753888320,"current_range_meters":18800,"station_id":"","pricing_plan_id":"cebpf4jnsgd1na2vs0mg"},{"bike_id":"eb222de6-87a7-4fc6-92e8-d4154e846895","system_id":"levelo_inurba_marseille","lat":43.22929,"lon":5.35382,"is_reserved":false,"is_disabled":false,"rental_uris":{"android":"levelo://app?vid=eb222de6-87a7-4fc6-92e8-d4154e846895","ios":"levelo://app?vid=eb222de6-87a7-4fc6-92e8-d4154e846895"},"vehicle_type_id":"4","last_reported":1753888320,"current_range_meters":18800,"station_id":"cpo3532slgdg3j2ikp40","pricing_plan_id":"cebpf4jnsgd1na2vs0mg"},{"bike_id":"011fd654-e76c-4060-82ef-48cab0762fbe","system_id":"levelo_inurba_marseille","lat":43.22952,"lon":5.35362,"is_reserved":false,"is_disabled":false,"rental_uris":{"android":"levelo://app?vid=011fd654-e76c-4060-82ef-48cab0762fbe","ios":"levelo://app?vid=011fd654-e76c-4060-82ef-48cab0762fbe"},"vehicle_type_id":"4","last_reported":1753888320,"current_range_meters":18800,"station_id":"cpo3532slgdg3j2ikp40","pricing_plan_id":"cebpf4jnsgd1na2vs0mg"},{"bike_id":"5df141b0-927f-4aaf-b7ac-e255c51a1ed9","system_id":"levelo_inurba_marseille","lat":43.24183,"lon":5.39721,"is_reserved":false,"is_disabled":false,"rental_uris":{"android":"levelo://app?vid=5df141b0-927f-4aaf-b7ac-e255c51a1ed9","ios":"levelo://app?vid=5df141b0-927f-4aaf-b7ac-e255c51a1ed9"},"vehicle_type_id":"4","last_reported":1753888320,"current_range_meters":19200,"station_id":"ce4bhn12rcd13ifvqgpg","pricing_plan_id":"cebpf4jnsgd1na2vs0mg"},{"bike_id":"2b373b32-5566-476b-b09a-c11fd0c5b5e1","system_id":"levelo_inurba_marseille","lat":43.30144,"lon":5.38066,"is_reserved":false,"is_disabled":false,"rental_uris":{"android":"levelo://app?vid=2b373b32-5566-476b-b09a-c11fd0c5b5e1","ios":"levelo://app?vid=2b373b32-5566-476b-b09a-c11fd0c5b5e1"},"vehicle_type_id":"4","last_reported":1753888320,"current_range_meters":19200,"station_id":"ce4bgjp2rcd13ifvqbh0","pricing_plan_id":"cebpf4jnsgd1na2vs0mg"},{"bike_id":"03780cff-a34f-4463-89ad-309e50413149","system_id":"levelo_inurba_marseille","lat":43.31202,"lon":5.378024,"is_reserved":false,"is_disabled":false,"rental_uris":{"android":"levelo://app?vid=03780cff-a34f-4463-89ad-309e50413149","ios":"levelo://app?vid=03780cff-a34f-4463-89ad-309e50413149"},"vehicle_type_id":"4","last_reported":1753888320,"current_range_meters":19200,"station_id":"","pricing_plan_id":"cebpf4jnsgd1na2vs0mg"},{"bike_id":"61f3940c-619f-4300-bf37-a246e49ad867","system_id":"levelo_inurba_marseille","lat":43.3065,"lon":5.40098,"is_reserved":false,"is_disabled":false,"rental_uris":{"android":"levelo://app?vid=61f3940c-619f-4300-bf37-a246e49ad867","ios":"levelo://app?vid=61f3940c-619f-4300-bf37-a246e49ad867"},"vehicle_type_id":"4","last_reported":1753888320,"current_range_meters":19200,"station_id":"ce4bh112rcd13ifvqda0","pricing_plan_id":"cebpf4jnsgd1na2vs0mg"},{"bike_id":"5bb4d39e-4f4c-46d3-bd03-6a343c5eff9b","system_id":"levelo_inurba_marseille","lat":43.23188,"lon":5.39984,"is_reserved":false,"is_disabled":false,"rental_uris":{"android":"levelo://app?vid=5bb4d39e-4f4c-46d3-bd03-6a343c5eff9b","ios":"levelo://app?vid=5bb4d39e-4f4c-46d3-bd03-6a343c5eff9b"},"vehicle_type_id":"4","last_reported":1753888320,"current_range_meters":19200,"station_id":"ce4bhn12rcd13ifvqgqg","pricing_plan_id":"cebpf4jnsgd1na2vs0mg"},{"bike_id":"f28fd049-0d74-4420-9a84-4b4010164f06","system_id":"levelo_inurba_marseille","lat":43.324897,"lon":5.365613,"is_reserved":false,"is_disabled":false,"rental_uris":{"android":"levelo://app?vid=f28fd049-0d74-4420-9a84-4b4010164f06","ios":"levelo://app?vid=f28fd049-0d74-4420-9a84-4b4010164f06"},"vehicle_type_id":"4","last_reported":1753888320,"current_range_meters":19200,"station_id":"ce4bhs12rcd13ifvqhvg","pricing_plan_id":"cebpf4jnsgd1na2vs0mg"},{"bike_id":"7c3cdc21-91df-48ec-89d5-d07285749161","system_id":"levelo_inurba_marseille","lat":43.30351,"lon":5.41882,"is_reserved":false,"is_disabled":false,"rental_uris":{"android":"levelo://app?vid=7c3cdc21-91df-48ec-89d5-d07285749161","ios":"levelo://app?vid=7c3cdc21-91df-48ec-89d5-d07285749161"},"vehicle_type_id":"4","last_reported":1753888320,"current_range_meters":18800,"station_id":"ce4bhop2rcd13ifvqh7g","pricing_plan_id":"cebpf4jnsgd1na2vs0mg"},{"bike_id":"27e3af3a-615b-4cc9-8468-7f9a0e895f93","system_id":"levelo_inurba_marseille","lat":43.30534,"lon":5.36718,"is_reserved":false,"is_disabled":false,"rental_uris":{"android":"levelo://app?vid=27e3af3a-615b-4cc9-8468-7f9a0e895f93","ios":"levelo://app?vid=27e3af3a-615b-4cc9-8468-7f9a0e895f93"},"vehicle_type_id":"4","last_reported":1753888320,"current_range_meters":19200,"station_id":"ce4bgrp2rcd13ifvqc9g","pricing_plan_id":"cebpf4jnsgd1na2vs0mg"},{"bike_id":"2e4d12bc-0ebf-428f-9e6a-810ce92434ef","system_id":"levelo_inurba_marseille","lat":43.24403,"lon":5.37051,"is_reserved":false,"is_disabled":false,"rental_uris":{"android":"levelo://app?vid=2e4d12bc-0ebf-428f-9e6a-810ce92434ef","ios":"levelo://app?vid=2e4d12bc-0ebf-428f-9e6a-810ce92434ef"},"vehicle_type_id":"4","last_reported":1753888320,"current_range_meters":19200,"station_id":"ce4bhhh2rcd13ifvqfk0","pricing_plan_id":"cebpf4jnsgd1na2vs0mg"},{"bike_id":"501fe082-6c32-4a24-80fd-4833724e8426","system_id":"levelo_inurba_marseille","lat":43.30588,"lon":5.37415,"is_reserved":false,"is_disabled":false,"rental_uris":{"android":"levelo://app?vid=501fe082-6c32-4a24-80fd-4833724e8426","ios":"levelo://app?vid=501fe082-6c32-4a24-80fd-4833724e8426"},"vehicle_type_id":"4","last_reported":1753888320,"current_range_meters":19200,"station_id":"","pricing_plan_id":"cebpf4jnsgd1na2vs0mg"},{"bike_id":"5948f065-68ac-462c-92d2-41f3315f5803","system_id":"levelo_inurba_marseille","lat":43.29512,"lon":5.39031,"is_reserved":false,"is_disabled":false,"rental_uris":{"android":"levelo://app?vid=5948f065-68ac-462c-92d2-41f3315f5803","ios":"levelo://app?vid=5948f065-68ac-462c-92d2-41f3315f5803"},"vehicle_type_id":"4","last_reported":1753888320,"current_range_meters":19200,"station_id":"ce4bh3p2rcd13ifvqdp0","pricing_plan_id":"cebpf4jnsgd1na2vs0mg"},{"bike_id":"b57b1d42-1fcd-43a8-83a7-43baf503bd6b","system_id":"levelo_inurba_marseille","lat":43.30643,"lon":5.40086,"is_reserved":false,"is_disabled":false,"rental_uris":{"android":"levelo://app?vid=b57b1d42-1fcd-43a8-83a7-43baf503bd6b","ios":"levelo://app?vid=b57b1d42-1fcd-43a8-83a7-43baf503bd6b"},"vehicle_type_id":"4","last_reported":1753888320,"current_range_meters":19200,"station_id":"ce4bh112rcd13ifvqda0","pricing_plan_id":"cebpf4jnsgd1na2vs0mg"},{"bike_id":"3ab9598e-ab44-4997-b739-8974a16db7bb","system_id":"levelo_inurba_marseille","lat":43.24153,"lon":5.36399,"is_reserved":false,"is_disabled":false,"rental_uris":{"android":"levelo://app?vid=3ab9598e-ab44-4997-b739-8974a16db7bb","ios":"levelo://app?vid=3ab9598e-ab44-4997-b739-8974a16db7bb"},"vehicle_type_id":"4","last_reported":1753888320,"current_range_meters":19600,"station_id":"cpo36qri1sfpv3e86is0","pricing_plan_id":"cebpf4jnsgd1na2vs0mg"},{"bike_id":"d206561f-8dda-4152-865a-094bafe85519","system_id":"levelo_inurba_marseille","lat":43.27916,"lon":5.39577,"is_reserved":false,"is_disabled":false,"rental_uris":{"android":"levelo://app?vid=d206561f-8dda-4152-865a-094bafe85519","ios":"levelo://app?vid=d206561f-8dda-4152-865a-094bafe85519"},"vehicle_type_id":"4","last_reported":1753888320,"current_range_meters":19600,"station_id":"ce4bhf92rcd13ifvqf40","pricing_plan_id":"cebpf4jnsgd1na2vs0mg"},{"bike_id":"71127f8d-571d-4fdc-81b4-42030f8b6da3","system_id":"levelo_inurba_marseille","lat":43.2407,"lon":5.37766,"is_reserved":false,"is_disabled":false,"rental_uris":{"android":"levelo://app?vid=71127f8d-571d-4fdc-81b4-42030f8b6da3","ios":"levelo://app?vid=71127f8d-571d-4fdc-81b4-42030f8b6da3"},"vehicle_type_id":"4","last_reported":1753888320,"current_range_meters":19600,"station_id":"ce4bhnp2rcd13ifvqgvg","pricing_plan_id":"cebpf4jnsgd1na2vs0mg"},{"bike_id":"30b552bc-d5ad-4e1c-ace0-71fd2ce0645d","system_id":"levelo_inurba_marseille","lat":43.28418,"lon":5.34982,"is_reserved":false,"is_disabled":false,"rental_uris":{"android":"levelo://app?vid=30b552bc-d5ad-4e1c-ace0-71fd2ce0645d","ios":"levelo://app?vid=30b552bc-d5ad-4e1c-ace0-71fd2ce0645d"},"vehicle_type_id":"4","last_reported":1753888320,"current_range_meters":19600,"station_id":"ce4bhbh2rcd13ifvqepg","pricing_plan_id":"cebpf4jnsgd1na2vs0mg"},{"bike_id":"73384370-d227-4ce3-a149-6f676aaa5050","system_id":"levelo_inurba_marseille","lat":43.25475,"lon":5.37633,"is_reserved":false,"is_disabled":false,"rental_uris":{"android":"levelo://app?vid=73384370-d227-4ce3-a149-6f676aaa5050","ios":"levelo://app?vid=73384370-d227-4ce3-a149-6f676aaa5050"},"vehicle_type_id":"4","last_reported":1753888320,"current_range_meters":19600,"station_id":"ce4bhh12rcd13ifvqff0","pricing_plan_id":"cebpf4jnsgd1na2vs0mg"},{"bike_id":"a0e5b689-7d6d-4817-8418-5fa3c8b5d204","system_id":"levelo_inurba_marseille","lat":43.27828,"lon":5.40716,"is_reserved":false,"is_disabled":false,"rental_uris":{"android":"levelo://app?vid=a0e5b689-7d6d-4817-8418-5fa3c8b5d204","ios":"levelo://app?vid=a0e5b689-7d6d-4817-8418-5fa3c8b5d204"},"vehicle_type_id":"4","last_reported":1753888320,"current_range_meters":19600,"station_id":"ce4bhnh2rcd13ifvqgtg","pricing_plan_id":"cebpf4jnsgd1na2vs0mg"},{"bike_id":"5b0782b8-53bf-4356-b2f5-a22813ea28d2","system_id":"levelo_inurba_marseille","lat":43.22919,"lon":5.35352,"is_reserved":false,"is_disabled":false,"rental_uris":{"android":"levelo://app?vid=5b0782b8-53bf-4356-b2f5-a22813ea28d2","ios":"levelo://app?vid=5b0782b8-53bf-4356-b2f5-a22813ea28d2"},"vehicle_type_id":"4","last_reported":1753888320,"current_range_meters":20000,"station_id":"cpo3532slgdg3j2ikp40","pricing_plan_id":"cebpf4jnsgd1na2vs0mg"},{"bike_id":"b8a4b0c6-b58e-4eb3-907b-d4e6ddc0a03b","system_id":"levelo_inurba_marseille","lat":43.26588,"lon":5.39028,"is_reserved":false,"is_disabled":false,"rental_uris":{"android":"levelo://app?vid=b8a4b0c6-b58e-4eb3-907b-d4e6ddc0a03b","ios":"levelo://app?vid=b8a4b0c6-b58e-4eb3-907b-d4e6ddc0a03b"},"vehicle_type_id":"4","last_reported":1753888320,"current_range_meters":20000,"station_id":"ce4bhe12rcd13ifvqf30","pricing_plan_id":"cebpf4jnsgd1na2vs0mg"},{"bike_id":"1999e886-c5b9-4e8a-9907-86bccb414610","system_id":"levelo_inurba_marseille","lat":43.2826,"lon":5.35071,"is_reserved":false,"is_disabled":false,"rental_uris":{"android":"levelo://app?vid=1999e886-c5b9-4e8a-9907-86bccb414610","ios":"levelo://app?vid=1999e886-c5b9-4e8a-9907-86bccb414610"},"vehicle_type_id":"4","last_reported":1753888320,"current_range_meters":20000,"station_id":"ce4bhbp2rcd13ifvqerg","pricing_plan_id":"cebpf4jnsgd1na2vs0mg"},{"bike_id":"fe08577d-be4a-4826-8885-8050368cf409","system_id":"levelo_inurba_marseille","lat":43.27491,"lon":5.424589,"is_reserved":false,"is_disabled":false,"rental_uris":{"android":"levelo://app?vid=fe08577d-be4a-4826-8885-8050368cf409","ios":"levelo://app?vid=fe08577d-be4a-4826-8885-8050368cf409"},"vehicle_type_id":"4","last_reported":1753888320,"current_range_meters":20000,"station_id":"ce4bhn92rcd13ifvqgrg","pricing_plan_id":"cebpf4jnsgd1na2vs0mg"},{"bike_id":"9ec2c34f-e63e-483f-b58f-1354823930ad","system_id":"levelo_inurba_marseille","lat":43.29104,"lon":5.3815,"is_reserved":false,"is_disabled":true,"rental_uris":{"android":"levelo://app?vid=9ec2c34f-e63e-483f-b58f-1354823930ad","ios":"levelo://app?vid=9ec2c34f-e63e-483f-b58f-1354823930ad"},"vehicle_type_id":"4","last_reported":1753888320,"current_range_meters":20000,"station_id":"ce4bh512rcd13ifvqe2g","pricing_plan_id":"cebpf4jnsgd1na2vs0mg"},{"bike_id":"db67f714-16bf-434b-90b1-cfcd3ffb3fe3","system_id":"levelo_inurba_marseille","lat":43.30406,"lon":5.38713,"is_reserved":false,"is_disabled":false,"rental_uris":{"android":"levelo://app?vid=db67f714-16bf-434b-90b1-cfcd3ffb3fe3","ios":"levelo://app?vid=db67f714-16bf-434b-90b1-cfcd3ffb3fe3"},"vehicle_type_id":"4","last_reported":1753888320,"current_range_meters":20000,"station_id":"ce4bgk12rcd13ifvqbi0","pricing_plan_id":"cebpf4jnsgd1na2vs0mg"},{"bike_id":"a1a63d9e-0b31-4efc-a832-f1a6a63589bd","system_id":"levelo_inurba_marseille","lat":43.25118,"lon":5.40316,"is_reserved":false,"is_disabled":false,"rental_uris":{"android":"levelo://app?vid=a1a63d9e-0b31-4efc-a832-f1a6a63589bd","ios":"levelo://app?vid=a1a63d9e-0b31-4efc-a832-f1a6a63589bd"},"vehicle_type_id":"4","last_reported":1753888320,"current_range_meters":20000,"station_id":"ce4bhlh2rcd13ifvqgig","pricing_plan_id":"cebpf4jnsgd1na2vs0mg"},{"bike_id":"3f8d70ae-895b-4507-b070-2ff8c80e486f","system_id":"levelo_inurba_marseille","lat":43.241631,"lon":5.363982,"is_reserved":false,"is_disabled":false,"rental_uris":{"android":"levelo://app?vid=3f8d70ae-895b-4507-b070-2ff8c80e486f","ios":"levelo://app?vid=3f8d70ae-895b-4507-b070-2ff8c80e486f"},"vehicle_type_id":"4","last_reported":1753888320,"current_range_meters":20000,"station_id":"cpo36qri1sfpv3e86is0","pricing_plan_id":"cebpf4jnsgd1na2vs0mg"},{"bike_id":"64f258c6-1e92-4dd0-a4f6-11b336a5b138","system_id":"levelo_inurba_marseille","lat":43.22505,"lon":5.34774,"is_reserved":false,"is_disabled":false,"rental_uris":{"android":"levelo://app?vid=64f258c6-1e92-4dd0-a4f6-11b336a5b138","ios":"levelo://app?vid=64f258c6-1e92-4dd0-a4f6-11b336a5b138"},"vehicle_type_id":"4","last_reported":1753888320,"current_range_meters":20000,"station_id":"st_cvj5dfep6f1abm77gieg","pricing_plan_id":"cebpf4jnsgd1na2vs0mg"},{"bike_id":"c9834398-0234-4341-be1a-33121d99aa7a","system_id":"levelo_inurba_marseille","lat":43.28266,"lon":5.35059,"is_reserved":false,"is_disabled":false,"rental_uris":{"android":"levelo://app?vid=c9834398-0234-4341-be1a-33121d99aa7a","ios":"levelo://app?vid=c9834398-0234-4341-be1a-33121d99aa7a"},"vehicle_type_id":"4","last_reported":1753888320,"current_range_meters":20400,"station_id":"ce4bhbp2rcd13ifvqerg","pricing_plan_id":"cebpf4jnsgd1na2vs0mg"},{"bike_id":"96bc0f64-aad7-4223-9d0b-4fce2dd86c0e","system_id":"levelo_inurba_marseille","lat":43.21767,"lon":5.34695,"is_reserved":false,"is_disabled":false,"rental_uris":{"android":"levelo://app?vid=96bc0f64-aad7-4223-9d0b-4fce2dd86c0e","ios":"levelo://app?vid=96bc0f64-aad7-4223-9d0b-4fce2dd86c0e"},"vehicle_type_id":"4","last_reported":1753888320,"current_range_meters":20400,"station_id":"","pricing_plan_id":"cebpf4jnsgd1na2vs0mg"},{"bike_id":"e048e5c5-08a6-49c8-bc2d-45769bced5e7","system_id":"levelo_inurba_marseille","lat":43.231945,"lon":5.355782,"is_reserved":false,"is_disabled":false,"rental_uris":{"android":"levelo://app?vid=e048e5c5-08a6-49c8-bc2d-45769bced5e7","ios":"levelo://app?vid=e048e5c5-08a6-49c8-bc2d-45769bced5e7"},"vehicle_type_id":"4","last_reported":1753888320,"current_range_meters":20400,"station_id":"ce4bhu92rcd13ifvqi70","pricing_plan_id":"cebpf4jnsgd1na2vs0mg"},{"bike_id":"ee294293-b484-40ec-a941-e6b5b62a025b","system_id":"levelo_inurba_marseille","lat":43.21197,"lon":5.35068,"is_reserved":false,"is_disabled":false,"rental_uris":{"android":"levelo://app?vid=ee294293-b484-40ec-a941-e6b5b62a025b","ios":"levelo://app?vid=ee294293-b484-40ec-a941-e6b5b62a025b"},"vehicle_type_id":"4","last_reported":1753888320,"current_range_meters":20400,"station_id":"st_cvj6sg6p6f1abm77japg","pricing_plan_id":"cebpf4jnsgd1na2vs0mg"},{"bike_id":"6a8a1659-0d3d-4e3a-aa41-320d4ece5868","system_id":"levelo_inurba_marseille","lat":43.29151,"lon":5.37917,"is_reserved":false,"is_disabled":false,"rental_uris":{"android":"levelo://app?vid=6a8a1659-0d3d-4e3a-aa41-320d4ece5868","ios":"levelo://app?vid=6a8a1659-0d3d-4e3a-aa41-320d4ece5868"},"vehicle_type_id":"4","last_reported":1753888320,"current_range_meters":20400,"station_id":"","pricing_plan_id":"cebpf4jnsgd1na2vs0mg"},{"bike_id":"c8b472e6-2dd5-49cf-806e-e0b1767631fe","system_id":"levelo_inurba_marseille","lat":43.23054,"lon":5.35494,"is_reserved":false,"is_disabled":false,"rental_uris":{"android":"levelo://app?vid=c8b472e6-2dd5-49cf-806e-e0b1767631fe","ios":"levelo://app?vid=c8b472e6-2dd5-49cf-806e-e0b1767631fe"},"vehicle_type_id":"4","last_reported":1753888320,"current_range_meters":20400,"station_id":"cpo3342slgdg3j2ifvpg","pricing_plan_id":"cebpf4jnsgd1na2vs0mg"},{"bike_id":"52f08f3c-55aa-4368-abdd-c7e49450bf06","system_id":"levelo_inurba_marseille","lat":43.30205,"lon":5.39465,"is_reserved":false,"is_disabled":false,"rental_uris":{"android":"levelo://app?vid=52f08f3c-55aa-4368-abdd-c7e49450bf06","ios":"levelo://app?vid=52f08f3c-55aa-4368-abdd-c7e49450bf06"},"vehicle_type_id":"4","last_reported":1753888320,"current_range_meters":20400,"station_id":"ce4bh0p2rcd13ifvqd70","pricing_plan_id":"cebpf4jnsgd1na2vs0mg"},{"bike_id":"807c94af-4a18-4166-971b-fb54eb647a43","system_id":"levelo_inurba_marseille","lat":43.30287,"lon":5.36759,"is_reserved":false,"is_disabled":false,"rental_uris":{"android":"levelo://app?vid=807c94af-4a18-4166-971b-fb54eb647a43","ios":"levelo://app?vid=807c94af-4a18-4166-971b-fb54eb647a43"},"vehicle_type_id":"4","last_reported":1753888320,"current_range_meters":20400,"station_id":"","pricing_plan_id":"cebpf4jnsgd1na2vs0mg"},{"bike_id":"6f7198d9-75e0-4f33-8bb1-8cc45aa13608","system_id":"levelo_inurba_marseille","lat":43.306435,"lon":5.400912,"is_reserved":false,"is_disabled":false,"rental_uris":{"android":"levelo://app?vid=6f7198d9-75e0-4f33-8bb1-8cc45aa13608","ios":"levelo://app?vid=6f7198d9-75e0-4f33-8bb1-8cc45aa13608"},"vehicle_type_id":"4","last_reported":1753888320,"current_range_meters":20400,"station_id":"ce4bh112rcd13ifvqda0","pricing_plan_id":"cebpf4jnsgd1na2vs0mg"},{"bike_id":"a9ee02a8-9eb4-4aa5-807c-62dae0f582ea","system_id":"levelo_inurba_marseille","lat":43.317535,"lon":5.390167,"is_reserved":false,"is_disabled":false,"rental_uris":{"android":"levelo://app?vid=a9ee02a8-9eb4-4aa5-807c-62dae0f582ea","ios":"levelo://app?vid=a9ee02a8-9eb4-4aa5-807c-62dae0f582ea"},"vehicle_type_id":"4","last_reported":1753888320,"current_range_meters":20400,"station_id":"ce4bhqp2rcd13ifvqhng","pricing_plan_id":"cebpf4jnsgd1na2vs0mg"},{"bike_id":"15606e6e-e8c8-4faf-815c-ffb5c2e6214a","system_id":"levelo_inurba_marseille","lat":43.286175,"lon":5.351065,"is_reserved":false,"is_disabled":false,"rental_uris":{"android":"levelo://app?vid=15606e6e-e8c8-4faf-815c-ffb5c2e6214a","ios":"levelo://app?vid=15606e6e-e8c8-4faf-815c-ffb5c2e6214a"},"vehicle_type_id":"4","last_reported":1753888320,"current_range_meters":20400,"station_id":"ce4bhch2rcd13ifvqeug","pricing_plan_id":"cebpf4jnsgd1na2vs0mg"},