{"last_updated":1761855090,"ttl":60,"version":"2.2","data":{"bikes":[{"bike_id":"aacc01e3-6d9f-491a-b1ed-d10f639e29e2","system_id":"levelo_inurba_marseille","lat":43.337444,"lon":5.374475,"is_reserved":false,"is_disabled":false,"rental_uris":{"android":"levelo://app?vid=aacc01e3-6d9f-491a-b1ed-d10f639e29e2","ios":"levelo://app?vid=aacc01e3-6d9f-491a-b1ed-d10f639e29e2"},"vehicle_type_id":"4","last_reported":1761855090,"current_range_meters":0,"station_id":"","pricing_plan_id":"cebpf4jnsgd1na2vs0mg"},{"bike_id":"35ef2eb9-fe09-4124-a7ab-f792dcbd6ddc","system_id":"levelo_inurba_marseille","lat":43.337444,"lon":5.374475,"is_reserved":false,"is_disabled":false,"rental_uris":{"android":"levelo://app?vid=35ef2eb9-fe09-4124-a7ab-f792dcbd6ddc","ios":"levelo://app?vid=35ef2eb9-fe09-4124-a7ab-f792dcbd6ddc"},"vehicle_type_id":"4","last_reported":1761855090,"current_range_meters":0,"station_id":"","pricing_plan_id":"cebpf4jnsgd1na2vs0mg"},{"bike_id":"49ddb7e7-127c-434c-8992-2e05f2e3428d","system_id":"levelo_inurba_marseille","lat":43.337444,"lon":5.374475,"is_reserved":false,"is_disabled":false,"rental_uris":{"android":"levelo://app?vid=49ddb7e7-127c-434c-8992-2e05f2e3428d","ios":"levelo://app?vid=49ddb7e7-127c-434c-8992-2e05f2e3428d"},"vehicle_type_id":"4","last_reported":1761855090,"current_range_meters":0,"station_id":"","pricing_plan_id":"cebpf4jnsgd1na2vs0mg"},{"bike_id":"b3b460c5-2faa-45c2-8fde-7b54e8b4eaf5","system_id":"levelo_inurba_marseille","lat":43.337444,"lon":5.374475,"is_reserved":false,"is_disabled":false,"rental_uris":{"android":"levelo://app?vid=b3b460c5-2faa-45c2-8fde-7b54e8b4eaf5","ios":"levelo://app?vid=b3b460c5-2faa-45c2-8fde-7b54e8b4eaf5"},"vehicle_type_id":"4","last_reported":1761855090,"current_range_meters":0,"station_id":"","pricing_plan_id":"cebpf4jnsgd1na2vs0mg"},{"bike_id":"6b8eeff3-ec31-445f-be43-f1e3ba63fb37","system_id":"levelo_inurba_marseille","lat":43.337416,"lon":5.374586,"is_reserved":false,"is_disabled":false,"rental_uris":{"android":"levelo://app?vid=6b8eeff3-ec31-445f-be43-f1e3ba63fb37","ios":"levelo://app?vid=6b8eeff3-ec31-445f-be43-f1e3ba63fb37"},"vehicle_type_id":"4","last_reported":1761855090,"current_range_meters":0,"station_id":"","pricing_plan_id":"cebpf4jnsgd1na2vs0mg"},{"bike_id":"e0e86d10-d79a-47b9-82ad-a00ae7a62a8a","system_id":"levelo_inurba_marseille","lat":43.337444,"lon":5.374475,"is_reserved":false,"is_disabled":false,"rental_uris":{"android":"levelo://app?vid=e0e86d10-d79a-47b9-82ad-a00ae7a62a8a","ios":"levelo://app?vid=e0e86d10-d79a-47b9-82ad-a00ae7a62a8a"},"vehicle_type_id":"4","last_reported":1761855090,"current_range_meters":0,"station_id":"","pricing_plan_id":"cebpf4jnsgd1na2vs0mg"},{"bike_id":"548f1c45-4f2a-4cfe-b981-5bc1daecb21b","system_id":"levelo_inurba_marseille","lat":43.337444,"lon":5.374475,"is_reserved":false,"is_disabled":false,"rental_uris":{"android":"levelo://app?vid=548f1c45-4f2a-4cfe-b981-5bc1daecb21b","ios":"levelo://app?vid=548f1c45-4f2a-4cfe-b981-5bc1daecb21b"},"vehicle_type_id":"4","last_reported":1761855090,"current_range_meters":0,"station_id":"","pricing_plan_id":"cebpf4jnsgd1na2vs0mg"},{"bike_id":"5260dce0-6ede-4de4-b006-1466527b5fbe","system_id":"levelo_inurba_marseille","lat":43.337444,"lon":5.374475,"is_reserved":false,"is_disabled":false,"rental_uris":{"android":"levelo://app?vid=5260dce0-6ede-4de4-b006-1466527b5fbe","ios":"levelo://app?vid=5260dce0-6ede-4de4-b006-1466527b5fbe"},"vehicle_type_id":"4","last_reported":1761855090,"current_range_meters":0,"station_id":"","pricing_plan_id":"cebpf4jnsgd1na2vs0mg"},{"bike_id":"fb1816a3-8e74-463a-88d2-d6b63cf0a426","system_id":"levelo_inurba_marseille","lat":43.337444,"lon":5.374475,"is_reserved":false,"is_disabled":false,"rental_uris":{"android":"levelo://app?vid=fb1816a3-8e74-463a-88d2-d6b63cf0a426","ios":"levelo://app?vid=fb1816a3-8e74-463a-88d2-d6b63cf0a426"},"vehicle_type_id":"4","last_reported":1761855090,"current_range_meters":0,"station_id":"","pricing_plan_id":"cebpf4jnsgd1na2vs0mg"},{"bike_id":"3c881d8d-608f-4c39-9df3-b2aa54f8afcf","system_id":"levelo_inurba_marseille","lat":43.337444,"lon":5.374475,"is_reserved":false,"is_disabled":false,"rental_uris":{"android":"levelo://app?vid=3c881d8d-608f-4c39-9df3-b2aa54f8afcf","ios":"levelo://app?vid=3c881d8d-608f-4c39-9df3-b2aa54f8afcf"},"vehicle_type_id":"4","last_reported":1761855090,"current_range_meters":0,"station_id":"","pricing_plan_id":"cebpf4jnsgd1na2vs0mg"},{"bike_id":"a26e4937-215f-44d2-a8de-a7d3ec75d32b","system_id":"levelo_inurba_marseille","lat":43.337444,"lon":5.374475,"is_reserved":false,"is_disabled":false,"rental_uris":{"android":"levelo://app?vid=a26e4937-215f-44d2-a8de-a7d3ec75d32b","ios":"levelo://app?vid=a26e4937-215f-44d2-a8de-a7d3ec75d32b"},"vehicle_type_id":"4","last_reported":1761855090,"current_range_meters":0,"station_id":"","pricing_plan_id":"cebpf4jnsgd1na2vs0mg"},{"bike_id":"fadc4e19-b9ad-4402-a5bc-a0eff5c2b634","system_id":"levelo_inurba_marseille","lat":43.337444,"lon":5.374475,"is_reserved":false,"is_disabled":false,"rental_uris":{"android":"levelo://app?vid=fadc4e19-b9ad-4402-a5bc-a0eff5c2b634","ios":"levelo://app?vid=fadc4e19-b9ad-4402-a5bc-a0eff5c2b634"},"vehicle_type_id":"4","last_reported":1761855090,"current_range_meters":0,"station_id":"","pricing_plan_id":"cebpf4jnsgd1na2vs0mg"},{"bike_id":"e294c151-4441-4e4a-a116-13c66dfb9429","system_id":"levelo_inurba_marseille","lat":43.337444,"lon":5.374475,"is_reserved":false,"is_disabled":false,"rental_uris":{"android":"levelo://app?vid=e294c151-4441-4e4a-a116-13c66dfb9429","ios":"levelo://app?vid=e294c151-4441-4e4a-a116-13c66dfb9429"},"vehicle_type_id":"4","last_reported":1761855090,"current_range_meters":0,"station_id":"","pricing_plan_id":"cebpf4jnsgd1na2vs0mg"},{"bike_id":"0baff1cc-f548-40f7-a934-77958566d6a5","system_id":"levelo_inurba_marseille","lat":43.337444,"lon":5.374475,"is_reserved":false,"is_disabled":false,"rental_uris":{"android":"levelo://app?vid=0baff1cc-f548-40f7-a934-77958566d6a5","ios":"levelo://app?vid=0baff1cc-f548-40f7-a934-77958566d6a5"},"vehicle_type_id":"4","last_reported":1761855090,"current_range_meters":0,"station_id":"","pricing_plan_id":"cebpf4jnsgd1na2vs0mg"},{"bike_id":"1310c5d0-e39d-4b9c-84d7-1872f297ff18","system_id":"levelo_inurba_marseille","lat":43.337444,"lon":5.374475,"is_reserved":false,"is_disabled":false,"rental_uris":{"android":"levelo://app?vid=1310c5d0-e39d-4b9c-84d7-1872f297ff18","ios":"levelo://app?vid=1310c5d0-e39d-4b9c-84d7-1872f297ff18"},"vehicle_type_id":"4","last_reported":1761855090,"current_range_meters":0,"station_id":"","pricing_plan_id":"cebpf4jnsgd1na2vs0mg"},{"bike_id":"01eaacf7-8682-4054-bf38-52456d06e6f6","system_id":"levelo_inurba_marseille","lat":43.337444,"lon":5.374475,"is_reserved":false,"is_disabled":false,"rental_uris":{"android":"levelo://app?vid=01eaacf7-8682-4054-bf38-52456d06e6f6","ios":"levelo://app?vid=01eaacf7-8682-4054-bf38-52456d06e6f6"},"vehicle_type_id":"4","last_reported":1761855090,"current_range_meters":0,"station_id":"","pricing_plan_id":"cebpf4jnsgd1na2vs0mg"},{"bike_id":"4dbab57a-b708-409a-b815-3b9a5d92f753","system_id":"levelo_inurba_marseille","lat":43.337444,"lon":5.374475,"is_reserved":false,"is_disabled":false,"rental_uris":{"android":"levelo://app?vid=4dbab57a-b708-409a-b815-3b9a5d92f753","ios":"levelo://app?vid=4dbab57a-b708-409a-b815-3b9a5d92f753"},"vehicle_type_id":"4","last_reported":1761855090,"current_range_meters":0,"station_id":"","pricing_plan_id":"cebpf4jnsgd1na2vs0mg"},{"bike_id":"00f1260a-63f9-4663-ac1e-51258f9213bd","system_id":"levelo_inurba_marseille","lat":43.337444,"lon":5.374475,"is_reserved":false,"is_disabled":false,"rental_uris":{"android":"levelo://app?vid=00f1260a-63f9-4663-ac1e-51258f9213bd","ios":"levelo://app?vid=00f1260a-63f9-4663-ac1e-51258f9213bd"},"vehicle_type_id":"4","last_reported":1761855090,"current_range_meters":0,"station_id":"","pricing_plan_id":"cebpf4jnsgd1na2vs0mg"},{"bike_id":"50aa746e-d71a-437c-bb7a-ed648a03f81b","system_id":"levelo_inurba_marseille","lat":43.337444,"lon":5.374475,"is_reserved":false,"is_disabled":false,"rental_uris":{"android":"levelo://app?vid=50aa746e-d71a-437c-bb7a-ed648a03f81b","ios":"levelo://app?vid=50aa746e-d71a-437c-bb7a-ed648a03f81b"},"vehicle_type_id":"4","last_reported":1761855090,"current_range_meters":0,"station_id":"","pricing_plan_id":"cebpf4jnsgd1na2vs0mg"},{"bike_id":"3e68cf6e-17b6-46f5-8b08-d049449e0ca4","system_id":"levelo_inurba_marseille","lat":43.337444,"lon":5.374475,"is_reserved":false,"is_disabled":false,"rental_uris":{"android":"levelo://app?vid=3e68cf6e-17b6-46f5-8b08-d049449e0ca4","ios":"levelo://app?vid=3e68cf6e-17b6-46f5-8b08-d049449e0ca4"},"vehicle_type_id":"4","last_reported":1761855090,"current_range_meters":0,"station_id":"","pricing_plan_id":"cebpf4jnsgd1na2vs0mg"},{"bike_id":"b06c4997-7e4f-467a-922f-92f2f2e27e9d","system_id":"levelo_inurba_marseille","lat":43.337444,"lon":5.374475,"is_reserved":false,"is_disabled":false,"rental_uris":{"android":"levelo://app?vid=b06c4997-7e4f-467a-922f-92f2f2e27e9d","ios":"levelo://app?vid=b06c4997-7e4f-467a-922f-92f2f2e27e9d"},"vehicle_type_id":"4","last_reported":1761855090,"current_range_meters":0,"station_id":"","pricing_plan_id":"cebpf4jnsgd1na2vs0mg"},{"bike_id":"bb49b980-4cfb-49a5-9add-f3f9d4fc6db5","system_id":"levelo_inurba_marseille","lat":43.337444,"lon":5.374475,"is_reserved":false,"is_disabled":false,"rental_uris":{"android":"levelo://app?vid=bb49b980-4cfb-49a5-9add-f3f9d4fc6db5","ios":"levelo://app?vid=bb49b980-4cfb-49a5-9add-f3f9d4fc6db5"},"vehicle_type_id":"4","last_reported":1761855090,"current_range_meters":0,"station_id":"","pricing_plan_id":"cebpf4jnsgd1na2vs0mg"},{"bike_id":"b97206fc-6c94-4378-926a-a788d4f71c09","system_id":"levelo_inurba_marseille","lat":43.337444,"lon":5.374475,"is_reserved":false,"is_disabled":false,"rental_uris":{"android":"levelo://app?vid=b97206fc-6c94-4378-926a-a788d4f71c09","ios":"levelo://app?vid=b97206fc-6c94-4378-926a-a788d4f71c09"},"vehicle_type_id":"4","last_reported":1761855090,"current_range_meters":0,"station_id":"","pricing_plan_id":"cebpf4jnsgd1na2vs0mg"},{"bike_id":"37d7ebf5-2b3d-4af3-a7cd-4f29f464d5a0","system_id":"levelo_inurba_marseille","lat":43.337444,"lon":5.374475,"is_reserved":false,"is_disabled":false,"rental_uris":{"android":"levelo://app?vid=37d7ebf5-2b3d-4af3-a7cd-4f29f464d5a0","ios":"levelo://app?vid=37d7ebf5-2b3d-4af3-a7cd-4f29f464d5a0"},"vehicle_type_id":"4","last_reported":1761855090,"current_range_meters":0,"station_id":"","pricing_plan_id":"cebpf4jnsgd1na2vs0mg"},{"bike_id":"4ce4318f-b763-4325-8589-2aecbcc80add","system_id":"levelo_inurba_marseille","lat":43.337444,"lon":5.374475,"is_reserved":false,"is_disabled":false,"rental_uris":{"android":"levelo://app?vid=4ce4318f-b763-4325-8589-2aecbcc80add","ios":"levelo://app?vid=4ce4318f-b763-4325-8589-2aecbcc80add"},"vehicle_type_id":"4","last_reported":1761855090,"current_range_meters":0,"station_id":"","pricing_plan_id":"cebpf4jnsgd1na2vs0mg"},{"bike_id":"a6a3a590-5c2a-4683-a516-e9f5572de0f8","system_id":"levelo_inurba_marseille","lat":43.337444,"lon":5.374475,"is_reserved":false,"is_disabled":false,"rental_uris":{"android":"levelo://app?vid=a6a3a590-5c2a-4683-a516-e9f5572de0f8","ios":"levelo://app?vid=a6a3a590-5c2a-4683-a516-e9f5572de0f8"},"vehicle_type_id":"4","last_reported":1761855090,"current_range_meters":0,"station_id":"","pricing_plan_id":"cebpf4jnsgd1na2vs0mg"},{"bike_id":"111bdd74-3ae9-48f5-979c-2e177e7747d9","system_id":"levelo_inurba_marseille","lat":43.337444,"lon":5.374475,"is_reserved":false,"is_disabled":false,"rental_uris":{"android":"levelo://app?vid=111bdd74-3ae9-48f5-979c-2e177e7747d9","ios":"levelo://app?vid=111bdd74-3ae9-48f5-979c-2e177e7747d9"},"vehicle_type_id":"4","last_reported":1761855090,"current_range_meters":0,"station_id":"","pricing_plan_id":"cebpf4jnsgd1na2vs0mg"},{"bike_id":"b9d871b8-65b0-40af-afa3-0bf2492a45a9","system_id":"levelo_inurba_marseille","lat":43.337444,"lon":5.374475,"is_reserved":false,"is_disabled":false,"rental_uris":{"android":"levelo://app?vid=b9d871b8-65b0-40af-afa3-0bf2492a45a9","ios":"levelo://app?vid=b9d871b8-65b0-40af-afa3-0bf2492a45a9"},"vehicle_type_id":"4","last_reported":1761855090,"current_range_meters":0,"station_id":"","pricing_plan_id":"cebpf4jnsgd1na2vs0mg"},{"bike_id":"5bec735e-fcf4-48c7-8bdc-29590fc410b1","system_id":"levelo_inurba_marseille","lat":43.337444,"lon":5.374475,"is_reserved":false,"is_disabled":false,"rental_uris":{"android":"levelo://app?vid=5bec735e-fcf4-48c7-8bdc-29590fc410b1","ios":"levelo://app?vid=5bec735e-fcf4-48c7-8bdc-29590fc410b1"},"vehicle_type_id":"4","last_reported":1761855090,"current_range_meters":0,"station_id":"","pricing_plan_id":"cebpf4jnsgd1na2vs0mg"},{"bike_id":"026e76ec-bb30-48a3-8407-a17635ff5e4d","system_id":"levelo_inurba_marseille","lat":43.337444,"lon":5.374475,"is_reserved":false,"is_disabled":false,"rental_uris":{"android":"levelo://app?vid=026e76ec-bb30-48a3-8407-a17635ff5e4d","ios":"levelo://app?vid=026e76ec-bb30-48a3-8407-a17635ff5e4d"},"vehicle_type_id":"4","last_reported":1761855090,"current_range_meters":0,"station_id":"","pricing_plan_id":"cebpf4jnsgd1na2vs0mg"},{"bike_id":"46d34bff-7ac4-476c-bd3e-8e7dba53c807","system_id":"levelo_inurba_marseille","lat":43.337444,"lon":5.374475,"is_reserved":false,"is_disabled":false,"rental_uris":{"android":"levelo://app?vid=46d34bff-7ac4-476c-bd3e-8e7dba53c807","ios":"levelo://app?vid=46d34bff-7ac4-476c-bd3e-8e7dba53c807"},"vehicle_type_id":"4","last_reported":1761855090,"current_range_meters":0,"station_id":"","pricing_plan_id":"cebpf4jnsgd1na2vs0mg"},{"bike_id":"2c7e37d6-d4ca-47ae-a0e0-a648dd4e1706","system_id":"levelo_inurba_marseille","lat":43.337444,"lon":5.374475,"is_reserved":false,"is_disabled":false,"rental_uris":{"android":"levelo://app?vid=2c7e37d6-d4ca-47ae-a0e0-a648dd4e1706","ios":"levelo://app?vid=2c7e37d6-d4ca-47ae-a0e0-a648dd4e1706"},"vehicle_type_id":"4","last_reported":1761855090,"current_range_meters":0,"station_id":"","pricing_plan_id":"cebpf4jnsgd1na2vs0mg"},{"bike_id":"94eee6a6-2463-4d2a-b222-3ef19356212a","system_id":"levelo_inurba_marseille","lat":43.337444,"lon":5.374475,"is_reserved":false,"is_disabled":false,"rental_uris":{"android":"levelo://app?vid=94eee6a6-2463-4d2a-b222-3ef19356212a","ios":"levelo://app?vid=94eee6a6-2463-4d2a-b222-3ef19356212a"},"vehicle_type_id":"4","last_reported":1761855090,"current_range_meters":0,"station_id":"","pricing_plan_id":"cebpf4jnsgd1na2vs0mg"},{"bike_id":"4592e008-320c-4bcd-ae3b-d140e613f684","system_id":"levelo_inurba_marseille","lat":43.337444,"lon":5.374475,"is_reserved":false,"is_disabled":false,"rental_uris":{"android":"levelo://app?vid=4592e008-320c-4bcd-ae3b-d140e613f684","ios":"levelo://app?vid=4592e008-320c-4bcd-ae3b-d140e613f684"},"vehicle_type_id":"4","last_reported":1761855090,"current_range_meters":0,"station_id":"","pricing_plan_id":"cebpf4jnsgd1na2vs0mg"},{"bike_id":"5807ce94-1b62-42db-8c77-9488accc83d5","system_id":"levelo_inurba_marseille","lat":43.337444,"lon":5.374475,"is_reserved":false,"is_disabled":false,"rental_uris":{"android":"levelo://app?vid=5807ce94-1b62-42db-8c77-9488accc83d5","ios":"levelo://app?vid=5807ce94-1b62-42db-8c77-9488accc83d5"},"vehicle_type_id":"4","last_reported":1761855090,"current_range_meters":0,"station_id":"","pricing_plan_id":"cebpf4jnsgd1na2vs0mg"},{"bike_id":"f9ea47d7-58a3-46aa-a5e5-205394b3cbe8","system_id":"levelo_inurba_marseille","lat":43.2861,"lon":5.35091,"is_reserved":false,"is_disabled":true,"rental_uris":{"android":"levelo://app?vid=f9ea47d7-58a3-46aa-a5e5-205394b3cbe8","ios":"levelo://app?vid=f9ea47d7-58a3-46aa-a5e5-205394b3cbe8"},"vehicle_type_id":"4","last_reported":1761855090,"current_range_meters":2800,"station_id":"ce4bhch2rcd13ifvqeug","pricing_plan_id":"cebpf4jnsgd1na2vs0mg"},{"bike_id":"d5ca831f-8041-403e-ada8-7b4196c3d5be","system_id":"levelo_inurba_marseille","lat":43.293714,"lon":5.379385,"is_reserved":false,"is_disabled":false,"rental_uris":{"android":"levelo://app?vid=d5ca831f-8041-403e-ada8-7b4196c3d5be","ios":"levelo://app?vid=d5ca831f-8041-403e-ada8-7b4196c3d5be"},"vehicle_type_id":"4","last_reported":1761855090,"current_range_meters":2800,"station_id":"","pricing_plan_id":"cebpf4jnsgd1na2vs0mg"},{"bike_id":"6deb134b-1243-4f83-ba9f-5e17008ab29f","system_id":"levelo_inurba_marseille","lat":43.260604,"lon":5.394018,"is_reserved":false,"is_disabled":false,"rental_uris":{"android":"levelo://app?vid=6deb134b-1243-4f83-ba9f-5e17008ab29f","ios":"levelo://app?vid=6deb134b-1243-4f83-ba9f-5e17008ab29f"},"vehicle_type_id":"4","last_reported":1761855090,"current_range_meters":3200,"station_id":"ce4bhh92rcd13ifvqfj0","pricing_plan_id":"cebpf4jnsgd1na2vs0mg"},{"bike_id":"808f27de-6223-44b2-9988-7f24e1e56127","system_id":"levelo_inurba_marseille","lat":43.319957,"lon":5.413481,"is_reserved":false,"is_disabled":false,"rental_uris":{"android":"levelo://app?vid=808f27de-6223-44b2-9988-7f24e1e56127","ios":"levelo://app?vid=808f27de-6223-44b2-9988-7f24e1e56127"},"vehicle_type_id":"4","last_reported":1761855090,"current_range_meters":3200,"station_id":"ce4bhq92rcd13ifvqhkg","pricing_plan_id":"cebpf4jnsgd1na2vs0mg"},{"bike_id":"61e69835-9ecd-4ea0-95b3-72ab283c2620","system_id":"levelo_inurba_marseille","lat":43.297972,"lon":5.404083,"is_reserved":false,"is_disabled":false,"rental_uris":{"android":"levelo://app?vid=61e69835-9ecd-4ea0-95b3-72ab283c2620","ios":"levelo://app?vid=61e69835-9ecd-4ea0-95b3-72ab283c2620"},"vehicle_type_id":"4","last_reported":1761855090,"current_range_meters":3600,"station_id":"ce4bh112rcd13ifvqd90","pricing_plan_id":"cebpf4jnsgd1na2vs0mg"},{"bike_id":"115cb51c-3c34-4751-9ff9-750550a2e66d","system_id":"levelo_inurba_marseille","lat":43.3199,"lon":5.38159,"is_reserved":false,"is_disabled":false,"rental_uris":{"android":"levelo://app?vid=115cb51c-3c34-4751-9ff9-750550a2e66d","ios":"levelo://app?vid=115cb51c-3c34-4751-9ff9-750550a2e66d"},"vehicle_type_id":"4","last_reported":1761855090,"current_range_meters":3600,"station_id":"ce4bhr12rcd13ifvqhpg","pricing_plan_id":"cebpf4jnsgd1na2vs0mg"},{"bike_id":"608c1b51-135c-44e2-9b3b-b5b397554839","system_id":"levelo_inurba_marseille","lat":43.25088,"lon":5.39521,"is_reserved":false,"is_disabled":false,"rental_uris":{"android":"levelo://app?vid=608c1b51-135c-44e2-9b3b-b5b397554839","ios":"levelo://app?vid=608c1b51-135c-44e2-9b3b-b5b397554839"},"vehicle_type_id":"4","last_reported":1761855090,"current_range_meters":4000,"station_id":"ce4bhm12rcd13ifvqgkg","pricing_plan_id":"cebpf4jnsgd1na2vs0mg"},{"bike_id":"df4a7072-9a99-4388-960f-688f83a92f17","system_id":"levelo_inurba_marseille","lat":43.29547,"lon":5.42295,"is_reserved":false,"is_disabled":false,"rental_uris":{"android":"levelo://app?vid=df4a7072-9a99-4388-960f-688f83a92f17","ios":"levelo://app?vid=df4a7072-9a99-4388-960f-688f83a92f17"},"vehicle_type_id":"4","last_reported":1761855090,"current_range_meters":4000,"station_id":"ce4bhph2rcd13ifvqhdg","pricing_plan_id":"cebpf4jnsgd1na2vs0mg"},{"bike_id":"2c4b389b-5f27-4f8e-88bb-de7c5b8b5f18","system_id":"levelo_inurba_marseille","lat":43.240693,"lon":5.377635,"is_reserved":false,"is_disabled":false,"rental_uris":{"android":"levelo://app?vid=2c4b389b-5f27-4f8e-88bb-de7c5b8b5f18","ios":"levelo://app?vid=2c4b389b-5f27-4f8e-88bb-de7c5b8b5f18"},"vehicle_type_id":"4","last_reported":1761855090,"current_range_meters":4000,"station_id":"ce4bhnp2rcd13ifvqgvg","pricing_plan_id":"cebpf4jnsgd1na2vs0mg"},{"bike_id":"f6adb9c1-4a78-4322-baec-aa5f6f5d93b6","system_id":"levelo_inurba_marseille","lat":43.33766,"lon":5.37431,"is_reserved":false,"is_disabled":false,"rental_uris":{"android":"levelo://app?vid=f6adb9c1-4a78-4322-baec-aa5f6f5d93b6","ios":"levelo://app?vid=f6adb9c1-4a78-4322-baec-aa5f6f5d93b6"},"vehicle_type_id":"4","last_reported":1761855090,"current_range_meters":4000,"station_id":"","pricing_plan_id":"cebpf4jnsgd1na2vs0mg"},{"bike_id":"96a71cd5-4689-4476-87b9-217e135e7c6b","system_id":"levelo_inurba_marseille","lat":43.28358,"lon":5.38103,"is_reserved":false,"is_disabled":false,"rental_uris":{"android":"levelo://app?vid=96a71cd5-4689-4476-87b9-217e135e7c6b","ios":"levelo://app?vid=96a71cd5-4689-4476-87b9-217e135e7c6b"},"vehicle_type_id":"4","last_reported":1761855090,"current_range_meters":4400,"station_id":"ce4bh412rcd13ifvqdr0","pricing_plan_id":"cebpf4jnsgd1na2vs0mg"},{"bike_id":"5cb3f363-ac2f-4bc2-ad50-da3965e1e89b","system_id":"levelo_inurba_marseille","lat":43.24576,"lon":5.41604,"is_reserved":false,"is_disabled":false,"rental_uris":{"android":"levelo://app?vid=5cb3f363-ac2f-4bc2-ad50-da3965e1e89b","ios":"levelo://app?vid=5cb3f363-ac2f-4bc2-ad50-da3965e1e89b"},"vehicle_type_id":"4","last_reported":1761855090,"current_range_meters":4400,"station_id":"","pricing_plan_id":"cebpf4jnsgd1na2vs0mg"},{"bike_id":"3fe155e4-90fe-4846-8928-203e298150d0","system_id":"levelo_inurba_marseille","lat":43.3022,"lon":5.37524,"is_reserved":false,"is_disabled":false,"rental_uris":{"android":"levelo://app?vid=3fe155e4-90fe-4846-8928-203e298150d0","ios":"levelo://app?vid=3fe155e4-90fe-4846-8928-203e298150d0"},"vehicle_type_id":"4","last_reported":1761855090,"current_range_meters":4800,"station_id":"","pricing_plan_id":"cebpf4jnsgd1na2vs0mg"},{"bike_id":"2fa64770-fbc5-4db0-b1be-d3b9916b4d11","system_id":"levelo_inurba_marseille","lat":43.31115,"lon":5.37764,"is_reserved":false,"is_disabled":false,"rental_uris":{"android":"levelo://app?vid=2fa64770-fbc5-4db0-b1be-d3b9916b4d11","ios":"levelo://app?vid=2fa64770-fbc5-4db0-b1be-d3b9916b4d11"},"vehicle_type_id":"4","last_reported":1761855090,"current_range_meters":4800,"station_id":"ce4bgt92rcd13ifvqcg0","pricing_plan_id":"cebpf4jnsgd1na2vs0mg"},{"bike_id":"ae8ebe94-fc0f-4409-8f77-39eb5c613a67","system_id":"levelo_inurba_marseille","lat":43.337444,"lon":5.374475,"is_reserved":false,"is_disabled":false,"rental_uris":{"android":"levelo://app?vid=ae8ebe94-fc0f-4409-8f77-39eb5c613a67","ios":"levelo://app?vid=ae8ebe94-fc0f-4409-8f77-39eb5c613a67"},"vehicle_type_id":"4","last_reported":1761855090,"current_range_meters":5600,"station_id":"","pricing_plan_id":"cebpf4jnsgd1na2vs0mg"},{"bike_id":"b073a320-3944-494a-8058-081ab75d0917","system_id":"levelo_inurba_marseille","lat":43.29033,"lon":5.38636,"is_reserved":false,"is_disabled":false,"rental_uris":{"android":"levelo://app?vid=b073a320-3944-494a-8058-081ab75d0917","ios":"levelo://app?vid=b073a320-3944-494a-8058-081ab75d0917"},"vehicle_type_id":"4","last_reported":1761855090,"current_range_meters":5600,"station_id":"ce4bh4p2rcd13ifvqe0g","pricing_plan_id":"cebpf4jnsgd1na2vs0mg"},{"bike_id":"8245bdbe-b4f4-4ca4-8778-313b80ce5e32","system_id":"levelo_inurba_marseille","lat":43.27995,"lon":5.40017,"is_reserved":false,"is_disabled":false,"rental_uris":{"android":"levelo://app?vid=8245bdbe-b4f4-4ca4-8778-313b80ce5e32","ios":"levelo://app?vid=8245bdbe-b4f4-4ca4-8778-313b80ce5e32"},"vehicle_type_id":"4","last_reported":1761855090,"current_range_meters":5600,"station_id":"ce4bho92rcd13ifvqh4g","pricing_plan_id":"cebpf4jnsgd1na2vs0mg"},{"bike_id":"9c30d8b4-9f50-41d5-ac5f-eaaaf9c63581","system_id":"levelo_inurba_marseille","lat":43.29968,"lon":5.41306,"is_reserved":false,"is_disabled":false,"rental_uris":{"android":"levelo://app?vid=9c30d8b4-9f50-41d5-ac5f-eaaaf9c63581","ios":"levelo://app?vid=9c30d8b4-9f50-41d5-ac5f-eaaaf9c63581"},"vehicle_type_id":"4","last_reported":1761855090,"current_range_meters":5600,"station_id":"ce4bhp12rcd13ifvqh9g","pricing_plan_id":"cebpf4jnsgd1na2vs0mg"},{"bike_id":"3068e367-a40b-4523-88b2-25428bf32e71","system_id":"levelo_inurba_marseille","lat":43.28159,"lon":5.425954,"is_reserved":false,"is_disabled":false,"rental_uris":{"android":"levelo://app?vid=3068e367-a40b-4523-88b2-25428bf32e71","ios":"levelo://app?vid=3068e367-a40b-4523-88b2-25428bf32e71"},"vehicle_type_id":"4","last_reported":1761855090,"current_range_meters":5600,"station_id":"ce4bhnh2rcd13ifvqgug","pricing_plan_id":"cebpf4jnsgd1na2vs0mg"},{"bike_id":"bf6804c8-f308-49de-b56a-6f92ff8ff5a8","system_id":"levelo_inurba_marseille","lat":43.30147,"lon":5.38076,"is_reserved":false,"is_disabled":false,"rental_uris":{"android":"levelo://app?vid=bf6804c8-f308-49de-b56a-6f92ff8ff5a8","ios":"levelo://app?vid=bf6804c8-f308-49de-b56a-6f92ff8ff5a8"},"vehicle_type_id":"4","last_reported":1761855090,"current_range_meters":6000,"station_id":"ce4bgjp2rcd13ifvqbh0","pricing_plan_id":"cebpf4jnsgd1na2vs0mg"},{"bike_id":"e2e35269-30a5-4900-acfa-b3db6a523382","system_id":"levelo_inurba_marseille","lat":43.28151,"lon":5.37414,"is_reserved":false,"is_disabled":false,"rental_uris":{"android":"levelo://app?vid=e2e35269-30a5-4900-acfa-b3db6a523382","ios":"levelo://app?vid=e2e35269-30a5-4900-acfa-b3db6a523382"},"vehicle_type_id":"4","last_reported":1761855090,"current_range_meters":6400,"station_id":"","pricing_plan_id":"cebpf4jnsgd1na2vs0mg"},{"bike_id":"4461b95d-9d00-4621-835c-910aa4a68777","system_id":"levelo_inurba_marseille","lat":43.33605,"lon":5.41035,"is_reserved":false,"is_disabled":false,"rental_uris":{"android":"levelo://app?vid=4461b95d-9d00-4621-835c-910aa4a68777","ios":"levelo://app?vid=4461b95d-9d00-4621-835c-910aa4a68777"},"vehicle_type_id":"4","last_reported":1761855090,"current_range_meters":6400,"station_id":"ce4bhqh2rcd13ifvqhmg","pricing_plan_id":"cebpf4jnsgd1na2vs0mg"},{"bike_id":"438c6319-efe3-494e-9996-5652de2b843d","system_id":"levelo_inurba_marseille","lat":43.29906,"lon":5.37464,"is_reserved":false,"is_disabled":false,"rental_uris":{"android":"levelo://app?vid=438c6319-efe3-494e-9996-5652de2b843d","ios":"levelo://app?vid=438c6319-efe3-494e-9996-5652de2b843d"},"vehicle_type_id":"4","last_reported":1761855090,"current_range_meters":6800,"station_id":"ce4bgjh2rcd13ifvqbg0","pricing_plan_id":"cebpf4jnsgd1na2vs0mg"},{"bike_id":"c6698ab8-b9c1-4ef6-8d1d-6b190a79e8e9","system_id":"levelo_inurba_marseille","lat":43.30975,"lon":5.3724,"is_reserved":false,"is_disabled":false,"rental_uris":{"android":"levelo://app?vid=c6698ab8-b9c1-4ef6-8d1d-6b190a79e8e9","ios":"levelo://app?vid=c6698ab8-b9c1-4ef6-8d1d-6b190a79e8e9"},"vehicle_type_id":"4","last_reported":1761855090,"current_range_meters":6800,"station_id":"","pricing_plan_id":"cebpf4jnsgd1na2vs0mg"},{"bike_id":"cf0d0120-0615-447f-80b2-b9d253f7c4cc","system_id":"levelo_inurba_marseille","lat":43.29802,"lon":5.40408,"is_reserved":false,"is_disabled":false,"rental_uris":{"android":"levelo://app?vid=cf0d0120-0615-447f-80b2-b9d253f7c4cc","ios":"levelo://app?vid=cf0d0120-0615-447f-80b2-b9d253f7c4cc"},"vehicle_type_id":"4","last_reported":1761855090,"current_range_meters":6800,"station_id":"ce4bh112rcd13ifvqd90","pricing_plan_id":"cebpf4jnsgd1na2vs0mg"},{"bike_id":"8a153f37-ceed-45ae-b855-70030e0c7c48","system_id":"levelo_inurba_marseille","lat":43.30252,"lon":5.40078,"is_reserved":false,"is_disabled":false,"rental_uris":{"android":"levelo://app?vid=8a153f37-ceed-45ae-b855-70030e0c7c48","ios":"levelo://app?vid=8a153f37-ceed-45ae-b855-70030e0c7c48"},"vehicle_type_id":"4","last_reported":1761855090,"current_range_meters":6800,"station_id":"ce4bgvh2rcd13ifvqcs0","pricing_plan_id":"cebpf4jnsgd1na2vs0mg"},{"bike_id":"19ac10ab-c5c4-469f-9e72-aeda1f11435a","system_id":"levelo_inurba_marseille","lat":43.31704,"lon":5.43736,"is_reserved":false,"is_disabled":false,"rental_uris":{"android":"levelo://app?vid=19ac10ab-c5c4-469f-9e72-aeda1f11435a","ios":"levelo://app?vid=19ac10ab-c5c4-469f-9e72-aeda1f11435a"},"vehicle_type_id":"4","last_reported":1761855090,"current_range_meters":7200,"station_id":"ce4bhp92rcd13ifvqhcg","pricing_plan_id":"cebpf4jnsgd1na2vs0mg"},{"bike_id":"b714a74a-f7d9-4815-b4dc-67b98775c4e8","system_id":"levelo_inurba_marseille","lat":43.29604,"lon":5.38109,"is_reserved":false,"is_disabled":false,"rental_uris":{"android":"levelo://app?vid=b714a74a-f7d9-4815-b4dc-67b98775c4e8","ios":"levelo://app?vid=b714a74a-f7d9-4815-b4dc-67b98775c4e8"},"vehicle_type_id":"4","last_reported":1761855090,"current_range_meters":7200,"station_id":"ce4bgl12rcd13ifvqbo0","pricing_plan_id":"cebpf4jnsgd1na2vs0mg"},{"bike_id":"1867a497-829f-4a89-b17a-232b7503dd16","system_id":"levelo_inurba_marseille","lat":43.29267,"lon":5.3841,"is_reserved":false,"is_disabled":false,"rental_uris":{"android":"levelo://app?vid=1867a497-829f-4a89-b17a-232b7503dd16","ios":"levelo://app?vid=1867a497-829f-4a89-b17a-232b7503dd16"},"vehicle_type_id":"4","last_reported":1761855090,"current_range_meters":7200,"station_id":"ce4bh692rcd13ifvqea0","pricing_plan_id":"cebpf4jnsgd1na2vs0mg"},{"bike_id":"d9dad76e-0438-46a3-8fd3-dbcbf25a03b9","system_id":"levelo_inurba_marseille","lat":43.28717,"lon":5.379437,"is_reserved":false,"is_disabled":false,"rental_uris":{"android":"levelo://app?vid=d9dad76e-0438-46a3-8fd3-dbcbf25a03b9","ios":"levelo://app?vid=d9dad76e-0438-46a3-8fd3-dbcbf25a03b9"},"vehicle_type_id":"4","last_reported":1761855090,"current_range_meters":7200,"station_id":"ce4bh9p2rcd13ifvqec0","pricing_plan_id":"cebpf4jnsgd1na2vs0mg"},{"bike_id":"a264e876-5c75-4958-91e7-22a13cf493fc","system_id":"levelo_inurba_marseille","lat":43.26559,"lon":5.38993,"is_reserved":false,"is_disabled":false,"rental_uris":{"android":"levelo://app?vid=a264e876-5c75-4958-91e7-22a13cf493fc","ios":"levelo://app?vid=a264e876-5c75-4958-91e7-22a13cf493fc"},"vehicle_type_id":"4","last_reported":1761855090,"current_range_meters":8000,"station_id":"ce4bhe12rcd13ifvqf30","pricing_plan_id":"cebpf4jnsgd1na2vs0mg"},{"bike_id":"926593f6-579b-4bc9-b774-62aba5138a9f","system_id":"levelo_inurba_marseille","lat":43.31361,"lon":5.38497,"is_reserved":false,"is_disabled":false,"rental_uris":{"android":"levelo://app?vid=926593f6-579b-4bc9-b774-62aba5138a9f","ios":"levelo://app?vid=926593f6-579b-4bc9-b774-62aba5138a9f"},"vehicle_type_id":"4","last_reported":1761855090,"current_range_meters":8400,"station_id":"ce4bgt92rcd13ifvqcf0","pricing_plan_id":"cebpf4jnsgd1na2vs0mg"},{"bike_id":"46811d7c-43ea-4a5d-81f0-90f631e5de50","system_id":"levelo_inurba_marseille","lat":43.29975,"lon":5.3848,"is_reserved":false,"is_disabled":false,"rental_uris":{"android":"levelo://app?vid=46811d7c-43ea-4a5d-81f0-90f631e5de50","ios":"levelo://app?vid=46811d7c-43ea-4a5d-81f0-90f631e5de50"},"vehicle_type_id":"4","last_reported":1761855090,"current_range_meters":8400,"station_id":"ce4bgj92rcd13ifvqbd0","pricing_plan_id":"cebpf4jnsgd1na2vs0mg"},{"bike_id":"a4935f05-6cf9-4f10-ba1d-371c348456f8","system_id":"levelo_inurba_marseille","lat":43.30099,"lon":5.39083,"is_reserved":false,"is_disabled":false,"rental_uris":{"android":"levelo://app?vid=a4935f05-6cf9-4f10-ba1d-371c348456f8","ios":"levelo://app?vid=a4935f05-6cf9-4f10-ba1d-371c348456f8"},"vehicle_type_id":"4","last_reported":1761855090,"current_range_meters":8400,"station_id":"ce4bh192rcd13ifvqdb0","pricing_plan_id":"cebpf4jnsgd1na2vs0mg"},{"bike_id":"d7fb894a-8db1-4b24-b0de-cb5cf9c16af3","system_id":"levelo_inurba_marseille","lat":43.2606,"lon":5.39395,"is_reserved":false,"is_disabled":false,"rental_uris":{"android":"levelo://app?vid=d7fb894a-8db1-4b24-b0de-cb5cf9c16af3","ios":"levelo://app?vid=d7fb894a-8db1-4b24-b0de-cb5cf9c16af3"},"vehicle_type_id":"4","last_reported":1761855090,"current_range_meters":8400,"station_id":"ce4bhh92rcd13ifvqfj0","pricing_plan_id":"cebpf4jnsgd1na2vs0mg"},{"bike_id":"d9a3637a-3954-4c82-b9fc-b5f917758005","system_id":"levelo_inurba_marseille","lat":43.28188,"lon":5.39039,"is_reserved":false,"is_disabled":true,"rental_uris":{"android":"levelo://app?vid=d9a3637a-3954-4c82-b9fc-b5f917758005","ios":"levelo://app?vid=d9a3637a-3954-4c82-b9fc-b5f917758005"},"vehicle_type_id":"4","last_reported":1761855090,"current_range_meters":8400,"station_id":"ce4bhn92rcd13ifvqgsg","pricing_plan_id":"cebpf4jnsgd1na2vs0mg"},{"bike_id":"faee4aed-34d1-4e59-9f3e-bc2337688920","system_id":"levelo_inurba_marseille","lat":43.31726,"lon":5.43698,"is_reserved":false,"is_disabled":true,"rental_uris":{"android":"levelo://app?vid=faee4aed-34d1-4e59-9f3e-bc2337688920","ios":"levelo://app?vid=faee4aed-34d1-4e59-9f3e-bc2337688920"},"vehicle_type_id":"4","last_reported":1761855090,"current_range_meters":8400,"station_id":"ce4bhp92rcd13ifvqhcg","pricing_plan_id":"cebpf4jnsgd1na2vs0mg"},{"bike_id":"cc2e82cb-5ccb-439b-b8b9-bc00f724273f","system_id":"levelo_inurba_marseille","lat":43.22972,"lon":5.43708,"is_reserved":false,"is_disabled":false,"rental_uris":{"android":"levelo://app?vid=cc2e82cb-5ccb-439b-b8b9-bc00f724273f","ios":"levelo://app?vid=cc2e82cb-5ccb-439b-b8b9-bc00f724273f"},"vehicle_type_id":"4","last_reported":1761855090,"current_range_meters":8400,"station_id":"","pricing_plan_id":"cebpf4jnsgd1na2vs0mg"},{"bike_id":"85afd5da-6093-45b2-8e67-e004b6249797","system_id":"levelo_inurba_marseille","lat":43.284377,"lon":5.391879,"is_reserved":false,"is_disabled":true,"rental_uris":{"android":"levelo://app?vid=85afd5da-6093-45b2-8e67-e004b6249797","ios":"levelo://app?vid=85afd5da-6093-45b2-8e67-e004b6249797"},"vehicle_type_id":"4","last_reported":1761855090,"current_range_meters":8800,"station_id":"ce4bhoh2rcd13ifvqh5g","pricing_plan_id":"cebpf4jnsgd1na2vs0mg"},{"bike_id":"ef077506-ad53-48c6-96ed-57184394616c","system_id":"levelo_inurba_marseille","lat":43.304752,"lon":5.367117,"is_reserved":false,"is_disabled":false,"rental_uris":{"android":"levelo://app?vid=ef077506-ad53-48c6-96ed-57184394616c","ios":"levelo://app?vid=ef077506-ad53-48c6-96ed-57184394616c"},"vehicle_type_id":"4","last_reported":1761855090,"current_range_meters":9200,"station_id":"","pricing_plan_id":"cebpf4jnsgd1na2vs0mg"},{"bike_id":"46f3e991-c55b-4d9d-9a37-f9e3e15f4f3f","system_id":"levelo_inurba_marseille","lat":43.21215,"lon":5.35072,"is_reserved":false,"is_disabled":false,"rental_uris":{"android":"levelo://app?vid=46f3e991-c55b-4d9d-9a37-f9e3e15f4f3f","ios":"levelo://app?vid=46f3e991-c55b-4d9d-9a37-f9e3e15f4f3f"},"vehicle_type_id":"4","last_reported":1761855090,"current_range_meters":9200,"station_id":"st_cvj6sg6p6f1abm77japg","pricing_plan_id":"cebpf4jnsgd1na2vs0mg"},{"bike_id":"30dae0ec-e8ce-4148-b015-1fbdbdc0c254","system_id":"levelo_inurba_marseille","lat":43.29263,"lon":5.38433,"is_reserved":false,"is_disabled":false,"rental_uris":{"android":"levelo://app?vid=30dae0ec-e8ce-4148-b015-1fbdbdc0c254","ios":"levelo://app?vid=30dae0ec-e8ce-4148-b015-1fbdbdc0c254"},"vehicle_type_id":"4","last_reported":1761855090,"current_range_meters":9600,"station_id":"ce4bgup2rcd13ifvqco0","pricing_plan_id":"cebpf4jnsgd1na2vs0mg"},{"bike_id":"3a217d2d-0c7e-4d79-a702-b9135e90946e","system_id":"levelo_inurba_marseille","lat":43.28155,"lon":5.42637,"is_reserved":false,"is_disabled":false,"rental_uris":{"android":"levelo://app?vid=3a217d2d-0c7e-4d79-a702-b9135e90946e","ios":"levelo://app?vid=3a217d2d-0c7e-4d79-a702-b9135e90946e"},"vehicle_type_id":"4","last_reported":1761855090,"current_range_meters":9600,"station_id":"ce4bhnh2rcd13ifvqgug","pricing_plan_id":"cebpf4jnsgd1na2vs0mg"},{"bike_id":"43f643a2-7179-4d04-925e-7f83833309dd","system_id":"levelo_inurba_marseille","lat":43.33605,"lon":5.41033,"is_reserved":false,"is_disabled":false,"rental_uris":{"android":"levelo://app?vid=43f643a2-7179-4d04-925e-7f83833309dd","ios":"levelo://app?vid=43f643a2-7179-4d04-925e-7f83833309dd"},"vehicle_type_id":"4","last_reported":1761855090,"current_range_meters":9600,"station_id":"ce4bhqh2rcd13ifvqhmg","pricing_plan_id":"cebpf4jnsgd1na2vs0mg"},{"bike_id":"a3ce2080-1ab5-49d7-ad08-4839e6e20ece","system_id":"levelo_inurba_marseille","lat":43.31269,"lon":5.40157,"is_reserved":false,"is_disabled":false,"rental_uris":{"android":"levelo://app?vid=a3ce2080-1ab5-49d7-ad08-4839e6e20ece","ios":"levelo://app?vid=a3ce2080-1ab5-49d7-ad08-4839e6e20ece"},"vehicle_type_id":"4","last_reported":1761855090,"current_range_meters":9600,"station_id":"ce4bh092rcd13ifvqd30","pricing_plan_id":"cebpf4jnsgd1na2vs0mg"},{"bike_id":"49ce7199-d40e-4295-9451-e2357d6478f4","system_id":"levelo_inurba_marseille","lat":43.29023,"lon":5.38126,"is_reserved":false,"is_disabled":false,"rental_uris":{"android":"levelo://app?vid=49ce7199-d40e-4295-9451-e2357d6478f4","ios":"levelo://app?vid=49ce7199-d40e-4295-9451-e2357d6478f4"},"vehicle_type_id":"4","last_reported":1761855090,"current_range_meters":10000,"station_id":"ce4bh4p2rcd13ifvqe1g","pricing_plan_id":"cebpf4jnsgd1na2vs0mg"},{"bike_id":"6fff56e2-dc33-4322-9554-e738206d1bc0","system_id":"levelo_inurba_marseille","lat":43.21209,"lon":5.35069,"is_reserved":false,"is_disabled":false,"rental_uris":{"android":"levelo://app?vid=6fff56e2-dc33-4322-9554-e738206d1bc0","ios":"levelo://app?vid=6fff56e2-dc33-4322-9554-e738206d1bc0"},"vehicle_type_id":"4","last_reported":1761855090,"current_range_meters":10000,"station_id":"st_cvj6sg6p6f1abm77japg","pricing_plan_id":"cebpf4jnsgd1na2vs0mg"},{"bike_id":"30a17922-7d79-428c-8d77-d345d5ea509e","system_id":"levelo_inurba_marseille","lat":43.26807,"lon":5.40264,"is_reserved":false,"is_disabled":false,"rental_uris":{"android":"levelo://app?vid=30a17922-7d79-428c-8d77-d345d5ea509e","ios":"levelo://app?vid=30a17922-7d79-428c-8d77-d345d5ea509e"},"vehicle_type_id":"4","last_reported":1761855090,"current_range_meters":10000,"station_id":"ce501612rcd8frsf0b60","pricing_plan_id":"cebpf4jnsgd1na2vs0mg"},{"bike_id":"9e3564a3-3b3b-4a4a-a9e5-f73e91e05ce8","system_id":"levelo_inurba_marseille","lat":43.309104,"lon":5.368469,"is_reserved":false,"is_disabled":true,"rental_uris":{"android":"levelo://app?vid=9e3564a3-3b3b-4a4a-a9e5-f73e91e05ce8","ios":"levelo://app?vid=9e3564a3-3b3b-4a4a-a9e5-f73e91e05ce8"},"vehicle_type_id":"4","last_reported":1761855090,"current_range_meters":10000,"station_id":"ce4bgn92rcd13ifvqbvg","pricing_plan_id":"cebpf4jnsgd1na2vs0mg"},{"bike_id":"db80a38c-7e41-4358-bd47-17a6e9c4640d","system_id":"levelo_inurba_marseille","lat":43.28702,"lon":5.39969,"is_reserved":false,"is_disabled":false,"rental_uris":{"android":"levelo://app?vid=db80a38c-7e41-4358-bd47-17a6e9c4640d","ios":"levelo://app?vid=db80a38c-7e41-4358-bd47-17a6e9c4640d"},"vehicle_type_id":"4","last_reported":1761855090,"current_range_meters":10000,"station_id":"ce4bho92rcd13ifvqh3g","pricing_plan_id":"cebpf4jnsgd1na2vs0mg"},{"bike_id":"8a3f7832-702d-4f6d-bad6-e33601372d84","system_id":"levelo_inurba_marseille","lat":43.29039,"lon":5.38659,"is_reserved":false,"is_disabled":false,"rental_uris":{"android":"levelo://app?vid=8a3f7832-702d-4f6d-bad6-e33601372d84","ios":"levelo://app?vid=8a3f7832-702d-4f6d-bad6-e33601372d84"},"vehicle_type_id":"4","last_reported":1761855090,"current_range_meters":10800,"station_id":"ce4bh4p2rcd13ifvqe0g","pricing_plan_id":"cebpf4jnsgd1na2vs0mg"},{"bike_id":"a3142df9-76c9-44e8-b505-5dc71a1a6002","system_id":"levelo_inurba_marseille","lat":43.29717,"lon":5.37709,"is_reserved":false,"is_disabled":false,"rental_uris":{"android":"levelo://app?vid=a3142df9-76c9-44e8-b505-5dc71a1a6002","ios":"levelo://app?vid=a3142df9-76c9-44e8-b505-5dc71a1a6002"},"vehicle_type_id":"4","last_reported":1761855090,"current_range_meters":10800,"station_id":"ce4bgkh2rcd13ifvqbl0","pricing_plan_id":"cebpf4jnsgd1na2vs0mg"},{"bike_id":"0db070e1-1eb7-4c02-b18a-6ea074a48fba","system_id":"levelo_inurba_marseille","lat":43.30734,"lon":5.42438,"is_reserved":false,"is_disabled":true,"rental_uris":{"android":"levelo://app?vid=0db070e1-1eb7-4c02-b18a-6ea074a48fba","ios":"levelo://app?vid=0db070e1-1eb7-4c02-b18a-6ea074a48fba"},"vehicle_type_id":"4","last_reported":1761855090,"current_range_meters":10800,"station_id":"st_cvj6ca6bvosntc0bfgr0","pricing_plan_id":"cebpf4jnsgd1na2vs0mg"},{"bike_id":"3126ce35-4101-4b06-a7b2-19548fb25089","system_id":"levelo_inurba_marseille","lat":43.21192,"lon":5.35068,"is_reserved":false,"is_disabled":false,"rental_uris":{"android":"levelo://app?vid=3126ce35-4101-4b06-a7b2-19548fb25089","ios":"levelo://app?vid=3126ce35-4101-4b06-a7b2-19548fb25089"},"vehicle_type_id":"4","last_reported":1761855090,"current_range_meters":10800,"station_id":"st_cvj6sg6p6f1abm77japg","pricing_plan_id":"cebpf4jnsgd1na2vs0mg"},{"bike_id":"453ede34-22c8-433f-b4e8-0f6942fec8ef","system_id":"levelo_inurba_marseille","lat":43.29276,"lon":5.38436,"is_reserved":false,"is_disabled":false,"rental_uris":{"android":"levelo://app?vid=453ede34-22c8-433f-b4e8-0f6942fec8ef","ios":"levelo://app?vid=453ede34-22c8-433f-b4e8-0f6942fec8ef"},"vehicle_type_id":"4","last_reported":1761855090,"current_range_meters":10800,"station_id":"ce4bh692rcd13ifvqea0","pricing_plan_id":"cebpf4jnsgd1na2vs0mg"},{"bike_id":"aa8b059f-dcb5-49a6-801e-b272a7a0b232","system_id":"levelo_inurba_marseille","lat":43.336,"lon":5.41033,"is_reserved":false,"is_disabled":false,"rental_uris":{"android":"levelo://app?vid=aa8b059f-dcb5-49a6-801e-b272a7a0b232","ios":"levelo://app?vid=aa8b059f-dcb5-49a6-801e-b272a7a0b232"},"vehicle_type_id":"4","last_reported":1761855090,"current_range_meters":11200,"station_id":"ce4bhqh2rcd13ifvqhmg","pricing_plan_id":"cebpf4jnsgd1na2vs0mg"},{"bike_id":"e1e2a457-df19-4b98-90a8-25aeb1c4995a","system_id":"levelo_inurba_marseille","lat":43.26024,"lon":5.41746,"is_reserved":false,"is_disabled":false,"rental_uris":{"android":"levelo://app?vid=e1e2a457-df19-4b98-90a8-25aeb1c4995a","ios":"levelo://app?vid=e1e2a457-df19-4b98-90a8-25aeb1c4995a"},"vehicle_type_id":"4","last_reported":1761855090,"current_range_meters":11200,"station_id":"","pricing_plan_id":"cebpf4jnsgd1na2vs0mg"},{"bike_id":"299b6d25-0432-40b3-b88d-599bdb7cfc7b","system_id":"levelo_inurba_marseille","lat":43.29525,"lon":5.39036,"is_reserved":false,"is_disabled":true,"rental_uris":{"android":"levelo://app?vid=299b6d25-0432-40b3-b88d-599bdb7cfc7b","ios":"levelo://app?vid=299b6d25-0432-40b3-b88d-599bdb7cfc7b"},"vehicle_type_id":"4","last_reported":1761855090,"current_range_meters":11200,"station_id":"ce4bh3p2rcd13ifvqdp0","pricing_plan_id":"cebpf4jnsgd1na2vs0mg"},{"bike_id":"4ec7ed88-f442-4903-86b9-fba3a44d2262","system_id":"levelo_inurba_marseille","lat":43.30415,"lon":5.39762,"is_reserved":false,"is_disabled":false,"rental_uris":{"android":"levelo://app?vid=4ec7ed88-f442-4903-86b9-fba3a44d2262","ios":"levelo://app?vid=4ec7ed88-f442-4903-86b9-fba3a44d2262"},"vehicle_type_id":"4","last_reported":1761855090,"current_range_meters":11200,"station_id":"ce4bh092rcd13ifvqd20","pricing_plan_id":"cebpf4jnsgd1na2vs0mg"},{"bike_id":"4a3c7e20-bc15-4c9a-ab86-f538bcbad585","system_id":"levelo_inurba_marseille","lat":43.27992,"lon":5.4002,"is_reserved":false,"is_disabled":false,"rental_uris":{"android":"levelo://app?vid=4a3c7e20-bc15-4c9a-ab86-f538bcbad585","ios":"levelo://app?vid=4a3c7e20-bc15-4c9a-ab86-f538bcbad585"},"vehicle_type_id":"4","last_reported":1761855090,"current_range_meters":11200,"station_id":"ce4bho92rcd13ifvqh4g","pricing_plan_id":"cebpf4jnsgd1na2vs0mg"},{"bike_id":"443ae974-7030-4325-bdd5-0f5a1f34f1f5","system_id":"levelo_inurba_marseille","lat":43.287089,"lon":5.373745,"is_reserved":false,"is_disabled":false,"rental_uris":{"android":"levelo://app?vid=443ae974-7030-4325-bdd5-0f5a1f34f1f5","ios":"levelo://app?vid=443ae974-7030-4325-bdd5-0f5a1f34f1f5"},"vehicle_type_id":"4","last_reported":1761855090,"current_range_meters":11200,"station_id":"ce4bh3p2rcd13ifvqdq0","pricing_plan_id":"cebpf4jnsgd1na2vs0mg"},{"bike_id":"582b58c1-ce25-421b-902c-cd3c9cde1895","system_id":"levelo_inurba_marseille","lat":43.28851,"lon":5.42517,"is_reserved":false,"is_disabled":false,"rental_uris":{"android":"levelo://app?vid=582b58c1-ce25-421b-902c-cd3c9cde1895","ios":"levelo://app?vid=582b58c1-ce25-421b-902c-cd3c9cde1895"},"vehicle_type_id":"4","last_reported":1761855090,"current_range_meters":11200,"station_id":"st_d3b462108ojc7389ooeg","pricing_plan_id":"cebpf4jnsgd1na2vs0mg"},{"bike_id":"f9f5725b-4420-4974-8696-29f60feee800","system_id":"levelo_inurba_marseille","lat":43.33606,"lon":5.41021,"is_reserved":false,"is_disabled":false,"rental_uris":{"android":"levelo://app?vid=f9f5725b-4420-4974-8696-29f60feee800","ios":"levelo://app?vid=f9f5725b-4420-4974-8696-29f60feee800"},"vehicle_type_id":"4","last_reported":1761855090,"current_range_meters":11600,"station_id":"ce4bhqh2rcd13ifvqhmg","pricing_plan_id":"cebpf4jnsgd1na2vs0mg"},{"bike_id":"003dc589-afc6-47c4-a84a-e90cd5f91109","system_id":"levelo_inurba_marseille","lat":43.29541,"lon":5.39024,"is_reserved":false,"is_disabled":true,"rental_uris":{"android":"levelo://app?vid=003dc589-afc6-47c4-a84a-e90cd5f91109","ios":"levelo://app?vid=003dc589-afc6-47c4-a84a-e90cd5f91109"},"vehicle_type_id":"4","last_reported":1761855090,"current_range_meters":11600,"station_id":"ce4bh3p2rcd13ifvqdp0","pricing_plan_id":"cebpf4jnsgd1na2vs0mg"},{"bike_id":"293a366c-ad33-464f-be66-4c308271167a","system_id":"levelo_inurba_marseille","lat":43.24177,"lon":5.36379,"is_reserved":false,"is_disabled":false,"rental_uris":{"android":"levelo://app?vid=293a366c-ad33-464f-be66-4c308271167a","ios":"levelo://app?vid=293a366c-ad33-464f-be66-4c308271167a"},"vehicle_type_id":"4","last_reported":1761855090,"current_range_meters":11600,"station_id":"cpo36qri1sfpv3e86is0","pricing_plan_id":"cebpf4jnsgd1na2vs0mg"},{"bike_id":"22fcd177-d227-44bd-b74f-eeb1d40e190d","system_id":"levelo_inurba_marseille","lat":43.29259,"lon":5.38428,"is_reserved":false,"is_disabled":false,"rental_uris":{"android":"levelo://app?vid=22fcd177-d227-44bd-b74f-eeb1d40e190d","ios":"levelo://app?vid=22fcd177-d227-44bd-b74f-eeb1d40e190d"},"vehicle_type_id":"4","last_reported":1761855090,"current_range_meters":11600,"station_id":"ce4bh692rcd13ifvqea0","pricing_plan_id":"cebpf4jnsgd1na2vs0mg"},{"bike_id":"8251321b-4aa7-4d17-beb0-fedcc433fce1","system_id":"levelo_inurba_marseille","lat":43.29101,"lon":5.38137,"is_reserved":false,"is_disabled":false,"rental_uris":{"android":"levelo://app?vid=8251321b-4aa7-4d17-beb0-fedcc433fce1","ios":"levelo://app?vid=8251321b-4aa7-4d17-beb0-fedcc433fce1"},"vehicle_type_id":"4","last_reported":1761855090,"current_range_meters":11600,"station_id":"ce4bh512rcd13ifvqe2g","pricing_plan_id":"cebpf4jnsgd1na2vs0mg"},{"bike_id":"91d47420-8b83-4609-9b2f-c8c2fcc734b2","system_id":"levelo_inurba_marseille","lat":43.29271,"lon":5.38432,"is_reserved":false,"is_disabled":false,"rental_uris":{"android":"levelo://app?vid=91d47420-8b83-4609-9b2f-c8c2fcc734b2","ios":"levelo://app?vid=91d47420-8b83-4609-9b2f-c8c2fcc734b2"},"vehicle_type_id":"4","last_reported":1761855090,"current_range_meters":11600,"station_id":"ce4bh692rcd13ifvqea0","pricing_plan_id":"cebpf4jnsgd1na2vs0mg"},{"bike_id":"e85dc3bf-df6a-446b-914b-75189d622bbb","system_id":"levelo_inurba_marseille","lat":43.301596,"lon":5.385831,"is_reserved":false,"is_disabled":false,"rental_uris":{"android":"levelo://app?vid=e85dc3bf-df6a-446b-914b-75189d622bbb","ios":"levelo://app?vid=e85dc3bf-df6a-446b-914b-75189d622bbb"},"vehicle_type_id":"4","last_reported":1761855090,"current_range_meters":11600,"station_id":"","pricing_plan_id":"cebpf4jnsgd1na2vs0mg"},{"bike_id":"b3176009-f1c1-4bb1-8e68-8b40a1470066","system_id":"levelo_inurba_marseille","lat":43.293303,"lon":5.385653,"is_reserved":false,"is_disabled":false,"rental_uris":{"android":"levelo://app?vid=b3176009-f1c1-4bb1-8e68-8b40a1470066","ios":"levelo://app?vid=b3176009-f1c1-4bb1-8e68-8b40a1470066"},"vehicle_type_id":"4","last_reported":1761855090,"current_range_meters":11600,"station_id":"ce4bgj92rcd13ifvqbd0","pricing_plan_id":"cebpf4jnsgd1na2vs0mg"},{"bike_id":"e7fbda8d-e4b1-4d1d-8e59-650ead40058d","system_id":"levelo_inurba_marseille","lat":43.24631,"lon":5.43144,"is_reserved":false,"is_disabled":false,"rental_uris":{"android":"levelo://app?vid=e7fbda8d-e4b1-4d1d-8e59-650ead40058d","ios":"levelo://app?vid=e7fbda8d-e4b1-4d1d-8e59-650ead40058d"},"vehicle_type_id":"4","last_reported":1761855090,"current_range_meters":12000,"station_id":"st_d2m6c4gdas8pm72e190g","pricing_plan_id":"cebpf4jnsgd1na2vs0mg"},{"bike_id":"2154cf72-7850-436e-b936-4dc563f20840","system_id":"levelo_inurba_marseille","lat":43.290309,"lon":5.386327,"is_reserved":false,"is_disabled":false,"rental_uris":{"android":"levelo://app?vid=2154cf72-7850-436e-b936-4dc563f20840","ios":"levelo://app?vid=2154cf72-7850-436e-b936-4dc563f20840"},"vehicle_type_id":"4","last_reported":1761855090,"current_range_meters":12000,"station_id":"ce4bh4p2rcd13ifvqe0g","pricing_plan_id":"cebpf4jnsgd1na2vs0mg"},{"bike_id":"22219237-c8df-4ea1-8cfc-d971c5dcd449","system_id":"levelo_inurba_marseille","lat":43.240723,"lon":5.37766,"is_reserved":false,"is_disabled":false,"rental_uris":{"android":"levelo://app?vid=22219237-c8df-4ea1-8cfc-d971c5dcd449","ios":"levelo://app?vid=22219237-c8df-4ea1-8cfc-d971c5dcd449"},"vehicle_type_id":"4","last_reported":1761855090,"current_range_meters":12000,"station_id":"ce4bhnp2rcd13ifvqgvg","pricing_plan_id":"cebpf4jnsgd1na2vs0mg"},{"bike_id":"7a0c1c76-1e1a-4d89-9c7f-85113a7e168d","system_id":"levelo_inurba_marseille","lat":43.29567,"lon":5.39969,"is_reserved":false,"is_disabled":false,"rental_uris":{"android":"levelo://app?vid=7a0c1c76-1e1a-4d89-9c7f-85113a7e168d","ios":"levelo://app?vid=7a0c1c76-1e1a-4d89-9c7f-85113a7e168d"},"vehicle_type_id":"4","last_reported":1761855090,"current_range_meters":12000,"station_id":"ce4bh312rcd13ifvqdj0","pricing_plan_id":"cebpf4jnsgd1na2vs0mg"},{"bike_id":"533eafea-9e22-4a8d-a732-3492c11b63ac","system_id":"levelo_inurba_marseille","lat":43.292608,"lon":5.384357,"is_reserved":false,"is_disabled":false,"rental_uris":{"android":"levelo://app?vid=533eafea-9e22-4a8d-a732-3492c11b63ac","ios":"levelo://app?vid=533eafea-9e22-4a8d-a732-3492c11b63ac"},"vehicle_type_id":"4","last_reported":1761855090,"current_range_meters":12000,"station_id":"ce4bgkp2rcd13ifvqbmg","pricing_plan_id":"cebpf4jnsgd1na2vs0mg"},{"bike_id":"602bd207-9505-450b-9b8a-45449b5e30b5","system_id":"levelo_inurba_marseille","lat":43.29622,"lon":5.40597,"is_reserved":false,"is_disabled":false,"rental_uris":{"android":"levelo://app?vid=602bd207-9505-450b-9b8a-45449b5e30b5","ios":"levelo://app?vid=602bd207-9505-450b-9b8a-45449b5e30b5"},"vehicle_type_id":"4","last_reported":1761855090,"current_range_meters":12000,"station_id":"ce4bh0h2rcd13ifvqd60","pricing_plan_id":"cebpf4jnsgd1na2vs0mg"},{"bike_id":"f6bc67db-3f2b-4499-826e-a6540a236ed4","system_id":"levelo_inurba_marseille","lat":43.29258,"lon":5.3844,"is_reserved":false,"is_disabled":false,"rental_uris":{"android":"levelo://app?vid=f6bc67db-3f2b-4499-826e-a6540a236ed4","ios":"levelo://app?vid=f6bc67db-3f2b-4499-826e-a6540a236ed4"},"vehicle_type_id":"4","last_reported":1761855090,"current_range_meters":12000,"station_id":"ce4bh692rcd13ifvqea0","pricing_plan_id":"cebpf4jnsgd1na2vs0mg"},{"bike_id":"42798673-9b43-4db8-be45-b99fbb67e433","system_id":"levelo_inurba_marseille","lat":43.24817,"lon":5.37461,"is_reserved":false,"is_disabled":false,"rental_uris":{"android":"levelo://app?vid=42798673-9b43-4db8-be45-b99fbb67e433","ios":"levelo://app?vid=42798673-9b43-4db8-be45-b99fbb67e433"},"vehicle_type_id":"4","last_reported":1761855090,"current_range_meters":12000,"station_id":"ce4bhgh2rcd13ifvqfb0","pricing_plan_id":"cebpf4jnsgd1na2vs0mg"},{"bike_id":"16d5deda-518a-459f-8aa7-b3d4bbf1e97f","system_id":"levelo_inurba_marseille","lat":43.27971,"lon":5.38721,"is_reserved":false,"is_disabled":false,"rental_uris":{"android":"levelo://app?vid=16d5deda-518a-459f-8aa7-b3d4bbf1e97f","ios":"levelo://app?vid=16d5deda-518a-459f-8aa7-b3d4bbf1e97f"},"vehicle_type_id":"4","last_reported":1761855090,"current_range_meters":12000,"station_id":"ce4bhg12rcd13ifvqf80","pricing_plan_id":"cebpf4jnsgd1na2vs0mg"},{"bike_id":"0ae0a41e-e202-4e91-94c1-4d8114db5cbd","system_id":"levelo_inurba_marseille","lat":43.24072,"lon":5.37761,"is_reserved":false,"is_disabled":false,"rental_uris":{"android":"levelo://app?vid=0ae0a41e-e202-4e91-94c1-4d8114db5cbd","ios":"levelo://app?vid=0ae0a41e-e202-4e91-94c1-4d8114db5cbd"},"vehicle_type_id":"4","last_reported":1761855090,"current_range_meters":12000,"station_id":"ce4bhnp2rcd13ifvqgvg","pricing_plan_id":"cebpf4jnsgd1na2vs0mg"},{"bike_id":"65da4344-84b7-48a2-bd0d-ffe78ce999ef","system_id":"levelo_inurba_marseille","lat":43.305329,"lon":5.366972,"is_reserved":false,"is_disabled":false,"rental_uris":{"android":"levelo://app?vid=65da4344-84b7-48a2-bd0d-ffe78ce999ef","ios":"levelo://app?vid=65da4344-84b7-48a2-bd0d-ffe78ce999ef"},"vehicle_type_id":"4","last_reported":1761855090,"current_range_meters":12000,"station_id":"ce4bgrp2rcd13ifvqc9g","pricing_plan_id":"cebpf4jnsgd1na2vs0mg"},{"bike_id":"5b8bd8bc-e548-4aa5-a737-db3f6403521b","system_id":"levelo_inurba_marseille","lat":43.29145,"lon":5.38291,"is_reserved":false,"is_disabled":false,"rental_uris":{"android":"levelo://app?vid=5b8bd8bc-e548-4aa5-a737-db3f6403521b","ios":"levelo://app?vid=5b8bd8bc-e548-4aa5-a737-db3f6403521b"},"vehicle_type_id":"4","last_reported":1761855090,"current_range_meters":12000,"station_id":"","pricing_plan_id":"cebpf4jnsgd1na2vs0mg"},{"bike_id":"aacafb34-a0a3-4b35-8b9d-5ef51912a783","system_id":"levelo_inurba_marseille","lat":43.2821,"lon":5.39051,"is_reserved":false,"is_disabled":false,"rental_uris":{"android":"levelo://app?vid=aacafb34-a0a3-4b35-8b9d-5ef51912a783","ios":"levelo://app?vid=aacafb34-a0a3-4b35-8b9d-5ef51912a783"},"vehicle_type_id":"4","last_reported":1761855090,"current_range_meters":12000,"station_id":"ce4bhn92rcd13ifvqgsg","pricing_plan_id":"cebpf4jnsgd1na2vs0mg"},{"bike_id":"04d817b9-3e24-4734-82b2-b5857dcbd3ee","system_id":"levelo_inurba_marseille","lat":43.2406,"lon":5.37761,"is_reserved":false,"is_disabled":false,"rental_uris":{"android":"levelo://app?vid=04d817b9-3e24-4734-82b2-b5857dcbd3ee","ios":"levelo://app?vid=04d817b9-3e24-4734-82b2-b5857dcbd3ee"},"vehicle_type_id":"4","last_reported":1761855090,"current_range_meters":12400,"station_id":"ce4bhnp2rcd13ifvqgvg","pricing_plan_id":"cebpf4jnsgd1na2vs0mg"},{"bike_id":"c3f1186d-04b8-4db0-ac7b-69994cec66c2","system_id":"levelo_inurba_marseille","lat":43.28918,"lon":5.38399,"is_reserved":false,"is_disabled":false,"rental_uris":{"android":"levelo://app?vid=c3f1186d-04b8-4db0-ac7b-69994cec66c2","ios":"levelo://app?vid=c3f1186d-04b8-4db0-ac7b-69994cec66c2"},"vehicle_type_id":"4","last_reported":1761855090,"current_range_meters":12400,"station_id":"ce4bh612rcd13ifvqe6g","pricing_plan_id":"cebpf4jnsgd1na2vs0mg"},{"bike_id":"6031e130-bc2f-4945-be2d-739bc30e9d8e","system_id":"levelo_inurba_marseille","lat":43.28538,"lon":5.44097,"is_reserved":false,"is_disabled":false,"rental_uris":{"android":"levelo://app?vid=6031e130-bc2f-4945-be2d-739bc30e9d8e","ios":"levelo://app?vid=6031e130-bc2f-4945-be2d-739bc30e9d8e"},"vehicle_type_id":"4","last_reported":1761855090,"current_range_meters":12400,"station_id":"st_d3j3df2ikq2c7380ej80","pricing_plan_id":"cebpf4jnsgd1na2vs0mg"},{"bike_id":"2b068601-91e8-4670-a4e3-068638b00800","system_id":"levelo_inurba_marseille","lat":43.29589,"lon":5.38104,"is_reserved":false,"is_disabled":false,"rental_uris":{"android":"levelo://app?vid=2b068601-91e8-4670-a4e3-068638b00800","ios":"levelo://app?vid=2b068601-91e8-4670-a4e3-068638b00800"},"vehicle_type_id":"4","last_reported":1761855090,"current_range_meters":12400,"station_id":"ce4bgl12rcd13ifvqbo0","pricing_plan_id":"cebpf4jnsgd1na2vs0mg"},{"bike_id":"74e573e5-0f84-417c-bc43-6345af3a96d5","system_id":"levelo_inurba_marseille","lat":43.28561,"lon":5.3949,"is_reserved":false,"is_disabled":false,"rental_uris":{"android":"levelo://app?vid=74e573e5-0f84-417c-bc43-6345af3a96d5","ios":"levelo://app?vid=74e573e5-0f84-417c-bc43-6345af3a96d5"},"vehicle_type_id":"4","last_reported":1761855090,"current_range_meters":12400,"station_id":"ce4bh292rcd13ifvqdg0","pricing_plan_id":"cebpf4jnsgd1na2vs0mg"},{"bike_id":"f6946de9-6fd5-486c-846e-6aac0ac8e59f","system_id":"levelo_inurba_marseille","lat":43.21193,"lon":5.3508,"is_reserved":false,"is_disabled":false,"rental_uris":{"android":"levelo://app?vid=f6946de9-6fd5-486c-846e-6aac0ac8e59f","ios":"levelo://app?vid=f6946de9-6fd5-486c-846e-6aac0ac8e59f"},"vehicle_type_id":"4","last_reported":1761855090,"current_range_meters":12400,"station_id":"st_cvj6sg6p6f1abm77japg","pricing_plan_id":"cebpf4jnsgd1na2vs0mg"},{"bike_id":"0dc2677d-52f3-4c3e-a4eb-af7b96f166b0","system_id":"levelo_inurba_marseille","lat":43.29021,"lon":5.38651,"is_reserved":false,"is_disabled":false,"rental_uris":{"android":"levelo://app?vid=0dc2677d-52f3-4c3e-a4eb-af7b96f166b0","ios":"levelo://app?vid=0dc2677d-52f3-4c3e-a4eb-af7b96f166b0"},"vehicle_type_id":"4","last_reported":1761855090,"current_range_meters":12400,"station_id":"ce4bh4p2rcd13ifvqe0g","pricing_plan_id":"cebpf4jnsgd1na2vs0mg"},{"bike_id":"11d1af82-1882-4f0d-90d2-b70c3d625817","system_id":"levelo_inurba_marseille","lat":43.27566,"lon":5.38427,"is_reserved":false,"is_disabled":false,"rental_uris":{"android":"levelo://app?vid=11d1af82-1882-4f0d-90d2-b70c3d625817","ios":"levelo://app?vid=11d1af82-1882-4f0d-90d2-b70c3d625817"},"vehicle_type_id":"4","last_reported":1761855090,"current_range_meters":12400,"station_id":"ce4bhh92rcd13ifvqfi0","pricing_plan_id":"cebpf4jnsgd1na2vs0mg"},{"bike_id":"a6596c68-a415-4b70-a72c-321270b4374f","system_id":"levelo_inurba_marseille","lat":43.295294,"lon":5.385475,"is_reserved":false,"is_disabled":false,"rental_uris":{"android":"levelo://app?vid=a6596c68-a415-4b70-a72c-321270b4374f","ios":"levelo://app?vid=a6596c68-a415-4b70-a72c-321270b4374f"},"vehicle_type_id":"4","last_reported":1761855090,"current_range_meters":12400,"station_id":"ce4bgih2rcd13ifvqba0","pricing_plan_id":"cebpf4jnsgd1na2vs0mg"},{"bike_id":"2a0515e8-8d1c-4ea1-ac0d-4200ff2d94fe","system_id":"levelo_inurba_marseille","lat":43.30642,"lon":5.40097,"is_reserved":false,"is_disabled":false,"rental_uris":{"android":"levelo://app?vid=2a0515e8-8d1c-4ea1-ac0d-4200ff2d94fe","ios":"levelo://app?vid=2a0515e8-8d1c-4ea1-ac0d-4200ff2d94fe"},"vehicle_type_id":"4","last_reported":1761855090,"current_range_meters":12800,"station_id":"ce4bh112rcd13ifvqda0","pricing_plan_id":"cebpf4jnsgd1na2vs0mg"},{"bike_id":"8f639f73-302f-4b5a-88c2-03f51cd81ad6","system_id":"levelo_inurba_marseille","lat":43.29195,"lon":5.39323,"is_reserved":false,"is_disabled":false,"rental_uris":{"android":"levelo://app?vid=8f639f73-302f-4b5a-88c2-03f51cd81ad6","ios":"levelo://app?vid=8f639f73-302f-4b5a-88c2-03f51cd81ad6"},"vehicle_type_id":"4","last_reported":1761855090,"current_range_meters":12800,"station_id":"ce4bh192rcd13ifvqdd0","pricing_plan_id":"cebpf4jnsgd1na2vs0mg"},{"bike_id":"d797e0fe-e559-4cdd-b317-e6dda622464a","system_id":"levelo_inurba_marseille","lat":43.29536,"lon":5.38553,"is_reserved":false,"is_disabled":false,"rental_uris":{"android":"levelo://app?vid=d797e0fe-e559-4cdd-b317-e6dda622464a","ios":"levelo://app?vid=d797e0fe-e559-4cdd-b317-e6dda622464a"},"vehicle_type_id":"4","last_reported":1761855090,"current_range_meters":12800,"station_id":"ce4bgih2rcd13ifvqba0","pricing_plan_id":"cebpf4jnsgd1na2vs0mg"},{"bike_id":"a159c7fa-4c33-479a-9130-82f09aa8b34d","system_id":"levelo_inurba_marseille","lat":43.25087,"lon":5.39497,"is_reserved":false,"is_disabled":false,"rental_uris":{"android":"levelo://app?vid=a159c7fa-4c33-479a-9130-82f09aa8b34d","ios":"levelo://app?vid=a159c7fa-4c33-479a-9130-82f09aa8b34d"},"vehicle_type_id":"4","last_reported":1761855090,"current_range_meters":12800,"station_id":"ce4bhm12rcd13ifvqgkg","pricing_plan_id":"cebpf4jnsgd1na2vs0mg"},{"bike_id":"832f8360-f0a1-43f7-8c58-03a9849f627c","system_id":"levelo_inurba_marseille","lat":43.29528,"lon":5.38525,"is_reserved":false,"is_disabled":false,"rental_uris":{"android":"levelo://app?vid=832f8360-f0a1-43f7-8c58-03a9849f627c","ios":"levelo://app?vid=832f8360-f0a1-43f7-8c58-03a9849f627c"},"vehicle_type_id":"4","last_reported":1761855090,"current_range_meters":13600,"station_id":"ce4bgih2rcd13ifvqba0","pricing_plan_id":"cebpf4jnsgd1na2vs0mg"},{"bike_id":"2ec8fd1b-3b42-4f93-a828-68bd711efa51","system_id":"levelo_inurba_marseille","lat":43.24622,"lon":5.43147,"is_reserved":false,"is_disabled":false,"rental_uris":{"android":"levelo://app?vid=2ec8fd1b-3b42-4f93-a828-68bd711efa51","ios":"levelo://app?vid=2ec8fd1b-3b42-4f93-a828-68bd711efa51"},"vehicle_type_id":"4","last_reported":1761855090,"current_range_meters":13600,"station_id":"st_d2m6c4gdas8pm72e190g","pricing_plan_id":"cebpf4jnsgd1na2vs0mg"},{"bike_id":"8c929b2a-4f00-4126-bae8-4e8292f3d6d6","system_id":"levelo_inurba_marseille","lat":43.302277,"lon":5.395111,"is_reserved":false,"is_disabled":false,"rental_uris":{"android":"levelo://app?vid=8c929b2a-4f00-4126-bae8-4e8292f3d6d6","ios":"levelo://app?vid=8c929b2a-4f00-4126-bae8-4e8292f3d6d6"},"vehicle_type_id":"4","last_reported":1761855090,"current_range_meters":13600,"station_id":"","pricing_plan_id":"cebpf4jnsgd1na2vs0mg"},{"bike_id":"49eabeb8-91e9-4fed-9256-a94ef104e5f4","system_id":"levelo_inurba_marseille","lat":43.29583,"lon":5.36734,"is_reserved":false,"is_disabled":false,"rental_uris":{"android":"levelo://app?vid=49eabeb8-91e9-4fed-9256-a94ef104e5f4","ios":"levelo://app?vid=49eabeb8-91e9-4fed-9256-a94ef104e5f4"},"vehicle_type_id":"4","last_reported":1761855090,"current_range_meters":13600,"station_id":"ce4bgph2rcd13ifvqc2g","pricing_plan_id":"cebpf4jnsgd1na2vs0mg"},{"bike_id":"a18dbf48-2c4d-4fa4-a4c5-c9871d73c9a0","system_id":"levelo_inurba_marseille","lat":43.301994,"lon":5.383462,"is_reserved":false,"is_disabled":false,"rental_uris":{"android":"levelo://app?vid=a18dbf48-2c4d-4fa4-a4c5-c9871d73c9a0","ios":"levelo://app?vid=a18dbf48-2c4d-4fa4-a4c5-c9871d73c9a0"},"vehicle_type_id":"4","last_reported":1761855090,"current_range_meters":13600,"station_id":"ce4bgup2rcd13ifvqcn0","pricing_plan_id":"cebpf4jnsgd1na2vs0mg"},{"bike_id":"4c1b2049-b590-4ae2-a090-9d731b00e193","system_id":"levelo_inurba_marseille","lat":43.27061,"lon":5.42287,"is_reserved":false,"is_disabled":false,"rental_uris":{"android":"levelo://app?vid=4c1b2049-b590-4ae2-a090-9d731b00e193","ios":"levelo://app?vid=4c1b2049-b590-4ae2-a090-9d731b00e193"},"vehicle_type_id":"4","last_reported":1761855090,"current_range_meters":13600,"station_id":"ce4bhk92rcd13ifvqgb0","pricing_plan_id":"cebpf4jnsgd1na2vs0mg"},{"bike_id":"71da322f-7555-4dc3-bd8a-80fe63f21dfd","system_id":"levelo_inurba_marseille","lat":43.29264,"lon":5.38445,"is_reserved":false,"is_disabled":false,"rental_uris":{"android":"levelo://app?vid=71da322f-7555-4dc3-bd8a-80fe63f21dfd","ios":"levelo://app?vid=71da322f-7555-4dc3-bd8a-80fe63f21dfd"},"vehicle_type_id":"4","last_reported":1761855090,"current_range_meters":13600,"station_id":"ce4bh692rcd13ifvqea0","pricing_plan_id":"cebpf4jnsgd1na2vs0mg"},{"bike_id":"c3da473c-3b1b-48fc-ac48-dbcad31b98c6","system_id":"levelo_inurba_marseille","lat":43.28716,"lon":5.37931,"is_reserved":false,"is_disabled":false,"rental_uris":{"android":"levelo://app?vid=c3da473c-3b1b-48fc-ac48-dbcad31b98c6","ios":"levelo://app?vid=c3da473c-3b1b-48fc-ac48-dbcad31b98c6"},"vehicle_type_id":"4","last_reported":1761855090,"current_range_meters":13600,"station_id":"ce4bh9p2rcd13ifvqec0","pricing_plan_id":"cebpf4jnsgd1na2vs0mg"},{"bike_id":"ba9e66c1-2687-44b1-a56c-ad87c34cf647","system_id":"levelo_inurba_marseille","lat":43.29532,"lon":5.38549,"is_reserved":false,"is_disabled":false,"rental_uris":{"android":"levelo://app?vid=ba9e66c1-2687-44b1-a56c-ad87c34cf647","ios":"levelo://app?vid=ba9e66c1-2687-44b1-a56c-ad87c34cf647"},"vehicle_type_id":"4","last_reported":1761855090,"current_range_meters":13600,"station_id":"ce4bgih2rcd13ifvqba0","pricing_plan_id":"cebpf4jnsgd1na2vs0mg"},{"bike_id":"609eccca-b55b-4605-87cd-a8fbec0dfdd6","system_id":"levelo_inurba_marseille","lat":43.29638,"lon":5.406,"is_reserved":false,"is_disabled":false,"rental_uris":{"android":"levelo://app?vid=609eccca-b55b-4605-87cd-a8fbec0dfdd6","ios":"levelo://app?vid=609eccca-b55b-4605-87cd-a8fbec0dfdd6"},"vehicle_type_id":"4","last_reported":1761855090,"current_range_meters":14000,"station_id":"ce4bh0h2rcd13ifvqd60","pricing_plan_id":"cebpf4jnsgd1na2vs0mg"},{"bike_id":"e3ca2549-eb59-4def-9517-65994bf38d12","system_id":"levelo_inurba_marseille","lat":43.29875,"lon":5.39726,"is_reserved":false,"is_disabled":false,"rental_uris":{"android":"levelo://app?vid=e3ca2549-eb59-4def-9517-65994bf38d12","ios":"levelo://app?vid=e3ca2549-eb59-4def-9517-65994bf38d12"},"vehicle_type_id":"4","last_reported":1761855090,"current_range_meters":14000,"station_id":"ce4bh0h2rcd13ifvqd50","pricing_plan_id":"cebpf4jnsgd1na2vs0mg"},{"bike_id":"e43a9cd2-21d7-4cf6-a759-05b557878143","system_id":"levelo_inurba_marseille","lat":43.2466,"lon":5.43116,"is_reserved":false,"is_disabled":false,"rental_uris":{"android":"levelo://app?vid=e43a9cd2-21d7-4cf6-a759-05b557878143","ios":"levelo://app?vid=e43a9cd2-21d7-4cf6-a759-05b557878143"},"vehicle_type_id":"4","last_reported":1761855090,"current_range_meters":14000,"station_id":"st_d2m6c4gdas8pm72e190g","pricing_plan_id":"cebpf4jnsgd1na2vs0mg"},{"bike_id":"e5283840-de38-4cb0-9bbc-8f1e5da3c23f","system_id":"levelo_inurba_marseille","lat":43.29436,"lon":5.39745,"is_reserved":false,"is_disabled":false,"rental_uris":{"android":"levelo://app?vid=e5283840-de38-4cb0-9bbc-8f1e5da3c23f","ios":"levelo://app?vid=e5283840-de38-4cb0-9bbc-8f1e5da3c23f"},"vehicle_type_id":"4","last_reported":1761855090,"current_range_meters":14000,"station_id":"ce4bh3h2rcd13ifvqdo0","pricing_plan_id":"cebpf4jnsgd1na2vs0mg"},{"bike_id":"4aa0c85e-3fb3-41c0-96ce-a2fdd6bb8a26","system_id":"levelo_inurba_marseille","lat":43.29708,"lon":5.366085,"is_reserved":false,"is_disabled":false,"rental_uris":{"android":"levelo://app?vid=4aa0c85e-3fb3-41c0-96ce-a2fdd6bb8a26","ios":"levelo://app?vid=4aa0c85e-3fb3-41c0-96ce-a2fdd6bb8a26"},"vehicle_type_id":"4","last_reported":1761855090,"current_range_meters":14000,"station_id":"ce4bgn12rcd13ifvqbt0","pricing_plan_id":"cebpf4jnsgd1na2vs0mg"},{"bike_id":"93276f62-73de-4cca-b4f6-1f053030968c","system_id":"levelo_inurba_marseille","lat":43.29265,"lon":5.3844,"is_reserved":false,"is_disabled":false,"rental_uris":{"android":"levelo://app?vid=93276f62-73de-4cca-b4f6-1f053030968c","ios":"levelo://app?vid=93276f62-73de-4cca-b4f6-1f053030968c"},"vehicle_type_id":"4","last_reported":1761855090,"current_range_meters":14000,"station_id":"ce4bh692rcd13ifvqea0","pricing_plan_id":"cebpf4jnsgd1na2vs0mg"},{"bike_id":"7f597b80-e60b-4d55-8e6a-3e68b1031742","system_id":"levelo_inurba_marseille","lat":43.25083,"lon":5.39534,"is_reserved":false,"is_disabled":false,"rental_uris":{"android":"levelo://app?vid=7f597b80-e60b-4d55-8e6a-3e68b1031742","ios":"levelo://app?vid=7f597b80-e60b-4d55-8e6a-3e68b1031742"},"vehicle_type_id":"4","last_reported":1761855090,"current_range_meters":14400,"station_id":"ce4bhm12rcd13ifvqgkg","pricing_plan_id":"cebpf4jnsgd1na2vs0mg"},{"bike_id":"9b93b5e1-c939-4745-bf85-2d21945442dc","system_id":"levelo_inurba_marseille","lat":43.29998,"lon":5.36409,"is_reserved":false,"is_disabled":false,"rental_uris":{"android":"levelo://app?vid=9b93b5e1-c939-4745-bf85-2d21945442dc","ios":"levelo://app?vid=9b93b5e1-c939-4745-bf85-2d21945442dc"},"vehicle_type_id":"4","last_reported":1761855090,"current_range_meters":14400,"station_id":"","pricing_plan_id":"cebpf4jnsgd1na2vs0mg"},{"bike_id":"ccad64aa-5069-4b94-b03d-2dfcaa2d30c4","system_id":"levelo_inurba_marseille","lat":43.30888,"lon":5.39644,"is_reserved":false,"is_disabled":false,"rental_uris":{"android":"levelo://app?vid=ccad64aa-5069-4b94-b03d-2dfcaa2d30c4","ios":"levelo://app?vid=ccad64aa-5069-4b94-b03d-2dfcaa2d30c4"},"vehicle_type_id":"4","last_reported":1761855090,"current_range_meters":14400,"station_id":"ce4bh012rcd13ifvqcv0","pricing_plan_id":"cebpf4jnsgd1na2vs0mg"},{"bike_id":"08b2eda2-0e70-4be1-8cbd-085b9bda286c","system_id":"levelo_inurba_marseille","lat":43.298901,"lon":5.36475,"is_reserved":false,"is_disabled":false,"rental_uris":{"android":"levelo://app?vid=08b2eda2-0e70-4be1-8cbd-085b9bda286c","ios":"levelo://app?vid=08b2eda2-0e70-4be1-8cbd-085b9bda286c"},"vehicle_type_id":"4","last_reported":1761855090,"current_range_meters":14400,"station_id":"ce4bgl12rcd13ifvqbo0","pricing_plan_id":"cebpf4jnsgd1na2vs0mg"},{"bike_id":"2f3fc3a0-335a-4304-bbd1-0710b6dd4435","system_id":"levelo_inurba_marseille","lat":43.29543,"lon":5.38554,"is_reserved":false,"is_disabled":false,"rental_uris":{"android":"levelo://app?vid=2f3fc3a0-335a-4304-bbd1-0710b6dd4435","ios":"levelo://app?vid=2f3fc3a0-335a-4304-bbd1-0710b6dd4435"},"vehicle_type_id":"4","last_reported":1761855090,"current_range_meters":14400,"station_id":"ce4bgih2rcd13ifvqba0","pricing_plan_id":"cebpf4jnsgd1na2vs0mg"},{"bike_id":"899f498b-b0d2-4609-8c9e-15400a9cb9bf","system_id":"levelo_inurba_marseille","lat":43.29535,"lon":5.38534,"is_reserved":false,"is_disabled":false,"rental_uris":{"android":"levelo://app?vid=899f498b-b0d2-4609-8c9e-15400a9cb9bf","ios":"levelo://app?vid=899f498b-b0d2-4609-8c9e-15400a9cb9bf"},"vehicle_type_id":"4","last_reported":1761855090,"current_range_meters":14400,"station_id":"ce4bgih2rcd13ifvqba0","pricing_plan_id":"cebpf4jnsgd1na2vs0mg"},{"bike_id":"a0d564f2-5ac0-4238-b3be-1fed830781ea","system_id":"levelo_inurba_marseille","lat":43.273801,"lon":5.362358,"is_reserved":false,"is_disabled":false,"rental_uris":{"android":"levelo://app?vid=a0d564f2-5ac0-4238-b3be-1fed830781ea","ios":"levelo://app?vid=a0d564f2-5ac0-4238-b3be-1fed830781ea"},"vehicle_type_id":"4","last_reported":1761855090,"current_range_meters":14400,"station_id":"","pricing_plan_id":"cebpf4jnsgd1na2vs0mg"},{"bike_id":"f0f4e9c6-0d3e-4e63-8b2a-1bf38004cf45","system_id":"levelo_inurba_marseille","lat":43.29523,"lon":5.3855,"is_reserved":false,"is_disabled":false,"rental_uris":{"android":"levelo://app?vid=f0f4e9c6-0d3e-4e63-8b2a-1bf38004cf45","ios":"levelo://app?vid=f0f4e9c6-0d3e-4e63-8b2a-1bf38004cf45"},"vehicle_type_id":"4","last_reported":1761855090,"current_range_meters":14400,"station_id":"ce4bgih2rcd13ifvqba0","pricing_plan_id":"cebpf4jnsgd1na2vs0mg"},{"bike_id":"a34662d3-e5b7-480c-a8d3-fb7392c7a33b","system_id":"levelo_inurba_marseille","lat":43.30129,"lon":5.39866,"is_reserved":false,"is_disabled":false,"rental_uris":{"android":"levelo://app?vid=a34662d3-e5b7-480c-a8d3-fb7392c7a33b","ios":"levelo://app?vid=a34662d3-e5b7-480c-a8d3-fb7392c7a33b"},"vehicle_type_id":"4","last_reported":1761855090,"current_range_meters":14400,"station_id":"ce4bh0h2rcd13ifvqd40","pricing_plan_id":"cebpf4jnsgd1na2vs0mg"},{"bike_id":"5af8c783-480c-4ad1-bee7-1d10d161ae7e","system_id":"levelo_inurba_marseille","lat":43.29605,"lon":5.38097,"is_reserved":false,"is_disabled":false,"rental_uris":{"android":"levelo://app?vid=5af8c783-480c-4ad1-bee7-1d10d161ae7e","ios":"levelo://app?vid=5af8c783-480c-4ad1-bee7-1d10d161ae7e"},"vehicle_type_id":"4","last_reported":1761855090,"current_range_meters":14400,"station_id":"ce4bgl12rcd13ifvqbo0","pricing_plan_id":"cebpf4jnsgd1na2vs0mg"},{"bike_id":"cb4434ef-8f35-48b1-a114-619cac4c7712","system_id":"levelo_inurba_marseille","lat":43.29293,"lon":5.38414,"is_reserved":false,"is_disabled":false,"rental_uris":{"android":"levelo://app?vid=cb4434ef-8f35-48b1-a114-619cac4c7712","ios":"levelo://app?vid=cb4434ef-8f35-48b1-a114-619cac4c7712"},"vehicle_type_id":"4","last_reported":1761855090,"current_range_meters":14400,"station_id":"ce4bh692rcd13ifvqea0","pricing_plan_id":"cebpf4jnsgd1na2vs0mg"},{"bike_id":"b61e1e59-261f-4781-9885-10fc3dd1eaf7","system_id":"levelo_inurba_marseille","lat":43.30491,"lon":5.36859,"is_reserved":false,"is_disabled":false,"rental_uris":{"android":"levelo://app?vid=b61e1e59-261f-4781-9885-10fc3dd1eaf7","ios":"levelo://app?vid=b61e1e59-261f-4781-9885-10fc3dd1eaf7"},"vehicle_type_id":"4","last_reported":1761855090,"current_range_meters":14400,"station_id":"","pricing_plan_id":"cebpf4jnsgd1na2vs0mg"},{"bike_id":"c0a1ab8d-72ff-4114-b274-fdab8f1c3cb0","system_id":"levelo_inurba_marseille","lat":43.24697,"lon":5.38177,"is_reserved":false,"is_disabled":false,"rental_uris":{"android":"levelo://app?vid=c0a1ab8d-72ff-4114-b274-fdab8f1c3cb0","ios":"levelo://app?vid=c0a1ab8d-72ff-4114-b274-fdab8f1c3cb0"},"vehicle_type_id":"4","last_reported":1761855090,"current_range_meters":14800,"station_id":"ce4bhih2rcd13ifvqfr0","pricing_plan_id":"cebpf4jnsgd1na2vs0mg"},{"bike_id":"d3e4191f-8708-4957-a7db-efe93d73dc66","system_id":"levelo_inurba_marseille","lat":43.2855,"lon":5.44077,"is_reserved":false,"is_disabled":false,"rental_uris":{"android":"levelo://app?vid=d3e4191f-8708-4957-a7db-efe93d73dc66","ios":"levelo://app?vid=d3e4191f-8708-4957-a7db-efe93d73dc66"},"vehicle_type_id":"4","last_reported":1761855090,"current_range_meters":14800,"station_id":"st_d3j3df2ikq2c7380ej80","pricing_plan_id":"cebpf4jnsgd1na2vs0mg"},{"bike_id":"69daedd1-e532-426c-b096-24cfed29fb24","system_id":"levelo_inurba_marseille","lat":43.27945,"lon":5.41046,"is_reserved":false,"is_disabled":false,"rental_uris":{"android":"levelo://app?vid=69daedd1-e532-426c-b096-24cfed29fb24","ios":"levelo://app?vid=69daedd1-e532-426c-b096-24cfed29fb24"},"vehicle_type_id":"4","last_reported":1761855090,"current_range_meters":14800,"station_id":"ce4bhnp2rcd13ifvqh0g","pricing_plan_id":"cebpf4jnsgd1na2vs0mg"},{"bike_id":"a0225ff1-ee83-4f66-9db2-6a397e641566","system_id":"levelo_inurba_marseille","lat":43.29273,"lon":5.38416,"is_reserved":false,"is_disabled":false,"rental_uris":{"android":"levelo://app?vid=a0225ff1-ee83-4f66-9db2-6a397e641566","ios":"levelo://app?vid=a0225ff1-ee83-4f66-9db2-6a397e641566"},"vehicle_type_id":"4","last_reported":1761855090,"current_range_meters":14800,"station_id":"ce4bh692rcd13ifvqea0","pricing_plan_id":"cebpf4jnsgd1na2vs0mg"},{"bike_id":"8ac20fd4-0440-4483-a88b-ff8baa0ca3ad","system_id":"levelo_inurba_marseille","lat":43.29272,"lon":5.3844,"is_reserved":false,"is_disabled":false,"rental_uris":{"android":"levelo://app?vid=8ac20fd4-0440-4483-a88b-ff8baa0ca3ad","ios":"levelo://app?vid=8ac20fd4-0440-4483-a88b-ff8baa0ca3ad"},"vehicle_type_id":"4","last_reported":1761855090,"current_range_meters":14800,"station_id":"ce4bh692rcd13ifvqea0","pricing_plan_id":"cebpf4jnsgd1na2vs0mg"},{"bike_id":"4d7d62ab-4ac7-4f11-a006-c751970e74e0","system_id":"levelo_inurba_marseille","lat":43.25337,"lon":5.4217,"is_reserved":false,"is_disabled":false,"rental_uris":{"android":"levelo://app?vid=4d7d62ab-4ac7-4f11-a006-c751970e74e0","ios":"levelo://app?vid=4d7d62ab-4ac7-4f11-a006-c751970e74e0"},"vehicle_type_id":"4","last_reported":1761855090,"current_range_meters":14800,"station_id":"st_d2m65c5bi1j21697t3ng","pricing_plan_id":"cebpf4jnsgd1na2vs0mg"},{"bike_id":"c2b29e2a-9ddf-4599-9569-ebeda3771708","system_id":"levelo_inurba_marseille","lat":43.211945,"lon":5.350766,"is_reserved":false,"is_disabled":false,"rental_uris":{"android":"levelo://app?vid=c2b29e2a-9ddf-4599-9569-ebeda3771708","ios":"levelo://app?vid=c2b29e2a-9ddf-4599-9569-ebeda3771708"},"vehicle_type_id":"4","last_reported":1761855090,"current_range_meters":14800,"station_id":"st_cvj6sg6p6f1abm77japg","pricing_plan_id":"cebpf4jnsgd1na2vs0mg"},{"bike_id":"9c40ab23-f574-43b7-a1b3-f218d54f4aef","system_id":"levelo_inurba_marseille","lat":43.245448,"lon":5.395213,"is_reserved":false,"is_disabled":false,"rental_uris":{"android":"levelo://app?vid=9c40ab23-f574-43b7-a1b3-f218d54f4aef","ios":"levelo://app?vid=9c40ab23-f574-43b7-a1b3-f218d54f4aef"},"vehicle_type_id":"4","last_reported":1761855090,"current_range_meters":14800,"station_id":"ce4bhlp2rcd13ifvqgjg","pricing_plan_id":"cebpf4jnsgd1na2vs0mg"},{"bike_id":"5497fc64-3f04-4c20-8af9-11c2c6be6813","system_id":"levelo_inurba_marseille","lat":43.29283,"lon":5.40115,"is_reserved":false,"is_disabled":false,"rental_uris":{"android":"levelo://app?vid=5497fc64-3f04-4c20-8af9-11c2c6be6813","ios":"levelo://app?vid=5497fc64-3f04-4c20-8af9-11c2c6be6813"},"vehicle_type_id":"4","last_reported":1761855090,"current_range_meters":14800,"station_id":"ce4bh312rcd13ifvqdk0","pricing_plan_id":"cebpf4jnsgd1na2vs0mg"},{"bike_id":"2b8c368e-798b-42fc-b7cb-ce5347658b55","system_id":"levelo_inurba_marseille","lat":43.296374,"lon":5.377275,"is_reserved":false,"is_disabled":false,"rental_uris":{"android":"levelo://app?vid=2b8c368e-798b-42fc-b7cb-ce5347658b55","ios":"levelo://app?vid=2b8c368e-798b-42fc-b7cb-ce5347658b55"},"vehicle_type_id":"4","last_reported":1761855090,"current_range_meters":14800,"station_id":"ce4bgi92rcd13ifvqb90","pricing_plan_id":"cebpf4jnsgd1na2vs0mg"},{"bike_id":"13b5bebc-2277-4643-9efc-b419c3a09bbd","system_id":"levelo_inurba_marseille","lat":43.22934,"lon":5.35378,"is_reserved":false,"is_disabled":false,"rental_uris":{"android":"levelo://app?vid=13b5bebc-2277-4643-9efc-b419c3a09bbd","ios":"levelo://app?vid=13b5bebc-2277-4643-9efc-b419c3a09bbd"},"vehicle_type_id":"4","last_reported":1761855090,"current_range_meters":15200,"station_id":"cpo3532slgdg3j2ikp40","pricing_plan_id":"cebpf4jnsgd1na2vs0mg"},{"bike_id":"960e6fa4-4740-4586-b1d8-4bb7b95af038","system_id":"levelo_inurba_marseille","lat":43.249431,"lon":5.404884,"is_reserved":false,"is_disabled":false,"rental_uris":{"android":"levelo://app?vid=960e6fa4-4740-4586-b1d8-4bb7b95af038","ios":"levelo://app?vid=960e6fa4-4740-4586-b1d8-4bb7b95af038"},"vehicle_type_id":"4","last_reported":1761855090,"current_range_meters":15200,"station_id":"st_d2ngiaodas8pm72gd1h0","pricing_plan_id":"cebpf4jnsgd1na2vs0mg"},{"bike_id":"4f23ab94-a366-4a0d-b0ec-e7b48be6c810","system_id":"levelo_inurba_marseille","lat":43.29253,"lon":5.3846,"is_reserved":false,"is_disabled":false,"rental_uris":{"android":"levelo://app?vid=4f23ab94-a366-4a0d-b0ec-e7b48be6c810","ios":"levelo://app?vid=4f23ab94-a366-4a0d-b0ec-e7b48be6c810"},"vehicle_type_id":"4","last_reported":1761855090,"current_range_meters":15200,"station_id":"ce4bh692rcd13ifvqea0","pricing_plan_id":"cebpf4jnsgd1na2vs0mg"},{"bike_id":"f1ebec42-de39-49cb-aa79-a7d00cd08ff7","system_id":"levelo_inurba_marseille","lat":43.293043,"lon":5.371513,"is_reserved":false,"is_disabled":false,"rental_uris":{"android":"levelo://app?vid=f1ebec42-de39-49cb-aa79-a7d00cd08ff7","ios":"levelo://app?vid=f1ebec42-de39-49cb-aa79-a7d00cd08ff7"},"vehicle_type_id":"4","last_reported":1761855090,"current_range_meters":15200,"station_id":"","pricing_plan_id":"cebpf4jnsgd1na2vs0mg"},{"bike_id":"5930fc7f-ac6a-4b43-9c2d-4fac0728b2ae","system_id":"levelo_inurba_marseille","lat":43.30334,"lon":5.402879,"is_reserved":false,"is_disabled":false,"rental_uris":{"android":"levelo://app?vid=5930fc7f-ac6a-4b43-9c2d-4fac0728b2ae","ios":"levelo://app?vid=5930fc7f-ac6a-4b43-9c2d-4fac0728b2ae"},"vehicle_type_id":"4","last_reported":1761855090,"current_range_meters":15200,"station_id":"ce4bh012rcd13ifvqd10","pricing_plan_id":"cebpf4jnsgd1na2vs0mg"},{"bike_id":"382a3ba7-d376-4cdb-8ec1-2ca215a52431","system_id":"levelo_inurba_marseille","lat":43.311051,"lon":5.383896,"is_reserved":false,"is_disabled":false,"rental_uris":{"android":"levelo://app?vid=382a3ba7-d376-4cdb-8ec1-2ca215a52431","ios":"levelo://app?vid=382a3ba7-d376-4cdb-8ec1-2ca215a52431"},"vehicle_type_id":"4","last_reported":1761855090,"current_range_meters":15200,"station_id":"ce4bgv92rcd13ifvqcr0","pricing_plan_id":"cebpf4jnsgd1na2vs0mg"},{"bike_id":"2a87364f-71f3-42cc-a371-d0fcca6f7e2d","system_id":"levelo_inurba_marseille","lat":43.30888,"lon":5.3966,"is_reserved":false,"is_disabled":false,"rental_uris":{"android":"levelo://app?vid=2a87364f-71f3-42cc-a371-d0fcca6f7e2d","ios":"levelo://app?vid=2a87364f-71f3-42cc-a371-d0fcca6f7e2d"},"vehicle_type_id":"4","last_reported":1761855090,"current_range_meters":15200,"station_id":"ce4bh012rcd13ifvqcv0","pricing_plan_id":"cebpf4jnsgd1na2vs0mg"},{"bike_id":"795876d8-ce78-490e-ab88-4dfd55d3ecd0","system_id":"levelo_inurba_marseille","lat":43.29551,"lon":5.38524,"is_reserved":false,"is_disabled":false,"rental_uris":{"android":"levelo://app?vid=795876d8-ce78-490e-ab88-4dfd55d3ecd0","ios":"levelo://app?vid=795876d8-ce78-490e-ab88-4dfd55d3ecd0"},"vehicle_type_id":"4","last_reported":1761855090,"current_range_meters":16000,"station_id":"ce4bgih2rcd13ifvqba0","pricing_plan_id":"cebpf4jnsgd1na2vs0mg"},{"bike_id":"88327406-ba65-4ce0-831c-3da476dbb691","system_id":"levelo_inurba_marseille","lat":43.2378,"lon":5.36599,"is_reserved":false,"is_disabled":false,"rental_uris":{"android":"levelo://app?vid=88327406-ba65-4ce0-831c-3da476dbb691","ios":"levelo://app?vid=88327406-ba65-4ce0-831c-3da476dbb691"},"vehicle_type_id":"4","last_reported":1761855090,"current_range_meters":16000,"station_id":"st_d3nk18o9ro0c73en2l3g","pricing_plan_id":"cebpf4jnsgd1na2vs0mg"},{"bike_id":"30529403-b334-4b55-8e18-673020eb58a2","system_id":"levelo_inurba_marseille","lat":43.2953,"lon":5.38545,"is_reserved":false,"is_disabled":false,"rental_uris":{"android":"levelo://app?vid=30529403-b334-4b55-8e18-673020eb58a2","ios":"levelo://app?vid=30529403-b334-4b55-8e18-673020eb58a2"},"vehicle_type_id":"4","last_reported":1761855090,"current_range_meters":16000,"station_id":"ce4bgih2rcd13ifvqba0","pricing_plan_id":"cebpf4jnsgd1na2vs0mg"},{"bike_id":"905644b9-04d7-4435-8797-982a8470b11f","system_id":"levelo_inurba_marseille","lat":43.29269,"lon":5.38429,"is_reserved":false,"is_disabled":false,"rental_uris":{"android":"levelo://app?vid=905644b9-04d7-4435-8797-982a8470b11f","ios":"levelo://app?vid=905644b9-04d7-4435-8797-982a8470b11f"},"vehicle_type_id":"4","last_reported":1761855090,"current_range_meters":16000,"station_id":"ce4bh692rcd13ifvqea0","pricing_plan_id":"cebpf4jnsgd1na2vs0mg"},{"bike_id":"ea26f597-91d1-4f54-b158-8d3bda3cc998","system_id":"levelo_inurba_marseille","lat":43.32269,"lon":5.38279,"is_reserved":false,"is_disabled":false,"rental_uris":{"android":"levelo://app?vid=ea26f597-91d1-4f54-b158-8d3bda3cc998","ios":"levelo://app?vid=ea26f597-91d1-4f54-b158-8d3bda3cc998"},"vehicle_type_id":"4","last_reported":1761855090,"current_range_meters":16000,"station_id":"ce4bhr12rcd13ifvqhqg","pricing_plan_id":"cebpf4jnsgd1na2vs0mg"},{"bike_id":"a657bfed-2a8a-41a5-8d2c-2d032f3588c4","system_id":"levelo_inurba_marseille","lat":43.255101,"lon":5.376639,"is_reserved":false,"is_disabled":false,"rental_uris":{"android":"levelo://app?vid=a657bfed-2a8a-41a5-8d2c-2d032f3588c4","ios":"levelo://app?vid=a657bfed-2a8a-41a5-8d2c-2d032f3588c4"},"vehicle_type_id":"4","last_reported":1761855090,"current_range_meters":16000,"station_id":"ce4bhh12rcd13ifvqff0","pricing_plan_id":"cebpf4jnsgd1na2vs0mg"},{"bike_id":"138ff61d-8859-4ecb-a94c-3a8ea01a7893","system_id":"levelo_inurba_marseille","lat":43.27947,"lon":5.41034,"is_reserved":false,"is_disabled":false,"rental_uris":{"android":"levelo://app?vid=138ff61d-8859-4ecb-a94c-3a8ea01a7893","ios":"levelo://app?vid=138ff61d-8859-4ecb-a94c-3a8ea01a7893"},"vehicle_type_id":"4","last_reported":1761855090,"current_range_meters":16000,"station_id":"ce4bhnp2rcd13ifvqh0g","pricing_plan_id":"cebpf4jnsgd1na2vs0mg"},{"bike_id":"28bbf614-7806-40a7-b631-19d992de53ed","system_id":"levelo_inurba_marseille","lat":43.22934,"lon":5.35368,"is_reserved":false,"is_disabled":false,"rental_uris":{"android":"levelo://app?vid=28bbf614-7806-40a7-b631-19d992de53ed","ios":"levelo://app?vid=28bbf614-7806-40a7-b631-19d992de53ed"},"vehicle_type_id":"4","last_reported":1761855090,"current_range_meters":16000,"station_id":"cpo3532slgdg3j2ikp40","pricing_plan_id":"cebpf4jnsgd1na2vs0mg"},{"bike_id":"c0381cfe-4020-45a1-a90a-c73928248165","system_id":"levelo_inurba_marseille","lat":43.28416,"lon":5.37507,"is_reserved":false,"is_disabled":false,"rental_uris":{"android":"levelo://app?vid=c0381cfe-4020-45a1-a90a-c73928248165","ios":"levelo://app?vid=c0381cfe-4020-45a1-a90a-c73928248165"},"vehicle_type_id":"4","last_reported":1761855090,"current_range_meters":16000,"station_id":"ce4bh412rcd13ifvqds0","pricing_plan_id":"cebpf4jnsgd1na2vs0mg"},{"bike_id":"0ea07904-84f7-4751-a79c-34eb67ef8001","system_id":"levelo_inurba_marseille","lat":43.24552,"lon":5.39511,"is_reserved":false,"is_disabled":false,"rental_uris":{"android":"levelo://app?vid=0ea07904-84f7-4751-a79c-34eb67ef8001","ios":"levelo://app?vid=0ea07904-84f7-4751-a79c-34eb67ef8001"},"vehicle_type_id":"4","last_reported":1761855090,"current_range_meters":16400,"station_id":"ce4bhlp2rcd13ifvqgjg","pricing_plan_id":"cebpf4jnsgd1na2vs0mg"},{"bike_id":"0e8e0a18-4139-452e-bab3-cb99f058b247","system_id":"levelo_inurba_marseille","lat":43.29478,"lon":5.4196,"is_reserved":false,"is_disabled":true,"rental_uris":{"android":"levelo://app?vid=0e8e0a18-4139-452e-bab3-cb99f058b247","ios":"levelo://app?vid=0e8e0a18-4139-452e-bab3-cb99f058b247"},"vehicle_type_id":"4","last_reported":1761855090,"current_range_meters":16400,"station_id":"","pricing_plan_id":"cebpf4jnsgd1na2vs0mg"},{"bike_id":"93c5af55-ebe4-4a52-94fe-ad84a6615230","system_id":"levelo_inurba_marseille","lat":43.30421,"lon":5.39759,"is_reserved":false,"is_disabled":false,"rental_uris":{"android":"levelo://app?vid=93c5af55-ebe4-4a52-94fe-ad84a6615230","ios":"levelo://app?vid=93c5af55-ebe4-4a52-94fe-ad84a6615230"},"vehicle_type_id":"4","last_reported":1761855090,"current_range_meters":16400,"station_id":"ce4bh092rcd13ifvqd20","pricing_plan_id":"cebpf4jnsgd1na2vs0mg"},{"bike_id":"cafd70c9-5a1b-4c5f-97a0-706f7372d09f","system_id":"levelo_inurba_marseille","lat":43.29526,"lon":5.39027,"is_reserved":false,"is_disabled":false,"rental_uris":{"android":"levelo://app?vid=cafd70c9-5a1b-4c5f-97a0-706f7372d09f","ios":"levelo://app?vid=cafd70c9-5a1b-4c5f-97a0-706f7372d09f"},"vehicle_type_id":"4","last_reported":1761855090,"current_range_meters":16400,"station_id":"ce4bh3p2rcd13ifvqdp0","pricing_plan_id":"cebpf4jnsgd1na2vs0mg"},{"bike_id":"80c53fab-d9fd-4b9a-94e7-e3f3183e35da","system_id":"levelo_inurba_marseille","lat":43.33017,"lon":5.39039,"is_reserved":false,"is_disabled":false,"rental_uris":{"android":"levelo://app?vid=80c53fab-d9fd-4b9a-94e7-e3f3183e35da","ios":"levelo://app?vid=80c53fab-d9fd-4b9a-94e7-e3f3183e35da"},"vehicle_type_id":"4","last_reported":1761855090,"current_range_meters":16400,"station_id":"ce4bhr92rcd13ifvqhrg","pricing_plan_id":"cebpf4jnsgd1na2vs0mg"},{"bike_id":"7afafebc-9388-4b96-826a-eb1746b15f9a","system_id":"levelo_inurba_marseille","lat":43.27065,"lon":5.4228,"is_reserved":false,"is_disabled":false,"rental_uris":{"android":"levelo://app?vid=7afafebc-9388-4b96-826a-eb1746b15f9a","ios":"levelo://app?vid=7afafebc-9388-4b96-826a-eb1746b15f9a"},"vehicle_type_id":"4","last_reported":1761855090,"current_range_meters":16400,"station_id":"ce4bhk92rcd13ifvqgb0","pricing_plan_id":"cebpf4jnsgd1na2vs0mg"},{"bike_id":"516995d3-31b4-460f-8436-1dc3fc004b9c","system_id":"levelo_inurba_marseille","lat":43.29257,"lon":5.40913,"is_reserved":false,"is_disabled":false,"rental_uris":{"android":"levelo://app?vid=516995d3-31b4-460f-8436-1dc3fc004b9c","ios":"levelo://app?vid=516995d3-31b4-460f-8436-1dc3fc004b9c"},"vehicle_type_id":"4","last_reported":1761855090,"current_range_meters":16400,"station_id":"ce4bh192rcd13ifvqdc0","pricing_plan_id":"cebpf4jnsgd1na2vs0mg"},{"bike_id":"05a47c24-c74d-4482-aade-5974399cb310","system_id":"levelo_inurba_marseille","lat":43.29606,"lon":5.37672,"is_reserved":false,"is_disabled":false,"rental_uris":{"android":"levelo://app?vid=05a47c24-c74d-4482-aade-5974399cb310","ios":"levelo://app?vid=05a47c24-c74d-4482-aade-5974399cb310"},"vehicle_type_id":"4","last_reported":1761855090,"current_range_meters":16400,"station_id":"ce4bgi92rcd13ifvqb90","pricing_plan_id":"cebpf4jnsgd1na2vs0mg"},{"bike_id":"46835159-5dd5-4fc9-a732-591f6a5307e4","system_id":"levelo_inurba_marseille","lat":43.31351,"lon":5.37912,"is_reserved":false,"is_disabled":false,"rental_uris":{"android":"levelo://app?vid=46835159-5dd5-4fc9-a732-591f6a5307e4","ios":"levelo://app?vid=46835159-5dd5-4fc9-a732-591f6a5307e4"},"vehicle_type_id":"4","last_reported":1761855090,"current_range_meters":16400,"station_id":"","pricing_plan_id":"cebpf4jnsgd1na2vs0mg"},{"bike_id":"d356e609-6afa-459e-89be-41ccb353523b","system_id":"levelo_inurba_marseille","lat":43.28154,"lon":5.42644,"is_reserved":false,"is_disabled":false,"rental_uris":{"android":"levelo://app?vid=d356e609-6afa-459e-89be-41ccb353523b","ios":"levelo://app?vid=d356e609-6afa-459e-89be-41ccb353523b"},"vehicle_type_id":"4","last_reported":1761855090,"current_range_meters":16400,"station_id":"ce4bhnh2rcd13ifvqgug","pricing_plan_id":"cebpf4jnsgd1na2vs0mg"},{"bike_id":"b8f404d3-62c4-4489-a471-d37212346558","system_id":"levelo_inurba_marseille","lat":43.31061,"lon":5.37875,"is_reserved":false,"is_disabled":false,"rental_uris":{"android":"levelo://app?vid=b8f404d3-62c4-4489-a471-d37212346558","ios":"levelo://app?vid=b8f404d3-62c4-4489-a471-d37212346558"},"vehicle_type_id":"4","last_reported":1761855090,"current_range_meters":16400,"station_id":"","pricing_plan_id":"cebpf4jnsgd1na2vs0mg"},{"bike_id":"0ddd52f3-af9c-49de-9bf2-944301dde1b1","system_id":"levelo_inurba_marseille","lat":43.27806,"lon":5.40713,"is_reserved":false,"is_disabled":false,"rental_uris":{"android":"levelo://app?vid=0ddd52f3-af9c-49de-9bf2-944301dde1b1","ios":"levelo://app?vid=0ddd52f3-af9c-49de-9bf2-944301dde1b1"},"vehicle_type_id":"4","last_reported":1761855090,"current_range_meters":16800,"station_id":"ce4bhnh2rcd13ifvqgtg","pricing_plan_id":"cebpf4jnsgd1na2vs0mg"},{"bike_id":"a4dac4fa-66e6-48be-a654-6e17cdc7ca0b","system_id":"levelo_inurba_marseille","lat":43.337571,"lon":5.374323,"is_reserved":false,"is_disabled":false,"rental_uris":{"android":"levelo://app?vid=a4dac4fa-66e6-48be-a654-6e17cdc7ca0b","ios":"levelo://app?vid=a4dac4fa-66e6-48be-a654-6e17cdc7ca0b"},"vehicle_type_id":"4","last_reported":1761855090,"current_range_meters":16800,"station_id":"","pricing_plan_id":"cebpf4jnsgd1na2vs0mg"},{"bike_id":"7528b369-2496-4aed-99a3-7b157cac1c77","system_id":"levelo_inurba_marseille","lat":43.28572,"lon":5.394925,"is_reserved":false,"is_disabled":false,"rental_uris":{"android":"levelo://app?vid=7528b369-2496-4aed-99a3-7b157cac1c77","ios":"levelo://app?vid=7528b369-2496-4aed-99a3-7b157cac1c77"},"vehicle_type_id":"4","last_reported":1761855090,"current_range_meters":16800,"station_id":"ce4bh292rcd13ifvqdg0","pricing_plan_id":"cebpf4jnsgd1na2vs0mg"},{"bike_id":"3cd077a9-68dc-4665-bace-fa4a9bd8e7a3","system_id":"levelo_inurba_marseille","lat":43.295291,"lon":5.385458,"is_reserved":false,"is_disabled":false,"rental_uris":{"android":"levelo://app?vid=3cd077a9-68dc-4665-bace-fa4a9bd8e7a3","ios":"levelo://app?vid=3cd077a9-68dc-4665-bace-fa4a9bd8e7a3"},"vehicle_type_id":"4","last_reported":1761855090,"current_range_meters":16800,"station_id":"","pricing_plan_id":"cebpf4jnsgd1na2vs0mg"},{"bike_id":"97de3ff7-29a1-4511-a421-964bd84301e3","system_id":"levelo_inurba_marseille","lat":43.29595,"lon":5.38098,"is_reserved":false,"is_disabled":false,"rental_uris":{"android":"levelo://app?vid=97de3ff7-29a1-4511-a421-964bd84301e3","ios":"levelo://app?vid=97de3ff7-29a1-4511-a421-964bd84301e3"},"vehicle_type_id":"4","last_reported":1761855090,"current_range_meters":16800,"station_id":"ce4bgl12rcd13ifvqbo0","pricing_plan_id":"cebpf4jnsgd1na2vs0mg"},{"bike_id":"2662fe9b-aa47-4e6a-8505-64d896678582","system_id":"levelo_inurba_marseille","lat":43.22566,"lon":5.41628,"is_reserved":false,"is_disabled":false,"rental_uris":{"android":"levelo://app?vid=2662fe9b-aa47-4e6a-8505-64d896678582","ios":"levelo://app?vid=2662fe9b-aa47-4e6a-8505-64d896678582"},"vehicle_type_id":"4","last_reported":1761855090,"current_range_meters":16800,"station_id":"st_d2o4gvlbi1j2169b742g","pricing_plan_id":"cebpf4jnsgd1na2vs0mg"},{"bike_id":"9743aeff-6a21-4c2f-9062-43158aa31109","system_id":"levelo_inurba_marseille","lat":43.26062,"lon":5.39395,"is_reserved":false,"is_disabled":false,"rental_uris":{"android":"levelo://app?vid=9743aeff-6a21-4c2f-9062-43158aa31109","ios":"levelo://app?vid=9743aeff-6a21-4c2f-9062-43158aa31109"},"vehicle_type_id":"4","last_reported":1761855090,"current_range_meters":16800,"station_id":"ce4bhh92rcd13ifvqfj0","pricing_plan_id":"cebpf4jnsgd1na2vs0mg"},{"bike_id":"02e6de55-7740-495f-9c3d-52e4db64e12e","system_id":"levelo_inurba_marseille","lat":43.299766,"lon":5.385006,"is_reserved":false,"is_disabled":false,"rental_uris":{"android":"levelo://app?vid=02e6de55-7740-495f-9c3d-52e4db64e12e","ios":"levelo://app?vid=02e6de55-7740-495f-9c3d-52e4db64e12e"},"vehicle_type_id":"4","last_reported":1761855090,"current_range_meters":16800,"station_id":"ce4bgj92rcd13ifvqbd0","pricing_plan_id":"cebpf4jnsgd1na2vs0mg"},{"bike_id":"b8949af8-daac-4c6b-8399-c444bc7f3a49","system_id":"levelo_inurba_marseille","lat":43.29561,"lon":5.38504,"is_reserved":false,"is_disabled":false,"rental_uris":{"android":"levelo://app?vid=b8949af8-daac-4c6b-8399-c444bc7f3a49","ios":"levelo://app?vid=b8949af8-daac-4c6b-8399-c444bc7f3a49"},"vehicle_type_id":"4","last_reported":1761855090,"current_range_meters":16800,"station_id":"","pricing_plan_id":"cebpf4jnsgd1na2vs0mg"},{"bike_id":"8a0ff850-cf9f-4e75-bc3f-994489f28f31","system_id":"levelo_inurba_marseille","lat":43.22573,"lon":5.41615,"is_reserved":false,"is_disabled":false,"rental_uris":{"android":"levelo://app?vid=8a0ff850-cf9f-4e75-bc3f-994489f28f31","ios":"levelo://app?vid=8a0ff850-cf9f-4e75-bc3f-994489f28f31"},"vehicle_type_id":"4","last_reported":1761855090,"current_range_meters":16800,"station_id":"st_d2o4gvlbi1j2169b742g","pricing_plan_id":"cebpf4jnsgd1na2vs0mg"},{"bike_id":"4a269658-efc3-43fb-9a59-9805d56ddae4","system_id":"levelo_inurba_marseille","lat":43.26551,"lon":5.37282,"is_reserved":false,"is_disabled":false,"rental_uris":{"android":"levelo://app?vid=4a269658-efc3-43fb-9a59-9805d56ddae4","ios":"levelo://app?vid=4a269658-efc3-43fb-9a59-9805d56ddae4"},"vehicle_type_id":"4","last_reported":1761855090,"current_range_meters":16800,"station_id":"ce4bhg12rcd13ifvqf70","pricing_plan_id":"cebpf4jnsgd1na2vs0mg"},{"bike_id":"83753f62-f243-4028-8a06-c550c6f557c7","system_id":"levelo_inurba_marseille","lat":43.267986,"lon":5.402688,"is_reserved":false,"is_disabled":false,"rental_uris":{"android":"levelo://app?vid=83753f62-f243-4028-8a06-c550c6f557c7","ios":"levelo://app?vid=83753f62-f243-4028-8a06-c550c6f557c7"},"vehicle_type_id":"4","last_reported":1761855090,"current_range_meters":16800,"station_id":"ce501612rcd8frsf0b60","pricing_plan_id":"cebpf4jnsgd1na2vs0mg"},{"bike_id":"c3592447-81d4-4170-84bd-36707c30d6c4","system_id":"levelo_inurba_marseille","lat":43.292587,"lon":5.384362,"is_reserved":false,"is_disabled":false,"rental_uris":{"android":"levelo://app?vid=c3592447-81d4-4170-84bd-36707c30d6c4","ios":"levelo://app?vid=c3592447-81d4-4170-84bd-36707c30d6c4"},"vehicle_type_id":"4","last_reported":1761855090,"current_range_meters":16800,"station_id":"","pricing_plan_id":"cebpf4jnsgd1na2vs0mg"},{"bike_id":"8aced2fc-6f4b-44a9-987c-d949f35f67bc","system_id":"levelo_inurba_marseille","lat":43.26052,"lon":5.39401,"is_reserved":false,"is_disabled":false,"rental_uris":{"android":"levelo://app?vid=8aced2fc-6f4b-44a9-987c-d949f35f67bc","ios":"levelo://app?vid=8aced2fc-6f4b-44a9-987c-d949f35f67bc"},"vehicle_type_id":"4","last_reported":1761855090,"current_range_meters":17200,"station_id":"ce4bhh92rcd13ifvqfj0","pricing_plan_id":"cebpf4jnsgd1na2vs0mg"},{"bike_id":"7546f65b-cc1b-4985-bde5-e38523b2efb1","system_id":"levelo_inurba_marseille","lat":43.28853,"lon":5.3584,"is_reserved":false,"is_disabled":false,"rental_uris":{"android":"levelo://app?vid=7546f65b-cc1b-4985-bde5-e38523b2efb1","ios":"levelo://app?vid=7546f65b-cc1b-4985-bde5-e38523b2efb1"},"vehicle_type_id":"4","last_reported":1761855090,"current_range_meters":17200,"station_id":"ce4bhb12rcd13ifvqem0","pricing_plan_id":"cebpf4jnsgd1na2vs0mg"},{"bike_id":"b3d6612e-bebc-44ab-90c0-7fb6de9ca023","system_id":"levelo_inurba_marseille","lat":43.29527,"lon":5.38537,"is_reserved":false,"is_disabled":false,"rental_uris":{"android":"levelo://app?vid=b3d6612e-bebc-44ab-90c0-7fb6de9ca023","ios":"levelo://app?vid=b3d6612e-bebc-44ab-90c0-7fb6de9ca023"},"vehicle_type_id":"4","last_reported":1761855090,"current_range_meters":17200,"station_id":"ce4bgih2rcd13ifvqba0","pricing_plan_id":"cebpf4jnsgd1na2vs0mg"},{"bike_id":"4e9d6698-915b-4c8e-ae83-e06a7f2cbd1f","system_id":"levelo_inurba_marseille","lat":43.295303,"lon":5.385406,"is_reserved":false,"is_disabled":false,"rental_uris":{"android":"levelo://app?vid=4e9d6698-915b-4c8e-ae83-e06a7f2cbd1f","ios":"levelo://app?vid=4e9d6698-915b-4c8e-ae83-e06a7f2cbd1f"},"vehicle_type_id":"4","last_reported":1761855090,"current_range_meters":17200,"station_id":"ce4bgih2rcd13ifvqba0","pricing_plan_id":"cebpf4jnsgd1na2vs0mg"},{"bike_id":"79ab418a-79c0-4a6e-993b-761280f132d6","system_id":"levelo_inurba_marseille","lat":43.28484,"lon":5.4838,"is_reserved":false,"is_disabled":false,"rental_uris":{"android":"levelo://app?vid=79ab418a-79c0-4a6e-993b-761280f132d6","ios":"levelo://app?vid=79ab418a-79c0-4a6e-993b-761280f132d6"},"vehicle_type_id":"4","last_reported":1761855090,"current_range_meters":17200,"station_id":"st_d3svhcjqgbts73a3dn0g","pricing_plan_id":"cebpf4jnsgd1na2vs0mg"},{"bike_id":"8ce69ba9-8287-4905-b011-6b6e2f3b4b9e","system_id":"levelo_inurba_marseille","lat":43.29257,"lon":5.38417,"is_reserved":false,"is_disabled":false,"rental_uris":{"android":"levelo://app?vid=8ce69ba9-8287-4905-b011-6b6e2f3b4b9e","ios":"levelo://app?vid=8ce69ba9-8287-4905-b011-6b6e2f3b4b9e"},"vehicle_type_id":"4","last_reported":1761855090,"current_range_meters":17200,"station_id":"ce4bh692rcd13ifvqea0","pricing_plan_id":"cebpf4jnsgd1na2vs0mg"},{"bike_id":"30ce6816-06c4-4a02-aab0-41cd65027336","system_id":"levelo_inurba_marseille","lat":43.28413,"lon":5.37509,"is_reserved":false,"is_disabled":false,"rental_uris":{"android":"levelo://app?vid=30ce6816-06c4-4a02-aab0-41cd65027336","ios":"levelo://app?vid=30ce6816-06c4-4a02-aab0-41cd65027336"},"vehicle_type_id":"4","last_reported":1761855090,"current_range_meters":17200,"station_id":"ce4bh412rcd13ifvqds0","pricing_plan_id":"cebpf4jnsgd1na2vs0mg"},{"bike_id":"763b9f27-b5bb-4a07-b5de-c975050bb601","system_id":"levelo_inurba_marseille","lat":43.26867,"lon":5.38572,"is_reserved":false,"is_disabled":false,"rental_uris":{"android":"levelo://app?vid=763b9f27-b5bb-4a07-b5de-c975050bb601","ios":"levelo://app?vid=763b9f27-b5bb-4a07-b5de-c975050bb601"},"vehicle_type_id":"4","last_reported":1761855090,"current_range_meters":17200,"station_id":"","pricing_plan_id":"cebpf4jnsgd1na2vs0mg"},{"bike_id":"25bce847-70d7-47ed-9f63-47199f0e38e5","system_id":"levelo_inurba_marseille","lat":43.29534,"lon":5.38549,"is_reserved":false,"is_disabled":false,"rental_uris":{"android":"levelo://app?vid=25bce847-70d7-47ed-9f63-47199f0e38e5","ios":"levelo://app?vid=25bce847-70d7-47ed-9f63-47199f0e38e5"},"vehicle_type_id":"4","last_reported":1761855090,"current_range_meters":17200,"station_id":"ce4bgih2rcd13ifvqba0","pricing_plan_id":"cebpf4jnsgd1na2vs0mg"},{"bike_id":"8170dc1f-8e4d-4292-abf9-2457a2439a15","system_id":"levelo_inurba_marseille","lat":43.31491,"lon":5.37269,"is_reserved":false,"is_disabled":false,"rental_uris":{"android":"levelo://app?vid=8170dc1f-8e4d-4292-abf9-2457a2439a15","ios":"levelo://app?vid=8170dc1f-8e4d-4292-abf9-2457a2439a15"},"vehicle_type_id":"4","last_reported":1761855090,"current_range_meters":17200,"station_id":"ce4bgt12rcd13ifvqcd0","pricing_plan_id":"cebpf4jnsgd1na2vs0mg"},{"bike_id":"131eea03-3eab-4e38-9f54-24cde024a2f4","system_id":"levelo_inurba_marseille","lat":43.2928,"lon":5.38405,"is_reserved":false,"is_disabled":false,"rental_uris":{"android":"levelo://app?vid=131eea03-3eab-4e38-9f54-24cde024a2f4","ios":"levelo://app?vid=131eea03-3eab-4e38-9f54-24cde024a2f4"},"vehicle_type_id":"4","last_reported":1761855090,"current_range_meters":17600,"station_id":"ce4bh692rcd13ifvqea0","pricing_plan_id":"cebpf4jnsgd1na2vs0mg"},{"bike_id":"709dc3cb-272e-4021-beff-59c84c7800d8","system_id":"levelo_inurba_marseille","lat":43.24646,"lon":5.38891,"is_reserved":false,"is_disabled":false,"rental_uris":{"android":"levelo://app?vid=709dc3cb-272e-4021-beff-59c84c7800d8","ios":"levelo://app?vid=709dc3cb-272e-4021-beff-59c84c7800d8"},"vehicle_type_id":"4","last_reported":1761855090,"current_range_meters":17600,"station_id":"ce4bhg12rcd13ifvqf60","pricing_plan_id":"cebpf4jnsgd1na2vs0mg"},{"bike_id":"b46dabb8-b690-4fda-9a7d-9c9f888fd6eb","system_id":"levelo_inurba_marseille","lat":43.31712,"lon":5.43704,"is_reserved":false,"is_disabled":false,"rental_uris":{"android":"levelo://app?vid=b46dabb8-b690-4fda-9a7d-9c9f888fd6eb","ios":"levelo://app?vid=b46dabb8-b690-4fda-9a7d-9c9f888fd6eb"},"vehicle_type_id":"4","last_reported":1761855090,"current_range_meters":17600,"station_id":"ce4bhp92rcd13ifvqhcg","pricing_plan_id":"cebpf4jnsgd1na2vs0mg"},