{"last_updated":1708023931,"ttl":30,"version":"2.2","data":{"bikes":[{"bike_id":"57cc7846-7a3e-4761-a4fb-e541da702903","system_id":"levelo_inurba_marseille","lat":43.31341,"lon":5.367098,"is_reserved":false,"is_disabled":false,"rental_uris":{"android":"levelo://app?vid=57cc7846-7a3e-4761-a4fb-e541da702903","ios":"levelo://app?vid=57cc7846-7a3e-4761-a4fb-e541da702903"},"vehicle_type_id":"4","last_reported":1708023931,"current_range_meters":0,"station_id":"ce4bgr92rcd13ifvqc6g","pricing_plan_id":"cebpf4jnsgd1na2vs0mg"},{"bike_id":"1886e30f-e37f-4776-b1e7-da3bb096356c","system_id":"levelo_inurba_marseille","lat":43.312239,"lon":5.368562,"is_reserved":false,"is_disabled":false,"rental_uris":{"android":"levelo://app?vid=1886e30f-e37f-4776-b1e7-da3bb096356c","ios":"levelo://app?vid=1886e30f-e37f-4776-b1e7-da3bb096356c"},"vehicle_type_id":"4","last_reported":1708023931,"current_range_meters":8000,"station_id":"ce4bgl92rcd13ifvqbq0","pricing_plan_id":"cebpf4jnsgd1na2vs0mg"},{"bike_id":"d5c03cdd-883d-4f8c-8575-21ce8120f581","system_id":"levelo_inurba_marseille","lat":43.312239,"lon":5.368562,"is_reserved":false,"is_disabled":false,"rental_uris":{"android":"levelo://app?vid=d5c03cdd-883d-4f8c-8575-21ce8120f581","ios":"levelo://app?vid=d5c03cdd-883d-4f8c-8575-21ce8120f581"},"vehicle_type_id":"4","last_reported":1708023931,"current_range_meters":13200,"station_id":"ce4bgl92rcd13ifvqbq0","pricing_plan_id":"cebpf4jnsgd1na2vs0mg"},{"bike_id":"76037fd0-3cae-401d-8da2-ad03a2d4a793","system_id":"levelo_inurba_marseille","lat":43.30907,"lon":5.36676,"is_reserved":false,"is_disabled":false,"rental_uris":{"android":"levelo://app?vid=76037fd0-3cae-401d-8da2-ad03a2d4a793","ios":"levelo://app?vid=76037fd0-3cae-401d-8da2-ad03a2d4a793"},"vehicle_type_id":"4","last_reported":1708023931,"current_range_meters":0,"station_id":"","pricing_plan_id":"cebpf4jnsgd1na2vs0mg"},{"bike_id":"9a024707-e97a-448a-bc3b-4dc7287febf5","system_id":"levelo_inurba_marseille","lat":43.309076,"lon":5.368465,"is_reserved":false,"is_disabled":false,"rental_uris":{"android":"levelo://app?vid=9a024707-e97a-448a-bc3b-4dc7287febf5","ios":"levelo://app?vid=9a024707-e97a-448a-bc3b-4dc7287febf5"},"vehicle_type_id":"4","last_reported":1708023931,"current_range_meters":12400,"station_id":"ce4bgn92rcd13ifvqbvg","pricing_plan_id":"cebpf4jnsgd1na2vs0mg"},{"bike_id":"b67306fa-d95b-4754-b4be-c4de1138c990","system_id":"levelo_inurba_marseille","lat":43.30891,"lon":5.36797,"is_reserved":false,"is_disabled":false,"rental_uris":{"android":"levelo://app?vid=b67306fa-d95b-4754-b4be-c4de1138c990","ios":"levelo://app?vid=b67306fa-d95b-4754-b4be-c4de1138c990"},"vehicle_type_id":"4","last_reported":1708023931,"current_range_meters":15200,"station_id":"","pricing_plan_id":"cebpf4jnsgd1na2vs0mg"},{"bike_id":"a8a1d0b2-b12c-4566-b692-d15c8f451e69","system_id":"levelo_inurba_marseille","lat":43.314811,"lon":5.373103,"is_reserved":false,"is_disabled":false,"rental_uris":{"android":"levelo://app?vid=a8a1d0b2-b12c-4566-b692-d15c8f451e69","ios":"levelo://app?vid=a8a1d0b2-b12c-4566-b692-d15c8f451e69"},"vehicle_type_id":"4","last_reported":1708023931,"current_range_meters":24000,"station_id":"ce4bgt12rcd13ifvqcd0","pricing_plan_id":"cebpf4jnsgd1na2vs0mg"},{"bike_id":"7a99eb3e-afaf-4db1-bb27-bb80a58e8093","system_id":"levelo_inurba_marseille","lat":43.314811,"lon":5.373104,"is_reserved":false,"is_disabled":false,"rental_uris":{"android":"levelo://app?vid=7a99eb3e-afaf-4db1-bb27-bb80a58e8093","ios":"levelo://app?vid=7a99eb3e-afaf-4db1-bb27-bb80a58e8093"},"vehicle_type_id":"4","last_reported":1708023931,"current_range_meters":31200,"station_id":"ce4bgt12rcd13ifvqcd0","pricing_plan_id":"cebpf4jnsgd1na2vs0mg"},{"bike_id":"3f8ae345-9dc8-43ff-b0f6-660e3535655c","system_id":"levelo_inurba_marseille","lat":43.309039,"lon":5.371797,"is_reserved":false,"is_disabled":false,"rental_uris":{"android":"levelo://app?vid=3f8ae345-9dc8-43ff-b0f6-660e3535655c","ios":"levelo://app?vid=3f8ae345-9dc8-43ff-b0f6-660e3535655c"},"vehicle_type_id":"4","last_reported":1708023931,"current_range_meters":4800,"station_id":"ce4bguh2rcd13ifvqckg","pricing_plan_id":"cebpf4jnsgd1na2vs0mg"},{"bike_id":"4dbf5cb8-1852-4866-9889-d808c67a8dc5","system_id":"levelo_inurba_marseille","lat":43.309034,"lon":5.371783,"is_reserved":false,"is_disabled":false,"rental_uris":{"android":"levelo://app?vid=4dbf5cb8-1852-4866-9889-d808c67a8dc5","ios":"levelo://app?vid=4dbf5cb8-1852-4866-9889-d808c67a8dc5"},"vehicle_type_id":"4","last_reported":1708023931,"current_range_meters":20800,"station_id":"ce4bguh2rcd13ifvqckg","pricing_plan_id":"cebpf4jnsgd1na2vs0mg"},{"bike_id":"21e15505-a9de-4cba-bd55-1e6358586d87","system_id":"levelo_inurba_marseille","lat":43.307945,"lon":5.376487,"is_reserved":false,"is_disabled":false,"rental_uris":{"android":"levelo://app?vid=21e15505-a9de-4cba-bd55-1e6358586d87","ios":"levelo://app?vid=21e15505-a9de-4cba-bd55-1e6358586d87"},"vehicle_type_id":"4","last_reported":1708023931,"current_range_meters":21200,"station_id":"ce4bgv92rcd13ifvqcq0","pricing_plan_id":"cebpf4jnsgd1na2vs0mg"},{"bike_id":"957c02fa-41bb-468e-9f47-a6a3b45ff9e7","system_id":"levelo_inurba_marseille","lat":43.305712,"lon":5.365641,"is_reserved":false,"is_disabled":false,"rental_uris":{"android":"levelo://app?vid=957c02fa-41bb-468e-9f47-a6a3b45ff9e7","ios":"levelo://app?vid=957c02fa-41bb-468e-9f47-a6a3b45ff9e7"},"vehicle_type_id":"4","last_reported":1708023931,"current_range_meters":20400,"station_id":"ce4bgs12rcd13ifvqcag","pricing_plan_id":"cebpf4jnsgd1na2vs0mg"},{"bike_id":"9436bfc6-23d6-45ed-a2c3-577a5a6262dc","system_id":"levelo_inurba_marseille","lat":43.311131,"lon":5.377651,"is_reserved":false,"is_disabled":false,"rental_uris":{"android":"levelo://app?vid=9436bfc6-23d6-45ed-a2c3-577a5a6262dc","ios":"levelo://app?vid=9436bfc6-23d6-45ed-a2c3-577a5a6262dc"},"vehicle_type_id":"4","last_reported":1708023931,"current_range_meters":20000,"station_id":"ce4bgt92rcd13ifvqcg0","pricing_plan_id":"cebpf4jnsgd1na2vs0mg"},{"bike_id":"326f744e-f7bb-4e92-b44e-2c98bd92b232","system_id":"levelo_inurba_marseille","lat":43.311131,"lon":5.377651,"is_reserved":false,"is_disabled":false,"rental_uris":{"android":"levelo://app?vid=326f744e-f7bb-4e92-b44e-2c98bd92b232","ios":"levelo://app?vid=326f744e-f7bb-4e92-b44e-2c98bd92b232"},"vehicle_type_id":"4","last_reported":1708023931,"current_range_meters":4000,"station_id":"ce4bgt92rcd13ifvqcg0","pricing_plan_id":"cebpf4jnsgd1na2vs0mg"},{"bike_id":"654292a4-331e-4ae4-adf1-61b1c1e2187c","system_id":"levelo_inurba_marseille","lat":43.311131,"lon":5.377651,"is_reserved":false,"is_disabled":false,"rental_uris":{"android":"levelo://app?vid=654292a4-331e-4ae4-adf1-61b1c1e2187c","ios":"levelo://app?vid=654292a4-331e-4ae4-adf1-61b1c1e2187c"},"vehicle_type_id":"4","last_reported":1708023931,"current_range_meters":14800,"station_id":"ce4bgt92rcd13ifvqcg0","pricing_plan_id":"cebpf4jnsgd1na2vs0mg"},{"bike_id":"8758d3b5-9ab5-48b1-b9ab-0a590e384be1","system_id":"levelo_inurba_marseille","lat":43.311353,"lon":5.377674,"is_reserved":false,"is_disabled":false,"rental_uris":{"android":"levelo://app?vid=8758d3b5-9ab5-48b1-b9ab-0a590e384be1","ios":"levelo://app?vid=8758d3b5-9ab5-48b1-b9ab-0a590e384be1"},"vehicle_type_id":"4","last_reported":1708023931,"current_range_meters":24800,"station_id":"ce4bgt92rcd13ifvqcg0","pricing_plan_id":"cebpf4jnsgd1na2vs0mg"},{"bike_id":"df7164c7-d670-4d02-a01a-881f90bd45db","system_id":"levelo_inurba_marseille","lat":43.311131,"lon":5.377651,"is_reserved":false,"is_disabled":false,"rental_uris":{"android":"levelo://app?vid=df7164c7-d670-4d02-a01a-881f90bd45db","ios":"levelo://app?vid=df7164c7-d670-4d02-a01a-881f90bd45db"},"vehicle_type_id":"4","last_reported":1708023931,"current_range_meters":11200,"station_id":"ce4bgt92rcd13ifvqcg0","pricing_plan_id":"cebpf4jnsgd1na2vs0mg"},{"bike_id":"63a9042d-eee8-4271-87ba-2a64ea7c23c4","system_id":"levelo_inurba_marseille","lat":43.311131,"lon":5.377651,"is_reserved":false,"is_disabled":false,"rental_uris":{"android":"levelo://app?vid=63a9042d-eee8-4271-87ba-2a64ea7c23c4","ios":"levelo://app?vid=63a9042d-eee8-4271-87ba-2a64ea7c23c4"},"vehicle_type_id":"4","last_reported":1708023931,"current_range_meters":8400,"station_id":"ce4bgt92rcd13ifvqcg0","pricing_plan_id":"cebpf4jnsgd1na2vs0mg"},{"bike_id":"8f9d7098-97b6-4507-8357-6f8ecd42a95a","system_id":"levelo_inurba_marseille","lat":43.311131,"lon":5.377651,"is_reserved":false,"is_disabled":false,"rental_uris":{"android":"levelo://app?vid=8f9d7098-97b6-4507-8357-6f8ecd42a95a","ios":"levelo://app?vid=8f9d7098-97b6-4507-8357-6f8ecd42a95a"},"vehicle_type_id":"4","last_reported":1708023931,"current_range_meters":15600,"station_id":"ce4bgt92rcd13ifvqcg0","pricing_plan_id":"cebpf4jnsgd1na2vs0mg"},{"bike_id":"2310521f-5a72-4cf9-afbb-bbad32566817","system_id":"levelo_inurba_marseille","lat":43.311131,"lon":5.377651,"is_reserved":false,"is_disabled":false,"rental_uris":{"android":"levelo://app?vid=2310521f-5a72-4cf9-afbb-bbad32566817","ios":"levelo://app?vid=2310521f-5a72-4cf9-afbb-bbad32566817"},"vehicle_type_id":"4","last_reported":1708023931,"current_range_meters":3600,"station_id":"ce4bgt92rcd13ifvqcg0","pricing_plan_id":"cebpf4jnsgd1na2vs0mg"},{"bike_id":"dfc18880-65a2-4219-97b8-f9330ac79951","system_id":"levelo_inurba_marseille","lat":43.311131,"lon":5.377651,"is_reserved":false,"is_disabled":false,"rental_uris":{"android":"levelo://app?vid=dfc18880-65a2-4219-97b8-f9330ac79951","ios":"levelo://app?vid=dfc18880-65a2-4219-97b8-f9330ac79951"},"vehicle_type_id":"4","last_reported":1708023931,"current_range_meters":0,"station_id":"ce4bgt92rcd13ifvqcg0","pricing_plan_id":"cebpf4jnsgd1na2vs0mg"},{"bike_id":"7cf6c0ff-bce6-47f1-b6fe-5ab1236b74db","system_id":"levelo_inurba_marseille","lat":43.31114,"lon":5.37775,"is_reserved":false,"is_disabled":false,"rental_uris":{"android":"levelo://app?vid=7cf6c0ff-bce6-47f1-b6fe-5ab1236b74db","ios":"levelo://app?vid=7cf6c0ff-bce6-47f1-b6fe-5ab1236b74db"},"vehicle_type_id":"4","last_reported":1708023931,"current_range_meters":0,"station_id":"ce4bgt92rcd13ifvqcg0","pricing_plan_id":"cebpf4jnsgd1na2vs0mg"},{"bike_id":"d9f1f1c6-f12f-4449-b80b-22ce85b88511","system_id":"levelo_inurba_marseille","lat":43.31118,"lon":5.3778,"is_reserved":false,"is_disabled":false,"rental_uris":{"android":"levelo://app?vid=d9f1f1c6-f12f-4449-b80b-22ce85b88511","ios":"levelo://app?vid=d9f1f1c6-f12f-4449-b80b-22ce85b88511"},"vehicle_type_id":"4","last_reported":1708023931,"current_range_meters":10000,"station_id":"ce4bgt92rcd13ifvqcg0","pricing_plan_id":"cebpf4jnsgd1na2vs0mg"},{"bike_id":"434ffdf5-bc84-4eff-add8-997207241255","system_id":"levelo_inurba_marseille","lat":43.311131,"lon":5.377651,"is_reserved":false,"is_disabled":false,"rental_uris":{"android":"levelo://app?vid=434ffdf5-bc84-4eff-add8-997207241255","ios":"levelo://app?vid=434ffdf5-bc84-4eff-add8-997207241255"},"vehicle_type_id":"4","last_reported":1708023931,"current_range_meters":10000,"station_id":"ce4bgt92rcd13ifvqcg0","pricing_plan_id":"cebpf4jnsgd1na2vs0mg"},{"bike_id":"52a3977f-b948-4427-8189-406f5207363e","system_id":"levelo_inurba_marseille","lat":43.307945,"lon":5.376487,"is_reserved":false,"is_disabled":false,"rental_uris":{"android":"levelo://app?vid=52a3977f-b948-4427-8189-406f5207363e","ios":"levelo://app?vid=52a3977f-b948-4427-8189-406f5207363e"},"vehicle_type_id":"4","last_reported":1708023931,"current_range_meters":4400,"station_id":"ce4bgv92rcd13ifvqcq0","pricing_plan_id":"cebpf4jnsgd1na2vs0mg"},{"bike_id":"e408a855-f723-408c-b006-f3e7b332a7ec","system_id":"levelo_inurba_marseille","lat":43.307945,"lon":5.376487,"is_reserved":false,"is_disabled":false,"rental_uris":{"android":"levelo://app?vid=e408a855-f723-408c-b006-f3e7b332a7ec","ios":"levelo://app?vid=e408a855-f723-408c-b006-f3e7b332a7ec"},"vehicle_type_id":"4","last_reported":1708023931,"current_range_meters":5200,"station_id":"ce4bgv92rcd13ifvqcq0","pricing_plan_id":"cebpf4jnsgd1na2vs0mg"},{"bike_id":"675e8e6e-3c5a-402c-a789-48ab73907593","system_id":"levelo_inurba_marseille","lat":43.307945,"lon":5.376487,"is_reserved":false,"is_disabled":false,"rental_uris":{"android":"levelo://app?vid=675e8e6e-3c5a-402c-a789-48ab73907593","ios":"levelo://app?vid=675e8e6e-3c5a-402c-a789-48ab73907593"},"vehicle_type_id":"4","last_reported":1708023931,"current_range_meters":14800,"station_id":"ce4bgv92rcd13ifvqcq0","pricing_plan_id":"cebpf4jnsgd1na2vs0mg"},{"bike_id":"2fca39f8-6a10-42b9-80c8-ff25bebc9e9e","system_id":"levelo_inurba_marseille","lat":43.307945,"lon":5.376487,"is_reserved":false,"is_disabled":false,"rental_uris":{"android":"levelo://app?vid=2fca39f8-6a10-42b9-80c8-ff25bebc9e9e","ios":"levelo://app?vid=2fca39f8-6a10-42b9-80c8-ff25bebc9e9e"},"vehicle_type_id":"4","last_reported":1708023931,"current_range_meters":29600,"station_id":"ce4bgv92rcd13ifvqcq0","pricing_plan_id":"cebpf4jnsgd1na2vs0mg"},{"bike_id":"9469c041-66ab-4b66-9f58-9f59a1dbf7f9","system_id":"levelo_inurba_marseille","lat":43.307945,"lon":5.376487,"is_reserved":false,"is_disabled":false,"rental_uris":{"android":"levelo://app?vid=9469c041-66ab-4b66-9f58-9f59a1dbf7f9","ios":"levelo://app?vid=9469c041-66ab-4b66-9f58-9f59a1dbf7f9"},"vehicle_type_id":"4","last_reported":1708023931,"current_range_meters":30000,"station_id":"ce4bgv92rcd13ifvqcq0","pricing_plan_id":"cebpf4jnsgd1na2vs0mg"},{"bike_id":"8cb41064-3034-4717-aacf-23a6ca92ef32","system_id":"levelo_inurba_marseille","lat":43.307945,"lon":5.376487,"is_reserved":false,"is_disabled":false,"rental_uris":{"android":"levelo://app?vid=8cb41064-3034-4717-aacf-23a6ca92ef32","ios":"levelo://app?vid=8cb41064-3034-4717-aacf-23a6ca92ef32"},"vehicle_type_id":"4","last_reported":1708023931,"current_range_meters":27600,"station_id":"ce4bgv92rcd13ifvqcq0","pricing_plan_id":"cebpf4jnsgd1na2vs0mg"},{"bike_id":"15dfa4ec-f004-4181-804b-bfc54fb4a2bb","system_id":"levelo_inurba_marseille","lat":43.317075,"lon":5.377367,"is_reserved":false,"is_disabled":false,"rental_uris":{"android":"levelo://app?vid=15dfa4ec-f004-4181-804b-bfc54fb4a2bb","ios":"levelo://app?vid=15dfa4ec-f004-4181-804b-bfc54fb4a2bb"},"vehicle_type_id":"4","last_reported":1708023931,"current_range_meters":7200,"station_id":"ce4bgth2rcd13ifvqch0","pricing_plan_id":"cebpf4jnsgd1na2vs0mg"},{"bike_id":"aa533a6f-0dc9-4d7d-8582-0387547a46a5","system_id":"levelo_inurba_marseille","lat":43.317075,"lon":5.377367,"is_reserved":false,"is_disabled":false,"rental_uris":{"android":"levelo://app?vid=aa533a6f-0dc9-4d7d-8582-0387547a46a5","ios":"levelo://app?vid=aa533a6f-0dc9-4d7d-8582-0387547a46a5"},"vehicle_type_id":"4","last_reported":1708023931,"current_range_meters":4800,"station_id":"ce4bgth2rcd13ifvqch0","pricing_plan_id":"cebpf4jnsgd1na2vs0mg"},{"bike_id":"e8396d9b-01ad-42aa-ae6a-25e7361077f6","system_id":"levelo_inurba_marseille","lat":43.317075,"lon":5.377367,"is_reserved":false,"is_disabled":false,"rental_uris":{"android":"levelo://app?vid=e8396d9b-01ad-42aa-ae6a-25e7361077f6","ios":"levelo://app?vid=e8396d9b-01ad-42aa-ae6a-25e7361077f6"},"vehicle_type_id":"4","last_reported":1708023931,"current_range_meters":31600,"station_id":"ce4bgth2rcd13ifvqch0","pricing_plan_id":"cebpf4jnsgd1na2vs0mg"},{"bike_id":"bd8bf2f6-55a3-42d0-ab75-0b9abfe6e404","system_id":"levelo_inurba_marseille","lat":43.317075,"lon":5.377367,"is_reserved":false,"is_disabled":false,"rental_uris":{"android":"levelo://app?vid=bd8bf2f6-55a3-42d0-ab75-0b9abfe6e404","ios":"levelo://app?vid=bd8bf2f6-55a3-42d0-ab75-0b9abfe6e404"},"vehicle_type_id":"4","last_reported":1708023931,"current_range_meters":16000,"station_id":"ce4bgth2rcd13ifvqch0","pricing_plan_id":"cebpf4jnsgd1na2vs0mg"},{"bike_id":"e0ab11de-fc9c-4d4b-971a-3b2ba2a23340","system_id":"levelo_inurba_marseille","lat":43.317075,"lon":5.377367,"is_reserved":false,"is_disabled":false,"rental_uris":{"android":"levelo://app?vid=e0ab11de-fc9c-4d4b-971a-3b2ba2a23340","ios":"levelo://app?vid=e0ab11de-fc9c-4d4b-971a-3b2ba2a23340"},"vehicle_type_id":"4","last_reported":1708023931,"current_range_meters":31600,"station_id":"ce4bgth2rcd13ifvqch0","pricing_plan_id":"cebpf4jnsgd1na2vs0mg"},{"bike_id":"6f39090b-b91e-4eaa-81f6-ef24a66149be","system_id":"levelo_inurba_marseille","lat":43.317075,"lon":5.377367,"is_reserved":false,"is_disabled":false,"rental_uris":{"android":"levelo://app?vid=6f39090b-b91e-4eaa-81f6-ef24a66149be","ios":"levelo://app?vid=6f39090b-b91e-4eaa-81f6-ef24a66149be"},"vehicle_type_id":"4","last_reported":1708023931,"current_range_meters":17600,"station_id":"ce4bgth2rcd13ifvqch0","pricing_plan_id":"cebpf4jnsgd1na2vs0mg"},{"bike_id":"e925d5b0-1b13-4284-99d7-d8d23cd67150","system_id":"levelo_inurba_marseille","lat":43.30314,"lon":5.36894,"is_reserved":false,"is_disabled":false,"rental_uris":{"android":"levelo://app?vid=e925d5b0-1b13-4284-99d7-d8d23cd67150","ios":"levelo://app?vid=e925d5b0-1b13-4284-99d7-d8d23cd67150"},"vehicle_type_id":"4","last_reported":1708023931,"current_range_meters":26000,"station_id":"ce4bgqh2rcd13ifvqc5g","pricing_plan_id":"cebpf4jnsgd1na2vs0mg"},{"bike_id":"6972e6ea-2145-414b-af41-47fea019c96f","system_id":"levelo_inurba_marseille","lat":43.303046,"lon":5.368981,"is_reserved":false,"is_disabled":false,"rental_uris":{"android":"levelo://app?vid=6972e6ea-2145-414b-af41-47fea019c96f","ios":"levelo://app?vid=6972e6ea-2145-414b-af41-47fea019c96f"},"vehicle_type_id":"4","last_reported":1708023931,"current_range_meters":12000,"station_id":"ce4bgqh2rcd13ifvqc5g","pricing_plan_id":"cebpf4jnsgd1na2vs0mg"},{"bike_id":"f6741d1f-5124-4476-b221-4fa5fae93074","system_id":"levelo_inurba_marseille","lat":43.303046,"lon":5.368981,"is_reserved":false,"is_disabled":false,"rental_uris":{"android":"levelo://app?vid=f6741d1f-5124-4476-b221-4fa5fae93074","ios":"levelo://app?vid=f6741d1f-5124-4476-b221-4fa5fae93074"},"vehicle_type_id":"4","last_reported":1708023931,"current_range_meters":0,"station_id":"ce4bgqh2rcd13ifvqc5g","pricing_plan_id":"cebpf4jnsgd1na2vs0mg"},{"bike_id":"e48eafa2-25f1-4367-910a-9c1c68d594ca","system_id":"levelo_inurba_marseille","lat":43.315293,"lon":5.380349,"is_reserved":false,"is_disabled":false,"rental_uris":{"android":"levelo://app?vid=e48eafa2-25f1-4367-910a-9c1c68d594ca","ios":"levelo://app?vid=e48eafa2-25f1-4367-910a-9c1c68d594ca"},"vehicle_type_id":"4","last_reported":1708023931,"current_range_meters":22000,"station_id":"ce4bhsp2rcd13ifvqi50","pricing_plan_id":"cebpf4jnsgd1na2vs0mg"},{"bike_id":"fe60bbe4-a0eb-418a-970c-d9ec0f52df87","system_id":"levelo_inurba_marseille","lat":43.308012,"lon":5.381511,"is_reserved":false,"is_disabled":false,"rental_uris":{"android":"levelo://app?vid=fe60bbe4-a0eb-418a-970c-d9ec0f52df87","ios":"levelo://app?vid=fe60bbe4-a0eb-418a-970c-d9ec0f52df87"},"vehicle_type_id":"4","last_reported":1708023931,"current_range_meters":7200,"station_id":"ce4bgt12rcd13ifvqce0","pricing_plan_id":"cebpf4jnsgd1na2vs0mg"},{"bike_id":"67079a29-f28c-4d70-8856-b0af88c8d642","system_id":"levelo_inurba_marseille","lat":43.324771,"lon":5.36557,"is_reserved":false,"is_disabled":false,"rental_uris":{"android":"levelo://app?vid=67079a29-f28c-4d70-8856-b0af88c8d642","ios":"levelo://app?vid=67079a29-f28c-4d70-8856-b0af88c8d642"},"vehicle_type_id":"4","last_reported":1708023931,"current_range_meters":24400,"station_id":"ce4bhs12rcd13ifvqhvg","pricing_plan_id":"cebpf4jnsgd1na2vs0mg"},{"bike_id":"5ed0a109-9ca7-4876-adad-41d58d377d1a","system_id":"levelo_inurba_marseille","lat":43.324771,"lon":5.36557,"is_reserved":false,"is_disabled":false,"rental_uris":{"android":"levelo://app?vid=5ed0a109-9ca7-4876-adad-41d58d377d1a","ios":"levelo://app?vid=5ed0a109-9ca7-4876-adad-41d58d377d1a"},"vehicle_type_id":"4","last_reported":1708023931,"current_range_meters":4800,"station_id":"ce4bhs12rcd13ifvqhvg","pricing_plan_id":"cebpf4jnsgd1na2vs0mg"},{"bike_id":"eb331c1c-770d-4ab0-8716-5793c3e19a18","system_id":"levelo_inurba_marseille","lat":43.324771,"lon":5.36557,"is_reserved":false,"is_disabled":false,"rental_uris":{"android":"levelo://app?vid=eb331c1c-770d-4ab0-8716-5793c3e19a18","ios":"levelo://app?vid=eb331c1c-770d-4ab0-8716-5793c3e19a18"},"vehicle_type_id":"4","last_reported":1708023931,"current_range_meters":11600,"station_id":"ce4bhs12rcd13ifvqhvg","pricing_plan_id":"cebpf4jnsgd1na2vs0mg"},{"bike_id":"74040d89-d5b2-4f31-8c52-790dda89ed07","system_id":"levelo_inurba_marseille","lat":43.324771,"lon":5.36557,"is_reserved":false,"is_disabled":false,"rental_uris":{"android":"levelo://app?vid=74040d89-d5b2-4f31-8c52-790dda89ed07","ios":"levelo://app?vid=74040d89-d5b2-4f31-8c52-790dda89ed07"},"vehicle_type_id":"4","last_reported":1708023931,"current_range_meters":12800,"station_id":"ce4bhs12rcd13ifvqhvg","pricing_plan_id":"cebpf4jnsgd1na2vs0mg"},{"bike_id":"38716a6a-d578-4748-ad61-d6ef7efd9f5c","system_id":"levelo_inurba_marseille","lat":43.31071,"lon":5.38349,"is_reserved":false,"is_disabled":false,"rental_uris":{"android":"levelo://app?vid=38716a6a-d578-4748-ad61-d6ef7efd9f5c","ios":"levelo://app?vid=38716a6a-d578-4748-ad61-d6ef7efd9f5c"},"vehicle_type_id":"4","last_reported":1708023931,"current_range_meters":18000,"station_id":"ce4bgv92rcd13ifvqcr0","pricing_plan_id":"cebpf4jnsgd1na2vs0mg"},{"bike_id":"9a29bd98-7765-4199-8212-1ef4fe8ca9fe","system_id":"levelo_inurba_marseille","lat":43.310693,"lon":5.383502,"is_reserved":false,"is_disabled":false,"rental_uris":{"android":"levelo://app?vid=9a29bd98-7765-4199-8212-1ef4fe8ca9fe","ios":"levelo://app?vid=9a29bd98-7765-4199-8212-1ef4fe8ca9fe"},"vehicle_type_id":"4","last_reported":1708023931,"current_range_meters":2000,"station_id":"ce4bgv92rcd13ifvqcr0","pricing_plan_id":"cebpf4jnsgd1na2vs0mg"},{"bike_id":"8cc61c4a-5302-4b6c-a32c-54803363c1d2","system_id":"levelo_inurba_marseille","lat":43.310706,"lon":5.383506,"is_reserved":false,"is_disabled":false,"rental_uris":{"android":"levelo://app?vid=8cc61c4a-5302-4b6c-a32c-54803363c1d2","ios":"levelo://app?vid=8cc61c4a-5302-4b6c-a32c-54803363c1d2"},"vehicle_type_id":"4","last_reported":1708023931,"current_range_meters":30400,"station_id":"ce4bgv92rcd13ifvqcr0","pricing_plan_id":"cebpf4jnsgd1na2vs0mg"},{"bike_id":"da4fadf5-3e37-4933-b2d3-0de431b1409d","system_id":"levelo_inurba_marseille","lat":43.310777,"lon":5.383523,"is_reserved":false,"is_disabled":false,"rental_uris":{"android":"levelo://app?vid=da4fadf5-3e37-4933-b2d3-0de431b1409d","ios":"levelo://app?vid=da4fadf5-3e37-4933-b2d3-0de431b1409d"},"vehicle_type_id":"4","last_reported":1708023931,"current_range_meters":0,"station_id":"ce4bgv92rcd13ifvqcr0","pricing_plan_id":"cebpf4jnsgd1na2vs0mg"},{"bike_id":"94ccd055-ac62-4dce-b15d-a257bbe9b731","system_id":"levelo_inurba_marseille","lat":43.310804,"lon":5.38359,"is_reserved":false,"is_disabled":false,"rental_uris":{"android":"levelo://app?vid=94ccd055-ac62-4dce-b15d-a257bbe9b731","ios":"levelo://app?vid=94ccd055-ac62-4dce-b15d-a257bbe9b731"},"vehicle_type_id":"4","last_reported":1708023931,"current_range_meters":3200,"station_id":"ce4bgv92rcd13ifvqcr0","pricing_plan_id":"cebpf4jnsgd1na2vs0mg"},{"bike_id":"c4a33b3a-50c1-4e50-8d7e-e5f5ec04e441","system_id":"levelo_inurba_marseille","lat":43.310804,"lon":5.38359,"is_reserved":false,"is_disabled":false,"rental_uris":{"android":"levelo://app?vid=c4a33b3a-50c1-4e50-8d7e-e5f5ec04e441","ios":"levelo://app?vid=c4a33b3a-50c1-4e50-8d7e-e5f5ec04e441"},"vehicle_type_id":"4","last_reported":1708023931,"current_range_meters":4000,"station_id":"ce4bgv92rcd13ifvqcr0","pricing_plan_id":"cebpf4jnsgd1na2vs0mg"},{"bike_id":"cb5200c4-1322-4dbf-be9e-be6be7debb5c","system_id":"levelo_inurba_marseille","lat":43.302784,"lon":5.377158,"is_reserved":false,"is_disabled":false,"rental_uris":{"android":"levelo://app?vid=cb5200c4-1322-4dbf-be9e-be6be7debb5c","ios":"levelo://app?vid=cb5200c4-1322-4dbf-be9e-be6be7debb5c"},"vehicle_type_id":"4","last_reported":1708023931,"current_range_meters":15600,"station_id":"ce4bguh2rcd13ifvqcj0","pricing_plan_id":"cebpf4jnsgd1na2vs0mg"},{"bike_id":"470fde00-3503-4c79-922c-c4e020e38520","system_id":"levelo_inurba_marseille","lat":43.319935,"lon":5.381699,"is_reserved":false,"is_disabled":false,"rental_uris":{"android":"levelo://app?vid=470fde00-3503-4c79-922c-c4e020e38520","ios":"levelo://app?vid=470fde00-3503-4c79-922c-c4e020e38520"},"vehicle_type_id":"4","last_reported":1708023931,"current_range_meters":31200,"station_id":"ce4bhr12rcd13ifvqhpg","pricing_plan_id":"cebpf4jnsgd1na2vs0mg"},{"bike_id":"1524caed-e036-4a1d-90f3-0fb3698ebab1","system_id":"levelo_inurba_marseille","lat":43.31999,"lon":5.38166,"is_reserved":false,"is_disabled":false,"rental_uris":{"android":"levelo://app?vid=1524caed-e036-4a1d-90f3-0fb3698ebab1","ios":"levelo://app?vid=1524caed-e036-4a1d-90f3-0fb3698ebab1"},"vehicle_type_id":"4","last_reported":1708023931,"current_range_meters":3200,"station_id":"ce4bhr12rcd13ifvqhpg","pricing_plan_id":"cebpf4jnsgd1na2vs0mg"},{"bike_id":"57072b11-bca2-4958-8bc1-db4d89490084","system_id":"levelo_inurba_marseille","lat":43.313571,"lon":5.384829,"is_reserved":false,"is_disabled":false,"rental_uris":{"android":"levelo://app?vid=57072b11-bca2-4958-8bc1-db4d89490084","ios":"levelo://app?vid=57072b11-bca2-4958-8bc1-db4d89490084"},"vehicle_type_id":"4","last_reported":1708023931,"current_range_meters":20000,"station_id":"ce4bgt92rcd13ifvqcf0","pricing_plan_id":"cebpf4jnsgd1na2vs0mg"},{"bike_id":"bec4d854-e3f8-4ccb-b16c-993310b64853","system_id":"levelo_inurba_marseille","lat":43.313571,"lon":5.384829,"is_reserved":false,"is_disabled":false,"rental_uris":{"android":"levelo://app?vid=bec4d854-e3f8-4ccb-b16c-993310b64853","ios":"levelo://app?vid=bec4d854-e3f8-4ccb-b16c-993310b64853"},"vehicle_type_id":"4","last_reported":1708023931,"current_range_meters":12800,"station_id":"ce4bgt92rcd13ifvqcf0","pricing_plan_id":"cebpf4jnsgd1na2vs0mg"},{"bike_id":"5f56a675-d83a-4186-96cb-b927703a9823","system_id":"levelo_inurba_marseille","lat":43.313571,"lon":5.384829,"is_reserved":false,"is_disabled":false,"rental_uris":{"android":"levelo://app?vid=5f56a675-d83a-4186-96cb-b927703a9823","ios":"levelo://app?vid=5f56a675-d83a-4186-96cb-b927703a9823"},"vehicle_type_id":"4","last_reported":1708023931,"current_range_meters":30800,"station_id":"ce4bgt92rcd13ifvqcf0","pricing_plan_id":"cebpf4jnsgd1na2vs0mg"},{"bike_id":"5df1e20e-9e1b-4689-ab95-b78fb5e55697","system_id":"levelo_inurba_marseille","lat":43.31364,"lon":5.38501,"is_reserved":false,"is_disabled":false,"rental_uris":{"android":"levelo://app?vid=5df1e20e-9e1b-4689-ab95-b78fb5e55697","ios":"levelo://app?vid=5df1e20e-9e1b-4689-ab95-b78fb5e55697"},"vehicle_type_id":"4","last_reported":1708023931,"current_range_meters":27200,"station_id":"ce4bgt92rcd13ifvqcf0","pricing_plan_id":"cebpf4jnsgd1na2vs0mg"},{"bike_id":"e5b43d95-2687-4a17-a25b-bfeda59c6be2","system_id":"levelo_inurba_marseille","lat":43.31355,"lon":5.38506,"is_reserved":false,"is_disabled":false,"rental_uris":{"android":"levelo://app?vid=e5b43d95-2687-4a17-a25b-bfeda59c6be2","ios":"levelo://app?vid=e5b43d95-2687-4a17-a25b-bfeda59c6be2"},"vehicle_type_id":"4","last_reported":1708023931,"current_range_meters":24800,"station_id":"ce4bgt92rcd13ifvqcf0","pricing_plan_id":"cebpf4jnsgd1na2vs0mg"},{"bike_id":"31b0c65d-b4fc-4ac5-9610-834e3115cb29","system_id":"levelo_inurba_marseille","lat":43.299724,"lon":5.371829,"is_reserved":false,"is_disabled":false,"rental_uris":{"android":"levelo://app?vid=31b0c65d-b4fc-4ac5-9610-834e3115cb29","ios":"levelo://app?vid=31b0c65d-b4fc-4ac5-9610-834e3115cb29"},"vehicle_type_id":"4","last_reported":1708023931,"current_range_meters":0,"station_id":"ce4bgr92rcd13ifvqc7g","pricing_plan_id":"cebpf4jnsgd1na2vs0mg"},{"bike_id":"9c0ca3cd-ce66-4b7d-84fd-52e86afd32d7","system_id":"levelo_inurba_marseille","lat":43.299222,"lon":5.365554,"is_reserved":false,"is_disabled":false,"rental_uris":{"android":"levelo://app?vid=9c0ca3cd-ce66-4b7d-84fd-52e86afd32d7","ios":"levelo://app?vid=9c0ca3cd-ce66-4b7d-84fd-52e86afd32d7"},"vehicle_type_id":"4","last_reported":1708023931,"current_range_meters":6800,"station_id":"ce4bgm92rcd13ifvqbr0","pricing_plan_id":"cebpf4jnsgd1na2vs0mg"},{"bike_id":"ea3fcd07-5287-4bdc-ae6c-b74aca4f42f2","system_id":"levelo_inurba_marseille","lat":43.299222,"lon":5.365554,"is_reserved":false,"is_disabled":false,"rental_uris":{"android":"levelo://app?vid=ea3fcd07-5287-4bdc-ae6c-b74aca4f42f2","ios":"levelo://app?vid=ea3fcd07-5287-4bdc-ae6c-b74aca4f42f2"},"vehicle_type_id":"4","last_reported":1708023931,"current_range_meters":8800,"station_id":"ce4bgm92rcd13ifvqbr0","pricing_plan_id":"cebpf4jnsgd1na2vs0mg"},{"bike_id":"1aaf9170-53fa-40a5-9af1-7c8b1d0b49db","system_id":"levelo_inurba_marseille","lat":43.299724,"lon":5.371829,"is_reserved":false,"is_disabled":false,"rental_uris":{"android":"levelo://app?vid=1aaf9170-53fa-40a5-9af1-7c8b1d0b49db","ios":"levelo://app?vid=1aaf9170-53fa-40a5-9af1-7c8b1d0b49db"},"vehicle_type_id":"4","last_reported":1708023931,"current_range_meters":16400,"station_id":"ce4bgr92rcd13ifvqc7g","pricing_plan_id":"cebpf4jnsgd1na2vs0mg"},{"bike_id":"c5d967a8-0f93-48d1-9ea8-8fc7cd680a89","system_id":"levelo_inurba_marseille","lat":43.299724,"lon":5.371829,"is_reserved":false,"is_disabled":false,"rental_uris":{"android":"levelo://app?vid=c5d967a8-0f93-48d1-9ea8-8fc7cd680a89","ios":"levelo://app?vid=c5d967a8-0f93-48d1-9ea8-8fc7cd680a89"},"vehicle_type_id":"4","last_reported":1708023931,"current_range_meters":8800,"station_id":"ce4bgr92rcd13ifvqc7g","pricing_plan_id":"cebpf4jnsgd1na2vs0mg"},{"bike_id":"0c967a90-d95b-46f0-bdf3-21b91670fbd3","system_id":"levelo_inurba_marseille","lat":43.299222,"lon":5.365554,"is_reserved":false,"is_disabled":false,"rental_uris":{"android":"levelo://app?vid=0c967a90-d95b-46f0-bdf3-21b91670fbd3","ios":"levelo://app?vid=0c967a90-d95b-46f0-bdf3-21b91670fbd3"},"vehicle_type_id":"4","last_reported":1708023931,"current_range_meters":23200,"station_id":"ce4bgm92rcd13ifvqbr0","pricing_plan_id":"cebpf4jnsgd1na2vs0mg"},{"bike_id":"0d11848c-0737-4d7a-907e-d37b17abe75f","system_id":"levelo_inurba_marseille","lat":43.299724,"lon":5.371829,"is_reserved":false,"is_disabled":false,"rental_uris":{"android":"levelo://app?vid=0d11848c-0737-4d7a-907e-d37b17abe75f","ios":"levelo://app?vid=0d11848c-0737-4d7a-907e-d37b17abe75f"},"vehicle_type_id":"4","last_reported":1708023931,"current_range_meters":14400,"station_id":"ce4bgr92rcd13ifvqc7g","pricing_plan_id":"cebpf4jnsgd1na2vs0mg"},{"bike_id":"d950ea33-3562-462c-9821-f04f0e7ecdc4","system_id":"levelo_inurba_marseille","lat":43.298433,"lon":5.362774,"is_reserved":false,"is_disabled":false,"rental_uris":{"android":"levelo://app?vid=d950ea33-3562-462c-9821-f04f0e7ecdc4","ios":"levelo://app?vid=d950ea33-3562-462c-9821-f04f0e7ecdc4"},"vehicle_type_id":"4","last_reported":1708023931,"current_range_meters":13600,"station_id":"ce4bgpp2rcd13ifvqc3g","pricing_plan_id":"cebpf4jnsgd1na2vs0mg"},{"bike_id":"84af17a9-a9d2-4141-bcef-dc0d1ac1b400","system_id":"levelo_inurba_marseille","lat":43.29851,"lon":5.36286,"is_reserved":false,"is_disabled":false,"rental_uris":{"android":"levelo://app?vid=84af17a9-a9d2-4141-bcef-dc0d1ac1b400","ios":"levelo://app?vid=84af17a9-a9d2-4141-bcef-dc0d1ac1b400"},"vehicle_type_id":"4","last_reported":1708023931,"current_range_meters":22400,"station_id":"ce4bgpp2rcd13ifvqc3g","pricing_plan_id":"cebpf4jnsgd1na2vs0mg"},{"bike_id":"a11e02f1-0140-4fee-bbfd-b3afb888a2ce","system_id":"levelo_inurba_marseille","lat":43.29849,"lon":5.36286,"is_reserved":false,"is_disabled":false,"rental_uris":{"android":"levelo://app?vid=a11e02f1-0140-4fee-bbfd-b3afb888a2ce","ios":"levelo://app?vid=a11e02f1-0140-4fee-bbfd-b3afb888a2ce"},"vehicle_type_id":"4","last_reported":1708023931,"current_range_meters":0,"station_id":"ce4bgpp2rcd13ifvqc3g","pricing_plan_id":"cebpf4jnsgd1na2vs0mg"},{"bike_id":"9d3a29ea-3da6-446e-ba32-c36fde46dba1","system_id":"levelo_inurba_marseille","lat":43.298433,"lon":5.362774,"is_reserved":false,"is_disabled":false,"rental_uris":{"android":"levelo://app?vid=9d3a29ea-3da6-446e-ba32-c36fde46dba1","ios":"levelo://app?vid=9d3a29ea-3da6-446e-ba32-c36fde46dba1"},"vehicle_type_id":"4","last_reported":1708023931,"current_range_meters":16000,"station_id":"ce4bgpp2rcd13ifvqc3g","pricing_plan_id":"cebpf4jnsgd1na2vs0mg"},{"bike_id":"e4d897ef-9e37-48eb-a091-fa57c20d6954","system_id":"levelo_inurba_marseille","lat":43.298433,"lon":5.362774,"is_reserved":false,"is_disabled":false,"rental_uris":{"android":"levelo://app?vid=e4d897ef-9e37-48eb-a091-fa57c20d6954","ios":"levelo://app?vid=e4d897ef-9e37-48eb-a091-fa57c20d6954"},"vehicle_type_id":"4","last_reported":1708023931,"current_range_meters":6000,"station_id":"ce4bgpp2rcd13ifvqc3g","pricing_plan_id":"cebpf4jnsgd1na2vs0mg"},{"bike_id":"f89c4296-ded8-471c-9f3c-bcf71160beff","system_id":"levelo_inurba_marseille","lat":43.298433,"lon":5.362774,"is_reserved":false,"is_disabled":false,"rental_uris":{"android":"levelo://app?vid=f89c4296-ded8-471c-9f3c-bcf71160beff","ios":"levelo://app?vid=f89c4296-ded8-471c-9f3c-bcf71160beff"},"vehicle_type_id":"4","last_reported":1708023931,"current_range_meters":1200,"station_id":"ce4bgpp2rcd13ifvqc3g","pricing_plan_id":"cebpf4jnsgd1na2vs0mg"},{"bike_id":"c38a03ed-d00e-4684-a5c6-cc62c7030521","system_id":"levelo_inurba_marseille","lat":43.3117,"lon":5.38717,"is_reserved":false,"is_disabled":false,"rental_uris":{"android":"levelo://app?vid=c38a03ed-d00e-4684-a5c6-cc62c7030521","ios":"levelo://app?vid=c38a03ed-d00e-4684-a5c6-cc62c7030521"},"vehicle_type_id":"4","last_reported":1708023931,"current_range_meters":31200,"station_id":"ce4bgv12rcd13ifvqcp0","pricing_plan_id":"cebpf4jnsgd1na2vs0mg"},{"bike_id":"2abddd79-63fa-4db9-a4e3-66d79e15ffa8","system_id":"levelo_inurba_marseille","lat":43.311703,"lon":5.387183,"is_reserved":false,"is_disabled":false,"rental_uris":{"android":"levelo://app?vid=2abddd79-63fa-4db9-a4e3-66d79e15ffa8","ios":"levelo://app?vid=2abddd79-63fa-4db9-a4e3-66d79e15ffa8"},"vehicle_type_id":"4","last_reported":1708023931,"current_range_meters":4800,"station_id":"ce4bgv12rcd13ifvqcp0","pricing_plan_id":"cebpf4jnsgd1na2vs0mg"},{"bike_id":"263e5fc1-0b68-49f2-b721-de84c2e8eca3","system_id":"levelo_inurba_marseille","lat":43.311722,"lon":5.387247,"is_reserved":false,"is_disabled":false,"rental_uris":{"android":"levelo://app?vid=263e5fc1-0b68-49f2-b721-de84c2e8eca3","ios":"levelo://app?vid=263e5fc1-0b68-49f2-b721-de84c2e8eca3"},"vehicle_type_id":"4","last_reported":1708023931,"current_range_meters":22800,"station_id":"ce4bgv12rcd13ifvqcp0","pricing_plan_id":"cebpf4jnsgd1na2vs0mg"},{"bike_id":"1ac8206f-4d74-40a6-bc36-14ab1c6bca5b","system_id":"levelo_inurba_marseille","lat":43.311722,"lon":5.387247,"is_reserved":false,"is_disabled":false,"rental_uris":{"android":"levelo://app?vid=1ac8206f-4d74-40a6-bc36-14ab1c6bca5b","ios":"levelo://app?vid=1ac8206f-4d74-40a6-bc36-14ab1c6bca5b"},"vehicle_type_id":"4","last_reported":1708023931,"current_range_meters":2000,"station_id":"ce4bgv12rcd13ifvqcp0","pricing_plan_id":"cebpf4jnsgd1na2vs0mg"},{"bike_id":"a5597cee-752c-4cc1-b939-97afc7fb2301","system_id":"levelo_inurba_marseille","lat":43.31165,"lon":5.38725,"is_reserved":false,"is_disabled":false,"rental_uris":{"android":"levelo://app?vid=a5597cee-752c-4cc1-b939-97afc7fb2301","ios":"levelo://app?vid=a5597cee-752c-4cc1-b939-97afc7fb2301"},"vehicle_type_id":"4","last_reported":1708023931,"current_range_meters":12000,"station_id":"ce4bgv12rcd13ifvqcp0","pricing_plan_id":"cebpf4jnsgd1na2vs0mg"},{"bike_id":"068ea37c-ec84-4453-b8ec-901dd6836ff9","system_id":"levelo_inurba_marseille","lat":43.311722,"lon":5.387247,"is_reserved":false,"is_disabled":false,"rental_uris":{"android":"levelo://app?vid=068ea37c-ec84-4453-b8ec-901dd6836ff9","ios":"levelo://app?vid=068ea37c-ec84-4453-b8ec-901dd6836ff9"},"vehicle_type_id":"4","last_reported":1708023931,"current_range_meters":6800,"station_id":"ce4bgv12rcd13ifvqcp0","pricing_plan_id":"cebpf4jnsgd1na2vs0mg"},{"bike_id":"fd197809-cabc-41af-9332-07e8a940281e","system_id":"levelo_inurba_marseille","lat":43.311722,"lon":5.387247,"is_reserved":false,"is_disabled":false,"rental_uris":{"android":"levelo://app?vid=fd197809-cabc-41af-9332-07e8a940281e","ios":"levelo://app?vid=fd197809-cabc-41af-9332-07e8a940281e"},"vehicle_type_id":"4","last_reported":1708023931,"current_range_meters":6000,"station_id":"ce4bgv12rcd13ifvqcp0","pricing_plan_id":"cebpf4jnsgd1na2vs0mg"},{"bike_id":"5b12ad66-370d-411f-8a89-1045f139e107","system_id":"levelo_inurba_marseille","lat":43.322872,"lon":5.382756,"is_reserved":false,"is_disabled":false,"rental_uris":{"android":"levelo://app?vid=5b12ad66-370d-411f-8a89-1045f139e107","ios":"levelo://app?vid=5b12ad66-370d-411f-8a89-1045f139e107"},"vehicle_type_id":"4","last_reported":1708023931,"current_range_meters":15600,"station_id":"ce4bhr12rcd13ifvqhqg","pricing_plan_id":"cebpf4jnsgd1na2vs0mg"},{"bike_id":"e674677d-7bc1-48fa-80fb-1e56b1f01f35","system_id":"levelo_inurba_marseille","lat":43.322872,"lon":5.382756,"is_reserved":false,"is_disabled":false,"rental_uris":{"android":"levelo://app?vid=e674677d-7bc1-48fa-80fb-1e56b1f01f35","ios":"levelo://app?vid=e674677d-7bc1-48fa-80fb-1e56b1f01f35"},"vehicle_type_id":"4","last_reported":1708023931,"current_range_meters":23200,"station_id":"ce4bhr12rcd13ifvqhqg","pricing_plan_id":"cebpf4jnsgd1na2vs0mg"},{"bike_id":"aed9e4ad-9c1a-4a51-8095-58a12f0b44f4","system_id":"levelo_inurba_marseille","lat":43.322872,"lon":5.382756,"is_reserved":false,"is_disabled":false,"rental_uris":{"android":"levelo://app?vid=aed9e4ad-9c1a-4a51-8095-58a12f0b44f4","ios":"levelo://app?vid=aed9e4ad-9c1a-4a51-8095-58a12f0b44f4"},"vehicle_type_id":"4","last_reported":1708023931,"current_range_meters":30800,"station_id":"ce4bhr12rcd13ifvqhqg","pricing_plan_id":"cebpf4jnsgd1na2vs0mg"},{"bike_id":"466a0b3c-d73b-4507-b8b6-683f9244ed96","system_id":"levelo_inurba_marseille","lat":43.322872,"lon":5.382756,"is_reserved":false,"is_disabled":false,"rental_uris":{"android":"levelo://app?vid=466a0b3c-d73b-4507-b8b6-683f9244ed96","ios":"levelo://app?vid=466a0b3c-d73b-4507-b8b6-683f9244ed96"},"vehicle_type_id":"4","last_reported":1708023931,"current_range_meters":29600,"station_id":"ce4bhr12rcd13ifvqhqg","pricing_plan_id":"cebpf4jnsgd1na2vs0mg"},{"bike_id":"e7ddac79-3e05-4879-8044-19bc4cd52fa1","system_id":"levelo_inurba_marseille","lat":43.322872,"lon":5.382756,"is_reserved":false,"is_disabled":false,"rental_uris":{"android":"levelo://app?vid=e7ddac79-3e05-4879-8044-19bc4cd52fa1","ios":"levelo://app?vid=e7ddac79-3e05-4879-8044-19bc4cd52fa1"},"vehicle_type_id":"4","last_reported":1708023931,"current_range_meters":5200,"station_id":"ce4bhr12rcd13ifvqhqg","pricing_plan_id":"cebpf4jnsgd1na2vs0mg"},{"bike_id":"f4b6c96f-f863-415f-916a-aff3ff7977d0","system_id":"levelo_inurba_marseille","lat":43.322872,"lon":5.382756,"is_reserved":false,"is_disabled":false,"rental_uris":{"android":"levelo://app?vid=f4b6c96f-f863-415f-916a-aff3ff7977d0","ios":"levelo://app?vid=f4b6c96f-f863-415f-916a-aff3ff7977d0"},"vehicle_type_id":"4","last_reported":1708023931,"current_range_meters":30800,"station_id":"ce4bhr12rcd13ifvqhqg","pricing_plan_id":"cebpf4jnsgd1na2vs0mg"},{"bike_id":"d059372d-713e-4306-a0dc-ef5b2b5ad059","system_id":"levelo_inurba_marseille","lat":43.32823,"lon":5.36682,"is_reserved":false,"is_disabled":false,"rental_uris":{"android":"levelo://app?vid=d059372d-713e-4306-a0dc-ef5b2b5ad059","ios":"levelo://app?vid=d059372d-713e-4306-a0dc-ef5b2b5ad059"},"vehicle_type_id":"4","last_reported":1708023931,"current_range_meters":0,"station_id":"ce4bhs92rcd13ifvqi0g","pricing_plan_id":"cebpf4jnsgd1na2vs0mg"},{"bike_id":"ec21c626-faeb-41e5-9192-4d2bef3ee4d3","system_id":"levelo_inurba_marseille","lat":43.328236,"lon":5.366818,"is_reserved":false,"is_disabled":false,"rental_uris":{"android":"levelo://app?vid=ec21c626-faeb-41e5-9192-4d2bef3ee4d3","ios":"levelo://app?vid=ec21c626-faeb-41e5-9192-4d2bef3ee4d3"},"vehicle_type_id":"4","last_reported":1708023931,"current_range_meters":4800,"station_id":"ce4bhs92rcd13ifvqi0g","pricing_plan_id":"cebpf4jnsgd1na2vs0mg"},{"bike_id":"c579bad3-e2d0-4712-a783-f41c065e4e3f","system_id":"levelo_inurba_marseille","lat":43.32824,"lon":5.366728,"is_reserved":false,"is_disabled":false,"rental_uris":{"android":"levelo://app?vid=c579bad3-e2d0-4712-a783-f41c065e4e3f","ios":"levelo://app?vid=c579bad3-e2d0-4712-a783-f41c065e4e3f"},"vehicle_type_id":"4","last_reported":1708023931,"current_range_meters":5600,"station_id":"ce4bhs92rcd13ifvqi0g","pricing_plan_id":"cebpf4jnsgd1na2vs0mg"},{"bike_id":"24cbb04a-c763-4b6c-91c7-7ce4ce9a6969","system_id":"levelo_inurba_marseille","lat":43.32825,"lon":5.36682,"is_reserved":false,"is_disabled":false,"rental_uris":{"android":"levelo://app?vid=24cbb04a-c763-4b6c-91c7-7ce4ce9a6969","ios":"levelo://app?vid=24cbb04a-c763-4b6c-91c7-7ce4ce9a6969"},"vehicle_type_id":"4","last_reported":1708023931,"current_range_meters":12400,"station_id":"ce4bhs92rcd13ifvqi0g","pricing_plan_id":"cebpf4jnsgd1na2vs0mg"},{"bike_id":"e4cc1337-7654-41c0-8296-b1f3b25edb39","system_id":"levelo_inurba_marseille","lat":43.32826,"lon":5.36681,"is_reserved":false,"is_disabled":false,"rental_uris":{"android":"levelo://app?vid=e4cc1337-7654-41c0-8296-b1f3b25edb39","ios":"levelo://app?vid=e4cc1337-7654-41c0-8296-b1f3b25edb39"},"vehicle_type_id":"4","last_reported":1708023931,"current_range_meters":11600,"station_id":"ce4bhs92rcd13ifvqi0g","pricing_plan_id":"cebpf4jnsgd1na2vs0mg"},{"bike_id":"b354d40e-f748-45df-b8a4-085ee0f39b31","system_id":"levelo_inurba_marseille","lat":43.32827,"lon":5.36682,"is_reserved":false,"is_disabled":false,"rental_uris":{"android":"levelo://app?vid=b354d40e-f748-45df-b8a4-085ee0f39b31","ios":"levelo://app?vid=b354d40e-f748-45df-b8a4-085ee0f39b31"},"vehicle_type_id":"4","last_reported":1708023931,"current_range_meters":19600,"station_id":"ce4bhs92rcd13ifvqi0g","pricing_plan_id":"cebpf4jnsgd1na2vs0mg"},{"bike_id":"57f57f96-aa15-40ae-a761-f5242a8c30b7","system_id":"levelo_inurba_marseille","lat":43.328278,"lon":5.366758,"is_reserved":false,"is_disabled":false,"rental_uris":{"android":"levelo://app?vid=57f57f96-aa15-40ae-a761-f5242a8c30b7","ios":"levelo://app?vid=57f57f96-aa15-40ae-a761-f5242a8c30b7"},"vehicle_type_id":"4","last_reported":1708023931,"current_range_meters":10800,"station_id":"ce4bhs92rcd13ifvqi0g","pricing_plan_id":"cebpf4jnsgd1na2vs0mg"},{"bike_id":"4a0314a3-53ac-4faf-a81a-365240b15a43","system_id":"levelo_inurba_marseille","lat":43.32828,"lon":5.36682,"is_reserved":false,"is_disabled":false,"rental_uris":{"android":"levelo://app?vid=4a0314a3-53ac-4faf-a81a-365240b15a43","ios":"levelo://app?vid=4a0314a3-53ac-4faf-a81a-365240b15a43"},"vehicle_type_id":"4","last_reported":1708023931,"current_range_meters":26000,"station_id":"ce4bhs92rcd13ifvqi0g","pricing_plan_id":"cebpf4jnsgd1na2vs0mg"},{"bike_id":"ecc597d3-f2ea-41b5-b374-bc2279e4f21f","system_id":"levelo_inurba_marseille","lat":43.32828,"lon":5.3668,"is_reserved":false,"is_disabled":false,"rental_uris":{"android":"levelo://app?vid=ecc597d3-f2ea-41b5-b374-bc2279e4f21f","ios":"levelo://app?vid=ecc597d3-f2ea-41b5-b374-bc2279e4f21f"},"vehicle_type_id":"4","last_reported":1708023931,"current_range_meters":6800,"station_id":"ce4bhs92rcd13ifvqi0g","pricing_plan_id":"cebpf4jnsgd1na2vs0mg"},{"bike_id":"cba05e70-e0bd-44a4-939c-447adab5adfd","system_id":"levelo_inurba_marseille","lat":43.32829,"lon":5.36679,"is_reserved":false,"is_disabled":false,"rental_uris":{"android":"levelo://app?vid=cba05e70-e0bd-44a4-939c-447adab5adfd","ios":"levelo://app?vid=cba05e70-e0bd-44a4-939c-447adab5adfd"},"vehicle_type_id":"4","last_reported":1708023931,"current_range_meters":4800,"station_id":"ce4bhs92rcd13ifvqi0g","pricing_plan_id":"cebpf4jnsgd1na2vs0mg"},{"bike_id":"88a6f283-ebdc-4116-9bbe-c490469db988","system_id":"levelo_inurba_marseille","lat":43.297163,"lon":5.365866,"is_reserved":false,"is_disabled":false,"rental_uris":{"android":"levelo://app?vid=88a6f283-ebdc-4116-9bbe-c490469db988","ios":"levelo://app?vid=88a6f283-ebdc-4116-9bbe-c490469db988"},"vehicle_type_id":"4","last_reported":1708023931,"current_range_meters":14400,"station_id":"ce4bgn12rcd13ifvqbt0","pricing_plan_id":"cebpf4jnsgd1na2vs0mg"},{"bike_id":"20747a73-3ec2-4ec7-9c3a-f0ad85525260","system_id":"levelo_inurba_marseille","lat":43.328296,"lon":5.366792,"is_reserved":false,"is_disabled":false,"rental_uris":{"android":"levelo://app?vid=20747a73-3ec2-4ec7-9c3a-f0ad85525260","ios":"levelo://app?vid=20747a73-3ec2-4ec7-9c3a-f0ad85525260"},"vehicle_type_id":"4","last_reported":1708023931,"current_range_meters":0,"station_id":"ce4bhs92rcd13ifvqi0g","pricing_plan_id":"cebpf4jnsgd1na2vs0mg"},{"bike_id":"7c47e388-9433-4092-857a-2e1a28e7faaa","system_id":"levelo_inurba_marseille","lat":43.3283,"lon":5.36676,"is_reserved":false,"is_disabled":false,"rental_uris":{"android":"levelo://app?vid=7c47e388-9433-4092-857a-2e1a28e7faaa","ios":"levelo://app?vid=7c47e388-9433-4092-857a-2e1a28e7faaa"},"vehicle_type_id":"4","last_reported":1708023931,"current_range_meters":22800,"station_id":"ce4bhs92rcd13ifvqi0g","pricing_plan_id":"cebpf4jnsgd1na2vs0mg"},{"bike_id":"e53477e0-6f81-44d0-bf92-8c0c4ae8ef5b","system_id":"levelo_inurba_marseille","lat":43.328306,"lon":5.366744,"is_reserved":false,"is_disabled":false,"rental_uris":{"android":"levelo://app?vid=e53477e0-6f81-44d0-bf92-8c0c4ae8ef5b","ios":"levelo://app?vid=e53477e0-6f81-44d0-bf92-8c0c4ae8ef5b"},"vehicle_type_id":"4","last_reported":1708023931,"current_range_meters":13600,"station_id":"ce4bhs92rcd13ifvqi0g","pricing_plan_id":"cebpf4jnsgd1na2vs0mg"},{"bike_id":"c9b88aad-86c2-4a51-9436-08e8586a0048","system_id":"levelo_inurba_marseille","lat":43.32831,"lon":5.36681,"is_reserved":false,"is_disabled":false,"rental_uris":{"android":"levelo://app?vid=c9b88aad-86c2-4a51-9436-08e8586a0048","ios":"levelo://app?vid=c9b88aad-86c2-4a51-9436-08e8586a0048"},"vehicle_type_id":"4","last_reported":1708023931,"current_range_meters":14800,"station_id":"ce4bhs92rcd13ifvqi0g","pricing_plan_id":"cebpf4jnsgd1na2vs0mg"},{"bike_id":"8d4d4aba-3495-4235-ada7-809a0bcb5c57","system_id":"levelo_inurba_marseille","lat":43.32831,"lon":5.36675,"is_reserved":false,"is_disabled":false,"rental_uris":{"android":"levelo://app?vid=8d4d4aba-3495-4235-ada7-809a0bcb5c57","ios":"levelo://app?vid=8d4d4aba-3495-4235-ada7-809a0bcb5c57"},"vehicle_type_id":"4","last_reported":1708023931,"current_range_meters":18400,"station_id":"ce4bhs92rcd13ifvqi0g","pricing_plan_id":"cebpf4jnsgd1na2vs0mg"},{"bike_id":"8b36ce43-3bc7-4f8a-bb1e-1f87c12ac26a","system_id":"levelo_inurba_marseille","lat":43.32831,"lon":5.36674,"is_reserved":false,"is_disabled":false,"rental_uris":{"android":"levelo://app?vid=8b36ce43-3bc7-4f8a-bb1e-1f87c12ac26a","ios":"levelo://app?vid=8b36ce43-3bc7-4f8a-bb1e-1f87c12ac26a"},"vehicle_type_id":"4","last_reported":1708023931,"current_range_meters":5200,"station_id":"ce4bhs92rcd13ifvqi0g","pricing_plan_id":"cebpf4jnsgd1na2vs0mg"},{"bike_id":"b3bfa99e-7b4d-497b-94ef-3442263afaf4","system_id":"levelo_inurba_marseille","lat":43.297163,"lon":5.365866,"is_reserved":false,"is_disabled":false,"rental_uris":{"android":"levelo://app?vid=b3bfa99e-7b4d-497b-94ef-3442263afaf4","ios":"levelo://app?vid=b3bfa99e-7b4d-497b-94ef-3442263afaf4"},"vehicle_type_id":"4","last_reported":1708023931,"current_range_meters":1200,"station_id":"ce4bgn12rcd13ifvqbt0","pricing_plan_id":"cebpf4jnsgd1na2vs0mg"},{"bike_id":"4e6b0d2f-90e8-4b93-aac7-439df5729f62","system_id":"levelo_inurba_marseille","lat":43.32833,"lon":5.3669,"is_reserved":false,"is_disabled":false,"rental_uris":{"android":"levelo://app?vid=4e6b0d2f-90e8-4b93-aac7-439df5729f62","ios":"levelo://app?vid=4e6b0d2f-90e8-4b93-aac7-439df5729f62"},"vehicle_type_id":"4","last_reported":1708023931,"current_range_meters":12000,"station_id":"ce4bhs92rcd13ifvqi0g","pricing_plan_id":"cebpf4jnsgd1na2vs0mg"},{"bike_id":"00c486e2-5b6f-4240-9c00-f34f4cd392e2","system_id":"levelo_inurba_marseille","lat":43.32833,"lon":5.36682,"is_reserved":false,"is_disabled":false,"rental_uris":{"android":"levelo://app?vid=00c486e2-5b6f-4240-9c00-f34f4cd392e2","ios":"levelo://app?vid=00c486e2-5b6f-4240-9c00-f34f4cd392e2"},"vehicle_type_id":"4","last_reported":1708023931,"current_range_meters":12400,"station_id":"ce4bhs92rcd13ifvqi0g","pricing_plan_id":"cebpf4jnsgd1na2vs0mg"},{"bike_id":"1d5a721a-ff55-453f-a940-47eadee44d7e","system_id":"levelo_inurba_marseille","lat":43.297163,"lon":5.365866,"is_reserved":false,"is_disabled":false,"rental_uris":{"android":"levelo://app?vid=1d5a721a-ff55-453f-a940-47eadee44d7e","ios":"levelo://app?vid=1d5a721a-ff55-453f-a940-47eadee44d7e"},"vehicle_type_id":"4","last_reported":1708023931,"current_range_meters":3600,"station_id":"ce4bgn12rcd13ifvqbt0","pricing_plan_id":"cebpf4jnsgd1na2vs0mg"},{"bike_id":"f6fd5bcb-70c3-4075-907f-89cd05fc7584","system_id":"levelo_inurba_marseille","lat":43.32834,"lon":5.36701,"is_reserved":false,"is_disabled":false,"rental_uris":{"android":"levelo://app?vid=f6fd5bcb-70c3-4075-907f-89cd05fc7584","ios":"levelo://app?vid=f6fd5bcb-70c3-4075-907f-89cd05fc7584"},"vehicle_type_id":"4","last_reported":1708023931,"current_range_meters":0,"station_id":"ce4bhs92rcd13ifvqi0g","pricing_plan_id":"cebpf4jnsgd1na2vs0mg"},{"bike_id":"78be67a2-342c-453a-88c1-566ae1ae49d2","system_id":"levelo_inurba_marseille","lat":43.29715,"lon":5.36608,"is_reserved":false,"is_disabled":false,"rental_uris":{"android":"levelo://app?vid=78be67a2-342c-453a-88c1-566ae1ae49d2","ios":"levelo://app?vid=78be67a2-342c-453a-88c1-566ae1ae49d2"},"vehicle_type_id":"4","last_reported":1708023931,"current_range_meters":5200,"station_id":"ce4bgn12rcd13ifvqbt0","pricing_plan_id":"cebpf4jnsgd1na2vs0mg"},{"bike_id":"01ef1e87-7b88-4771-aca4-bf0407485e75","system_id":"levelo_inurba_marseille","lat":43.297163,"lon":5.365866,"is_reserved":false,"is_disabled":false,"rental_uris":{"android":"levelo://app?vid=01ef1e87-7b88-4771-aca4-bf0407485e75","ios":"levelo://app?vid=01ef1e87-7b88-4771-aca4-bf0407485e75"},"vehicle_type_id":"4","last_reported":1708023931,"current_range_meters":26400,"station_id":"ce4bgn12rcd13ifvqbt0","pricing_plan_id":"cebpf4jnsgd1na2vs0mg"},{"bike_id":"9d7784e4-fdd2-4fa1-ba7c-236cc8eb1c32","system_id":"levelo_inurba_marseille","lat":43.29713,"lon":5.36613,"is_reserved":false,"is_disabled":false,"rental_uris":{"android":"levelo://app?vid=9d7784e4-fdd2-4fa1-ba7c-236cc8eb1c32","ios":"levelo://app?vid=9d7784e4-fdd2-4fa1-ba7c-236cc8eb1c32"},"vehicle_type_id":"4","last_reported":1708023931,"current_range_meters":0,"station_id":"ce4bgn12rcd13ifvqbt0","pricing_plan_id":"cebpf4jnsgd1na2vs0mg"},{"bike_id":"6683842f-a6f1-429e-8ef0-9530f8f45a09","system_id":"levelo_inurba_marseille","lat":43.297163,"lon":5.365866,"is_reserved":false,"is_disabled":false,"rental_uris":{"android":"levelo://app?vid=6683842f-a6f1-429e-8ef0-9530f8f45a09","ios":"levelo://app?vid=6683842f-a6f1-429e-8ef0-9530f8f45a09"},"vehicle_type_id":"4","last_reported":1708023931,"current_range_meters":22400,"station_id":"ce4bgn12rcd13ifvqbt0","pricing_plan_id":"cebpf4jnsgd1na2vs0mg"},{"bike_id":"ab142448-ffed-49e3-bc9a-32006e08dccc","system_id":"levelo_inurba_marseille","lat":43.297077,"lon":5.36595,"is_reserved":false,"is_disabled":false,"rental_uris":{"android":"levelo://app?vid=ab142448-ffed-49e3-bc9a-32006e08dccc","ios":"levelo://app?vid=ab142448-ffed-49e3-bc9a-32006e08dccc"},"vehicle_type_id":"4","last_reported":1708023931,"current_range_meters":12800,"station_id":"ce4bgn12rcd13ifvqbt0","pricing_plan_id":"cebpf4jnsgd1na2vs0mg"},{"bike_id":"8c4ba5a7-81b6-4b66-b36b-37fc8a7fa714","system_id":"levelo_inurba_marseille","lat":43.297163,"lon":5.365866,"is_reserved":false,"is_disabled":false,"rental_uris":{"android":"levelo://app?vid=8c4ba5a7-81b6-4b66-b36b-37fc8a7fa714","ios":"levelo://app?vid=8c4ba5a7-81b6-4b66-b36b-37fc8a7fa714"},"vehicle_type_id":"4","last_reported":1708023931,"current_range_meters":1600,"station_id":"ce4bgn12rcd13ifvqbt0","pricing_plan_id":"cebpf4jnsgd1na2vs0mg"},{"bike_id":"cc4ce816-decb-4e5e-8ea3-540d91db8d62","system_id":"levelo_inurba_marseille","lat":43.297163,"lon":5.365866,"is_reserved":false,"is_disabled":false,"rental_uris":{"android":"levelo://app?vid=cc4ce816-decb-4e5e-8ea3-540d91db8d62","ios":"levelo://app?vid=cc4ce816-decb-4e5e-8ea3-540d91db8d62"},"vehicle_type_id":"4","last_reported":1708023931,"current_range_meters":17600,"station_id":"ce4bgn12rcd13ifvqbt0","pricing_plan_id":"cebpf4jnsgd1na2vs0mg"},{"bike_id":"7c5cc08f-b03f-4484-b32c-8d41b0218b56","system_id":"levelo_inurba_marseille","lat":43.296129,"lon":5.370777,"is_reserved":false,"is_disabled":false,"rental_uris":{"android":"levelo://app?vid=7c5cc08f-b03f-4484-b32c-8d41b0218b56","ios":"levelo://app?vid=7c5cc08f-b03f-4484-b32c-8d41b0218b56"},"vehicle_type_id":"4","last_reported":1708023931,"current_range_meters":19600,"station_id":"ce4bgnh2rcd13ifvqc0g","pricing_plan_id":"cebpf4jnsgd1na2vs0mg"},{"bike_id":"5c642904-eb14-4159-9e5d-c64f03260fff","system_id":"levelo_inurba_marseille","lat":43.296131,"lon":5.370791,"is_reserved":false,"is_disabled":false,"rental_uris":{"android":"levelo://app?vid=5c642904-eb14-4159-9e5d-c64f03260fff","ios":"levelo://app?vid=5c642904-eb14-4159-9e5d-c64f03260fff"},"vehicle_type_id":"4","last_reported":1708023931,"current_range_meters":16800,"station_id":"ce4bgnh2rcd13ifvqc0g","pricing_plan_id":"cebpf4jnsgd1na2vs0mg"},{"bike_id":"0f5c583a-ce23-425b-b75e-b32bf6a87736","system_id":"levelo_inurba_marseille","lat":43.296935,"lon":5.376544,"is_reserved":false,"is_disabled":false,"rental_uris":{"android":"levelo://app?vid=0f5c583a-ce23-425b-b75e-b32bf6a87736","ios":"levelo://app?vid=0f5c583a-ce23-425b-b75e-b32bf6a87736"},"vehicle_type_id":"4","last_reported":1708023931,"current_range_meters":0,"station_id":"ce4bgkh2rcd13ifvqbl0","pricing_plan_id":"cebpf4jnsgd1na2vs0mg"},{"bike_id":"f0c70a5f-b0c3-4df4-9f2f-b2d519a459b6","system_id":"levelo_inurba_marseille","lat":43.3096,"lon":5.3903,"is_reserved":false,"is_disabled":false,"rental_uris":{"android":"levelo://app?vid=f0c70a5f-b0c3-4df4-9f2f-b2d519a459b6","ios":"levelo://app?vid=f0c70a5f-b0c3-4df4-9f2f-b2d519a459b6"},"vehicle_type_id":"4","last_reported":1708023931,"current_range_meters":0,"station_id":"ce4bgup2rcd13ifvqco0","pricing_plan_id":"cebpf4jnsgd1na2vs0mg"},{"bike_id":"12fde8e2-7aff-44e5-b0cb-316b4dfe9ecf","system_id":"levelo_inurba_marseille","lat":43.317557,"lon":5.390173,"is_reserved":false,"is_disabled":false,"rental_uris":{"android":"levelo://app?vid=12fde8e2-7aff-44e5-b0cb-316b4dfe9ecf","ios":"levelo://app?vid=12fde8e2-7aff-44e5-b0cb-316b4dfe9ecf"},"vehicle_type_id":"4","last_reported":1708023931,"current_range_meters":28000,"station_id":"ce4bhqp2rcd13ifvqhng","pricing_plan_id":"cebpf4jnsgd1na2vs0mg"},{"bike_id":"b3dcb9ba-bf07-48c1-aada-2fbdb761a352","system_id":"levelo_inurba_marseille","lat":43.317557,"lon":5.390173,"is_reserved":false,"is_disabled":false,"rental_uris":{"android":"levelo://app?vid=b3dcb9ba-bf07-48c1-aada-2fbdb761a352","ios":"levelo://app?vid=b3dcb9ba-bf07-48c1-aada-2fbdb761a352"},"vehicle_type_id":"4","last_reported":1708023931,"current_range_meters":31200,"station_id":"ce4bhqp2rcd13ifvqhng","pricing_plan_id":"cebpf4jnsgd1na2vs0mg"},{"bike_id":"4d1fc426-76ca-4e7f-b775-e8d4d4862683","system_id":"levelo_inurba_marseille","lat":43.317557,"lon":5.390173,"is_reserved":false,"is_disabled":false,"rental_uris":{"android":"levelo://app?vid=4d1fc426-76ca-4e7f-b775-e8d4d4862683","ios":"levelo://app?vid=4d1fc426-76ca-4e7f-b775-e8d4d4862683"},"vehicle_type_id":"4","last_reported":1708023931,"current_range_meters":31600,"station_id":"ce4bhqp2rcd13ifvqhng","pricing_plan_id":"cebpf4jnsgd1na2vs0mg"},{"bike_id":"3c38ba32-70ff-4337-9a08-60dfc7c379b5","system_id":"levelo_inurba_marseille","lat":43.317557,"lon":5.390173,"is_reserved":false,"is_disabled":false,"rental_uris":{"android":"levelo://app?vid=3c38ba32-70ff-4337-9a08-60dfc7c379b5","ios":"levelo://app?vid=3c38ba32-70ff-4337-9a08-60dfc7c379b5"},"vehicle_type_id":"4","last_reported":1708023931,"current_range_meters":19600,"station_id":"ce4bhqp2rcd13ifvqhng","pricing_plan_id":"cebpf4jnsgd1na2vs0mg"},{"bike_id":"0d568f49-9e25-417a-91e9-babe78949eca","system_id":"levelo_inurba_marseille","lat":43.317557,"lon":5.390173,"is_reserved":false,"is_disabled":false,"rental_uris":{"android":"levelo://app?vid=0d568f49-9e25-417a-91e9-babe78949eca","ios":"levelo://app?vid=0d568f49-9e25-417a-91e9-babe78949eca"},"vehicle_type_id":"4","last_reported":1708023931,"current_range_meters":31200,"station_id":"ce4bhqp2rcd13ifvqhng","pricing_plan_id":"cebpf4jnsgd1na2vs0mg"},{"bike_id":"5615b1b1-8ed0-4dab-be0f-5a22c7f9240d","system_id":"levelo_inurba_marseille","lat":43.317497,"lon":5.390233,"is_reserved":false,"is_disabled":false,"rental_uris":{"android":"levelo://app?vid=5615b1b1-8ed0-4dab-be0f-5a22c7f9240d","ios":"levelo://app?vid=5615b1b1-8ed0-4dab-be0f-5a22c7f9240d"},"vehicle_type_id":"4","last_reported":1708023931,"current_range_meters":0,"station_id":"ce4bhqp2rcd13ifvqhng","pricing_plan_id":"cebpf4jnsgd1na2vs0mg"},{"bike_id":"b38bbca5-1482-40ad-8405-56dac9cba366","system_id":"levelo_inurba_marseille","lat":43.317557,"lon":5.390173,"is_reserved":false,"is_disabled":false,"rental_uris":{"android":"levelo://app?vid=b38bbca5-1482-40ad-8405-56dac9cba366","ios":"levelo://app?vid=b38bbca5-1482-40ad-8405-56dac9cba366"},"vehicle_type_id":"4","last_reported":1708023931,"current_range_meters":23600,"station_id":"ce4bhqp2rcd13ifvqhng","pricing_plan_id":"cebpf4jnsgd1na2vs0mg"},{"bike_id":"04a263cc-f7fb-40e2-9889-8225f7c983b8","system_id":"levelo_inurba_marseille","lat":43.31762,"lon":5.3902,"is_reserved":false,"is_disabled":false,"rental_uris":{"android":"levelo://app?vid=04a263cc-f7fb-40e2-9889-8225f7c983b8","ios":"levelo://app?vid=04a263cc-f7fb-40e2-9889-8225f7c983b8"},"vehicle_type_id":"4","last_reported":1708023931,"current_range_meters":800,"station_id":"ce4bhqp2rcd13ifvqhng","pricing_plan_id":"cebpf4jnsgd1na2vs0mg"},{"bike_id":"cece8118-751e-4704-b260-95811fc140db","system_id":"levelo_inurba_marseille","lat":43.317557,"lon":5.390173,"is_reserved":false,"is_disabled":false,"rental_uris":{"android":"levelo://app?vid=cece8118-751e-4704-b260-95811fc140db","ios":"levelo://app?vid=cece8118-751e-4704-b260-95811fc140db"},"vehicle_type_id":"4","last_reported":1708023931,"current_range_meters":24000,"station_id":"ce4bhqp2rcd13ifvqhng","pricing_plan_id":"cebpf4jnsgd1na2vs0mg"},{"bike_id":"27aaf622-ad2c-42b5-9690-9fff0a27e24d","system_id":"levelo_inurba_marseille","lat":43.317557,"lon":5.390173,"is_reserved":false,"is_disabled":false,"rental_uris":{"android":"levelo://app?vid=27aaf622-ad2c-42b5-9690-9fff0a27e24d","ios":"levelo://app?vid=27aaf622-ad2c-42b5-9690-9fff0a27e24d"},"vehicle_type_id":"4","last_reported":1708023931,"current_range_meters":29200,"station_id":"ce4bhqp2rcd13ifvqhng","pricing_plan_id":"cebpf4jnsgd1na2vs0mg"},{"bike_id":"a23e292f-911c-4c8f-b305-b0499e852199","system_id":"levelo_inurba_marseille","lat":43.298037,"lon":5.381066,"is_reserved":false,"is_disabled":false,"rental_uris":{"android":"levelo://app?vid=a23e292f-911c-4c8f-b305-b0499e852199","ios":"levelo://app?vid=a23e292f-911c-4c8f-b305-b0499e852199"},"vehicle_type_id":"4","last_reported":1708023931,"current_range_meters":7600,"station_id":"ce4bgip2rcd13ifvqbb0","pricing_plan_id":"cebpf4jnsgd1na2vs0mg"},{"bike_id":"5c022e31-d57e-4d6e-a228-a43ed6f4a0aa","system_id":"levelo_inurba_marseille","lat":43.298037,"lon":5.381066,"is_reserved":false,"is_disabled":false,"rental_uris":{"android":"levelo://app?vid=5c022e31-d57e-4d6e-a228-a43ed6f4a0aa","ios":"levelo://app?vid=5c022e31-d57e-4d6e-a228-a43ed6f4a0aa"},"vehicle_type_id":"4","last_reported":1708023931,"current_range_meters":3200,"station_id":"ce4bgip2rcd13ifvqbb0","pricing_plan_id":"cebpf4jnsgd1na2vs0mg"},{"bike_id":"3a900ab4-6f30-4cbc-928f-f5d4c78603b9","system_id":"levelo_inurba_marseille","lat":43.298037,"lon":5.381066,"is_reserved":false,"is_disabled":false,"rental_uris":{"android":"levelo://app?vid=3a900ab4-6f30-4cbc-928f-f5d4c78603b9","ios":"levelo://app?vid=3a900ab4-6f30-4cbc-928f-f5d4c78603b9"},"vehicle_type_id":"4","last_reported":1708023931,"current_range_meters":800,"station_id":"ce4bgip2rcd13ifvqbb0","pricing_plan_id":"cebpf4jnsgd1na2vs0mg"},{"bike_id":"79120e76-b23b-4ce6-b261-4b372ee686d9","system_id":"levelo_inurba_marseille","lat":43.298037,"lon":5.381066,"is_reserved":false,"is_disabled":false,"rental_uris":{"android":"levelo://app?vid=79120e76-b23b-4ce6-b261-4b372ee686d9","ios":"levelo://app?vid=79120e76-b23b-4ce6-b261-4b372ee686d9"},"vehicle_type_id":"4","last_reported":1708023931,"current_range_meters":17600,"station_id":"ce4bgip2rcd13ifvqbb0","pricing_plan_id":"cebpf4jnsgd1na2vs0mg"},{"bike_id":"d7f41bc6-1c1e-4df3-89d0-aa179fe2f17c","system_id":"levelo_inurba_marseille","lat":43.298037,"lon":5.381066,"is_reserved":false,"is_disabled":false,"rental_uris":{"android":"levelo://app?vid=d7f41bc6-1c1e-4df3-89d0-aa179fe2f17c","ios":"levelo://app?vid=d7f41bc6-1c1e-4df3-89d0-aa179fe2f17c"},"vehicle_type_id":"4","last_reported":1708023931,"current_range_meters":10800,"station_id":"ce4bgip2rcd13ifvqbb0","pricing_plan_id":"cebpf4jnsgd1na2vs0mg"},{"bike_id":"7042e397-052f-42ea-a372-fa23415c13ea","system_id":"levelo_inurba_marseille","lat":43.297992,"lon":5.381018,"is_reserved":false,"is_disabled":false,"rental_uris":{"android":"levelo://app?vid=7042e397-052f-42ea-a372-fa23415c13ea","ios":"levelo://app?vid=7042e397-052f-42ea-a372-fa23415c13ea"},"vehicle_type_id":"4","last_reported":1708023931,"current_range_meters":10000,"station_id":"ce4bgip2rcd13ifvqbb0","pricing_plan_id":"cebpf4jnsgd1na2vs0mg"},{"bike_id":"7d2eeb96-308c-4297-9156-ab21ea6ae62d","system_id":"levelo_inurba_marseille","lat":43.295748,"lon":5.37522,"is_reserved":false,"is_disabled":false,"rental_uris":{"android":"levelo://app?vid=7d2eeb96-308c-4297-9156-ab21ea6ae62d","ios":"levelo://app?vid=7d2eeb96-308c-4297-9156-ab21ea6ae62d"},"vehicle_type_id":"4","last_reported":1708023931,"current_range_meters":8800,"station_id":"ce4bgh92rcd13ifvqb50","pricing_plan_id":"cebpf4jnsgd1na2vs0mg"},{"bike_id":"f842b5aa-a0ad-46a8-9feb-6b955f5c383c","system_id":"levelo_inurba_marseille","lat":43.298037,"lon":5.381066,"is_reserved":false,"is_disabled":false,"rental_uris":{"android":"levelo://app?vid=f842b5aa-a0ad-46a8-9feb-6b955f5c383c","ios":"levelo://app?vid=f842b5aa-a0ad-46a8-9feb-6b955f5c383c"},"vehicle_type_id":"4","last_reported":1708023931,"current_range_meters":2400,"station_id":"ce4bgip2rcd13ifvqbb0","pricing_plan_id":"cebpf4jnsgd1na2vs0mg"},{"bike_id":"f366eab7-5321-48e4-a2b2-cd6880331e0b","system_id":"levelo_inurba_marseille","lat":43.298037,"lon":5.381066,"is_reserved":false,"is_disabled":false,"rental_uris":{"android":"levelo://app?vid=f366eab7-5321-48e4-a2b2-cd6880331e0b","ios":"levelo://app?vid=f366eab7-5321-48e4-a2b2-cd6880331e0b"},"vehicle_type_id":"4","last_reported":1708023931,"current_range_meters":400,"station_id":"ce4bgip2rcd13ifvqbb0","pricing_plan_id":"cebpf4jnsgd1na2vs0mg"},{"bike_id":"64523868-2aaf-4e3f-b6d4-8d1945d6d8e1","system_id":"levelo_inurba_marseille","lat":43.296277,"lon":5.377108,"is_reserved":false,"is_disabled":false,"rental_uris":{"android":"levelo://app?vid=64523868-2aaf-4e3f-b6d4-8d1945d6d8e1","ios":"levelo://app?vid=64523868-2aaf-4e3f-b6d4-8d1945d6d8e1"},"vehicle_type_id":"4","last_reported":1708023931,"current_range_meters":23600,"station_id":"ce4bgi92rcd13ifvqb90","pricing_plan_id":"cebpf4jnsgd1na2vs0mg"},{"bike_id":"da76654a-6635-4757-8d15-d97018f84ecf","system_id":"levelo_inurba_marseille","lat":43.295748,"lon":5.37522,"is_reserved":false,"is_disabled":false,"rental_uris":{"android":"levelo://app?vid=da76654a-6635-4757-8d15-d97018f84ecf","ios":"levelo://app?vid=da76654a-6635-4757-8d15-d97018f84ecf"},"vehicle_type_id":"4","last_reported":1708023931,"current_range_meters":2000,"station_id":"ce4bgh92rcd13ifvqb50","pricing_plan_id":"cebpf4jnsgd1na2vs0mg"},{"bike_id":"649d0103-8b16-4e59-a312-377cf528357b","system_id":"levelo_inurba_marseille","lat":43.304274,"lon":5.388873,"is_reserved":false,"is_disabled":false,"rental_uris":{"android":"levelo://app?vid=649d0103-8b16-4e59-a312-377cf528357b","ios":"levelo://app?vid=649d0103-8b16-4e59-a312-377cf528357b"},"vehicle_type_id":"4","last_reported":1708023931,"current_range_meters":24000,"station_id":"ce4bgk12rcd13ifvqbi0","pricing_plan_id":"cebpf4jnsgd1na2vs0mg"},{"bike_id":"0fcce389-6502-4b9a-9255-7f24f8a260b6","system_id":"levelo_inurba_marseille","lat":43.295748,"lon":5.37522,"is_reserved":false,"is_disabled":false,"rental_uris":{"android":"levelo://app?vid=0fcce389-6502-4b9a-9255-7f24f8a260b6","ios":"levelo://app?vid=0fcce389-6502-4b9a-9255-7f24f8a260b6"},"vehicle_type_id":"4","last_reported":1708023931,"current_range_meters":400,"station_id":"ce4bgh92rcd13ifvqb50","pricing_plan_id":"cebpf4jnsgd1na2vs0mg"},{"bike_id":"4a794ffe-f74f-429b-b6e7-d6bd3c655303","system_id":"levelo_inurba_marseille","lat":43.299707,"lon":5.384859,"is_reserved":false,"is_disabled":false,"rental_uris":{"android":"levelo://app?vid=4a794ffe-f74f-429b-b6e7-d6bd3c655303","ios":"levelo://app?vid=4a794ffe-f74f-429b-b6e7-d6bd3c655303"},"vehicle_type_id":"4","last_reported":1708023931,"current_range_meters":14000,"station_id":"ce4bgj92rcd13ifvqbd0","pricing_plan_id":"cebpf4jnsgd1na2vs0mg"},{"bike_id":"5f71b896-6083-4f67-9e81-5957161cac30","system_id":"levelo_inurba_marseille","lat":43.2998,"lon":5.38485,"is_reserved":false,"is_disabled":false,"rental_uris":{"android":"levelo://app?vid=5f71b896-6083-4f67-9e81-5957161cac30","ios":"levelo://app?vid=5f71b896-6083-4f67-9e81-5957161cac30"},"vehicle_type_id":"4","last_reported":1708023931,"current_range_meters":10000,"station_id":"ce4bgj92rcd13ifvqbd0","pricing_plan_id":"cebpf4jnsgd1na2vs0mg"},{"bike_id":"c305863f-6ebc-40c5-9acb-35e44ab49e85","system_id":"levelo_inurba_marseille","lat":43.29977,"lon":5.38484,"is_reserved":false,"is_disabled":false,"rental_uris":{"android":"levelo://app?vid=c305863f-6ebc-40c5-9acb-35e44ab49e85","ios":"levelo://app?vid=c305863f-6ebc-40c5-9acb-35e44ab49e85"},"vehicle_type_id":"4","last_reported":1708023931,"current_range_meters":29200,"station_id":"ce4bgj92rcd13ifvqbd0","pricing_plan_id":"cebpf4jnsgd1na2vs0mg"},{"bike_id":"da9bc36c-40b8-4a58-9d11-eab41f810ffe","system_id":"levelo_inurba_marseille","lat":43.29974,"lon":5.38492,"is_reserved":false,"is_disabled":false,"rental_uris":{"android":"levelo://app?vid=da9bc36c-40b8-4a58-9d11-eab41f810ffe","ios":"levelo://app?vid=da9bc36c-40b8-4a58-9d11-eab41f810ffe"},"vehicle_type_id":"4","last_reported":1708023931,"current_range_meters":25200,"station_id":"ce4bgj92rcd13ifvqbd0","pricing_plan_id":"cebpf4jnsgd1na2vs0mg"},{"bike_id":"422ae9dd-c1bf-4018-9c83-03ec266b91e5","system_id":"levelo_inurba_marseille","lat":43.299724,"lon":5.384848,"is_reserved":false,"is_disabled":false,"rental_uris":{"android":"levelo://app?vid=422ae9dd-c1bf-4018-9c83-03ec266b91e5","ios":"levelo://app?vid=422ae9dd-c1bf-4018-9c83-03ec266b91e5"},"vehicle_type_id":"4","last_reported":1708023931,"current_range_meters":4800,"station_id":"ce4bgj92rcd13ifvqbd0","pricing_plan_id":"cebpf4jnsgd1na2vs0mg"},{"bike_id":"be860410-5355-47ce-829d-53349a369d1a","system_id":"levelo_inurba_marseille","lat":43.29974,"lon":5.38494,"is_reserved":false,"is_disabled":false,"rental_uris":{"android":"levelo://app?vid=be860410-5355-47ce-829d-53349a369d1a","ios":"levelo://app?vid=be860410-5355-47ce-829d-53349a369d1a"},"vehicle_type_id":"4","last_reported":1708023931,"current_range_meters":7600,"station_id":"ce4bgj92rcd13ifvqbd0","pricing_plan_id":"cebpf4jnsgd1na2vs0mg"},{"bike_id":"075b45be-b1b3-4738-b417-12dfb3470857","system_id":"levelo_inurba_marseille","lat":43.295279,"lon":5.375048,"is_reserved":false,"is_disabled":false,"rental_uris":{"android":"levelo://app?vid=075b45be-b1b3-4738-b417-12dfb3470857","ios":"levelo://app?vid=075b45be-b1b3-4738-b417-12dfb3470857"},"vehicle_type_id":"4","last_reported":1708023931,"current_range_meters":10800,"station_id":"ce4bgkp2rcd13ifvqbmg","pricing_plan_id":"cebpf4jnsgd1na2vs0mg"},{"bike_id":"db712e3a-40fc-448c-b941-6f264d6c664a","system_id":"levelo_inurba_marseille","lat":43.299724,"lon":5.384848,"is_reserved":false,"is_disabled":false,"rental_uris":{"android":"levelo://app?vid=db712e3a-40fc-448c-b941-6f264d6c664a","ios":"levelo://app?vid=db712e3a-40fc-448c-b941-6f264d6c664a"},"vehicle_type_id":"4","last_reported":1708023931,"current_range_meters":6800,"station_id":"ce4bgj92rcd13ifvqbd0","pricing_plan_id":"cebpf4jnsgd1na2vs0mg"},{"bike_id":"98dace74-5b72-45a5-952c-188256c91f4b","system_id":"levelo_inurba_marseille","lat":43.299717,"lon":5.384845,"is_reserved":false,"is_disabled":false,"rental_uris":{"android":"levelo://app?vid=98dace74-5b72-45a5-952c-188256c91f4b","ios":"levelo://app?vid=98dace74-5b72-45a5-952c-188256c91f4b"},"vehicle_type_id":"4","last_reported":1708023931,"current_range_meters":1200,"station_id":"ce4bgj92rcd13ifvqbd0","pricing_plan_id":"cebpf4jnsgd1na2vs0mg"},{"bike_id":"f1a530a1-c6b1-48dd-9694-bf3f39cf1bae","system_id":"levelo_inurba_marseille","lat":43.299717,"lon":5.384845,"is_reserved":false,"is_disabled":false,"rental_uris":{"android":"levelo://app?vid=f1a530a1-c6b1-48dd-9694-bf3f39cf1bae","ios":"levelo://app?vid=f1a530a1-c6b1-48dd-9694-bf3f39cf1bae"},"vehicle_type_id":"4","last_reported":1708023931,"current_range_meters":3600,"station_id":"ce4bgj92rcd13ifvqbd0","pricing_plan_id":"cebpf4jnsgd1na2vs0mg"},{"bike_id":"d6b1daac-43c9-4eb8-8878-e160d352ad2b","system_id":"levelo_inurba_marseille","lat":43.299724,"lon":5.384848,"is_reserved":false,"is_disabled":false,"rental_uris":{"android":"levelo://app?vid=d6b1daac-43c9-4eb8-8878-e160d352ad2b","ios":"levelo://app?vid=d6b1daac-43c9-4eb8-8878-e160d352ad2b"},"vehicle_type_id":"4","last_reported":1708023931,"current_range_meters":10400,"station_id":"ce4bgj92rcd13ifvqbd0","pricing_plan_id":"cebpf4jnsgd1na2vs0mg"},{"bike_id":"6debd835-98c0-409b-8baa-1ae6c5e1fc68","system_id":"levelo_inurba_marseille","lat":43.299724,"lon":5.384848,"is_reserved":false,"is_disabled":false,"rental_uris":{"android":"levelo://app?vid=6debd835-98c0-409b-8baa-1ae6c5e1fc68","ios":"levelo://app?vid=6debd835-98c0-409b-8baa-1ae6c5e1fc68"},"vehicle_type_id":"4","last_reported":1708023931,"current_range_meters":7600,"station_id":"ce4bgj92rcd13ifvqbd0","pricing_plan_id":"cebpf4jnsgd1na2vs0mg"},{"bike_id":"7b8eb90b-c903-40b2-aef6-6e346453d38b","system_id":"levelo_inurba_marseille","lat":43.299717,"lon":5.384845,"is_reserved":false,"is_disabled":false,"rental_uris":{"android":"levelo://app?vid=7b8eb90b-c903-40b2-aef6-6e346453d38b","ios":"levelo://app?vid=7b8eb90b-c903-40b2-aef6-6e346453d38b"},"vehicle_type_id":"4","last_reported":1708023931,"current_range_meters":8400,"station_id":"ce4bgj92rcd13ifvqbd0","pricing_plan_id":"cebpf4jnsgd1na2vs0mg"},{"bike_id":"3b38e6a4-50d9-4022-bc89-dcfdf5933095","system_id":"levelo_inurba_marseille","lat":43.300852,"lon":5.390859,"is_reserved":false,"is_disabled":false,"rental_uris":{"android":"levelo://app?vid=3b38e6a4-50d9-4022-bc89-dcfdf5933095","ios":"levelo://app?vid=3b38e6a4-50d9-4022-bc89-dcfdf5933095"},"vehicle_type_id":"4","last_reported":1708023931,"current_range_meters":10400,"station_id":"ce4bh192rcd13ifvqdb0","pricing_plan_id":"cebpf4jnsgd1na2vs0mg"},{"bike_id":"9a785585-c85b-4fa3-85aa-80d29ca57d9f","system_id":"levelo_inurba_marseille","lat":43.32367,"lon":5.388836,"is_reserved":false,"is_disabled":false,"rental_uris":{"android":"levelo://app?vid=9a785585-c85b-4fa3-85aa-80d29ca57d9f","ios":"levelo://app?vid=9a785585-c85b-4fa3-85aa-80d29ca57d9f"},"vehicle_type_id":"4","last_reported":1708023931,"current_range_meters":8000,"station_id":"ce4bhqp2rcd13ifvqhog","pricing_plan_id":"cebpf4jnsgd1na2vs0mg"},{"bike_id":"db5a62d4-f9ba-40ff-9ae3-5d05cc8e7704","system_id":"levelo_inurba_marseille","lat":43.32367,"lon":5.388836,"is_reserved":false,"is_disabled":false,"rental_uris":{"android":"levelo://app?vid=db5a62d4-f9ba-40ff-9ae3-5d05cc8e7704","ios":"levelo://app?vid=db5a62d4-f9ba-40ff-9ae3-5d05cc8e7704"},"vehicle_type_id":"4","last_reported":1708023931,"current_range_meters":7600,"station_id":"ce4bhqp2rcd13ifvqhog","pricing_plan_id":"cebpf4jnsgd1na2vs0mg"},{"bike_id":"41305819-44f5-40af-827b-218028eee8ba","system_id":"levelo_inurba_marseille","lat":43.32367,"lon":5.388836,"is_reserved":false,"is_disabled":false,"rental_uris":{"android":"levelo://app?vid=41305819-44f5-40af-827b-218028eee8ba","ios":"levelo://app?vid=41305819-44f5-40af-827b-218028eee8ba"},"vehicle_type_id":"4","last_reported":1708023931,"current_range_meters":0,"station_id":"ce4bhqp2rcd13ifvqhog","pricing_plan_id":"cebpf4jnsgd1na2vs0mg"},{"bike_id":"a8c7fcf6-2476-48b4-a2a7-391dc6d39d14","system_id":"levelo_inurba_marseille","lat":43.32367,"lon":5.388836,"is_reserved":false,"is_disabled":false,"rental_uris":{"android":"levelo://app?vid=a8c7fcf6-2476-48b4-a2a7-391dc6d39d14","ios":"levelo://app?vid=a8c7fcf6-2476-48b4-a2a7-391dc6d39d14"},"vehicle_type_id":"4","last_reported":1708023931,"current_range_meters":0,"station_id":"ce4bhqp2rcd13ifvqhog","pricing_plan_id":"cebpf4jnsgd1na2vs0mg"},{"bike_id":"b990bd33-11fa-4194-a071-8e5a2381ab47","system_id":"levelo_inurba_marseille","lat":43.32367,"lon":5.388836,"is_reserved":false,"is_disabled":false,"rental_uris":{"android":"levelo://app?vid=b990bd33-11fa-4194-a071-8e5a2381ab47","ios":"levelo://app?vid=b990bd33-11fa-4194-a071-8e5a2381ab47"},"vehicle_type_id":"4","last_reported":1708023931,"current_range_meters":6400,"station_id":"ce4bhqp2rcd13ifvqhog","pricing_plan_id":"cebpf4jnsgd1na2vs0mg"},{"bike_id":"7b8ae2a5-fea4-420f-9e1d-5f67a20c6887","system_id":"levelo_inurba_marseille","lat":43.32367,"lon":5.388836,"is_reserved":false,"is_disabled":false,"rental_uris":{"android":"levelo://app?vid=7b8ae2a5-fea4-420f-9e1d-5f67a20c6887","ios":"levelo://app?vid=7b8ae2a5-fea4-420f-9e1d-5f67a20c6887"},"vehicle_type_id":"4","last_reported":1708023931,"current_range_meters":20000,"station_id":"ce4bhqp2rcd13ifvqhog","pricing_plan_id":"cebpf4jnsgd1na2vs0mg"},{"bike_id":"db2bc009-1b6b-43a5-9572-4ba46f979c16","system_id":"levelo_inurba_marseille","lat":43.32367,"lon":5.388836,"is_reserved":false,"is_disabled":false,"rental_uris":{"android":"levelo://app?vid=db2bc009-1b6b-43a5-9572-4ba46f979c16","ios":"levelo://app?vid=db2bc009-1b6b-43a5-9572-4ba46f979c16"},"vehicle_type_id":"4","last_reported":1708023931,"current_range_meters":18800,"station_id":"ce4bhqp2rcd13ifvqhog","pricing_plan_id":"cebpf4jnsgd1na2vs0mg"},{"bike_id":"8c15bfc9-f0e8-44eb-a46d-c1fd8f1355e2","system_id":"levelo_inurba_marseille","lat":43.29602,"lon":5.381084,"is_reserved":false,"is_disabled":false,"rental_uris":{"android":"levelo://app?vid=8c15bfc9-f0e8-44eb-a46d-c1fd8f1355e2","ios":"levelo://app?vid=8c15bfc9-f0e8-44eb-a46d-c1fd8f1355e2"},"vehicle_type_id":"4","last_reported":1708023931,"current_range_meters":5600,"station_id":"ce4bgl12rcd13ifvqbo0","pricing_plan_id":"cebpf4jnsgd1na2vs0mg"},{"bike_id":"330e523c-1160-47b6-afb1-414353d3ac16","system_id":"levelo_inurba_marseille","lat":43.29602,"lon":5.381084,"is_reserved":false,"is_disabled":false,"rental_uris":{"android":"levelo://app?vid=330e523c-1160-47b6-afb1-414353d3ac16","ios":"levelo://app?vid=330e523c-1160-47b6-afb1-414353d3ac16"},"vehicle_type_id":"4","last_reported":1708023931,"current_range_meters":14000,"station_id":"ce4bgl12rcd13ifvqbo0","pricing_plan_id":"cebpf4jnsgd1na2vs0mg"},{"bike_id":"24dbd017-e002-4304-ba52-a44060b64f07","system_id":"levelo_inurba_marseille","lat":43.29311,"lon":5.37159,"is_reserved":false,"is_disabled":false,"rental_uris":{"android":"levelo://app?vid=24dbd017-e002-4304-ba52-a44060b64f07","ios":"levelo://app?vid=24dbd017-e002-4304-ba52-a44060b64f07"},"vehicle_type_id":"4","last_reported":1708023931,"current_range_meters":0,"station_id":"ce4bgh92rcd13ifvqb40","pricing_plan_id":"cebpf4jnsgd1na2vs0mg"},{"bike_id":"414e3f3f-ad1d-41c5-80e7-ef436bc5d04e","system_id":"levelo_inurba_marseille","lat":43.293065,"lon":5.371699,"is_reserved":false,"is_disabled":false,"rental_uris":{"android":"levelo://app?vid=414e3f3f-ad1d-41c5-80e7-ef436bc5d04e","ios":"levelo://app?vid=414e3f3f-ad1d-41c5-80e7-ef436bc5d04e"},"vehicle_type_id":"4","last_reported":1708023931,"current_range_meters":0,"station_id":"","pricing_plan_id":"cebpf4jnsgd1na2vs0mg"},{"bike_id":"f2d798b6-0546-489e-8c99-cadb5e89547f","system_id":"levelo_inurba_marseille","lat":43.293259,"lon":5.371586,"is_reserved":false,"is_disabled":false,"rental_uris":{"android":"levelo://app?vid=f2d798b6-0546-489e-8c99-cadb5e89547f","ios":"levelo://app?vid=f2d798b6-0546-489e-8c99-cadb5e89547f"},"vehicle_type_id":"4","last_reported":1708023931,"current_range_meters":26800,"station_id":"ce4bgh92rcd13ifvqb40","pricing_plan_id":"cebpf4jnsgd1na2vs0mg"},{"bike_id":"8c005ce0-2a55-439d-bcba-9ab023421d9d","system_id":"levelo_inurba_marseille","lat":43.292749,"lon":5.368402,"is_reserved":false,"is_disabled":false,"rental_uris":{"android":"levelo://app?vid=8c005ce0-2a55-439d-bcba-9ab023421d9d","ios":"levelo://app?vid=8c005ce0-2a55-439d-bcba-9ab023421d9d"},"vehicle_type_id":"4","last_reported":1708023931,"current_range_meters":12000,"station_id":"ce4bhbp2rcd13ifvqesg","pricing_plan_id":"cebpf4jnsgd1na2vs0mg"},{"bike_id":"8f795d00-eb66-4272-baa0-530010bec413","system_id":"levelo_inurba_marseille","lat":43.29277,"lon":5.36852,"is_reserved":false,"is_disabled":false,"rental_uris":{"android":"levelo://app?vid=8f795d00-eb66-4272-baa0-530010bec413","ios":"levelo://app?vid=8f795d00-eb66-4272-baa0-530010bec413"},"vehicle_type_id":"4","last_reported":1708023931,"current_range_meters":0,"station_id":"ce4bhbp2rcd13ifvqesg","pricing_plan_id":"cebpf4jnsgd1na2vs0mg"},{"bike_id":"c75de4dc-3371-4312-bc39-1b5789663a34","system_id":"levelo_inurba_marseille","lat":43.292749,"lon":5.368402,"is_reserved":false,"is_disabled":false,"rental_uris":{"android":"levelo://app?vid=c75de4dc-3371-4312-bc39-1b5789663a34","ios":"levelo://app?vid=c75de4dc-3371-4312-bc39-1b5789663a34"},"vehicle_type_id":"4","last_reported":1708023931,"current_range_meters":0,"station_id":"ce4bhbp2rcd13ifvqesg","pricing_plan_id":"cebpf4jnsgd1na2vs0mg"},{"bike_id":"40198276-aa38-4c11-8b68-9d478836c0db","system_id":"levelo_inurba_marseille","lat":43.292749,"lon":5.368402,"is_reserved":false,"is_disabled":false,"rental_uris":{"android":"levelo://app?vid=40198276-aa38-4c11-8b68-9d478836c0db","ios":"levelo://app?vid=40198276-aa38-4c11-8b68-9d478836c0db"},"vehicle_type_id":"4","last_reported":1708023931,"current_range_meters":8400,"station_id":"ce4bhbp2rcd13ifvqesg","pricing_plan_id":"cebpf4jnsgd1na2vs0mg"},{"bike_id":"87347362-de6b-4a3f-80ba-40559c9108f5","system_id":"levelo_inurba_marseille","lat":43.29303,"lon":5.37177,"is_reserved":false,"is_disabled":false,"rental_uris":{"android":"levelo://app?vid=87347362-de6b-4a3f-80ba-40559c9108f5","ios":"levelo://app?vid=87347362-de6b-4a3f-80ba-40559c9108f5"},"vehicle_type_id":"4","last_reported":1708023931,"current_range_meters":28000,"station_id":"ce4bgh92rcd13ifvqb40","pricing_plan_id":"cebpf4jnsgd1na2vs0mg"},{"bike_id":"6e757c5b-d34b-4f9b-b482-2b9674d5331c","system_id":"levelo_inurba_marseille","lat":43.292749,"lon":5.368402,"is_reserved":false,"is_disabled":false,"rental_uris":{"android":"levelo://app?vid=6e757c5b-d34b-4f9b-b482-2b9674d5331c","ios":"levelo://app?vid=6e757c5b-d34b-4f9b-b482-2b9674d5331c"},"vehicle_type_id":"4","last_reported":1708023931,"current_range_meters":2000,"station_id":"ce4bhbp2rcd13ifvqesg","pricing_plan_id":"cebpf4jnsgd1na2vs0mg"},{"bike_id":"c759bff9-b962-4ceb-9d7f-3f743bd1577a","system_id":"levelo_inurba_marseille","lat":43.292749,"lon":5.368402,"is_reserved":false,"is_disabled":false,"rental_uris":{"android":"levelo://app?vid=c759bff9-b962-4ceb-9d7f-3f743bd1577a","ios":"levelo://app?vid=c759bff9-b962-4ceb-9d7f-3f743bd1577a"},"vehicle_type_id":"4","last_reported":1708023931,"current_range_meters":12800,"station_id":"ce4bhbp2rcd13ifvqesg","pricing_plan_id":"cebpf4jnsgd1na2vs0mg"},{"bike_id":"43495e77-eec1-482c-9fea-34d58b39199f","system_id":"levelo_inurba_marseille","lat":43.292749,"lon":5.368402,"is_reserved":false,"is_disabled":false,"rental_uris":{"android":"levelo://app?vid=43495e77-eec1-482c-9fea-34d58b39199f","ios":"levelo://app?vid=43495e77-eec1-482c-9fea-34d58b39199f"},"vehicle_type_id":"4","last_reported":1708023931,"current_range_meters":18000,"station_id":"ce4bhbp2rcd13ifvqesg","pricing_plan_id":"cebpf4jnsgd1na2vs0mg"},{"bike_id":"df1d9344-3622-4e8c-9ec6-6d1f97a72cdf","system_id":"levelo_inurba_marseille","lat":43.305994,"lon":5.393687,"is_reserved":false,"is_disabled":false,"rental_uris":{"android":"levelo://app?vid=df1d9344-3622-4e8c-9ec6-6d1f97a72cdf","ios":"levelo://app?vid=df1d9344-3622-4e8c-9ec6-6d1f97a72cdf"},"vehicle_type_id":"4","last_reported":1708023931,"current_range_meters":24800,"station_id":"ce4bh0p2rcd13ifvqd80","pricing_plan_id":"cebpf4jnsgd1na2vs0mg"},{"bike_id":"a8b5bb7b-3d72-4fe5-ad4d-9dda9956e22b","system_id":"levelo_inurba_marseille","lat":43.293009,"lon":5.374584,"is_reserved":false,"is_disabled":false,"rental_uris":{"android":"levelo://app?vid=a8b5bb7b-3d72-4fe5-ad4d-9dda9956e22b","ios":"levelo://app?vid=a8b5bb7b-3d72-4fe5-ad4d-9dda9956e22b"},"vehicle_type_id":"4","last_reported":1708023931,"current_range_meters":18800,"station_id":"ce4bgi12rcd13ifvqb70","pricing_plan_id":"cebpf4jnsgd1na2vs0mg"},{"bike_id":"1e8b232e-727d-413b-960d-1fe221d224b3","system_id":"levelo_inurba_marseille","lat":43.293009,"lon":5.374584,"is_reserved":false,"is_disabled":false,"rental_uris":{"android":"levelo://app?vid=1e8b232e-727d-413b-960d-1fe221d224b3","ios":"levelo://app?vid=1e8b232e-727d-413b-960d-1fe221d224b3"},"vehicle_type_id":"4","last_reported":1708023931,"current_range_meters":20400,"station_id":"ce4bgi12rcd13ifvqb70","pricing_plan_id":"cebpf4jnsgd1na2vs0mg"},{"bike_id":"4e8201b0-3621-4cc1-bff0-6ccafb34187d","system_id":"levelo_inurba_marseille","lat":43.293009,"lon":5.374584,"is_reserved":false,"is_disabled":false,"rental_uris":{"android":"levelo://app?vid=4e8201b0-3621-4cc1-bff0-6ccafb34187d","ios":"levelo://app?vid=4e8201b0-3621-4cc1-bff0-6ccafb34187d"},"vehicle_type_id":"4","last_reported":1708023931,"current_range_meters":25200,"station_id":"ce4bgi12rcd13ifvqb70","pricing_plan_id":"cebpf4jnsgd1na2vs0mg"},{"bike_id":"7c977898-7cf0-4293-aa98-ffadb4ecfdb8","system_id":"levelo_inurba_marseille","lat":43.293009,"lon":5.374584,"is_reserved":false,"is_disabled":false,"rental_uris":{"android":"levelo://app?vid=7c977898-7cf0-4293-aa98-ffadb4ecfdb8","ios":"levelo://app?vid=7c977898-7cf0-4293-aa98-ffadb4ecfdb8"},"vehicle_type_id":"4","last_reported":1708023931,"current_range_meters":2800,"station_id":"ce4bgi12rcd13ifvqb70","pricing_plan_id":"cebpf4jnsgd1na2vs0mg"},{"bike_id":"39290249-5438-4214-a14e-ea1b767e06d4","system_id":"levelo_inurba_marseille","lat":43.293009,"lon":5.374584,"is_reserved":false,"is_disabled":false,"rental_uris":{"android":"levelo://app?vid=39290249-5438-4214-a14e-ea1b767e06d4","ios":"levelo://app?vid=39290249-5438-4214-a14e-ea1b767e06d4"},"vehicle_type_id":"4","last_reported":1708023931,"current_range_meters":24400,"station_id":"ce4bgi12rcd13ifvqb70","pricing_plan_id":"cebpf4jnsgd1na2vs0mg"},{"bike_id":"95f45875-3ad8-4969-a94b-0e374b282477","system_id":"levelo_inurba_marseille","lat":43.292971,"lon":5.374615,"is_reserved":false,"is_disabled":false,"rental_uris":{"android":"levelo://app?vid=95f45875-3ad8-4969-a94b-0e374b282477","ios":"levelo://app?vid=95f45875-3ad8-4969-a94b-0e374b282477"},"vehicle_type_id":"4","last_reported":1708023931,"current_range_meters":800,"station_id":"ce4bgi12rcd13ifvqb70","pricing_plan_id":"cebpf4jnsgd1na2vs0mg"},{"bike_id":"5d353b7e-f024-47b8-8eeb-76a4e8657d6e","system_id":"levelo_inurba_marseille","lat":43.293009,"lon":5.374584,"is_reserved":false,"is_disabled":false,"rental_uris":{"android":"levelo://app?vid=5d353b7e-f024-47b8-8eeb-76a4e8657d6e","ios":"levelo://app?vid=5d353b7e-f024-47b8-8eeb-76a4e8657d6e"},"vehicle_type_id":"4","last_reported":1708023931,"current_range_meters":9600,"station_id":"ce4bgi12rcd13ifvqb70","pricing_plan_id":"cebpf4jnsgd1na2vs0mg"},{"bike_id":"0b2c9bde-e1d9-4637-85ad-82e704b8600b","system_id":"levelo_inurba_marseille","lat":43.303002,"lon":5.392142,"is_reserved":false,"is_disabled":false,"rental_uris":{"android":"levelo://app?vid=0b2c9bde-e1d9-4637-85ad-82e704b8600b","ios":"levelo://app?vid=0b2c9bde-e1d9-4637-85ad-82e704b8600b"},"vehicle_type_id":"4","last_reported":1708023931,"current_range_meters":0,"station_id":"ce4bgkh2rcd13ifvqbk0","pricing_plan_id":"cebpf4jnsgd1na2vs0mg"},{"bike_id":"c4526d5f-9371-481b-bbfe-f5a2394ad335","system_id":"levelo_inurba_marseille","lat":43.30303,"lon":5.39212,"is_reserved":false,"is_disabled":false,"rental_uris":{"android":"levelo://app?vid=c4526d5f-9371-481b-bbfe-f5a2394ad335","ios":"levelo://app?vid=c4526d5f-9371-481b-bbfe-f5a2394ad335"},"vehicle_type_id":"4","last_reported":1708023931,"current_range_meters":2800,"station_id":"ce4bgkh2rcd13ifvqbk0","pricing_plan_id":"cebpf4jnsgd1na2vs0mg"},{"bike_id":"58bbb622-d131-4c91-af06-c765f6c409c9","system_id":"levelo_inurba_marseille","lat":43.30292,"lon":5.39206,"is_reserved":false,"is_disabled":false,"rental_uris":{"android":"levelo://app?vid=58bbb622-d131-4c91-af06-c765f6c409c9","ios":"levelo://app?vid=58bbb622-d131-4c91-af06-c765f6c409c9"},"vehicle_type_id":"4","last_reported":1708023931,"current_range_meters":15600,"station_id":"ce4bgkh2rcd13ifvqbk0","pricing_plan_id":"cebpf4jnsgd1na2vs0mg"},{"bike_id":"aac379ee-cceb-4953-be2b-b436d63eb8f7","system_id":"levelo_inurba_marseille","lat":43.303002,"lon":5.392142,"is_reserved":false,"is_disabled":false,"rental_uris":{"android":"levelo://app?vid=aac379ee-cceb-4953-be2b-b436d63eb8f7","ios":"levelo://app?vid=aac379ee-cceb-4953-be2b-b436d63eb8f7"},"vehicle_type_id":"4","last_reported":1708023931,"current_range_meters":2800,"station_id":"ce4bgkh2rcd13ifvqbk0","pricing_plan_id":"cebpf4jnsgd1na2vs0mg"},{"bike_id":"864ed609-9eec-4745-bfc3-89c52a8db812","system_id":"levelo_inurba_marseille","lat":43.302992,"lon":5.392136,"is_reserved":false,"is_disabled":false,"rental_uris":{"android":"levelo://app?vid=864ed609-9eec-4745-bfc3-89c52a8db812","ios":"levelo://app?vid=864ed609-9eec-4745-bfc3-89c52a8db812"},"vehicle_type_id":"4","last_reported":1708023931,"current_range_meters":10000,"station_id":"ce4bgkh2rcd13ifvqbk0","pricing_plan_id":"cebpf4jnsgd1na2vs0mg"},{"bike_id":"436da0d4-3bc6-4eb9-9daa-b7dcfae552fc","system_id":"levelo_inurba_marseille","lat":43.2936,"lon":5.37835,"is_reserved":false,"is_disabled":false,"rental_uris":{"android":"levelo://app?vid=436da0d4-3bc6-4eb9-9daa-b7dcfae552fc","ios":"levelo://app?vid=436da0d4-3bc6-4eb9-9daa-b7dcfae552fc"},"vehicle_type_id":"4","last_reported":1708023931,"current_range_meters":14400,"station_id":"ce4bgjh2rcd13ifvqbf0","pricing_plan_id":"cebpf4jnsgd1na2vs0mg"},{"bike_id":"395c8747-7954-4fb3-a99a-2222ac1c5259","system_id":"levelo_inurba_marseille","lat":43.2936,"lon":5.37835,"is_reserved":false,"is_disabled":false,"rental_uris":{"android":"levelo://app?vid=395c8747-7954-4fb3-a99a-2222ac1c5259","ios":"levelo://app?vid=395c8747-7954-4fb3-a99a-2222ac1c5259"},"vehicle_type_id":"4","last_reported":1708023931,"current_range_meters":12800,"station_id":"ce4bgjh2rcd13ifvqbf0","pricing_plan_id":"cebpf4jnsgd1na2vs0mg"},{"bike_id":"b96ce25a-58b0-4ad2-bbe8-82e4668eac66","system_id":"levelo_inurba_marseille","lat":43.30085,"lon":5.390856,"is_reserved":false,"is_disabled":false,"rental_uris":{"android":"levelo://app?vid=b96ce25a-58b0-4ad2-bbe8-82e4668eac66","ios":"levelo://app?vid=b96ce25a-58b0-4ad2-bbe8-82e4668eac66"},"vehicle_type_id":"4","last_reported":1708023931,"current_range_meters":26400,"station_id":"ce4bh192rcd13ifvqdb0","pricing_plan_id":"cebpf4jnsgd1na2vs0mg"},{"bike_id":"4e0d2512-8df7-479a-90e9-1bf8951f11f5","system_id":"levelo_inurba_marseille","lat":43.300852,"lon":5.390859,"is_reserved":false,"is_disabled":false,"rental_uris":{"android":"levelo://app?vid=4e0d2512-8df7-479a-90e9-1bf8951f11f5","ios":"levelo://app?vid=4e0d2512-8df7-479a-90e9-1bf8951f11f5"},"vehicle_type_id":"4","last_reported":1708023931,"current_range_meters":28800,"station_id":"ce4bh192rcd13ifvqdb0","pricing_plan_id":"cebpf4jnsgd1na2vs0mg"},{"bike_id":"fe9f3811-9663-446e-a553-a1a0f0efa5bc","system_id":"levelo_inurba_marseille","lat":43.30085,"lon":5.390856,"is_reserved":false,"is_disabled":false,"rental_uris":{"android":"levelo://app?vid=fe9f3811-9663-446e-a553-a1a0f0efa5bc","ios":"levelo://app?vid=fe9f3811-9663-446e-a553-a1a0f0efa5bc"},"vehicle_type_id":"4","last_reported":1708023931,"current_range_meters":24000,"station_id":"ce4bh192rcd13ifvqdb0","pricing_plan_id":"cebpf4jnsgd1na2vs0mg"},{"bike_id":"e2e52467-2f48-476f-9e7f-c84b5976d602","system_id":"levelo_inurba_marseille","lat":43.300852,"lon":5.390859,"is_reserved":false,"is_disabled":false,"rental_uris":{"android":"levelo://app?vid=e2e52467-2f48-476f-9e7f-c84b5976d602","ios":"levelo://app?vid=e2e52467-2f48-476f-9e7f-c84b5976d602"},"vehicle_type_id":"4","last_reported":1708023931,"current_range_meters":18800,"station_id":"ce4bh192rcd13ifvqdb0","pricing_plan_id":"cebpf4jnsgd1na2vs0mg"},{"bike_id":"9e50b0d7-5386-489e-a32d-4b97d5517fde","system_id":"levelo_inurba_marseille","lat":43.300852,"lon":5.390859,"is_reserved":false,"is_disabled":false,"rental_uris":{"android":"levelo://app?vid=9e50b0d7-5386-489e-a32d-4b97d5517fde","ios":"levelo://app?vid=9e50b0d7-5386-489e-a32d-4b97d5517fde"},"vehicle_type_id":"4","last_reported":1708023931,"current_range_meters":31200,"station_id":"ce4bh192rcd13ifvqdb0","pricing_plan_id":"cebpf4jnsgd1na2vs0mg"},{"bike_id":"ea2dcd2b-03e8-44d3-a2d4-1cbc0417fb38","system_id":"levelo_inurba_marseille","lat":43.299105,"lon":5.389005,"is_reserved":false,"is_disabled":false,"rental_uris":{"android":"levelo://app?vid=ea2dcd2b-03e8-44d3-a2d4-1cbc0417fb38","ios":"levelo://app?vid=ea2dcd2b-03e8-44d3-a2d4-1cbc0417fb38"},"vehicle_type_id":"4","last_reported":1708023931,"current_range_meters":9600,"station_id":"","pricing_plan_id":"cebpf4jnsgd1na2vs0mg"},{"bike_id":"236576a4-dad6-4c50-b8da-14e56bdbc875","system_id":"levelo_inurba_marseille","lat":43.30085,"lon":5.390856,"is_reserved":false,"is_disabled":false,"rental_uris":{"android":"levelo://app?vid=236576a4-dad6-4c50-b8da-14e56bdbc875","ios":"levelo://app?vid=236576a4-dad6-4c50-b8da-14e56bdbc875"},"vehicle_type_id":"4","last_reported":1708023931,"current_range_meters":16800,"station_id":"ce4bh192rcd13ifvqdb0","pricing_plan_id":"cebpf4jnsgd1na2vs0mg"},{"bike_id":"9949563b-a8df-490c-ba1e-b22cc2bbf07b","system_id":"levelo_inurba_marseille","lat":43.291671,"lon":5.371575,"is_reserved":false,"is_disabled":false,"rental_uris":{"android":"levelo://app?vid=9949563b-a8df-490c-ba1e-b22cc2bbf07b","ios":"levelo://app?vid=9949563b-a8df-490c-ba1e-b22cc2bbf07b"},"vehicle_type_id":"4","last_reported":1708023931,"current_range_meters":9200,"station_id":"ce4bha92rcd13ifvqeh0","pricing_plan_id":"cebpf4jnsgd1na2vs0mg"},{"bike_id":"c5b4bcbf-d763-4a55-ac7c-1cf409d44d40","system_id":"levelo_inurba_marseille","lat":43.291675,"lon":5.371583,"is_reserved":false,"is_disabled":false,"rental_uris":{"android":"levelo://app?vid=c5b4bcbf-d763-4a55-ac7c-1cf409d44d40","ios":"levelo://app?vid=c5b4bcbf-d763-4a55-ac7c-1cf409d44d40"},"vehicle_type_id":"4","last_reported":1708023931,"current_range_meters":16400,"station_id":"ce4bha92rcd13ifvqeh0","pricing_plan_id":"cebpf4jnsgd1na2vs0mg"},{"bike_id":"da5f3083-7238-4c51-a48a-e89366c02bd3","system_id":"levelo_inurba_marseille","lat":43.298764,"lon":5.388973,"is_reserved":false,"is_disabled":false,"rental_uris":{"android":"levelo://app?vid=da5f3083-7238-4c51-a48a-e89366c02bd3","ios":"levelo://app?vid=da5f3083-7238-4c51-a48a-e89366c02bd3"},"vehicle_type_id":"4","last_reported":1708023931,"current_range_meters":17600,"station_id":"ce4bh392rcd13ifvqdl0","pricing_plan_id":"cebpf4jnsgd1na2vs0mg"},{"bike_id":"911fa793-fca7-4d5e-8781-8410f2ef3c5b","system_id":"levelo_inurba_marseille","lat":43.309038,"lon":5.396546,"is_reserved":false,"is_disabled":false,"rental_uris":{"android":"levelo://app?vid=911fa793-fca7-4d5e-8781-8410f2ef3c5b","ios":"levelo://app?vid=911fa793-fca7-4d5e-8781-8410f2ef3c5b"},"vehicle_type_id":"4","last_reported":1708023931,"current_range_meters":30800,"station_id":"ce4bh012rcd13ifvqcv0","pricing_plan_id":"cebpf4jnsgd1na2vs0mg"},{"bike_id":"5502b051-1e1c-4c73-9c71-8f414c12284d","system_id":"levelo_inurba_marseille","lat":43.29193,"lon":5.35796,"is_reserved":false,"is_disabled":false,"rental_uris":{"android":"levelo://app?vid=5502b051-1e1c-4c73-9c71-8f414c12284d","ios":"levelo://app?vid=5502b051-1e1c-4c73-9c71-8f414c12284d"},"vehicle_type_id":"4","last_reported":1708023931,"current_range_meters":30000,"station_id":"ce4bhb12rcd13ifvqel0","pricing_plan_id":"cebpf4jnsgd1na2vs0mg"},{"bike_id":"9df1b22a-3575-4d12-a7e3-52e782d88cf3","system_id":"levelo_inurba_marseille","lat":43.309038,"lon":5.396546,"is_reserved":false,"is_disabled":false,"rental_uris":{"android":"levelo://app?vid=9df1b22a-3575-4d12-a7e3-52e782d88cf3","ios":"levelo://app?vid=9df1b22a-3575-4d12-a7e3-52e782d88cf3"},"vehicle_type_id":"4","last_reported":1708023931,"current_range_meters":16000,"station_id":"ce4bh012rcd13ifvqcv0","pricing_plan_id":"cebpf4jnsgd1na2vs0mg"},{"bike_id":"6bcfb8b1-9226-4cc0-8eca-8a0009913a68","system_id":"levelo_inurba_marseille","lat":43.291994,"lon":5.357886,"is_reserved":false,"is_disabled":false,"rental_uris":{"android":"levelo://app?vid=6bcfb8b1-9226-4cc0-8eca-8a0009913a68","ios":"levelo://app?vid=6bcfb8b1-9226-4cc0-8eca-8a0009913a68"},"vehicle_type_id":"4","last_reported":1708023931,"current_range_meters":6400,"station_id":"ce4bhb12rcd13ifvqel0","pricing_plan_id":"cebpf4jnsgd1na2vs0mg"},{"bike_id":"f82872af-d289-4160-ac32-18b1e58cc50e","system_id":"levelo_inurba_marseille","lat":43.309047,"lon":5.396551,"is_reserved":false,"is_disabled":false,"rental_uris":{"android":"levelo://app?vid=f82872af-d289-4160-ac32-18b1e58cc50e","ios":"levelo://app?vid=f82872af-d289-4160-ac32-18b1e58cc50e"},"vehicle_type_id":"4","last_reported":1708023931,"current_range_meters":1200,"station_id":"ce4bh012rcd13ifvqcv0","pricing_plan_id":"cebpf4jnsgd1na2vs0mg"},{"bike_id":"09f323f2-d644-4df6-9aa8-5c0ab461ef25","system_id":"levelo_inurba_marseille","lat":43.309038,"lon":5.396546,"is_reserved":false,"is_disabled":false,"rental_uris":{"android":"levelo://app?vid=09f323f2-d644-4df6-9aa8-5c0ab461ef25","ios":"levelo://app?vid=09f323f2-d644-4df6-9aa8-5c0ab461ef25"},"vehicle_type_id":"4","last_reported":1708023931,"current_range_meters":30800,"station_id":"ce4bh012rcd13ifvqcv0","pricing_plan_id":"cebpf4jnsgd1na2vs0mg"},{"bike_id":"ac5d0d15-675d-4752-9cc0-085be4de0d26","system_id":"levelo_inurba_marseille","lat":43.313291,"lon":5.396838,"is_reserved":false,"is_disabled":false,"rental_uris":{"android":"levelo://app?vid=ac5d0d15-675d-4752-9cc0-085be4de0d26","ios":"levelo://app?vid=ac5d0d15-675d-4752-9cc0-085be4de0d26"},"vehicle_type_id":"4","last_reported":1708023931,"current_range_meters":0,"station_id":"ce4bgvp2rcd13ifvqcu0","pricing_plan_id":"cebpf4jnsgd1na2vs0mg"},{"bike_id":"843b637f-e1f4-4300-8028-63a66c17e13a","system_id":"levelo_inurba_marseille","lat":43.313254,"lon":5.397092,"is_reserved":false,"is_disabled":false,"rental_uris":{"android":"levelo://app?vid=843b637f-e1f4-4300-8028-63a66c17e13a","ios":"levelo://app?vid=843b637f-e1f4-4300-8028-63a66c17e13a"},"vehicle_type_id":"4","last_reported":1708023931,"current_range_meters":18000,"station_id":"","pricing_plan_id":"cebpf4jnsgd1na2vs0mg"},{"bike_id":"de9f4a88-22e1-48e2-924b-99d421629ce3","system_id":"levelo_inurba_marseille","lat":43.295413,"lon":5.385525,"is_reserved":false,"is_disabled":false,"rental_uris":{"android":"levelo://app?vid=de9f4a88-22e1-48e2-924b-99d421629ce3","ios":"levelo://app?vid=de9f4a88-22e1-48e2-924b-99d421629ce3"},"vehicle_type_id":"4","last_reported":1708023931,"current_range_meters":2400,"station_id":"ce4bgih2rcd13ifvqba0","pricing_plan_id":"cebpf4jnsgd1na2vs0mg"},{"bike_id":"c26c933b-0fdc-40c4-8fe5-4139c8968e1a","system_id":"levelo_inurba_marseille","lat":43.295366,"lon":5.385467,"is_reserved":false,"is_disabled":false,"rental_uris":{"android":"levelo://app?vid=c26c933b-0fdc-40c4-8fe5-4139c8968e1a","ios":"levelo://app?vid=c26c933b-0fdc-40c4-8fe5-4139c8968e1a"},"vehicle_type_id":"4","last_reported":1708023931,"current_range_meters":25600,"station_id":"ce4bgih2rcd13ifvqba0","pricing_plan_id":"cebpf4jnsgd1na2vs0mg"},{"bike_id":"34c41ddc-d38c-4089-8b84-84966e7ab0c9","system_id":"levelo_inurba_marseille","lat":43.29538,"lon":5.3855,"is_reserved":false,"is_disabled":false,"rental_uris":{"android":"levelo://app?vid=34c41ddc-d38c-4089-8b84-84966e7ab0c9","ios":"levelo://app?vid=34c41ddc-d38c-4089-8b84-84966e7ab0c9"},"vehicle_type_id":"4","last_reported":1708023931,"current_range_meters":3600,"station_id":"ce4bgih2rcd13ifvqba0","pricing_plan_id":"cebpf4jnsgd1na2vs0mg"},{"bike_id":"ed210a90-18f9-4b5d-96e7-595466f60c77","system_id":"levelo_inurba_marseille","lat":43.29534,"lon":5.38544,"is_reserved":false,"is_disabled":false,"rental_uris":{"android":"levelo://app?vid=ed210a90-18f9-4b5d-96e7-595466f60c77","ios":"levelo://app?vid=ed210a90-18f9-4b5d-96e7-595466f60c77"},"vehicle_type_id":"4","last_reported":1708023931,"current_range_meters":6800,"station_id":"ce4bgih2rcd13ifvqba0","pricing_plan_id":"cebpf4jnsgd1na2vs0mg"},{"bike_id":"c771ee5a-8747-4ba0-a44e-d88dbad9241b","system_id":"levelo_inurba_marseille","lat":43.29529,"lon":5.385581,"is_reserved":false,"is_disabled":false,"rental_uris":{"android":"levelo://app?vid=c771ee5a-8747-4ba0-a44e-d88dbad9241b","ios":"levelo://app?vid=c771ee5a-8747-4ba0-a44e-d88dbad9241b"},"vehicle_type_id":"4","last_reported":1708023931,"current_range_meters":800,"station_id":"ce4bgih2rcd13ifvqba0","pricing_plan_id":"cebpf4jnsgd1na2vs0mg"},{"bike_id":"e3c71cf5-200b-4007-a505-65405d820071","system_id":"levelo_inurba_marseille","lat":43.29531,"lon":5.3854,"is_reserved":false,"is_disabled":false,"rental_uris":{"android":"levelo://app?vid=e3c71cf5-200b-4007-a505-65405d820071","ios":"levelo://app?vid=e3c71cf5-200b-4007-a505-65405d820071"},"vehicle_type_id":"4","last_reported":1708023931,"current_range_meters":14400,"station_id":"ce4bgih2rcd13ifvqba0","pricing_plan_id":"cebpf4jnsgd1na2vs0mg"},{"bike_id":"2e57f50a-63e7-4425-9500-41376e3be15e","system_id":"levelo_inurba_marseille","lat":43.29531,"lon":5.38541,"is_reserved":false,"is_disabled":false,"rental_uris":{"android":"levelo://app?vid=2e57f50a-63e7-4425-9500-41376e3be15e","ios":"levelo://app?vid=2e57f50a-63e7-4425-9500-41376e3be15e"},"vehicle_type_id":"4","last_reported":1708023931,"current_range_meters":24000,"station_id":"ce4bgih2rcd13ifvqba0","pricing_plan_id":"cebpf4jnsgd1na2vs0mg"},{"bike_id":"a8817c62-7379-46c2-b748-2357373b2061","system_id":"levelo_inurba_marseille","lat":43.29534,"lon":5.38547,"is_reserved":false,"is_disabled":false,"rental_uris":{"android":"levelo://app?vid=a8817c62-7379-46c2-b748-2357373b2061","ios":"levelo://app?vid=a8817c62-7379-46c2-b748-2357373b2061"},"vehicle_type_id":"4","last_reported":1708023931,"current_range_meters":23600,"station_id":"ce4bgih2rcd13ifvqba0","pricing_plan_id":"cebpf4jnsgd1na2vs0mg"},{"bike_id":"8e33a45f-0aa7-436d-bbc8-697f4ddec737","system_id":"levelo_inurba_marseille","lat":43.295276,"lon":5.385379,"is_reserved":false,"is_disabled":false,"rental_uris":{"android":"levelo://app?vid=8e33a45f-0aa7-436d-bbc8-697f4ddec737","ios":"levelo://app?vid=8e33a45f-0aa7-436d-bbc8-697f4ddec737"},"vehicle_type_id":"4","last_reported":1708023931,"current_range_meters":31200,"station_id":"ce4bgih2rcd13ifvqba0","pricing_plan_id":"cebpf4jnsgd1na2vs0mg"},{"bike_id":"f0a00051-8995-4196-973d-16332b6a87c9","system_id":"levelo_inurba_marseille","lat":43.29526,"lon":5.38536,"is_reserved":false,"is_disabled":false,"rental_uris":{"android":"levelo://app?vid=f0a00051-8995-4196-973d-16332b6a87c9","ios":"levelo://app?vid=f0a00051-8995-4196-973d-16332b6a87c9"},"vehicle_type_id":"4","last_reported":1708023931,"current_range_meters":29600,"station_id":"ce4bgih2rcd13ifvqba0","pricing_plan_id":"cebpf4jnsgd1na2vs0mg"},