{"last_updated":1728468568,"ttl":60,"version":"2.2","data":{"bikes":[{"bike_id":"1a861de8-dd78-49a1-9d51-dcd6ec0e8840","system_id":"levelo_inurba_marseille","lat":43.33753,"lon":5.37453,"is_reserved":false,"is_disabled":false,"rental_uris":{"android":"levelo://app?vid=1a861de8-dd78-49a1-9d51-dcd6ec0e8840","ios":"levelo://app?vid=1a861de8-dd78-49a1-9d51-dcd6ec0e8840"},"vehicle_type_id":"4","last_reported":1728468568,"current_range_meters":22000,"station_id":"","pricing_plan_id":"cebpf4jnsgd1na2vs0mg"},{"bike_id":"c60da232-2931-445e-9832-6a7c4cbdbe4f","system_id":"levelo_inurba_marseille","lat":43.25939,"lon":5.40909,"is_reserved":false,"is_disabled":false,"rental_uris":{"android":"levelo://app?vid=c60da232-2931-445e-9832-6a7c4cbdbe4f","ios":"levelo://app?vid=c60da232-2931-445e-9832-6a7c4cbdbe4f"},"vehicle_type_id":"4","last_reported":1728468568,"current_range_meters":28800,"station_id":"ce4bhm92rcd13ifvqglg","pricing_plan_id":"cebpf4jnsgd1na2vs0mg"},{"bike_id":"596a6ec3-b7cb-432e-a39c-929a1afb00c6","system_id":"levelo_inurba_marseille","lat":43.28274,"lon":5.35058,"is_reserved":false,"is_disabled":false,"rental_uris":{"android":"levelo://app?vid=596a6ec3-b7cb-432e-a39c-929a1afb00c6","ios":"levelo://app?vid=596a6ec3-b7cb-432e-a39c-929a1afb00c6"},"vehicle_type_id":"4","last_reported":1728468568,"current_range_meters":20000,"station_id":"ce4bhbp2rcd13ifvqerg","pricing_plan_id":"cebpf4jnsgd1na2vs0mg"},{"bike_id":"4d05d63f-111c-4b0a-b626-f412071e31cd","system_id":"levelo_inurba_marseille","lat":43.26692,"lon":5.38275,"is_reserved":false,"is_disabled":false,"rental_uris":{"android":"levelo://app?vid=4d05d63f-111c-4b0a-b626-f412071e31cd","ios":"levelo://app?vid=4d05d63f-111c-4b0a-b626-f412071e31cd"},"vehicle_type_id":"4","last_reported":1728468568,"current_range_meters":26000,"station_id":"ce4bhg92rcd13ifvqf90","pricing_plan_id":"cebpf4jnsgd1na2vs0mg"},{"bike_id":"64401e11-82c8-4b90-a932-63d1fc0345c9","system_id":"levelo_inurba_marseille","lat":43.30549,"lon":5.36697,"is_reserved":false,"is_disabled":false,"rental_uris":{"android":"levelo://app?vid=64401e11-82c8-4b90-a932-63d1fc0345c9","ios":"levelo://app?vid=64401e11-82c8-4b90-a932-63d1fc0345c9"},"vehicle_type_id":"4","last_reported":1728468568,"current_range_meters":19200,"station_id":"ce4bgrp2rcd13ifvqc9g","pricing_plan_id":"cebpf4jnsgd1na2vs0mg"},{"bike_id":"62d9e195-f719-4690-a78c-ff33746a6f51","system_id":"levelo_inurba_marseille","lat":43.2738,"lon":5.36279,"is_reserved":false,"is_disabled":false,"rental_uris":{"android":"levelo://app?vid=62d9e195-f719-4690-a78c-ff33746a6f51","ios":"levelo://app?vid=62d9e195-f719-4690-a78c-ff33746a6f51"},"vehicle_type_id":"4","last_reported":1728468568,"current_range_meters":38800,"station_id":"ce4bhbh2rcd13ifvqeo0","pricing_plan_id":"cebpf4jnsgd1na2vs0mg"},{"bike_id":"6b8918a4-396b-43e5-9a7f-f056357bf660","system_id":"levelo_inurba_marseille","lat":43.23068,"lon":5.35491,"is_reserved":false,"is_disabled":false,"rental_uris":{"android":"levelo://app?vid=6b8918a4-396b-43e5-9a7f-f056357bf660","ios":"levelo://app?vid=6b8918a4-396b-43e5-9a7f-f056357bf660"},"vehicle_type_id":"4","last_reported":1728468568,"current_range_meters":8800,"station_id":"cpo3342slgdg3j2ifvpg","pricing_plan_id":"cebpf4jnsgd1na2vs0mg"},{"bike_id":"d91ebbe4-89de-474a-a899-fe87964c4854","system_id":"levelo_inurba_marseille","lat":43.28079,"lon":5.39675,"is_reserved":false,"is_disabled":false,"rental_uris":{"android":"levelo://app?vid=d91ebbe4-89de-474a-a899-fe87964c4854","ios":"levelo://app?vid=d91ebbe4-89de-474a-a899-fe87964c4854"},"vehicle_type_id":"4","last_reported":1728468568,"current_range_meters":35600,"station_id":"ce4bho12rcd13ifvqh2g","pricing_plan_id":"cebpf4jnsgd1na2vs0mg"},{"bike_id":"64524fe4-6e16-4d18-8e90-00b089a26f5f","system_id":"levelo_inurba_marseille","lat":43.27858,"lon":5.38588,"is_reserved":false,"is_disabled":false,"rental_uris":{"android":"levelo://app?vid=64524fe4-6e16-4d18-8e90-00b089a26f5f","ios":"levelo://app?vid=64524fe4-6e16-4d18-8e90-00b089a26f5f"},"vehicle_type_id":"4","last_reported":1728468568,"current_range_meters":33600,"station_id":"ce4bgvp2rcd13ifvqct0","pricing_plan_id":"cebpf4jnsgd1na2vs0mg"},{"bike_id":"f2a969ea-6318-4aef-9ac7-28fa3461cf60","system_id":"levelo_inurba_marseille","lat":43.25495,"lon":5.37646,"is_reserved":false,"is_disabled":false,"rental_uris":{"android":"levelo://app?vid=f2a969ea-6318-4aef-9ac7-28fa3461cf60","ios":"levelo://app?vid=f2a969ea-6318-4aef-9ac7-28fa3461cf60"},"vehicle_type_id":"4","last_reported":1728468568,"current_range_meters":35600,"station_id":"ce4bhh12rcd13ifvqff0","pricing_plan_id":"cebpf4jnsgd1na2vs0mg"},{"bike_id":"f059be2b-90f5-4288-afda-6d1cbba7865a","system_id":"levelo_inurba_marseille","lat":43.27207,"lon":5.39186,"is_reserved":false,"is_disabled":false,"rental_uris":{"android":"levelo://app?vid=f059be2b-90f5-4288-afda-6d1cbba7865a","ios":"levelo://app?vid=f059be2b-90f5-4288-afda-6d1cbba7865a"},"vehicle_type_id":"4","last_reported":1728468568,"current_range_meters":8000,"station_id":"ce4bhhp2rcd13ifvqfm0","pricing_plan_id":"cebpf4jnsgd1na2vs0mg"},{"bike_id":"0942f772-31be-4eb1-b669-63d390169f0e","system_id":"levelo_inurba_marseille","lat":43.33605,"lon":5.41037,"is_reserved":false,"is_disabled":false,"rental_uris":{"android":"levelo://app?vid=0942f772-31be-4eb1-b669-63d390169f0e","ios":"levelo://app?vid=0942f772-31be-4eb1-b669-63d390169f0e"},"vehicle_type_id":"4","last_reported":1728468568,"current_range_meters":39200,"station_id":"ce4bhqh2rcd13ifvqhmg","pricing_plan_id":"cebpf4jnsgd1na2vs0mg"},{"bike_id":"12281819-76bb-4e2b-8ce5-ecd5b6dba7e8","system_id":"levelo_inurba_marseille","lat":43.28667,"lon":5.36356,"is_reserved":false,"is_disabled":false,"rental_uris":{"android":"levelo://app?vid=12281819-76bb-4e2b-8ce5-ecd5b6dba7e8","ios":"levelo://app?vid=12281819-76bb-4e2b-8ce5-ecd5b6dba7e8"},"vehicle_type_id":"4","last_reported":1728468568,"current_range_meters":32000,"station_id":"ce4bhah2rcd13ifvqej0","pricing_plan_id":"cebpf4jnsgd1na2vs0mg"},{"bike_id":"39889ba0-0431-4056-b70a-688defafb58c","system_id":"levelo_inurba_marseille","lat":43.27497,"lon":5.4245,"is_reserved":false,"is_disabled":false,"rental_uris":{"android":"levelo://app?vid=39889ba0-0431-4056-b70a-688defafb58c","ios":"levelo://app?vid=39889ba0-0431-4056-b70a-688defafb58c"},"vehicle_type_id":"4","last_reported":1728468568,"current_range_meters":35200,"station_id":"ce4bhn92rcd13ifvqgrg","pricing_plan_id":"cebpf4jnsgd1na2vs0mg"},{"bike_id":"a7db8d57-39dc-4df7-b4dc-ffdc3d278a56","system_id":"levelo_inurba_marseille","lat":43.30283,"lon":5.37704,"is_reserved":false,"is_disabled":false,"rental_uris":{"android":"levelo://app?vid=a7db8d57-39dc-4df7-b4dc-ffdc3d278a56","ios":"levelo://app?vid=a7db8d57-39dc-4df7-b4dc-ffdc3d278a56"},"vehicle_type_id":"4","last_reported":1728468568,"current_range_meters":30800,"station_id":"ce4bguh2rcd13ifvqcj0","pricing_plan_id":"cebpf4jnsgd1na2vs0mg"},{"bike_id":"56b75d07-f390-46ea-9b78-b6b919489f0f","system_id":"levelo_inurba_marseille","lat":43.2594,"lon":5.40894,"is_reserved":false,"is_disabled":false,"rental_uris":{"android":"levelo://app?vid=56b75d07-f390-46ea-9b78-b6b919489f0f","ios":"levelo://app?vid=56b75d07-f390-46ea-9b78-b6b919489f0f"},"vehicle_type_id":"4","last_reported":1728468568,"current_range_meters":22400,"station_id":"ce4bhm92rcd13ifvqglg","pricing_plan_id":"cebpf4jnsgd1na2vs0mg"},{"bike_id":"64c9abdc-a744-4b43-9856-a64e8ee5db15","system_id":"levelo_inurba_marseille","lat":43.23066,"lon":5.35499,"is_reserved":false,"is_disabled":false,"rental_uris":{"android":"levelo://app?vid=64c9abdc-a744-4b43-9856-a64e8ee5db15","ios":"levelo://app?vid=64c9abdc-a744-4b43-9856-a64e8ee5db15"},"vehicle_type_id":"4","last_reported":1728468568,"current_range_meters":38000,"station_id":"cpo3342slgdg3j2ifvpg","pricing_plan_id":"cebpf4jnsgd1na2vs0mg"},{"bike_id":"fa676a5e-9c79-4a67-bacd-add425a4036d","system_id":"levelo_inurba_marseille","lat":43.23183,"lon":5.39985,"is_reserved":false,"is_disabled":false,"rental_uris":{"android":"levelo://app?vid=fa676a5e-9c79-4a67-bacd-add425a4036d","ios":"levelo://app?vid=fa676a5e-9c79-4a67-bacd-add425a4036d"},"vehicle_type_id":"4","last_reported":1728468568,"current_range_meters":33200,"station_id":"ce4bhn12rcd13ifvqgqg","pricing_plan_id":"cebpf4jnsgd1na2vs0mg"},{"bike_id":"7469462f-90e1-470e-8aab-e30796ef4ddd","system_id":"levelo_inurba_marseille","lat":43.26551,"lon":5.37292,"is_reserved":false,"is_disabled":false,"rental_uris":{"android":"levelo://app?vid=7469462f-90e1-470e-8aab-e30796ef4ddd","ios":"levelo://app?vid=7469462f-90e1-470e-8aab-e30796ef4ddd"},"vehicle_type_id":"4","last_reported":1728468568,"current_range_meters":26800,"station_id":"ce4bhg12rcd13ifvqf70","pricing_plan_id":"cebpf4jnsgd1na2vs0mg"},{"bike_id":"aebe4de8-b2bc-4e90-8aff-3c0b9ec5f5ba","system_id":"levelo_inurba_marseille","lat":43.23156,"lon":5.43706,"is_reserved":false,"is_disabled":false,"rental_uris":{"android":"levelo://app?vid=aebe4de8-b2bc-4e90-8aff-3c0b9ec5f5ba","ios":"levelo://app?vid=aebe4de8-b2bc-4e90-8aff-3c0b9ec5f5ba"},"vehicle_type_id":"4","last_reported":1728468568,"current_range_meters":16400,"station_id":"ce4bhmp2rcd13ifvqgog","pricing_plan_id":"cebpf4jnsgd1na2vs0mg"},{"bike_id":"e4882f53-a7c9-42d1-8feb-f4cdc395605a","system_id":"levelo_inurba_marseille","lat":43.33032,"lon":5.39039,"is_reserved":false,"is_disabled":false,"rental_uris":{"android":"levelo://app?vid=e4882f53-a7c9-42d1-8feb-f4cdc395605a","ios":"levelo://app?vid=e4882f53-a7c9-42d1-8feb-f4cdc395605a"},"vehicle_type_id":"4","last_reported":1728468568,"current_range_meters":30000,"station_id":"ce4bhr92rcd13ifvqhrg","pricing_plan_id":"cebpf4jnsgd1na2vs0mg"},{"bike_id":"8a11077d-6374-4522-99eb-41aafecaca58","system_id":"levelo_inurba_marseille","lat":43.28477,"lon":5.3841,"is_reserved":false,"is_disabled":false,"rental_uris":{"android":"levelo://app?vid=8a11077d-6374-4522-99eb-41aafecaca58","ios":"levelo://app?vid=8a11077d-6374-4522-99eb-41aafecaca58"},"vehicle_type_id":"4","last_reported":1728468568,"current_range_meters":30400,"station_id":"ce4bh512rcd13ifvqe3g","pricing_plan_id":"cebpf4jnsgd1na2vs0mg"},{"bike_id":"6c4d26bf-3b40-45f8-ac0e-b2b03b4262d5","system_id":"levelo_inurba_marseille","lat":43.27815,"lon":5.40715,"is_reserved":false,"is_disabled":false,"rental_uris":{"android":"levelo://app?vid=6c4d26bf-3b40-45f8-ac0e-b2b03b4262d5","ios":"levelo://app?vid=6c4d26bf-3b40-45f8-ac0e-b2b03b4262d5"},"vehicle_type_id":"4","last_reported":1728468568,"current_range_meters":17600,"station_id":"ce4bhnh2rcd13ifvqgtg","pricing_plan_id":"cebpf4jnsgd1na2vs0mg"},{"bike_id":"7028d899-9984-4000-a689-483b691fc9e5","system_id":"levelo_inurba_marseille","lat":43.29561,"lon":5.42281,"is_reserved":false,"is_disabled":false,"rental_uris":{"android":"levelo://app?vid=7028d899-9984-4000-a689-483b691fc9e5","ios":"levelo://app?vid=7028d899-9984-4000-a689-483b691fc9e5"},"vehicle_type_id":"4","last_reported":1728468568,"current_range_meters":38800,"station_id":"ce4bhph2rcd13ifvqhdg","pricing_plan_id":"cebpf4jnsgd1na2vs0mg"},{"bike_id":"9317a6b1-66d0-42a0-be00-5938eab65e01","system_id":"levelo_inurba_marseille","lat":43.29442,"lon":5.3975,"is_reserved":false,"is_disabled":false,"rental_uris":{"android":"levelo://app?vid=9317a6b1-66d0-42a0-be00-5938eab65e01","ios":"levelo://app?vid=9317a6b1-66d0-42a0-be00-5938eab65e01"},"vehicle_type_id":"4","last_reported":1728468568,"current_range_meters":28000,"station_id":"ce4bh3h2rcd13ifvqdo0","pricing_plan_id":"cebpf4jnsgd1na2vs0mg"},{"bike_id":"838b16dd-9eac-4c3f-b799-083241b130de","system_id":"levelo_inurba_marseille","lat":43.31331,"lon":5.36719,"is_reserved":false,"is_disabled":false,"rental_uris":{"android":"levelo://app?vid=838b16dd-9eac-4c3f-b799-083241b130de","ios":"levelo://app?vid=838b16dd-9eac-4c3f-b799-083241b130de"},"vehicle_type_id":"4","last_reported":1728468568,"current_range_meters":39200,"station_id":"ce4bgr92rcd13ifvqc6g","pricing_plan_id":"cebpf4jnsgd1na2vs0mg"},{"bike_id":"51ee61eb-9054-4c7a-bca3-706a1a65ec35","system_id":"levelo_inurba_marseille","lat":43.28155,"lon":5.42637,"is_reserved":false,"is_disabled":false,"rental_uris":{"android":"levelo://app?vid=51ee61eb-9054-4c7a-bca3-706a1a65ec35","ios":"levelo://app?vid=51ee61eb-9054-4c7a-bca3-706a1a65ec35"},"vehicle_type_id":"4","last_reported":1728468568,"current_range_meters":33600,"station_id":"ce4bhnh2rcd13ifvqgug","pricing_plan_id":"cebpf4jnsgd1na2vs0mg"},{"bike_id":"4604daf3-2ca3-4020-8c29-26c04f08663e","system_id":"levelo_inurba_marseille","lat":43.29933,"lon":5.36557,"is_reserved":false,"is_disabled":false,"rental_uris":{"android":"levelo://app?vid=4604daf3-2ca3-4020-8c29-26c04f08663e","ios":"levelo://app?vid=4604daf3-2ca3-4020-8c29-26c04f08663e"},"vehicle_type_id":"4","last_reported":1728468568,"current_range_meters":36400,"station_id":"ce4bgm92rcd13ifvqbr0","pricing_plan_id":"cebpf4jnsgd1na2vs0mg"},{"bike_id":"64412d32-768e-409f-a869-8081486fc056","system_id":"levelo_inurba_marseille","lat":43.284576,"lon":5.358979,"is_reserved":false,"is_disabled":false,"rental_uris":{"android":"levelo://app?vid=64412d32-768e-409f-a869-8081486fc056","ios":"levelo://app?vid=64412d32-768e-409f-a869-8081486fc056"},"vehicle_type_id":"4","last_reported":1728468568,"current_range_meters":16400,"station_id":"ce4bhah2rcd13ifvqei0","pricing_plan_id":"cebpf4jnsgd1na2vs0mg"},{"bike_id":"8b1fbf19-b297-4076-84ee-eae96b76bb0e","system_id":"levelo_inurba_marseille","lat":43.27491,"lon":5.42455,"is_reserved":false,"is_disabled":false,"rental_uris":{"android":"levelo://app?vid=8b1fbf19-b297-4076-84ee-eae96b76bb0e","ios":"levelo://app?vid=8b1fbf19-b297-4076-84ee-eae96b76bb0e"},"vehicle_type_id":"4","last_reported":1728468568,"current_range_meters":30000,"station_id":"ce4bhn92rcd13ifvqgrg","pricing_plan_id":"cebpf4jnsgd1na2vs0mg"},{"bike_id":"03a17c12-e489-49c5-8592-2eeabc6bb0e9","system_id":"levelo_inurba_marseille","lat":43.31365,"lon":5.38503,"is_reserved":false,"is_disabled":false,"rental_uris":{"android":"levelo://app?vid=03a17c12-e489-49c5-8592-2eeabc6bb0e9","ios":"levelo://app?vid=03a17c12-e489-49c5-8592-2eeabc6bb0e9"},"vehicle_type_id":"4","last_reported":1728468568,"current_range_meters":7200,"station_id":"ce4bgt92rcd13ifvqcf0","pricing_plan_id":"cebpf4jnsgd1na2vs0mg"},{"bike_id":"bbdccb7c-de4c-4524-96c6-d5b234f0d8bb","system_id":"levelo_inurba_marseille","lat":43.26062,"lon":5.39399,"is_reserved":false,"is_disabled":false,"rental_uris":{"android":"levelo://app?vid=bbdccb7c-de4c-4524-96c6-d5b234f0d8bb","ios":"levelo://app?vid=bbdccb7c-de4c-4524-96c6-d5b234f0d8bb"},"vehicle_type_id":"4","last_reported":1728468568,"current_range_meters":9200,"station_id":"ce4bhh92rcd13ifvqfj0","pricing_plan_id":"cebpf4jnsgd1na2vs0mg"},{"bike_id":"0f21128f-2cd6-4779-8b8b-00ba634cf7e3","system_id":"levelo_inurba_marseille","lat":43.2511,"lon":5.40329,"is_reserved":false,"is_disabled":false,"rental_uris":{"android":"levelo://app?vid=0f21128f-2cd6-4779-8b8b-00ba634cf7e3","ios":"levelo://app?vid=0f21128f-2cd6-4779-8b8b-00ba634cf7e3"},"vehicle_type_id":"4","last_reported":1728468568,"current_range_meters":20000,"station_id":"ce4bhlh2rcd13ifvqgig","pricing_plan_id":"cebpf4jnsgd1na2vs0mg"},{"bike_id":"9bef1af7-4b2e-40fa-8cb0-cf879f811a11","system_id":"levelo_inurba_marseille","lat":43.23185,"lon":5.39992,"is_reserved":false,"is_disabled":false,"rental_uris":{"android":"levelo://app?vid=9bef1af7-4b2e-40fa-8cb0-cf879f811a11","ios":"levelo://app?vid=9bef1af7-4b2e-40fa-8cb0-cf879f811a11"},"vehicle_type_id":"4","last_reported":1728468568,"current_range_meters":16800,"station_id":"ce4bhn12rcd13ifvqgqg","pricing_plan_id":"cebpf4jnsgd1na2vs0mg"},{"bike_id":"ff724baa-b721-46c7-bf5c-e87d7c82a242","system_id":"levelo_inurba_marseille","lat":43.29975,"lon":5.3849,"is_reserved":false,"is_disabled":false,"rental_uris":{"android":"levelo://app?vid=ff724baa-b721-46c7-bf5c-e87d7c82a242","ios":"levelo://app?vid=ff724baa-b721-46c7-bf5c-e87d7c82a242"},"vehicle_type_id":"4","last_reported":1728468568,"current_range_meters":8400,"station_id":"ce4bgj92rcd13ifvqbd0","pricing_plan_id":"cebpf4jnsgd1na2vs0mg"},{"bike_id":"59a20882-e884-470e-b111-32ed424e7cc3","system_id":"levelo_inurba_marseille","lat":43.33724,"lon":5.39191,"is_reserved":false,"is_disabled":false,"rental_uris":{"android":"levelo://app?vid=59a20882-e884-470e-b111-32ed424e7cc3","ios":"levelo://app?vid=59a20882-e884-470e-b111-32ed424e7cc3"},"vehicle_type_id":"4","last_reported":1728468568,"current_range_meters":32000,"station_id":"ce4bhr92rcd13ifvqhsg","pricing_plan_id":"cebpf4jnsgd1na2vs0mg"},{"bike_id":"441d3405-bac8-4cb8-86f5-78555d149014","system_id":"levelo_inurba_marseille","lat":43.29567,"lon":5.37517,"is_reserved":false,"is_disabled":false,"rental_uris":{"android":"levelo://app?vid=441d3405-bac8-4cb8-86f5-78555d149014","ios":"levelo://app?vid=441d3405-bac8-4cb8-86f5-78555d149014"},"vehicle_type_id":"4","last_reported":1728468568,"current_range_meters":39200,"station_id":"ce4bgh92rcd13ifvqb50","pricing_plan_id":"cebpf4jnsgd1na2vs0mg"},{"bike_id":"9ed272e2-1a9d-49cf-8f57-b4c6c6d52ed4","system_id":"levelo_inurba_marseille","lat":43.30559,"lon":5.36531,"is_reserved":false,"is_disabled":false,"rental_uris":{"android":"levelo://app?vid=9ed272e2-1a9d-49cf-8f57-b4c6c6d52ed4","ios":"levelo://app?vid=9ed272e2-1a9d-49cf-8f57-b4c6c6d52ed4"},"vehicle_type_id":"4","last_reported":1728468568,"current_range_meters":26800,"station_id":"ce4bgs12rcd13ifvqcag","pricing_plan_id":"cebpf4jnsgd1na2vs0mg"},{"bike_id":"3509f66c-8166-4cec-adac-4d3ae68c5e8a","system_id":"levelo_inurba_marseille","lat":43.32037,"lon":5.4155,"is_reserved":false,"is_disabled":false,"rental_uris":{"android":"levelo://app?vid=3509f66c-8166-4cec-adac-4d3ae68c5e8a","ios":"levelo://app?vid=3509f66c-8166-4cec-adac-4d3ae68c5e8a"},"vehicle_type_id":"4","last_reported":1728468568,"current_range_meters":32400,"station_id":"ce4bhq92rcd13ifvqhkg","pricing_plan_id":"cebpf4jnsgd1na2vs0mg"},{"bike_id":"72078f29-e154-4c5b-836a-c7e362ba1f09","system_id":"levelo_inurba_marseille","lat":43.33761,"lon":5.37451,"is_reserved":false,"is_disabled":false,"rental_uris":{"android":"levelo://app?vid=72078f29-e154-4c5b-836a-c7e362ba1f09","ios":"levelo://app?vid=72078f29-e154-4c5b-836a-c7e362ba1f09"},"vehicle_type_id":"4","last_reported":1728468568,"current_range_meters":15200,"station_id":"","pricing_plan_id":"cebpf4jnsgd1na2vs0mg"},{"bike_id":"7d7ab187-9965-49a4-bf26-b6ade39671fc","system_id":"levelo_inurba_marseille","lat":43.23195,"lon":5.3555,"is_reserved":false,"is_disabled":false,"rental_uris":{"android":"levelo://app?vid=7d7ab187-9965-49a4-bf26-b6ade39671fc","ios":"levelo://app?vid=7d7ab187-9965-49a4-bf26-b6ade39671fc"},"vehicle_type_id":"4","last_reported":1728468568,"current_range_meters":25600,"station_id":"ce4bhu92rcd13ifvqi70","pricing_plan_id":"cebpf4jnsgd1na2vs0mg"},{"bike_id":"b329940d-6ec6-4a6b-ac77-5a40aeb6bb2a","system_id":"levelo_inurba_marseille","lat":43.33603,"lon":5.41035,"is_reserved":false,"is_disabled":false,"rental_uris":{"android":"levelo://app?vid=b329940d-6ec6-4a6b-ac77-5a40aeb6bb2a","ios":"levelo://app?vid=b329940d-6ec6-4a6b-ac77-5a40aeb6bb2a"},"vehicle_type_id":"4","last_reported":1728468568,"current_range_meters":24400,"station_id":"ce4bhqh2rcd13ifvqhmg","pricing_plan_id":"cebpf4jnsgd1na2vs0mg"},{"bike_id":"64cbf5ad-210a-4eed-8035-947870e47e4b","system_id":"levelo_inurba_marseille","lat":43.23186,"lon":5.40001,"is_reserved":false,"is_disabled":false,"rental_uris":{"android":"levelo://app?vid=64cbf5ad-210a-4eed-8035-947870e47e4b","ios":"levelo://app?vid=64cbf5ad-210a-4eed-8035-947870e47e4b"},"vehicle_type_id":"4","last_reported":1728468568,"current_range_meters":3600,"station_id":"ce4bhn12rcd13ifvqgqg","pricing_plan_id":"cebpf4jnsgd1na2vs0mg"},{"bike_id":"c5f7625c-379d-4acc-9b19-ae14ae4eac31","system_id":"levelo_inurba_marseille","lat":43.30182,"lon":5.36619,"is_reserved":false,"is_disabled":false,"rental_uris":{"android":"levelo://app?vid=c5f7625c-379d-4acc-9b19-ae14ae4eac31","ios":"levelo://app?vid=c5f7625c-379d-4acc-9b19-ae14ae4eac31"},"vehicle_type_id":"4","last_reported":1728468568,"current_range_meters":39200,"station_id":"ce4bgrh2rcd13ifvqc8g","pricing_plan_id":"cebpf4jnsgd1na2vs0mg"},{"bike_id":"e521b603-81a1-487d-9345-70c3c39dae72","system_id":"levelo_inurba_marseille","lat":43.30133,"lon":5.39852,"is_reserved":false,"is_disabled":false,"rental_uris":{"android":"levelo://app?vid=e521b603-81a1-487d-9345-70c3c39dae72","ios":"levelo://app?vid=e521b603-81a1-487d-9345-70c3c39dae72"},"vehicle_type_id":"4","last_reported":1728468568,"current_range_meters":38800,"station_id":"ce4bh0h2rcd13ifvqd40","pricing_plan_id":"cebpf4jnsgd1na2vs0mg"},{"bike_id":"22e554c6-7a65-42fe-bf8a-fe328496a667","system_id":"levelo_inurba_marseille","lat":43.27207,"lon":5.39179,"is_reserved":false,"is_disabled":false,"rental_uris":{"android":"levelo://app?vid=22e554c6-7a65-42fe-bf8a-fe328496a667","ios":"levelo://app?vid=22e554c6-7a65-42fe-bf8a-fe328496a667"},"vehicle_type_id":"4","last_reported":1728468568,"current_range_meters":17600,"station_id":"ce4bhhp2rcd13ifvqfm0","pricing_plan_id":"cebpf4jnsgd1na2vs0mg"},{"bike_id":"04d72727-d4c1-485a-bd53-be4762b46a1b","system_id":"levelo_inurba_marseille","lat":43.30279,"lon":5.37717,"is_reserved":false,"is_disabled":false,"rental_uris":{"android":"levelo://app?vid=04d72727-d4c1-485a-bd53-be4762b46a1b","ios":"levelo://app?vid=04d72727-d4c1-485a-bd53-be4762b46a1b"},"vehicle_type_id":"4","last_reported":1728468568,"current_range_meters":22800,"station_id":"ce4bguh2rcd13ifvqcj0","pricing_plan_id":"cebpf4jnsgd1na2vs0mg"},{"bike_id":"2c4c3de7-36cc-49ba-89f4-420d8d550649","system_id":"levelo_inurba_marseille","lat":43.25936,"lon":5.40908,"is_reserved":false,"is_disabled":false,"rental_uris":{"android":"levelo://app?vid=2c4c3de7-36cc-49ba-89f4-420d8d550649","ios":"levelo://app?vid=2c4c3de7-36cc-49ba-89f4-420d8d550649"},"vehicle_type_id":"4","last_reported":1728468568,"current_range_meters":26000,"station_id":"ce4bhm92rcd13ifvqglg","pricing_plan_id":"cebpf4jnsgd1na2vs0mg"},{"bike_id":"74e9ce9d-9e9f-4c6b-92fb-2f9a88c1f0f4","system_id":"levelo_inurba_marseille","lat":43.2417,"lon":5.36399,"is_reserved":false,"is_disabled":false,"rental_uris":{"android":"levelo://app?vid=74e9ce9d-9e9f-4c6b-92fb-2f9a88c1f0f4","ios":"levelo://app?vid=74e9ce9d-9e9f-4c6b-92fb-2f9a88c1f0f4"},"vehicle_type_id":"4","last_reported":1728468568,"current_range_meters":37600,"station_id":"cpo36qri1sfpv3e86is0","pricing_plan_id":"cebpf4jnsgd1na2vs0mg"},{"bike_id":"4d50a537-cf2c-4691-85aa-6267c2e6e978","system_id":"levelo_inurba_marseille","lat":43.29427,"lon":5.39752,"is_reserved":false,"is_disabled":false,"rental_uris":{"android":"levelo://app?vid=4d50a537-cf2c-4691-85aa-6267c2e6e978","ios":"levelo://app?vid=4d50a537-cf2c-4691-85aa-6267c2e6e978"},"vehicle_type_id":"4","last_reported":1728468568,"current_range_meters":39200,"station_id":"ce4bh3h2rcd13ifvqdo0","pricing_plan_id":"cebpf4jnsgd1na2vs0mg"},{"bike_id":"05a11127-d337-4956-8594-61921d79eb6c","system_id":"levelo_inurba_marseille","lat":43.27999,"lon":5.41666,"is_reserved":false,"is_disabled":false,"rental_uris":{"android":"levelo://app?vid=05a11127-d337-4956-8594-61921d79eb6c","ios":"levelo://app?vid=05a11127-d337-4956-8594-61921d79eb6c"},"vehicle_type_id":"4","last_reported":1728468568,"current_range_meters":8800,"station_id":"ce4bho12rcd13ifvqh1g","pricing_plan_id":"cebpf4jnsgd1na2vs0mg"},{"bike_id":"7bc48729-6a36-4a88-874a-c23256dab9e1","system_id":"levelo_inurba_marseille","lat":43.27498,"lon":5.42456,"is_reserved":false,"is_disabled":false,"rental_uris":{"android":"levelo://app?vid=7bc48729-6a36-4a88-874a-c23256dab9e1","ios":"levelo://app?vid=7bc48729-6a36-4a88-874a-c23256dab9e1"},"vehicle_type_id":"4","last_reported":1728468568,"current_range_meters":12800,"station_id":"ce4bhn92rcd13ifvqgrg","pricing_plan_id":"cebpf4jnsgd1na2vs0mg"},{"bike_id":"792577a6-685a-43bd-bdfe-2ef41696d1e8","system_id":"levelo_inurba_marseille","lat":43.23183,"lon":5.39996,"is_reserved":false,"is_disabled":false,"rental_uris":{"android":"levelo://app?vid=792577a6-685a-43bd-bdfe-2ef41696d1e8","ios":"levelo://app?vid=792577a6-685a-43bd-bdfe-2ef41696d1e8"},"vehicle_type_id":"4","last_reported":1728468568,"current_range_meters":32800,"station_id":"ce4bhn12rcd13ifvqgqg","pricing_plan_id":"cebpf4jnsgd1na2vs0mg"},{"bike_id":"9dd4f340-8a1e-4769-8cdc-2919ddd55db2","system_id":"levelo_inurba_marseille","lat":43.24804,"lon":5.37453,"is_reserved":false,"is_disabled":false,"rental_uris":{"android":"levelo://app?vid=9dd4f340-8a1e-4769-8cdc-2919ddd55db2","ios":"levelo://app?vid=9dd4f340-8a1e-4769-8cdc-2919ddd55db2"},"vehicle_type_id":"4","last_reported":1728468568,"current_range_meters":40000,"station_id":"ce4bhgh2rcd13ifvqfb0","pricing_plan_id":"cebpf4jnsgd1na2vs0mg"},{"bike_id":"4e6700a4-9eaa-4883-b595-cfa877cac3c2","system_id":"levelo_inurba_marseille","lat":43.22926,"lon":5.35376,"is_reserved":false,"is_disabled":false,"rental_uris":{"android":"levelo://app?vid=4e6700a4-9eaa-4883-b595-cfa877cac3c2","ios":"levelo://app?vid=4e6700a4-9eaa-4883-b595-cfa877cac3c2"},"vehicle_type_id":"4","last_reported":1728468568,"current_range_meters":16800,"station_id":"cpo3532slgdg3j2ikp40","pricing_plan_id":"cebpf4jnsgd1na2vs0mg"},{"bike_id":"15076557-340d-41fc-a13c-2001a5da6496","system_id":"levelo_inurba_marseille","lat":43.26209,"lon":5.37921,"is_reserved":false,"is_disabled":false,"rental_uris":{"android":"levelo://app?vid=15076557-340d-41fc-a13c-2001a5da6496","ios":"levelo://app?vid=15076557-340d-41fc-a13c-2001a5da6496"},"vehicle_type_id":"4","last_reported":1728468568,"current_range_meters":30000,"station_id":"ce4bhjp2rcd13ifvqg90","pricing_plan_id":"cebpf4jnsgd1na2vs0mg"},{"bike_id":"d0797665-6ef2-4471-9f17-aaa74175c83c","system_id":"levelo_inurba_marseille","lat":43.28424,"lon":5.34985,"is_reserved":false,"is_disabled":false,"rental_uris":{"android":"levelo://app?vid=d0797665-6ef2-4471-9f17-aaa74175c83c","ios":"levelo://app?vid=d0797665-6ef2-4471-9f17-aaa74175c83c"},"vehicle_type_id":"4","last_reported":1728468568,"current_range_meters":33200,"station_id":"ce4bhbh2rcd13ifvqepg","pricing_plan_id":"cebpf4jnsgd1na2vs0mg"},{"bike_id":"5424b63b-9c2c-4e23-be0b-9e52d0702035","system_id":"levelo_inurba_marseille","lat":43.25109,"lon":5.40319,"is_reserved":false,"is_disabled":false,"rental_uris":{"android":"levelo://app?vid=5424b63b-9c2c-4e23-be0b-9e52d0702035","ios":"levelo://app?vid=5424b63b-9c2c-4e23-be0b-9e52d0702035"},"vehicle_type_id":"4","last_reported":1728468568,"current_range_meters":19600,"station_id":"ce4bhlh2rcd13ifvqgig","pricing_plan_id":"cebpf4jnsgd1na2vs0mg"},{"bike_id":"8bea543b-214d-40ec-9431-9caab1e0e5b3","system_id":"levelo_inurba_marseille","lat":43.23156,"lon":5.43713,"is_reserved":false,"is_disabled":false,"rental_uris":{"android":"levelo://app?vid=8bea543b-214d-40ec-9431-9caab1e0e5b3","ios":"levelo://app?vid=8bea543b-214d-40ec-9431-9caab1e0e5b3"},"vehicle_type_id":"4","last_reported":1728468568,"current_range_meters":14000,"station_id":"ce4bhmp2rcd13ifvqgog","pricing_plan_id":"cebpf4jnsgd1na2vs0mg"},{"bike_id":"63268dae-32c8-49d9-b18f-f400f8734f9c","system_id":"levelo_inurba_marseille","lat":43.32368,"lon":5.38882,"is_reserved":false,"is_disabled":false,"rental_uris":{"android":"levelo://app?vid=63268dae-32c8-49d9-b18f-f400f8734f9c","ios":"levelo://app?vid=63268dae-32c8-49d9-b18f-f400f8734f9c"},"vehicle_type_id":"4","last_reported":1728468568,"current_range_meters":10000,"station_id":"ce4bhqp2rcd13ifvqhog","pricing_plan_id":"cebpf4jnsgd1na2vs0mg"},{"bike_id":"d3d56830-8710-450a-9311-63319fc341ac","system_id":"levelo_inurba_marseille","lat":43.32539,"lon":5.41441,"is_reserved":false,"is_disabled":false,"rental_uris":{"android":"levelo://app?vid=d3d56830-8710-450a-9311-63319fc341ac","ios":"levelo://app?vid=d3d56830-8710-450a-9311-63319fc341ac"},"vehicle_type_id":"4","last_reported":1728468568,"current_range_meters":22400,"station_id":"ce4bhq12rcd13ifvqhhg","pricing_plan_id":"cebpf4jnsgd1na2vs0mg"},{"bike_id":"28870c61-52ad-4627-bd08-d12e58cefbc6","system_id":"levelo_inurba_marseille","lat":43.27489,"lon":5.42462,"is_reserved":false,"is_disabled":false,"rental_uris":{"android":"levelo://app?vid=28870c61-52ad-4627-bd08-d12e58cefbc6","ios":"levelo://app?vid=28870c61-52ad-4627-bd08-d12e58cefbc6"},"vehicle_type_id":"4","last_reported":1728468568,"current_range_meters":30400,"station_id":"ce4bhn92rcd13ifvqgrg","pricing_plan_id":"cebpf4jnsgd1na2vs0mg"},{"bike_id":"051133e1-617d-4246-9be9-4d946642f690","system_id":"levelo_inurba_marseille","lat":43.33607,"lon":5.41032,"is_reserved":false,"is_disabled":false,"rental_uris":{"android":"levelo://app?vid=051133e1-617d-4246-9be9-4d946642f690","ios":"levelo://app?vid=051133e1-617d-4246-9be9-4d946642f690"},"vehicle_type_id":"4","last_reported":1728468568,"current_range_meters":39200,"station_id":"ce4bhqh2rcd13ifvqhmg","pricing_plan_id":"cebpf4jnsgd1na2vs0mg"},{"bike_id":"0b04b87f-751c-4f17-bc30-8ba6df17289e","system_id":"levelo_inurba_marseille","lat":43.25941,"lon":5.40903,"is_reserved":false,"is_disabled":false,"rental_uris":{"android":"levelo://app?vid=0b04b87f-751c-4f17-bc30-8ba6df17289e","ios":"levelo://app?vid=0b04b87f-751c-4f17-bc30-8ba6df17289e"},"vehicle_type_id":"4","last_reported":1728468568,"current_range_meters":34800,"station_id":"ce4bhm92rcd13ifvqglg","pricing_plan_id":"cebpf4jnsgd1na2vs0mg"},{"bike_id":"6b8fcc45-61e1-419f-9759-e47323739c4e","system_id":"levelo_inurba_marseille","lat":43.30564,"lon":5.36538,"is_reserved":false,"is_disabled":false,"rental_uris":{"android":"levelo://app?vid=6b8fcc45-61e1-419f-9759-e47323739c4e","ios":"levelo://app?vid=6b8fcc45-61e1-419f-9759-e47323739c4e"},"vehicle_type_id":"4","last_reported":1728468568,"current_range_meters":14800,"station_id":"ce4bgs12rcd13ifvqcag","pricing_plan_id":"cebpf4jnsgd1na2vs0mg"},{"bike_id":"b68cd24a-7f15-45e9-8a4f-ab320eb54372","system_id":"levelo_inurba_marseille","lat":43.31071,"lon":5.38354,"is_reserved":false,"is_disabled":false,"rental_uris":{"android":"levelo://app?vid=b68cd24a-7f15-45e9-8a4f-ab320eb54372","ios":"levelo://app?vid=b68cd24a-7f15-45e9-8a4f-ab320eb54372"},"vehicle_type_id":"4","last_reported":1728468568,"current_range_meters":2800,"station_id":"ce4bgv92rcd13ifvqcr0","pricing_plan_id":"cebpf4jnsgd1na2vs0mg"},{"bike_id":"2969d5d4-65a5-43a1-95dd-f1611fda7cca","system_id":"levelo_inurba_marseille","lat":43.24667,"lon":5.3816,"is_reserved":false,"is_disabled":false,"rental_uris":{"android":"levelo://app?vid=2969d5d4-65a5-43a1-95dd-f1611fda7cca","ios":"levelo://app?vid=2969d5d4-65a5-43a1-95dd-f1611fda7cca"},"vehicle_type_id":"4","last_reported":1728468568,"current_range_meters":27600,"station_id":"ce4bhih2rcd13ifvqfr0","pricing_plan_id":"cebpf4jnsgd1na2vs0mg"},{"bike_id":"8513be67-a978-4cfc-9563-19285ed6fe5a","system_id":"levelo_inurba_marseille","lat":43.23196,"lon":5.35544,"is_reserved":false,"is_disabled":false,"rental_uris":{"android":"levelo://app?vid=8513be67-a978-4cfc-9563-19285ed6fe5a","ios":"levelo://app?vid=8513be67-a978-4cfc-9563-19285ed6fe5a"},"vehicle_type_id":"4","last_reported":1728468568,"current_range_meters":12400,"station_id":"ce4bhu92rcd13ifvqi70","pricing_plan_id":"cebpf4jnsgd1na2vs0mg"},{"bike_id":"dbe3fcb8-c425-4b3c-993e-4519e57abf04","system_id":"levelo_inurba_marseille","lat":43.25088,"lon":5.3952,"is_reserved":false,"is_disabled":false,"rental_uris":{"android":"levelo://app?vid=dbe3fcb8-c425-4b3c-993e-4519e57abf04","ios":"levelo://app?vid=dbe3fcb8-c425-4b3c-993e-4519e57abf04"},"vehicle_type_id":"4","last_reported":1728468568,"current_range_meters":21600,"station_id":"ce4bhm12rcd13ifvqgkg","pricing_plan_id":"cebpf4jnsgd1na2vs0mg"},{"bike_id":"ad5a8a97-841f-4ea6-a67e-b2c5cb25dc44","system_id":"levelo_inurba_marseille","lat":43.309378,"lon":5.401416,"is_reserved":false,"is_disabled":false,"rental_uris":{"android":"levelo://app?vid=ad5a8a97-841f-4ea6-a67e-b2c5cb25dc44","ios":"levelo://app?vid=ad5a8a97-841f-4ea6-a67e-b2c5cb25dc44"},"vehicle_type_id":"4","last_reported":1728468568,"current_range_meters":30400,"station_id":"ce4bgvp2rcd13ifvqct0","pricing_plan_id":"cebpf4jnsgd1na2vs0mg"},{"bike_id":"922252e8-02c2-4987-8eed-1d6d69073568","system_id":"levelo_inurba_marseille","lat":43.26688,"lon":5.38285,"is_reserved":false,"is_disabled":false,"rental_uris":{"android":"levelo://app?vid=922252e8-02c2-4987-8eed-1d6d69073568","ios":"levelo://app?vid=922252e8-02c2-4987-8eed-1d6d69073568"},"vehicle_type_id":"4","last_reported":1728468568,"current_range_meters":32400,"station_id":"ce4bhg92rcd13ifvqf90","pricing_plan_id":"cebpf4jnsgd1na2vs0mg"},{"bike_id":"c283bee0-b392-40e1-b183-58fab03c3b3d","system_id":"levelo_inurba_marseille","lat":43.28429,"lon":5.34993,"is_reserved":false,"is_disabled":false,"rental_uris":{"android":"levelo://app?vid=c283bee0-b392-40e1-b183-58fab03c3b3d","ios":"levelo://app?vid=c283bee0-b392-40e1-b183-58fab03c3b3d"},"vehicle_type_id":"4","last_reported":1728468568,"current_range_meters":22000,"station_id":"ce4bhbh2rcd13ifvqepg","pricing_plan_id":"cebpf4jnsgd1na2vs0mg"},{"bike_id":"a367c20e-6b4a-4c12-9fa3-28fd273ce20a","system_id":"levelo_inurba_marseille","lat":43.28108,"lon":5.37836,"is_reserved":false,"is_disabled":false,"rental_uris":{"android":"levelo://app?vid=a367c20e-6b4a-4c12-9fa3-28fd273ce20a","ios":"levelo://app?vid=a367c20e-6b4a-4c12-9fa3-28fd273ce20a"},"vehicle_type_id":"4","last_reported":1728468568,"current_range_meters":27200,"station_id":"ce4bha12rcd13ifvqee0","pricing_plan_id":"cebpf4jnsgd1na2vs0mg"},{"bike_id":"efe14419-8d09-4d5d-8638-5b76d716b80a","system_id":"levelo_inurba_marseille","lat":43.29715,"lon":5.37697,"is_reserved":false,"is_disabled":false,"rental_uris":{"android":"levelo://app?vid=efe14419-8d09-4d5d-8638-5b76d716b80a","ios":"levelo://app?vid=efe14419-8d09-4d5d-8638-5b76d716b80a"},"vehicle_type_id":"4","last_reported":1728468568,"current_range_meters":26000,"station_id":"ce4bgkh2rcd13ifvqbl0","pricing_plan_id":"cebpf4jnsgd1na2vs0mg"},{"bike_id":"a6b3d3c3-66cf-4ef9-93fa-38e21f9a6c77","system_id":"levelo_inurba_marseille","lat":43.26685,"lon":5.38273,"is_reserved":false,"is_disabled":false,"rental_uris":{"android":"levelo://app?vid=a6b3d3c3-66cf-4ef9-93fa-38e21f9a6c77","ios":"levelo://app?vid=a6b3d3c3-66cf-4ef9-93fa-38e21f9a6c77"},"vehicle_type_id":"4","last_reported":1728468568,"current_range_meters":39200,"station_id":"ce4bhg92rcd13ifvqf90","pricing_plan_id":"cebpf4jnsgd1na2vs0mg"},{"bike_id":"1b3df055-06b6-4141-b9e9-f3a77821f663","system_id":"levelo_inurba_marseille","lat":43.30608,"lon":5.37205,"is_reserved":false,"is_disabled":false,"rental_uris":{"android":"levelo://app?vid=1b3df055-06b6-4141-b9e9-f3a77821f663","ios":"levelo://app?vid=1b3df055-06b6-4141-b9e9-f3a77821f663"},"vehicle_type_id":"4","last_reported":1728468568,"current_range_meters":32800,"station_id":"ce4bgqh2rcd13ifvqc4g","pricing_plan_id":"cebpf4jnsgd1na2vs0mg"},{"bike_id":"604d15ec-8a74-4600-9234-5e2d48eeff51","system_id":"levelo_inurba_marseille","lat":43.33615,"lon":5.41033,"is_reserved":false,"is_disabled":false,"rental_uris":{"android":"levelo://app?vid=604d15ec-8a74-4600-9234-5e2d48eeff51","ios":"levelo://app?vid=604d15ec-8a74-4600-9234-5e2d48eeff51"},"vehicle_type_id":"4","last_reported":1728468568,"current_range_meters":19200,"station_id":"ce4bhqh2rcd13ifvqhmg","pricing_plan_id":"cebpf4jnsgd1na2vs0mg"},{"bike_id":"abdeb7b7-9443-4a2e-90f2-c4f781442d2e","system_id":"levelo_inurba_marseille","lat":43.298981,"lon":5.436726,"is_reserved":false,"is_disabled":false,"rental_uris":{"android":"levelo://app?vid=abdeb7b7-9443-4a2e-90f2-c4f781442d2e","ios":"levelo://app?vid=abdeb7b7-9443-4a2e-90f2-c4f781442d2e"},"vehicle_type_id":"4","last_reported":1728468568,"current_range_meters":10800,"station_id":"ce4bhpp2rcd13ifvqhfg","pricing_plan_id":"cebpf4jnsgd1na2vs0mg"},{"bike_id":"4a0c4a80-24ca-4117-82f0-18bb156d4aec","system_id":"levelo_inurba_marseille","lat":43.30902,"lon":5.36851,"is_reserved":false,"is_disabled":false,"rental_uris":{"android":"levelo://app?vid=4a0c4a80-24ca-4117-82f0-18bb156d4aec","ios":"levelo://app?vid=4a0c4a80-24ca-4117-82f0-18bb156d4aec"},"vehicle_type_id":"4","last_reported":1728468568,"current_range_meters":4800,"station_id":"ce4bgn92rcd13ifvqbvg","pricing_plan_id":"cebpf4jnsgd1na2vs0mg"},{"bike_id":"e38156d2-5c7c-4bd3-ab11-42f9045d0ceb","system_id":"levelo_inurba_marseille","lat":43.27579,"lon":5.38444,"is_reserved":false,"is_disabled":false,"rental_uris":{"android":"levelo://app?vid=e38156d2-5c7c-4bd3-ab11-42f9045d0ceb","ios":"levelo://app?vid=e38156d2-5c7c-4bd3-ab11-42f9045d0ceb"},"vehicle_type_id":"4","last_reported":1728468568,"current_range_meters":33600,"station_id":"ce4bhh92rcd13ifvqfi0","pricing_plan_id":"cebpf4jnsgd1na2vs0mg"},{"bike_id":"d1d729c1-7adb-492b-9c95-9015a1ed2807","system_id":"levelo_inurba_marseille","lat":43.23152,"lon":5.43716,"is_reserved":false,"is_disabled":false,"rental_uris":{"android":"levelo://app?vid=d1d729c1-7adb-492b-9c95-9015a1ed2807","ios":"levelo://app?vid=d1d729c1-7adb-492b-9c95-9015a1ed2807"},"vehicle_type_id":"4","last_reported":1728468568,"current_range_meters":12000,"station_id":"ce4bhmp2rcd13ifvqgog","pricing_plan_id":"cebpf4jnsgd1na2vs0mg"},{"bike_id":"363b0b8b-b0e7-4b61-a0be-8c6ba9805b1b","system_id":"levelo_inurba_marseille","lat":43.30322,"lon":5.36884,"is_reserved":false,"is_disabled":false,"rental_uris":{"android":"levelo://app?vid=363b0b8b-b0e7-4b61-a0be-8c6ba9805b1b","ios":"levelo://app?vid=363b0b8b-b0e7-4b61-a0be-8c6ba9805b1b"},"vehicle_type_id":"4","last_reported":1728468568,"current_range_meters":36400,"station_id":"ce4bgqh2rcd13ifvqc5g","pricing_plan_id":"cebpf4jnsgd1na2vs0mg"},{"bike_id":"ef18b2fe-6c65-47ee-9c16-9776d2274fcf","system_id":"levelo_inurba_marseille","lat":43.26555,"lon":5.37287,"is_reserved":false,"is_disabled":false,"rental_uris":{"android":"levelo://app?vid=ef18b2fe-6c65-47ee-9c16-9776d2274fcf","ios":"levelo://app?vid=ef18b2fe-6c65-47ee-9c16-9776d2274fcf"},"vehicle_type_id":"4","last_reported":1728468568,"current_range_meters":18000,"station_id":"ce4bhg12rcd13ifvqf70","pricing_plan_id":"cebpf4jnsgd1na2vs0mg"},{"bike_id":"96d80047-32d2-45f4-bd41-195cf5cb8e0c","system_id":"levelo_inurba_marseille","lat":43.23053,"lon":5.35493,"is_reserved":false,"is_disabled":false,"rental_uris":{"android":"levelo://app?vid=96d80047-32d2-45f4-bd41-195cf5cb8e0c","ios":"levelo://app?vid=96d80047-32d2-45f4-bd41-195cf5cb8e0c"},"vehicle_type_id":"4","last_reported":1728468568,"current_range_meters":37600,"station_id":"cpo3342slgdg3j2ifvpg","pricing_plan_id":"cebpf4jnsgd1na2vs0mg"},{"bike_id":"aea59b95-40ec-4ce5-adc4-1af61b5d68b5","system_id":"levelo_inurba_marseille","lat":43.30284,"lon":5.37696,"is_reserved":false,"is_disabled":false,"rental_uris":{"android":"levelo://app?vid=aea59b95-40ec-4ce5-adc4-1af61b5d68b5","ios":"levelo://app?vid=aea59b95-40ec-4ce5-adc4-1af61b5d68b5"},"vehicle_type_id":"4","last_reported":1728468568,"current_range_meters":39200,"station_id":"ce4bguh2rcd13ifvqcj0","pricing_plan_id":"cebpf4jnsgd1na2vs0mg"},{"bike_id":"0f70adbe-ee9d-46bd-9883-74567fc4748c","system_id":"levelo_inurba_marseille","lat":43.31237,"lon":5.3687,"is_reserved":false,"is_disabled":false,"rental_uris":{"android":"levelo://app?vid=0f70adbe-ee9d-46bd-9883-74567fc4748c","ios":"levelo://app?vid=0f70adbe-ee9d-46bd-9883-74567fc4748c"},"vehicle_type_id":"4","last_reported":1728468568,"current_range_meters":39200,"station_id":"ce4bgl92rcd13ifvqbq0","pricing_plan_id":"cebpf4jnsgd1na2vs0mg"},{"bike_id":"76f8e42c-ad40-4cb2-98e1-4f36894af7c5","system_id":"levelo_inurba_marseille","lat":43.29091,"lon":5.38105,"is_reserved":false,"is_disabled":false,"rental_uris":{"android":"levelo://app?vid=76f8e42c-ad40-4cb2-98e1-4f36894af7c5","ios":"levelo://app?vid=76f8e42c-ad40-4cb2-98e1-4f36894af7c5"},"vehicle_type_id":"4","last_reported":1728468568,"current_range_meters":22400,"station_id":"ce4bh512rcd13ifvqe2g","pricing_plan_id":"cebpf4jnsgd1na2vs0mg"},{"bike_id":"45051c07-a864-41b8-be9f-d6bc8c6d0047","system_id":"levelo_inurba_marseille","lat":43.23151,"lon":5.4372,"is_reserved":false,"is_disabled":false,"rental_uris":{"android":"levelo://app?vid=45051c07-a864-41b8-be9f-d6bc8c6d0047","ios":"levelo://app?vid=45051c07-a864-41b8-be9f-d6bc8c6d0047"},"vehicle_type_id":"4","last_reported":1728468568,"current_range_meters":30800,"station_id":"ce4bhmp2rcd13ifvqgog","pricing_plan_id":"cebpf4jnsgd1na2vs0mg"},{"bike_id":"6ecc9958-aaeb-4210-8091-0a1a55ff425f","system_id":"levelo_inurba_marseille","lat":43.23149,"lon":5.43721,"is_reserved":false,"is_disabled":false,"rental_uris":{"android":"levelo://app?vid=6ecc9958-aaeb-4210-8091-0a1a55ff425f","ios":"levelo://app?vid=6ecc9958-aaeb-4210-8091-0a1a55ff425f"},"vehicle_type_id":"4","last_reported":1728468568,"current_range_meters":12000,"station_id":"ce4bhmp2rcd13ifvqgog","pricing_plan_id":"cebpf4jnsgd1na2vs0mg"},{"bike_id":"1af608c7-f8c3-49ad-aa66-fb801086d317","system_id":"levelo_inurba_marseille","lat":43.26208,"lon":5.37929,"is_reserved":false,"is_disabled":false,"rental_uris":{"android":"levelo://app?vid=1af608c7-f8c3-49ad-aa66-fb801086d317","ios":"levelo://app?vid=1af608c7-f8c3-49ad-aa66-fb801086d317"},"vehicle_type_id":"4","last_reported":1728468568,"current_range_meters":6000,"station_id":"ce4bhjp2rcd13ifvqg90","pricing_plan_id":"cebpf4jnsgd1na2vs0mg"},{"bike_id":"9fe78430-11e7-47f8-baac-bd725566a90b","system_id":"levelo_inurba_marseille","lat":43.23195,"lon":5.35559,"is_reserved":false,"is_disabled":false,"rental_uris":{"android":"levelo://app?vid=9fe78430-11e7-47f8-baac-bd725566a90b","ios":"levelo://app?vid=9fe78430-11e7-47f8-baac-bd725566a90b"},"vehicle_type_id":"4","last_reported":1728468568,"current_range_meters":3600,"station_id":"ce4bhu92rcd13ifvqi70","pricing_plan_id":"cebpf4jnsgd1na2vs0mg"},{"bike_id":"3c47709e-cce9-4829-a61a-1beb95b597d3","system_id":"levelo_inurba_marseille","lat":43.27493,"lon":5.42461,"is_reserved":false,"is_disabled":false,"rental_uris":{"android":"levelo://app?vid=3c47709e-cce9-4829-a61a-1beb95b597d3","ios":"levelo://app?vid=3c47709e-cce9-4829-a61a-1beb95b597d3"},"vehicle_type_id":"4","last_reported":1728468568,"current_range_meters":31200,"station_id":"ce4bhn92rcd13ifvqgrg","pricing_plan_id":"cebpf4jnsgd1na2vs0mg"},{"bike_id":"158c735d-765f-459c-89f5-d54d747df691","system_id":"levelo_inurba_marseille","lat":43.25937,"lon":5.40921,"is_reserved":false,"is_disabled":false,"rental_uris":{"android":"levelo://app?vid=158c735d-765f-459c-89f5-d54d747df691","ios":"levelo://app?vid=158c735d-765f-459c-89f5-d54d747df691"},"vehicle_type_id":"4","last_reported":1728468568,"current_range_meters":38000,"station_id":"ce4bhm92rcd13ifvqglg","pricing_plan_id":"cebpf4jnsgd1na2vs0mg"},{"bike_id":"32a47555-5b90-4e71-acec-5d7469e9cc0c","system_id":"levelo_inurba_marseille","lat":43.32484,"lon":5.36553,"is_reserved":false,"is_disabled":false,"rental_uris":{"android":"levelo://app?vid=32a47555-5b90-4e71-acec-5d7469e9cc0c","ios":"levelo://app?vid=32a47555-5b90-4e71-acec-5d7469e9cc0c"},"vehicle_type_id":"4","last_reported":1728468568,"current_range_meters":39200,"station_id":"ce4bhs12rcd13ifvqhvg","pricing_plan_id":"cebpf4jnsgd1na2vs0mg"},{"bike_id":"6b85a3ee-4da3-449d-ad78-2a214e188956","system_id":"levelo_inurba_marseille","lat":43.30161,"lon":5.38081,"is_reserved":false,"is_disabled":false,"rental_uris":{"android":"levelo://app?vid=6b85a3ee-4da3-449d-ad78-2a214e188956","ios":"levelo://app?vid=6b85a3ee-4da3-449d-ad78-2a214e188956"},"vehicle_type_id":"4","last_reported":1728468568,"current_range_meters":11200,"station_id":"ce4bgjp2rcd13ifvqbh0","pricing_plan_id":"cebpf4jnsgd1na2vs0mg"},{"bike_id":"d90712d7-c141-4692-95f9-dd71034a00eb","system_id":"levelo_inurba_marseille","lat":43.29851,"lon":5.36273,"is_reserved":false,"is_disabled":false,"rental_uris":{"android":"levelo://app?vid=d90712d7-c141-4692-95f9-dd71034a00eb","ios":"levelo://app?vid=d90712d7-c141-4692-95f9-dd71034a00eb"},"vehicle_type_id":"4","last_reported":1728468568,"current_range_meters":22800,"station_id":"ce4bgpp2rcd13ifvqc3g","pricing_plan_id":"cebpf4jnsgd1na2vs0mg"},{"bike_id":"e8d49da1-808d-4177-b5ed-e1c34b4c7611","system_id":"levelo_inurba_marseille","lat":43.33028,"lon":5.39043,"is_reserved":false,"is_disabled":false,"rental_uris":{"android":"levelo://app?vid=e8d49da1-808d-4177-b5ed-e1c34b4c7611","ios":"levelo://app?vid=e8d49da1-808d-4177-b5ed-e1c34b4c7611"},"vehicle_type_id":"4","last_reported":1728468568,"current_range_meters":38000,"station_id":"ce4bhr92rcd13ifvqhrg","pricing_plan_id":"cebpf4jnsgd1na2vs0mg"},{"bike_id":"ad7878af-f232-43dc-8dd6-3b6e99680df1","system_id":"levelo_inurba_marseille","lat":43.330261,"lon":5.390399,"is_reserved":false,"is_disabled":false,"rental_uris":{"android":"levelo://app?vid=ad7878af-f232-43dc-8dd6-3b6e99680df1","ios":"levelo://app?vid=ad7878af-f232-43dc-8dd6-3b6e99680df1"},"vehicle_type_id":"4","last_reported":1728468568,"current_range_meters":29600,"station_id":"ce4bhr92rcd13ifvqhrg","pricing_plan_id":"cebpf4jnsgd1na2vs0mg"},{"bike_id":"d15fbb07-963a-47fa-bead-97c71479a37d","system_id":"levelo_inurba_marseille","lat":43.29277,"lon":5.36836,"is_reserved":false,"is_disabled":false,"rental_uris":{"android":"levelo://app?vid=d15fbb07-963a-47fa-bead-97c71479a37d","ios":"levelo://app?vid=d15fbb07-963a-47fa-bead-97c71479a37d"},"vehicle_type_id":"4","last_reported":1728468568,"current_range_meters":36400,"station_id":"ce4bhbp2rcd13ifvqesg","pricing_plan_id":"cebpf4jnsgd1na2vs0mg"},{"bike_id":"e92e26c5-68aa-4d1e-a934-e4fb65cbde89","system_id":"levelo_inurba_marseille","lat":43.33608,"lon":5.41024,"is_reserved":false,"is_disabled":false,"rental_uris":{"android":"levelo://app?vid=e92e26c5-68aa-4d1e-a934-e4fb65cbde89","ios":"levelo://app?vid=e92e26c5-68aa-4d1e-a934-e4fb65cbde89"},"vehicle_type_id":"4","last_reported":1728468568,"current_range_meters":11600,"station_id":"ce4bhqh2rcd13ifvqhmg","pricing_plan_id":"cebpf4jnsgd1na2vs0mg"},{"bike_id":"42331874-00d9-42da-8ade-186b4ef1581a","system_id":"levelo_inurba_marseille","lat":43.26213,"lon":5.37452,"is_reserved":false,"is_disabled":false,"rental_uris":{"android":"levelo://app?vid=42331874-00d9-42da-8ade-186b4ef1581a","ios":"levelo://app?vid=42331874-00d9-42da-8ade-186b4ef1581a"},"vehicle_type_id":"4","last_reported":1728468568,"current_range_meters":26000,"station_id":"ce4bhgp2rcd13ifvqfc0","pricing_plan_id":"cebpf4jnsgd1na2vs0mg"},{"bike_id":"70579604-fe31-4626-8ce5-732c300fd65a","system_id":"levelo_inurba_marseille","lat":43.3054,"lon":5.36545,"is_reserved":false,"is_disabled":false,"rental_uris":{"android":"levelo://app?vid=70579604-fe31-4626-8ce5-732c300fd65a","ios":"levelo://app?vid=70579604-fe31-4626-8ce5-732c300fd65a"},"vehicle_type_id":"4","last_reported":1728468568,"current_range_meters":9200,"station_id":"ce4bgs12rcd13ifvqcag","pricing_plan_id":"cebpf4jnsgd1na2vs0mg"},{"bike_id":"88267538-d6a0-4053-8085-f063fb54cc2b","system_id":"levelo_inurba_marseille","lat":43.27485,"lon":5.4246,"is_reserved":false,"is_disabled":false,"rental_uris":{"android":"levelo://app?vid=88267538-d6a0-4053-8085-f063fb54cc2b","ios":"levelo://app?vid=88267538-d6a0-4053-8085-f063fb54cc2b"},"vehicle_type_id":"4","last_reported":1728468568,"current_range_meters":25200,"station_id":"ce4bhn92rcd13ifvqgrg","pricing_plan_id":"cebpf4jnsgd1na2vs0mg"},{"bike_id":"b4827499-060b-4d29-866e-571ac00645e9","system_id":"levelo_inurba_marseille","lat":43.27061,"lon":5.40261,"is_reserved":false,"is_disabled":false,"rental_uris":{"android":"levelo://app?vid=b4827499-060b-4d29-866e-571ac00645e9","ios":"levelo://app?vid=b4827499-060b-4d29-866e-571ac00645e9"},"vehicle_type_id":"4","last_reported":1728468568,"current_range_meters":23200,"station_id":"ce4bhk92rcd13ifvqgc0","pricing_plan_id":"cebpf4jnsgd1na2vs0mg"},{"bike_id":"58aaeeec-b7a4-44c7-8ca6-606beafb3451","system_id":"levelo_inurba_marseille","lat":43.28701,"lon":5.39984,"is_reserved":false,"is_disabled":false,"rental_uris":{"android":"levelo://app?vid=58aaeeec-b7a4-44c7-8ca6-606beafb3451","ios":"levelo://app?vid=58aaeeec-b7a4-44c7-8ca6-606beafb3451"},"vehicle_type_id":"4","last_reported":1728468568,"current_range_meters":26800,"station_id":"ce4bho92rcd13ifvqh3g","pricing_plan_id":"cebpf4jnsgd1na2vs0mg"},{"bike_id":"baba3ddf-e747-4095-9a9c-078163c7026f","system_id":"levelo_inurba_marseille","lat":43.25936,"lon":5.40915,"is_reserved":false,"is_disabled":false,"rental_uris":{"android":"levelo://app?vid=baba3ddf-e747-4095-9a9c-078163c7026f","ios":"levelo://app?vid=baba3ddf-e747-4095-9a9c-078163c7026f"},"vehicle_type_id":"4","last_reported":1728468568,"current_range_meters":6800,"station_id":"ce4bhm92rcd13ifvqglg","pricing_plan_id":"cebpf4jnsgd1na2vs0mg"},{"bike_id":"6217f0d4-29aa-4911-a3f9-c02e45328700","system_id":"levelo_inurba_marseille","lat":43.23203,"lon":5.35544,"is_reserved":false,"is_disabled":false,"rental_uris":{"android":"levelo://app?vid=6217f0d4-29aa-4911-a3f9-c02e45328700","ios":"levelo://app?vid=6217f0d4-29aa-4911-a3f9-c02e45328700"},"vehicle_type_id":"4","last_reported":1728468568,"current_range_meters":33200,"station_id":"ce4bhu92rcd13ifvqi70","pricing_plan_id":"cebpf4jnsgd1na2vs0mg"},{"bike_id":"1145eb87-1288-424a-ab77-43ca4155ee56","system_id":"levelo_inurba_marseille","lat":43.337445,"lon":5.374494,"is_reserved":false,"is_disabled":false,"rental_uris":{"android":"levelo://app?vid=1145eb87-1288-424a-ab77-43ca4155ee56","ios":"levelo://app?vid=1145eb87-1288-424a-ab77-43ca4155ee56"},"vehicle_type_id":"4","last_reported":1728468568,"current_range_meters":36800,"station_id":"ce4rr2p2rcd13i802rgg","pricing_plan_id":"cebpf4jnsgd1na2vs0mg"},{"bike_id":"141df06e-113e-44c6-8129-a25fe376a60a","system_id":"levelo_inurba_marseille","lat":43.29551,"lon":5.42285,"is_reserved":false,"is_disabled":false,"rental_uris":{"android":"levelo://app?vid=141df06e-113e-44c6-8129-a25fe376a60a","ios":"levelo://app?vid=141df06e-113e-44c6-8129-a25fe376a60a"},"vehicle_type_id":"4","last_reported":1728468568,"current_range_meters":38400,"station_id":"ce4bhph2rcd13ifvqhdg","pricing_plan_id":"cebpf4jnsgd1na2vs0mg"},{"bike_id":"c8ebc7d1-6943-4044-ad6c-3252fb6dd74b","system_id":"levelo_inurba_marseille","lat":43.26209,"lon":5.37446,"is_reserved":false,"is_disabled":false,"rental_uris":{"android":"levelo://app?vid=c8ebc7d1-6943-4044-ad6c-3252fb6dd74b","ios":"levelo://app?vid=c8ebc7d1-6943-4044-ad6c-3252fb6dd74b"},"vehicle_type_id":"4","last_reported":1728468568,"current_range_meters":28400,"station_id":"ce4bhgp2rcd13ifvqfc0","pricing_plan_id":"cebpf4jnsgd1na2vs0mg"},{"bike_id":"5e6b6150-a47e-402c-adfd-73ccaed8f7d2","system_id":"levelo_inurba_marseille","lat":43.26945,"lon":5.40254,"is_reserved":false,"is_disabled":false,"rental_uris":{"android":"levelo://app?vid=5e6b6150-a47e-402c-adfd-73ccaed8f7d2","ios":"levelo://app?vid=5e6b6150-a47e-402c-adfd-73ccaed8f7d2"},"vehicle_type_id":"4","last_reported":1728468568,"current_range_meters":39200,"station_id":"cjm6bp8fraef2m0cb0m0","pricing_plan_id":"cebpf4jnsgd1na2vs0mg"},{"bike_id":"fde7cf76-2bbb-462c-878e-7256af82b32b","system_id":"levelo_inurba_marseille","lat":43.23206,"lon":5.35544,"is_reserved":false,"is_disabled":false,"rental_uris":{"android":"levelo://app?vid=fde7cf76-2bbb-462c-878e-7256af82b32b","ios":"levelo://app?vid=fde7cf76-2bbb-462c-878e-7256af82b32b"},"vehicle_type_id":"4","last_reported":1728468568,"current_range_meters":39200,"station_id":"ce4bhu92rcd13ifvqi70","pricing_plan_id":"cebpf4jnsgd1na2vs0mg"},{"bike_id":"fd4dd0b0-9f29-4283-b0a3-caf50dd2be11","system_id":"levelo_inurba_marseille","lat":43.33024,"lon":5.39037,"is_reserved":false,"is_disabled":false,"rental_uris":{"android":"levelo://app?vid=fd4dd0b0-9f29-4283-b0a3-caf50dd2be11","ios":"levelo://app?vid=fd4dd0b0-9f29-4283-b0a3-caf50dd2be11"},"vehicle_type_id":"4","last_reported":1728468568,"current_range_meters":39200,"station_id":"ce4bhr92rcd13ifvqhrg","pricing_plan_id":"cebpf4jnsgd1na2vs0mg"},{"bike_id":"d7613142-37d2-4aa1-abc4-0611cee9afef","system_id":"levelo_inurba_marseille","lat":43.292572,"lon":5.378846,"is_reserved":false,"is_disabled":false,"rental_uris":{"android":"levelo://app?vid=d7613142-37d2-4aa1-abc4-0611cee9afef","ios":"levelo://app?vid=d7613142-37d2-4aa1-abc4-0611cee9afef"},"vehicle_type_id":"4","last_reported":1728468568,"current_range_meters":21600,"station_id":"ce4bgjh2rcd13ifvqbf0","pricing_plan_id":"cebpf4jnsgd1na2vs0mg"},{"bike_id":"2b6677d5-7b62-4a07-b6c3-7bf77f5bcd5c","system_id":"levelo_inurba_marseille","lat":43.28446,"lon":5.39185,"is_reserved":false,"is_disabled":false,"rental_uris":{"android":"levelo://app?vid=2b6677d5-7b62-4a07-b6c3-7bf77f5bcd5c","ios":"levelo://app?vid=2b6677d5-7b62-4a07-b6c3-7bf77f5bcd5c"},"vehicle_type_id":"4","last_reported":1728468568,"current_range_meters":38000,"station_id":"ce4bhoh2rcd13ifvqh5g","pricing_plan_id":"cebpf4jnsgd1na2vs0mg"},{"bike_id":"ff34ef8c-35ba-4599-8a65-98fd950e650d","system_id":"levelo_inurba_marseille","lat":43.24667,"lon":5.38161,"is_reserved":false,"is_disabled":false,"rental_uris":{"android":"levelo://app?vid=ff34ef8c-35ba-4599-8a65-98fd950e650d","ios":"levelo://app?vid=ff34ef8c-35ba-4599-8a65-98fd950e650d"},"vehicle_type_id":"4","last_reported":1728468568,"current_range_meters":38400,"station_id":"ce4bhih2rcd13ifvqfr0","pricing_plan_id":"cebpf4jnsgd1na2vs0mg"},{"bike_id":"b64110a4-a18b-46fe-9e96-f22bbe647422","system_id":"levelo_inurba_marseille","lat":43.29563,"lon":5.42289,"is_reserved":false,"is_disabled":false,"rental_uris":{"android":"levelo://app?vid=b64110a4-a18b-46fe-9e96-f22bbe647422","ios":"levelo://app?vid=b64110a4-a18b-46fe-9e96-f22bbe647422"},"vehicle_type_id":"4","last_reported":1728468568,"current_range_meters":27600,"station_id":"ce4bhph2rcd13ifvqhdg","pricing_plan_id":"cebpf4jnsgd1na2vs0mg"},{"bike_id":"0639ec70-43dc-420c-a1af-257ee376cffc","system_id":"levelo_inurba_marseille","lat":43.29554,"lon":5.4229,"is_reserved":false,"is_disabled":false,"rental_uris":{"android":"levelo://app?vid=0639ec70-43dc-420c-a1af-257ee376cffc","ios":"levelo://app?vid=0639ec70-43dc-420c-a1af-257ee376cffc"},"vehicle_type_id":"4","last_reported":1728468568,"current_range_meters":30400,"station_id":"ce4bhph2rcd13ifvqhdg","pricing_plan_id":"cebpf4jnsgd1na2vs0mg"},{"bike_id":"88fff0b8-497c-45f8-9820-bc18a7bec853","system_id":"levelo_inurba_marseille","lat":43.28707,"lon":5.39983,"is_reserved":false,"is_disabled":false,"rental_uris":{"android":"levelo://app?vid=88fff0b8-497c-45f8-9820-bc18a7bec853","ios":"levelo://app?vid=88fff0b8-497c-45f8-9820-bc18a7bec853"},"vehicle_type_id":"4","last_reported":1728468568,"current_range_meters":13600,"station_id":"ce4bho92rcd13ifvqh3g","pricing_plan_id":"cebpf4jnsgd1na2vs0mg"},{"bike_id":"2250666e-2423-4ec9-a242-d1f6b184ebc2","system_id":"levelo_inurba_marseille","lat":43.30146,"lon":5.37411,"is_reserved":false,"is_disabled":false,"rental_uris":{"android":"levelo://app?vid=2250666e-2423-4ec9-a242-d1f6b184ebc2","ios":"levelo://app?vid=2250666e-2423-4ec9-a242-d1f6b184ebc2"},"vehicle_type_id":"4","last_reported":1728468568,"current_range_meters":27600,"station_id":"ce4bgs92rcd13ifvqcc0","pricing_plan_id":"cebpf4jnsgd1na2vs0mg"},{"bike_id":"22d650dc-a27f-4ed2-8de1-6b863e472295","system_id":"levelo_inurba_marseille","lat":43.32489,"lon":5.36563,"is_reserved":false,"is_disabled":false,"rental_uris":{"android":"levelo://app?vid=22d650dc-a27f-4ed2-8de1-6b863e472295","ios":"levelo://app?vid=22d650dc-a27f-4ed2-8de1-6b863e472295"},"vehicle_type_id":"4","last_reported":1728468568,"current_range_meters":20800,"station_id":"ce4bhs12rcd13ifvqhvg","pricing_plan_id":"cebpf4jnsgd1na2vs0mg"},{"bike_id":"40ce2d9d-e920-4ff5-a7be-f7e9fddaed2e","system_id":"levelo_inurba_marseille","lat":43.3054,"lon":5.36704,"is_reserved":false,"is_disabled":false,"rental_uris":{"android":"levelo://app?vid=40ce2d9d-e920-4ff5-a7be-f7e9fddaed2e","ios":"levelo://app?vid=40ce2d9d-e920-4ff5-a7be-f7e9fddaed2e"},"vehicle_type_id":"4","last_reported":1728468568,"current_range_meters":34800,"station_id":"ce4bgrp2rcd13ifvqc9g","pricing_plan_id":"cebpf4jnsgd1na2vs0mg"},{"bike_id":"96fd21d7-cf41-4b3c-92bf-8f989da2ae05","system_id":"levelo_inurba_marseille","lat":43.29306,"lon":5.3716,"is_reserved":false,"is_disabled":false,"rental_uris":{"android":"levelo://app?vid=96fd21d7-cf41-4b3c-92bf-8f989da2ae05","ios":"levelo://app?vid=96fd21d7-cf41-4b3c-92bf-8f989da2ae05"},"vehicle_type_id":"4","last_reported":1728468568,"current_range_meters":11200,"station_id":"ce4bgh92rcd13ifvqb40","pricing_plan_id":"cebpf4jnsgd1na2vs0mg"},{"bike_id":"4fae162a-77df-4f18-b131-3329cc3ef84b","system_id":"levelo_inurba_marseille","lat":43.26064,"lon":5.39393,"is_reserved":false,"is_disabled":false,"rental_uris":{"android":"levelo://app?vid=4fae162a-77df-4f18-b131-3329cc3ef84b","ios":"levelo://app?vid=4fae162a-77df-4f18-b131-3329cc3ef84b"},"vehicle_type_id":"4","last_reported":1728468568,"current_range_meters":16800,"station_id":"ce4bhh92rcd13ifvqfj0","pricing_plan_id":"cebpf4jnsgd1na2vs0mg"},{"bike_id":"354f7f1f-c6e5-484a-bbe7-7242cfb1c085","system_id":"levelo_inurba_marseille","lat":43.31535,"lon":5.38038,"is_reserved":false,"is_disabled":false,"rental_uris":{"android":"levelo://app?vid=354f7f1f-c6e5-484a-bbe7-7242cfb1c085","ios":"levelo://app?vid=354f7f1f-c6e5-484a-bbe7-7242cfb1c085"},"vehicle_type_id":"4","last_reported":1728468568,"current_range_meters":24800,"station_id":"ce4bhsp2rcd13ifvqi50","pricing_plan_id":"cebpf4jnsgd1na2vs0mg"},{"bike_id":"8a67907a-4e1b-4251-b4a4-c980df6fc77b","system_id":"levelo_inurba_marseille","lat":43.30282,"lon":5.37701,"is_reserved":false,"is_disabled":false,"rental_uris":{"android":"levelo://app?vid=8a67907a-4e1b-4251-b4a4-c980df6fc77b","ios":"levelo://app?vid=8a67907a-4e1b-4251-b4a4-c980df6fc77b"},"vehicle_type_id":"4","last_reported":1728468568,"current_range_meters":36000,"station_id":"ce4bguh2rcd13ifvqcj0","pricing_plan_id":"cebpf4jnsgd1na2vs0mg"},{"bike_id":"8f195e73-56cf-4dbf-97df-c620bbc300b1","system_id":"levelo_inurba_marseille","lat":43.23157,"lon":5.43703,"is_reserved":false,"is_disabled":false,"rental_uris":{"android":"levelo://app?vid=8f195e73-56cf-4dbf-97df-c620bbc300b1","ios":"levelo://app?vid=8f195e73-56cf-4dbf-97df-c620bbc300b1"},"vehicle_type_id":"4","last_reported":1728468568,"current_range_meters":17600,"station_id":"ce4bhmp2rcd13ifvqgog","pricing_plan_id":"cebpf4jnsgd1na2vs0mg"},{"bike_id":"09fa8933-188c-463c-b655-4d048fac928d","system_id":"levelo_inurba_marseille","lat":43.30152,"lon":5.38089,"is_reserved":false,"is_disabled":false,"rental_uris":{"android":"levelo://app?vid=09fa8933-188c-463c-b655-4d048fac928d","ios":"levelo://app?vid=09fa8933-188c-463c-b655-4d048fac928d"},"vehicle_type_id":"4","last_reported":1728468568,"current_range_meters":36000,"station_id":"ce4bgjp2rcd13ifvqbh0","pricing_plan_id":"cebpf4jnsgd1na2vs0mg"},{"bike_id":"25afecff-8faf-4ca5-beb4-ce74280dcb13","system_id":"levelo_inurba_marseille","lat":43.23202,"lon":5.35548,"is_reserved":false,"is_disabled":false,"rental_uris":{"android":"levelo://app?vid=25afecff-8faf-4ca5-beb4-ce74280dcb13","ios":"levelo://app?vid=25afecff-8faf-4ca5-beb4-ce74280dcb13"},"vehicle_type_id":"4","last_reported":1728468568,"current_range_meters":4400,"station_id":"ce4bhu92rcd13ifvqi70","pricing_plan_id":"cebpf4jnsgd1na2vs0mg"},{"bike_id":"df25d8f5-cea4-4065-8f82-c466c3471200","system_id":"levelo_inurba_marseille","lat":43.29916,"lon":5.37465,"is_reserved":false,"is_disabled":false,"rental_uris":{"android":"levelo://app?vid=df25d8f5-cea4-4065-8f82-c466c3471200","ios":"levelo://app?vid=df25d8f5-cea4-4065-8f82-c466c3471200"},"vehicle_type_id":"4","last_reported":1728468568,"current_range_meters":35600,"station_id":"ce4bgjh2rcd13ifvqbg0","pricing_plan_id":"cebpf4jnsgd1na2vs0mg"},{"bike_id":"03ad3825-adf5-4ceb-b58d-f4273ca26405","system_id":"levelo_inurba_marseille","lat":43.29712,"lon":5.37707,"is_reserved":false,"is_disabled":false,"rental_uris":{"android":"levelo://app?vid=03ad3825-adf5-4ceb-b58d-f4273ca26405","ios":"levelo://app?vid=03ad3825-adf5-4ceb-b58d-f4273ca26405"},"vehicle_type_id":"4","last_reported":1728468568,"current_range_meters":31200,"station_id":"ce4bgkh2rcd13ifvqbl0","pricing_plan_id":"cebpf4jnsgd1na2vs0mg"},{"bike_id":"7219fee0-219f-4cfa-8633-b620db7597ae","system_id":"levelo_inurba_marseille","lat":43.29844,"lon":5.37084,"is_reserved":false,"is_disabled":false,"rental_uris":{"android":"levelo://app?vid=7219fee0-219f-4cfa-8633-b620db7597ae","ios":"levelo://app?vid=7219fee0-219f-4cfa-8633-b620db7597ae"},"vehicle_type_id":"4","last_reported":1728468568,"current_range_meters":14000,"station_id":"","pricing_plan_id":"cebpf4jnsgd1na2vs0mg"},{"bike_id":"57004cda-5a37-44e3-92c7-c1efbc8fa188","system_id":"levelo_inurba_marseille","lat":43.29572,"lon":5.37512,"is_reserved":false,"is_disabled":false,"rental_uris":{"android":"levelo://app?vid=57004cda-5a37-44e3-92c7-c1efbc8fa188","ios":"levelo://app?vid=57004cda-5a37-44e3-92c7-c1efbc8fa188"},"vehicle_type_id":"4","last_reported":1728468568,"current_range_meters":22400,"station_id":"ce4bgh92rcd13ifvqb50","pricing_plan_id":"cebpf4jnsgd1na2vs0mg"},{"bike_id":"93258689-2bce-40db-906d-e71e9f13e67d","system_id":"levelo_inurba_marseille","lat":43.24655,"lon":5.38899,"is_reserved":false,"is_disabled":false,"rental_uris":{"android":"levelo://app?vid=93258689-2bce-40db-906d-e71e9f13e67d","ios":"levelo://app?vid=93258689-2bce-40db-906d-e71e9f13e67d"},"vehicle_type_id":"4","last_reported":1728468568,"current_range_meters":28800,"station_id":"ce4bhg12rcd13ifvqf60","pricing_plan_id":"cebpf4jnsgd1na2vs0mg"},{"bike_id":"a17e56e3-da23-46c2-83b0-178515e4d9c4","system_id":"levelo_inurba_marseille","lat":43.30552,"lon":5.36706,"is_reserved":false,"is_disabled":false,"rental_uris":{"android":"levelo://app?vid=a17e56e3-da23-46c2-83b0-178515e4d9c4","ios":"levelo://app?vid=a17e56e3-da23-46c2-83b0-178515e4d9c4"},"vehicle_type_id":"4","last_reported":1728468568,"current_range_meters":32400,"station_id":"ce4bgrp2rcd13ifvqc9g","pricing_plan_id":"cebpf4jnsgd1na2vs0mg"},{"bike_id":"f1476cf6-a83e-41aa-9632-4eb007734e26","system_id":"levelo_inurba_marseille","lat":43.29788,"lon":5.39347,"is_reserved":false,"is_disabled":false,"rental_uris":{"android":"levelo://app?vid=f1476cf6-a83e-41aa-9632-4eb007734e26","ios":"levelo://app?vid=f1476cf6-a83e-41aa-9632-4eb007734e26"},"vehicle_type_id":"4","last_reported":1728468568,"current_range_meters":30400,"station_id":"chh1huq6cuj3fo74tm60","pricing_plan_id":"cebpf4jnsgd1na2vs0mg"},{"bike_id":"3cf1bae4-9dde-4aa1-b4c4-414d6f7fb165","system_id":"levelo_inurba_marseille","lat":43.2987,"lon":5.39733,"is_reserved":false,"is_disabled":false,"rental_uris":{"android":"levelo://app?vid=3cf1bae4-9dde-4aa1-b4c4-414d6f7fb165","ios":"levelo://app?vid=3cf1bae4-9dde-4aa1-b4c4-414d6f7fb165"},"vehicle_type_id":"4","last_reported":1728468568,"current_range_meters":24800,"station_id":"ce4bh0h2rcd13ifvqd50","pricing_plan_id":"cebpf4jnsgd1na2vs0mg"},{"bike_id":"9db4eae2-9bb5-483f-bf9e-c3162de3bc1f","system_id":"levelo_inurba_marseille","lat":43.25495,"lon":5.37654,"is_reserved":false,"is_disabled":false,"rental_uris":{"android":"levelo://app?vid=9db4eae2-9bb5-483f-bf9e-c3162de3bc1f","ios":"levelo://app?vid=9db4eae2-9bb5-483f-bf9e-c3162de3bc1f"},"vehicle_type_id":"4","last_reported":1728468568,"current_range_meters":18800,"station_id":"ce4bhh12rcd13ifvqff0","pricing_plan_id":"cebpf4jnsgd1na2vs0mg"},{"bike_id":"e2d3bf15-6bc4-4545-bc67-a271e3dd6038","system_id":"levelo_inurba_marseille","lat":43.29557,"lon":5.42276,"is_reserved":false,"is_disabled":false,"rental_uris":{"android":"levelo://app?vid=e2d3bf15-6bc4-4545-bc67-a271e3dd6038","ios":"levelo://app?vid=e2d3bf15-6bc4-4545-bc67-a271e3dd6038"},"vehicle_type_id":"4","last_reported":1728468568,"current_range_meters":38800,"station_id":"ce4bhph2rcd13ifvqhdg","pricing_plan_id":"cebpf4jnsgd1na2vs0mg"},{"bike_id":"3732d06a-ec1c-4a8c-9a03-2b481dd2191f","system_id":"levelo_inurba_marseille","lat":43.33786,"lon":5.37444,"is_reserved":false,"is_disabled":false,"rental_uris":{"android":"levelo://app?vid=3732d06a-ec1c-4a8c-9a03-2b481dd2191f","ios":"levelo://app?vid=3732d06a-ec1c-4a8c-9a03-2b481dd2191f"},"vehicle_type_id":"4","last_reported":1728468568,"current_range_meters":38400,"station_id":"","pricing_plan_id":"cebpf4jnsgd1na2vs0mg"},{"bike_id":"732d19be-8b53-4050-aa65-9f53c2511677","system_id":"levelo_inurba_marseille","lat":43.29701,"lon":5.37691,"is_reserved":false,"is_disabled":false,"rental_uris":{"android":"levelo://app?vid=732d19be-8b53-4050-aa65-9f53c2511677","ios":"levelo://app?vid=732d19be-8b53-4050-aa65-9f53c2511677"},"vehicle_type_id":"4","last_reported":1728468568,"current_range_meters":25200,"station_id":"ce4bgkh2rcd13ifvqbl0","pricing_plan_id":"cebpf4jnsgd1na2vs0mg"},{"bike_id":"5fc8c099-92d7-42f5-a27b-5a353ae23da7","system_id":"levelo_inurba_marseille","lat":43.30082,"lon":5.39079,"is_reserved":false,"is_disabled":false,"rental_uris":{"android":"levelo://app?vid=5fc8c099-92d7-42f5-a27b-5a353ae23da7","ios":"levelo://app?vid=5fc8c099-92d7-42f5-a27b-5a353ae23da7"},"vehicle_type_id":"4","last_reported":1728468568,"current_range_meters":28800,"station_id":"ce4bh192rcd13ifvqdb0","pricing_plan_id":"cebpf4jnsgd1na2vs0mg"},{"bike_id":"49e74dee-8cba-4b09-8380-03c6c3b2ccb7","system_id":"levelo_inurba_marseille","lat":43.33611,"lon":5.41028,"is_reserved":false,"is_disabled":false,"rental_uris":{"android":"levelo://app?vid=49e74dee-8cba-4b09-8380-03c6c3b2ccb7","ios":"levelo://app?vid=49e74dee-8cba-4b09-8380-03c6c3b2ccb7"},"vehicle_type_id":"4","last_reported":1728468568,"current_range_meters":38800,"station_id":"ce4bhqh2rcd13ifvqhmg","pricing_plan_id":"cebpf4jnsgd1na2vs0mg"},{"bike_id":"f57fbb46-e38d-4439-843a-bf0ed5a88b0e","system_id":"levelo_inurba_marseille","lat":43.30147,"lon":5.37417,"is_reserved":false,"is_disabled":false,"rental_uris":{"android":"levelo://app?vid=f57fbb46-e38d-4439-843a-bf0ed5a88b0e","ios":"levelo://app?vid=f57fbb46-e38d-4439-843a-bf0ed5a88b0e"},"vehicle_type_id":"4","last_reported":1728468568,"current_range_meters":24000,"station_id":"ce4bgs92rcd13ifvqcc0","pricing_plan_id":"cebpf4jnsgd1na2vs0mg"},{"bike_id":"045ace5c-b2a3-426f-8ab8-2dde56e1fe43","system_id":"levelo_inurba_marseille","lat":43.30359,"lon":5.41867,"is_reserved":false,"is_disabled":false,"rental_uris":{"android":"levelo://app?vid=045ace5c-b2a3-426f-8ab8-2dde56e1fe43","ios":"levelo://app?vid=045ace5c-b2a3-426f-8ab8-2dde56e1fe43"},"vehicle_type_id":"4","last_reported":1728468568,"current_range_meters":31200,"station_id":"ce4bhop2rcd13ifvqh7g","pricing_plan_id":"cebpf4jnsgd1na2vs0mg"},{"bike_id":"166a39f5-db64-4701-9c1e-3e028fdca3cf","system_id":"levelo_inurba_marseille","lat":43.28615,"lon":5.35104,"is_reserved":false,"is_disabled":false,"rental_uris":{"android":"levelo://app?vid=166a39f5-db64-4701-9c1e-3e028fdca3cf","ios":"levelo://app?vid=166a39f5-db64-4701-9c1e-3e028fdca3cf"},"vehicle_type_id":"4","last_reported":1728468568,"current_range_meters":16400,"station_id":"ce4bhch2rcd13ifvqeug","pricing_plan_id":"cebpf4jnsgd1na2vs0mg"},{"bike_id":"cd5db413-cd84-47e8-8776-565b7138cca3","system_id":"levelo_inurba_marseille","lat":43.32484,"lon":5.36555,"is_reserved":false,"is_disabled":false,"rental_uris":{"android":"levelo://app?vid=cd5db413-cd84-47e8-8776-565b7138cca3","ios":"levelo://app?vid=cd5db413-cd84-47e8-8776-565b7138cca3"},"vehicle_type_id":"4","last_reported":1728468568,"current_range_meters":26800,"station_id":"ce4bhs12rcd13ifvqhvg","pricing_plan_id":"cebpf4jnsgd1na2vs0mg"},{"bike_id":"06971ff2-9e3f-427f-9afb-e2db59fd3490","system_id":"levelo_inurba_marseille","lat":43.30152,"lon":5.38087,"is_reserved":false,"is_disabled":false,"rental_uris":{"android":"levelo://app?vid=06971ff2-9e3f-427f-9afb-e2db59fd3490","ios":"levelo://app?vid=06971ff2-9e3f-427f-9afb-e2db59fd3490"},"vehicle_type_id":"4","last_reported":1728468568,"current_range_meters":29600,"station_id":"ce4bgjp2rcd13ifvqbh0","pricing_plan_id":"cebpf4jnsgd1na2vs0mg"},{"bike_id":"7143bc62-11c9-48c9-9f2e-33922743c8f6","system_id":"levelo_inurba_marseille","lat":43.30134,"lon":5.39863,"is_reserved":false,"is_disabled":false,"rental_uris":{"android":"levelo://app?vid=7143bc62-11c9-48c9-9f2e-33922743c8f6","ios":"levelo://app?vid=7143bc62-11c9-48c9-9f2e-33922743c8f6"},"vehicle_type_id":"4","last_reported":1728468568,"current_range_meters":28400,"station_id":"ce4bh0h2rcd13ifvqd40","pricing_plan_id":"cebpf4jnsgd1na2vs0mg"},{"bike_id":"c8e62e83-fd2e-4961-96aa-48ff55e57972","system_id":"levelo_inurba_marseille","lat":43.30602,"lon":5.37224,"is_reserved":false,"is_disabled":false,"rental_uris":{"android":"levelo://app?vid=c8e62e83-fd2e-4961-96aa-48ff55e57972","ios":"levelo://app?vid=c8e62e83-fd2e-4961-96aa-48ff55e57972"},"vehicle_type_id":"4","last_reported":1728468568,"current_range_meters":16800,"station_id":"ce4bgqh2rcd13ifvqc4g","pricing_plan_id":"cebpf4jnsgd1na2vs0mg"},{"bike_id":"6a930237-624b-4cde-ad52-27a0343c1393","system_id":"levelo_inurba_marseille","lat":43.2315,"lon":5.43713,"is_reserved":false,"is_disabled":false,"rental_uris":{"android":"levelo://app?vid=6a930237-624b-4cde-ad52-27a0343c1393","ios":"levelo://app?vid=6a930237-624b-4cde-ad52-27a0343c1393"},"vehicle_type_id":"4","last_reported":1728468568,"current_range_meters":38000,"station_id":"ce4bhmp2rcd13ifvqgog","pricing_plan_id":"cebpf4jnsgd1na2vs0mg"},{"bike_id":"bf30e496-0aed-4638-bf5c-07462fdb8fad","system_id":"levelo_inurba_marseille","lat":43.29304,"lon":5.37456,"is_reserved":false,"is_disabled":false,"rental_uris":{"android":"levelo://app?vid=bf30e496-0aed-4638-bf5c-07462fdb8fad","ios":"levelo://app?vid=bf30e496-0aed-4638-bf5c-07462fdb8fad"},"vehicle_type_id":"4","last_reported":1728468568,"current_range_meters":24400,"station_id":"ce4bgi12rcd13ifvqb70","pricing_plan_id":"cebpf4jnsgd1na2vs0mg"},{"bike_id":"1fd41ce8-ec61-444a-9cf9-9ba9d679d4d2","system_id":"levelo_inurba_marseille","lat":43.24662,"lon":5.38167,"is_reserved":false,"is_disabled":false,"rental_uris":{"android":"levelo://app?vid=1fd41ce8-ec61-444a-9cf9-9ba9d679d4d2","ios":"levelo://app?vid=1fd41ce8-ec61-444a-9cf9-9ba9d679d4d2"},"vehicle_type_id":"4","last_reported":1728468568,"current_range_meters":34000,"station_id":"ce4bhih2rcd13ifvqfr0","pricing_plan_id":"cebpf4jnsgd1na2vs0mg"},{"bike_id":"de9c1657-bcf9-4800-b27f-d9f88895cc32","system_id":"levelo_inurba_marseille","lat":43.26207,"lon":5.37932,"is_reserved":false,"is_disabled":false,"rental_uris":{"android":"levelo://app?vid=de9c1657-bcf9-4800-b27f-d9f88895cc32","ios":"levelo://app?vid=de9c1657-bcf9-4800-b27f-d9f88895cc32"},"vehicle_type_id":"4","last_reported":1728468568,"current_range_meters":28000,"station_id":"ce4bhjp2rcd13ifvqg90","pricing_plan_id":"cebpf4jnsgd1na2vs0mg"},{"bike_id":"a508a0be-8149-4eba-833f-274a220c57d7","system_id":"levelo_inurba_marseille","lat":43.29259,"lon":5.38455,"is_reserved":false,"is_disabled":false,"rental_uris":{"android":"levelo://app?vid=a508a0be-8149-4eba-833f-274a220c57d7","ios":"levelo://app?vid=a508a0be-8149-4eba-833f-274a220c57d7"},"vehicle_type_id":"4","last_reported":1728468568,"current_range_meters":24000,"station_id":"ce4bh692rcd13ifvqea0","pricing_plan_id":"cebpf4jnsgd1na2vs0mg"},{"bike_id":"b83f9c57-df24-4ce8-9132-7c1fa0e7db6d","system_id":"levelo_inurba_marseille","lat":43.26568,"lon":5.39008,"is_reserved":false,"is_disabled":false,"rental_uris":{"android":"levelo://app?vid=b83f9c57-df24-4ce8-9132-7c1fa0e7db6d","ios":"levelo://app?vid=b83f9c57-df24-4ce8-9132-7c1fa0e7db6d"},"vehicle_type_id":"4","last_reported":1728468568,"current_range_meters":24800,"station_id":"ce4bhe12rcd13ifvqf30","pricing_plan_id":"cebpf4jnsgd1na2vs0mg"},{"bike_id":"172d7a65-407e-4406-80eb-da146697498e","system_id":"levelo_inurba_marseille","lat":43.29797,"lon":5.38102,"is_reserved":false,"is_disabled":false,"rental_uris":{"android":"levelo://app?vid=172d7a65-407e-4406-80eb-da146697498e","ios":"levelo://app?vid=172d7a65-407e-4406-80eb-da146697498e"},"vehicle_type_id":"4","last_reported":1728468568,"current_range_meters":18000,"station_id":"ce4bgip2rcd13ifvqbb0","pricing_plan_id":"cebpf4jnsgd1na2vs0mg"},{"bike_id":"69fa54ee-d7b0-44af-8f8c-ab38e1602b94","system_id":"levelo_inurba_marseille","lat":43.25834,"lon":5.39437,"is_reserved":false,"is_disabled":false,"rental_uris":{"android":"levelo://app?vid=69fa54ee-d7b0-44af-8f8c-ab38e1602b94","ios":"levelo://app?vid=69fa54ee-d7b0-44af-8f8c-ab38e1602b94"},"vehicle_type_id":"4","last_reported":1728468568,"current_range_meters":37600,"station_id":"ce4bhip2rcd13ifvqft0","pricing_plan_id":"cebpf4jnsgd1na2vs0mg"},{"bike_id":"e72fa7c9-6357-4d3c-946f-994459110c8a","system_id":"levelo_inurba_marseille","lat":43.2749,"lon":5.42453,"is_reserved":false,"is_disabled":false,"rental_uris":{"android":"levelo://app?vid=e72fa7c9-6357-4d3c-946f-994459110c8a","ios":"levelo://app?vid=e72fa7c9-6357-4d3c-946f-994459110c8a"},"vehicle_type_id":"4","last_reported":1728468568,"current_range_meters":37600,"station_id":"ce4bhn92rcd13ifvqgrg","pricing_plan_id":"cebpf4jnsgd1na2vs0mg"},{"bike_id":"2ed31331-8d4b-4cc9-a6d5-cb863be87dba","system_id":"levelo_inurba_marseille","lat":43.274986,"lon":5.424511,"is_reserved":false,"is_disabled":false,"rental_uris":{"android":"levelo://app?vid=2ed31331-8d4b-4cc9-a6d5-cb863be87dba","ios":"levelo://app?vid=2ed31331-8d4b-4cc9-a6d5-cb863be87dba"},"vehicle_type_id":"4","last_reported":1728468568,"current_range_meters":39200,"station_id":"ce4bhn92rcd13ifvqgrg","pricing_plan_id":"cebpf4jnsgd1na2vs0mg"},{"bike_id":"afe4f243-7565-4172-a4a9-25fcf4321014","system_id":"levelo_inurba_marseille","lat":43.33029,"lon":5.39038,"is_reserved":false,"is_disabled":false,"rental_uris":{"android":"levelo://app?vid=afe4f243-7565-4172-a4a9-25fcf4321014","ios":"levelo://app?vid=afe4f243-7565-4172-a4a9-25fcf4321014"},"vehicle_type_id":"4","last_reported":1728468568,"current_range_meters":17600,"station_id":"ce4bhr92rcd13ifvqhrg","pricing_plan_id":"cebpf4jnsgd1na2vs0mg"},{"bike_id":"0d3912f9-05a6-4f3d-8f5d-97844b2ca5f3","system_id":"levelo_inurba_marseille","lat":43.30607,"lon":5.37237,"is_reserved":false,"is_disabled":false,"rental_uris":{"android":"levelo://app?vid=0d3912f9-05a6-4f3d-8f5d-97844b2ca5f3","ios":"levelo://app?vid=0d3912f9-05a6-4f3d-8f5d-97844b2ca5f3"},"vehicle_type_id":"4","last_reported":1728468568,"current_range_meters":16000,"station_id":"ce4bgqh2rcd13ifvqc4g","pricing_plan_id":"cebpf4jnsgd1na2vs0mg"},{"bike_id":"9d0e75bf-b07f-4e50-a949-6eacbfcf162a","system_id":"levelo_inurba_marseille","lat":43.2467,"lon":5.38156,"is_reserved":false,"is_disabled":false,"rental_uris":{"android":"levelo://app?vid=9d0e75bf-b07f-4e50-a949-6eacbfcf162a","ios":"levelo://app?vid=9d0e75bf-b07f-4e50-a949-6eacbfcf162a"},"vehicle_type_id":"4","last_reported":1728468568,"current_range_meters":38000,"station_id":"ce4bhih2rcd13ifvqfr0","pricing_plan_id":"cebpf4jnsgd1na2vs0mg"},{"bike_id":"35ba4d1a-5c0b-4a5d-bfa0-3327d1ad3382","system_id":"levelo_inurba_marseille","lat":43.29732,"lon":5.3769,"is_reserved":false,"is_disabled":false,"rental_uris":{"android":"levelo://app?vid=35ba4d1a-5c0b-4a5d-bfa0-3327d1ad3382","ios":"levelo://app?vid=35ba4d1a-5c0b-4a5d-bfa0-3327d1ad3382"},"vehicle_type_id":"4","last_reported":1728468568,"current_range_meters":28400,"station_id":"ce4bgkh2rcd13ifvqbl0","pricing_plan_id":"cebpf4jnsgd1na2vs0mg"},{"bike_id":"03ab50e8-f08a-4560-84c0-8046061c1f13","system_id":"levelo_inurba_marseille","lat":43.33608,"lon":5.41038,"is_reserved":false,"is_disabled":false,"rental_uris":{"android":"levelo://app?vid=03ab50e8-f08a-4560-84c0-8046061c1f13","ios":"levelo://app?vid=03ab50e8-f08a-4560-84c0-8046061c1f13"},"vehicle_type_id":"4","last_reported":1728468568,"current_range_meters":9200,"station_id":"ce4bhqh2rcd13ifvqhmg","pricing_plan_id":"cebpf4jnsgd1na2vs0mg"},{"bike_id":"981417f7-3650-4686-9c01-f3fca65dc77f","system_id":"levelo_inurba_marseille","lat":43.2307,"lon":5.35493,"is_reserved":false,"is_disabled":false,"rental_uris":{"android":"levelo://app?vid=981417f7-3650-4686-9c01-f3fca65dc77f","ios":"levelo://app?vid=981417f7-3650-4686-9c01-f3fca65dc77f"},"vehicle_type_id":"4","last_reported":1728468568,"current_range_meters":19200,"station_id":"cpo3342slgdg3j2ifvpg","pricing_plan_id":"cebpf4jnsgd1na2vs0mg"},{"bike_id":"0ab5738b-5a35-4459-b2df-399756fbd98c","system_id":"levelo_inurba_marseille","lat":43.31171,"lon":5.38724,"is_reserved":false,"is_disabled":false,"rental_uris":{"android":"levelo://app?vid=0ab5738b-5a35-4459-b2df-399756fbd98c","ios":"levelo://app?vid=0ab5738b-5a35-4459-b2df-399756fbd98c"},"vehicle_type_id":"4","last_reported":1728468568,"current_range_meters":6000,"station_id":"ce4bgv12rcd13ifvqcp0","pricing_plan_id":"cebpf4jnsgd1na2vs0mg"},{"bike_id":"a7fc21fc-96fb-4603-843c-267888a20c03","system_id":"levelo_inurba_marseille","lat":43.30546,"lon":5.36703,"is_reserved":false,"is_disabled":false,"rental_uris":{"android":"levelo://app?vid=a7fc21fc-96fb-4603-843c-267888a20c03","ios":"levelo://app?vid=a7fc21fc-96fb-4603-843c-267888a20c03"},"vehicle_type_id":"4","last_reported":1728468568,"current_range_meters":39200,"station_id":"ce4bgrp2rcd13ifvqc9g","pricing_plan_id":"cebpf4jnsgd1na2vs0mg"},{"bike_id":"f9e7c5dc-3b1b-4fee-b228-8d5ba4607e6f","system_id":"levelo_inurba_marseille","lat":43.2992,"lon":5.37476,"is_reserved":false,"is_disabled":false,"rental_uris":{"android":"levelo://app?vid=f9e7c5dc-3b1b-4fee-b228-8d5ba4607e6f","ios":"levelo://app?vid=f9e7c5dc-3b1b-4fee-b228-8d5ba4607e6f"},"vehicle_type_id":"4","last_reported":1728468568,"current_range_meters":16800,"station_id":"ce4bgjh2rcd13ifvqbg0","pricing_plan_id":"cebpf4jnsgd1na2vs0mg"},{"bike_id":"ede68b2f-f53f-4ad5-a3f5-950bc936b5eb","system_id":"levelo_inurba_marseille","lat":43.33765,"lon":5.37435,"is_reserved":false,"is_disabled":false,"rental_uris":{"android":"levelo://app?vid=ede68b2f-f53f-4ad5-a3f5-950bc936b5eb","ios":"levelo://app?vid=ede68b2f-f53f-4ad5-a3f5-950bc936b5eb"},"vehicle_type_id":"4","last_reported":1728468568,"current_range_meters":34800,"station_id":"","pricing_plan_id":"cebpf4jnsgd1na2vs0mg"},{"bike_id":"6713b4eb-a1a3-4451-b704-591eca0f8b5a","system_id":"levelo_inurba_marseille","lat":43.28155,"lon":5.4264,"is_reserved":false,"is_disabled":false,"rental_uris":{"android":"levelo://app?vid=6713b4eb-a1a3-4451-b704-591eca0f8b5a","ios":"levelo://app?vid=6713b4eb-a1a3-4451-b704-591eca0f8b5a"},"vehicle_type_id":"4","last_reported":1728468568,"current_range_meters":27600,"station_id":"ce4bhnh2rcd13ifvqgug","pricing_plan_id":"cebpf4jnsgd1na2vs0mg"},{"bike_id":"5d19a48f-4ecb-4a04-8593-e3ad4a8266a2","system_id":"levelo_inurba_marseille","lat":43.29846,"lon":5.36272,"is_reserved":false,"is_disabled":false,"rental_uris":{"android":"levelo://app?vid=5d19a48f-4ecb-4a04-8593-e3ad4a8266a2","ios":"levelo://app?vid=5d19a48f-4ecb-4a04-8593-e3ad4a8266a2"},"vehicle_type_id":"4","last_reported":1728468568,"current_range_meters":38000,"station_id":"ce4bgpp2rcd13ifvqc3g","pricing_plan_id":"cebpf4jnsgd1na2vs0mg"},{"bike_id":"184199c8-8231-4c86-a506-b4ac13f31919","system_id":"levelo_inurba_marseille","lat":43.29637,"lon":5.40589,"is_reserved":false,"is_disabled":false,"rental_uris":{"android":"levelo://app?vid=184199c8-8231-4c86-a506-b4ac13f31919","ios":"levelo://app?vid=184199c8-8231-4c86-a506-b4ac13f31919"},"vehicle_type_id":"4","last_reported":1728468568,"current_range_meters":23200,"station_id":"ce4bh0h2rcd13ifvqd60","pricing_plan_id":"cebpf4jnsgd1na2vs0mg"},{"bike_id":"e302c9e8-c83d-489d-916e-90bbbfdd581b","system_id":"levelo_inurba_marseille","lat":43.25937,"lon":5.40912,"is_reserved":false,"is_disabled":false,"rental_uris":{"android":"levelo://app?vid=e302c9e8-c83d-489d-916e-90bbbfdd581b","ios":"levelo://app?vid=e302c9e8-c83d-489d-916e-90bbbfdd581b"},"vehicle_type_id":"4","last_reported":1728468568,"current_range_meters":38800,"station_id":"ce4bhm92rcd13ifvqglg","pricing_plan_id":"cebpf4jnsgd1na2vs0mg"},{"bike_id":"6cf4c7b7-ea8a-449b-91fc-dc63ed356073","system_id":"levelo_inurba_marseille","lat":43.29296,"lon":5.37449,"is_reserved":false,"is_disabled":false,"rental_uris":{"android":"levelo://app?vid=6cf4c7b7-ea8a-449b-91fc-dc63ed356073","ios":"levelo://app?vid=6cf4c7b7-ea8a-449b-91fc-dc63ed356073"},"vehicle_type_id":"4","last_reported":1728468568,"current_range_meters":38800,"station_id":"ce4bgi12rcd13ifvqb70","pricing_plan_id":"cebpf4jnsgd1na2vs0mg"},{"bike_id":"fb56abde-916f-4270-886b-f264464a7c0d","system_id":"levelo_inurba_marseille","lat":43.29902,"lon":5.43668,"is_reserved":false,"is_disabled":false,"rental_uris":{"android":"levelo://app?vid=fb56abde-916f-4270-886b-f264464a7c0d","ios":"levelo://app?vid=fb56abde-916f-4270-886b-f264464a7c0d"},"vehicle_type_id":"4","last_reported":1728468568,"current_range_meters":38000,"station_id":"ce4bhpp2rcd13ifvqhfg","pricing_plan_id":"cebpf4jnsgd1na2vs0mg"},{"bike_id":"b4cdd3cc-cc3c-48ad-ac9d-4120e6f711f5","system_id":"levelo_inurba_marseille","lat":43.30154,"lon":5.38082,"is_reserved":false,"is_disabled":false,"rental_uris":{"android":"levelo://app?vid=b4cdd3cc-cc3c-48ad-ac9d-4120e6f711f5","ios":"levelo://app?vid=b4cdd3cc-cc3c-48ad-ac9d-4120e6f711f5"},"vehicle_type_id":"4","last_reported":1728468568,"current_range_meters":21600,"station_id":"ce4bgjp2rcd13ifvqbh0","pricing_plan_id":"cebpf4jnsgd1na2vs0mg"},{"bike_id":"acc85f39-3b29-4d55-ac95-b906b13e8eef","system_id":"levelo_inurba_marseille","lat":43.30559,"lon":5.36539,"is_reserved":false,"is_disabled":false,"rental_uris":{"android":"levelo://app?vid=acc85f39-3b29-4d55-ac95-b906b13e8eef","ios":"levelo://app?vid=acc85f39-3b29-4d55-ac95-b906b13e8eef"},"vehicle_type_id":"4","last_reported":1728468568,"current_range_meters":38800,"station_id":"ce4bgs12rcd13ifvqcag","pricing_plan_id":"cebpf4jnsgd1na2vs0mg"},{"bike_id":"3b824c89-cf15-4e04-8271-2c0fef868aed","system_id":"levelo_inurba_marseille","lat":43.30547,"lon":5.36535,"is_reserved":false,"is_disabled":false,"rental_uris":{"android":"levelo://app?vid=3b824c89-cf15-4e04-8271-2c0fef868aed","ios":"levelo://app?vid=3b824c89-cf15-4e04-8271-2c0fef868aed"},"vehicle_type_id":"4","last_reported":1728468568,"current_range_meters":22400,"station_id":"ce4bgs12rcd13ifvqcag","pricing_plan_id":"cebpf4jnsgd1na2vs0mg"},{"bike_id":"810b32d6-b30c-480b-a6ee-5bd54d112eb8","system_id":"levelo_inurba_marseille","lat":43.33749,"lon":5.37442,"is_reserved":false,"is_disabled":false,"rental_uris":{"android":"levelo://app?vid=810b32d6-b30c-480b-a6ee-5bd54d112eb8","ios":"levelo://app?vid=810b32d6-b30c-480b-a6ee-5bd54d112eb8"},"vehicle_type_id":"4","last_reported":1728468568,"current_range_meters":28400,"station_id":"ce4rr2p2rcd13i802rgg","pricing_plan_id":"cebpf4jnsgd1na2vs0mg"},{"bike_id":"8861f134-d04e-40da-9b89-734d2d55f591","system_id":"levelo_inurba_marseille","lat":43.30924,"lon":5.40142,"is_reserved":false,"is_disabled":false,"rental_uris":{"android":"levelo://app?vid=8861f134-d04e-40da-9b89-734d2d55f591","ios":"levelo://app?vid=8861f134-d04e-40da-9b89-734d2d55f591"},"vehicle_type_id":"4","last_reported":1728468568,"current_range_meters":12800,"station_id":"ce4bh092rcd13ifvqd20","pricing_plan_id":"cebpf4jnsgd1na2vs0mg"},{"bike_id":"131dc033-13a9-49c8-bf85-2f51c5628f4e","system_id":"levelo_inurba_marseille","lat":43.28158,"lon":5.42635,"is_reserved":false,"is_disabled":false,"rental_uris":{"android":"levelo://app?vid=131dc033-13a9-49c8-bf85-2f51c5628f4e","ios":"levelo://app?vid=131dc033-13a9-49c8-bf85-2f51c5628f4e"},"vehicle_type_id":"4","last_reported":1728468568,"current_range_meters":37600,"station_id":"ce4bhnh2rcd13ifvqgug","pricing_plan_id":"cebpf4jnsgd1na2vs0mg"},{"bike_id":"e52f95eb-5e09-4eca-9f90-09f4f2f8616d","system_id":"levelo_inurba_marseille","lat":43.29907,"lon":5.38142,"is_reserved":false,"is_disabled":false,"rental_uris":{"android":"levelo://app?vid=e52f95eb-5e09-4eca-9f90-09f4f2f8616d","ios":"levelo://app?vid=e52f95eb-5e09-4eca-9f90-09f4f2f8616d"},"vehicle_type_id":"4","last_reported":1728468568,"current_range_meters":15200,"station_id":"ce4bgj12rcd13ifvqbc0","pricing_plan_id":"cebpf4jnsgd1na2vs0mg"},{"bike_id":"566f124d-d2dc-44d6-baaa-cd99b0a92098","system_id":"levelo_inurba_marseille","lat":43.23149,"lon":5.43717,"is_reserved":false,"is_disabled":false,"rental_uris":{"android":"levelo://app?vid=566f124d-d2dc-44d6-baaa-cd99b0a92098","ios":"levelo://app?vid=566f124d-d2dc-44d6-baaa-cd99b0a92098"},"vehicle_type_id":"4","last_reported":1728468568,"current_range_meters":38800,"station_id":"ce4bhmp2rcd13ifvqgog","pricing_plan_id":"cebpf4jnsgd1na2vs0mg"},{"bike_id":"909b693f-c27a-4061-8aad-d890caa1fb05","system_id":"levelo_inurba_marseille","lat":43.30533,"lon":5.36706,"is_reserved":false,"is_disabled":false,"rental_uris":{"android":"levelo://app?vid=909b693f-c27a-4061-8aad-d890caa1fb05","ios":"levelo://app?vid=909b693f-c27a-4061-8aad-d890caa1fb05"},"vehicle_type_id":"4","last_reported":1728468568,"current_range_meters":30400,"station_id":"ce4bgrp2rcd13ifvqc9g","pricing_plan_id":"cebpf4jnsgd1na2vs0mg"},{"bike_id":"b7f49b05-5d71-44d0-b1a9-4f91f809b61f","system_id":"levelo_inurba_marseille","lat":43.30571,"lon":5.36544,"is_reserved":false,"is_disabled":false,"rental_uris":{"android":"levelo://app?vid=b7f49b05-5d71-44d0-b1a9-4f91f809b61f","ios":"levelo://app?vid=b7f49b05-5d71-44d0-b1a9-4f91f809b61f"},"vehicle_type_id":"4","last_reported":1728468568,"current_range_meters":26000,"station_id":"ce4bgs12rcd13ifvqcag","pricing_plan_id":"cebpf4jnsgd1na2vs0mg"},{"bike_id":"92f0f563-ea16-4c02-b287-b0ed88c8eb9d","system_id":"levelo_inurba_marseille","lat":43.26685,"lon":5.38259,"is_reserved":false,"is_disabled":false,"rental_uris":{"android":"levelo://app?vid=92f0f563-ea16-4c02-b287-b0ed88c8eb9d","ios":"levelo://app?vid=92f0f563-ea16-4c02-b287-b0ed88c8eb9d"},"vehicle_type_id":"4","last_reported":1728468568,"current_range_meters":40000,"station_id":"ce4bhg92rcd13ifvqf90","pricing_plan_id":"cebpf4jnsgd1na2vs0mg"},{"bike_id":"82a18fc1-88b8-4667-95f7-2f97f9704a3c","system_id":"levelo_inurba_marseille","lat":43.33771,"lon":5.37453,"is_reserved":false,"is_disabled":false,"rental_uris":{"android":"levelo://app?vid=82a18fc1-88b8-4667-95f7-2f97f9704a3c","ios":"levelo://app?vid=82a18fc1-88b8-4667-95f7-2f97f9704a3c"},"vehicle_type_id":"4","last_reported":1728468568,"current_range_meters":38000,"station_id":"","pricing_plan_id":"cebpf4jnsgd1na2vs0mg"},{"bike_id":"e3a82d8f-2188-4152-b040-5b5cb1d61e46","system_id":"levelo_inurba_marseille","lat":43.3055,"lon":5.36536,"is_reserved":false,"is_disabled":false,"rental_uris":{"android":"levelo://app?vid=e3a82d8f-2188-4152-b040-5b5cb1d61e46","ios":"levelo://app?vid=e3a82d8f-2188-4152-b040-5b5cb1d61e46"},"vehicle_type_id":"4","last_reported":1728468568,"current_range_meters":38000,"station_id":"ce4bgs12rcd13ifvqcag","pricing_plan_id":"cebpf4jnsgd1na2vs0mg"},{"bike_id":"e1a5c79b-b669-4f11-8eb4-af5513c136c6","system_id":"levelo_inurba_marseille","lat":43.30287,"lon":5.37698,"is_reserved":false,"is_disabled":false,"rental_uris":{"android":"levelo://app?vid=e1a5c79b-b669-4f11-8eb4-af5513c136c6","ios":"levelo://app?vid=e1a5c79b-b669-4f11-8eb4-af5513c136c6"},"vehicle_type_id":"4","last_reported":1728468568,"current_range_meters":36400,"station_id":"ce4bguh2rcd13ifvqcj0","pricing_plan_id":"cebpf4jnsgd1na2vs0mg"},{"bike_id":"cc1d202b-5d65-40e5-bf96-176d1dac001e","system_id":"levelo_inurba_marseille","lat":43.337267,"lon":5.391877,"is_reserved":false,"is_disabled":false,"rental_uris":{"android":"levelo://app?vid=cc1d202b-5d65-40e5-bf96-176d1dac001e","ios":"levelo://app?vid=cc1d202b-5d65-40e5-bf96-176d1dac001e"},"vehicle_type_id":"4","last_reported":1728468568,"current_range_meters":33200,"station_id":"ce4bhr92rcd13ifvqhsg","pricing_plan_id":"cebpf4jnsgd1na2vs0mg"},{"bike_id":"88cdc93c-f640-4875-91b5-ff13536f115b","system_id":"levelo_inurba_marseille","lat":43.2903,"lon":5.37551,"is_reserved":false,"is_disabled":false,"rental_uris":{"android":"levelo://app?vid=88cdc93c-f640-4875-91b5-ff13536f115b","ios":"levelo://app?vid=88cdc93c-f640-4875-91b5-ff13536f115b"},"vehicle_type_id":"4","last_reported":1728468568,"current_range_meters":38800,"station_id":"ce4bh692rcd13ifvqe90","pricing_plan_id":"cebpf4jnsgd1na2vs0mg"},{"bike_id":"c816d041-3cd9-48cf-82c7-ab2b9d9f6bb4","system_id":"levelo_inurba_marseille","lat":43.29802,"lon":5.38089,"is_reserved":false,"is_disabled":false,"rental_uris":{"android":"levelo://app?vid=c816d041-3cd9-48cf-82c7-ab2b9d9f6bb4","ios":"levelo://app?vid=c816d041-3cd9-48cf-82c7-ab2b9d9f6bb4"},"vehicle_type_id":"4","last_reported":1728468568,"current_range_meters":7200,"station_id":"ce4bgip2rcd13ifvqbb0","pricing_plan_id":"cebpf4jnsgd1na2vs0mg"},{"bike_id":"b1b914a9-f856-4695-a7db-27fdf5e5c15b","system_id":"levelo_inurba_marseille","lat":43.30545,"lon":5.36527,"is_reserved":false,"is_disabled":false,"rental_uris":{"android":"levelo://app?vid=b1b914a9-f856-4695-a7db-27fdf5e5c15b","ios":"levelo://app?vid=b1b914a9-f856-4695-a7db-27fdf5e5c15b"},"vehicle_type_id":"4","last_reported":1728468568,"current_range_meters":11600,"station_id":"ce4bgs12rcd13ifvqcag","pricing_plan_id":"cebpf4jnsgd1na2vs0mg"},{"bike_id":"ae34953c-471d-45a0-a84a-a16db6392d67","system_id":"levelo_inurba_marseille","lat":43.2668,"lon":5.3827,"is_reserved":false,"is_disabled":false,"rental_uris":{"android":"levelo://app?vid=ae34953c-471d-45a0-a84a-a16db6392d67","ios":"levelo://app?vid=ae34953c-471d-45a0-a84a-a16db6392d67"},"vehicle_type_id":"4","last_reported":1728468568,"current_range_meters":38800,"station_id":"ce4bhg92rcd13ifvqf90","pricing_plan_id":"cebpf4jnsgd1na2vs0mg"},{"bike_id":"f15a76ef-c61c-42c7-992f-281364013d6b","system_id":"levelo_inurba_marseille","lat":43.2558,"lon":5.38229,"is_reserved":false,"is_disabled":false,"rental_uris":{"android":"levelo://app?vid=f15a76ef-c61c-42c7-992f-281364013d6b","ios":"levelo://app?vid=f15a76ef-c61c-42c7-992f-281364013d6b"},"vehicle_type_id":"4","last_reported":1728468568,"current_range_meters":30400,"station_id":"ce4bhih2rcd13ifvqfs0","pricing_plan_id":"cebpf4jnsgd1na2vs0mg"},{"bike_id":"b90cd486-0698-4c5a-a490-56ef220678d9","system_id":"levelo_inurba_marseille","lat":43.30814,"lon":5.38147,"is_reserved":false,"is_disabled":false,"rental_uris":{"android":"levelo://app?vid=b90cd486-0698-4c5a-a490-56ef220678d9","ios":"levelo://app?vid=b90cd486-0698-4c5a-a490-56ef220678d9"},"vehicle_type_id":"4","last_reported":1728468568,"current_range_meters":38800,"station_id":"ce4bgt12rcd13ifvqce0","pricing_plan_id":"cebpf4jnsgd1na2vs0mg"},{"bike_id":"c731c9a4-84d9-4dc6-b624-c1917a2a1d26","system_id":"levelo_inurba_marseille","lat":43.27208,"lon":5.39178,"is_reserved":false,"is_disabled":false,"rental_uris":{"android":"levelo://app?vid=c731c9a4-84d9-4dc6-b624-c1917a2a1d26","ios":"levelo://app?vid=c731c9a4-84d9-4dc6-b624-c1917a2a1d26"},"vehicle_type_id":"4","last_reported":1728468568,"current_range_meters":38400,"station_id":"ce4bhhp2rcd13ifvqfm0","pricing_plan_id":"cebpf4jnsgd1na2vs0mg"},{"bike_id":"7c71dcef-3f86-4001-8899-aa819d3624e5","system_id":"levelo_inurba_marseille","lat":43.30783,"lon":5.37653,"is_reserved":false,"is_disabled":false,"rental_uris":{"android":"levelo://app?vid=7c71dcef-3f86-4001-8899-aa819d3624e5","ios":"levelo://app?vid=7c71dcef-3f86-4001-8899-aa819d3624e5"},"vehicle_type_id":"4","last_reported":1728468568,"current_range_meters":39200,"station_id":"ce4bgv92rcd13ifvqcq0","pricing_plan_id":"cebpf4jnsgd1na2vs0mg"},{"bike_id":"e8b91d1d-5331-4626-ba60-599d6ea26dd9","system_id":"levelo_inurba_marseille","lat":43.29228,"lon":5.36074,"is_reserved":false,"is_disabled":false,"rental_uris":{"android":"levelo://app?vid=e8b91d1d-5331-4626-ba60-599d6ea26dd9","ios":"levelo://app?vid=e8b91d1d-5331-4626-ba60-599d6ea26dd9"},"vehicle_type_id":"4","last_reported":1728468568,"current_range_meters":35200,"station_id":"ce4bhbh2rcd13ifvqeqg","pricing_plan_id":"cebpf4jnsgd1na2vs0mg"},{"bike_id":"4bfd4f11-2180-4493-9b1f-d5bd71700aac","system_id":"levelo_inurba_marseille","lat":43.33767,"lon":5.37448,"is_reserved":false,"is_disabled":false,"rental_uris":{"android":"levelo://app?vid=4bfd4f11-2180-4493-9b1f-d5bd71700aac","ios":"levelo://app?vid=4bfd4f11-2180-4493-9b1f-d5bd71700aac"},"vehicle_type_id":"4","last_reported":1728468568,"current_range_meters":36400,"station_id":"","pricing_plan_id":"cebpf4jnsgd1na2vs0mg"},{"bike_id":"3d1328e6-c786-40cc-9d86-76fb7f4b43e1","system_id":"levelo_inurba_marseille","lat":43.2972,"lon":5.37703,"is_reserved":false,"is_disabled":false,"rental_uris":{"android":"levelo://app?vid=3d1328e6-c786-40cc-9d86-76fb7f4b43e1","ios":"levelo://app?vid=3d1328e6-c786-40cc-9d86-76fb7f4b43e1"},"vehicle_type_id":"4","last_reported":1728468568,"current_range_meters":35600,"station_id":"ce4bgkh2rcd13ifvqbl0","pricing_plan_id":"cebpf4jnsgd1na2vs0mg"},{"bike_id":"494053de-ea3d-4a5d-bcf8-eb2ddc0d643e","system_id":"levelo_inurba_marseille","lat":43.24666,"lon":5.38154,"is_reserved":false,"is_disabled":false,"rental_uris":{"android":"levelo://app?vid=494053de-ea3d-4a5d-bcf8-eb2ddc0d643e","ios":"levelo://app?vid=494053de-ea3d-4a5d-bcf8-eb2ddc0d643e"},"vehicle_type_id":"4","last_reported":1728468568,"current_range_meters":28400,"station_id":"ce4bhih2rcd13ifvqfr0","pricing_plan_id":"cebpf4jnsgd1na2vs0mg"},{"bike_id":"4ba3a900-2ef3-4ce5-b88a-9ab9789120c1","system_id":"levelo_inurba_marseille","lat":43.30089,"lon":5.39076,"is_reserved":false,"is_disabled":false,"rental_uris":{"android":"levelo://app?vid=4ba3a900-2ef3-4ce5-b88a-9ab9789120c1","ios":"levelo://app?vid=4ba3a900-2ef3-4ce5-b88a-9ab9789120c1"},"vehicle_type_id":"4","last_reported":1728468568,"current_range_meters":26000,"station_id":"ce4bh0h2rcd13ifvqd40","pricing_plan_id":"cebpf4jnsgd1na2vs0mg"},{"bike_id":"0790ef70-6983-4cce-aab1-8c4e6a79b61e","system_id":"levelo_inurba_marseille","lat":43.26209,"lon":5.37446,"is_reserved":false,"is_disabled":false,"rental_uris":{"android":"levelo://app?vid=0790ef70-6983-4cce-aab1-8c4e6a79b61e","ios":"levelo://app?vid=0790ef70-6983-4cce-aab1-8c4e6a79b61e"},"vehicle_type_id":"4","last_reported":1728468568,"current_range_meters":30000,"station_id":"ce4bhgp2rcd13ifvqfc0","pricing_plan_id":"cebpf4jnsgd1na2vs0mg"},{"bike_id":"6e8c8cbf-845b-47fc-9626-2d8b3d922025","system_id":"levelo_inurba_marseille","lat":43.22932,"lon":5.35374,"is_reserved":false,"is_disabled":false,"rental_uris":{"android":"levelo://app?vid=6e8c8cbf-845b-47fc-9626-2d8b3d922025","ios":"levelo://app?vid=6e8c8cbf-845b-47fc-9626-2d8b3d922025"},"vehicle_type_id":"4","last_reported":1728468568,"current_range_meters":20400,"station_id":"cpo3532slgdg3j2ikp40","pricing_plan_id":"cebpf4jnsgd1na2vs0mg"},{"bike_id":"2216f227-f5f8-4ef3-9ae7-65a6414dbb5e","system_id":"levelo_inurba_marseille","lat":43.30093,"lon":5.39094,"is_reserved":false,"is_disabled":false,"rental_uris":{"android":"levelo://app?vid=2216f227-f5f8-4ef3-9ae7-65a6414dbb5e","ios":"levelo://app?vid=2216f227-f5f8-4ef3-9ae7-65a6414dbb5e"},"vehicle_type_id":"4","last_reported":1728468568,"current_range_meters":39200,"station_id":"ce4bh192rcd13ifvqdb0","pricing_plan_id":"cebpf4jnsgd1na2vs0mg"},{"bike_id":"5b7c1b64-2180-4349-a949-460f6aba1aeb","system_id":"levelo_inurba_marseille","lat":43.26682,"lon":5.38263,"is_reserved":false,"is_disabled":false,"rental_uris":{"android":"levelo://app?vid=5b7c1b64-2180-4349-a949-460f6aba1aeb","ios":"levelo://app?vid=5b7c1b64-2180-4349-a949-460f6aba1aeb"},"vehicle_type_id":"4","last_reported":1728468568,"current_range_meters":38000,"station_id":"ce4bhg92rcd13ifvqf90","pricing_plan_id":"cebpf4jnsgd1na2vs0mg"},{"bike_id":"d36afd29-050a-4133-98b5-04436a543286","system_id":"levelo_inurba_marseille","lat":43.3054,"lon":5.36545,"is_reserved":false,"is_disabled":false,"rental_uris":{"android":"levelo://app?vid=d36afd29-050a-4133-98b5-04436a543286","ios":"levelo://app?vid=d36afd29-050a-4133-98b5-04436a543286"},"vehicle_type_id":"4","last_reported":1728468568,"current_range_meters":33200,"station_id":"ce4bgs12rcd13ifvqcag","pricing_plan_id":"cebpf4jnsgd1na2vs0mg"},{"bike_id":"17a8bce2-8092-4a02-a5fe-2618786988fd","system_id":"levelo_inurba_marseille","lat":43.27499,"lon":5.42454,"is_reserved":false,"is_disabled":false,"rental_uris":{"android":"levelo://app?vid=17a8bce2-8092-4a02-a5fe-2618786988fd","ios":"levelo://app?vid=17a8bce2-8092-4a02-a5fe-2618786988fd"},"vehicle_type_id":"4","last_reported":1728468568,"current_range_meters":24800,"station_id":"ce4bhn92rcd13ifvqgrg","pricing_plan_id":"cebpf4jnsgd1na2vs0mg"},{"bike_id":"549c60b7-e80a-465c-9929-5897ccbe828d","system_id":"levelo_inurba_marseille","lat":43.23155,"lon":5.43728,"is_reserved":false,"is_disabled":false,"rental_uris":{"android":"levelo://app?vid=549c60b7-e80a-465c-9929-5897ccbe828d","ios":"levelo://app?vid=549c60b7-e80a-465c-9929-5897ccbe828d"},"vehicle_type_id":"4","last_reported":1728468568,"current_range_meters":37600,"station_id":"ce4bhmp2rcd13ifvqgog","pricing_plan_id":"cebpf4jnsgd1na2vs0mg"},{"bike_id":"2b143dcd-abbf-48d2-8316-43c915e5fdc3","system_id":"levelo_inurba_marseille","lat":43.25107,"lon":5.40328,"is_reserved":false,"is_disabled":false,"rental_uris":{"android":"levelo://app?vid=2b143dcd-abbf-48d2-8316-43c915e5fdc3","ios":"levelo://app?vid=2b143dcd-abbf-48d2-8316-43c915e5fdc3"},"vehicle_type_id":"4","last_reported":1728468568,"current_range_meters":10800,"station_id":"ce4bhlh2rcd13ifvqgig","pricing_plan_id":"cebpf4jnsgd1na2vs0mg"},{"bike_id":"35267d1e-d654-4092-b14a-276419e4671c","system_id":"levelo_inurba_marseille","lat":43.29797,"lon":5.38124,"is_reserved":false,"is_disabled":false,"rental_uris":{"android":"levelo://app?vid=35267d1e-d654-4092-b14a-276419e4671c","ios":"levelo://app?vid=35267d1e-d654-4092-b14a-276419e4671c"},"vehicle_type_id":"4","last_reported":1728468568,"current_range_meters":28800,"station_id":"ce4bgip2rcd13ifvqbb0","pricing_plan_id":"cebpf4jnsgd1na2vs0mg"},{"bike_id":"26859908-2269-46c8-8f3a-04b0ae99274e","system_id":"levelo_inurba_marseille","lat":43.231506,"lon":5.43702,"is_reserved":false,"is_disabled":false,"rental_uris":{"android":"levelo://app?vid=26859908-2269-46c8-8f3a-04b0ae99274e","ios":"levelo://app?vid=26859908-2269-46c8-8f3a-04b0ae99274e"},"vehicle_type_id":"4","last_reported":1728468568,"current_range_meters":38800,"station_id":"ce4bhmp2rcd13ifvqgog","pricing_plan_id":"cebpf4jnsgd1na2vs0mg"},{"bike_id":"2ec7adbb-78a5-4abe-9a3e-a3a1e23dbcdf","system_id":"levelo_inurba_marseille","lat":43.28455,"lon":5.35884,"is_reserved":false,"is_disabled":false,"rental_uris":{"android":"levelo://app?vid=2ec7adbb-78a5-4abe-9a3e-a3a1e23dbcdf","ios":"levelo://app?vid=2ec7adbb-78a5-4abe-9a3e-a3a1e23dbcdf"},"vehicle_type_id":"4","last_reported":1728468568,"current_range_meters":9200,"station_id":"ce4bhah2rcd13ifvqei0","pricing_plan_id":"cebpf4jnsgd1na2vs0mg"},{"bike_id":"8516b661-e321-4b01-be1d-47df541b9362","system_id":"levelo_inurba_marseille","lat":43.29572,"lon":5.3999,"is_reserved":false,"is_disabled":false,"rental_uris":{"android":"levelo://app?vid=8516b661-e321-4b01-be1d-47df541b9362","ios":"levelo://app?vid=8516b661-e321-4b01-be1d-47df541b9362"},"vehicle_type_id":"4","last_reported":1728468568,"current_range_meters":12000,"station_id":"ce4bh312rcd13ifvqdj0","pricing_plan_id":"cebpf4jnsgd1na2vs0mg"},{"bike_id":"ca43f29b-fdb5-4a9c-81ce-43c53dce44ed","system_id":"levelo_inurba_marseille","lat":43.23963,"lon":5.36634,"is_reserved":false,"is_disabled":false,"rental_uris":{"android":"levelo://app?vid=ca43f29b-fdb5-4a9c-81ce-43c53dce44ed","ios":"levelo://app?vid=ca43f29b-fdb5-4a9c-81ce-43c53dce44ed"},"vehicle_type_id":"4","last_reported":1728468568,"current_range_meters":29600,"station_id":"ce4bhi12rcd13ifvqfp0","pricing_plan_id":"cebpf4jnsgd1na2vs0mg"},{"bike_id":"90f05bdb-17fb-4c7f-bd17-fbeba211b36b","system_id":"levelo_inurba_marseille","lat":43.300293,"lon":5.389196,"is_reserved":false,"is_disabled":false,"rental_uris":{"android":"levelo://app?vid=90f05bdb-17fb-4c7f-bd17-fbeba211b36b","ios":"levelo://app?vid=90f05bdb-17fb-4c7f-bd17-fbeba211b36b"},"vehicle_type_id":"4","last_reported":1728468568,"current_range_meters":29600,"station_id":"ce4bh192rcd13ifvqdb0","pricing_plan_id":"cebpf4jnsgd1na2vs0mg"},{"bike_id":"e1ce8e46-7d9b-4baa-ba7a-50300f774846","system_id":"levelo_inurba_marseille","lat":43.33026,"lon":5.39041,"is_reserved":false,"is_disabled":false,"rental_uris":{"android":"levelo://app?vid=e1ce8e46-7d9b-4baa-ba7a-50300f774846","ios":"levelo://app?vid=e1ce8e46-7d9b-4baa-ba7a-50300f774846"},"vehicle_type_id":"4","last_reported":1728468568,"current_range_meters":30400,"station_id":"ce4bhr92rcd13ifvqhrg","pricing_plan_id":"cebpf4jnsgd1na2vs0mg"},