{"last_updated":1736964739,"ttl":60,"version":"2.2","data":{"bikes":[{"bike_id":"8950994e-141b-4c16-ae82-ef1e6827f7d4","system_id":"levelo_inurba_marseille","lat":43.27816,"lon":5.40722,"is_reserved":false,"is_disabled":false,"rental_uris":{"android":"levelo://app?vid=8950994e-141b-4c16-ae82-ef1e6827f7d4","ios":"levelo://app?vid=8950994e-141b-4c16-ae82-ef1e6827f7d4"},"vehicle_type_id":"4","last_reported":1736964739,"current_range_meters":4400,"station_id":"ce4bhnh2rcd13ifvqgtg","pricing_plan_id":"cebpf4jnsgd1na2vs0mg"},{"bike_id":"b168d2ff-87d7-4df0-8845-63c305e1450d","system_id":"levelo_inurba_marseille","lat":43.30809,"lon":5.38145,"is_reserved":false,"is_disabled":false,"rental_uris":{"android":"levelo://app?vid=b168d2ff-87d7-4df0-8845-63c305e1450d","ios":"levelo://app?vid=b168d2ff-87d7-4df0-8845-63c305e1450d"},"vehicle_type_id":"4","last_reported":1736964739,"current_range_meters":38800,"station_id":"ce4bgt12rcd13ifvqce0","pricing_plan_id":"cebpf4jnsgd1na2vs0mg"},{"bike_id":"9172b920-b7e0-40a8-87de-54f99300adbf","system_id":"levelo_inurba_marseille","lat":43.27686,"lon":5.38872,"is_reserved":false,"is_disabled":false,"rental_uris":{"android":"levelo://app?vid=9172b920-b7e0-40a8-87de-54f99300adbf","ios":"levelo://app?vid=9172b920-b7e0-40a8-87de-54f99300adbf"},"vehicle_type_id":"4","last_reported":1736964739,"current_range_meters":33200,"station_id":"ce4bhi12rcd13ifvqfo0","pricing_plan_id":"cebpf4jnsgd1na2vs0mg"},{"bike_id":"f3ad909e-5298-4e1c-b615-b28684ff798b","system_id":"levelo_inurba_marseille","lat":43.27996,"lon":5.4168,"is_reserved":false,"is_disabled":false,"rental_uris":{"android":"levelo://app?vid=f3ad909e-5298-4e1c-b615-b28684ff798b","ios":"levelo://app?vid=f3ad909e-5298-4e1c-b615-b28684ff798b"},"vehicle_type_id":"4","last_reported":1736964739,"current_range_meters":21600,"station_id":"ce4bho12rcd13ifvqh1g","pricing_plan_id":"cebpf4jnsgd1na2vs0mg"},{"bike_id":"5998d888-865a-4b48-a792-69504d5b3c8b","system_id":"levelo_inurba_marseille","lat":43.26063,"lon":5.394,"is_reserved":false,"is_disabled":false,"rental_uris":{"android":"levelo://app?vid=5998d888-865a-4b48-a792-69504d5b3c8b","ios":"levelo://app?vid=5998d888-865a-4b48-a792-69504d5b3c8b"},"vehicle_type_id":"4","last_reported":1736964739,"current_range_meters":8400,"station_id":"ce4bhh92rcd13ifvqfj0","pricing_plan_id":"cebpf4jnsgd1na2vs0mg"},{"bike_id":"b80161e1-2168-4ade-a2d2-f1956561ac66","system_id":"levelo_inurba_marseille","lat":43.25906,"lon":5.39938,"is_reserved":false,"is_disabled":false,"rental_uris":{"android":"levelo://app?vid=b80161e1-2168-4ade-a2d2-f1956561ac66","ios":"levelo://app?vid=b80161e1-2168-4ade-a2d2-f1956561ac66"},"vehicle_type_id":"4","last_reported":1736964739,"current_range_meters":36400,"station_id":"","pricing_plan_id":"cebpf4jnsgd1na2vs0mg"},{"bike_id":"685f733f-87d4-4db3-a7cc-1855411df022","system_id":"levelo_inurba_marseille","lat":43.31383,"lon":5.38559,"is_reserved":false,"is_disabled":false,"rental_uris":{"android":"levelo://app?vid=685f733f-87d4-4db3-a7cc-1855411df022","ios":"levelo://app?vid=685f733f-87d4-4db3-a7cc-1855411df022"},"vehicle_type_id":"4","last_reported":1736964739,"current_range_meters":36400,"station_id":"","pricing_plan_id":"cebpf4jnsgd1na2vs0mg"},{"bike_id":"7fcd2051-aca5-414a-82ff-0cdb2e8bed0c","system_id":"levelo_inurba_marseille","lat":43.27575,"lon":5.38407,"is_reserved":false,"is_disabled":false,"rental_uris":{"android":"levelo://app?vid=7fcd2051-aca5-414a-82ff-0cdb2e8bed0c","ios":"levelo://app?vid=7fcd2051-aca5-414a-82ff-0cdb2e8bed0c"},"vehicle_type_id":"4","last_reported":1736964739,"current_range_meters":29600,"station_id":"ce4bhh92rcd13ifvqfi0","pricing_plan_id":"cebpf4jnsgd1na2vs0mg"},{"bike_id":"4fa358ca-b741-467a-a03f-b8033021b471","system_id":"levelo_inurba_marseille","lat":43.337571,"lon":5.374567,"is_reserved":false,"is_disabled":false,"rental_uris":{"android":"levelo://app?vid=4fa358ca-b741-467a-a03f-b8033021b471","ios":"levelo://app?vid=4fa358ca-b741-467a-a03f-b8033021b471"},"vehicle_type_id":"4","last_reported":1736964739,"current_range_meters":36000,"station_id":"","pricing_plan_id":"cebpf4jnsgd1na2vs0mg"},{"bike_id":"5db5f749-55d7-4666-b989-2cc4222957b1","system_id":"levelo_inurba_marseille","lat":43.28426,"lon":5.39198,"is_reserved":false,"is_disabled":true,"rental_uris":{"android":"levelo://app?vid=5db5f749-55d7-4666-b989-2cc4222957b1","ios":"levelo://app?vid=5db5f749-55d7-4666-b989-2cc4222957b1"},"vehicle_type_id":"4","last_reported":1736964739,"current_range_meters":23200,"station_id":"ce4bhoh2rcd13ifvqh5g","pricing_plan_id":"cebpf4jnsgd1na2vs0mg"},{"bike_id":"2b2cb29b-656b-412b-b107-6e49fdf15518","system_id":"levelo_inurba_marseille","lat":43.27493,"lon":5.42465,"is_reserved":false,"is_disabled":true,"rental_uris":{"android":"levelo://app?vid=2b2cb29b-656b-412b-b107-6e49fdf15518","ios":"levelo://app?vid=2b2cb29b-656b-412b-b107-6e49fdf15518"},"vehicle_type_id":"4","last_reported":1736964739,"current_range_meters":0,"station_id":"ce4bhn92rcd13ifvqgrg","pricing_plan_id":"cebpf4jnsgd1na2vs0mg"},{"bike_id":"45e47a0c-7fe1-42c5-89b1-0f84d6cbf0bd","system_id":"levelo_inurba_marseille","lat":43.28405,"lon":5.37561,"is_reserved":false,"is_disabled":false,"rental_uris":{"android":"levelo://app?vid=45e47a0c-7fe1-42c5-89b1-0f84d6cbf0bd","ios":"levelo://app?vid=45e47a0c-7fe1-42c5-89b1-0f84d6cbf0bd"},"vehicle_type_id":"4","last_reported":1736964739,"current_range_meters":14000,"station_id":"ce4bh412rcd13ifvqds0","pricing_plan_id":"cebpf4jnsgd1na2vs0mg"},{"bike_id":"4b2cb29f-d776-404a-936e-dbc02708aca0","system_id":"levelo_inurba_marseille","lat":43.30797,"lon":5.38153,"is_reserved":false,"is_disabled":false,"rental_uris":{"android":"levelo://app?vid=4b2cb29f-d776-404a-936e-dbc02708aca0","ios":"levelo://app?vid=4b2cb29f-d776-404a-936e-dbc02708aca0"},"vehicle_type_id":"4","last_reported":1736964739,"current_range_meters":36000,"station_id":"ce4bgt12rcd13ifvqce0","pricing_plan_id":"cebpf4jnsgd1na2vs0mg"},{"bike_id":"e815a81b-bac9-44d8-927b-cad09d4c7319","system_id":"levelo_inurba_marseille","lat":43.27818,"lon":5.4072,"is_reserved":false,"is_disabled":false,"rental_uris":{"android":"levelo://app?vid=e815a81b-bac9-44d8-927b-cad09d4c7319","ios":"levelo://app?vid=e815a81b-bac9-44d8-927b-cad09d4c7319"},"vehicle_type_id":"4","last_reported":1736964739,"current_range_meters":5600,"station_id":"ce4bhnh2rcd13ifvqgtg","pricing_plan_id":"cebpf4jnsgd1na2vs0mg"},{"bike_id":"ccbd796f-0853-4438-83a6-7ee13405bafc","system_id":"levelo_inurba_marseille","lat":43.27846,"lon":5.392,"is_reserved":false,"is_disabled":true,"rental_uris":{"android":"levelo://app?vid=ccbd796f-0853-4438-83a6-7ee13405bafc","ios":"levelo://app?vid=ccbd796f-0853-4438-83a6-7ee13405bafc"},"vehicle_type_id":"4","last_reported":1736964739,"current_range_meters":400,"station_id":"ce4bhjp2rcd13ifvqga0","pricing_plan_id":"cebpf4jnsgd1na2vs0mg"},{"bike_id":"51346462-b4bb-44de-ac8a-4f66377eb18b","system_id":"levelo_inurba_marseille","lat":43.33025,"lon":5.39048,"is_reserved":false,"is_disabled":false,"rental_uris":{"android":"levelo://app?vid=51346462-b4bb-44de-ac8a-4f66377eb18b","ios":"levelo://app?vid=51346462-b4bb-44de-ac8a-4f66377eb18b"},"vehicle_type_id":"4","last_reported":1736964739,"current_range_meters":16000,"station_id":"ce4bhr92rcd13ifvqhrg","pricing_plan_id":"cebpf4jnsgd1na2vs0mg"},{"bike_id":"7cd7aa7f-f9c8-4a45-8ebd-ae27b73c7483","system_id":"levelo_inurba_marseille","lat":43.29731,"lon":5.37683,"is_reserved":false,"is_disabled":false,"rental_uris":{"android":"levelo://app?vid=7cd7aa7f-f9c8-4a45-8ebd-ae27b73c7483","ios":"levelo://app?vid=7cd7aa7f-f9c8-4a45-8ebd-ae27b73c7483"},"vehicle_type_id":"4","last_reported":1736964739,"current_range_meters":38000,"station_id":"ce4bgkh2rcd13ifvqbl0","pricing_plan_id":"cebpf4jnsgd1na2vs0mg"},{"bike_id":"9559adbc-39dd-4696-b778-d96314d59a00","system_id":"levelo_inurba_marseille","lat":43.2931,"lon":5.37192,"is_reserved":false,"is_disabled":false,"rental_uris":{"android":"levelo://app?vid=9559adbc-39dd-4696-b778-d96314d59a00","ios":"levelo://app?vid=9559adbc-39dd-4696-b778-d96314d59a00"},"vehicle_type_id":"4","last_reported":1736964739,"current_range_meters":24800,"station_id":"ce4bgh92rcd13ifvqb40","pricing_plan_id":"cebpf4jnsgd1na2vs0mg"},{"bike_id":"1196e9f5-0570-4505-b30c-37b2b9c61113","system_id":"levelo_inurba_marseille","lat":43.255,"lon":5.37651,"is_reserved":false,"is_disabled":false,"rental_uris":{"android":"levelo://app?vid=1196e9f5-0570-4505-b30c-37b2b9c61113","ios":"levelo://app?vid=1196e9f5-0570-4505-b30c-37b2b9c61113"},"vehicle_type_id":"4","last_reported":1736964739,"current_range_meters":22800,"station_id":"ce4bhh12rcd13ifvqff0","pricing_plan_id":"cebpf4jnsgd1na2vs0mg"},{"bike_id":"5b5900ce-4c36-47f1-a0d4-8e48629ca38e","system_id":"levelo_inurba_marseille","lat":43.25107,"lon":5.40324,"is_reserved":false,"is_disabled":false,"rental_uris":{"android":"levelo://app?vid=5b5900ce-4c36-47f1-a0d4-8e48629ca38e","ios":"levelo://app?vid=5b5900ce-4c36-47f1-a0d4-8e48629ca38e"},"vehicle_type_id":"4","last_reported":1736964739,"current_range_meters":30800,"station_id":"ce4bhlh2rcd13ifvqgig","pricing_plan_id":"cebpf4jnsgd1na2vs0mg"},{"bike_id":"eef1c00f-48b3-4edb-8a7b-64de3a06a5d4","system_id":"levelo_inurba_marseille","lat":43.29229,"lon":5.36068,"is_reserved":false,"is_disabled":false,"rental_uris":{"android":"levelo://app?vid=eef1c00f-48b3-4edb-8a7b-64de3a06a5d4","ios":"levelo://app?vid=eef1c00f-48b3-4edb-8a7b-64de3a06a5d4"},"vehicle_type_id":"4","last_reported":1736964739,"current_range_meters":36800,"station_id":"ce4bhbh2rcd13ifvqeqg","pricing_plan_id":"cebpf4jnsgd1na2vs0mg"},{"bike_id":"0e842b39-329d-48e2-b781-7e3babc96cf4","system_id":"levelo_inurba_marseille","lat":43.22934,"lon":5.35389,"is_reserved":false,"is_disabled":false,"rental_uris":{"android":"levelo://app?vid=0e842b39-329d-48e2-b781-7e3babc96cf4","ios":"levelo://app?vid=0e842b39-329d-48e2-b781-7e3babc96cf4"},"vehicle_type_id":"4","last_reported":1736964739,"current_range_meters":20000,"station_id":"cpo3532slgdg3j2ikp40","pricing_plan_id":"cebpf4jnsgd1na2vs0mg"},{"bike_id":"66d86647-f3d9-43c2-8067-2511dcc8853d","system_id":"levelo_inurba_marseille","lat":43.26942,"lon":5.40252,"is_reserved":false,"is_disabled":true,"rental_uris":{"android":"levelo://app?vid=66d86647-f3d9-43c2-8067-2511dcc8853d","ios":"levelo://app?vid=66d86647-f3d9-43c2-8067-2511dcc8853d"},"vehicle_type_id":"4","last_reported":1736964739,"current_range_meters":3200,"station_id":"cjm6bp8fraef2m0cb0m0","pricing_plan_id":"cebpf4jnsgd1na2vs0mg"},{"bike_id":"04bfd732-e3f2-4dbb-a7c9-bb99355282fc","system_id":"levelo_inurba_marseille","lat":43.31724,"lon":5.42398,"is_reserved":false,"is_disabled":false,"rental_uris":{"android":"levelo://app?vid=04bfd732-e3f2-4dbb-a7c9-bb99355282fc","ios":"levelo://app?vid=04bfd732-e3f2-4dbb-a7c9-bb99355282fc"},"vehicle_type_id":"4","last_reported":1736964739,"current_range_meters":35200,"station_id":"ce4bhp92rcd13ifvqhbg","pricing_plan_id":"cebpf4jnsgd1na2vs0mg"},{"bike_id":"8453db75-3167-4ff1-8aa6-48e00cb37721","system_id":"levelo_inurba_marseille","lat":43.25583,"lon":5.38231,"is_reserved":false,"is_disabled":false,"rental_uris":{"android":"levelo://app?vid=8453db75-3167-4ff1-8aa6-48e00cb37721","ios":"levelo://app?vid=8453db75-3167-4ff1-8aa6-48e00cb37721"},"vehicle_type_id":"4","last_reported":1736964739,"current_range_meters":14800,"station_id":"ce4bhih2rcd13ifvqfs0","pricing_plan_id":"cebpf4jnsgd1na2vs0mg"},{"bike_id":"fa9d4f38-3b0c-453b-822a-edc59b09d21e","system_id":"levelo_inurba_marseille","lat":43.28468,"lon":5.35894,"is_reserved":false,"is_disabled":false,"rental_uris":{"android":"levelo://app?vid=fa9d4f38-3b0c-453b-822a-edc59b09d21e","ios":"levelo://app?vid=fa9d4f38-3b0c-453b-822a-edc59b09d21e"},"vehicle_type_id":"4","last_reported":1736964739,"current_range_meters":38800,"station_id":"ce4bhah2rcd13ifvqei0","pricing_plan_id":"cebpf4jnsgd1na2vs0mg"},{"bike_id":"8b6182c3-3c5e-4a05-80f5-f25cf3a13217","system_id":"levelo_inurba_marseille","lat":43.24547,"lon":5.39526,"is_reserved":false,"is_disabled":false,"rental_uris":{"android":"levelo://app?vid=8b6182c3-3c5e-4a05-80f5-f25cf3a13217","ios":"levelo://app?vid=8b6182c3-3c5e-4a05-80f5-f25cf3a13217"},"vehicle_type_id":"4","last_reported":1736964739,"current_range_meters":27200,"station_id":"ce4bhlp2rcd13ifvqgjg","pricing_plan_id":"cebpf4jnsgd1na2vs0mg"},{"bike_id":"36482bde-a5f1-4d3a-b7c9-ee0b900aecd4","system_id":"levelo_inurba_marseille","lat":43.29275,"lon":5.36844,"is_reserved":false,"is_disabled":false,"rental_uris":{"android":"levelo://app?vid=36482bde-a5f1-4d3a-b7c9-ee0b900aecd4","ios":"levelo://app?vid=36482bde-a5f1-4d3a-b7c9-ee0b900aecd4"},"vehicle_type_id":"4","last_reported":1736964739,"current_range_meters":18000,"station_id":"ce4bhbp2rcd13ifvqesg","pricing_plan_id":"cebpf4jnsgd1na2vs0mg"},{"bike_id":"2eaee1b3-42dd-41ab-94bc-675b7b813658","system_id":"levelo_inurba_marseille","lat":43.30601,"lon":5.39345,"is_reserved":false,"is_disabled":false,"rental_uris":{"android":"levelo://app?vid=2eaee1b3-42dd-41ab-94bc-675b7b813658","ios":"levelo://app?vid=2eaee1b3-42dd-41ab-94bc-675b7b813658"},"vehicle_type_id":"4","last_reported":1736964739,"current_range_meters":8800,"station_id":"ce4bh0p2rcd13ifvqd80","pricing_plan_id":"cebpf4jnsgd1na2vs0mg"},{"bike_id":"85fb2bf8-5b4b-4be2-81d5-99a2452f7f4a","system_id":"levelo_inurba_marseille","lat":43.25871,"lon":5.39893,"is_reserved":false,"is_disabled":true,"rental_uris":{"android":"levelo://app?vid=85fb2bf8-5b4b-4be2-81d5-99a2452f7f4a","ios":"levelo://app?vid=85fb2bf8-5b4b-4be2-81d5-99a2452f7f4a"},"vehicle_type_id":"4","last_reported":1736964739,"current_range_meters":0,"station_id":"ce4bhl92rcd13ifvqghg","pricing_plan_id":"cebpf4jnsgd1na2vs0mg"},{"bike_id":"21991245-c0ed-460a-96c0-efd1586188d9","system_id":"levelo_inurba_marseille","lat":43.26032,"lon":5.37555,"is_reserved":false,"is_disabled":false,"rental_uris":{"android":"levelo://app?vid=21991245-c0ed-460a-96c0-efd1586188d9","ios":"levelo://app?vid=21991245-c0ed-460a-96c0-efd1586188d9"},"vehicle_type_id":"4","last_reported":1736964739,"current_range_meters":24800,"station_id":"ce4bhgh2rcd13ifvqfa0","pricing_plan_id":"cebpf4jnsgd1na2vs0mg"},{"bike_id":"bf640603-83b1-45ec-97b9-6f63203dda4b","system_id":"levelo_inurba_marseille","lat":43.28151,"lon":5.42642,"is_reserved":false,"is_disabled":false,"rental_uris":{"android":"levelo://app?vid=bf640603-83b1-45ec-97b9-6f63203dda4b","ios":"levelo://app?vid=bf640603-83b1-45ec-97b9-6f63203dda4b"},"vehicle_type_id":"4","last_reported":1736964739,"current_range_meters":24000,"station_id":"ce4bhnh2rcd13ifvqgug","pricing_plan_id":"cebpf4jnsgd1na2vs0mg"},{"bike_id":"43fd6972-8b77-49c4-9232-69d397e2e1ec","system_id":"levelo_inurba_marseille","lat":43.2407,"lon":5.37744,"is_reserved":false,"is_disabled":false,"rental_uris":{"android":"levelo://app?vid=43fd6972-8b77-49c4-9232-69d397e2e1ec","ios":"levelo://app?vid=43fd6972-8b77-49c4-9232-69d397e2e1ec"},"vehicle_type_id":"4","last_reported":1736964739,"current_range_meters":11200,"station_id":"ce4bhnp2rcd13ifvqgvg","pricing_plan_id":"cebpf4jnsgd1na2vs0mg"},{"bike_id":"1a993369-ccdf-4243-bb06-f41e0b1eee7f","system_id":"levelo_inurba_marseille","lat":43.29262,"lon":5.38437,"is_reserved":false,"is_disabled":false,"rental_uris":{"android":"levelo://app?vid=1a993369-ccdf-4243-bb06-f41e0b1eee7f","ios":"levelo://app?vid=1a993369-ccdf-4243-bb06-f41e0b1eee7f"},"vehicle_type_id":"4","last_reported":1736964739,"current_range_meters":36000,"station_id":"ce4bh692rcd13ifvqea0","pricing_plan_id":"cebpf4jnsgd1na2vs0mg"},{"bike_id":"e161982c-1338-4f95-bd12-8dfb8b5b2049","system_id":"levelo_inurba_marseille","lat":43.24186,"lon":5.39731,"is_reserved":false,"is_disabled":false,"rental_uris":{"android":"levelo://app?vid=e161982c-1338-4f95-bd12-8dfb8b5b2049","ios":"levelo://app?vid=e161982c-1338-4f95-bd12-8dfb8b5b2049"},"vehicle_type_id":"4","last_reported":1736964739,"current_range_meters":12800,"station_id":"ce4bhn12rcd13ifvqgpg","pricing_plan_id":"cebpf4jnsgd1na2vs0mg"},{"bike_id":"171f59c8-1a93-45fb-bc98-bca9e7873425","system_id":"levelo_inurba_marseille","lat":43.29055,"lon":5.35912,"is_reserved":false,"is_disabled":false,"rental_uris":{"android":"levelo://app?vid=171f59c8-1a93-45fb-bc98-bca9e7873425","ios":"levelo://app?vid=171f59c8-1a93-45fb-bc98-bca9e7873425"},"vehicle_type_id":"4","last_reported":1736964739,"current_range_meters":34800,"station_id":"ce4bha92rcd13ifvqeg0","pricing_plan_id":"cebpf4jnsgd1na2vs0mg"},{"bike_id":"0246f764-fe83-40ca-9b8e-480f4a0375de","system_id":"levelo_inurba_marseille","lat":43.284576,"lon":5.374755,"is_reserved":false,"is_disabled":false,"rental_uris":{"android":"levelo://app?vid=0246f764-fe83-40ca-9b8e-480f4a0375de","ios":"levelo://app?vid=0246f764-fe83-40ca-9b8e-480f4a0375de"},"vehicle_type_id":"4","last_reported":1736964739,"current_range_meters":20400,"station_id":"","pricing_plan_id":"cebpf4jnsgd1na2vs0mg"},{"bike_id":"c8e997c0-8580-4d0f-8d9f-0766596381e1","system_id":"levelo_inurba_marseille","lat":43.33918,"lon":5.37562,"is_reserved":false,"is_disabled":true,"rental_uris":{"android":"levelo://app?vid=c8e997c0-8580-4d0f-8d9f-0766596381e1","ios":"levelo://app?vid=c8e997c0-8580-4d0f-8d9f-0766596381e1"},"vehicle_type_id":"4","last_reported":1736964739,"current_range_meters":0,"station_id":"","pricing_plan_id":"cebpf4jnsgd1na2vs0mg"},{"bike_id":"28d58d01-ff9a-4d04-a9a2-3f3598663adb","system_id":"levelo_inurba_marseille","lat":43.286975,"lon":5.373985,"is_reserved":false,"is_disabled":false,"rental_uris":{"android":"levelo://app?vid=28d58d01-ff9a-4d04-a9a2-3f3598663adb","ios":"levelo://app?vid=28d58d01-ff9a-4d04-a9a2-3f3598663adb"},"vehicle_type_id":"4","last_reported":1736964739,"current_range_meters":25200,"station_id":"ce4bh3p2rcd13ifvqdq0","pricing_plan_id":"cebpf4jnsgd1na2vs0mg"},{"bike_id":"85a7b7fe-337d-47e7-b225-17728841ea08","system_id":"levelo_inurba_marseille","lat":43.31166,"lon":5.38717,"is_reserved":false,"is_disabled":false,"rental_uris":{"android":"levelo://app?vid=85a7b7fe-337d-47e7-b225-17728841ea08","ios":"levelo://app?vid=85a7b7fe-337d-47e7-b225-17728841ea08"},"vehicle_type_id":"4","last_reported":1736964739,"current_range_meters":15200,"station_id":"ce4bgv12rcd13ifvqcp0","pricing_plan_id":"cebpf4jnsgd1na2vs0mg"},{"bike_id":"bb90d116-cd2d-49c0-9a85-782232d09c9e","system_id":"levelo_inurba_marseille","lat":43.28939,"lon":5.36379,"is_reserved":false,"is_disabled":false,"rental_uris":{"android":"levelo://app?vid=bb90d116-cd2d-49c0-9a85-782232d09c9e","ios":"levelo://app?vid=bb90d116-cd2d-49c0-9a85-782232d09c9e"},"vehicle_type_id":"4","last_reported":1736964739,"current_range_meters":22800,"station_id":"ce4bhc92rcd13ifvqetg","pricing_plan_id":"cebpf4jnsgd1na2vs0mg"},{"bike_id":"92abf797-7e64-40ae-937c-05a4d9cb78bd","system_id":"levelo_inurba_marseille","lat":43.2871,"lon":5.37938,"is_reserved":false,"is_disabled":false,"rental_uris":{"android":"levelo://app?vid=92abf797-7e64-40ae-937c-05a4d9cb78bd","ios":"levelo://app?vid=92abf797-7e64-40ae-937c-05a4d9cb78bd"},"vehicle_type_id":"4","last_reported":1736964739,"current_range_meters":5600,"station_id":"ce4bh9p2rcd13ifvqec0","pricing_plan_id":"cebpf4jnsgd1na2vs0mg"},{"bike_id":"a25a73cb-7aa8-447e-bbd2-645fb7c61e46","system_id":"levelo_inurba_marseille","lat":43.30529,"lon":5.36706,"is_reserved":false,"is_disabled":false,"rental_uris":{"android":"levelo://app?vid=a25a73cb-7aa8-447e-bbd2-645fb7c61e46","ios":"levelo://app?vid=a25a73cb-7aa8-447e-bbd2-645fb7c61e46"},"vehicle_type_id":"4","last_reported":1736964739,"current_range_meters":21600,"station_id":"ce4bgrp2rcd13ifvqc9g","pricing_plan_id":"cebpf4jnsgd1na2vs0mg"},{"bike_id":"7b693463-6b82-4e9a-aa2d-726f031e21f9","system_id":"levelo_inurba_marseille","lat":43.30805,"lon":5.4353,"is_reserved":false,"is_disabled":false,"rental_uris":{"android":"levelo://app?vid=7b693463-6b82-4e9a-aa2d-726f031e21f9","ios":"levelo://app?vid=7b693463-6b82-4e9a-aa2d-726f031e21f9"},"vehicle_type_id":"4","last_reported":1736964739,"current_range_meters":32800,"station_id":"ce4bhph2rcd13ifvqheg","pricing_plan_id":"cebpf4jnsgd1na2vs0mg"},{"bike_id":"62c26429-0e7e-4986-a230-fff58507d800","system_id":"levelo_inurba_marseille","lat":43.29805,"lon":5.38099,"is_reserved":false,"is_disabled":false,"rental_uris":{"android":"levelo://app?vid=62c26429-0e7e-4986-a230-fff58507d800","ios":"levelo://app?vid=62c26429-0e7e-4986-a230-fff58507d800"},"vehicle_type_id":"4","last_reported":1736964739,"current_range_meters":20800,"station_id":"ce4bgip2rcd13ifvqbb0","pricing_plan_id":"cebpf4jnsgd1na2vs0mg"},{"bike_id":"ee28e867-21e8-4831-b259-c94c83f948c2","system_id":"levelo_inurba_marseille","lat":43.29596,"lon":5.36752,"is_reserved":false,"is_disabled":false,"rental_uris":{"android":"levelo://app?vid=ee28e867-21e8-4831-b259-c94c83f948c2","ios":"levelo://app?vid=ee28e867-21e8-4831-b259-c94c83f948c2"},"vehicle_type_id":"4","last_reported":1736964739,"current_range_meters":31200,"station_id":"ce4bgph2rcd13ifvqc2g","pricing_plan_id":"cebpf4jnsgd1na2vs0mg"},{"bike_id":"5416b3d0-0626-4e79-9d40-c2d4d2711930","system_id":"levelo_inurba_marseille","lat":43.3034,"lon":5.40419,"is_reserved":false,"is_disabled":false,"rental_uris":{"android":"levelo://app?vid=5416b3d0-0626-4e79-9d40-c2d4d2711930","ios":"levelo://app?vid=5416b3d0-0626-4e79-9d40-c2d4d2711930"},"vehicle_type_id":"4","last_reported":1736964739,"current_range_meters":38800,"station_id":"ce4bh012rcd13ifvqd10","pricing_plan_id":"cebpf4jnsgd1na2vs0mg"},{"bike_id":"fa53afd0-c3c0-46c2-be7e-d056eb14f6b8","system_id":"levelo_inurba_marseille","lat":43.24072,"lon":5.37768,"is_reserved":false,"is_disabled":false,"rental_uris":{"android":"levelo://app?vid=fa53afd0-c3c0-46c2-be7e-d056eb14f6b8","ios":"levelo://app?vid=fa53afd0-c3c0-46c2-be7e-d056eb14f6b8"},"vehicle_type_id":"4","last_reported":1736964739,"current_range_meters":33600,"station_id":"ce4bhnp2rcd13ifvqgvg","pricing_plan_id":"cebpf4jnsgd1na2vs0mg"},{"bike_id":"b76e98a5-262e-4e73-85d7-b2637fca444c","system_id":"levelo_inurba_marseille","lat":43.28678,"lon":5.38658,"is_reserved":false,"is_disabled":false,"rental_uris":{"android":"levelo://app?vid=b76e98a5-262e-4e73-85d7-b2637fca444c","ios":"levelo://app?vid=b76e98a5-262e-4e73-85d7-b2637fca444c"},"vehicle_type_id":"4","last_reported":1736964739,"current_range_meters":24400,"station_id":"ce4bh492rcd13ifvqdug","pricing_plan_id":"cebpf4jnsgd1na2vs0mg"},{"bike_id":"155dbf4b-d6fe-46aa-9097-9994452a5158","system_id":"levelo_inurba_marseille","lat":43.23079,"lon":5.35498,"is_reserved":false,"is_disabled":false,"rental_uris":{"android":"levelo://app?vid=155dbf4b-d6fe-46aa-9097-9994452a5158","ios":"levelo://app?vid=155dbf4b-d6fe-46aa-9097-9994452a5158"},"vehicle_type_id":"4","last_reported":1736964739,"current_range_meters":11600,"station_id":"cpo3342slgdg3j2ifvpg","pricing_plan_id":"cebpf4jnsgd1na2vs0mg"},{"bike_id":"a5c4b508-2f64-45e6-ab1f-010ab76afe76","system_id":"levelo_inurba_marseille","lat":43.2827,"lon":5.35063,"is_reserved":false,"is_disabled":false,"rental_uris":{"android":"levelo://app?vid=a5c4b508-2f64-45e6-ab1f-010ab76afe76","ios":"levelo://app?vid=a5c4b508-2f64-45e6-ab1f-010ab76afe76"},"vehicle_type_id":"4","last_reported":1736964739,"current_range_meters":9200,"station_id":"ce4bhbp2rcd13ifvqerg","pricing_plan_id":"cebpf4jnsgd1na2vs0mg"},{"bike_id":"037f7c60-1cf0-4a2f-a471-173385ee3447","system_id":"levelo_inurba_marseille","lat":43.31121,"lon":5.37772,"is_reserved":false,"is_disabled":false,"rental_uris":{"android":"levelo://app?vid=037f7c60-1cf0-4a2f-a471-173385ee3447","ios":"levelo://app?vid=037f7c60-1cf0-4a2f-a471-173385ee3447"},"vehicle_type_id":"4","last_reported":1736964739,"current_range_meters":22800,"station_id":"ce4bgt92rcd13ifvqcg0","pricing_plan_id":"cebpf4jnsgd1na2vs0mg"},{"bike_id":"fea1b24d-bbfb-474a-b028-8645483cd7e6","system_id":"levelo_inurba_marseille","lat":43.33764,"lon":5.37474,"is_reserved":false,"is_disabled":false,"rental_uris":{"android":"levelo://app?vid=fea1b24d-bbfb-474a-b028-8645483cd7e6","ios":"levelo://app?vid=fea1b24d-bbfb-474a-b028-8645483cd7e6"},"vehicle_type_id":"4","last_reported":1736964739,"current_range_meters":36800,"station_id":"","pricing_plan_id":"cebpf4jnsgd1na2vs0mg"},{"bike_id":"c71a1fb1-d885-4733-b5d3-201fc91321e4","system_id":"levelo_inurba_marseille","lat":43.29875,"lon":5.39733,"is_reserved":false,"is_disabled":false,"rental_uris":{"android":"levelo://app?vid=c71a1fb1-d885-4733-b5d3-201fc91321e4","ios":"levelo://app?vid=c71a1fb1-d885-4733-b5d3-201fc91321e4"},"vehicle_type_id":"4","last_reported":1736964739,"current_range_meters":14000,"station_id":"ce4bh0h2rcd13ifvqd50","pricing_plan_id":"cebpf4jnsgd1na2vs0mg"},{"bike_id":"3ab1daa0-812f-4f79-9091-37268ffadf3e","system_id":"levelo_inurba_marseille","lat":43.28704,"lon":5.37404,"is_reserved":false,"is_disabled":false,"rental_uris":{"android":"levelo://app?vid=3ab1daa0-812f-4f79-9091-37268ffadf3e","ios":"levelo://app?vid=3ab1daa0-812f-4f79-9091-37268ffadf3e"},"vehicle_type_id":"4","last_reported":1736964739,"current_range_meters":39200,"station_id":"ce4bh3p2rcd13ifvqdq0","pricing_plan_id":"cebpf4jnsgd1na2vs0mg"},{"bike_id":"639f2f74-b862-4de0-9467-803aa9344f0d","system_id":"levelo_inurba_marseille","lat":43.30138,"lon":5.39866,"is_reserved":false,"is_disabled":false,"rental_uris":{"android":"levelo://app?vid=639f2f74-b862-4de0-9467-803aa9344f0d","ios":"levelo://app?vid=639f2f74-b862-4de0-9467-803aa9344f0d"},"vehicle_type_id":"4","last_reported":1736964739,"current_range_meters":23200,"station_id":"ce4bh0h2rcd13ifvqd40","pricing_plan_id":"cebpf4jnsgd1na2vs0mg"},{"bike_id":"58f9e6b7-a155-4c03-8c31-6f8b6912d5d0","system_id":"levelo_inurba_marseille","lat":43.293,"lon":5.3717,"is_reserved":false,"is_disabled":false,"rental_uris":{"android":"levelo://app?vid=58f9e6b7-a155-4c03-8c31-6f8b6912d5d0","ios":"levelo://app?vid=58f9e6b7-a155-4c03-8c31-6f8b6912d5d0"},"vehicle_type_id":"4","last_reported":1736964739,"current_range_meters":6400,"station_id":"ce4bgh92rcd13ifvqb40","pricing_plan_id":"cebpf4jnsgd1na2vs0mg"},{"bike_id":"55077a3d-ab60-42c3-b097-5558157a8b75","system_id":"levelo_inurba_marseille","lat":43.2656,"lon":5.39024,"is_reserved":false,"is_disabled":false,"rental_uris":{"android":"levelo://app?vid=55077a3d-ab60-42c3-b097-5558157a8b75","ios":"levelo://app?vid=55077a3d-ab60-42c3-b097-5558157a8b75"},"vehicle_type_id":"4","last_reported":1736964739,"current_range_meters":33600,"station_id":"ce4bhe12rcd13ifvqf30","pricing_plan_id":"cebpf4jnsgd1na2vs0mg"},{"bike_id":"0de1c0c3-224c-470c-9c40-92abbb1e542e","system_id":"levelo_inurba_marseille","lat":43.27445,"lon":5.39409,"is_reserved":false,"is_disabled":true,"rental_uris":{"android":"levelo://app?vid=0de1c0c3-224c-470c-9c40-92abbb1e542e","ios":"levelo://app?vid=0de1c0c3-224c-470c-9c40-92abbb1e542e"},"vehicle_type_id":"4","last_reported":1736964739,"current_range_meters":27600,"station_id":"ce4bhdp2rcd13ifvqf20","pricing_plan_id":"cebpf4jnsgd1na2vs0mg"},{"bike_id":"69972832-61de-4229-8558-f6c64c87da71","system_id":"levelo_inurba_marseille","lat":43.26958,"lon":5.38623,"is_reserved":false,"is_disabled":false,"rental_uris":{"android":"levelo://app?vid=69972832-61de-4229-8558-f6c64c87da71","ios":"levelo://app?vid=69972832-61de-4229-8558-f6c64c87da71"},"vehicle_type_id":"4","last_reported":1736964739,"current_range_meters":16400,"station_id":"ce4bhh92rcd13ifvqfh0","pricing_plan_id":"cebpf4jnsgd1na2vs0mg"},{"bike_id":"68789f88-d519-4b0f-9d4a-9e41acc2e3f1","system_id":"levelo_inurba_marseille","lat":43.27996,"lon":5.40013,"is_reserved":false,"is_disabled":false,"rental_uris":{"android":"levelo://app?vid=68789f88-d519-4b0f-9d4a-9e41acc2e3f1","ios":"levelo://app?vid=68789f88-d519-4b0f-9d4a-9e41acc2e3f1"},"vehicle_type_id":"4","last_reported":1736964739,"current_range_meters":34000,"station_id":"ce4bho92rcd13ifvqh4g","pricing_plan_id":"cebpf4jnsgd1na2vs0mg"},{"bike_id":"1f149e26-9d4e-4970-96ec-1b76430b914b","system_id":"levelo_inurba_marseille","lat":43.24397,"lon":5.37058,"is_reserved":false,"is_disabled":false,"rental_uris":{"android":"levelo://app?vid=1f149e26-9d4e-4970-96ec-1b76430b914b","ios":"levelo://app?vid=1f149e26-9d4e-4970-96ec-1b76430b914b"},"vehicle_type_id":"4","last_reported":1736964739,"current_range_meters":37600,"station_id":"ce4bhhh2rcd13ifvqfk0","pricing_plan_id":"cebpf4jnsgd1na2vs0mg"},{"bike_id":"da3afe3c-5cdd-453f-9551-77e8476e7381","system_id":"levelo_inurba_marseille","lat":43.29541,"lon":5.38527,"is_reserved":false,"is_disabled":true,"rental_uris":{"android":"levelo://app?vid=da3afe3c-5cdd-453f-9551-77e8476e7381","ios":"levelo://app?vid=da3afe3c-5cdd-453f-9551-77e8476e7381"},"vehicle_type_id":"4","last_reported":1736964739,"current_range_meters":38800,"station_id":"ce4bgih2rcd13ifvqba0","pricing_plan_id":"cebpf4jnsgd1na2vs0mg"},{"bike_id":"b8cb15d9-5da0-41b8-9310-73c9710807b0","system_id":"levelo_inurba_marseille","lat":43.29196,"lon":5.35801,"is_reserved":false,"is_disabled":false,"rental_uris":{"android":"levelo://app?vid=b8cb15d9-5da0-41b8-9310-73c9710807b0","ios":"levelo://app?vid=b8cb15d9-5da0-41b8-9310-73c9710807b0"},"vehicle_type_id":"4","last_reported":1736964739,"current_range_meters":28000,"station_id":"ce4bhb12rcd13ifvqel0","pricing_plan_id":"cebpf4jnsgd1na2vs0mg"},{"bike_id":"debed610-bc3b-4ef3-8b88-6b7a4d540099","system_id":"levelo_inurba_marseille","lat":43.28616,"lon":5.35107,"is_reserved":false,"is_disabled":false,"rental_uris":{"android":"levelo://app?vid=debed610-bc3b-4ef3-8b88-6b7a4d540099","ios":"levelo://app?vid=debed610-bc3b-4ef3-8b88-6b7a4d540099"},"vehicle_type_id":"4","last_reported":1736964739,"current_range_meters":22800,"station_id":"ce4bhch2rcd13ifvqeug","pricing_plan_id":"cebpf4jnsgd1na2vs0mg"},{"bike_id":"e052f47d-c314-4142-a490-846c18d74eff","system_id":"levelo_inurba_marseille","lat":43.28712,"lon":5.37939,"is_reserved":false,"is_disabled":true,"rental_uris":{"android":"levelo://app?vid=e052f47d-c314-4142-a490-846c18d74eff","ios":"levelo://app?vid=e052f47d-c314-4142-a490-846c18d74eff"},"vehicle_type_id":"4","last_reported":1736964739,"current_range_meters":29600,"station_id":"ce4bh9p2rcd13ifvqec0","pricing_plan_id":"cebpf4jnsgd1na2vs0mg"},{"bike_id":"11505aa6-1d31-4669-9482-1b65e452bf6d","system_id":"levelo_inurba_marseille","lat":43.29262,"lon":5.38433,"is_reserved":false,"is_disabled":false,"rental_uris":{"android":"levelo://app?vid=11505aa6-1d31-4669-9482-1b65e452bf6d","ios":"levelo://app?vid=11505aa6-1d31-4669-9482-1b65e452bf6d"},"vehicle_type_id":"4","last_reported":1736964739,"current_range_meters":38400,"station_id":"ce4bh692rcd13ifvqea0","pricing_plan_id":"cebpf4jnsgd1na2vs0mg"},{"bike_id":"1170d61e-15cf-45f5-91b4-6afeeb54ae74","system_id":"levelo_inurba_marseille","lat":43.29516,"lon":5.3942,"is_reserved":false,"is_disabled":false,"rental_uris":{"android":"levelo://app?vid=1170d61e-15cf-45f5-91b4-6afeeb54ae74","ios":"levelo://app?vid=1170d61e-15cf-45f5-91b4-6afeeb54ae74"},"vehicle_type_id":"4","last_reported":1736964739,"current_range_meters":19200,"station_id":"ce4bh292rcd13ifvqdf0","pricing_plan_id":"cebpf4jnsgd1na2vs0mg"},{"bike_id":"84299edb-4937-46bc-b7d0-f1ba8633c0fe","system_id":"levelo_inurba_marseille","lat":43.29196,"lon":5.39319,"is_reserved":false,"is_disabled":false,"rental_uris":{"android":"levelo://app?vid=84299edb-4937-46bc-b7d0-f1ba8633c0fe","ios":"levelo://app?vid=84299edb-4937-46bc-b7d0-f1ba8633c0fe"},"vehicle_type_id":"4","last_reported":1736964739,"current_range_meters":25200,"station_id":"ce4bh192rcd13ifvqdd0","pricing_plan_id":"cebpf4jnsgd1na2vs0mg"},{"bike_id":"2c839bfc-228b-4afd-9c45-0e54b8f36672","system_id":"levelo_inurba_marseille","lat":43.24655,"lon":5.38911,"is_reserved":false,"is_disabled":false,"rental_uris":{"android":"levelo://app?vid=2c839bfc-228b-4afd-9c45-0e54b8f36672","ios":"levelo://app?vid=2c839bfc-228b-4afd-9c45-0e54b8f36672"},"vehicle_type_id":"4","last_reported":1736964739,"current_range_meters":38800,"station_id":"ce4bhg12rcd13ifvqf60","pricing_plan_id":"cebpf4jnsgd1na2vs0mg"},{"bike_id":"36bc9abd-9273-41d0-bd68-9e79dbe079aa","system_id":"levelo_inurba_marseille","lat":43.30134,"lon":5.39851,"is_reserved":false,"is_disabled":false,"rental_uris":{"android":"levelo://app?vid=36bc9abd-9273-41d0-bd68-9e79dbe079aa","ios":"levelo://app?vid=36bc9abd-9273-41d0-bd68-9e79dbe079aa"},"vehicle_type_id":"4","last_reported":1736964739,"current_range_meters":16800,"station_id":"ce4bh0h2rcd13ifvqd40","pricing_plan_id":"cebpf4jnsgd1na2vs0mg"},{"bike_id":"1bb33185-b77a-4c58-baaa-33184c9627d6","system_id":"levelo_inurba_marseille","lat":43.265529,"lon":5.37287,"is_reserved":false,"is_disabled":false,"rental_uris":{"android":"levelo://app?vid=1bb33185-b77a-4c58-baaa-33184c9627d6","ios":"levelo://app?vid=1bb33185-b77a-4c58-baaa-33184c9627d6"},"vehicle_type_id":"4","last_reported":1736964739,"current_range_meters":35200,"station_id":"ce4bhg12rcd13ifvqf70","pricing_plan_id":"cebpf4jnsgd1na2vs0mg"},{"bike_id":"663d7f2c-2062-4d24-ae4c-cbceda4e4161","system_id":"levelo_inurba_marseille","lat":43.27199,"lon":5.40985,"is_reserved":false,"is_disabled":false,"rental_uris":{"android":"levelo://app?vid=663d7f2c-2062-4d24-ae4c-cbceda4e4161","ios":"levelo://app?vid=663d7f2c-2062-4d24-ae4c-cbceda4e4161"},"vehicle_type_id":"4","last_reported":1736964739,"current_range_meters":31200,"station_id":"ce4bhl12rcd13ifvqgf0","pricing_plan_id":"cebpf4jnsgd1na2vs0mg"},{"bike_id":"eb36113f-26ca-4395-b635-d082ab13ba53","system_id":"levelo_inurba_marseille","lat":43.28946,"lon":5.36413,"is_reserved":false,"is_disabled":true,"rental_uris":{"android":"levelo://app?vid=eb36113f-26ca-4395-b635-d082ab13ba53","ios":"levelo://app?vid=eb36113f-26ca-4395-b635-d082ab13ba53"},"vehicle_type_id":"4","last_reported":1736964739,"current_range_meters":2000,"station_id":"ce4bhc92rcd13ifvqetg","pricing_plan_id":"cebpf4jnsgd1na2vs0mg"},{"bike_id":"a15980ac-c225-4e68-8982-6cc8c4cbfd79","system_id":"levelo_inurba_marseille","lat":43.23203,"lon":5.35532,"is_reserved":false,"is_disabled":false,"rental_uris":{"android":"levelo://app?vid=a15980ac-c225-4e68-8982-6cc8c4cbfd79","ios":"levelo://app?vid=a15980ac-c225-4e68-8982-6cc8c4cbfd79"},"vehicle_type_id":"4","last_reported":1736964739,"current_range_meters":39200,"station_id":"ce4bhu92rcd13ifvqi70","pricing_plan_id":"cebpf4jnsgd1na2vs0mg"},{"bike_id":"f50e3654-7560-499e-96a3-f81602416565","system_id":"levelo_inurba_marseille","lat":43.31357,"lon":5.38496,"is_reserved":false,"is_disabled":false,"rental_uris":{"android":"levelo://app?vid=f50e3654-7560-499e-96a3-f81602416565","ios":"levelo://app?vid=f50e3654-7560-499e-96a3-f81602416565"},"vehicle_type_id":"4","last_reported":1736964739,"current_range_meters":20800,"station_id":"ce4bgt92rcd13ifvqcf0","pricing_plan_id":"cebpf4jnsgd1na2vs0mg"},{"bike_id":"465a04f5-d00d-4665-aa96-54ceb247e37b","system_id":"levelo_inurba_marseille","lat":43.28156,"lon":5.42645,"is_reserved":false,"is_disabled":false,"rental_uris":{"android":"levelo://app?vid=465a04f5-d00d-4665-aa96-54ceb247e37b","ios":"levelo://app?vid=465a04f5-d00d-4665-aa96-54ceb247e37b"},"vehicle_type_id":"4","last_reported":1736964739,"current_range_meters":20800,"station_id":"ce4bhnh2rcd13ifvqgug","pricing_plan_id":"cebpf4jnsgd1na2vs0mg"},{"bike_id":"a72f9127-8fde-413a-96f3-4b81783ba6ca","system_id":"levelo_inurba_marseille","lat":43.30326,"lon":5.4043,"is_reserved":false,"is_disabled":false,"rental_uris":{"android":"levelo://app?vid=a72f9127-8fde-413a-96f3-4b81783ba6ca","ios":"levelo://app?vid=a72f9127-8fde-413a-96f3-4b81783ba6ca"},"vehicle_type_id":"4","last_reported":1736964739,"current_range_meters":36000,"station_id":"ce4bh012rcd13ifvqd10","pricing_plan_id":"cebpf4jnsgd1na2vs0mg"},{"bike_id":"f250c6dc-b1f5-402b-9634-270f9a6f87d8","system_id":"levelo_inurba_marseille","lat":43.29372,"lon":5.37858,"is_reserved":false,"is_disabled":false,"rental_uris":{"android":"levelo://app?vid=f250c6dc-b1f5-402b-9634-270f9a6f87d8","ios":"levelo://app?vid=f250c6dc-b1f5-402b-9634-270f9a6f87d8"},"vehicle_type_id":"4","last_reported":1736964739,"current_range_meters":10800,"station_id":"ce4bgjh2rcd13ifvqbf0","pricing_plan_id":"cebpf4jnsgd1na2vs0mg"},{"bike_id":"76488d58-41b8-432f-add2-18ae739fc673","system_id":"levelo_inurba_marseille","lat":43.25492,"lon":5.37648,"is_reserved":false,"is_disabled":false,"rental_uris":{"android":"levelo://app?vid=76488d58-41b8-432f-add2-18ae739fc673","ios":"levelo://app?vid=76488d58-41b8-432f-add2-18ae739fc673"},"vehicle_type_id":"4","last_reported":1736964739,"current_range_meters":20000,"station_id":"ce4bhh12rcd13ifvqff0","pricing_plan_id":"cebpf4jnsgd1na2vs0mg"},{"bike_id":"ef25c106-c1ca-478d-ac57-28a4d4c9f3f1","system_id":"levelo_inurba_marseille","lat":43.28703,"lon":5.39988,"is_reserved":false,"is_disabled":false,"rental_uris":{"android":"levelo://app?vid=ef25c106-c1ca-478d-ac57-28a4d4c9f3f1","ios":"levelo://app?vid=ef25c106-c1ca-478d-ac57-28a4d4c9f3f1"},"vehicle_type_id":"4","last_reported":1736964739,"current_range_meters":7200,"station_id":"ce4bho92rcd13ifvqh3g","pricing_plan_id":"cebpf4jnsgd1na2vs0mg"},{"bike_id":"b77dbae0-0457-46e6-b975-bb91305f0516","system_id":"levelo_inurba_marseille","lat":43.30288,"lon":5.40033,"is_reserved":false,"is_disabled":false,"rental_uris":{"android":"levelo://app?vid=b77dbae0-0457-46e6-b975-bb91305f0516","ios":"levelo://app?vid=b77dbae0-0457-46e6-b975-bb91305f0516"},"vehicle_type_id":"4","last_reported":1736964739,"current_range_meters":6800,"station_id":"ce4bgvh2rcd13ifvqcs0","pricing_plan_id":"cebpf4jnsgd1na2vs0mg"},{"bike_id":"fb850935-98aa-46d4-9a90-dcafe8e72f37","system_id":"levelo_inurba_marseille","lat":43.29008,"lon":5.35615,"is_reserved":false,"is_disabled":false,"rental_uris":{"android":"levelo://app?vid=fb850935-98aa-46d4-9a90-dcafe8e72f37","ios":"levelo://app?vid=fb850935-98aa-46d4-9a90-dcafe8e72f37"},"vehicle_type_id":"4","last_reported":1736964739,"current_range_meters":38000,"station_id":"ce4bhb92rcd13ifvqen0","pricing_plan_id":"cebpf4jnsgd1na2vs0mg"},{"bike_id":"51bb6953-dea8-4e82-96bf-52696267905f","system_id":"levelo_inurba_marseille","lat":43.23052,"lon":5.35499,"is_reserved":false,"is_disabled":false,"rental_uris":{"android":"levelo://app?vid=51bb6953-dea8-4e82-96bf-52696267905f","ios":"levelo://app?vid=51bb6953-dea8-4e82-96bf-52696267905f"},"vehicle_type_id":"4","last_reported":1736964739,"current_range_meters":38800,"station_id":"cpo3342slgdg3j2ifvpg","pricing_plan_id":"cebpf4jnsgd1na2vs0mg"},{"bike_id":"eabed2a3-2c37-4c65-b050-852f51f67d25","system_id":"levelo_inurba_marseille","lat":43.3414,"lon":5.40899,"is_reserved":false,"is_disabled":true,"rental_uris":{"android":"levelo://app?vid=eabed2a3-2c37-4c65-b050-852f51f67d25","ios":"levelo://app?vid=eabed2a3-2c37-4c65-b050-852f51f67d25"},"vehicle_type_id":"4","last_reported":1736964739,"current_range_meters":0,"station_id":"ce4bhqh2rcd13ifvqhlg","pricing_plan_id":"cebpf4jnsgd1na2vs0mg"},{"bike_id":"eba900f5-c2f5-447a-991c-484e15875092","system_id":"levelo_inurba_marseille","lat":43.2657,"lon":5.39007,"is_reserved":false,"is_disabled":false,"rental_uris":{"android":"levelo://app?vid=eba900f5-c2f5-447a-991c-484e15875092","ios":"levelo://app?vid=eba900f5-c2f5-447a-991c-484e15875092"},"vehicle_type_id":"4","last_reported":1736964739,"current_range_meters":8400,"station_id":"ce4bhe12rcd13ifvqf30","pricing_plan_id":"cebpf4jnsgd1na2vs0mg"},{"bike_id":"53d29699-e525-4492-af17-be803b3ec845","system_id":"levelo_inurba_marseille","lat":43.29787,"lon":5.39341,"is_reserved":false,"is_disabled":false,"rental_uris":{"android":"levelo://app?vid=53d29699-e525-4492-af17-be803b3ec845","ios":"levelo://app?vid=53d29699-e525-4492-af17-be803b3ec845"},"vehicle_type_id":"4","last_reported":1736964739,"current_range_meters":18800,"station_id":"chh1huq6cuj3fo74tm60","pricing_plan_id":"cebpf4jnsgd1na2vs0mg"},{"bike_id":"1a88b36a-bdcc-4ab6-a257-59715f73d204","system_id":"levelo_inurba_marseille","lat":43.2668,"lon":5.38264,"is_reserved":false,"is_disabled":false,"rental_uris":{"android":"levelo://app?vid=1a88b36a-bdcc-4ab6-a257-59715f73d204","ios":"levelo://app?vid=1a88b36a-bdcc-4ab6-a257-59715f73d204"},"vehicle_type_id":"4","last_reported":1736964739,"current_range_meters":24800,"station_id":"ce4bhg92rcd13ifvqf90","pricing_plan_id":"cebpf4jnsgd1na2vs0mg"},{"bike_id":"f6b5a21b-caca-4bab-9767-62a516c88435","system_id":"levelo_inurba_marseille","lat":43.24659,"lon":5.3889,"is_reserved":false,"is_disabled":false,"rental_uris":{"android":"levelo://app?vid=f6b5a21b-caca-4bab-9767-62a516c88435","ios":"levelo://app?vid=f6b5a21b-caca-4bab-9767-62a516c88435"},"vehicle_type_id":"4","last_reported":1736964739,"current_range_meters":39200,"station_id":"ce4bhg12rcd13ifvqf60","pricing_plan_id":"cebpf4jnsgd1na2vs0mg"},{"bike_id":"a57f6356-2784-4a8e-b1ef-830f62bd690c","system_id":"levelo_inurba_marseille","lat":43.24181,"lon":5.3973,"is_reserved":false,"is_disabled":false,"rental_uris":{"android":"levelo://app?vid=a57f6356-2784-4a8e-b1ef-830f62bd690c","ios":"levelo://app?vid=a57f6356-2784-4a8e-b1ef-830f62bd690c"},"vehicle_type_id":"4","last_reported":1736964739,"current_range_meters":32400,"station_id":"ce4bhn12rcd13ifvqgpg","pricing_plan_id":"cebpf4jnsgd1na2vs0mg"},{"bike_id":"4a8c20d9-670a-4029-9219-52996fd0718d","system_id":"levelo_inurba_marseille","lat":43.28097,"lon":5.39628,"is_reserved":false,"is_disabled":false,"rental_uris":{"android":"levelo://app?vid=4a8c20d9-670a-4029-9219-52996fd0718d","ios":"levelo://app?vid=4a8c20d9-670a-4029-9219-52996fd0718d"},"vehicle_type_id":"4","last_reported":1736964739,"current_range_meters":38800,"station_id":"ce4bho12rcd13ifvqh2g","pricing_plan_id":"cebpf4jnsgd1na2vs0mg"},{"bike_id":"b6b69f81-70d1-48e4-99f4-58c3d928e23c","system_id":"levelo_inurba_marseille","lat":43.31371,"lon":5.38493,"is_reserved":false,"is_disabled":false,"rental_uris":{"android":"levelo://app?vid=b6b69f81-70d1-48e4-99f4-58c3d928e23c","ios":"levelo://app?vid=b6b69f81-70d1-48e4-99f4-58c3d928e23c"},"vehicle_type_id":"4","last_reported":1736964739,"current_range_meters":10000,"station_id":"ce4bgt92rcd13ifvqcf0","pricing_plan_id":"cebpf4jnsgd1na2vs0mg"},{"bike_id":"5ed51bbe-8450-4d5e-abbc-52bd5c566657","system_id":"levelo_inurba_marseille","lat":43.25586,"lon":5.38232,"is_reserved":false,"is_disabled":false,"rental_uris":{"android":"levelo://app?vid=5ed51bbe-8450-4d5e-abbc-52bd5c566657","ios":"levelo://app?vid=5ed51bbe-8450-4d5e-abbc-52bd5c566657"},"vehicle_type_id":"4","last_reported":1736964739,"current_range_meters":15200,"station_id":"ce4bhih2rcd13ifvqfs0","pricing_plan_id":"cebpf4jnsgd1na2vs0mg"},{"bike_id":"cb57f13e-0f96-498a-b9ca-57c0b42e7a64","system_id":"levelo_inurba_marseille","lat":43.2396,"lon":5.36637,"is_reserved":false,"is_disabled":false,"rental_uris":{"android":"levelo://app?vid=cb57f13e-0f96-498a-b9ca-57c0b42e7a64","ios":"levelo://app?vid=cb57f13e-0f96-498a-b9ca-57c0b42e7a64"},"vehicle_type_id":"4","last_reported":1736964739,"current_range_meters":23200,"station_id":"ce4bhi12rcd13ifvqfp0","pricing_plan_id":"cebpf4jnsgd1na2vs0mg"},{"bike_id":"a56bdef2-14b8-4e02-b3bc-538917283971","system_id":"levelo_inurba_marseille","lat":43.25096,"lon":5.39505,"is_reserved":false,"is_disabled":false,"rental_uris":{"android":"levelo://app?vid=a56bdef2-14b8-4e02-b3bc-538917283971","ios":"levelo://app?vid=a56bdef2-14b8-4e02-b3bc-538917283971"},"vehicle_type_id":"4","last_reported":1736964739,"current_range_meters":27200,"station_id":"ce4bhm12rcd13ifvqgkg","pricing_plan_id":"cebpf4jnsgd1na2vs0mg"},{"bike_id":"1e040693-baaf-4374-8c35-8fd64d6321d0","system_id":"levelo_inurba_marseille","lat":43.284882,"lon":5.389468,"is_reserved":false,"is_disabled":false,"rental_uris":{"android":"levelo://app?vid=1e040693-baaf-4374-8c35-8fd64d6321d0","ios":"levelo://app?vid=1e040693-baaf-4374-8c35-8fd64d6321d0"},"vehicle_type_id":"4","last_reported":1736964739,"current_range_meters":33600,"station_id":"","pricing_plan_id":"cebpf4jnsgd1na2vs0mg"},{"bike_id":"4ac2836e-3636-4e64-ae51-4b5c921531b5","system_id":"levelo_inurba_marseille","lat":43.27995,"lon":5.41663,"is_reserved":false,"is_disabled":false,"rental_uris":{"android":"levelo://app?vid=4ac2836e-3636-4e64-ae51-4b5c921531b5","ios":"levelo://app?vid=4ac2836e-3636-4e64-ae51-4b5c921531b5"},"vehicle_type_id":"4","last_reported":1736964739,"current_range_meters":4000,"station_id":"ce4bho12rcd13ifvqh1g","pricing_plan_id":"cebpf4jnsgd1na2vs0mg"},{"bike_id":"e5b9252e-eebf-4c90-b028-b53cc4934330","system_id":"levelo_inurba_marseille","lat":43.30352,"lon":5.41901,"is_reserved":false,"is_disabled":true,"rental_uris":{"android":"levelo://app?vid=e5b9252e-eebf-4c90-b028-b53cc4934330","ios":"levelo://app?vid=e5b9252e-eebf-4c90-b028-b53cc4934330"},"vehicle_type_id":"4","last_reported":1736964739,"current_range_meters":16400,"station_id":"ce4bhop2rcd13ifvqh7g","pricing_plan_id":"cebpf4jnsgd1na2vs0mg"},{"bike_id":"e8b8a59d-2d30-4e29-9f76-3acb203858dc","system_id":"levelo_inurba_marseille","lat":43.30789,"lon":5.38169,"is_reserved":false,"is_disabled":false,"rental_uris":{"android":"levelo://app?vid=e8b8a59d-2d30-4e29-9f76-3acb203858dc","ios":"levelo://app?vid=e8b8a59d-2d30-4e29-9f76-3acb203858dc"},"vehicle_type_id":"4","last_reported":1736964739,"current_range_meters":36400,"station_id":"ce4bgt12rcd13ifvqce0","pricing_plan_id":"cebpf4jnsgd1na2vs0mg"},{"bike_id":"616f800e-b36e-415d-af31-5ce43bcd69c8","system_id":"levelo_inurba_marseille","lat":43.2509,"lon":5.39527,"is_reserved":false,"is_disabled":false,"rental_uris":{"android":"levelo://app?vid=616f800e-b36e-415d-af31-5ce43bcd69c8","ios":"levelo://app?vid=616f800e-b36e-415d-af31-5ce43bcd69c8"},"vehicle_type_id":"4","last_reported":1736964739,"current_range_meters":14400,"station_id":"ce4bhm12rcd13ifvqgkg","pricing_plan_id":"cebpf4jnsgd1na2vs0mg"},{"bike_id":"93af35ad-738e-40e4-afcb-6d3589d7e732","system_id":"levelo_inurba_marseille","lat":43.231546,"lon":5.437016,"is_reserved":false,"is_disabled":false,"rental_uris":{"android":"levelo://app?vid=93af35ad-738e-40e4-afcb-6d3589d7e732","ios":"levelo://app?vid=93af35ad-738e-40e4-afcb-6d3589d7e732"},"vehicle_type_id":"4","last_reported":1736964739,"current_range_meters":26000,"station_id":"ce4bhmp2rcd13ifvqgog","pricing_plan_id":"cebpf4jnsgd1na2vs0mg"},{"bike_id":"653d7eb5-e932-4d0f-8eba-b2bccd81fbe5","system_id":"levelo_inurba_marseille","lat":43.313513,"lon":5.366943,"is_reserved":false,"is_disabled":true,"rental_uris":{"android":"levelo://app?vid=653d7eb5-e932-4d0f-8eba-b2bccd81fbe5","ios":"levelo://app?vid=653d7eb5-e932-4d0f-8eba-b2bccd81fbe5"},"vehicle_type_id":"4","last_reported":1736964739,"current_range_meters":0,"station_id":"ce4bgr92rcd13ifvqc6g","pricing_plan_id":"cebpf4jnsgd1na2vs0mg"},{"bike_id":"7e9c6815-62a2-4145-b4bc-441b5d4695be","system_id":"levelo_inurba_marseille","lat":43.29734,"lon":5.37669,"is_reserved":false,"is_disabled":false,"rental_uris":{"android":"levelo://app?vid=7e9c6815-62a2-4145-b4bc-441b5d4695be","ios":"levelo://app?vid=7e9c6815-62a2-4145-b4bc-441b5d4695be"},"vehicle_type_id":"4","last_reported":1736964739,"current_range_meters":38800,"station_id":"ce4bgkh2rcd13ifvqbl0","pricing_plan_id":"cebpf4jnsgd1na2vs0mg"},{"bike_id":"edc3ef82-4f7e-4056-942f-8e28e925ea2f","system_id":"levelo_inurba_marseille","lat":43.24061,"lon":5.37733,"is_reserved":false,"is_disabled":false,"rental_uris":{"android":"levelo://app?vid=edc3ef82-4f7e-4056-942f-8e28e925ea2f","ios":"levelo://app?vid=edc3ef82-4f7e-4056-942f-8e28e925ea2f"},"vehicle_type_id":"4","last_reported":1736964739,"current_range_meters":39200,"station_id":"ce4bhnp2rcd13ifvqgvg","pricing_plan_id":"cebpf4jnsgd1na2vs0mg"},{"bike_id":"7b4053b3-f83d-41ad-9b98-d1f3dd50b4d1","system_id":"levelo_inurba_marseille","lat":43.31324,"lon":5.39698,"is_reserved":false,"is_disabled":false,"rental_uris":{"android":"levelo://app?vid=7b4053b3-f83d-41ad-9b98-d1f3dd50b4d1","ios":"levelo://app?vid=7b4053b3-f83d-41ad-9b98-d1f3dd50b4d1"},"vehicle_type_id":"4","last_reported":1736964739,"current_range_meters":38800,"station_id":"ce4bgvp2rcd13ifvqcu0","pricing_plan_id":"cebpf4jnsgd1na2vs0mg"},{"bike_id":"390bca83-44b3-4084-add4-420419338711","system_id":"levelo_inurba_marseille","lat":43.29795,"lon":5.39355,"is_reserved":false,"is_disabled":false,"rental_uris":{"android":"levelo://app?vid=390bca83-44b3-4084-add4-420419338711","ios":"levelo://app?vid=390bca83-44b3-4084-add4-420419338711"},"vehicle_type_id":"4","last_reported":1736964739,"current_range_meters":38400,"station_id":"chh1huq6cuj3fo74tm60","pricing_plan_id":"cebpf4jnsgd1na2vs0mg"},{"bike_id":"48dc9977-942c-469c-90b6-18ec7a2f483b","system_id":"levelo_inurba_marseille","lat":43.3302,"lon":5.39039,"is_reserved":false,"is_disabled":false,"rental_uris":{"android":"levelo://app?vid=48dc9977-942c-469c-90b6-18ec7a2f483b","ios":"levelo://app?vid=48dc9977-942c-469c-90b6-18ec7a2f483b"},"vehicle_type_id":"4","last_reported":1736964739,"current_range_meters":24800,"station_id":"ce4bhr92rcd13ifvqhrg","pricing_plan_id":"cebpf4jnsgd1na2vs0mg"},{"bike_id":"0adbfa65-465c-487a-8c44-6247250163c9","system_id":"levelo_inurba_marseille","lat":43.31232,"lon":5.36866,"is_reserved":false,"is_disabled":true,"rental_uris":{"android":"levelo://app?vid=0adbfa65-465c-487a-8c44-6247250163c9","ios":"levelo://app?vid=0adbfa65-465c-487a-8c44-6247250163c9"},"vehicle_type_id":"4","last_reported":1736964739,"current_range_meters":4400,"station_id":"ce4bgl92rcd13ifvqbq0","pricing_plan_id":"cebpf4jnsgd1na2vs0mg"},{"bike_id":"c57f7411-350c-444f-bc55-fcab7a54283f","system_id":"levelo_inurba_marseille","lat":43.279472,"lon":5.410509,"is_reserved":false,"is_disabled":false,"rental_uris":{"android":"levelo://app?vid=c57f7411-350c-444f-bc55-fcab7a54283f","ios":"levelo://app?vid=c57f7411-350c-444f-bc55-fcab7a54283f"},"vehicle_type_id":"4","last_reported":1736964739,"current_range_meters":33200,"station_id":"ce4bhnp2rcd13ifvqh0g","pricing_plan_id":"cebpf4jnsgd1na2vs0mg"},{"bike_id":"d8e3941b-0cae-4b8e-ae3c-c34a4b3b2c65","system_id":"levelo_inurba_marseille","lat":43.31996,"lon":5.38144,"is_reserved":false,"is_disabled":false,"rental_uris":{"android":"levelo://app?vid=d8e3941b-0cae-4b8e-ae3c-c34a4b3b2c65","ios":"levelo://app?vid=d8e3941b-0cae-4b8e-ae3c-c34a4b3b2c65"},"vehicle_type_id":"4","last_reported":1736964739,"current_range_meters":38400,"station_id":"ce4bhr12rcd13ifvqhpg","pricing_plan_id":"cebpf4jnsgd1na2vs0mg"},{"bike_id":"9db02719-0257-42d2-a2f1-eb9f3f010788","system_id":"levelo_inurba_marseille","lat":43.28589,"lon":5.38398,"is_reserved":false,"is_disabled":true,"rental_uris":{"android":"levelo://app?vid=9db02719-0257-42d2-a2f1-eb9f3f010788","ios":"levelo://app?vid=9db02719-0257-42d2-a2f1-eb9f3f010788"},"vehicle_type_id":"4","last_reported":1736964739,"current_range_meters":0,"station_id":"","pricing_plan_id":"cebpf4jnsgd1na2vs0mg"},{"bike_id":"ef7adbc7-f956-407a-a3eb-ebdd3e60d992","system_id":"levelo_inurba_marseille","lat":43.305501,"lon":5.365336,"is_reserved":false,"is_disabled":true,"rental_uris":{"android":"levelo://app?vid=ef7adbc7-f956-407a-a3eb-ebdd3e60d992","ios":"levelo://app?vid=ef7adbc7-f956-407a-a3eb-ebdd3e60d992"},"vehicle_type_id":"4","last_reported":1736964739,"current_range_meters":7200,"station_id":"ce4bgs12rcd13ifvqcag","pricing_plan_id":"cebpf4jnsgd1na2vs0mg"},{"bike_id":"fbe5a5e3-06c2-43d2-a19d-3c4a91fc0ada","system_id":"levelo_inurba_marseille","lat":43.29271,"lon":5.36855,"is_reserved":false,"is_disabled":false,"rental_uris":{"android":"levelo://app?vid=fbe5a5e3-06c2-43d2-a19d-3c4a91fc0ada","ios":"levelo://app?vid=fbe5a5e3-06c2-43d2-a19d-3c4a91fc0ada"},"vehicle_type_id":"4","last_reported":1736964739,"current_range_meters":37600,"station_id":"ce4bhbp2rcd13ifvqesg","pricing_plan_id":"cebpf4jnsgd1na2vs0mg"},{"bike_id":"8a5a41c6-c6c6-427e-a7d8-5be0f418b8ed","system_id":"levelo_inurba_marseille","lat":43.26806,"lon":5.4027,"is_reserved":false,"is_disabled":false,"rental_uris":{"android":"levelo://app?vid=8a5a41c6-c6c6-427e-a7d8-5be0f418b8ed","ios":"levelo://app?vid=8a5a41c6-c6c6-427e-a7d8-5be0f418b8ed"},"vehicle_type_id":"4","last_reported":1736964739,"current_range_meters":38000,"station_id":"ce501612rcd8frsf0b60","pricing_plan_id":"cebpf4jnsgd1na2vs0mg"},{"bike_id":"c18be404-7c08-4967-9c5e-337da7845fde","system_id":"levelo_inurba_marseille","lat":43.25595,"lon":5.38237,"is_reserved":false,"is_disabled":false,"rental_uris":{"android":"levelo://app?vid=c18be404-7c08-4967-9c5e-337da7845fde","ios":"levelo://app?vid=c18be404-7c08-4967-9c5e-337da7845fde"},"vehicle_type_id":"4","last_reported":1736964739,"current_range_meters":38800,"station_id":"ce4bhih2rcd13ifvqfs0","pricing_plan_id":"cebpf4jnsgd1na2vs0mg"},{"bike_id":"fedf65d5-f6fa-4aaa-96fa-6f013ad8b40b","system_id":"levelo_inurba_marseille","lat":43.30328,"lon":5.4043,"is_reserved":false,"is_disabled":false,"rental_uris":{"android":"levelo://app?vid=fedf65d5-f6fa-4aaa-96fa-6f013ad8b40b","ios":"levelo://app?vid=fedf65d5-f6fa-4aaa-96fa-6f013ad8b40b"},"vehicle_type_id":"4","last_reported":1736964739,"current_range_meters":14400,"station_id":"ce4bh012rcd13ifvqd10","pricing_plan_id":"cebpf4jnsgd1na2vs0mg"},{"bike_id":"3c67dbf4-aa0d-47e9-b2b7-e221d5750966","system_id":"levelo_inurba_marseille","lat":43.26788,"lon":5.39416,"is_reserved":false,"is_disabled":false,"rental_uris":{"android":"levelo://app?vid=3c67dbf4-aa0d-47e9-b2b7-e221d5750966","ios":"levelo://app?vid=3c67dbf4-aa0d-47e9-b2b7-e221d5750966"},"vehicle_type_id":"4","last_reported":1736964739,"current_range_meters":12000,"station_id":"ce4bhh12rcd13ifvqfg0","pricing_plan_id":"cebpf4jnsgd1na2vs0mg"},{"bike_id":"deb13dc4-e112-4212-a2ab-1e8906d9e388","system_id":"levelo_inurba_marseille","lat":43.25718,"lon":5.41113,"is_reserved":false,"is_disabled":false,"rental_uris":{"android":"levelo://app?vid=deb13dc4-e112-4212-a2ab-1e8906d9e388","ios":"levelo://app?vid=deb13dc4-e112-4212-a2ab-1e8906d9e388"},"vehicle_type_id":"4","last_reported":1736964739,"current_range_meters":16800,"station_id":"ce4bhkp2rcd13ifvqgd0","pricing_plan_id":"cebpf4jnsgd1na2vs0mg"},{"bike_id":"e4022578-b812-4671-9187-b0dc25dda560","system_id":"levelo_inurba_marseille","lat":43.28614,"lon":5.35113,"is_reserved":false,"is_disabled":false,"rental_uris":{"android":"levelo://app?vid=e4022578-b812-4671-9187-b0dc25dda560","ios":"levelo://app?vid=e4022578-b812-4671-9187-b0dc25dda560"},"vehicle_type_id":"4","last_reported":1736964739,"current_range_meters":6400,"station_id":"ce4bhch2rcd13ifvqeug","pricing_plan_id":"cebpf4jnsgd1na2vs0mg"},{"bike_id":"a0c69251-67d9-4036-a9e1-9c0c2c83a759","system_id":"levelo_inurba_marseille","lat":43.31362,"lon":5.38495,"is_reserved":false,"is_disabled":false,"rental_uris":{"android":"levelo://app?vid=a0c69251-67d9-4036-a9e1-9c0c2c83a759","ios":"levelo://app?vid=a0c69251-67d9-4036-a9e1-9c0c2c83a759"},"vehicle_type_id":"4","last_reported":1736964739,"current_range_meters":35200,"station_id":"ce4bgt92rcd13ifvqcf0","pricing_plan_id":"cebpf4jnsgd1na2vs0mg"},{"bike_id":"50b367b1-67c5-4d1e-8a38-9a06b8e18eb3","system_id":"levelo_inurba_marseille","lat":43.293074,"lon":5.371754,"is_reserved":false,"is_disabled":false,"rental_uris":{"android":"levelo://app?vid=50b367b1-67c5-4d1e-8a38-9a06b8e18eb3","ios":"levelo://app?vid=50b367b1-67c5-4d1e-8a38-9a06b8e18eb3"},"vehicle_type_id":"4","last_reported":1736964739,"current_range_meters":20400,"station_id":"ce4bgh92rcd13ifvqb40","pricing_plan_id":"cebpf4jnsgd1na2vs0mg"},{"bike_id":"0ad6f0f5-2cfe-40ff-8076-e9ff8eee4651","system_id":"levelo_inurba_marseille","lat":43.29221,"lon":5.36092,"is_reserved":false,"is_disabled":false,"rental_uris":{"android":"levelo://app?vid=0ad6f0f5-2cfe-40ff-8076-e9ff8eee4651","ios":"levelo://app?vid=0ad6f0f5-2cfe-40ff-8076-e9ff8eee4651"},"vehicle_type_id":"4","last_reported":1736964739,"current_range_meters":11600,"station_id":"ce4bhbh2rcd13ifvqeqg","pricing_plan_id":"cebpf4jnsgd1na2vs0mg"},{"bike_id":"7a26b63c-652f-4d2d-8353-1a9dfb4e945a","system_id":"levelo_inurba_marseille","lat":43.337279,"lon":5.391943,"is_reserved":false,"is_disabled":false,"rental_uris":{"android":"levelo://app?vid=7a26b63c-652f-4d2d-8353-1a9dfb4e945a","ios":"levelo://app?vid=7a26b63c-652f-4d2d-8353-1a9dfb4e945a"},"vehicle_type_id":"4","last_reported":1736964739,"current_range_meters":39200,"station_id":"ce4bhr92rcd13ifvqhsg","pricing_plan_id":"cebpf4jnsgd1na2vs0mg"},{"bike_id":"e96d83a8-cde8-404a-9e40-5bc9e9229ea9","system_id":"levelo_inurba_marseille","lat":43.33779,"lon":5.37443,"is_reserved":false,"is_disabled":false,"rental_uris":{"android":"levelo://app?vid=e96d83a8-cde8-404a-9e40-5bc9e9229ea9","ios":"levelo://app?vid=e96d83a8-cde8-404a-9e40-5bc9e9229ea9"},"vehicle_type_id":"4","last_reported":1736964739,"current_range_meters":37600,"station_id":"","pricing_plan_id":"cebpf4jnsgd1na2vs0mg"},{"bike_id":"f4764a42-86eb-4d76-b558-df598e488f6c","system_id":"levelo_inurba_marseille","lat":43.23948,"lon":5.37586,"is_reserved":false,"is_disabled":false,"rental_uris":{"android":"levelo://app?vid=f4764a42-86eb-4d76-b558-df598e488f6c","ios":"levelo://app?vid=f4764a42-86eb-4d76-b558-df598e488f6c"},"vehicle_type_id":"4","last_reported":1736964739,"current_range_meters":4400,"station_id":"","pricing_plan_id":"cebpf4jnsgd1na2vs0mg"},{"bike_id":"56b8e9bc-f750-4815-bc98-9098414d16db","system_id":"levelo_inurba_marseille","lat":43.23189,"lon":5.35561,"is_reserved":false,"is_disabled":true,"rental_uris":{"android":"levelo://app?vid=56b8e9bc-f750-4815-bc98-9098414d16db","ios":"levelo://app?vid=56b8e9bc-f750-4815-bc98-9098414d16db"},"vehicle_type_id":"4","last_reported":1736964739,"current_range_meters":400,"station_id":"ce4bhu92rcd13ifvqi70","pricing_plan_id":"cebpf4jnsgd1na2vs0mg"},{"bike_id":"886c2bbb-1b99-4795-80cb-99bf8240c559","system_id":"levelo_inurba_marseille","lat":43.2466,"lon":5.38887,"is_reserved":false,"is_disabled":false,"rental_uris":{"android":"levelo://app?vid=886c2bbb-1b99-4795-80cb-99bf8240c559","ios":"levelo://app?vid=886c2bbb-1b99-4795-80cb-99bf8240c559"},"vehicle_type_id":"4","last_reported":1736964739,"current_range_meters":25600,"station_id":"ce4bhg12rcd13ifvqf60","pricing_plan_id":"cebpf4jnsgd1na2vs0mg"},{"bike_id":"3b401bb6-c6a6-4b87-8858-55d629130591","system_id":"levelo_inurba_marseille","lat":43.26027,"lon":5.37558,"is_reserved":false,"is_disabled":true,"rental_uris":{"android":"levelo://app?vid=3b401bb6-c6a6-4b87-8858-55d629130591","ios":"levelo://app?vid=3b401bb6-c6a6-4b87-8858-55d629130591"},"vehicle_type_id":"4","last_reported":1736964739,"current_range_meters":0,"station_id":"ce4bhgh2rcd13ifvqfa0","pricing_plan_id":"cebpf4jnsgd1na2vs0mg"},{"bike_id":"2da49ea2-540f-49f5-b583-ff263dc81b7a","system_id":"levelo_inurba_marseille","lat":43.27377,"lon":5.36256,"is_reserved":false,"is_disabled":false,"rental_uris":{"android":"levelo://app?vid=2da49ea2-540f-49f5-b583-ff263dc81b7a","ios":"levelo://app?vid=2da49ea2-540f-49f5-b583-ff263dc81b7a"},"vehicle_type_id":"4","last_reported":1736964739,"current_range_meters":15200,"station_id":"ce4bhbh2rcd13ifvqeo0","pricing_plan_id":"cebpf4jnsgd1na2vs0mg"},{"bike_id":"f6bb3330-51df-4aaa-8269-ab7638db39bd","system_id":"levelo_inurba_marseille","lat":43.24394,"lon":5.37068,"is_reserved":false,"is_disabled":false,"rental_uris":{"android":"levelo://app?vid=f6bb3330-51df-4aaa-8269-ab7638db39bd","ios":"levelo://app?vid=f6bb3330-51df-4aaa-8269-ab7638db39bd"},"vehicle_type_id":"4","last_reported":1736964739,"current_range_meters":30800,"station_id":"ce4bhhh2rcd13ifvqfk0","pricing_plan_id":"cebpf4jnsgd1na2vs0mg"},{"bike_id":"ef87f77f-d203-49b7-892a-ffc95d000999","system_id":"levelo_inurba_marseille","lat":43.28719,"lon":5.36091,"is_reserved":false,"is_disabled":false,"rental_uris":{"android":"levelo://app?vid=ef87f77f-d203-49b7-892a-ffc95d000999","ios":"levelo://app?vid=ef87f77f-d203-49b7-892a-ffc95d000999"},"vehicle_type_id":"4","last_reported":1736964739,"current_range_meters":38400,"station_id":"cki0cbj6b192h4jlfktg","pricing_plan_id":"cebpf4jnsgd1na2vs0mg"},{"bike_id":"dccac9f7-22cb-4419-8286-e3f3fc1791cb","system_id":"levelo_inurba_marseille","lat":43.31317,"lon":5.39705,"is_reserved":false,"is_disabled":false,"rental_uris":{"android":"levelo://app?vid=dccac9f7-22cb-4419-8286-e3f3fc1791cb","ios":"levelo://app?vid=dccac9f7-22cb-4419-8286-e3f3fc1791cb"},"vehicle_type_id":"4","last_reported":1736964739,"current_range_meters":38800,"station_id":"ce4bgvp2rcd13ifvqcu0","pricing_plan_id":"cebpf4jnsgd1na2vs0mg"},{"bike_id":"c5748c79-66ea-4909-9026-e66a2b573a47","system_id":"levelo_inurba_marseille","lat":43.30316,"lon":5.36923,"is_reserved":false,"is_disabled":true,"rental_uris":{"android":"levelo://app?vid=c5748c79-66ea-4909-9026-e66a2b573a47","ios":"levelo://app?vid=c5748c79-66ea-4909-9026-e66a2b573a47"},"vehicle_type_id":"4","last_reported":1736964739,"current_range_meters":28000,"station_id":"ce4bgqh2rcd13ifvqc5g","pricing_plan_id":"cebpf4jnsgd1na2vs0mg"},{"bike_id":"574262f1-f93b-4f47-8496-1236e58aa8db","system_id":"levelo_inurba_marseille","lat":43.29299,"lon":5.37464,"is_reserved":false,"is_disabled":false,"rental_uris":{"android":"levelo://app?vid=574262f1-f93b-4f47-8496-1236e58aa8db","ios":"levelo://app?vid=574262f1-f93b-4f47-8496-1236e58aa8db"},"vehicle_type_id":"4","last_reported":1736964739,"current_range_meters":38400,"station_id":"ce4bgi12rcd13ifvqb70","pricing_plan_id":"cebpf4jnsgd1na2vs0mg"},{"bike_id":"0c12b47b-ac3d-4b78-a898-427ed2cc5877","system_id":"levelo_inurba_marseille","lat":43.26958,"lon":5.3864,"is_reserved":false,"is_disabled":false,"rental_uris":{"android":"levelo://app?vid=0c12b47b-ac3d-4b78-a898-427ed2cc5877","ios":"levelo://app?vid=0c12b47b-ac3d-4b78-a898-427ed2cc5877"},"vehicle_type_id":"4","last_reported":1736964739,"current_range_meters":38800,"station_id":"ce4bhh92rcd13ifvqfh0","pricing_plan_id":"cebpf4jnsgd1na2vs0mg"},{"bike_id":"60c48e84-151f-4edd-83cd-789ff87c7f63","system_id":"levelo_inurba_marseille","lat":43.28703,"lon":5.37397,"is_reserved":false,"is_disabled":true,"rental_uris":{"android":"levelo://app?vid=60c48e84-151f-4edd-83cd-789ff87c7f63","ios":"levelo://app?vid=60c48e84-151f-4edd-83cd-789ff87c7f63"},"vehicle_type_id":"4","last_reported":1736964739,"current_range_meters":28000,"station_id":"ce4bh3p2rcd13ifvqdq0","pricing_plan_id":"cebpf4jnsgd1na2vs0mg"},{"bike_id":"1ea05333-113b-43e7-929a-470579ef95c0","system_id":"levelo_inurba_marseille","lat":43.29525,"lon":5.394,"is_reserved":false,"is_disabled":true,"rental_uris":{"android":"levelo://app?vid=1ea05333-113b-43e7-929a-470579ef95c0","ios":"levelo://app?vid=1ea05333-113b-43e7-929a-470579ef95c0"},"vehicle_type_id":"4","last_reported":1736964739,"current_range_meters":18000,"station_id":"ce4bh292rcd13ifvqdf0","pricing_plan_id":"cebpf4jnsgd1na2vs0mg"},{"bike_id":"cb615e0d-7590-4a74-9303-60921b2058c9","system_id":"levelo_inurba_marseille","lat":43.313566,"lon":5.384937,"is_reserved":false,"is_disabled":false,"rental_uris":{"android":"levelo://app?vid=cb615e0d-7590-4a74-9303-60921b2058c9","ios":"levelo://app?vid=cb615e0d-7590-4a74-9303-60921b2058c9"},"vehicle_type_id":"4","last_reported":1736964739,"current_range_meters":28800,"station_id":"ce4bgt92rcd13ifvqcf0","pricing_plan_id":"cebpf4jnsgd1na2vs0mg"},{"bike_id":"557bdeaa-471c-464a-90e1-5911c6fabaf0","system_id":"levelo_inurba_marseille","lat":43.32371,"lon":5.38884,"is_reserved":false,"is_disabled":false,"rental_uris":{"android":"levelo://app?vid=557bdeaa-471c-464a-90e1-5911c6fabaf0","ios":"levelo://app?vid=557bdeaa-471c-464a-90e1-5911c6fabaf0"},"vehicle_type_id":"4","last_reported":1736964739,"current_range_meters":36800,"station_id":"ce4bhqp2rcd13ifvqhog","pricing_plan_id":"cebpf4jnsgd1na2vs0mg"},{"bike_id":"8877e7a6-4aa2-4c5a-ac5a-26bcf6368000","system_id":"levelo_inurba_marseille","lat":43.28044,"lon":5.36946,"is_reserved":false,"is_disabled":false,"rental_uris":{"android":"levelo://app?vid=8877e7a6-4aa2-4c5a-ac5a-26bcf6368000","ios":"levelo://app?vid=8877e7a6-4aa2-4c5a-ac5a-26bcf6368000"},"vehicle_type_id":"4","last_reported":1736964739,"current_range_meters":29600,"station_id":"ce4bha12rcd13ifvqef0","pricing_plan_id":"cebpf4jnsgd1na2vs0mg"},{"bike_id":"a0ffede7-3341-4855-b911-b1e6e871db85","system_id":"levelo_inurba_marseille","lat":43.32055,"lon":5.4159,"is_reserved":false,"is_disabled":false,"rental_uris":{"android":"levelo://app?vid=a0ffede7-3341-4855-b911-b1e6e871db85","ios":"levelo://app?vid=a0ffede7-3341-4855-b911-b1e6e871db85"},"vehicle_type_id":"4","last_reported":1736964739,"current_range_meters":13600,"station_id":"ce4bhq92rcd13ifvqhkg","pricing_plan_id":"cebpf4jnsgd1na2vs0mg"},{"bike_id":"c89b232d-343f-46cb-b833-7d43ba08c02a","system_id":"levelo_inurba_marseille","lat":43.33024,"lon":5.39046,"is_reserved":false,"is_disabled":false,"rental_uris":{"android":"levelo://app?vid=c89b232d-343f-46cb-b833-7d43ba08c02a","ios":"levelo://app?vid=c89b232d-343f-46cb-b833-7d43ba08c02a"},"vehicle_type_id":"4","last_reported":1736964739,"current_range_meters":36400,"station_id":"ce4bhr92rcd13ifvqhrg","pricing_plan_id":"cebpf4jnsgd1na2vs0mg"},{"bike_id":"23f5ea08-82a0-4cba-b3a5-e1cda91a8208","system_id":"levelo_inurba_marseille","lat":43.31725,"lon":5.42396,"is_reserved":false,"is_disabled":false,"rental_uris":{"android":"levelo://app?vid=23f5ea08-82a0-4cba-b3a5-e1cda91a8208","ios":"levelo://app?vid=23f5ea08-82a0-4cba-b3a5-e1cda91a8208"},"vehicle_type_id":"4","last_reported":1736964739,"current_range_meters":38800,"station_id":"ce4bhp92rcd13ifvqhbg","pricing_plan_id":"cebpf4jnsgd1na2vs0mg"},{"bike_id":"9f89b701-7d41-4871-a620-462fe45589bd","system_id":"levelo_inurba_marseille","lat":43.273836,"lon":5.362476,"is_reserved":false,"is_disabled":false,"rental_uris":{"android":"levelo://app?vid=9f89b701-7d41-4871-a620-462fe45589bd","ios":"levelo://app?vid=9f89b701-7d41-4871-a620-462fe45589bd"},"vehicle_type_id":"4","last_reported":1736964739,"current_range_meters":14400,"station_id":"ce4bhbh2rcd13ifvqeo0","pricing_plan_id":"cebpf4jnsgd1na2vs0mg"},{"bike_id":"b4e5917f-ad4f-488f-98af-ef26da7570cb","system_id":"levelo_inurba_marseille","lat":43.29169,"lon":5.37152,"is_reserved":false,"is_disabled":false,"rental_uris":{"android":"levelo://app?vid=b4e5917f-ad4f-488f-98af-ef26da7570cb","ios":"levelo://app?vid=b4e5917f-ad4f-488f-98af-ef26da7570cb"},"vehicle_type_id":"4","last_reported":1736964739,"current_range_meters":32800,"station_id":"ce4bha92rcd13ifvqeh0","pricing_plan_id":"cebpf4jnsgd1na2vs0mg"},{"bike_id":"6f0a34a5-dcd2-40df-a525-7f6c1402acf2","system_id":"levelo_inurba_marseille","lat":43.29867,"lon":5.39734,"is_reserved":false,"is_disabled":false,"rental_uris":{"android":"levelo://app?vid=6f0a34a5-dcd2-40df-a525-7f6c1402acf2","ios":"levelo://app?vid=6f0a34a5-dcd2-40df-a525-7f6c1402acf2"},"vehicle_type_id":"4","last_reported":1736964739,"current_range_meters":11600,"station_id":"ce4bh0h2rcd13ifvqd50","pricing_plan_id":"cebpf4jnsgd1na2vs0mg"},{"bike_id":"4d8f1284-de96-4dfa-bfdc-e7d7c21e7025","system_id":"levelo_inurba_marseille","lat":43.30322,"lon":5.40433,"is_reserved":false,"is_disabled":false,"rental_uris":{"android":"levelo://app?vid=4d8f1284-de96-4dfa-bfdc-e7d7c21e7025","ios":"levelo://app?vid=4d8f1284-de96-4dfa-bfdc-e7d7c21e7025"},"vehicle_type_id":"4","last_reported":1736964739,"current_range_meters":6800,"station_id":"ce4bh012rcd13ifvqd10","pricing_plan_id":"cebpf4jnsgd1na2vs0mg"},{"bike_id":"165cf7b4-a5ef-4aeb-9fb1-9906ffc624cd","system_id":"levelo_inurba_marseille","lat":43.29334,"lon":5.41154,"is_reserved":false,"is_disabled":false,"rental_uris":{"android":"levelo://app?vid=165cf7b4-a5ef-4aeb-9fb1-9906ffc624cd","ios":"levelo://app?vid=165cf7b4-a5ef-4aeb-9fb1-9906ffc624cd"},"vehicle_type_id":"4","last_reported":1736964739,"current_range_meters":9200,"station_id":"","pricing_plan_id":"cebpf4jnsgd1na2vs0mg"},{"bike_id":"e3df3961-a645-4f3c-a20b-24749891893f","system_id":"levelo_inurba_marseille","lat":43.26586,"lon":5.39015,"is_reserved":false,"is_disabled":true,"rental_uris":{"android":"levelo://app?vid=e3df3961-a645-4f3c-a20b-24749891893f","ios":"levelo://app?vid=e3df3961-a645-4f3c-a20b-24749891893f"},"vehicle_type_id":"4","last_reported":1736964739,"current_range_meters":0,"station_id":"ce4bhe12rcd13ifvqf30","pricing_plan_id":"cebpf4jnsgd1na2vs0mg"},{"bike_id":"2d7f3353-743b-41e1-85f2-e32181d4ae48","system_id":"levelo_inurba_marseille","lat":43.31994,"lon":5.3815,"is_reserved":false,"is_disabled":false,"rental_uris":{"android":"levelo://app?vid=2d7f3353-743b-41e1-85f2-e32181d4ae48","ios":"levelo://app?vid=2d7f3353-743b-41e1-85f2-e32181d4ae48"},"vehicle_type_id":"4","last_reported":1736964739,"current_range_meters":36800,"station_id":"ce4bhr12rcd13ifvqhpg","pricing_plan_id":"cebpf4jnsgd1na2vs0mg"},{"bike_id":"7e3ee2e7-7482-4133-a472-006dba3905fa","system_id":"levelo_inurba_marseille","lat":43.25499,"lon":5.3765,"is_reserved":false,"is_disabled":false,"rental_uris":{"android":"levelo://app?vid=7e3ee2e7-7482-4133-a472-006dba3905fa","ios":"levelo://app?vid=7e3ee2e7-7482-4133-a472-006dba3905fa"},"vehicle_type_id":"4","last_reported":1736964739,"current_range_meters":30400,"station_id":"ce4bhh12rcd13ifvqff0","pricing_plan_id":"cebpf4jnsgd1na2vs0mg"},{"bike_id":"09110007-999b-4b1e-86b3-6f7a2e086620","system_id":"levelo_inurba_marseille","lat":43.29223,"lon":5.36083,"is_reserved":false,"is_disabled":false,"rental_uris":{"android":"levelo://app?vid=09110007-999b-4b1e-86b3-6f7a2e086620","ios":"levelo://app?vid=09110007-999b-4b1e-86b3-6f7a2e086620"},"vehicle_type_id":"4","last_reported":1736964739,"current_range_meters":9200,"station_id":"ce4bhbh2rcd13ifvqeqg","pricing_plan_id":"cebpf4jnsgd1na2vs0mg"},{"bike_id":"363da7d7-f331-4be5-b616-92543340adb3","system_id":"levelo_inurba_marseille","lat":43.27181,"lon":5.40981,"is_reserved":false,"is_disabled":false,"rental_uris":{"android":"levelo://app?vid=363da7d7-f331-4be5-b616-92543340adb3","ios":"levelo://app?vid=363da7d7-f331-4be5-b616-92543340adb3"},"vehicle_type_id":"4","last_reported":1736964739,"current_range_meters":37600,"station_id":"ce4bhl12rcd13ifvqgf0","pricing_plan_id":"cebpf4jnsgd1na2vs0mg"},{"bike_id":"3b81ae39-027f-428c-b2db-070b6b26668c","system_id":"levelo_inurba_marseille","lat":43.28101,"lon":5.3784,"is_reserved":false,"is_disabled":false,"rental_uris":{"android":"levelo://app?vid=3b81ae39-027f-428c-b2db-070b6b26668c","ios":"levelo://app?vid=3b81ae39-027f-428c-b2db-070b6b26668c"},"vehicle_type_id":"4","last_reported":1736964739,"current_range_meters":12800,"station_id":"ce4bha12rcd13ifvqee0","pricing_plan_id":"cebpf4jnsgd1na2vs0mg"},{"bike_id":"fbe2e4fb-9ca6-4f7f-b736-7933cde5c45f","system_id":"levelo_inurba_marseille","lat":43.28851,"lon":5.39337,"is_reserved":false,"is_disabled":false,"rental_uris":{"android":"levelo://app?vid=fbe2e4fb-9ca6-4f7f-b736-7933cde5c45f","ios":"levelo://app?vid=fbe2e4fb-9ca6-4f7f-b736-7933cde5c45f"},"vehicle_type_id":"4","last_reported":1736964739,"current_range_meters":9600,"station_id":"ce4bh492rcd13ifvqdvg","pricing_plan_id":"cebpf4jnsgd1na2vs0mg"},{"bike_id":"1d6528fb-0c16-40a0-8901-74c2906f9d60","system_id":"levelo_inurba_marseille","lat":43.31759,"lon":5.39019,"is_reserved":false,"is_disabled":false,"rental_uris":{"android":"levelo://app?vid=1d6528fb-0c16-40a0-8901-74c2906f9d60","ios":"levelo://app?vid=1d6528fb-0c16-40a0-8901-74c2906f9d60"},"vehicle_type_id":"4","last_reported":1736964739,"current_range_meters":16400,"station_id":"ce4bhqp2rcd13ifvqhng","pricing_plan_id":"cebpf4jnsgd1na2vs0mg"},{"bike_id":"c3e35290-6491-44eb-9866-0c9e8e5b99c9","system_id":"levelo_inurba_marseille","lat":43.32293,"lon":5.38275,"is_reserved":false,"is_disabled":false,"rental_uris":{"android":"levelo://app?vid=c3e35290-6491-44eb-9866-0c9e8e5b99c9","ios":"levelo://app?vid=c3e35290-6491-44eb-9866-0c9e8e5b99c9"},"vehicle_type_id":"4","last_reported":1736964739,"current_range_meters":18800,"station_id":"ce4bhr12rcd13ifvqhqg","pricing_plan_id":"cebpf4jnsgd1na2vs0mg"},{"bike_id":"b583689d-4b3b-4fec-a4c3-0358dd755494","system_id":"levelo_inurba_marseille","lat":43.26682,"lon":5.38272,"is_reserved":false,"is_disabled":false,"rental_uris":{"android":"levelo://app?vid=b583689d-4b3b-4fec-a4c3-0358dd755494","ios":"levelo://app?vid=b583689d-4b3b-4fec-a4c3-0358dd755494"},"vehicle_type_id":"4","last_reported":1736964739,"current_range_meters":27200,"station_id":"ce4bhg92rcd13ifvqf90","pricing_plan_id":"cebpf4jnsgd1na2vs0mg"},{"bike_id":"55cf908b-1b3d-492f-9bfd-085397d23224","system_id":"levelo_inurba_marseille","lat":43.28154,"lon":5.42651,"is_reserved":false,"is_disabled":false,"rental_uris":{"android":"levelo://app?vid=55cf908b-1b3d-492f-9bfd-085397d23224","ios":"levelo://app?vid=55cf908b-1b3d-492f-9bfd-085397d23224"},"vehicle_type_id":"4","last_reported":1736964739,"current_range_meters":10800,"station_id":"ce4bhnh2rcd13ifvqgug","pricing_plan_id":"cebpf4jnsgd1na2vs0mg"},{"bike_id":"b0f2af73-b540-43c4-8c5c-803b7d60aea8","system_id":"levelo_inurba_marseille","lat":43.29261,"lon":5.40909,"is_reserved":false,"is_disabled":false,"rental_uris":{"android":"levelo://app?vid=b0f2af73-b540-43c4-8c5c-803b7d60aea8","ios":"levelo://app?vid=b0f2af73-b540-43c4-8c5c-803b7d60aea8"},"vehicle_type_id":"4","last_reported":1736964739,"current_range_meters":16400,"station_id":"ce4bh192rcd13ifvqdc0","pricing_plan_id":"cebpf4jnsgd1na2vs0mg"},{"bike_id":"8534aaf4-535f-4db5-8998-0f97ef68ef36","system_id":"levelo_inurba_marseille","lat":43.24382,"lon":5.37062,"is_reserved":false,"is_disabled":false,"rental_uris":{"android":"levelo://app?vid=8534aaf4-535f-4db5-8998-0f97ef68ef36","ios":"levelo://app?vid=8534aaf4-535f-4db5-8998-0f97ef68ef36"},"vehicle_type_id":"4","last_reported":1736964739,"current_range_meters":14000,"station_id":"ce4bhhh2rcd13ifvqfk0","pricing_plan_id":"cebpf4jnsgd1na2vs0mg"},{"bike_id":"5d42a98e-bef8-43af-946e-751274f82d4c","system_id":"levelo_inurba_marseille","lat":43.23656,"lon":5.43598,"is_reserved":false,"is_disabled":false,"rental_uris":{"android":"levelo://app?vid=5d42a98e-bef8-43af-946e-751274f82d4c","ios":"levelo://app?vid=5d42a98e-bef8-43af-946e-751274f82d4c"},"vehicle_type_id":"4","last_reported":1736964739,"current_range_meters":34800,"station_id":"","pricing_plan_id":"cebpf4jnsgd1na2vs0mg"},{"bike_id":"f0e7d635-1686-43ed-806b-672482d07bd4","system_id":"levelo_inurba_marseille","lat":43.27569,"lon":5.3842,"is_reserved":false,"is_disabled":false,"rental_uris":{"android":"levelo://app?vid=f0e7d635-1686-43ed-806b-672482d07bd4","ios":"levelo://app?vid=f0e7d635-1686-43ed-806b-672482d07bd4"},"vehicle_type_id":"4","last_reported":1736964739,"current_range_meters":27600,"station_id":"ce4bhh92rcd13ifvqfi0","pricing_plan_id":"cebpf4jnsgd1na2vs0mg"},{"bike_id":"9e9b26f2-8c6d-4bcc-85d7-1d45f68b08e0","system_id":"levelo_inurba_marseille","lat":43.30545,"lon":5.38428,"is_reserved":false,"is_disabled":false,"rental_uris":{"android":"levelo://app?vid=9e9b26f2-8c6d-4bcc-85d7-1d45f68b08e0","ios":"levelo://app?vid=9e9b26f2-8c6d-4bcc-85d7-1d45f68b08e0"},"vehicle_type_id":"4","last_reported":1736964739,"current_range_meters":38400,"station_id":"ce4bgg92rcd13ifvqb30","pricing_plan_id":"cebpf4jnsgd1na2vs0mg"},{"bike_id":"6c02ae22-4e33-4b73-a0d5-7fa499611cc2","system_id":"levelo_inurba_marseille","lat":43.23157,"lon":5.43698,"is_reserved":false,"is_disabled":false,"rental_uris":{"android":"levelo://app?vid=6c02ae22-4e33-4b73-a0d5-7fa499611cc2","ios":"levelo://app?vid=6c02ae22-4e33-4b73-a0d5-7fa499611cc2"},"vehicle_type_id":"4","last_reported":1736964739,"current_range_meters":37600,"station_id":"ce4bhmp2rcd13ifvqgog","pricing_plan_id":"cebpf4jnsgd1na2vs0mg"},{"bike_id":"26c59f0b-5c67-41af-a7c3-448cd620e554","system_id":"levelo_inurba_marseille","lat":43.26803,"lon":5.4027,"is_reserved":false,"is_disabled":false,"rental_uris":{"android":"levelo://app?vid=26c59f0b-5c67-41af-a7c3-448cd620e554","ios":"levelo://app?vid=26c59f0b-5c67-41af-a7c3-448cd620e554"},"vehicle_type_id":"4","last_reported":1736964739,"current_range_meters":39200,"station_id":"ce501612rcd8frsf0b60","pricing_plan_id":"cebpf4jnsgd1na2vs0mg"},{"bike_id":"f3000f12-d78d-46d5-99ca-8a4e13f94f9e","system_id":"levelo_inurba_marseille","lat":43.25506,"lon":5.37637,"is_reserved":false,"is_disabled":false,"rental_uris":{"android":"levelo://app?vid=f3000f12-d78d-46d5-99ca-8a4e13f94f9e","ios":"levelo://app?vid=f3000f12-d78d-46d5-99ca-8a4e13f94f9e"},"vehicle_type_id":"4","last_reported":1736964739,"current_range_meters":39200,"station_id":"ce4bhh12rcd13ifvqff0","pricing_plan_id":"cebpf4jnsgd1na2vs0mg"},{"bike_id":"7241fb88-c4be-4279-8256-9b9eda4440ff","system_id":"levelo_inurba_marseille","lat":43.24646,"lon":5.3889,"is_reserved":false,"is_disabled":false,"rental_uris":{"android":"levelo://app?vid=7241fb88-c4be-4279-8256-9b9eda4440ff","ios":"levelo://app?vid=7241fb88-c4be-4279-8256-9b9eda4440ff"},"vehicle_type_id":"4","last_reported":1736964739,"current_range_meters":30000,"station_id":"ce4bhg12rcd13ifvqf60","pricing_plan_id":"cebpf4jnsgd1na2vs0mg"},{"bike_id":"daed1ccd-abf9-45c7-831e-19fefaff00a6","system_id":"levelo_inurba_marseille","lat":43.28151,"lon":5.42646,"is_reserved":false,"is_disabled":false,"rental_uris":{"android":"levelo://app?vid=daed1ccd-abf9-45c7-831e-19fefaff00a6","ios":"levelo://app?vid=daed1ccd-abf9-45c7-831e-19fefaff00a6"},"vehicle_type_id":"4","last_reported":1736964739,"current_range_meters":18800,"station_id":"ce4bhnh2rcd13ifvqgug","pricing_plan_id":"cebpf4jnsgd1na2vs0mg"},{"bike_id":"76d2c887-724d-4ce1-aa3f-0762372432b1","system_id":"levelo_inurba_marseille","lat":43.29872,"lon":5.39739,"is_reserved":false,"is_disabled":false,"rental_uris":{"android":"levelo://app?vid=76d2c887-724d-4ce1-aa3f-0762372432b1","ios":"levelo://app?vid=76d2c887-724d-4ce1-aa3f-0762372432b1"},"vehicle_type_id":"4","last_reported":1736964739,"current_range_meters":3600,"station_id":"ce4bh0h2rcd13ifvqd50","pricing_plan_id":"cebpf4jnsgd1na2vs0mg"},{"bike_id":"18aa87ac-4f2a-414a-88f7-f106e8544a48","system_id":"levelo_inurba_marseille","lat":43.2846,"lon":5.3589,"is_reserved":false,"is_disabled":false,"rental_uris":{"android":"levelo://app?vid=18aa87ac-4f2a-414a-88f7-f106e8544a48","ios":"levelo://app?vid=18aa87ac-4f2a-414a-88f7-f106e8544a48"},"vehicle_type_id":"4","last_reported":1736964739,"current_range_meters":27600,"station_id":"ce4bhah2rcd13ifvqei0","pricing_plan_id":"cebpf4jnsgd1na2vs0mg"},{"bike_id":"dc60efce-b5e8-470c-804f-f162654810e9","system_id":"levelo_inurba_marseille","lat":43.2679,"lon":5.39414,"is_reserved":false,"is_disabled":false,"rental_uris":{"android":"levelo://app?vid=dc60efce-b5e8-470c-804f-f162654810e9","ios":"levelo://app?vid=dc60efce-b5e8-470c-804f-f162654810e9"},"vehicle_type_id":"4","last_reported":1736964739,"current_range_meters":14400,"station_id":"ce4bhh12rcd13ifvqfg0","pricing_plan_id":"cebpf4jnsgd1na2vs0mg"},{"bike_id":"b67528ff-e11b-45e6-a93f-d585919178b3","system_id":"levelo_inurba_marseille","lat":43.24805,"lon":5.37458,"is_reserved":false,"is_disabled":false,"rental_uris":{"android":"levelo://app?vid=b67528ff-e11b-45e6-a93f-d585919178b3","ios":"levelo://app?vid=b67528ff-e11b-45e6-a93f-d585919178b3"},"vehicle_type_id":"4","last_reported":1736964739,"current_range_meters":39200,"station_id":"ce4bhgh2rcd13ifvqfb0","pricing_plan_id":"cebpf4jnsgd1na2vs0mg"},{"bike_id":"bdc6469e-a7aa-4a36-8fc3-b5204f4920ea","system_id":"levelo_inurba_marseille","lat":43.29232,"lon":5.3606,"is_reserved":false,"is_disabled":false,"rental_uris":{"android":"levelo://app?vid=bdc6469e-a7aa-4a36-8fc3-b5204f4920ea","ios":"levelo://app?vid=bdc6469e-a7aa-4a36-8fc3-b5204f4920ea"},"vehicle_type_id":"4","last_reported":1736964739,"current_range_meters":27600,"station_id":"ce4bhbh2rcd13ifvqeqg","pricing_plan_id":"cebpf4jnsgd1na2vs0mg"},{"bike_id":"048cab23-609b-400e-80b7-e726b5348095","system_id":"levelo_inurba_marseille","lat":43.27996,"lon":5.40027,"is_reserved":false,"is_disabled":false,"rental_uris":{"android":"levelo://app?vid=048cab23-609b-400e-80b7-e726b5348095","ios":"levelo://app?vid=048cab23-609b-400e-80b7-e726b5348095"},"vehicle_type_id":"4","last_reported":1736964739,"current_range_meters":22800,"station_id":"ce4bho92rcd13ifvqh4g","pricing_plan_id":"cebpf4jnsgd1na2vs0mg"},{"bike_id":"ba1008a8-8bd4-4cbd-ad17-281945b98710","system_id":"levelo_inurba_marseille","lat":43.26942,"lon":5.38619,"is_reserved":false,"is_disabled":true,"rental_uris":{"android":"levelo://app?vid=ba1008a8-8bd4-4cbd-ad17-281945b98710","ios":"levelo://app?vid=ba1008a8-8bd4-4cbd-ad17-281945b98710"},"vehicle_type_id":"4","last_reported":1736964739,"current_range_meters":3200,"station_id":"ce4bhh92rcd13ifvqfh0","pricing_plan_id":"cebpf4jnsgd1na2vs0mg"},{"bike_id":"17ba3271-db4c-4c3f-b0b4-3c67257934e2","system_id":"levelo_inurba_marseille","lat":43.27569,"lon":5.3843,"is_reserved":false,"is_disabled":false,"rental_uris":{"android":"levelo://app?vid=17ba3271-db4c-4c3f-b0b4-3c67257934e2","ios":"levelo://app?vid=17ba3271-db4c-4c3f-b0b4-3c67257934e2"},"vehicle_type_id":"4","last_reported":1736964739,"current_range_meters":28000,"station_id":"ce4bhh92rcd13ifvqfi0","pricing_plan_id":"cebpf4jnsgd1na2vs0mg"},{"bike_id":"2432eacd-ab10-461b-a2e2-21c71ec55dc6","system_id":"levelo_inurba_marseille","lat":43.2893,"lon":5.38399,"is_reserved":false,"is_disabled":false,"rental_uris":{"android":"levelo://app?vid=2432eacd-ab10-461b-a2e2-21c71ec55dc6","ios":"levelo://app?vid=2432eacd-ab10-461b-a2e2-21c71ec55dc6"},"vehicle_type_id":"4","last_reported":1736964739,"current_range_meters":35600,"station_id":"ce4bh612rcd13ifvqe6g","pricing_plan_id":"cebpf4jnsgd1na2vs0mg"},{"bike_id":"17c55e93-2b0e-4510-befc-b23a7d2795ce","system_id":"levelo_inurba_marseille","lat":43.299479,"lon":5.379362,"is_reserved":false,"is_disabled":false,"rental_uris":{"android":"levelo://app?vid=17c55e93-2b0e-4510-befc-b23a7d2795ce","ios":"levelo://app?vid=17c55e93-2b0e-4510-befc-b23a7d2795ce"},"vehicle_type_id":"4","last_reported":1736964739,"current_range_meters":36400,"station_id":"ce4bguh2rcd13ifvqcj0","pricing_plan_id":"cebpf4jnsgd1na2vs0mg"},{"bike_id":"da3f7a96-04f0-45a8-ab21-e4d3ec53c466","system_id":"levelo_inurba_marseille","lat":43.24547,"lon":5.39519,"is_reserved":false,"is_disabled":false,"rental_uris":{"android":"levelo://app?vid=da3f7a96-04f0-45a8-ab21-e4d3ec53c466","ios":"levelo://app?vid=da3f7a96-04f0-45a8-ab21-e4d3ec53c466"},"vehicle_type_id":"4","last_reported":1736964739,"current_range_meters":32000,"station_id":"ce4bhlp2rcd13ifvqgjg","pricing_plan_id":"cebpf4jnsgd1na2vs0mg"},{"bike_id":"c9490a67-cce2-46e8-bf58-b2d80a2b83b4","system_id":"levelo_inurba_marseille","lat":43.27571,"lon":5.38424,"is_reserved":false,"is_disabled":false,"rental_uris":{"android":"levelo://app?vid=c9490a67-cce2-46e8-bf58-b2d80a2b83b4","ios":"levelo://app?vid=c9490a67-cce2-46e8-bf58-b2d80a2b83b4"},"vehicle_type_id":"4","last_reported":1736964739,"current_range_meters":8000,"station_id":"ce4bhh92rcd13ifvqfi0","pricing_plan_id":"cebpf4jnsgd1na2vs0mg"},{"bike_id":"4b23d2ce-c5cb-4abd-bf6a-d648f7e65220","system_id":"levelo_inurba_marseille","lat":43.28845,"lon":5.39346,"is_reserved":false,"is_disabled":false,"rental_uris":{"android":"levelo://app?vid=4b23d2ce-c5cb-4abd-bf6a-d648f7e65220","ios":"levelo://app?vid=4b23d2ce-c5cb-4abd-bf6a-d648f7e65220"},"vehicle_type_id":"4","last_reported":1736964739,"current_range_meters":38800,"station_id":"ce4bh2p2rcd13ifvqdi0","pricing_plan_id":"cebpf4jnsgd1na2vs0mg"},{"bike_id":"a019fb2c-026e-432f-a789-2e11293226c1","system_id":"levelo_inurba_marseille","lat":43.30798,"lon":5.3701,"is_reserved":false,"is_disabled":false,"rental_uris":{"android":"levelo://app?vid=a019fb2c-026e-432f-a789-2e11293226c1","ios":"levelo://app?vid=a019fb2c-026e-432f-a789-2e11293226c1"},"vehicle_type_id":"4","last_reported":1736964739,"current_range_meters":13600,"station_id":"","pricing_plan_id":"cebpf4jnsgd1na2vs0mg"},{"bike_id":"c3add43b-bf52-4193-b880-0d78478473f5","system_id":"levelo_inurba_marseille","lat":43.23197,"lon":5.35545,"is_reserved":false,"is_disabled":false,"rental_uris":{"android":"levelo://app?vid=c3add43b-bf52-4193-b880-0d78478473f5","ios":"levelo://app?vid=c3add43b-bf52-4193-b880-0d78478473f5"},"vehicle_type_id":"4","last_reported":1736964739,"current_range_meters":36800,"station_id":"ce4bhu92rcd13ifvqi70","pricing_plan_id":"cebpf4jnsgd1na2vs0mg"},{"bike_id":"947b72db-1cf2-403f-a67a-4036bc0d21b9","system_id":"levelo_inurba_marseille","lat":43.292,"lon":5.39321,"is_reserved":false,"is_disabled":false,"rental_uris":{"android":"levelo://app?vid=947b72db-1cf2-403f-a67a-4036bc0d21b9","ios":"levelo://app?vid=947b72db-1cf2-403f-a67a-4036bc0d21b9"},"vehicle_type_id":"4","last_reported":1736964739,"current_range_meters":12000,"station_id":"ce4bh192rcd13ifvqdd0","pricing_plan_id":"cebpf4jnsgd1na2vs0mg"},{"bike_id":"b5afb34a-447b-45fd-99a2-32ae5df604b2","system_id":"levelo_inurba_marseille","lat":43.2892,"lon":5.38393,"is_reserved":false,"is_disabled":false,"rental_uris":{"android":"levelo://app?vid=b5afb34a-447b-45fd-99a2-32ae5df604b2","ios":"levelo://app?vid=b5afb34a-447b-45fd-99a2-32ae5df604b2"},"vehicle_type_id":"4","last_reported":1736964739,"current_range_meters":14000,"station_id":"ce4bh612rcd13ifvqe6g","pricing_plan_id":"cebpf4jnsgd1na2vs0mg"},{"bike_id":"59e39e6e-07d2-4c0d-a96b-2eece172dc89","system_id":"levelo_inurba_marseille","lat":43.26213,"lon":5.37437,"is_reserved":false,"is_disabled":true,"rental_uris":{"android":"levelo://app?vid=59e39e6e-07d2-4c0d-a96b-2eece172dc89","ios":"levelo://app?vid=59e39e6e-07d2-4c0d-a96b-2eece172dc89"},"vehicle_type_id":"4","last_reported":1736964739,"current_range_meters":38000,"station_id":"ce4bhgp2rcd13ifvqfc0","pricing_plan_id":"cebpf4jnsgd1na2vs0mg"},{"bike_id":"96e69cfe-5e50-41ce-aa6e-6902d6bb694c","system_id":"levelo_inurba_marseille","lat":43.26561,"lon":5.39003,"is_reserved":false,"is_disabled":false,"rental_uris":{"android":"levelo://app?vid=96e69cfe-5e50-41ce-aa6e-6902d6bb694c","ios":"levelo://app?vid=96e69cfe-5e50-41ce-aa6e-6902d6bb694c"},"vehicle_type_id":"4","last_reported":1736964739,"current_range_meters":4400,"station_id":"ce4bhe12rcd13ifvqf30","pricing_plan_id":"cebpf4jnsgd1na2vs0mg"},{"bike_id":"5565ba63-8c08-4156-ad24-a446e77f076d","system_id":"levelo_inurba_marseille","lat":43.25505,"lon":5.37644,"is_reserved":false,"is_disabled":false,"rental_uris":{"android":"levelo://app?vid=5565ba63-8c08-4156-ad24-a446e77f076d","ios":"levelo://app?vid=5565ba63-8c08-4156-ad24-a446e77f076d"},"vehicle_type_id":"4","last_reported":1736964739,"current_range_meters":37600,"station_id":"ce4bhh12rcd13ifvqff0","pricing_plan_id":"cebpf4jnsgd1na2vs0mg"},{"bike_id":"bdd7c4c9-f9bc-4cf0-9638-ea56b0417d02","system_id":"levelo_inurba_marseille","lat":43.29798,"lon":5.39347,"is_reserved":false,"is_disabled":false,"rental_uris":{"android":"levelo://app?vid=bdd7c4c9-f9bc-4cf0-9638-ea56b0417d02","ios":"levelo://app?vid=bdd7c4c9-f9bc-4cf0-9638-ea56b0417d02"},"vehicle_type_id":"4","last_reported":1736964739,"current_range_meters":39200,"station_id":"chh1huq6cuj3fo74tm60","pricing_plan_id":"cebpf4jnsgd1na2vs0mg"},{"bike_id":"0e4637c7-6be3-4881-b121-b71dec6ff51c","system_id":"levelo_inurba_marseille","lat":43.27941,"lon":5.41048,"is_reserved":false,"is_disabled":false,"rental_uris":{"android":"levelo://app?vid=0e4637c7-6be3-4881-b121-b71dec6ff51c","ios":"levelo://app?vid=0e4637c7-6be3-4881-b121-b71dec6ff51c"},"vehicle_type_id":"4","last_reported":1736964739,"current_range_meters":30800,"station_id":"ce4bhnp2rcd13ifvqh0g","pricing_plan_id":"cebpf4jnsgd1na2vs0mg"},{"bike_id":"979c6a1d-bb0d-40ff-9726-66829da50ee4","system_id":"levelo_inurba_marseille","lat":43.31168,"lon":5.38721,"is_reserved":false,"is_disabled":false,"rental_uris":{"android":"levelo://app?vid=979c6a1d-bb0d-40ff-9726-66829da50ee4","ios":"levelo://app?vid=979c6a1d-bb0d-40ff-9726-66829da50ee4"},"vehicle_type_id":"4","last_reported":1736964739,"current_range_meters":16000,"station_id":"ce4bgv12rcd13ifvqcp0","pricing_plan_id":"cebpf4jnsgd1na2vs0mg"},{"bike_id":"8634d533-55d4-4a40-bb57-399a4022b1e2","system_id":"levelo_inurba_marseille","lat":43.29869,"lon":5.39743,"is_reserved":false,"is_disabled":false,"rental_uris":{"android":"levelo://app?vid=8634d533-55d4-4a40-bb57-399a4022b1e2","ios":"levelo://app?vid=8634d533-55d4-4a40-bb57-399a4022b1e2"},"vehicle_type_id":"4","last_reported":1736964739,"current_range_meters":3600,"station_id":"ce4bh0h2rcd13ifvqd50","pricing_plan_id":"cebpf4jnsgd1na2vs0mg"},{"bike_id":"93bc7e9d-3047-482e-a396-1037e95fe874","system_id":"levelo_inurba_marseille","lat":43.32282,"lon":5.38247,"is_reserved":false,"is_disabled":false,"rental_uris":{"android":"levelo://app?vid=93bc7e9d-3047-482e-a396-1037e95fe874","ios":"levelo://app?vid=93bc7e9d-3047-482e-a396-1037e95fe874"},"vehicle_type_id":"4","last_reported":1736964739,"current_range_meters":22000,"station_id":"ce4bhr12rcd13ifvqhqg","pricing_plan_id":"cebpf4jnsgd1na2vs0mg"},{"bike_id":"897e2466-1a6e-40a4-a62e-a7124cf30325","system_id":"levelo_inurba_marseille","lat":43.2943,"lon":5.38618,"is_reserved":false,"is_disabled":false,"rental_uris":{"android":"levelo://app?vid=897e2466-1a6e-40a4-a62e-a7124cf30325","ios":"levelo://app?vid=897e2466-1a6e-40a4-a62e-a7124cf30325"},"vehicle_type_id":"4","last_reported":1736964739,"current_range_meters":32000,"station_id":"ce4bh2h2rcd13ifvqdh0","pricing_plan_id":"cebpf4jnsgd1na2vs0mg"},{"bike_id":"f7a93299-4b31-44c2-976e-82f7878bc418","system_id":"levelo_inurba_marseille","lat":43.25493,"lon":5.37656,"is_reserved":false,"is_disabled":false,"rental_uris":{"android":"levelo://app?vid=f7a93299-4b31-44c2-976e-82f7878bc418","ios":"levelo://app?vid=f7a93299-4b31-44c2-976e-82f7878bc418"},"vehicle_type_id":"4","last_reported":1736964739,"current_range_meters":39200,"station_id":"ce4bhh12rcd13ifvqff0","pricing_plan_id":"cebpf4jnsgd1na2vs0mg"},{"bike_id":"22e5a152-04ee-447b-bfc4-83f1a060ab52","system_id":"levelo_inurba_marseille","lat":43.30435,"lon":5.38904,"is_reserved":false,"is_disabled":true,"rental_uris":{"android":"levelo://app?vid=22e5a152-04ee-447b-bfc4-83f1a060ab52","ios":"levelo://app?vid=22e5a152-04ee-447b-bfc4-83f1a060ab52"},"vehicle_type_id":"4","last_reported":1736964739,"current_range_meters":800,"station_id":"ce4bgk12rcd13ifvqbi0","pricing_plan_id":"cebpf4jnsgd1na2vs0mg"},{"bike_id":"31f00ed0-b0ca-427a-9039-ac29c940ea2c","system_id":"levelo_inurba_marseille","lat":43.23194,"lon":5.35555,"is_reserved":false,"is_disabled":false,"rental_uris":{"android":"levelo://app?vid=31f00ed0-b0ca-427a-9039-ac29c940ea2c","ios":"levelo://app?vid=31f00ed0-b0ca-427a-9039-ac29c940ea2c"},"vehicle_type_id":"4","last_reported":1736964739,"current_range_meters":22800,"station_id":"ce4bhu92rcd13ifvqi70","pricing_plan_id":"cebpf4jnsgd1na2vs0mg"},{"bike_id":"d7f5d4c6-bbf8-4b70-b155-045d91f5275a","system_id":"levelo_inurba_marseille","lat":43.30538,"lon":5.38418,"is_reserved":false,"is_disabled":false,"rental_uris":{"android":"levelo://app?vid=d7f5d4c6-bbf8-4b70-b155-045d91f5275a","ios":"levelo://app?vid=d7f5d4c6-bbf8-4b70-b155-045d91f5275a"},"vehicle_type_id":"4","last_reported":1736964739,"current_range_meters":24400,"station_id":"ce4bgg92rcd13ifvqb30","pricing_plan_id":"cebpf4jnsgd1na2vs0mg"},{"bike_id":"7e8ef3b3-3afd-4279-ba97-4c12bb01b741","system_id":"levelo_inurba_marseille","lat":43.287053,"lon":5.37408,"is_reserved":false,"is_disabled":false,"rental_uris":{"android":"levelo://app?vid=7e8ef3b3-3afd-4279-ba97-4c12bb01b741","ios":"levelo://app?vid=7e8ef3b3-3afd-4279-ba97-4c12bb01b741"},"vehicle_type_id":"4","last_reported":1736964739,"current_range_meters":10000,"station_id":"ce4bh3p2rcd13ifvqdq0","pricing_plan_id":"cebpf4jnsgd1na2vs0mg"},{"bike_id":"8ccdb8e3-5350-4cab-8a81-1bd6181a6c06","system_id":"levelo_inurba_marseille","lat":43.23204,"lon":5.35552,"is_reserved":false,"is_disabled":false,"rental_uris":{"android":"levelo://app?vid=8ccdb8e3-5350-4cab-8a81-1bd6181a6c06","ios":"levelo://app?vid=8ccdb8e3-5350-4cab-8a81-1bd6181a6c06"},"vehicle_type_id":"4","last_reported":1736964739,"current_range_meters":32800,"station_id":"ce4bhu92rcd13ifvqi70","pricing_plan_id":"cebpf4jnsgd1na2vs0mg"},{"bike_id":"0014a942-135d-4d7b-8c80-b0eb42d4aa66","system_id":"levelo_inurba_marseille","lat":43.29565,"lon":5.38164,"is_reserved":false,"is_disabled":false,"rental_uris":{"android":"levelo://app?vid=0014a942-135d-4d7b-8c80-b0eb42d4aa66","ios":"levelo://app?vid=0014a942-135d-4d7b-8c80-b0eb42d4aa66"},"vehicle_type_id":"4","last_reported":1736964739,"current_range_meters":31200,"station_id":"ce4bgl12rcd13ifvqbo0","pricing_plan_id":"cebpf4jnsgd1na2vs0mg"},{"bike_id":"b64b14d9-a03a-4200-91e3-c0820d60682c","system_id":"levelo_inurba_marseille","lat":43.24181,"lon":5.39725,"is_reserved":false,"is_disabled":false,"rental_uris":{"android":"levelo://app?vid=b64b14d9-a03a-4200-91e3-c0820d60682c","ios":"levelo://app?vid=b64b14d9-a03a-4200-91e3-c0820d60682c"},"vehicle_type_id":"4","last_reported":1736964739,"current_range_meters":24800,"station_id":"ce4bhn12rcd13ifvqgpg","pricing_plan_id":"cebpf4jnsgd1na2vs0mg"},{"bike_id":"7d827ce8-db65-40d3-9b67-f7f55409f789","system_id":"levelo_inurba_marseille","lat":43.27999,"lon":5.40015,"is_reserved":false,"is_disabled":false,"rental_uris":{"android":"levelo://app?vid=7d827ce8-db65-40d3-9b67-f7f55409f789","ios":"levelo://app?vid=7d827ce8-db65-40d3-9b67-f7f55409f789"},"vehicle_type_id":"4","last_reported":1736964739,"current_range_meters":12800,"station_id":"ce4bho92rcd13ifvqh4g","pricing_plan_id":"cebpf4jnsgd1na2vs0mg"},{"bike_id":"85bf5fc6-d83f-4508-bddf-a07163702bc4","system_id":"levelo_inurba_marseille","lat":43.29229,"lon":5.36073,"is_reserved":false,"is_disabled":false,"rental_uris":{"android":"levelo://app?vid=85bf5fc6-d83f-4508-bddf-a07163702bc4","ios":"levelo://app?vid=85bf5fc6-d83f-4508-bddf-a07163702bc4"},"vehicle_type_id":"4","last_reported":1736964739,"current_range_meters":30800,"station_id":"ce4bhbh2rcd13ifvqeqg","pricing_plan_id":"cebpf4jnsgd1na2vs0mg"},{"bike_id":"f6f6a71b-b625-4020-bff4-8a83c993b7b7","system_id":"levelo_inurba_marseille","lat":43.31484,"lon":5.37277,"is_reserved":false,"is_disabled":false,"rental_uris":{"android":"levelo://app?vid=f6f6a71b-b625-4020-bff4-8a83c993b7b7","ios":"levelo://app?vid=f6f6a71b-b625-4020-bff4-8a83c993b7b7"},"vehicle_type_id":"4","last_reported":1736964739,"current_range_meters":38800,"station_id":"ce4bgt12rcd13ifvqcd0","pricing_plan_id":"cebpf4jnsgd1na2vs0mg"},{"bike_id":"4d24e23c-fa2b-4923-9c4e-e22b64483e15","system_id":"levelo_inurba_marseille","lat":43.29585,"lon":5.36739,"is_reserved":false,"is_disabled":false,"rental_uris":{"android":"levelo://app?vid=4d24e23c-fa2b-4923-9c4e-e22b64483e15","ios":"levelo://app?vid=4d24e23c-fa2b-4923-9c4e-e22b64483e15"},"vehicle_type_id":"4","last_reported":1736964739,"current_range_meters":39200,"station_id":"ce4bgph2rcd13ifvqc2g","pricing_plan_id":"cebpf4jnsgd1na2vs0mg"},{"bike_id":"69c4adf2-1654-4bff-8fb6-429a400065df","system_id":"levelo_inurba_marseille","lat":43.29264,"lon":5.36843,"is_reserved":false,"is_disabled":false,"rental_uris":{"android":"levelo://app?vid=69c4adf2-1654-4bff-8fb6-429a400065df","ios":"levelo://app?vid=69c4adf2-1654-4bff-8fb6-429a400065df"},"vehicle_type_id":"4","last_reported":1736964739,"current_range_meters":37600,"station_id":"ce4bhbp2rcd13ifvqesg","pricing_plan_id":"cebpf4jnsgd1na2vs0mg"},{"bike_id":"6027163c-6e0b-44a2-bfed-3a477a83b455","system_id":"levelo_inurba_marseille","lat":43.31674,"lon":5.37754,"is_reserved":false,"is_disabled":true,"rental_uris":{"android":"levelo://app?vid=6027163c-6e0b-44a2-bfed-3a477a83b455","ios":"levelo://app?vid=6027163c-6e0b-44a2-bfed-3a477a83b455"},"vehicle_type_id":"4","last_reported":1736964739,"current_range_meters":39200,"station_id":"ce4bgth2rcd13ifvqch0","pricing_plan_id":"cebpf4jnsgd1na2vs0mg"},{"bike_id":"6d7035bc-03fb-481d-bb1e-5df61a4e2711","system_id":"levelo_inurba_marseille","lat":43.25504,"lon":5.37653,"is_reserved":false,"is_disabled":false,"rental_uris":{"android":"levelo://app?vid=6d7035bc-03fb-481d-bb1e-5df61a4e2711","ios":"levelo://app?vid=6d7035bc-03fb-481d-bb1e-5df61a4e2711"},"vehicle_type_id":"4","last_reported":1736964739,"current_range_meters":39200,"station_id":"ce4bhh12rcd13ifvqff0","pricing_plan_id":"cebpf4jnsgd1na2vs0mg"},{"bike_id":"415c9e7b-4d7a-4593-a8b8-1ff95ee571de","system_id":"levelo_inurba_marseille","lat":43.29588,"lon":5.36737,"is_reserved":false,"is_disabled":false,"rental_uris":{"android":"levelo://app?vid=415c9e7b-4d7a-4593-a8b8-1ff95ee571de","ios":"levelo://app?vid=415c9e7b-4d7a-4593-a8b8-1ff95ee571de"},"vehicle_type_id":"4","last_reported":1736964739,"current_range_meters":22000,"station_id":"ce4bgph2rcd13ifvqc2g","pricing_plan_id":"cebpf4jnsgd1na2vs0mg"},{"bike_id":"8b403360-fccf-4295-acb2-d7cb761f096c","system_id":"levelo_inurba_marseille","lat":43.25825,"lon":5.39441,"is_reserved":false,"is_disabled":false,"rental_uris":{"android":"levelo://app?vid=8b403360-fccf-4295-acb2-d7cb761f096c","ios":"levelo://app?vid=8b403360-fccf-4295-acb2-d7cb761f096c"},"vehicle_type_id":"4","last_reported":1736964739,"current_range_meters":9200,"station_id":"ce4bhip2rcd13ifvqft0","pricing_plan_id":"cebpf4jnsgd1na2vs0mg"},{"bike_id":"491f135e-bc9f-429d-973f-2b6b7362820b","system_id":"levelo_inurba_marseille","lat":43.24653,"lon":5.38896,"is_reserved":false,"is_disabled":false,"rental_uris":{"android":"levelo://app?vid=491f135e-bc9f-429d-973f-2b6b7362820b","ios":"levelo://app?vid=491f135e-bc9f-429d-973f-2b6b7362820b"},"vehicle_type_id":"4","last_reported":1736964739,"current_range_meters":38800,"station_id":"ce4bhg12rcd13ifvqf60","pricing_plan_id":"cebpf4jnsgd1na2vs0mg"},{"bike_id":"88c79ae2-04c1-48da-ae2b-41810cc7f240","system_id":"levelo_inurba_marseille","lat":43.28034,"lon":5.36938,"is_reserved":false,"is_disabled":false,"rental_uris":{"android":"levelo://app?vid=88c79ae2-04c1-48da-ae2b-41810cc7f240","ios":"levelo://app?vid=88c79ae2-04c1-48da-ae2b-41810cc7f240"},"vehicle_type_id":"4","last_reported":1736964739,"current_range_meters":38800,"station_id":"ce4bha12rcd13ifvqef0","pricing_plan_id":"cebpf4jnsgd1na2vs0mg"},{"bike_id":"9ef17802-aec1-4578-b006-50808987e5bc","system_id":"levelo_inurba_marseille","lat":43.31507,"lon":5.3731,"is_reserved":false,"is_disabled":false,"rental_uris":{"android":"levelo://app?vid=9ef17802-aec1-4578-b006-50808987e5bc","ios":"levelo://app?vid=9ef17802-aec1-4578-b006-50808987e5bc"},"vehicle_type_id":"4","last_reported":1736964739,"current_range_meters":37600,"station_id":"ce4bgt12rcd13ifvqcd0","pricing_plan_id":"cebpf4jnsgd1na2vs0mg"},{"bike_id":"848bfc06-f7c4-4179-9083-13fb1685c884","system_id":"levelo_inurba_marseille","lat":43.29625,"lon":5.37172,"is_reserved":false,"is_disabled":false,"rental_uris":{"android":"levelo://app?vid=848bfc06-f7c4-4179-9083-13fb1685c884","ios":"levelo://app?vid=848bfc06-f7c4-4179-9083-13fb1685c884"},"vehicle_type_id":"4","last_reported":1736964739,"current_range_meters":38800,"station_id":"ce4bgnh2rcd13ifvqc0g","pricing_plan_id":"cebpf4jnsgd1na2vs0mg"},{"bike_id":"33ca93a8-d9f2-4454-a351-9076dd3a188f","system_id":"levelo_inurba_marseille","lat":43.27812,"lon":5.40716,"is_reserved":false,"is_disabled":false,"rental_uris":{"android":"levelo://app?vid=33ca93a8-d9f2-4454-a351-9076dd3a188f","ios":"levelo://app?vid=33ca93a8-d9f2-4454-a351-9076dd3a188f"},"vehicle_type_id":"4","last_reported":1736964739,"current_range_meters":33600,"station_id":"ce4bhnh2rcd13ifvqgtg","pricing_plan_id":"cebpf4jnsgd1na2vs0mg"},{"bike_id":"c0e074d4-566f-41c8-a53c-e42478c02910","system_id":"levelo_inurba_marseille","lat":43.29191,"lon":5.39327,"is_reserved":false,"is_disabled":false,"rental_uris":{"android":"levelo://app?vid=c0e074d4-566f-41c8-a53c-e42478c02910","ios":"levelo://app?vid=c0e074d4-566f-41c8-a53c-e42478c02910"},"vehicle_type_id":"4","last_reported":1736964739,"current_range_meters":39200,"station_id":"ce4bh192rcd13ifvqdd0","pricing_plan_id":"cebpf4jnsgd1na2vs0mg"},{"bike_id":"cc042002-ee15-4a55-8d6c-a54cd1238bcc","system_id":"levelo_inurba_marseille","lat":43.27371,"lon":5.36265,"is_reserved":false,"is_disabled":false,"rental_uris":{"android":"levelo://app?vid=cc042002-ee15-4a55-8d6c-a54cd1238bcc","ios":"levelo://app?vid=cc042002-ee15-4a55-8d6c-a54cd1238bcc"},"vehicle_type_id":"4","last_reported":1736964739,"current_range_meters":16800,"station_id":"ce4bhbh2rcd13ifvqeo0","pricing_plan_id":"cebpf4jnsgd1na2vs0mg"},