{"last_updated":1725905506,"ttl":30,"version":"2.2","data":{"bikes":[{"bike_id":"f8dd7d72-7c52-4ea8-9acd-34afd038f91b","system_id":"levelo_inurba_marseille","lat":43.312239,"lon":5.368562,"is_reserved":false,"is_disabled":false,"rental_uris":{"android":"levelo://app?vid=f8dd7d72-7c52-4ea8-9acd-34afd038f91b","ios":"levelo://app?vid=f8dd7d72-7c52-4ea8-9acd-34afd038f91b"},"vehicle_type_id":"4","last_reported":1725905506,"current_range_meters":4000,"station_id":"ce4bgl92rcd13ifvqbq0","pricing_plan_id":"cebpf4jnsgd1na2vs0mg"},{"bike_id":"b1b1e412-4bea-4e45-8cd9-8129a1fcc1e3","system_id":"levelo_inurba_marseille","lat":43.312312,"lon":5.3686,"is_reserved":false,"is_disabled":false,"rental_uris":{"android":"levelo://app?vid=b1b1e412-4bea-4e45-8cd9-8129a1fcc1e3","ios":"levelo://app?vid=b1b1e412-4bea-4e45-8cd9-8129a1fcc1e3"},"vehicle_type_id":"4","last_reported":1725905506,"current_range_meters":3600,"station_id":"","pricing_plan_id":"cebpf4jnsgd1na2vs0mg"},{"bike_id":"a86898d0-c933-4951-9ddf-af171ec9191d","system_id":"levelo_inurba_marseille","lat":43.30903,"lon":5.36848,"is_reserved":false,"is_disabled":false,"rental_uris":{"android":"levelo://app?vid=a86898d0-c933-4951-9ddf-af171ec9191d","ios":"levelo://app?vid=a86898d0-c933-4951-9ddf-af171ec9191d"},"vehicle_type_id":"4","last_reported":1725905506,"current_range_meters":0,"station_id":"ce4bgn92rcd13ifvqbvg","pricing_plan_id":"cebpf4jnsgd1na2vs0mg"},{"bike_id":"02230319-e0ec-468c-a93d-9b2c085d7640","system_id":"levelo_inurba_marseille","lat":43.314811,"lon":5.373103,"is_reserved":false,"is_disabled":false,"rental_uris":{"android":"levelo://app?vid=02230319-e0ec-468c-a93d-9b2c085d7640","ios":"levelo://app?vid=02230319-e0ec-468c-a93d-9b2c085d7640"},"vehicle_type_id":"4","last_reported":1725905506,"current_range_meters":0,"station_id":"ce4bgt12rcd13ifvqcd0","pricing_plan_id":"cebpf4jnsgd1na2vs0mg"},{"bike_id":"ee57501e-120c-45aa-a3a6-83ed257df0cc","system_id":"levelo_inurba_marseille","lat":43.309039,"lon":5.371797,"is_reserved":false,"is_disabled":false,"rental_uris":{"android":"levelo://app?vid=ee57501e-120c-45aa-a3a6-83ed257df0cc","ios":"levelo://app?vid=ee57501e-120c-45aa-a3a6-83ed257df0cc"},"vehicle_type_id":"4","last_reported":1725905506,"current_range_meters":23600,"station_id":"ce4bguh2rcd13ifvqckg","pricing_plan_id":"cebpf4jnsgd1na2vs0mg"},{"bike_id":"d3f03749-c043-4eee-b4a6-9802c52fd213","system_id":"levelo_inurba_marseille","lat":43.30537,"lon":5.367345,"is_reserved":false,"is_disabled":false,"rental_uris":{"android":"levelo://app?vid=d3f03749-c043-4eee-b4a6-9802c52fd213","ios":"levelo://app?vid=d3f03749-c043-4eee-b4a6-9802c52fd213"},"vehicle_type_id":"4","last_reported":1725905506,"current_range_meters":0,"station_id":"ce4bgrp2rcd13ifvqc9g","pricing_plan_id":"cebpf4jnsgd1na2vs0mg"},{"bike_id":"4cbe9ed8-f599-4d2b-b10d-d3ad2e5f15c6","system_id":"levelo_inurba_marseille","lat":43.307945,"lon":5.376487,"is_reserved":false,"is_disabled":false,"rental_uris":{"android":"levelo://app?vid=4cbe9ed8-f599-4d2b-b10d-d3ad2e5f15c6","ios":"levelo://app?vid=4cbe9ed8-f599-4d2b-b10d-d3ad2e5f15c6"},"vehicle_type_id":"4","last_reported":1725905506,"current_range_meters":20000,"station_id":"ce4bgv92rcd13ifvqcq0","pricing_plan_id":"cebpf4jnsgd1na2vs0mg"},{"bike_id":"6ca134d1-0ef3-4ecb-b07c-7ade18cfa313","system_id":"levelo_inurba_marseille","lat":43.317075,"lon":5.377367,"is_reserved":false,"is_disabled":false,"rental_uris":{"android":"levelo://app?vid=6ca134d1-0ef3-4ecb-b07c-7ade18cfa313","ios":"levelo://app?vid=6ca134d1-0ef3-4ecb-b07c-7ade18cfa313"},"vehicle_type_id":"4","last_reported":1725905506,"current_range_meters":2800,"station_id":"ce4bgth2rcd13ifvqch0","pricing_plan_id":"cebpf4jnsgd1na2vs0mg"},{"bike_id":"63e06d27-374c-47ca-9628-c46fcb74a4b1","system_id":"levelo_inurba_marseille","lat":43.317075,"lon":5.377367,"is_reserved":false,"is_disabled":false,"rental_uris":{"android":"levelo://app?vid=63e06d27-374c-47ca-9628-c46fcb74a4b1","ios":"levelo://app?vid=63e06d27-374c-47ca-9628-c46fcb74a4b1"},"vehicle_type_id":"4","last_reported":1725905506,"current_range_meters":16800,"station_id":"ce4bgth2rcd13ifvqch0","pricing_plan_id":"cebpf4jnsgd1na2vs0mg"},{"bike_id":"d4a8f7a3-a75e-4b38-8f2a-a9f5eab34a0e","system_id":"levelo_inurba_marseille","lat":43.317075,"lon":5.377367,"is_reserved":false,"is_disabled":false,"rental_uris":{"android":"levelo://app?vid=d4a8f7a3-a75e-4b38-8f2a-a9f5eab34a0e","ios":"levelo://app?vid=d4a8f7a3-a75e-4b38-8f2a-a9f5eab34a0e"},"vehicle_type_id":"4","last_reported":1725905506,"current_range_meters":20800,"station_id":"ce4bgth2rcd13ifvqch0","pricing_plan_id":"cebpf4jnsgd1na2vs0mg"},{"bike_id":"fa7192dc-6748-4792-9da8-b6bf42d3660e","system_id":"levelo_inurba_marseille","lat":43.317075,"lon":5.377367,"is_reserved":false,"is_disabled":false,"rental_uris":{"android":"levelo://app?vid=fa7192dc-6748-4792-9da8-b6bf42d3660e","ios":"levelo://app?vid=fa7192dc-6748-4792-9da8-b6bf42d3660e"},"vehicle_type_id":"4","last_reported":1725905506,"current_range_meters":11200,"station_id":"ce4bgth2rcd13ifvqch0","pricing_plan_id":"cebpf4jnsgd1na2vs0mg"},{"bike_id":"3d7eab35-33f4-4855-aabe-5ab6054c1497","system_id":"levelo_inurba_marseille","lat":43.31161,"lon":5.37987,"is_reserved":false,"is_disabled":false,"rental_uris":{"android":"levelo://app?vid=3d7eab35-33f4-4855-aabe-5ab6054c1497","ios":"levelo://app?vid=3d7eab35-33f4-4855-aabe-5ab6054c1497"},"vehicle_type_id":"4","last_reported":1725905506,"current_range_meters":22800,"station_id":"","pricing_plan_id":"cebpf4jnsgd1na2vs0mg"},{"bike_id":"24747ee9-22d4-4d57-b39e-981eddecef30","system_id":"levelo_inurba_marseille","lat":43.30316,"lon":5.36912,"is_reserved":false,"is_disabled":false,"rental_uris":{"android":"levelo://app?vid=24747ee9-22d4-4d57-b39e-981eddecef30","ios":"levelo://app?vid=24747ee9-22d4-4d57-b39e-981eddecef30"},"vehicle_type_id":"4","last_reported":1725905506,"current_range_meters":0,"station_id":"ce4bgqh2rcd13ifvqc5g","pricing_plan_id":"cebpf4jnsgd1na2vs0mg"},{"bike_id":"4e006c46-4023-4267-a8d3-9b76ba3bf647","system_id":"levelo_inurba_marseille","lat":43.315289,"lon":5.380349,"is_reserved":false,"is_disabled":false,"rental_uris":{"android":"levelo://app?vid=4e006c46-4023-4267-a8d3-9b76ba3bf647","ios":"levelo://app?vid=4e006c46-4023-4267-a8d3-9b76ba3bf647"},"vehicle_type_id":"4","last_reported":1725905506,"current_range_meters":3200,"station_id":"ce4bhsp2rcd13ifvqi50","pricing_plan_id":"cebpf4jnsgd1na2vs0mg"},{"bike_id":"faf4b764-5a27-454d-be0c-21facffcac43","system_id":"levelo_inurba_marseille","lat":43.301939,"lon":5.366286,"is_reserved":false,"is_disabled":false,"rental_uris":{"android":"levelo://app?vid=faf4b764-5a27-454d-be0c-21facffcac43","ios":"levelo://app?vid=faf4b764-5a27-454d-be0c-21facffcac43"},"vehicle_type_id":"4","last_reported":1725905506,"current_range_meters":6800,"station_id":"ce4bgrh2rcd13ifvqc8g","pricing_plan_id":"cebpf4jnsgd1na2vs0mg"},{"bike_id":"06be2945-265f-4bdb-b646-ffd0845d1d6b","system_id":"levelo_inurba_marseille","lat":43.301939,"lon":5.366286,"is_reserved":false,"is_disabled":false,"rental_uris":{"android":"levelo://app?vid=06be2945-265f-4bdb-b646-ffd0845d1d6b","ios":"levelo://app?vid=06be2945-265f-4bdb-b646-ffd0845d1d6b"},"vehicle_type_id":"4","last_reported":1725905506,"current_range_meters":12400,"station_id":"ce4bgrh2rcd13ifvqc8g","pricing_plan_id":"cebpf4jnsgd1na2vs0mg"},{"bike_id":"32822bbc-54eb-46e1-9c21-b487064a0e33","system_id":"levelo_inurba_marseille","lat":43.30813,"lon":5.38155,"is_reserved":false,"is_disabled":false,"rental_uris":{"android":"levelo://app?vid=32822bbc-54eb-46e1-9c21-b487064a0e33","ios":"levelo://app?vid=32822bbc-54eb-46e1-9c21-b487064a0e33"},"vehicle_type_id":"4","last_reported":1725905506,"current_range_meters":0,"station_id":"ce4bgt12rcd13ifvqce0","pricing_plan_id":"cebpf4jnsgd1na2vs0mg"},{"bike_id":"6f7616ce-b9e8-4b13-b577-60492b0bcbf7","system_id":"levelo_inurba_marseille","lat":43.308012,"lon":5.381511,"is_reserved":false,"is_disabled":false,"rental_uris":{"android":"levelo://app?vid=6f7616ce-b9e8-4b13-b577-60492b0bcbf7","ios":"levelo://app?vid=6f7616ce-b9e8-4b13-b577-60492b0bcbf7"},"vehicle_type_id":"4","last_reported":1725905506,"current_range_meters":4400,"station_id":"ce4bgt12rcd13ifvqce0","pricing_plan_id":"cebpf4jnsgd1na2vs0mg"},{"bike_id":"9e9e7b1b-64ff-4924-9935-53086eddaa14","system_id":"levelo_inurba_marseille","lat":43.31654,"lon":5.38373,"is_reserved":false,"is_disabled":false,"rental_uris":{"android":"levelo://app?vid=9e9e7b1b-64ff-4924-9935-53086eddaa14","ios":"levelo://app?vid=9e9e7b1b-64ff-4924-9935-53086eddaa14"},"vehicle_type_id":"4","last_reported":1725905506,"current_range_meters":29600,"station_id":"","pricing_plan_id":"cebpf4jnsgd1na2vs0mg"},{"bike_id":"52e98e2e-e1b9-4379-a018-6a51295701f1","system_id":"levelo_inurba_marseille","lat":43.319935,"lon":5.381699,"is_reserved":false,"is_disabled":false,"rental_uris":{"android":"levelo://app?vid=52e98e2e-e1b9-4379-a018-6a51295701f1","ios":"levelo://app?vid=52e98e2e-e1b9-4379-a018-6a51295701f1"},"vehicle_type_id":"4","last_reported":1725905506,"current_range_meters":5200,"station_id":"ce4bhr12rcd13ifvqhpg","pricing_plan_id":"cebpf4jnsgd1na2vs0mg"},{"bike_id":"31eb968f-8a8e-4a7e-93e8-a95bb58d8a61","system_id":"levelo_inurba_marseille","lat":43.319935,"lon":5.381699,"is_reserved":false,"is_disabled":false,"rental_uris":{"android":"levelo://app?vid=31eb968f-8a8e-4a7e-93e8-a95bb58d8a61","ios":"levelo://app?vid=31eb968f-8a8e-4a7e-93e8-a95bb58d8a61"},"vehicle_type_id":"4","last_reported":1725905506,"current_range_meters":3600,"station_id":"ce4bhr12rcd13ifvqhpg","pricing_plan_id":"cebpf4jnsgd1na2vs0mg"},{"bike_id":"a86740ff-1fca-4a6f-997a-9947df6d0b19","system_id":"levelo_inurba_marseille","lat":43.319935,"lon":5.381699,"is_reserved":false,"is_disabled":false,"rental_uris":{"android":"levelo://app?vid=a86740ff-1fca-4a6f-997a-9947df6d0b19","ios":"levelo://app?vid=a86740ff-1fca-4a6f-997a-9947df6d0b19"},"vehicle_type_id":"4","last_reported":1725905506,"current_range_meters":1200,"station_id":"ce4bhr12rcd13ifvqhpg","pricing_plan_id":"cebpf4jnsgd1na2vs0mg"},{"bike_id":"6f2ccbc2-fa4f-425c-86dc-ad4fe88b9e2f","system_id":"levelo_inurba_marseille","lat":43.313571,"lon":5.384829,"is_reserved":false,"is_disabled":false,"rental_uris":{"android":"levelo://app?vid=6f2ccbc2-fa4f-425c-86dc-ad4fe88b9e2f","ios":"levelo://app?vid=6f2ccbc2-fa4f-425c-86dc-ad4fe88b9e2f"},"vehicle_type_id":"4","last_reported":1725905506,"current_range_meters":21600,"station_id":"ce4bgt92rcd13ifvqcf0","pricing_plan_id":"cebpf4jnsgd1na2vs0mg"},{"bike_id":"7b0052b6-2d20-43fb-9370-f3050a2dd0bb","system_id":"levelo_inurba_marseille","lat":43.313291,"lon":5.396838,"is_reserved":false,"is_disabled":false,"rental_uris":{"android":"levelo://app?vid=7b0052b6-2d20-43fb-9370-f3050a2dd0bb","ios":"levelo://app?vid=7b0052b6-2d20-43fb-9370-f3050a2dd0bb"},"vehicle_type_id":"4","last_reported":1725905506,"current_range_meters":13600,"station_id":"ce4bgvp2rcd13ifvqcu0","pricing_plan_id":"cebpf4jnsgd1na2vs0mg"},{"bike_id":"a4e02626-bb7e-449c-9b28-0f096a8f1168","system_id":"levelo_inurba_marseille","lat":43.299222,"lon":5.365554,"is_reserved":false,"is_disabled":false,"rental_uris":{"android":"levelo://app?vid=a4e02626-bb7e-449c-9b28-0f096a8f1168","ios":"levelo://app?vid=a4e02626-bb7e-449c-9b28-0f096a8f1168"},"vehicle_type_id":"4","last_reported":1725905506,"current_range_meters":0,"station_id":"ce4bgm92rcd13ifvqbr0","pricing_plan_id":"cebpf4jnsgd1na2vs0mg"},{"bike_id":"45a4dd49-aacf-455e-9a77-4536b2fa4451","system_id":"levelo_inurba_marseille","lat":43.299838,"lon":5.371873,"is_reserved":false,"is_disabled":false,"rental_uris":{"android":"levelo://app?vid=45a4dd49-aacf-455e-9a77-4536b2fa4451","ios":"levelo://app?vid=45a4dd49-aacf-455e-9a77-4536b2fa4451"},"vehicle_type_id":"4","last_reported":1725905506,"current_range_meters":31200,"station_id":"ce4bgr92rcd13ifvqc7g","pricing_plan_id":"cebpf4jnsgd1na2vs0mg"},{"bike_id":"6bf8a8d9-b603-4e84-babf-0b8d97fe91f3","system_id":"levelo_inurba_marseille","lat":43.29978,"lon":5.37171,"is_reserved":false,"is_disabled":false,"rental_uris":{"android":"levelo://app?vid=6bf8a8d9-b603-4e84-babf-0b8d97fe91f3","ios":"levelo://app?vid=6bf8a8d9-b603-4e84-babf-0b8d97fe91f3"},"vehicle_type_id":"4","last_reported":1725905506,"current_range_meters":28800,"station_id":"ce4bgr92rcd13ifvqc7g","pricing_plan_id":"cebpf4jnsgd1na2vs0mg"},{"bike_id":"6a6f0e08-eb7a-4889-b24a-25f1bf4007e1","system_id":"levelo_inurba_marseille","lat":43.298556,"lon":5.36287,"is_reserved":false,"is_disabled":false,"rental_uris":{"android":"levelo://app?vid=6a6f0e08-eb7a-4889-b24a-25f1bf4007e1","ios":"levelo://app?vid=6a6f0e08-eb7a-4889-b24a-25f1bf4007e1"},"vehicle_type_id":"4","last_reported":1725905506,"current_range_meters":0,"station_id":"ce4bgpp2rcd13ifvqc3g","pricing_plan_id":"cebpf4jnsgd1na2vs0mg"},{"bike_id":"56afc45a-21e3-4158-acb6-7b74495edd25","system_id":"levelo_inurba_marseille","lat":43.305364,"lon":5.384119,"is_reserved":false,"is_disabled":false,"rental_uris":{"android":"levelo://app?vid=56afc45a-21e3-4158-acb6-7b74495edd25","ios":"levelo://app?vid=56afc45a-21e3-4158-acb6-7b74495edd25"},"vehicle_type_id":"4","last_reported":1725905506,"current_range_meters":0,"station_id":"ce4bgg92rcd13ifvqb30","pricing_plan_id":"cebpf4jnsgd1na2vs0mg"},{"bike_id":"22570cf5-0f61-455c-b1bb-b0b92180da04","system_id":"levelo_inurba_marseille","lat":43.311722,"lon":5.387247,"is_reserved":false,"is_disabled":false,"rental_uris":{"android":"levelo://app?vid=22570cf5-0f61-455c-b1bb-b0b92180da04","ios":"levelo://app?vid=22570cf5-0f61-455c-b1bb-b0b92180da04"},"vehicle_type_id":"4","last_reported":1725905506,"current_range_meters":23200,"station_id":"ce4bgv12rcd13ifvqcp0","pricing_plan_id":"cebpf4jnsgd1na2vs0mg"},{"bike_id":"967ba48d-91a6-41a3-859c-a1cb765e15e9","system_id":"levelo_inurba_marseille","lat":43.29914,"lon":5.374803,"is_reserved":false,"is_disabled":false,"rental_uris":{"android":"levelo://app?vid=967ba48d-91a6-41a3-859c-a1cb765e15e9","ios":"levelo://app?vid=967ba48d-91a6-41a3-859c-a1cb765e15e9"},"vehicle_type_id":"4","last_reported":1725905506,"current_range_meters":0,"station_id":"ce4bgjh2rcd13ifvqbg0","pricing_plan_id":"cebpf4jnsgd1na2vs0mg"},{"bike_id":"467c8a55-d87f-4805-98f6-75a6ac96ea52","system_id":"levelo_inurba_marseille","lat":43.311722,"lon":5.387247,"is_reserved":false,"is_disabled":false,"rental_uris":{"android":"levelo://app?vid=467c8a55-d87f-4805-98f6-75a6ac96ea52","ios":"levelo://app?vid=467c8a55-d87f-4805-98f6-75a6ac96ea52"},"vehicle_type_id":"4","last_reported":1725905506,"current_range_meters":2000,"station_id":"ce4bgv12rcd13ifvqcp0","pricing_plan_id":"cebpf4jnsgd1na2vs0mg"},{"bike_id":"3d61f6ff-0c38-4c39-98f6-6807c6fa2720","system_id":"levelo_inurba_marseille","lat":43.301417,"lon":5.3809,"is_reserved":false,"is_disabled":false,"rental_uris":{"android":"levelo://app?vid=3d61f6ff-0c38-4c39-98f6-6807c6fa2720","ios":"levelo://app?vid=3d61f6ff-0c38-4c39-98f6-6807c6fa2720"},"vehicle_type_id":"4","last_reported":1725905506,"current_range_meters":0,"station_id":"ce4bgjp2rcd13ifvqbh0","pricing_plan_id":"cebpf4jnsgd1na2vs0mg"},{"bike_id":"6532dbda-ce74-488b-bb9c-af5ba630eefb","system_id":"levelo_inurba_marseille","lat":43.29783,"lon":5.37109,"is_reserved":false,"is_disabled":false,"rental_uris":{"android":"levelo://app?vid=6532dbda-ce74-488b-bb9c-af5ba630eefb","ios":"levelo://app?vid=6532dbda-ce74-488b-bb9c-af5ba630eefb"},"vehicle_type_id":"4","last_reported":1725905506,"current_range_meters":30800,"station_id":"ce4bgop2rcd13ifvqc1g","pricing_plan_id":"cebpf4jnsgd1na2vs0mg"},{"bike_id":"bc7d9694-6beb-4661-9598-ebb278f83b4b","system_id":"levelo_inurba_marseille","lat":43.32285,"lon":5.38258,"is_reserved":false,"is_disabled":false,"rental_uris":{"android":"levelo://app?vid=bc7d9694-6beb-4661-9598-ebb278f83b4b","ios":"levelo://app?vid=bc7d9694-6beb-4661-9598-ebb278f83b4b"},"vehicle_type_id":"4","last_reported":1725905506,"current_range_meters":30800,"station_id":"ce4bhr12rcd13ifvqhqg","pricing_plan_id":"cebpf4jnsgd1na2vs0mg"},{"bike_id":"e92128e1-9c4e-4b5e-8475-f4834ef1ca90","system_id":"levelo_inurba_marseille","lat":43.322903,"lon":5.382616,"is_reserved":false,"is_disabled":false,"rental_uris":{"android":"levelo://app?vid=e92128e1-9c4e-4b5e-8475-f4834ef1ca90","ios":"levelo://app?vid=e92128e1-9c4e-4b5e-8475-f4834ef1ca90"},"vehicle_type_id":"4","last_reported":1725905506,"current_range_meters":24800,"station_id":"ce4bhr12rcd13ifvqhqg","pricing_plan_id":"cebpf4jnsgd1na2vs0mg"},{"bike_id":"3d96f58d-148a-4dae-ac34-ed96f64bee81","system_id":"levelo_inurba_marseille","lat":43.32293,"lon":5.38262,"is_reserved":false,"is_disabled":false,"rental_uris":{"android":"levelo://app?vid=3d96f58d-148a-4dae-ac34-ed96f64bee81","ios":"levelo://app?vid=3d96f58d-148a-4dae-ac34-ed96f64bee81"},"vehicle_type_id":"4","last_reported":1725905506,"current_range_meters":8000,"station_id":"ce4bhr12rcd13ifvqhqg","pricing_plan_id":"cebpf4jnsgd1na2vs0mg"},{"bike_id":"e57c6050-55dd-4a7b-a30f-05f7abef2f6b","system_id":"levelo_inurba_marseille","lat":43.322872,"lon":5.382756,"is_reserved":false,"is_disabled":false,"rental_uris":{"android":"levelo://app?vid=e57c6050-55dd-4a7b-a30f-05f7abef2f6b","ios":"levelo://app?vid=e57c6050-55dd-4a7b-a30f-05f7abef2f6b"},"vehicle_type_id":"4","last_reported":1725905506,"current_range_meters":11600,"station_id":"ce4bhr12rcd13ifvqhqg","pricing_plan_id":"cebpf4jnsgd1na2vs0mg"},{"bike_id":"34813d65-4aaa-40d7-9ccb-c4aa0b5d199f","system_id":"levelo_inurba_marseille","lat":43.322872,"lon":5.382756,"is_reserved":false,"is_disabled":false,"rental_uris":{"android":"levelo://app?vid=34813d65-4aaa-40d7-9ccb-c4aa0b5d199f","ios":"levelo://app?vid=34813d65-4aaa-40d7-9ccb-c4aa0b5d199f"},"vehicle_type_id":"4","last_reported":1725905506,"current_range_meters":31600,"station_id":"ce4bhr12rcd13ifvqhqg","pricing_plan_id":"cebpf4jnsgd1na2vs0mg"},{"bike_id":"83a17ab0-8e75-4386-be72-e04fb515cf54","system_id":"levelo_inurba_marseille","lat":43.322872,"lon":5.382756,"is_reserved":false,"is_disabled":false,"rental_uris":{"android":"levelo://app?vid=83a17ab0-8e75-4386-be72-e04fb515cf54","ios":"levelo://app?vid=83a17ab0-8e75-4386-be72-e04fb515cf54"},"vehicle_type_id":"4","last_reported":1725905506,"current_range_meters":15200,"station_id":"ce4bhr12rcd13ifvqhqg","pricing_plan_id":"cebpf4jnsgd1na2vs0mg"},{"bike_id":"e8dbf825-2423-4190-abfa-7d8cec3f4a72","system_id":"levelo_inurba_marseille","lat":43.322872,"lon":5.382756,"is_reserved":false,"is_disabled":false,"rental_uris":{"android":"levelo://app?vid=e8dbf825-2423-4190-abfa-7d8cec3f4a72","ios":"levelo://app?vid=e8dbf825-2423-4190-abfa-7d8cec3f4a72"},"vehicle_type_id":"4","last_reported":1725905506,"current_range_meters":31600,"station_id":"ce4bhr12rcd13ifvqhqg","pricing_plan_id":"cebpf4jnsgd1na2vs0mg"},{"bike_id":"cce2cbc3-b0de-444c-b3af-a67a62d9c011","system_id":"levelo_inurba_marseille","lat":43.322967,"lon":5.382653,"is_reserved":false,"is_disabled":false,"rental_uris":{"android":"levelo://app?vid=cce2cbc3-b0de-444c-b3af-a67a62d9c011","ios":"levelo://app?vid=cce2cbc3-b0de-444c-b3af-a67a62d9c011"},"vehicle_type_id":"4","last_reported":1725905506,"current_range_meters":29200,"station_id":"ce4bhr12rcd13ifvqhqg","pricing_plan_id":"cebpf4jnsgd1na2vs0mg"},{"bike_id":"fedb6f27-1de1-4f22-89cc-18a3690d200b","system_id":"levelo_inurba_marseille","lat":43.322872,"lon":5.382756,"is_reserved":false,"is_disabled":false,"rental_uris":{"android":"levelo://app?vid=fedb6f27-1de1-4f22-89cc-18a3690d200b","ios":"levelo://app?vid=fedb6f27-1de1-4f22-89cc-18a3690d200b"},"vehicle_type_id":"4","last_reported":1725905506,"current_range_meters":30800,"station_id":"ce4bhr12rcd13ifvqhqg","pricing_plan_id":"cebpf4jnsgd1na2vs0mg"},{"bike_id":"bd5ae5e0-5564-4541-94fc-ca0a05fd7fbd","system_id":"levelo_inurba_marseille","lat":43.322872,"lon":5.382756,"is_reserved":false,"is_disabled":false,"rental_uris":{"android":"levelo://app?vid=bd5ae5e0-5564-4541-94fc-ca0a05fd7fbd","ios":"levelo://app?vid=bd5ae5e0-5564-4541-94fc-ca0a05fd7fbd"},"vehicle_type_id":"4","last_reported":1725905506,"current_range_meters":32000,"station_id":"ce4bhr12rcd13ifvqhqg","pricing_plan_id":"cebpf4jnsgd1na2vs0mg"},{"bike_id":"e58c3fa6-f4fa-40c5-8f12-6cc165172cc5","system_id":"levelo_inurba_marseille","lat":43.322872,"lon":5.382756,"is_reserved":false,"is_disabled":false,"rental_uris":{"android":"levelo://app?vid=e58c3fa6-f4fa-40c5-8f12-6cc165172cc5","ios":"levelo://app?vid=e58c3fa6-f4fa-40c5-8f12-6cc165172cc5"},"vehicle_type_id":"4","last_reported":1725905506,"current_range_meters":19600,"station_id":"ce4bhr12rcd13ifvqhqg","pricing_plan_id":"cebpf4jnsgd1na2vs0mg"},{"bike_id":"c883b54a-09a8-4c3b-ad3f-9dbdd1429f8c","system_id":"levelo_inurba_marseille","lat":43.322872,"lon":5.382756,"is_reserved":false,"is_disabled":false,"rental_uris":{"android":"levelo://app?vid=c883b54a-09a8-4c3b-ad3f-9dbdd1429f8c","ios":"levelo://app?vid=c883b54a-09a8-4c3b-ad3f-9dbdd1429f8c"},"vehicle_type_id":"4","last_reported":1725905506,"current_range_meters":14400,"station_id":"ce4bhr12rcd13ifvqhqg","pricing_plan_id":"cebpf4jnsgd1na2vs0mg"},{"bike_id":"d4e0153b-3ae8-4956-a72b-11f609721bb5","system_id":"levelo_inurba_marseille","lat":43.297163,"lon":5.365866,"is_reserved":false,"is_disabled":false,"rental_uris":{"android":"levelo://app?vid=d4e0153b-3ae8-4956-a72b-11f609721bb5","ios":"levelo://app?vid=d4e0153b-3ae8-4956-a72b-11f609721bb5"},"vehicle_type_id":"4","last_reported":1725905506,"current_range_meters":32000,"station_id":"ce4bgn12rcd13ifvqbt0","pricing_plan_id":"cebpf4jnsgd1na2vs0mg"},{"bike_id":"ec24198a-c030-474a-b18e-6c5e6410275a","system_id":"levelo_inurba_marseille","lat":43.297163,"lon":5.365866,"is_reserved":false,"is_disabled":false,"rental_uris":{"android":"levelo://app?vid=ec24198a-c030-474a-b18e-6c5e6410275a","ios":"levelo://app?vid=ec24198a-c030-474a-b18e-6c5e6410275a"},"vehicle_type_id":"4","last_reported":1725905506,"current_range_meters":30800,"station_id":"ce4bgn12rcd13ifvqbt0","pricing_plan_id":"cebpf4jnsgd1na2vs0mg"},{"bike_id":"bc838d5b-cd5d-4283-8a33-be5a6e4c4a56","system_id":"levelo_inurba_marseille","lat":43.2968,"lon":5.37291,"is_reserved":false,"is_disabled":false,"rental_uris":{"android":"levelo://app?vid=bc838d5b-cd5d-4283-8a33-be5a6e4c4a56","ios":"levelo://app?vid=bc838d5b-cd5d-4283-8a33-be5a6e4c4a56"},"vehicle_type_id":"4","last_reported":1725905506,"current_range_meters":29200,"station_id":"ce4bgk12rcd13ifvqbj0","pricing_plan_id":"cebpf4jnsgd1na2vs0mg"},{"bike_id":"b25a14ee-7ab1-4ec6-88c6-ff963db5e11f","system_id":"levelo_inurba_marseille","lat":43.29573,"lon":5.367355,"is_reserved":false,"is_disabled":false,"rental_uris":{"android":"levelo://app?vid=b25a14ee-7ab1-4ec6-88c6-ff963db5e11f","ios":"levelo://app?vid=b25a14ee-7ab1-4ec6-88c6-ff963db5e11f"},"vehicle_type_id":"4","last_reported":1725905506,"current_range_meters":400,"station_id":"ce4bgph2rcd13ifvqc2g","pricing_plan_id":"cebpf4jnsgd1na2vs0mg"},{"bike_id":"a61131e5-1a21-4dd7-a83f-b813c58db497","system_id":"levelo_inurba_marseille","lat":43.296935,"lon":5.376544,"is_reserved":false,"is_disabled":false,"rental_uris":{"android":"levelo://app?vid=a61131e5-1a21-4dd7-a83f-b813c58db497","ios":"levelo://app?vid=a61131e5-1a21-4dd7-a83f-b813c58db497"},"vehicle_type_id":"4","last_reported":1725905506,"current_range_meters":0,"station_id":"ce4bgkh2rcd13ifvqbl0","pricing_plan_id":"cebpf4jnsgd1na2vs0mg"},{"bike_id":"156a5f74-3f2c-4b8e-aa9e-310b6be90d0f","system_id":"levelo_inurba_marseille","lat":43.297235,"lon":5.37691,"is_reserved":false,"is_disabled":false,"rental_uris":{"android":"levelo://app?vid=156a5f74-3f2c-4b8e-aa9e-310b6be90d0f","ios":"levelo://app?vid=156a5f74-3f2c-4b8e-aa9e-310b6be90d0f"},"vehicle_type_id":"4","last_reported":1725905506,"current_range_meters":13600,"station_id":"ce4bgkh2rcd13ifvqbl0","pricing_plan_id":"cebpf4jnsgd1na2vs0mg"},{"bike_id":"02f6eb9b-e0bb-4d54-9df1-acf2550f4450","system_id":"levelo_inurba_marseille","lat":43.299028,"lon":5.381509,"is_reserved":false,"is_disabled":false,"rental_uris":{"android":"levelo://app?vid=02f6eb9b-e0bb-4d54-9df1-acf2550f4450","ios":"levelo://app?vid=02f6eb9b-e0bb-4d54-9df1-acf2550f4450"},"vehicle_type_id":"4","last_reported":1725905506,"current_range_meters":18800,"station_id":"ce4bgj12rcd13ifvqbc0","pricing_plan_id":"cebpf4jnsgd1na2vs0mg"},{"bike_id":"2cf98790-26f6-4aa9-82d0-f0e6c290738a","system_id":"levelo_inurba_marseille","lat":43.317557,"lon":5.390173,"is_reserved":false,"is_disabled":false,"rental_uris":{"android":"levelo://app?vid=2cf98790-26f6-4aa9-82d0-f0e6c290738a","ios":"levelo://app?vid=2cf98790-26f6-4aa9-82d0-f0e6c290738a"},"vehicle_type_id":"4","last_reported":1725905506,"current_range_meters":0,"station_id":"ce4bhqp2rcd13ifvqhng","pricing_plan_id":"cebpf4jnsgd1na2vs0mg"},{"bike_id":"7da48e77-1a22-4c7e-a9dc-6f60aefa4f34","system_id":"levelo_inurba_marseille","lat":43.317557,"lon":5.390173,"is_reserved":false,"is_disabled":false,"rental_uris":{"android":"levelo://app?vid=7da48e77-1a22-4c7e-a9dc-6f60aefa4f34","ios":"levelo://app?vid=7da48e77-1a22-4c7e-a9dc-6f60aefa4f34"},"vehicle_type_id":"4","last_reported":1725905506,"current_range_meters":31200,"station_id":"ce4bhqp2rcd13ifvqhng","pricing_plan_id":"cebpf4jnsgd1na2vs0mg"},{"bike_id":"82b8d6a9-34d6-4add-b029-1fc2325ea092","system_id":"levelo_inurba_marseille","lat":43.317557,"lon":5.390173,"is_reserved":false,"is_disabled":false,"rental_uris":{"android":"levelo://app?vid=82b8d6a9-34d6-4add-b029-1fc2325ea092","ios":"levelo://app?vid=82b8d6a9-34d6-4add-b029-1fc2325ea092"},"vehicle_type_id":"4","last_reported":1725905506,"current_range_meters":10800,"station_id":"ce4bhqp2rcd13ifvqhng","pricing_plan_id":"cebpf4jnsgd1na2vs0mg"},{"bike_id":"962fc77d-e054-4dec-b79e-7600e522b672","system_id":"levelo_inurba_marseille","lat":43.317557,"lon":5.390173,"is_reserved":false,"is_disabled":false,"rental_uris":{"android":"levelo://app?vid=962fc77d-e054-4dec-b79e-7600e522b672","ios":"levelo://app?vid=962fc77d-e054-4dec-b79e-7600e522b672"},"vehicle_type_id":"4","last_reported":1725905506,"current_range_meters":19600,"station_id":"ce4bhqp2rcd13ifvqhng","pricing_plan_id":"cebpf4jnsgd1na2vs0mg"},{"bike_id":"071d5887-132e-4401-8ffb-8567f8b67c31","system_id":"levelo_inurba_marseille","lat":43.317557,"lon":5.390173,"is_reserved":false,"is_disabled":false,"rental_uris":{"android":"levelo://app?vid=071d5887-132e-4401-8ffb-8567f8b67c31","ios":"levelo://app?vid=071d5887-132e-4401-8ffb-8567f8b67c31"},"vehicle_type_id":"4","last_reported":1725905506,"current_range_meters":9200,"station_id":"ce4bhqp2rcd13ifvqhng","pricing_plan_id":"cebpf4jnsgd1na2vs0mg"},{"bike_id":"964e4a45-8764-4cc6-995a-a25fb2c66f48","system_id":"levelo_inurba_marseille","lat":43.317557,"lon":5.390173,"is_reserved":false,"is_disabled":false,"rental_uris":{"android":"levelo://app?vid=964e4a45-8764-4cc6-995a-a25fb2c66f48","ios":"levelo://app?vid=964e4a45-8764-4cc6-995a-a25fb2c66f48"},"vehicle_type_id":"4","last_reported":1725905506,"current_range_meters":28400,"station_id":"ce4bhqp2rcd13ifvqhng","pricing_plan_id":"cebpf4jnsgd1na2vs0mg"},{"bike_id":"4d43ce63-2f86-4521-b911-0b32c647877d","system_id":"levelo_inurba_marseille","lat":43.317557,"lon":5.390173,"is_reserved":false,"is_disabled":false,"rental_uris":{"android":"levelo://app?vid=4d43ce63-2f86-4521-b911-0b32c647877d","ios":"levelo://app?vid=4d43ce63-2f86-4521-b911-0b32c647877d"},"vehicle_type_id":"4","last_reported":1725905506,"current_range_meters":16400,"station_id":"ce4bhqp2rcd13ifvqhng","pricing_plan_id":"cebpf4jnsgd1na2vs0mg"},{"bike_id":"1859df57-cb64-40ba-a99b-0252eadc8088","system_id":"levelo_inurba_marseille","lat":43.317557,"lon":5.390173,"is_reserved":false,"is_disabled":false,"rental_uris":{"android":"levelo://app?vid=1859df57-cb64-40ba-a99b-0252eadc8088","ios":"levelo://app?vid=1859df57-cb64-40ba-a99b-0252eadc8088"},"vehicle_type_id":"4","last_reported":1725905506,"current_range_meters":24800,"station_id":"ce4bhqp2rcd13ifvqhng","pricing_plan_id":"cebpf4jnsgd1na2vs0mg"},{"bike_id":"c1720d9a-96a0-468a-976b-f5a413c4466f","system_id":"levelo_inurba_marseille","lat":43.317557,"lon":5.390173,"is_reserved":false,"is_disabled":false,"rental_uris":{"android":"levelo://app?vid=c1720d9a-96a0-468a-976b-f5a413c4466f","ios":"levelo://app?vid=c1720d9a-96a0-468a-976b-f5a413c4466f"},"vehicle_type_id":"4","last_reported":1725905506,"current_range_meters":9200,"station_id":"ce4bhqp2rcd13ifvqhng","pricing_plan_id":"cebpf4jnsgd1na2vs0mg"},{"bike_id":"f76c6a89-1cfc-4a47-8f3c-e0d036bfaffe","system_id":"levelo_inurba_marseille","lat":43.317557,"lon":5.390173,"is_reserved":false,"is_disabled":false,"rental_uris":{"android":"levelo://app?vid=f76c6a89-1cfc-4a47-8f3c-e0d036bfaffe","ios":"levelo://app?vid=f76c6a89-1cfc-4a47-8f3c-e0d036bfaffe"},"vehicle_type_id":"4","last_reported":1725905506,"current_range_meters":24800,"station_id":"ce4bhqp2rcd13ifvqhng","pricing_plan_id":"cebpf4jnsgd1na2vs0mg"},{"bike_id":"01cc83f9-9650-4e9d-8a3b-a55632f27eca","system_id":"levelo_inurba_marseille","lat":43.317557,"lon":5.390173,"is_reserved":false,"is_disabled":false,"rental_uris":{"android":"levelo://app?vid=01cc83f9-9650-4e9d-8a3b-a55632f27eca","ios":"levelo://app?vid=01cc83f9-9650-4e9d-8a3b-a55632f27eca"},"vehicle_type_id":"4","last_reported":1725905506,"current_range_meters":14800,"station_id":"ce4bhqp2rcd13ifvqhng","pricing_plan_id":"cebpf4jnsgd1na2vs0mg"},{"bike_id":"ff50a1b3-e84d-4e81-b7e8-122b6fd58d91","system_id":"levelo_inurba_marseille","lat":43.317557,"lon":5.390173,"is_reserved":false,"is_disabled":false,"rental_uris":{"android":"levelo://app?vid=ff50a1b3-e84d-4e81-b7e8-122b6fd58d91","ios":"levelo://app?vid=ff50a1b3-e84d-4e81-b7e8-122b6fd58d91"},"vehicle_type_id":"4","last_reported":1725905506,"current_range_meters":7200,"station_id":"ce4bhqp2rcd13ifvqhng","pricing_plan_id":"cebpf4jnsgd1na2vs0mg"},{"bike_id":"726b5e0a-f6df-45ed-8c82-e10efd5fe19b","system_id":"levelo_inurba_marseille","lat":43.317557,"lon":5.390173,"is_reserved":false,"is_disabled":false,"rental_uris":{"android":"levelo://app?vid=726b5e0a-f6df-45ed-8c82-e10efd5fe19b","ios":"levelo://app?vid=726b5e0a-f6df-45ed-8c82-e10efd5fe19b"},"vehicle_type_id":"4","last_reported":1725905506,"current_range_meters":18000,"station_id":"ce4bhqp2rcd13ifvqhng","pricing_plan_id":"cebpf4jnsgd1na2vs0mg"},{"bike_id":"9bfc7f83-9a3b-48db-89bc-7ba54061be6c","system_id":"levelo_inurba_marseille","lat":43.31751,"lon":5.3903,"is_reserved":false,"is_disabled":false,"rental_uris":{"android":"levelo://app?vid=9bfc7f83-9a3b-48db-89bc-7ba54061be6c","ios":"levelo://app?vid=9bfc7f83-9a3b-48db-89bc-7ba54061be6c"},"vehicle_type_id":"4","last_reported":1725905506,"current_range_meters":31200,"station_id":"ce4bhqp2rcd13ifvqhng","pricing_plan_id":"cebpf4jnsgd1na2vs0mg"},{"bike_id":"b2991b89-f52d-4a59-a05b-4a6a9052dd05","system_id":"levelo_inurba_marseille","lat":43.29585,"lon":5.37516,"is_reserved":false,"is_disabled":false,"rental_uris":{"android":"levelo://app?vid=b2991b89-f52d-4a59-a05b-4a6a9052dd05","ios":"levelo://app?vid=b2991b89-f52d-4a59-a05b-4a6a9052dd05"},"vehicle_type_id":"4","last_reported":1725905506,"current_range_meters":3600,"station_id":"ce4bgh92rcd13ifvqb50","pricing_plan_id":"cebpf4jnsgd1na2vs0mg"},{"bike_id":"39e9f59d-6193-4768-aeb2-340fadf63367","system_id":"levelo_inurba_marseille","lat":43.295748,"lon":5.37522,"is_reserved":false,"is_disabled":false,"rental_uris":{"android":"levelo://app?vid=39e9f59d-6193-4768-aeb2-340fadf63367","ios":"levelo://app?vid=39e9f59d-6193-4768-aeb2-340fadf63367"},"vehicle_type_id":"4","last_reported":1725905506,"current_range_meters":20800,"station_id":"ce4bgh92rcd13ifvqb50","pricing_plan_id":"cebpf4jnsgd1na2vs0mg"},{"bike_id":"25fd5c9a-4552-45e4-a1f7-a80ba8e41473","system_id":"levelo_inurba_marseille","lat":43.30431,"lon":5.38882,"is_reserved":false,"is_disabled":false,"rental_uris":{"android":"levelo://app?vid=25fd5c9a-4552-45e4-a1f7-a80ba8e41473","ios":"levelo://app?vid=25fd5c9a-4552-45e4-a1f7-a80ba8e41473"},"vehicle_type_id":"4","last_reported":1725905506,"current_range_meters":0,"station_id":"ce4bgk12rcd13ifvqbi0","pricing_plan_id":"cebpf4jnsgd1na2vs0mg"},{"bike_id":"e1865e16-dfa0-4e27-94b3-a79d09edd87c","system_id":"levelo_inurba_marseille","lat":43.30436,"lon":5.38886,"is_reserved":false,"is_disabled":false,"rental_uris":{"android":"levelo://app?vid=e1865e16-dfa0-4e27-94b3-a79d09edd87c","ios":"levelo://app?vid=e1865e16-dfa0-4e27-94b3-a79d09edd87c"},"vehicle_type_id":"4","last_reported":1725905506,"current_range_meters":23600,"station_id":"ce4bgk12rcd13ifvqbi0","pricing_plan_id":"cebpf4jnsgd1na2vs0mg"},{"bike_id":"1580578b-93a3-468c-86e0-e5000a08d4f5","system_id":"levelo_inurba_marseille","lat":43.298037,"lon":5.381066,"is_reserved":false,"is_disabled":false,"rental_uris":{"android":"levelo://app?vid=1580578b-93a3-468c-86e0-e5000a08d4f5","ios":"levelo://app?vid=1580578b-93a3-468c-86e0-e5000a08d4f5"},"vehicle_type_id":"4","last_reported":1725905506,"current_range_meters":18800,"station_id":"ce4bgip2rcd13ifvqbb0","pricing_plan_id":"cebpf4jnsgd1na2vs0mg"},{"bike_id":"390dd774-62c2-4be5-8f78-3211a8421236","system_id":"levelo_inurba_marseille","lat":43.30422,"lon":5.38882,"is_reserved":false,"is_disabled":false,"rental_uris":{"android":"levelo://app?vid=390dd774-62c2-4be5-8f78-3211a8421236","ios":"levelo://app?vid=390dd774-62c2-4be5-8f78-3211a8421236"},"vehicle_type_id":"4","last_reported":1725905506,"current_range_meters":0,"station_id":"ce4bgk12rcd13ifvqbi0","pricing_plan_id":"cebpf4jnsgd1na2vs0mg"},{"bike_id":"4998c1b4-a1e1-49c5-8d81-6b7e92a058e3","system_id":"levelo_inurba_marseille","lat":43.30435,"lon":5.38895,"is_reserved":false,"is_disabled":false,"rental_uris":{"android":"levelo://app?vid=4998c1b4-a1e1-49c5-8d81-6b7e92a058e3","ios":"levelo://app?vid=4998c1b4-a1e1-49c5-8d81-6b7e92a058e3"},"vehicle_type_id":"4","last_reported":1725905506,"current_range_meters":0,"station_id":"ce4bgk12rcd13ifvqbi0","pricing_plan_id":"cebpf4jnsgd1na2vs0mg"},{"bike_id":"27028512-3f8b-4ea6-bbc7-cfaccb624bb5","system_id":"levelo_inurba_marseille","lat":43.304278,"lon":5.388868,"is_reserved":false,"is_disabled":false,"rental_uris":{"android":"levelo://app?vid=27028512-3f8b-4ea6-bbc7-cfaccb624bb5","ios":"levelo://app?vid=27028512-3f8b-4ea6-bbc7-cfaccb624bb5"},"vehicle_type_id":"4","last_reported":1725905506,"current_range_meters":20800,"station_id":"ce4bgk12rcd13ifvqbi0","pricing_plan_id":"cebpf4jnsgd1na2vs0mg"},{"bike_id":"59a0a202-7b42-42a0-bd0c-e009ae0328c7","system_id":"levelo_inurba_marseille","lat":43.296277,"lon":5.377108,"is_reserved":false,"is_disabled":false,"rental_uris":{"android":"levelo://app?vid=59a0a202-7b42-42a0-bd0c-e009ae0328c7","ios":"levelo://app?vid=59a0a202-7b42-42a0-bd0c-e009ae0328c7"},"vehicle_type_id":"4","last_reported":1725905506,"current_range_meters":0,"station_id":"ce4bgi92rcd13ifvqb90","pricing_plan_id":"cebpf4jnsgd1na2vs0mg"},{"bike_id":"35f89c24-62be-4dda-a969-da5e40907f3f","system_id":"levelo_inurba_marseille","lat":43.299707,"lon":5.384859,"is_reserved":false,"is_disabled":false,"rental_uris":{"android":"levelo://app?vid=35f89c24-62be-4dda-a969-da5e40907f3f","ios":"levelo://app?vid=35f89c24-62be-4dda-a969-da5e40907f3f"},"vehicle_type_id":"4","last_reported":1725905506,"current_range_meters":0,"station_id":"ce4bgj92rcd13ifvqbd0","pricing_plan_id":"cebpf4jnsgd1na2vs0mg"},{"bike_id":"02bc1463-a997-4835-b224-2a9849d53c56","system_id":"levelo_inurba_marseille","lat":43.301396,"lon":5.387812,"is_reserved":false,"is_disabled":false,"rental_uris":{"android":"levelo://app?vid=02bc1463-a997-4835-b224-2a9849d53c56","ios":"levelo://app?vid=02bc1463-a997-4835-b224-2a9849d53c56"},"vehicle_type_id":"4","last_reported":1725905506,"current_range_meters":9200,"station_id":"ce4bghh2rcd13ifvqb60","pricing_plan_id":"cebpf4jnsgd1na2vs0mg"},{"bike_id":"4bfc943c-df60-467d-afa5-7bee8ccea4a2","system_id":"levelo_inurba_marseille","lat":43.301396,"lon":5.387812,"is_reserved":false,"is_disabled":false,"rental_uris":{"android":"levelo://app?vid=4bfc943c-df60-467d-afa5-7bee8ccea4a2","ios":"levelo://app?vid=4bfc943c-df60-467d-afa5-7bee8ccea4a2"},"vehicle_type_id":"4","last_reported":1725905506,"current_range_meters":27600,"station_id":"ce4bghh2rcd13ifvqb60","pricing_plan_id":"cebpf4jnsgd1na2vs0mg"},{"bike_id":"143a5030-15c1-4690-9b39-e4905660427e","system_id":"levelo_inurba_marseille","lat":43.30139,"lon":5.38781,"is_reserved":false,"is_disabled":false,"rental_uris":{"android":"levelo://app?vid=143a5030-15c1-4690-9b39-e4905660427e","ios":"levelo://app?vid=143a5030-15c1-4690-9b39-e4905660427e"},"vehicle_type_id":"4","last_reported":1725905506,"current_range_meters":29200,"station_id":"ce4bghh2rcd13ifvqb60","pricing_plan_id":"cebpf4jnsgd1na2vs0mg"},{"bike_id":"5ea343c1-6d26-4c6e-800f-714fa3c1e2de","system_id":"levelo_inurba_marseille","lat":43.305994,"lon":5.393687,"is_reserved":false,"is_disabled":false,"rental_uris":{"android":"levelo://app?vid=5ea343c1-6d26-4c6e-800f-714fa3c1e2de","ios":"levelo://app?vid=5ea343c1-6d26-4c6e-800f-714fa3c1e2de"},"vehicle_type_id":"4","last_reported":1725905506,"current_range_meters":4000,"station_id":"ce4bh0p2rcd13ifvqd80","pricing_plan_id":"cebpf4jnsgd1na2vs0mg"},{"bike_id":"7b3be378-99cc-485f-beb1-ad89c32e25ab","system_id":"levelo_inurba_marseille","lat":43.32365,"lon":5.38882,"is_reserved":false,"is_disabled":false,"rental_uris":{"android":"levelo://app?vid=7b3be378-99cc-485f-beb1-ad89c32e25ab","ios":"levelo://app?vid=7b3be378-99cc-485f-beb1-ad89c32e25ab"},"vehicle_type_id":"4","last_reported":1725905506,"current_range_meters":9200,"station_id":"ce4bhqp2rcd13ifvqhog","pricing_plan_id":"cebpf4jnsgd1na2vs0mg"},{"bike_id":"d46255ba-c505-4d65-9a11-b745c4469e04","system_id":"levelo_inurba_marseille","lat":43.32367,"lon":5.388836,"is_reserved":false,"is_disabled":false,"rental_uris":{"android":"levelo://app?vid=d46255ba-c505-4d65-9a11-b745c4469e04","ios":"levelo://app?vid=d46255ba-c505-4d65-9a11-b745c4469e04"},"vehicle_type_id":"4","last_reported":1725905506,"current_range_meters":0,"station_id":"ce4bhqp2rcd13ifvqhog","pricing_plan_id":"cebpf4jnsgd1na2vs0mg"},{"bike_id":"e70ee1bb-a26e-4052-9540-28721896adb2","system_id":"levelo_inurba_marseille","lat":43.32366,"lon":5.38885,"is_reserved":false,"is_disabled":false,"rental_uris":{"android":"levelo://app?vid=e70ee1bb-a26e-4052-9540-28721896adb2","ios":"levelo://app?vid=e70ee1bb-a26e-4052-9540-28721896adb2"},"vehicle_type_id":"4","last_reported":1725905506,"current_range_meters":5200,"station_id":"ce4bhqp2rcd13ifvqhog","pricing_plan_id":"cebpf4jnsgd1na2vs0mg"},{"bike_id":"35edce4e-d766-46a4-8225-dbd1585f3b66","system_id":"levelo_inurba_marseille","lat":43.32367,"lon":5.388836,"is_reserved":false,"is_disabled":false,"rental_uris":{"android":"levelo://app?vid=35edce4e-d766-46a4-8225-dbd1585f3b66","ios":"levelo://app?vid=35edce4e-d766-46a4-8225-dbd1585f3b66"},"vehicle_type_id":"4","last_reported":1725905506,"current_range_meters":16400,"station_id":"ce4bhqp2rcd13ifvqhog","pricing_plan_id":"cebpf4jnsgd1na2vs0mg"},{"bike_id":"2c86e902-eca6-4fe5-88cf-41ff27469b4d","system_id":"levelo_inurba_marseille","lat":43.32367,"lon":5.388836,"is_reserved":false,"is_disabled":false,"rental_uris":{"android":"levelo://app?vid=2c86e902-eca6-4fe5-88cf-41ff27469b4d","ios":"levelo://app?vid=2c86e902-eca6-4fe5-88cf-41ff27469b4d"},"vehicle_type_id":"4","last_reported":1725905506,"current_range_meters":28000,"station_id":"ce4bhqp2rcd13ifvqhog","pricing_plan_id":"cebpf4jnsgd1na2vs0mg"},{"bike_id":"19925d1e-e182-41c6-b5c7-a118e779ff7b","system_id":"levelo_inurba_marseille","lat":43.32367,"lon":5.388836,"is_reserved":false,"is_disabled":false,"rental_uris":{"android":"levelo://app?vid=19925d1e-e182-41c6-b5c7-a118e779ff7b","ios":"levelo://app?vid=19925d1e-e182-41c6-b5c7-a118e779ff7b"},"vehicle_type_id":"4","last_reported":1725905506,"current_range_meters":23600,"station_id":"ce4bhqp2rcd13ifvqhog","pricing_plan_id":"cebpf4jnsgd1na2vs0mg"},{"bike_id":"393a23e2-a248-4a81-8d18-99f86620f075","system_id":"levelo_inurba_marseille","lat":43.32367,"lon":5.388836,"is_reserved":false,"is_disabled":false,"rental_uris":{"android":"levelo://app?vid=393a23e2-a248-4a81-8d18-99f86620f075","ios":"levelo://app?vid=393a23e2-a248-4a81-8d18-99f86620f075"},"vehicle_type_id":"4","last_reported":1725905506,"current_range_meters":31200,"station_id":"ce4bhqp2rcd13ifvqhog","pricing_plan_id":"cebpf4jnsgd1na2vs0mg"},{"bike_id":"956c348e-0be6-48da-adfd-089f36ca5259","system_id":"levelo_inurba_marseille","lat":43.32367,"lon":5.388836,"is_reserved":false,"is_disabled":false,"rental_uris":{"android":"levelo://app?vid=956c348e-0be6-48da-adfd-089f36ca5259","ios":"levelo://app?vid=956c348e-0be6-48da-adfd-089f36ca5259"},"vehicle_type_id":"4","last_reported":1725905506,"current_range_meters":22000,"station_id":"ce4bhqp2rcd13ifvqhog","pricing_plan_id":"cebpf4jnsgd1na2vs0mg"},{"bike_id":"41a40d7a-734e-4da1-84c3-5ed717ec6424","system_id":"levelo_inurba_marseille","lat":43.32369,"lon":5.38889,"is_reserved":false,"is_disabled":false,"rental_uris":{"android":"levelo://app?vid=41a40d7a-734e-4da1-84c3-5ed717ec6424","ios":"levelo://app?vid=41a40d7a-734e-4da1-84c3-5ed717ec6424"},"vehicle_type_id":"4","last_reported":1725905506,"current_range_meters":30800,"station_id":"ce4bhqp2rcd13ifvqhog","pricing_plan_id":"cebpf4jnsgd1na2vs0mg"},{"bike_id":"3479b8de-389b-47ed-b9ff-1c9e291e6c7e","system_id":"levelo_inurba_marseille","lat":43.29602,"lon":5.381084,"is_reserved":false,"is_disabled":false,"rental_uris":{"android":"levelo://app?vid=3479b8de-389b-47ed-b9ff-1c9e291e6c7e","ios":"levelo://app?vid=3479b8de-389b-47ed-b9ff-1c9e291e6c7e"},"vehicle_type_id":"4","last_reported":1725905506,"current_range_meters":26400,"station_id":"ce4bgl12rcd13ifvqbo0","pricing_plan_id":"cebpf4jnsgd1na2vs0mg"},{"bike_id":"5ad86fd0-de56-4da1-8eff-844e8c9eeb22","system_id":"levelo_inurba_marseille","lat":43.3237,"lon":5.38926,"is_reserved":false,"is_disabled":false,"rental_uris":{"android":"levelo://app?vid=5ad86fd0-de56-4da1-8eff-844e8c9eeb22","ios":"levelo://app?vid=5ad86fd0-de56-4da1-8eff-844e8c9eeb22"},"vehicle_type_id":"4","last_reported":1725905506,"current_range_meters":16800,"station_id":"","pricing_plan_id":"cebpf4jnsgd1na2vs0mg"},{"bike_id":"86c5b5cd-3f3b-4d0d-8a11-20ab17328492","system_id":"levelo_inurba_marseille","lat":43.29602,"lon":5.381084,"is_reserved":false,"is_disabled":false,"rental_uris":{"android":"levelo://app?vid=86c5b5cd-3f3b-4d0d-8a11-20ab17328492","ios":"levelo://app?vid=86c5b5cd-3f3b-4d0d-8a11-20ab17328492"},"vehicle_type_id":"4","last_reported":1725905506,"current_range_meters":1200,"station_id":"ce4bgl12rcd13ifvqbo0","pricing_plan_id":"cebpf4jnsgd1na2vs0mg"},{"bike_id":"ae6eb2cb-4ca5-463f-bb1e-5eeeb7dbfb8a","system_id":"levelo_inurba_marseille","lat":43.29602,"lon":5.381084,"is_reserved":false,"is_disabled":false,"rental_uris":{"android":"levelo://app?vid=ae6eb2cb-4ca5-463f-bb1e-5eeeb7dbfb8a","ios":"levelo://app?vid=ae6eb2cb-4ca5-463f-bb1e-5eeeb7dbfb8a"},"vehicle_type_id":"4","last_reported":1725905506,"current_range_meters":0,"station_id":"ce4bgl12rcd13ifvqbo0","pricing_plan_id":"cebpf4jnsgd1na2vs0mg"},{"bike_id":"92187367-de79-492a-b2ba-2c09cd955679","system_id":"levelo_inurba_marseille","lat":43.292749,"lon":5.368402,"is_reserved":false,"is_disabled":false,"rental_uris":{"android":"levelo://app?vid=92187367-de79-492a-b2ba-2c09cd955679","ios":"levelo://app?vid=92187367-de79-492a-b2ba-2c09cd955679"},"vehicle_type_id":"4","last_reported":1725905506,"current_range_meters":14000,"station_id":"ce4bhbp2rcd13ifvqesg","pricing_plan_id":"cebpf4jnsgd1na2vs0mg"},{"bike_id":"b0616269-d6af-45db-8aad-840e4098ce1f","system_id":"levelo_inurba_marseille","lat":43.292749,"lon":5.368402,"is_reserved":false,"is_disabled":false,"rental_uris":{"android":"levelo://app?vid=b0616269-d6af-45db-8aad-840e4098ce1f","ios":"levelo://app?vid=b0616269-d6af-45db-8aad-840e4098ce1f"},"vehicle_type_id":"4","last_reported":1725905506,"current_range_meters":3200,"station_id":"ce4bhbp2rcd13ifvqesg","pricing_plan_id":"cebpf4jnsgd1na2vs0mg"},{"bike_id":"8e447e97-f646-44e8-bbd4-fb9e8872b9c6","system_id":"levelo_inurba_marseille","lat":43.29276,"lon":5.36855,"is_reserved":false,"is_disabled":false,"rental_uris":{"android":"levelo://app?vid=8e447e97-f646-44e8-bbd4-fb9e8872b9c6","ios":"levelo://app?vid=8e447e97-f646-44e8-bbd4-fb9e8872b9c6"},"vehicle_type_id":"4","last_reported":1725905506,"current_range_meters":0,"station_id":"ce4bhbp2rcd13ifvqesg","pricing_plan_id":"cebpf4jnsgd1na2vs0mg"},{"bike_id":"e0cc44cc-d1c1-464d-bd04-c839748ada35","system_id":"levelo_inurba_marseille","lat":43.292749,"lon":5.368402,"is_reserved":false,"is_disabled":false,"rental_uris":{"android":"levelo://app?vid=e0cc44cc-d1c1-464d-bd04-c839748ada35","ios":"levelo://app?vid=e0cc44cc-d1c1-464d-bd04-c839748ada35"},"vehicle_type_id":"4","last_reported":1725905506,"current_range_meters":0,"station_id":"ce4bhbp2rcd13ifvqesg","pricing_plan_id":"cebpf4jnsgd1na2vs0mg"},{"bike_id":"9ff691f6-4cca-452f-9d41-fc1ba17f855e","system_id":"levelo_inurba_marseille","lat":43.305994,"lon":5.393687,"is_reserved":false,"is_disabled":false,"rental_uris":{"android":"levelo://app?vid=9ff691f6-4cca-452f-9d41-fc1ba17f855e","ios":"levelo://app?vid=9ff691f6-4cca-452f-9d41-fc1ba17f855e"},"vehicle_type_id":"4","last_reported":1725905506,"current_range_meters":28400,"station_id":"ce4bh0p2rcd13ifvqd80","pricing_plan_id":"cebpf4jnsgd1na2vs0mg"},{"bike_id":"5cec9abf-0c43-4e77-9566-4ec81090f73d","system_id":"levelo_inurba_marseille","lat":43.293009,"lon":5.374584,"is_reserved":false,"is_disabled":false,"rental_uris":{"android":"levelo://app?vid=5cec9abf-0c43-4e77-9566-4ec81090f73d","ios":"levelo://app?vid=5cec9abf-0c43-4e77-9566-4ec81090f73d"},"vehicle_type_id":"4","last_reported":1725905506,"current_range_meters":5200,"station_id":"ce4bgi12rcd13ifvqb70","pricing_plan_id":"cebpf4jnsgd1na2vs0mg"},{"bike_id":"551ddbc2-7236-49ef-8f6a-0c1b85651d2d","system_id":"levelo_inurba_marseille","lat":43.293009,"lon":5.374584,"is_reserved":false,"is_disabled":false,"rental_uris":{"android":"levelo://app?vid=551ddbc2-7236-49ef-8f6a-0c1b85651d2d","ios":"levelo://app?vid=551ddbc2-7236-49ef-8f6a-0c1b85651d2d"},"vehicle_type_id":"4","last_reported":1725905506,"current_range_meters":1200,"station_id":"ce4bgi12rcd13ifvqb70","pricing_plan_id":"cebpf4jnsgd1na2vs0mg"},{"bike_id":"bdd3a71b-b3f5-4372-9950-1c95d0a8562b","system_id":"levelo_inurba_marseille","lat":43.305994,"lon":5.393687,"is_reserved":false,"is_disabled":false,"rental_uris":{"android":"levelo://app?vid=bdd3a71b-b3f5-4372-9950-1c95d0a8562b","ios":"levelo://app?vid=bdd3a71b-b3f5-4372-9950-1c95d0a8562b"},"vehicle_type_id":"4","last_reported":1725905506,"current_range_meters":21200,"station_id":"ce4bh0p2rcd13ifvqd80","pricing_plan_id":"cebpf4jnsgd1na2vs0mg"},{"bike_id":"321df28f-9918-464b-91ef-d0b3cfa5e3d0","system_id":"levelo_inurba_marseille","lat":43.305994,"lon":5.393687,"is_reserved":false,"is_disabled":false,"rental_uris":{"android":"levelo://app?vid=321df28f-9918-464b-91ef-d0b3cfa5e3d0","ios":"levelo://app?vid=321df28f-9918-464b-91ef-d0b3cfa5e3d0"},"vehicle_type_id":"4","last_reported":1725905506,"current_range_meters":22400,"station_id":"ce4bh0p2rcd13ifvqd80","pricing_plan_id":"cebpf4jnsgd1na2vs0mg"},{"bike_id":"e826eeef-cf94-498b-9ccd-6e387b770f4e","system_id":"levelo_inurba_marseille","lat":43.305994,"lon":5.393687,"is_reserved":false,"is_disabled":false,"rental_uris":{"android":"levelo://app?vid=e826eeef-cf94-498b-9ccd-6e387b770f4e","ios":"levelo://app?vid=e826eeef-cf94-498b-9ccd-6e387b770f4e"},"vehicle_type_id":"4","last_reported":1725905506,"current_range_meters":1200,"station_id":"ce4bh0p2rcd13ifvqd80","pricing_plan_id":"cebpf4jnsgd1na2vs0mg"},{"bike_id":"23fdfc2a-1942-474b-a204-e9313530ac32","system_id":"levelo_inurba_marseille","lat":43.305994,"lon":5.393687,"is_reserved":false,"is_disabled":false,"rental_uris":{"android":"levelo://app?vid=23fdfc2a-1942-474b-a204-e9313530ac32","ios":"levelo://app?vid=23fdfc2a-1942-474b-a204-e9313530ac32"},"vehicle_type_id":"4","last_reported":1725905506,"current_range_meters":4000,"station_id":"ce4bh0p2rcd13ifvqd80","pricing_plan_id":"cebpf4jnsgd1na2vs0mg"},{"bike_id":"6db7facf-a3af-4698-8f92-ca3b9f5b7475","system_id":"levelo_inurba_marseille","lat":43.302992,"lon":5.392136,"is_reserved":false,"is_disabled":false,"rental_uris":{"android":"levelo://app?vid=6db7facf-a3af-4698-8f92-ca3b9f5b7475","ios":"levelo://app?vid=6db7facf-a3af-4698-8f92-ca3b9f5b7475"},"vehicle_type_id":"4","last_reported":1725905506,"current_range_meters":0,"station_id":"ce4bgkh2rcd13ifvqbk0","pricing_plan_id":"cebpf4jnsgd1na2vs0mg"},{"bike_id":"4fc7a131-35aa-45cb-bd8d-6210300c6f01","system_id":"levelo_inurba_marseille","lat":43.292311,"lon":5.360731,"is_reserved":false,"is_disabled":false,"rental_uris":{"android":"levelo://app?vid=4fc7a131-35aa-45cb-bd8d-6210300c6f01","ios":"levelo://app?vid=4fc7a131-35aa-45cb-bd8d-6210300c6f01"},"vehicle_type_id":"4","last_reported":1725905506,"current_range_meters":15600,"station_id":"ce4bhbh2rcd13ifvqeqg","pricing_plan_id":"cebpf4jnsgd1na2vs0mg"},{"bike_id":"da518136-7ec8-4608-8e48-674fc5ed544f","system_id":"levelo_inurba_marseille","lat":43.292311,"lon":5.360731,"is_reserved":false,"is_disabled":false,"rental_uris":{"android":"levelo://app?vid=da518136-7ec8-4608-8e48-674fc5ed544f","ios":"levelo://app?vid=da518136-7ec8-4608-8e48-674fc5ed544f"},"vehicle_type_id":"4","last_reported":1725905506,"current_range_meters":0,"station_id":"ce4bhbh2rcd13ifvqeqg","pricing_plan_id":"cebpf4jnsgd1na2vs0mg"},{"bike_id":"716bff69-01c8-4ad8-93ba-5d856e922ff3","system_id":"levelo_inurba_marseille","lat":43.29223,"lon":5.36059,"is_reserved":false,"is_disabled":false,"rental_uris":{"android":"levelo://app?vid=716bff69-01c8-4ad8-93ba-5d856e922ff3","ios":"levelo://app?vid=716bff69-01c8-4ad8-93ba-5d856e922ff3"},"vehicle_type_id":"4","last_reported":1725905506,"current_range_meters":18000,"station_id":"ce4bhbh2rcd13ifvqeqg","pricing_plan_id":"cebpf4jnsgd1na2vs0mg"},{"bike_id":"485a28f3-9b06-482e-ab0e-200bc1acd3a2","system_id":"levelo_inurba_marseille","lat":43.305994,"lon":5.393687,"is_reserved":false,"is_disabled":false,"rental_uris":{"android":"levelo://app?vid=485a28f3-9b06-482e-ab0e-200bc1acd3a2","ios":"levelo://app?vid=485a28f3-9b06-482e-ab0e-200bc1acd3a2"},"vehicle_type_id":"4","last_reported":1725905506,"current_range_meters":5200,"station_id":"ce4bh0p2rcd13ifvqd80","pricing_plan_id":"cebpf4jnsgd1na2vs0mg"},{"bike_id":"80025bb9-0e4d-4e0e-b69d-73546dc7036e","system_id":"levelo_inurba_marseille","lat":43.29218,"lon":5.36055,"is_reserved":false,"is_disabled":false,"rental_uris":{"android":"levelo://app?vid=80025bb9-0e4d-4e0e-b69d-73546dc7036e","ios":"levelo://app?vid=80025bb9-0e4d-4e0e-b69d-73546dc7036e"},"vehicle_type_id":"4","last_reported":1725905506,"current_range_meters":30800,"station_id":"ce4bhbh2rcd13ifvqeqg","pricing_plan_id":"cebpf4jnsgd1na2vs0mg"},{"bike_id":"9eda2226-f9f5-426f-888b-b7c8447d9ae0","system_id":"levelo_inurba_marseille","lat":43.298764,"lon":5.388973,"is_reserved":false,"is_disabled":false,"rental_uris":{"android":"levelo://app?vid=9eda2226-f9f5-426f-888b-b7c8447d9ae0","ios":"levelo://app?vid=9eda2226-f9f5-426f-888b-b7c8447d9ae0"},"vehicle_type_id":"4","last_reported":1725905506,"current_range_meters":0,"station_id":"ce4bh392rcd13ifvqdl0","pricing_plan_id":"cebpf4jnsgd1na2vs0mg"},{"bike_id":"1c0e0470-95d3-4a46-8db7-43fc86376d7c","system_id":"levelo_inurba_marseille","lat":43.291675,"lon":5.371583,"is_reserved":false,"is_disabled":false,"rental_uris":{"android":"levelo://app?vid=1c0e0470-95d3-4a46-8db7-43fc86376d7c","ios":"levelo://app?vid=1c0e0470-95d3-4a46-8db7-43fc86376d7c"},"vehicle_type_id":"4","last_reported":1725905506,"current_range_meters":7600,"station_id":"ce4bha92rcd13ifvqeh0","pricing_plan_id":"cebpf4jnsgd1na2vs0mg"},{"bike_id":"0ce635e9-4112-4f03-87c4-28ca4d75378e","system_id":"levelo_inurba_marseille","lat":43.291675,"lon":5.371583,"is_reserved":false,"is_disabled":false,"rental_uris":{"android":"levelo://app?vid=0ce635e9-4112-4f03-87c4-28ca4d75378e","ios":"levelo://app?vid=0ce635e9-4112-4f03-87c4-28ca4d75378e"},"vehicle_type_id":"4","last_reported":1725905506,"current_range_meters":0,"station_id":"ce4bha92rcd13ifvqeh0","pricing_plan_id":"cebpf4jnsgd1na2vs0mg"},{"bike_id":"4f63fb2d-8823-4a67-8fd8-55c2bc8660ee","system_id":"levelo_inurba_marseille","lat":43.29876,"lon":5.38904,"is_reserved":false,"is_disabled":false,"rental_uris":{"android":"levelo://app?vid=4f63fb2d-8823-4a67-8fd8-55c2bc8660ee","ios":"levelo://app?vid=4f63fb2d-8823-4a67-8fd8-55c2bc8660ee"},"vehicle_type_id":"4","last_reported":1725905506,"current_range_meters":0,"station_id":"ce4bh392rcd13ifvqdl0","pricing_plan_id":"cebpf4jnsgd1na2vs0mg"},{"bike_id":"280779cb-dea3-450e-b324-503a182084e3","system_id":"levelo_inurba_marseille","lat":43.291671,"lon":5.371575,"is_reserved":false,"is_disabled":false,"rental_uris":{"android":"levelo://app?vid=280779cb-dea3-450e-b324-503a182084e3","ios":"levelo://app?vid=280779cb-dea3-450e-b324-503a182084e3"},"vehicle_type_id":"4","last_reported":1725905506,"current_range_meters":12800,"station_id":"ce4bha92rcd13ifvqeh0","pricing_plan_id":"cebpf4jnsgd1na2vs0mg"},{"bike_id":"23fa2b3e-77e6-4c8f-9143-cc36fba7124a","system_id":"levelo_inurba_marseille","lat":43.291671,"lon":5.371575,"is_reserved":false,"is_disabled":false,"rental_uris":{"android":"levelo://app?vid=23fa2b3e-77e6-4c8f-9143-cc36fba7124a","ios":"levelo://app?vid=23fa2b3e-77e6-4c8f-9143-cc36fba7124a"},"vehicle_type_id":"4","last_reported":1725905506,"current_range_meters":12800,"station_id":"ce4bha92rcd13ifvqeh0","pricing_plan_id":"cebpf4jnsgd1na2vs0mg"},{"bike_id":"21f6cb3c-01fd-436d-88ba-802488b93b50","system_id":"levelo_inurba_marseille","lat":43.29291,"lon":5.3558,"is_reserved":false,"is_disabled":false,"rental_uris":{"android":"levelo://app?vid=21f6cb3c-01fd-436d-88ba-802488b93b50","ios":"levelo://app?vid=21f6cb3c-01fd-436d-88ba-802488b93b50"},"vehicle_type_id":"4","last_reported":1725905506,"current_range_meters":19200,"station_id":"","pricing_plan_id":"cebpf4jnsgd1na2vs0mg"},{"bike_id":"4df24a40-9725-4970-8591-6e3e7b3b72aa","system_id":"levelo_inurba_marseille","lat":43.29197,"lon":5.35805,"is_reserved":false,"is_disabled":false,"rental_uris":{"android":"levelo://app?vid=4df24a40-9725-4970-8591-6e3e7b3b72aa","ios":"levelo://app?vid=4df24a40-9725-4970-8591-6e3e7b3b72aa"},"vehicle_type_id":"4","last_reported":1725905506,"current_range_meters":0,"station_id":"ce4bhb12rcd13ifvqel0","pricing_plan_id":"cebpf4jnsgd1na2vs0mg"},{"bike_id":"1cf9f304-b46f-4d91-b14e-2255fc0c224a","system_id":"levelo_inurba_marseille","lat":43.309047,"lon":5.396551,"is_reserved":false,"is_disabled":false,"rental_uris":{"android":"levelo://app?vid=1cf9f304-b46f-4d91-b14e-2255fc0c224a","ios":"levelo://app?vid=1cf9f304-b46f-4d91-b14e-2255fc0c224a"},"vehicle_type_id":"4","last_reported":1725905506,"current_range_meters":31200,"station_id":"ce4bh012rcd13ifvqcv0","pricing_plan_id":"cebpf4jnsgd1na2vs0mg"},{"bike_id":"1f12456e-3417-449a-ade9-9a5c91c70280","system_id":"levelo_inurba_marseille","lat":43.291994,"lon":5.357886,"is_reserved":false,"is_disabled":false,"rental_uris":{"android":"levelo://app?vid=1f12456e-3417-449a-ade9-9a5c91c70280","ios":"levelo://app?vid=1f12456e-3417-449a-ade9-9a5c91c70280"},"vehicle_type_id":"4","last_reported":1725905506,"current_range_meters":15200,"station_id":"ce4bhb12rcd13ifvqel0","pricing_plan_id":"cebpf4jnsgd1na2vs0mg"},{"bike_id":"a3fca30b-41e6-4c44-89fa-7e4db24b8c74","system_id":"levelo_inurba_marseille","lat":43.29197,"lon":5.35789,"is_reserved":false,"is_disabled":false,"rental_uris":{"android":"levelo://app?vid=a3fca30b-41e6-4c44-89fa-7e4db24b8c74","ios":"levelo://app?vid=a3fca30b-41e6-4c44-89fa-7e4db24b8c74"},"vehicle_type_id":"4","last_reported":1725905506,"current_range_meters":11200,"station_id":"ce4bhb12rcd13ifvqel0","pricing_plan_id":"cebpf4jnsgd1na2vs0mg"},{"bike_id":"c72a5e73-74a3-49d8-ae89-2a1ada265de6","system_id":"levelo_inurba_marseille","lat":43.291994,"lon":5.357886,"is_reserved":false,"is_disabled":false,"rental_uris":{"android":"levelo://app?vid=c72a5e73-74a3-49d8-ae89-2a1ada265de6","ios":"levelo://app?vid=c72a5e73-74a3-49d8-ae89-2a1ada265de6"},"vehicle_type_id":"4","last_reported":1725905506,"current_range_meters":400,"station_id":"ce4bhb12rcd13ifvqel0","pricing_plan_id":"cebpf4jnsgd1na2vs0mg"},{"bike_id":"541e0e65-04b4-4f5c-9ab4-1a53e5f3363e","system_id":"levelo_inurba_marseille","lat":43.313291,"lon":5.396838,"is_reserved":false,"is_disabled":false,"rental_uris":{"android":"levelo://app?vid=541e0e65-04b4-4f5c-9ab4-1a53e5f3363e","ios":"levelo://app?vid=541e0e65-04b4-4f5c-9ab4-1a53e5f3363e"},"vehicle_type_id":"4","last_reported":1725905506,"current_range_meters":23600,"station_id":"ce4bgvp2rcd13ifvqcu0","pricing_plan_id":"cebpf4jnsgd1na2vs0mg"},{"bike_id":"ab237a72-d593-4889-85b9-6e4917923528","system_id":"levelo_inurba_marseille","lat":43.30888,"lon":5.39645,"is_reserved":false,"is_disabled":false,"rental_uris":{"android":"levelo://app?vid=ab237a72-d593-4889-85b9-6e4917923528","ios":"levelo://app?vid=ab237a72-d593-4889-85b9-6e4917923528"},"vehicle_type_id":"4","last_reported":1725905506,"current_range_meters":9200,"station_id":"ce4bh012rcd13ifvqcv0","pricing_plan_id":"cebpf4jnsgd1na2vs0mg"},{"bike_id":"38dd96ca-bd50-4deb-8679-139b247573f4","system_id":"levelo_inurba_marseille","lat":43.309047,"lon":5.396551,"is_reserved":false,"is_disabled":false,"rental_uris":{"android":"levelo://app?vid=38dd96ca-bd50-4deb-8679-139b247573f4","ios":"levelo://app?vid=38dd96ca-bd50-4deb-8679-139b247573f4"},"vehicle_type_id":"4","last_reported":1725905506,"current_range_meters":4000,"station_id":"ce4bh012rcd13ifvqcv0","pricing_plan_id":"cebpf4jnsgd1na2vs0mg"},{"bike_id":"9f73c277-f893-4f91-8000-7042e46ea863","system_id":"levelo_inurba_marseille","lat":43.309038,"lon":5.396546,"is_reserved":false,"is_disabled":false,"rental_uris":{"android":"levelo://app?vid=9f73c277-f893-4f91-8000-7042e46ea863","ios":"levelo://app?vid=9f73c277-f893-4f91-8000-7042e46ea863"},"vehicle_type_id":"4","last_reported":1725905506,"current_range_meters":31600,"station_id":"ce4bh012rcd13ifvqcv0","pricing_plan_id":"cebpf4jnsgd1na2vs0mg"},{"bike_id":"130869cc-0de2-4a0d-bb4c-7eca4a5c7cfc","system_id":"levelo_inurba_marseille","lat":43.31326,"lon":5.39696,"is_reserved":false,"is_disabled":false,"rental_uris":{"android":"levelo://app?vid=130869cc-0de2-4a0d-bb4c-7eca4a5c7cfc","ios":"levelo://app?vid=130869cc-0de2-4a0d-bb4c-7eca4a5c7cfc"},"vehicle_type_id":"4","last_reported":1725905506,"current_range_meters":0,"station_id":"ce4bgvp2rcd13ifvqcu0","pricing_plan_id":"cebpf4jnsgd1na2vs0mg"},{"bike_id":"a6cd471a-7117-4019-83be-5c2c937b12b8","system_id":"levelo_inurba_marseille","lat":43.313291,"lon":5.396838,"is_reserved":false,"is_disabled":false,"rental_uris":{"android":"levelo://app?vid=a6cd471a-7117-4019-83be-5c2c937b12b8","ios":"levelo://app?vid=a6cd471a-7117-4019-83be-5c2c937b12b8"},"vehicle_type_id":"4","last_reported":1725905506,"current_range_meters":9200,"station_id":"ce4bgvp2rcd13ifvqcu0","pricing_plan_id":"cebpf4jnsgd1na2vs0mg"},{"bike_id":"95a715e6-e9ba-4639-b3a5-a552eafda4ad","system_id":"levelo_inurba_marseille","lat":43.30884,"lon":5.39655,"is_reserved":false,"is_disabled":false,"rental_uris":{"android":"levelo://app?vid=95a715e6-e9ba-4639-b3a5-a552eafda4ad","ios":"levelo://app?vid=95a715e6-e9ba-4639-b3a5-a552eafda4ad"},"vehicle_type_id":"4","last_reported":1725905506,"current_range_meters":8000,"station_id":"ce4bh012rcd13ifvqcv0","pricing_plan_id":"cebpf4jnsgd1na2vs0mg"},{"bike_id":"c1d51d78-f465-4098-8312-390947159d68","system_id":"levelo_inurba_marseille","lat":43.309047,"lon":5.396551,"is_reserved":false,"is_disabled":false,"rental_uris":{"android":"levelo://app?vid=c1d51d78-f465-4098-8312-390947159d68","ios":"levelo://app?vid=c1d51d78-f465-4098-8312-390947159d68"},"vehicle_type_id":"4","last_reported":1725905506,"current_range_meters":24000,"station_id":"ce4bh012rcd13ifvqcv0","pricing_plan_id":"cebpf4jnsgd1na2vs0mg"},{"bike_id":"162dd85d-dbd8-4faf-b657-a5ecea3bfe6f","system_id":"levelo_inurba_marseille","lat":43.30886,"lon":5.39657,"is_reserved":false,"is_disabled":false,"rental_uris":{"android":"levelo://app?vid=162dd85d-dbd8-4faf-b657-a5ecea3bfe6f","ios":"levelo://app?vid=162dd85d-dbd8-4faf-b657-a5ecea3bfe6f"},"vehicle_type_id":"4","last_reported":1725905506,"current_range_meters":0,"station_id":"ce4bh012rcd13ifvqcv0","pricing_plan_id":"cebpf4jnsgd1na2vs0mg"},{"bike_id":"8476d9d4-e4e4-4d57-bbfc-f67fab4fbf59","system_id":"levelo_inurba_marseille","lat":43.309038,"lon":5.396546,"is_reserved":false,"is_disabled":false,"rental_uris":{"android":"levelo://app?vid=8476d9d4-e4e4-4d57-bbfc-f67fab4fbf59","ios":"levelo://app?vid=8476d9d4-e4e4-4d57-bbfc-f67fab4fbf59"},"vehicle_type_id":"4","last_reported":1725905506,"current_range_meters":16800,"station_id":"ce4bh012rcd13ifvqcv0","pricing_plan_id":"cebpf4jnsgd1na2vs0mg"},{"bike_id":"17122fb1-14c8-4cfe-a08d-8ba98d09f8d6","system_id":"levelo_inurba_marseille","lat":43.309038,"lon":5.396546,"is_reserved":false,"is_disabled":false,"rental_uris":{"android":"levelo://app?vid=17122fb1-14c8-4cfe-a08d-8ba98d09f8d6","ios":"levelo://app?vid=17122fb1-14c8-4cfe-a08d-8ba98d09f8d6"},"vehicle_type_id":"4","last_reported":1725905506,"current_range_meters":3600,"station_id":"ce4bh012rcd13ifvqcv0","pricing_plan_id":"cebpf4jnsgd1na2vs0mg"},{"bike_id":"ff1a965d-6587-4016-a665-057a8c9bbb45","system_id":"levelo_inurba_marseille","lat":43.309047,"lon":5.396551,"is_reserved":false,"is_disabled":false,"rental_uris":{"android":"levelo://app?vid=ff1a965d-6587-4016-a665-057a8c9bbb45","ios":"levelo://app?vid=ff1a965d-6587-4016-a665-057a8c9bbb45"},"vehicle_type_id":"4","last_reported":1725905506,"current_range_meters":32000,"station_id":"ce4bh012rcd13ifvqcv0","pricing_plan_id":"cebpf4jnsgd1na2vs0mg"},{"bike_id":"e686f240-fe01-4d3e-a00d-0d4ccd78f9b1","system_id":"levelo_inurba_marseille","lat":43.309038,"lon":5.396546,"is_reserved":false,"is_disabled":false,"rental_uris":{"android":"levelo://app?vid=e686f240-fe01-4d3e-a00d-0d4ccd78f9b1","ios":"levelo://app?vid=e686f240-fe01-4d3e-a00d-0d4ccd78f9b1"},"vehicle_type_id":"4","last_reported":1725905506,"current_range_meters":17200,"station_id":"ce4bh012rcd13ifvqcv0","pricing_plan_id":"cebpf4jnsgd1na2vs0mg"},{"bike_id":"bd0d60c4-6807-4cc7-8b4f-a6119e3969ec","system_id":"levelo_inurba_marseille","lat":43.309038,"lon":5.396546,"is_reserved":false,"is_disabled":false,"rental_uris":{"android":"levelo://app?vid=bd0d60c4-6807-4cc7-8b4f-a6119e3969ec","ios":"levelo://app?vid=bd0d60c4-6807-4cc7-8b4f-a6119e3969ec"},"vehicle_type_id":"4","last_reported":1725905506,"current_range_meters":12400,"station_id":"ce4bh012rcd13ifvqcv0","pricing_plan_id":"cebpf4jnsgd1na2vs0mg"},{"bike_id":"90388a16-6d7f-46d9-a024-0464b92ab1fe","system_id":"levelo_inurba_marseille","lat":43.309047,"lon":5.396551,"is_reserved":false,"is_disabled":false,"rental_uris":{"android":"levelo://app?vid=90388a16-6d7f-46d9-a024-0464b92ab1fe","ios":"levelo://app?vid=90388a16-6d7f-46d9-a024-0464b92ab1fe"},"vehicle_type_id":"4","last_reported":1725905506,"current_range_meters":27200,"station_id":"ce4bh012rcd13ifvqcv0","pricing_plan_id":"cebpf4jnsgd1na2vs0mg"},{"bike_id":"5aab1481-0081-4da8-b769-b63f1e6b8365","system_id":"levelo_inurba_marseille","lat":43.29527,"lon":5.38541,"is_reserved":false,"is_disabled":false,"rental_uris":{"android":"levelo://app?vid=5aab1481-0081-4da8-b769-b63f1e6b8365","ios":"levelo://app?vid=5aab1481-0081-4da8-b769-b63f1e6b8365"},"vehicle_type_id":"4","last_reported":1725905506,"current_range_meters":0,"station_id":"ce4bgih2rcd13ifvqba0","pricing_plan_id":"cebpf4jnsgd1na2vs0mg"},{"bike_id":"64b27d4d-3994-4162-b199-3097923611e1","system_id":"levelo_inurba_marseille","lat":43.299243,"lon":5.374807,"is_reserved":false,"is_disabled":false,"rental_uris":{"android":"levelo://app?vid=64b27d4d-3994-4162-b199-3097923611e1","ios":"levelo://app?vid=64b27d4d-3994-4162-b199-3097923611e1"},"vehicle_type_id":"4","last_reported":1725905506,"current_range_meters":1200,"station_id":"ce4bgjh2rcd13ifvqbg0","pricing_plan_id":"cebpf4jnsgd1na2vs0mg"},{"bike_id":"4b1d0147-7303-49a0-8b35-43787f270094","system_id":"levelo_inurba_marseille","lat":43.290624,"lon":5.359245,"is_reserved":false,"is_disabled":false,"rental_uris":{"android":"levelo://app?vid=4b1d0147-7303-49a0-8b35-43787f270094","ios":"levelo://app?vid=4b1d0147-7303-49a0-8b35-43787f270094"},"vehicle_type_id":"4","last_reported":1725905506,"current_range_meters":13600,"station_id":"ce4bha92rcd13ifvqeg0","pricing_plan_id":"cebpf4jnsgd1na2vs0mg"},{"bike_id":"62179f19-dbdd-4c87-a5a6-bbf50e286467","system_id":"levelo_inurba_marseille","lat":43.290624,"lon":5.359245,"is_reserved":false,"is_disabled":false,"rental_uris":{"android":"levelo://app?vid=62179f19-dbdd-4c87-a5a6-bbf50e286467","ios":"levelo://app?vid=62179f19-dbdd-4c87-a5a6-bbf50e286467"},"vehicle_type_id":"4","last_reported":1725905506,"current_range_meters":5600,"station_id":"ce4bha92rcd13ifvqeg0","pricing_plan_id":"cebpf4jnsgd1na2vs0mg"},{"bike_id":"b320956c-dfa9-4df1-8c4c-caf3c139f0c2","system_id":"levelo_inurba_marseille","lat":43.290631,"lon":5.359244,"is_reserved":false,"is_disabled":false,"rental_uris":{"android":"levelo://app?vid=b320956c-dfa9-4df1-8c4c-caf3c139f0c2","ios":"levelo://app?vid=b320956c-dfa9-4df1-8c4c-caf3c139f0c2"},"vehicle_type_id":"4","last_reported":1725905506,"current_range_meters":4000,"station_id":"ce4bha92rcd13ifvqeg0","pricing_plan_id":"cebpf4jnsgd1na2vs0mg"},{"bike_id":"f59f90db-a951-4bee-8f2a-e64c9e2f0549","system_id":"levelo_inurba_marseille","lat":43.290631,"lon":5.359244,"is_reserved":false,"is_disabled":false,"rental_uris":{"android":"levelo://app?vid=f59f90db-a951-4bee-8f2a-e64c9e2f0549","ios":"levelo://app?vid=f59f90db-a951-4bee-8f2a-e64c9e2f0549"},"vehicle_type_id":"4","last_reported":1725905506,"current_range_meters":29600,"station_id":"ce4bha92rcd13ifvqeg0","pricing_plan_id":"cebpf4jnsgd1na2vs0mg"},{"bike_id":"1d778ad5-71e7-480b-bf56-336123890235","system_id":"levelo_inurba_marseille","lat":43.290631,"lon":5.359244,"is_reserved":false,"is_disabled":false,"rental_uris":{"android":"levelo://app?vid=1d778ad5-71e7-480b-bf56-336123890235","ios":"levelo://app?vid=1d778ad5-71e7-480b-bf56-336123890235"},"vehicle_type_id":"4","last_reported":1725905506,"current_range_meters":10400,"station_id":"ce4bha92rcd13ifvqeg0","pricing_plan_id":"cebpf4jnsgd1na2vs0mg"},{"bike_id":"f639b427-3408-4ca5-bcbe-1d52fdd31d35","system_id":"levelo_inurba_marseille","lat":43.290624,"lon":5.359245,"is_reserved":false,"is_disabled":false,"rental_uris":{"android":"levelo://app?vid=f639b427-3408-4ca5-bcbe-1d52fdd31d35","ios":"levelo://app?vid=f639b427-3408-4ca5-bcbe-1d52fdd31d35"},"vehicle_type_id":"4","last_reported":1725905506,"current_range_meters":29200,"station_id":"ce4bha92rcd13ifvqeg0","pricing_plan_id":"cebpf4jnsgd1na2vs0mg"},{"bike_id":"0f549ef5-4404-4b37-84eb-b763aad2bfd6","system_id":"levelo_inurba_marseille","lat":43.290624,"lon":5.359245,"is_reserved":false,"is_disabled":false,"rental_uris":{"android":"levelo://app?vid=0f549ef5-4404-4b37-84eb-b763aad2bfd6","ios":"levelo://app?vid=0f549ef5-4404-4b37-84eb-b763aad2bfd6"},"vehicle_type_id":"4","last_reported":1725905506,"current_range_meters":31200,"station_id":"ce4bha92rcd13ifvqeg0","pricing_plan_id":"cebpf4jnsgd1na2vs0mg"},{"bike_id":"d88ac6bc-75d8-43bf-8e5c-56a77dbe1148","system_id":"levelo_inurba_marseille","lat":43.289184,"lon":5.366408,"is_reserved":false,"is_disabled":false,"rental_uris":{"android":"levelo://app?vid=d88ac6bc-75d8-43bf-8e5c-56a77dbe1148","ios":"levelo://app?vid=d88ac6bc-75d8-43bf-8e5c-56a77dbe1148"},"vehicle_type_id":"4","last_reported":1725905506,"current_range_meters":31200,"station_id":"ce4bhap2rcd13ifvqek0","pricing_plan_id":"cebpf4jnsgd1na2vs0mg"},{"bike_id":"c75dddaf-4e8d-43d8-bf02-69909107e821","system_id":"levelo_inurba_marseille","lat":43.28951,"lon":5.36625,"is_reserved":false,"is_disabled":false,"rental_uris":{"android":"levelo://app?vid=c75dddaf-4e8d-43d8-bf02-69909107e821","ios":"levelo://app?vid=c75dddaf-4e8d-43d8-bf02-69909107e821"},"vehicle_type_id":"4","last_reported":1725905506,"current_range_meters":31200,"station_id":"ce4bhap2rcd13ifvqek0","pricing_plan_id":"cebpf4jnsgd1na2vs0mg"},{"bike_id":"b1ec015d-9034-4b13-b9fb-b4b7f17f81e3","system_id":"levelo_inurba_marseille","lat":43.290319,"lon":5.375732,"is_reserved":false,"is_disabled":false,"rental_uris":{"android":"levelo://app?vid=b1ec015d-9034-4b13-b9fb-b4b7f17f81e3","ios":"levelo://app?vid=b1ec015d-9034-4b13-b9fb-b4b7f17f81e3"},"vehicle_type_id":"4","last_reported":1725905506,"current_range_meters":1600,"station_id":"ce4bh692rcd13ifvqe90","pricing_plan_id":"cebpf4jnsgd1na2vs0mg"},{"bike_id":"7dee4bbc-277b-4412-bcbc-fbf3b27a53cf","system_id":"levelo_inurba_marseille","lat":43.289184,"lon":5.366408,"is_reserved":false,"is_disabled":false,"rental_uris":{"android":"levelo://app?vid=7dee4bbc-277b-4412-bcbc-fbf3b27a53cf","ios":"levelo://app?vid=7dee4bbc-277b-4412-bcbc-fbf3b27a53cf"},"vehicle_type_id":"4","last_reported":1725905506,"current_range_meters":31200,"station_id":"ce4bhap2rcd13ifvqek0","pricing_plan_id":"cebpf4jnsgd1na2vs0mg"},{"bike_id":"cc04d885-b962-4b64-a0be-c5ef563f9216","system_id":"levelo_inurba_marseille","lat":43.29036,"lon":5.37576,"is_reserved":false,"is_disabled":false,"rental_uris":{"android":"levelo://app?vid=cc04d885-b962-4b64-a0be-c5ef563f9216","ios":"levelo://app?vid=cc04d885-b962-4b64-a0be-c5ef563f9216"},"vehicle_type_id":"4","last_reported":1725905506,"current_range_meters":0,"station_id":"ce4bh692rcd13ifvqe90","pricing_plan_id":"cebpf4jnsgd1na2vs0mg"},{"bike_id":"3a0ed307-7830-442f-889e-e7af96fe3578","system_id":"levelo_inurba_marseille","lat":43.294162,"lon":5.386292,"is_reserved":false,"is_disabled":false,"rental_uris":{"android":"levelo://app?vid=3a0ed307-7830-442f-889e-e7af96fe3578","ios":"levelo://app?vid=3a0ed307-7830-442f-889e-e7af96fe3578"},"vehicle_type_id":"4","last_reported":1725905506,"current_range_meters":10000,"station_id":"ce4bh2h2rcd13ifvqdh0","pricing_plan_id":"cebpf4jnsgd1na2vs0mg"},{"bike_id":"679fd6ec-e6db-4bfd-9ba1-b58d65b5c30d","system_id":"levelo_inurba_marseille","lat":43.294162,"lon":5.386292,"is_reserved":false,"is_disabled":false,"rental_uris":{"android":"levelo://app?vid=679fd6ec-e6db-4bfd-9ba1-b58d65b5c30d","ios":"levelo://app?vid=679fd6ec-e6db-4bfd-9ba1-b58d65b5c30d"},"vehicle_type_id":"4","last_reported":1725905506,"current_range_meters":2400,"station_id":"ce4bh2h2rcd13ifvqdh0","pricing_plan_id":"cebpf4jnsgd1na2vs0mg"},{"bike_id":"fe0154a2-a32c-48c9-b9a5-274a15193fda","system_id":"levelo_inurba_marseille","lat":43.29417,"lon":5.38628,"is_reserved":false,"is_disabled":false,"rental_uris":{"android":"levelo://app?vid=fe0154a2-a32c-48c9-b9a5-274a15193fda","ios":"levelo://app?vid=fe0154a2-a32c-48c9-b9a5-274a15193fda"},"vehicle_type_id":"4","last_reported":1725905506,"current_range_meters":31200,"station_id":"ce4bh2h2rcd13ifvqdh0","pricing_plan_id":"cebpf4jnsgd1na2vs0mg"},{"bike_id":"3a58418d-7511-42fc-ade6-a621b3ad8842","system_id":"levelo_inurba_marseille","lat":43.28943,"lon":5.36639,"is_reserved":false,"is_disabled":false,"rental_uris":{"android":"levelo://app?vid=3a58418d-7511-42fc-ade6-a621b3ad8842","ios":"levelo://app?vid=3a58418d-7511-42fc-ade6-a621b3ad8842"},"vehicle_type_id":"4","last_reported":1725905506,"current_range_meters":0,"station_id":"ce4bhap2rcd13ifvqek0","pricing_plan_id":"cebpf4jnsgd1na2vs0mg"},{"bike_id":"7e7c4d3c-bd81-4e2d-b80a-6e8b259572c6","system_id":"levelo_inurba_marseille","lat":43.289184,"lon":5.366408,"is_reserved":false,"is_disabled":false,"rental_uris":{"android":"levelo://app?vid=7e7c4d3c-bd81-4e2d-b80a-6e8b259572c6","ios":"levelo://app?vid=7e7c4d3c-bd81-4e2d-b80a-6e8b259572c6"},"vehicle_type_id":"4","last_reported":1725905506,"current_range_meters":400,"station_id":"ce4bhap2rcd13ifvqek0","pricing_plan_id":"cebpf4jnsgd1na2vs0mg"},{"bike_id":"469bcd3e-2a1f-4f89-b18d-735779afd4f3","system_id":"levelo_inurba_marseille","lat":43.289468,"lon":5.363719,"is_reserved":false,"is_disabled":false,"rental_uris":{"android":"levelo://app?vid=469bcd3e-2a1f-4f89-b18d-735779afd4f3","ios":"levelo://app?vid=469bcd3e-2a1f-4f89-b18d-735779afd4f3"},"vehicle_type_id":"4","last_reported":1725905506,"current_range_meters":0,"station_id":"ce4bhc92rcd13ifvqetg","pricing_plan_id":"cebpf4jnsgd1na2vs0mg"},{"bike_id":"3648db41-7e43-4d89-882d-65acb7aecd1d","system_id":"levelo_inurba_marseille","lat":43.28937,"lon":5.36641,"is_reserved":false,"is_disabled":false,"rental_uris":{"android":"levelo://app?vid=3648db41-7e43-4d89-882d-65acb7aecd1d","ios":"levelo://app?vid=3648db41-7e43-4d89-882d-65acb7aecd1d"},"vehicle_type_id":"4","last_reported":1725905506,"current_range_meters":0,"station_id":"ce4bhap2rcd13ifvqek0","pricing_plan_id":"cebpf4jnsgd1na2vs0mg"},{"bike_id":"3b9c9710-ffad-4625-ab8a-dcb14f3244c4","system_id":"levelo_inurba_marseille","lat":43.289402,"lon":5.364038,"is_reserved":false,"is_disabled":false,"rental_uris":{"android":"levelo://app?vid=3b9c9710-ffad-4625-ab8a-dcb14f3244c4","ios":"levelo://app?vid=3b9c9710-ffad-4625-ab8a-dcb14f3244c4"},"vehicle_type_id":"4","last_reported":1725905506,"current_range_meters":30800,"station_id":"ce4bhc92rcd13ifvqetg","pricing_plan_id":"cebpf4jnsgd1na2vs0mg"},{"bike_id":"818cb5e5-ccf2-4c06-a17b-bfff77631d13","system_id":"levelo_inurba_marseille","lat":43.28937,"lon":5.36391,"is_reserved":false,"is_disabled":false,"rental_uris":{"android":"levelo://app?vid=818cb5e5-ccf2-4c06-a17b-bfff77631d13","ios":"levelo://app?vid=818cb5e5-ccf2-4c06-a17b-bfff77631d13"},"vehicle_type_id":"4","last_reported":1725905506,"current_range_meters":0,"station_id":"ce4bhc92rcd13ifvqetg","pricing_plan_id":"cebpf4jnsgd1na2vs0mg"},{"bike_id":"1c9e1d9b-3965-4726-aa46-7ceb0e9873b8","system_id":"levelo_inurba_marseille","lat":43.29272,"lon":5.38441,"is_reserved":false,"is_disabled":false,"rental_uris":{"android":"levelo://app?vid=1c9e1d9b-3965-4726-aa46-7ceb0e9873b8","ios":"levelo://app?vid=1c9e1d9b-3965-4726-aa46-7ceb0e9873b8"},"vehicle_type_id":"4","last_reported":1725905506,"current_range_meters":15600,"station_id":"ce4bh692rcd13ifvqea0","pricing_plan_id":"cebpf4jnsgd1na2vs0mg"},{"bike_id":"99d4090f-81f9-47cb-bbe5-49af2f5b5181","system_id":"levelo_inurba_marseille","lat":43.292644,"lon":5.384257,"is_reserved":false,"is_disabled":false,"rental_uris":{"android":"levelo://app?vid=99d4090f-81f9-47cb-bbe5-49af2f5b5181","ios":"levelo://app?vid=99d4090f-81f9-47cb-bbe5-49af2f5b5181"},"vehicle_type_id":"4","last_reported":1725905506,"current_range_meters":25200,"station_id":"ce4bh692rcd13ifvqea0","pricing_plan_id":"cebpf4jnsgd1na2vs0mg"},{"bike_id":"1a81589b-c91c-4a3f-a10c-c22e1d20b99b","system_id":"levelo_inurba_marseille","lat":43.292734,"lon":5.384476,"is_reserved":false,"is_disabled":false,"rental_uris":{"android":"levelo://app?vid=1a81589b-c91c-4a3f-a10c-c22e1d20b99b","ios":"levelo://app?vid=1a81589b-c91c-4a3f-a10c-c22e1d20b99b"},"vehicle_type_id":"4","last_reported":1725905506,"current_range_meters":31200,"station_id":"ce4bh692rcd13ifvqea0","pricing_plan_id":"cebpf4jnsgd1na2vs0mg"},{"bike_id":"02ba7314-1da6-402e-8a62-40b656a0d1bf","system_id":"levelo_inurba_marseille","lat":43.29273,"lon":5.384472,"is_reserved":false,"is_disabled":false,"rental_uris":{"android":"levelo://app?vid=02ba7314-1da6-402e-8a62-40b656a0d1bf","ios":"levelo://app?vid=02ba7314-1da6-402e-8a62-40b656a0d1bf"},"vehicle_type_id":"4","last_reported":1725905506,"current_range_meters":26800,"station_id":"ce4bh692rcd13ifvqea0","pricing_plan_id":"cebpf4jnsgd1na2vs0mg"},{"bike_id":"08711f95-bfc6-4ae0-b744-282585a284eb","system_id":"levelo_inurba_marseille","lat":43.29266,"lon":5.38434,"is_reserved":false,"is_disabled":false,"rental_uris":{"android":"levelo://app?vid=08711f95-bfc6-4ae0-b744-282585a284eb","ios":"levelo://app?vid=08711f95-bfc6-4ae0-b744-282585a284eb"},"vehicle_type_id":"4","last_reported":1725905506,"current_range_meters":0,"station_id":"ce4bh692rcd13ifvqea0","pricing_plan_id":"cebpf4jnsgd1na2vs0mg"},{"bike_id":"e75d7813-2de8-4bea-a34a-8ddd0ac06bbe","system_id":"levelo_inurba_marseille","lat":43.2926,"lon":5.38423,"is_reserved":false,"is_disabled":false,"rental_uris":{"android":"levelo://app?vid=e75d7813-2de8-4bea-a34a-8ddd0ac06bbe","ios":"levelo://app?vid=e75d7813-2de8-4bea-a34a-8ddd0ac06bbe"},"vehicle_type_id":"4","last_reported":1725905506,"current_range_meters":11200,"station_id":"ce4bh692rcd13ifvqea0","pricing_plan_id":"cebpf4jnsgd1na2vs0mg"},{"bike_id":"03e69a40-820f-469c-aac7-8f456ea8e25a","system_id":"levelo_inurba_marseille","lat":43.29261,"lon":5.38426,"is_reserved":false,"is_disabled":false,"rental_uris":{"android":"levelo://app?vid=03e69a40-820f-469c-aac7-8f456ea8e25a","ios":"levelo://app?vid=03e69a40-820f-469c-aac7-8f456ea8e25a"},"vehicle_type_id":"4","last_reported":1725905506,"current_range_meters":8800,"station_id":"ce4bh692rcd13ifvqea0","pricing_plan_id":"cebpf4jnsgd1na2vs0mg"},{"bike_id":"669aa729-b50f-4f5e-9265-e4b84d991619","system_id":"levelo_inurba_marseille","lat":43.292675,"lon":5.38442,"is_reserved":false,"is_disabled":false,"rental_uris":{"android":"levelo://app?vid=669aa729-b50f-4f5e-9265-e4b84d991619","ios":"levelo://app?vid=669aa729-b50f-4f5e-9265-e4b84d991619"},"vehicle_type_id":"4","last_reported":1725905506,"current_range_meters":30800,"station_id":"ce4bh692rcd13ifvqea0","pricing_plan_id":"cebpf4jnsgd1na2vs0mg"},{"bike_id":"40ec702f-8e22-49b6-b21d-83e2bbdc0f85","system_id":"levelo_inurba_marseille","lat":43.292698,"lon":5.384545,"is_reserved":false,"is_disabled":false,"rental_uris":{"android":"levelo://app?vid=40ec702f-8e22-49b6-b21d-83e2bbdc0f85","ios":"levelo://app?vid=40ec702f-8e22-49b6-b21d-83e2bbdc0f85"},"vehicle_type_id":"4","last_reported":1725905506,"current_range_meters":30000,"station_id":"ce4bh692rcd13ifvqea0","pricing_plan_id":"cebpf4jnsgd1na2vs0mg"},{"bike_id":"68c0e22a-9d24-4c8a-bf04-902762d445b9","system_id":"levelo_inurba_marseille","lat":43.29261,"lon":5.38439,"is_reserved":false,"is_disabled":false,"rental_uris":{"android":"levelo://app?vid=68c0e22a-9d24-4c8a-bf04-902762d445b9","ios":"levelo://app?vid=68c0e22a-9d24-4c8a-bf04-902762d445b9"},"vehicle_type_id":"4","last_reported":1725905506,"current_range_meters":4800,"station_id":"ce4bh692rcd13ifvqea0","pricing_plan_id":"cebpf4jnsgd1na2vs0mg"},{"bike_id":"f1c169da-fb10-4404-b4cf-6fba60903d64","system_id":"levelo_inurba_marseille","lat":43.302008,"lon":5.394694,"is_reserved":false,"is_disabled":false,"rental_uris":{"android":"levelo://app?vid=f1c169da-fb10-4404-b4cf-6fba60903d64","ios":"levelo://app?vid=f1c169da-fb10-4404-b4cf-6fba60903d64"},"vehicle_type_id":"4","last_reported":1725905506,"current_range_meters":2400,"station_id":"ce4bh0p2rcd13ifvqd70","pricing_plan_id":"cebpf4jnsgd1na2vs0mg"},{"bike_id":"693e19da-981d-48b4-ade5-4d921b63fa55","system_id":"levelo_inurba_marseille","lat":43.29255,"lon":5.38447,"is_reserved":false,"is_disabled":false,"rental_uris":{"android":"levelo://app?vid=693e19da-981d-48b4-ade5-4d921b63fa55","ios":"levelo://app?vid=693e19da-981d-48b4-ade5-4d921b63fa55"},"vehicle_type_id":"4","last_reported":1725905506,"current_range_meters":12400,"station_id":"ce4bh692rcd13ifvqea0","pricing_plan_id":"cebpf4jnsgd1na2vs0mg"},{"bike_id":"e194243b-969d-4dd8-aa52-3908bb42c4ef","system_id":"levelo_inurba_marseille","lat":43.290103,"lon":5.356114,"is_reserved":false,"is_disabled":false,"rental_uris":{"android":"levelo://app?vid=e194243b-969d-4dd8-aa52-3908bb42c4ef","ios":"levelo://app?vid=e194243b-969d-4dd8-aa52-3908bb42c4ef"},"vehicle_type_id":"4","last_reported":1725905506,"current_range_meters":0,"station_id":"ce4bhb92rcd13ifvqen0","pricing_plan_id":"cebpf4jnsgd1na2vs0mg"},{"bike_id":"56fd556a-4f94-4983-b3e1-4b9ba86e513e","system_id":"levelo_inurba_marseille","lat":43.290103,"lon":5.356114,"is_reserved":false,"is_disabled":false,"rental_uris":{"android":"levelo://app?vid=56fd556a-4f94-4983-b3e1-4b9ba86e513e","ios":"levelo://app?vid=56fd556a-4f94-4983-b3e1-4b9ba86e513e"},"vehicle_type_id":"4","last_reported":1725905506,"current_range_meters":31200,"station_id":"ce4bhb92rcd13ifvqen0","pricing_plan_id":"cebpf4jnsgd1na2vs0mg"},{"bike_id":"5a306d34-4120-4649-9d88-16e9e54b160f","system_id":"levelo_inurba_marseille","lat":43.290104,"lon":5.356111,"is_reserved":false,"is_disabled":false,"rental_uris":{"android":"levelo://app?vid=5a306d34-4120-4649-9d88-16e9e54b160f","ios":"levelo://app?vid=5a306d34-4120-4649-9d88-16e9e54b160f"},"vehicle_type_id":"4","last_reported":1725905506,"current_range_meters":23600,"station_id":"ce4bhb92rcd13ifvqen0","pricing_plan_id":"cebpf4jnsgd1na2vs0mg"},{"bike_id":"6949dfbe-ab00-408d-9339-3d1c517c4bb2","system_id":"levelo_inurba_marseille","lat":43.330442,"lon":5.389148,"is_reserved":false,"is_disabled":false,"rental_uris":{"android":"levelo://app?vid=6949dfbe-ab00-408d-9339-3d1c517c4bb2","ios":"levelo://app?vid=6949dfbe-ab00-408d-9339-3d1c517c4bb2"},"vehicle_type_id":"4","last_reported":1725905506,"current_range_meters":0,"station_id":"ce4bhr92rcd13ifvqhrg","pricing_plan_id":"cebpf4jnsgd1na2vs0mg"},{"bike_id":"06985874-c735-46d2-86da-041f0f405efe","system_id":"levelo_inurba_marseille","lat":43.297807,"lon":5.393533,"is_reserved":false,"is_disabled":false,"rental_uris":{"android":"levelo://app?vid=06985874-c735-46d2-86da-041f0f405efe","ios":"levelo://app?vid=06985874-c735-46d2-86da-041f0f405efe"},"vehicle_type_id":"4","last_reported":1725905506,"current_range_meters":14000,"station_id":"chh1huq6cuj3fo74tm60","pricing_plan_id":"cebpf4jnsgd1na2vs0mg"},{"bike_id":"80a7db97-b53f-49c1-ad3d-b367adfe3897","system_id":"levelo_inurba_marseille","lat":43.330442,"lon":5.389148,"is_reserved":false,"is_disabled":false,"rental_uris":{"android":"levelo://app?vid=80a7db97-b53f-49c1-ad3d-b367adfe3897","ios":"levelo://app?vid=80a7db97-b53f-49c1-ad3d-b367adfe3897"},"vehicle_type_id":"4","last_reported":1725905506,"current_range_meters":23600,"station_id":"ce4bhr92rcd13ifvqhrg","pricing_plan_id":"cebpf4jnsgd1na2vs0mg"},{"bike_id":"951139e2-1865-4c77-96ca-885ebc362d39","system_id":"levelo_inurba_marseille","lat":43.295169,"lon":5.390426,"is_reserved":false,"is_disabled":false,"rental_uris":{"android":"levelo://app?vid=951139e2-1865-4c77-96ca-885ebc362d39","ios":"levelo://app?vid=951139e2-1865-4c77-96ca-885ebc362d39"},"vehicle_type_id":"4","last_reported":1725905506,"current_range_meters":0,"station_id":"ce4bh3p2rcd13ifvqdp0","pricing_plan_id":"cebpf4jnsgd1na2vs0mg"},{"bike_id":"b8db1939-389c-4999-ad17-8bc1f03cba43","system_id":"levelo_inurba_marseille","lat":43.330442,"lon":5.389148,"is_reserved":false,"is_disabled":false,"rental_uris":{"android":"levelo://app?vid=b8db1939-389c-4999-ad17-8bc1f03cba43","ios":"levelo://app?vid=b8db1939-389c-4999-ad17-8bc1f03cba43"},"vehicle_type_id":"4","last_reported":1725905506,"current_range_meters":27600,"station_id":"ce4bhr92rcd13ifvqhrg","pricing_plan_id":"cebpf4jnsgd1na2vs0mg"},{"bike_id":"2e25dc07-f05e-409e-a619-4a163f1723cf","system_id":"levelo_inurba_marseille","lat":43.297815,"lon":5.393548,"is_reserved":false,"is_disabled":false,"rental_uris":{"android":"levelo://app?vid=2e25dc07-f05e-409e-a619-4a163f1723cf","ios":"levelo://app?vid=2e25dc07-f05e-409e-a619-4a163f1723cf"},"vehicle_type_id":"4","last_reported":1725905506,"current_range_meters":0,"station_id":"chh1huq6cuj3fo74tm60","pricing_plan_id":"cebpf4jnsgd1na2vs0mg"},{"bike_id":"6d99779f-43dc-4dc0-a8af-01ec06f74d69","system_id":"levelo_inurba_marseille","lat":43.297807,"lon":5.393533,"is_reserved":false,"is_disabled":false,"rental_uris":{"android":"levelo://app?vid=6d99779f-43dc-4dc0-a8af-01ec06f74d69","ios":"levelo://app?vid=6d99779f-43dc-4dc0-a8af-01ec06f74d69"},"vehicle_type_id":"4","last_reported":1725905506,"current_range_meters":0,"station_id":"chh1huq6cuj3fo74tm60","pricing_plan_id":"cebpf4jnsgd1na2vs0mg"},{"bike_id":"8b58d131-e3b9-4392-9dfe-300e5e053894","system_id":"levelo_inurba_marseille","lat":43.330442,"lon":5.389148,"is_reserved":false,"is_disabled":false,"rental_uris":{"android":"levelo://app?vid=8b58d131-e3b9-4392-9dfe-300e5e053894","ios":"levelo://app?vid=8b58d131-e3b9-4392-9dfe-300e5e053894"},"vehicle_type_id":"4","last_reported":1725905506,"current_range_meters":30400,"station_id":"ce4bhr92rcd13ifvqhrg","pricing_plan_id":"cebpf4jnsgd1na2vs0mg"},{"bike_id":"58b65d15-0aef-4913-a6b5-72845112dc04","system_id":"levelo_inurba_marseille","lat":43.330442,"lon":5.389148,"is_reserved":false,"is_disabled":false,"rental_uris":{"android":"levelo://app?vid=58b65d15-0aef-4913-a6b5-72845112dc04","ios":"levelo://app?vid=58b65d15-0aef-4913-a6b5-72845112dc04"},"vehicle_type_id":"4","last_reported":1725905506,"current_range_meters":16400,"station_id":"ce4bhr92rcd13ifvqhrg","pricing_plan_id":"cebpf4jnsgd1na2vs0mg"},{"bike_id":"63d5b0c4-3335-4a1e-a226-5180e0c65906","system_id":"levelo_inurba_marseille","lat":43.330442,"lon":5.389148,"is_reserved":false,"is_disabled":false,"rental_uris":{"android":"levelo://app?vid=63d5b0c4-3335-4a1e-a226-5180e0c65906","ios":"levelo://app?vid=63d5b0c4-3335-4a1e-a226-5180e0c65906"},"vehicle_type_id":"4","last_reported":1725905506,"current_range_meters":32000,"station_id":"ce4bhr92rcd13ifvqhrg","pricing_plan_id":"cebpf4jnsgd1na2vs0mg"},{"bike_id":"ef4c5952-b63d-453c-990b-69ed3bb7c90f","system_id":"levelo_inurba_marseille","lat":43.330442,"lon":5.389148,"is_reserved":false,"is_disabled":false,"rental_uris":{"android":"levelo://app?vid=ef4c5952-b63d-453c-990b-69ed3bb7c90f","ios":"levelo://app?vid=ef4c5952-b63d-453c-990b-69ed3bb7c90f"},"vehicle_type_id":"4","last_reported":1725905506,"current_range_meters":7200,"station_id":"ce4bhr92rcd13ifvqhrg","pricing_plan_id":"cebpf4jnsgd1na2vs0mg"},{"bike_id":"2e199cde-9f43-4d17-9693-eea30c42b3ee","system_id":"levelo_inurba_marseille","lat":43.330442,"lon":5.389148,"is_reserved":false,"is_disabled":false,"rental_uris":{"android":"levelo://app?vid=2e199cde-9f43-4d17-9693-eea30c42b3ee","ios":"levelo://app?vid=2e199cde-9f43-4d17-9693-eea30c42b3ee"},"vehicle_type_id":"4","last_reported":1725905506,"current_range_meters":17600,"station_id":"ce4bhr92rcd13ifvqhrg","pricing_plan_id":"cebpf4jnsgd1na2vs0mg"},{"bike_id":"10ffbc41-1b66-4004-a9a7-5eb173190009","system_id":"levelo_inurba_marseille","lat":43.330442,"lon":5.389148,"is_reserved":false,"is_disabled":false,"rental_uris":{"android":"levelo://app?vid=10ffbc41-1b66-4004-a9a7-5eb173190009","ios":"levelo://app?vid=10ffbc41-1b66-4004-a9a7-5eb173190009"},"vehicle_type_id":"4","last_reported":1725905506,"current_range_meters":22400,"station_id":"ce4bhr92rcd13ifvqhrg","pricing_plan_id":"cebpf4jnsgd1na2vs0mg"},{"bike_id":"a50e0854-fbd0-4f21-a51a-23ab6d13f904","system_id":"levelo_inurba_marseille","lat":43.330442,"lon":5.389148,"is_reserved":false,"is_disabled":false,"rental_uris":{"android":"levelo://app?vid=a50e0854-fbd0-4f21-a51a-23ab6d13f904","ios":"levelo://app?vid=a50e0854-fbd0-4f21-a51a-23ab6d13f904"},"vehicle_type_id":"4","last_reported":1725905506,"current_range_meters":24400,"station_id":"ce4bhr92rcd13ifvqhrg","pricing_plan_id":"cebpf4jnsgd1na2vs0mg"},{"bike_id":"8aca6976-ad84-4d71-afb4-025efe8235f4","system_id":"levelo_inurba_marseille","lat":43.295169,"lon":5.390426,"is_reserved":false,"is_disabled":false,"rental_uris":{"android":"levelo://app?vid=8aca6976-ad84-4d71-afb4-025efe8235f4","ios":"levelo://app?vid=8aca6976-ad84-4d71-afb4-025efe8235f4"},"vehicle_type_id":"4","last_reported":1725905506,"current_range_meters":10000,"station_id":"ce4bh3p2rcd13ifvqdp0","pricing_plan_id":"cebpf4jnsgd1na2vs0mg"},{"bike_id":"a7f412e4-d8df-49a0-9edb-02e155588f99","system_id":"levelo_inurba_marseille","lat":43.295169,"lon":5.390426,"is_reserved":false,"is_disabled":false,"rental_uris":{"android":"levelo://app?vid=a7f412e4-d8df-49a0-9edb-02e155588f99","ios":"levelo://app?vid=a7f412e4-d8df-49a0-9edb-02e155588f99"},"vehicle_type_id":"4","last_reported":1725905506,"current_range_meters":4000,"station_id":"ce4bh3p2rcd13ifvqdp0","pricing_plan_id":"cebpf4jnsgd1na2vs0mg"},{"bike_id":"14880797-b8ae-4666-81c4-cb8443fd01d4","system_id":"levelo_inurba_marseille","lat":43.33028,"lon":5.39039,"is_reserved":false,"is_disabled":false,"rental_uris":{"android":"levelo://app?vid=14880797-b8ae-4666-81c4-cb8443fd01d4","ios":"levelo://app?vid=14880797-b8ae-4666-81c4-cb8443fd01d4"},"vehicle_type_id":"4","last_reported":1725905506,"current_range_meters":19200,"station_id":"ce4bhr92rcd13ifvqhrg","pricing_plan_id":"cebpf4jnsgd1na2vs0mg"},{"bike_id":"24966ebe-7c62-4193-ad8e-3cb23f892de6","system_id":"levelo_inurba_marseille","lat":43.330442,"lon":5.389148,"is_reserved":false,"is_disabled":false,"rental_uris":{"android":"levelo://app?vid=24966ebe-7c62-4193-ad8e-3cb23f892de6","ios":"levelo://app?vid=24966ebe-7c62-4193-ad8e-3cb23f892de6"},"vehicle_type_id":"4","last_reported":1725905506,"current_range_meters":9600,"station_id":"ce4bhr92rcd13ifvqhrg","pricing_plan_id":"cebpf4jnsgd1na2vs0mg"},{"bike_id":"d1ded7d2-aec2-40ef-8766-04b8922bf74e","system_id":"levelo_inurba_marseille","lat":43.28973,"lon":5.37842,"is_reserved":false,"is_disabled":false,"rental_uris":{"android":"levelo://app?vid=d1ded7d2-aec2-40ef-8766-04b8922bf74e","ios":"levelo://app?vid=d1ded7d2-aec2-40ef-8766-04b8922bf74e"},"vehicle_type_id":"4","last_reported":1725905506,"current_range_meters":17200,"station_id":"ce4bh9p2rcd13ifvqed0","pricing_plan_id":"cebpf4jnsgd1na2vs0mg"},{"bike_id":"5bd52002-9425-4c6e-a825-ba2a85bec4f1","system_id":"levelo_inurba_marseille","lat":43.295169,"lon":5.390426,"is_reserved":false,"is_disabled":false,"rental_uris":{"android":"levelo://app?vid=5bd52002-9425-4c6e-a825-ba2a85bec4f1","ios":"levelo://app?vid=5bd52002-9425-4c6e-a825-ba2a85bec4f1"},"vehicle_type_id":"4","last_reported":1725905506,"current_range_meters":16800,"station_id":"ce4bh3p2rcd13ifvqdp0","pricing_plan_id":"cebpf4jnsgd1na2vs0mg"},{"bike_id":"fdbb8264-43e5-4f54-a383-18ec69791a59","system_id":"levelo_inurba_marseille","lat":43.326605,"lon":5.409903,"is_reserved":false,"is_disabled":false,"rental_uris":{"android":"levelo://app?vid=fdbb8264-43e5-4f54-a383-18ec69791a59","ios":"levelo://app?vid=fdbb8264-43e5-4f54-a383-18ec69791a59"},"vehicle_type_id":"4","last_reported":1725905506,"current_range_meters":12400,"station_id":"ce4bhpp2rcd13ifvqhgg","pricing_plan_id":"cebpf4jnsgd1na2vs0mg"},{"bike_id":"632cc729-f03e-4278-87a1-4af6bc6e035b","system_id":"levelo_inurba_marseille","lat":43.2901,"lon":5.381269,"is_reserved":false,"is_disabled":false,"rental_uris":{"android":"levelo://app?vid=632cc729-f03e-4278-87a1-4af6bc6e035b","ios":"levelo://app?vid=632cc729-f03e-4278-87a1-4af6bc6e035b"},"vehicle_type_id":"4","last_reported":1725905506,"current_range_meters":6000,"station_id":"ce4bh4p2rcd13ifvqe1g","pricing_plan_id":"cebpf4jnsgd1na2vs0mg"},{"bike_id":"320e1c50-4a13-4758-850e-b8515c1d024b","system_id":"levelo_inurba_marseille","lat":43.2901,"lon":5.381269,"is_reserved":false,"is_disabled":false,"rental_uris":{"android":"levelo://app?vid=320e1c50-4a13-4758-850e-b8515c1d024b","ios":"levelo://app?vid=320e1c50-4a13-4758-850e-b8515c1d024b"},"vehicle_type_id":"4","last_reported":1725905506,"current_range_meters":0,"station_id":"ce4bh4p2rcd13ifvqe1g","pricing_plan_id":"cebpf4jnsgd1na2vs0mg"},{"bike_id":"9f166cd5-5e0b-4186-b2ed-0217589734a3","system_id":"levelo_inurba_marseille","lat":43.28856,"lon":5.358371,"is_reserved":false,"is_disabled":false,"rental_uris":{"android":"levelo://app?vid=9f166cd5-5e0b-4186-b2ed-0217589734a3","ios":"levelo://app?vid=9f166cd5-5e0b-4186-b2ed-0217589734a3"},"vehicle_type_id":"4","last_reported":1725905506,"current_range_meters":2000,"station_id":"ce4bhb12rcd13ifvqem0","pricing_plan_id":"cebpf4jnsgd1na2vs0mg"},{"bike_id":"478e9319-cba9-4fa6-acda-db749f5265f2","system_id":"levelo_inurba_marseille","lat":43.28856,"lon":5.358371,"is_reserved":false,"is_disabled":false,"rental_uris":{"android":"levelo://app?vid=478e9319-cba9-4fa6-acda-db749f5265f2","ios":"levelo://app?vid=478e9319-cba9-4fa6-acda-db749f5265f2"},"vehicle_type_id":"4","last_reported":1725905506,"current_range_meters":1600,"station_id":"ce4bhb12rcd13ifvqem0","pricing_plan_id":"cebpf4jnsgd1na2vs0mg"},{"bike_id":"8a850c86-40b5-49eb-9cbc-b6dee0056db6","system_id":"levelo_inurba_marseille","lat":43.28856,"lon":5.358371,"is_reserved":false,"is_disabled":false,"rental_uris":{"android":"levelo://app?vid=8a850c86-40b5-49eb-9cbc-b6dee0056db6","ios":"levelo://app?vid=8a850c86-40b5-49eb-9cbc-b6dee0056db6"},"vehicle_type_id":"4","last_reported":1725905506,"current_range_meters":19200,"station_id":"ce4bhb12rcd13ifvqem0","pricing_plan_id":"cebpf4jnsgd1na2vs0mg"},{"bike_id":"978811f6-226f-483b-a1c9-9f096b49c5fd","system_id":"levelo_inurba_marseille","lat":43.28856,"lon":5.358371,"is_reserved":false,"is_disabled":false,"rental_uris":{"android":"levelo://app?vid=978811f6-226f-483b-a1c9-9f096b49c5fd","ios":"levelo://app?vid=978811f6-226f-483b-a1c9-9f096b49c5fd"},"vehicle_type_id":"4","last_reported":1725905506,"current_range_meters":17200,"station_id":"ce4bhb12rcd13ifvqem0","pricing_plan_id":"cebpf4jnsgd1na2vs0mg"},{"bike_id":"9c11b6eb-aa35-4779-9c24-a24a29d6e370","system_id":"levelo_inurba_marseille","lat":43.28856,"lon":5.358371,"is_reserved":false,"is_disabled":false,"rental_uris":{"android":"levelo://app?vid=9c11b6eb-aa35-4779-9c24-a24a29d6e370","ios":"levelo://app?vid=9c11b6eb-aa35-4779-9c24-a24a29d6e370"},"vehicle_type_id":"4","last_reported":1725905506,"current_range_meters":14800,"station_id":"ce4bhb12rcd13ifvqem0","pricing_plan_id":"cebpf4jnsgd1na2vs0mg"},{"bike_id":"79f26e88-e40b-4708-9325-b7f13ef1053a","system_id":"levelo_inurba_marseille","lat":43.28856,"lon":5.358371,"is_reserved":false,"is_disabled":false,"rental_uris":{"android":"levelo://app?vid=79f26e88-e40b-4708-9325-b7f13ef1053a","ios":"levelo://app?vid=79f26e88-e40b-4708-9325-b7f13ef1053a"},"vehicle_type_id":"4","last_reported":1725905506,"current_range_meters":6400,"station_id":"ce4bhb12rcd13ifvqem0","pricing_plan_id":"cebpf4jnsgd1na2vs0mg"},{"bike_id":"205cd98c-d590-4de5-957e-cdedfcbbd531","system_id":"levelo_inurba_marseille","lat":43.28856,"lon":5.358371,"is_reserved":false,"is_disabled":false,"rental_uris":{"android":"levelo://app?vid=205cd98c-d590-4de5-957e-cdedfcbbd531","ios":"levelo://app?vid=205cd98c-d590-4de5-957e-cdedfcbbd531"},"vehicle_type_id":"4","last_reported":1725905506,"current_range_meters":4000,"station_id":"ce4bhb12rcd13ifvqem0","pricing_plan_id":"cebpf4jnsgd1na2vs0mg"},{"bike_id":"0441f92e-c85c-4d1d-a5c4-7355670a557d","system_id":"levelo_inurba_marseille","lat":43.28856,"lon":5.358371,"is_reserved":false,"is_disabled":false,"rental_uris":{"android":"levelo://app?vid=0441f92e-c85c-4d1d-a5c4-7355670a557d","ios":"levelo://app?vid=0441f92e-c85c-4d1d-a5c4-7355670a557d"},"vehicle_type_id":"4","last_reported":1725905506,"current_range_meters":21200,"station_id":"ce4bhb12rcd13ifvqem0","pricing_plan_id":"cebpf4jnsgd1na2vs0mg"},{"bike_id":"f1997b8a-7075-4b78-890c-66e0ae15bef1","system_id":"levelo_inurba_marseille","lat":43.28856,"lon":5.358371,"is_reserved":false,"is_disabled":false,"rental_uris":{"android":"levelo://app?vid=f1997b8a-7075-4b78-890c-66e0ae15bef1","ios":"levelo://app?vid=f1997b8a-7075-4b78-890c-66e0ae15bef1"},"vehicle_type_id":"4","last_reported":1725905506,"current_range_meters":8800,"station_id":"ce4bhb12rcd13ifvqem0","pricing_plan_id":"cebpf4jnsgd1na2vs0mg"},{"bike_id":"3549ead0-96a8-49cc-ba26-2140ed1a08d5","system_id":"levelo_inurba_marseille","lat":43.28854,"lon":5.35851,"is_reserved":false,"is_disabled":false,"rental_uris":{"android":"levelo://app?vid=3549ead0-96a8-49cc-ba26-2140ed1a08d5","ios":"levelo://app?vid=3549ead0-96a8-49cc-ba26-2140ed1a08d5"},"vehicle_type_id":"4","last_reported":1725905506,"current_range_meters":20400,"station_id":"ce4bhb12rcd13ifvqem0","pricing_plan_id":"cebpf4jnsgd1na2vs0mg"},{"bike_id":"e62e392d-5e2c-4e37-b787-07dc1828fb3c","system_id":"levelo_inurba_marseille","lat":43.28856,"lon":5.358371,"is_reserved":false,"is_disabled":false,"rental_uris":{"android":"levelo://app?vid=e62e392d-5e2c-4e37-b787-07dc1828fb3c","ios":"levelo://app?vid=e62e392d-5e2c-4e37-b787-07dc1828fb3c"},"vehicle_type_id":"4","last_reported":1725905506,"current_range_meters":0,"station_id":"ce4bhb12rcd13ifvqem0","pricing_plan_id":"cebpf4jnsgd1na2vs0mg"},{"bike_id":"1a67946f-169f-4967-864d-efd552ecee21","system_id":"levelo_inurba_marseille","lat":43.28856,"lon":5.358371,"is_reserved":false,"is_disabled":false,"rental_uris":{"android":"levelo://app?vid=1a67946f-169f-4967-864d-efd552ecee21","ios":"levelo://app?vid=1a67946f-169f-4967-864d-efd552ecee21"},"vehicle_type_id":"4","last_reported":1725905506,"current_range_meters":31600,"station_id":"ce4bhb12rcd13ifvqem0","pricing_plan_id":"cebpf4jnsgd1na2vs0mg"},{"bike_id":"18716a9b-ada4-4c62-a8ad-411dbf8c6d8b","system_id":"levelo_inurba_marseille","lat":43.337416,"lon":5.374579,"is_reserved":false,"is_disabled":false,"rental_uris":{"android":"levelo://app?vid=18716a9b-ada4-4c62-a8ad-411dbf8c6d8b","ios":"levelo://app?vid=18716a9b-ada4-4c62-a8ad-411dbf8c6d8b"},"vehicle_type_id":"4","last_reported":1725905506,"current_range_meters":16800,"station_id":"","pricing_plan_id":"cebpf4jnsgd1na2vs0mg"},{"bike_id":"a8d30661-3929-470d-8e48-791789ff2b3f","system_id":"levelo_inurba_marseille","lat":43.33756,"lon":5.374518,"is_reserved":false,"is_disabled":false,"rental_uris":{"android":"levelo://app?vid=a8d30661-3929-470d-8e48-791789ff2b3f","ios":"levelo://app?vid=a8d30661-3929-470d-8e48-791789ff2b3f"},"vehicle_type_id":"4","last_reported":1725905506,"current_range_meters":30400,"station_id":"","pricing_plan_id":"cebpf4jnsgd1na2vs0mg"},{"bike_id":"7deab1b1-bb4f-4e22-92fb-9076dfd5a0e6","system_id":"levelo_inurba_marseille","lat":43.33759,"lon":5.37479,"is_reserved":false,"is_disabled":false,"rental_uris":{"android":"levelo://app?vid=7deab1b1-bb4f-4e22-92fb-9076dfd5a0e6","ios":"levelo://app?vid=7deab1b1-bb4f-4e22-92fb-9076dfd5a0e6"},"vehicle_type_id":"4","last_reported":1725905506,"current_range_meters":23600,"station_id":"","pricing_plan_id":"cebpf4jnsgd1na2vs0mg"},{"bike_id":"e7ced547-d7e2-4adb-94fa-fdd0f43a99db","system_id":"levelo_inurba_marseille","lat":43.30639,"lon":5.40088,"is_reserved":false,"is_disabled":false,"rental_uris":{"android":"levelo://app?vid=e7ced547-d7e2-4adb-94fa-fdd0f43a99db","ios":"levelo://app?vid=e7ced547-d7e2-4adb-94fa-fdd0f43a99db"},"vehicle_type_id":"4","last_reported":1725905506,"current_range_meters":31200,"station_id":"ce4bh112rcd13ifvqda0","pricing_plan_id":"cebpf4jnsgd1na2vs0mg"},{"bike_id":"d7fbe93c-a3da-4eab-bd1f-cd834108d146","system_id":"levelo_inurba_marseille","lat":43.33765,"lon":5.3747,"is_reserved":false,"is_disabled":false,"rental_uris":{"android":"levelo://app?vid=d7fbe93c-a3da-4eab-bd1f-cd834108d146","ios":"levelo://app?vid=d7fbe93c-a3da-4eab-bd1f-cd834108d146"},"vehicle_type_id":"4","last_reported":1725905506,"current_range_meters":27600,"station_id":"","pricing_plan_id":"cebpf4jnsgd1na2vs0mg"},{"bike_id":"93d0f3e1-f5e1-4f5e-9c3f-fb2bd7832022","system_id":"levelo_inurba_marseille","lat":43.306412,"lon":5.401035,"is_reserved":false,"is_disabled":false,"rental_uris":{"android":"levelo://app?vid=93d0f3e1-f5e1-4f5e-9c3f-fb2bd7832022","ios":"levelo://app?vid=93d0f3e1-f5e1-4f5e-9c3f-fb2bd7832022"},"vehicle_type_id":"4","last_reported":1725905506,"current_range_meters":6000,"station_id":"ce4bh112rcd13ifvqda0","pricing_plan_id":"cebpf4jnsgd1na2vs0mg"},{"bike_id":"98b12773-73d6-4dae-99a7-4dc390235c8b","system_id":"levelo_inurba_marseille","lat":43.337696,"lon":5.374747,"is_reserved":false,"is_disabled":false,"rental_uris":{"android":"levelo://app?vid=98b12773-73d6-4dae-99a7-4dc390235c8b","ios":"levelo://app?vid=98b12773-73d6-4dae-99a7-4dc390235c8b"},"vehicle_type_id":"4","last_reported":1725905506,"current_range_meters":26400,"station_id":"","pricing_plan_id":"cebpf4jnsgd1na2vs0mg"},{"bike_id":"01234edd-5601-43bf-af6b-2b065985f995","system_id":"levelo_inurba_marseille","lat":43.301117,"lon":5.398795,"is_reserved":false,"is_disabled":false,"rental_uris":{"android":"levelo://app?vid=01234edd-5601-43bf-af6b-2b065985f995","ios":"levelo://app?vid=01234edd-5601-43bf-af6b-2b065985f995"},