{"last_updated":1743419348,"ttl":60,"version":"2.2","data":{"bikes":[{"bike_id":"f28a2132-9d11-411c-a599-c4352a550e43","system_id":"levelo_inurba_marseille","lat":43.24899,"lon":5.39353,"is_reserved":false,"is_disabled":true,"rental_uris":{"android":"levelo://app?vid=f28a2132-9d11-411c-a599-c4352a550e43","ios":"levelo://app?vid=f28a2132-9d11-411c-a599-c4352a550e43"},"vehicle_type_id":"4","last_reported":1743419348,"current_range_meters":0,"station_id":"","pricing_plan_id":"cebpf4jnsgd1na2vs0mg"},{"bike_id":"524c0a99-e50a-4944-b98a-364c85fd198c","system_id":"levelo_inurba_marseille","lat":43.2863,"lon":5.4436,"is_reserved":false,"is_disabled":true,"rental_uris":{"android":"levelo://app?vid=524c0a99-e50a-4944-b98a-364c85fd198c","ios":"levelo://app?vid=524c0a99-e50a-4944-b98a-364c85fd198c"},"vehicle_type_id":"4","last_reported":1743419348,"current_range_meters":0,"station_id":"","pricing_plan_id":"cebpf4jnsgd1na2vs0mg"},{"bike_id":"ef3ab7e4-47aa-4e48-a63f-a437355606eb","system_id":"levelo_inurba_marseille","lat":43.28078,"lon":5.42141,"is_reserved":false,"is_disabled":true,"rental_uris":{"android":"levelo://app?vid=ef3ab7e4-47aa-4e48-a63f-a437355606eb","ios":"levelo://app?vid=ef3ab7e4-47aa-4e48-a63f-a437355606eb"},"vehicle_type_id":"4","last_reported":1743419348,"current_range_meters":0,"station_id":"","pricing_plan_id":"cebpf4jnsgd1na2vs0mg"},{"bike_id":"94f0c1df-44cd-4d0d-a9f4-f33710f62efe","system_id":"levelo_inurba_marseille","lat":43.27018,"lon":5.36478,"is_reserved":false,"is_disabled":true,"rental_uris":{"android":"levelo://app?vid=94f0c1df-44cd-4d0d-a9f4-f33710f62efe","ios":"levelo://app?vid=94f0c1df-44cd-4d0d-a9f4-f33710f62efe"},"vehicle_type_id":"4","last_reported":1743419348,"current_range_meters":0,"station_id":"","pricing_plan_id":"cebpf4jnsgd1na2vs0mg"},{"bike_id":"646b4b6f-1ba9-4554-b1a7-e4dc009abba1","system_id":"levelo_inurba_marseille","lat":43.29079,"lon":5.42808,"is_reserved":false,"is_disabled":true,"rental_uris":{"android":"levelo://app?vid=646b4b6f-1ba9-4554-b1a7-e4dc009abba1","ios":"levelo://app?vid=646b4b6f-1ba9-4554-b1a7-e4dc009abba1"},"vehicle_type_id":"4","last_reported":1743419348,"current_range_meters":0,"station_id":"","pricing_plan_id":"cebpf4jnsgd1na2vs0mg"},{"bike_id":"7a27eaeb-5a2f-4681-a220-1aeb5306552a","system_id":"levelo_inurba_marseille","lat":43.27405,"lon":5.41431,"is_reserved":false,"is_disabled":true,"rental_uris":{"android":"levelo://app?vid=7a27eaeb-5a2f-4681-a220-1aeb5306552a","ios":"levelo://app?vid=7a27eaeb-5a2f-4681-a220-1aeb5306552a"},"vehicle_type_id":"4","last_reported":1743419348,"current_range_meters":0,"station_id":"","pricing_plan_id":"cebpf4jnsgd1na2vs0mg"},{"bike_id":"be6725c0-5c09-4663-99b8-0b7371d27e21","system_id":"levelo_inurba_marseille","lat":43.25493,"lon":5.375,"is_reserved":false,"is_disabled":true,"rental_uris":{"android":"levelo://app?vid=be6725c0-5c09-4663-99b8-0b7371d27e21","ios":"levelo://app?vid=be6725c0-5c09-4663-99b8-0b7371d27e21"},"vehicle_type_id":"4","last_reported":1743419348,"current_range_meters":0,"station_id":"","pricing_plan_id":"cebpf4jnsgd1na2vs0mg"},{"bike_id":"579b8b66-6a37-4f4c-ad3b-0acee14f6d2d","system_id":"levelo_inurba_marseille","lat":43.2953,"lon":5.44277,"is_reserved":false,"is_disabled":true,"rental_uris":{"android":"levelo://app?vid=579b8b66-6a37-4f4c-ad3b-0acee14f6d2d","ios":"levelo://app?vid=579b8b66-6a37-4f4c-ad3b-0acee14f6d2d"},"vehicle_type_id":"4","last_reported":1743419348,"current_range_meters":0,"station_id":"","pricing_plan_id":"cebpf4jnsgd1na2vs0mg"},{"bike_id":"e4023b76-3b3e-4e0a-83d8-f1f2c86a9a1a","system_id":"levelo_inurba_marseille","lat":43.26049,"lon":5.38633,"is_reserved":false,"is_disabled":true,"rental_uris":{"android":"levelo://app?vid=e4023b76-3b3e-4e0a-83d8-f1f2c86a9a1a","ios":"levelo://app?vid=e4023b76-3b3e-4e0a-83d8-f1f2c86a9a1a"},"vehicle_type_id":"4","last_reported":1743419348,"current_range_meters":0,"station_id":"","pricing_plan_id":"cebpf4jnsgd1na2vs0mg"},{"bike_id":"addfee32-b434-4d1a-a720-7460ebc95d3d","system_id":"levelo_inurba_marseille","lat":43.265915,"lon":5.393424,"is_reserved":false,"is_disabled":true,"rental_uris":{"android":"levelo://app?vid=addfee32-b434-4d1a-a720-7460ebc95d3d","ios":"levelo://app?vid=addfee32-b434-4d1a-a720-7460ebc95d3d"},"vehicle_type_id":"4","last_reported":1743419348,"current_range_meters":0,"station_id":"","pricing_plan_id":"cebpf4jnsgd1na2vs0mg"},{"bike_id":"04d84667-80d2-430a-a2ab-b0adb0b8c9ad","system_id":"levelo_inurba_marseille","lat":43.337444,"lon":5.374475,"is_reserved":false,"is_disabled":true,"rental_uris":{"android":"levelo://app?vid=04d84667-80d2-430a-a2ab-b0adb0b8c9ad","ios":"levelo://app?vid=04d84667-80d2-430a-a2ab-b0adb0b8c9ad"},"vehicle_type_id":"4","last_reported":1743419348,"current_range_meters":0,"station_id":"","pricing_plan_id":"cebpf4jnsgd1na2vs0mg"},{"bike_id":"deb3f671-3ace-4bcf-92e5-bfca91b65c0c","system_id":"levelo_inurba_marseille","lat":43.26863,"lon":5.39347,"is_reserved":false,"is_disabled":true,"rental_uris":{"android":"levelo://app?vid=deb3f671-3ace-4bcf-92e5-bfca91b65c0c","ios":"levelo://app?vid=deb3f671-3ace-4bcf-92e5-bfca91b65c0c"},"vehicle_type_id":"4","last_reported":1743419348,"current_range_meters":0,"station_id":"","pricing_plan_id":"cebpf4jnsgd1na2vs0mg"},{"bike_id":"54ddccb5-3e82-4e09-ad9d-1f88cce9f960","system_id":"levelo_inurba_marseille","lat":43.33001,"lon":5.43844,"is_reserved":false,"is_disabled":true,"rental_uris":{"android":"levelo://app?vid=54ddccb5-3e82-4e09-ad9d-1f88cce9f960","ios":"levelo://app?vid=54ddccb5-3e82-4e09-ad9d-1f88cce9f960"},"vehicle_type_id":"4","last_reported":1743419348,"current_range_meters":0,"station_id":"","pricing_plan_id":"cebpf4jnsgd1na2vs0mg"},{"bike_id":"288bb5a4-8592-4715-9f1c-af47147cb3c6","system_id":"levelo_inurba_marseille","lat":43.26151,"lon":5.41629,"is_reserved":false,"is_disabled":true,"rental_uris":{"android":"levelo://app?vid=288bb5a4-8592-4715-9f1c-af47147cb3c6","ios":"levelo://app?vid=288bb5a4-8592-4715-9f1c-af47147cb3c6"},"vehicle_type_id":"4","last_reported":1743419348,"current_range_meters":0,"station_id":"","pricing_plan_id":"cebpf4jnsgd1na2vs0mg"},{"bike_id":"880f2b3b-2b59-42bd-9a21-20e6294db991","system_id":"levelo_inurba_marseille","lat":43.30304,"lon":5.36888,"is_reserved":false,"is_disabled":true,"rental_uris":{"android":"levelo://app?vid=880f2b3b-2b59-42bd-9a21-20e6294db991","ios":"levelo://app?vid=880f2b3b-2b59-42bd-9a21-20e6294db991"},"vehicle_type_id":"4","last_reported":1743419348,"current_range_meters":0,"station_id":"ce4bgqh2rcd13ifvqc5g","pricing_plan_id":"cebpf4jnsgd1na2vs0mg"},{"bike_id":"1f804164-4072-48c0-8994-94e4386780b2","system_id":"levelo_inurba_marseille","lat":43.305402,"lon":5.36546,"is_reserved":false,"is_disabled":true,"rental_uris":{"android":"levelo://app?vid=1f804164-4072-48c0-8994-94e4386780b2","ios":"levelo://app?vid=1f804164-4072-48c0-8994-94e4386780b2"},"vehicle_type_id":"4","last_reported":1743419348,"current_range_meters":0,"station_id":"ce4bgs12rcd13ifvqcag","pricing_plan_id":"cebpf4jnsgd1na2vs0mg"},{"bike_id":"a46135ac-3ce0-417b-9557-76b1b80398f7","system_id":"levelo_inurba_marseille","lat":43.29521,"lon":5.3904,"is_reserved":false,"is_disabled":true,"rental_uris":{"android":"levelo://app?vid=a46135ac-3ce0-417b-9557-76b1b80398f7","ios":"levelo://app?vid=a46135ac-3ce0-417b-9557-76b1b80398f7"},"vehicle_type_id":"4","last_reported":1743419348,"current_range_meters":0,"station_id":"ce4bh3p2rcd13ifvqdp0","pricing_plan_id":"cebpf4jnsgd1na2vs0mg"},{"bike_id":"0c256f86-66ac-4b72-ae48-123bcb931f27","system_id":"levelo_inurba_marseille","lat":43.29262,"lon":5.3844,"is_reserved":false,"is_disabled":true,"rental_uris":{"android":"levelo://app?vid=0c256f86-66ac-4b72-ae48-123bcb931f27","ios":"levelo://app?vid=0c256f86-66ac-4b72-ae48-123bcb931f27"},"vehicle_type_id":"4","last_reported":1743419348,"current_range_meters":0,"station_id":"ce4bh692rcd13ifvqea0","pricing_plan_id":"cebpf4jnsgd1na2vs0mg"},{"bike_id":"053114f1-4c8b-481c-a810-1847e9396ee2","system_id":"levelo_inurba_marseille","lat":43.2886,"lon":5.35845,"is_reserved":false,"is_disabled":true,"rental_uris":{"android":"levelo://app?vid=053114f1-4c8b-481c-a810-1847e9396ee2","ios":"levelo://app?vid=053114f1-4c8b-481c-a810-1847e9396ee2"},"vehicle_type_id":"4","last_reported":1743419348,"current_range_meters":0,"station_id":"ce4bhb12rcd13ifvqem0","pricing_plan_id":"cebpf4jnsgd1na2vs0mg"},{"bike_id":"f3b8dc09-43b0-4b44-90ad-5f7ecdb381c6","system_id":"levelo_inurba_marseille","lat":43.29225,"lon":5.36064,"is_reserved":false,"is_disabled":true,"rental_uris":{"android":"levelo://app?vid=f3b8dc09-43b0-4b44-90ad-5f7ecdb381c6","ios":"levelo://app?vid=f3b8dc09-43b0-4b44-90ad-5f7ecdb381c6"},"vehicle_type_id":"4","last_reported":1743419348,"current_range_meters":0,"station_id":"ce4bhbh2rcd13ifvqeqg","pricing_plan_id":"cebpf4jnsgd1na2vs0mg"},{"bike_id":"77970c57-a70b-4ce6-b406-9ccb6f183771","system_id":"levelo_inurba_marseille","lat":43.27215,"lon":5.39183,"is_reserved":false,"is_disabled":true,"rental_uris":{"android":"levelo://app?vid=77970c57-a70b-4ce6-b406-9ccb6f183771","ios":"levelo://app?vid=77970c57-a70b-4ce6-b406-9ccb6f183771"},"vehicle_type_id":"4","last_reported":1743419348,"current_range_meters":0,"station_id":"ce4bhhp2rcd13ifvqfm0","pricing_plan_id":"cebpf4jnsgd1na2vs0mg"},{"bike_id":"5a0e5bab-71db-470e-8b03-d0051bf7f622","system_id":"levelo_inurba_marseille","lat":43.26202,"lon":5.37928,"is_reserved":false,"is_disabled":true,"rental_uris":{"android":"levelo://app?vid=5a0e5bab-71db-470e-8b03-d0051bf7f622","ios":"levelo://app?vid=5a0e5bab-71db-470e-8b03-d0051bf7f622"},"vehicle_type_id":"4","last_reported":1743419348,"current_range_meters":0,"station_id":"ce4bhjp2rcd13ifvqg90","pricing_plan_id":"cebpf4jnsgd1na2vs0mg"},{"bike_id":"fc79260f-c714-4379-b285-fdd0fb2d71ec","system_id":"levelo_inurba_marseille","lat":43.24075,"lon":5.37766,"is_reserved":false,"is_disabled":true,"rental_uris":{"android":"levelo://app?vid=fc79260f-c714-4379-b285-fdd0fb2d71ec","ios":"levelo://app?vid=fc79260f-c714-4379-b285-fdd0fb2d71ec"},"vehicle_type_id":"4","last_reported":1743419348,"current_range_meters":0,"station_id":"ce4bhnp2rcd13ifvqgvg","pricing_plan_id":"cebpf4jnsgd1na2vs0mg"},{"bike_id":"eaf10159-3bc3-4ad3-9aa1-164c2083d567","system_id":"levelo_inurba_marseille","lat":43.28693,"lon":5.39975,"is_reserved":false,"is_disabled":true,"rental_uris":{"android":"levelo://app?vid=eaf10159-3bc3-4ad3-9aa1-164c2083d567","ios":"levelo://app?vid=eaf10159-3bc3-4ad3-9aa1-164c2083d567"},"vehicle_type_id":"4","last_reported":1743419348,"current_range_meters":0,"station_id":"ce4bho92rcd13ifvqh3g","pricing_plan_id":"cebpf4jnsgd1na2vs0mg"},{"bike_id":"cdc67a2d-a7f4-4e3e-bcd6-86ebb698ef27","system_id":"levelo_inurba_marseille","lat":43.30146,"lon":5.37424,"is_reserved":false,"is_disabled":true,"rental_uris":{"android":"levelo://app?vid=cdc67a2d-a7f4-4e3e-bcd6-86ebb698ef27","ios":"levelo://app?vid=cdc67a2d-a7f4-4e3e-bcd6-86ebb698ef27"},"vehicle_type_id":"4","last_reported":1743419348,"current_range_meters":400,"station_id":"ce4bgs92rcd13ifvqcc0","pricing_plan_id":"cebpf4jnsgd1na2vs0mg"},{"bike_id":"f42e97a8-c013-4da4-a369-3ae5e640113a","system_id":"levelo_inurba_marseille","lat":43.24064,"lon":5.37751,"is_reserved":false,"is_disabled":true,"rental_uris":{"android":"levelo://app?vid=f42e97a8-c013-4da4-a369-3ae5e640113a","ios":"levelo://app?vid=f42e97a8-c013-4da4-a369-3ae5e640113a"},"vehicle_type_id":"4","last_reported":1743419348,"current_range_meters":400,"station_id":"ce4bhnp2rcd13ifvqgvg","pricing_plan_id":"cebpf4jnsgd1na2vs0mg"},{"bike_id":"8446a077-604a-42b8-ade1-8b05c7f9c9ee","system_id":"levelo_inurba_marseille","lat":43.31224,"lon":5.36845,"is_reserved":false,"is_disabled":true,"rental_uris":{"android":"levelo://app?vid=8446a077-604a-42b8-ade1-8b05c7f9c9ee","ios":"levelo://app?vid=8446a077-604a-42b8-ade1-8b05c7f9c9ee"},"vehicle_type_id":"4","last_reported":1743419348,"current_range_meters":800,"station_id":"ce4bgl92rcd13ifvqbq0","pricing_plan_id":"cebpf4jnsgd1na2vs0mg"},{"bike_id":"085a361f-7074-488c-ad0a-3b0a850a01fb","system_id":"levelo_inurba_marseille","lat":43.27385,"lon":5.36243,"is_reserved":false,"is_disabled":true,"rental_uris":{"android":"levelo://app?vid=085a361f-7074-488c-ad0a-3b0a850a01fb","ios":"levelo://app?vid=085a361f-7074-488c-ad0a-3b0a850a01fb"},"vehicle_type_id":"4","last_reported":1743419348,"current_range_meters":800,"station_id":"ce4bhbh2rcd13ifvqeo0","pricing_plan_id":"cebpf4jnsgd1na2vs0mg"},{"bike_id":"7a16227c-8b85-46e8-a87c-8349c4711248","system_id":"levelo_inurba_marseille","lat":43.28113,"lon":5.44608,"is_reserved":false,"is_disabled":true,"rental_uris":{"android":"levelo://app?vid=7a16227c-8b85-46e8-a87c-8349c4711248","ios":"levelo://app?vid=7a16227c-8b85-46e8-a87c-8349c4711248"},"vehicle_type_id":"4","last_reported":1743419348,"current_range_meters":1200,"station_id":"","pricing_plan_id":"cebpf4jnsgd1na2vs0mg"},{"bike_id":"95fc81a5-176e-440b-824b-8086747a5772","system_id":"levelo_inurba_marseille","lat":43.31364,"lon":5.38485,"is_reserved":false,"is_disabled":true,"rental_uris":{"android":"levelo://app?vid=95fc81a5-176e-440b-824b-8086747a5772","ios":"levelo://app?vid=95fc81a5-176e-440b-824b-8086747a5772"},"vehicle_type_id":"4","last_reported":1743419348,"current_range_meters":1200,"station_id":"ce4bgt92rcd13ifvqcf0","pricing_plan_id":"cebpf4jnsgd1na2vs0mg"},{"bike_id":"dfc8d918-e051-4ac4-b157-7f44bd828ff9","system_id":"levelo_inurba_marseille","lat":43.28933,"lon":5.36638,"is_reserved":false,"is_disabled":true,"rental_uris":{"android":"levelo://app?vid=dfc8d918-e051-4ac4-b157-7f44bd828ff9","ios":"levelo://app?vid=dfc8d918-e051-4ac4-b157-7f44bd828ff9"},"vehicle_type_id":"4","last_reported":1743419348,"current_range_meters":1200,"station_id":"ce4bhap2rcd13ifvqek0","pricing_plan_id":"cebpf4jnsgd1na2vs0mg"},{"bike_id":"7c07071e-68ba-48b9-b431-26cb6c62ac42","system_id":"levelo_inurba_marseille","lat":43.30933,"lon":5.4048,"is_reserved":false,"is_disabled":true,"rental_uris":{"android":"levelo://app?vid=7c07071e-68ba-48b9-b431-26cb6c62ac42","ios":"levelo://app?vid=7c07071e-68ba-48b9-b431-26cb6c62ac42"},"vehicle_type_id":"4","last_reported":1743419348,"current_range_meters":1600,"station_id":"","pricing_plan_id":"cebpf4jnsgd1na2vs0mg"},{"bike_id":"4253d6fb-8336-49e4-a33f-99da5545ee25","system_id":"levelo_inurba_marseille","lat":43.307994,"lon":5.381412,"is_reserved":false,"is_disabled":true,"rental_uris":{"android":"levelo://app?vid=4253d6fb-8336-49e4-a33f-99da5545ee25","ios":"levelo://app?vid=4253d6fb-8336-49e4-a33f-99da5545ee25"},"vehicle_type_id":"4","last_reported":1743419348,"current_range_meters":1600,"station_id":"ce4bgt12rcd13ifvqce0","pricing_plan_id":"cebpf4jnsgd1na2vs0mg"},{"bike_id":"8bee8e7a-ba80-4e95-b64e-ffa82c9d54a0","system_id":"levelo_inurba_marseille","lat":43.29263,"lon":5.38439,"is_reserved":false,"is_disabled":true,"rental_uris":{"android":"levelo://app?vid=8bee8e7a-ba80-4e95-b64e-ffa82c9d54a0","ios":"levelo://app?vid=8bee8e7a-ba80-4e95-b64e-ffa82c9d54a0"},"vehicle_type_id":"4","last_reported":1743419348,"current_range_meters":1600,"station_id":"ce4bh692rcd13ifvqea0","pricing_plan_id":"cebpf4jnsgd1na2vs0mg"},{"bike_id":"a849e62b-b6aa-459e-bb9d-54ad25337aa4","system_id":"levelo_inurba_marseille","lat":43.24803,"lon":5.37454,"is_reserved":false,"is_disabled":true,"rental_uris":{"android":"levelo://app?vid=a849e62b-b6aa-459e-bb9d-54ad25337aa4","ios":"levelo://app?vid=a849e62b-b6aa-459e-bb9d-54ad25337aa4"},"vehicle_type_id":"4","last_reported":1743419348,"current_range_meters":1600,"station_id":"ce4bhgh2rcd13ifvqfb0","pricing_plan_id":"cebpf4jnsgd1na2vs0mg"},{"bike_id":"35992426-7c42-41e5-b733-175b6b52f7f2","system_id":"levelo_inurba_marseille","lat":43.2871,"lon":5.3999,"is_reserved":false,"is_disabled":true,"rental_uris":{"android":"levelo://app?vid=35992426-7c42-41e5-b733-175b6b52f7f2","ios":"levelo://app?vid=35992426-7c42-41e5-b733-175b6b52f7f2"},"vehicle_type_id":"4","last_reported":1743419348,"current_range_meters":1600,"station_id":"ce4bho92rcd13ifvqh3g","pricing_plan_id":"cebpf4jnsgd1na2vs0mg"},{"bike_id":"eb5d9fcd-877e-462b-a117-c43b3e937c9c","system_id":"levelo_inurba_marseille","lat":43.24812,"lon":5.37457,"is_reserved":false,"is_disabled":true,"rental_uris":{"android":"levelo://app?vid=eb5d9fcd-877e-462b-a117-c43b3e937c9c","ios":"levelo://app?vid=eb5d9fcd-877e-462b-a117-c43b3e937c9c"},"vehicle_type_id":"4","last_reported":1743419348,"current_range_meters":2000,"station_id":"ce4bhgh2rcd13ifvqfb0","pricing_plan_id":"cebpf4jnsgd1na2vs0mg"},{"bike_id":"b0f391ac-6bbf-4d5e-99a6-7e512f73b213","system_id":"levelo_inurba_marseille","lat":43.27057,"lon":5.40255,"is_reserved":false,"is_disabled":true,"rental_uris":{"android":"levelo://app?vid=b0f391ac-6bbf-4d5e-99a6-7e512f73b213","ios":"levelo://app?vid=b0f391ac-6bbf-4d5e-99a6-7e512f73b213"},"vehicle_type_id":"4","last_reported":1743419348,"current_range_meters":2000,"station_id":"ce4bhk92rcd13ifvqgc0","pricing_plan_id":"cebpf4jnsgd1na2vs0mg"},{"bike_id":"c1f19cd4-182f-4bbb-93cd-192676ffcc1b","system_id":"levelo_inurba_marseille","lat":43.30905,"lon":5.36842,"is_reserved":false,"is_disabled":false,"rental_uris":{"android":"levelo://app?vid=c1f19cd4-182f-4bbb-93cd-192676ffcc1b","ios":"levelo://app?vid=c1f19cd4-182f-4bbb-93cd-192676ffcc1b"},"vehicle_type_id":"4","last_reported":1743419348,"current_range_meters":2800,"station_id":"ce4bgn92rcd13ifvqbvg","pricing_plan_id":"cebpf4jnsgd1na2vs0mg"},{"bike_id":"5fe2981e-2c4f-4014-a4ef-2148b98ae111","system_id":"levelo_inurba_marseille","lat":43.29836,"lon":5.36291,"is_reserved":false,"is_disabled":false,"rental_uris":{"android":"levelo://app?vid=5fe2981e-2c4f-4014-a4ef-2148b98ae111","ios":"levelo://app?vid=5fe2981e-2c4f-4014-a4ef-2148b98ae111"},"vehicle_type_id":"4","last_reported":1743419348,"current_range_meters":2800,"station_id":"ce4bgpp2rcd13ifvqc3g","pricing_plan_id":"cebpf4jnsgd1na2vs0mg"},{"bike_id":"cfbdea25-314d-4c52-b270-796ce5c6b0bb","system_id":"levelo_inurba_marseille","lat":43.27555,"lon":5.3842,"is_reserved":false,"is_disabled":false,"rental_uris":{"android":"levelo://app?vid=cfbdea25-314d-4c52-b270-796ce5c6b0bb","ios":"levelo://app?vid=cfbdea25-314d-4c52-b270-796ce5c6b0bb"},"vehicle_type_id":"4","last_reported":1743419348,"current_range_meters":2800,"station_id":"ce4bhh92rcd13ifvqfi0","pricing_plan_id":"cebpf4jnsgd1na2vs0mg"},{"bike_id":"ee2b1c87-14e1-4765-a433-3110b757d3ea","system_id":"levelo_inurba_marseille","lat":43.24385,"lon":5.37084,"is_reserved":false,"is_disabled":false,"rental_uris":{"android":"levelo://app?vid=ee2b1c87-14e1-4765-a433-3110b757d3ea","ios":"levelo://app?vid=ee2b1c87-14e1-4765-a433-3110b757d3ea"},"vehicle_type_id":"4","last_reported":1743419348,"current_range_meters":2800,"station_id":"ce4bhhh2rcd13ifvqfk0","pricing_plan_id":"cebpf4jnsgd1na2vs0mg"},{"bike_id":"96ac20e8-5840-4579-b371-184ec6253952","system_id":"levelo_inurba_marseille","lat":43.27446,"lon":5.41112,"is_reserved":false,"is_disabled":false,"rental_uris":{"android":"levelo://app?vid=96ac20e8-5840-4579-b371-184ec6253952","ios":"levelo://app?vid=96ac20e8-5840-4579-b371-184ec6253952"},"vehicle_type_id":"4","last_reported":1743419348,"current_range_meters":3600,"station_id":"","pricing_plan_id":"cebpf4jnsgd1na2vs0mg"},{"bike_id":"78dd9ec3-e46f-4c47-8efe-ec255d574cc0","system_id":"levelo_inurba_marseille","lat":43.29699,"lon":5.36602,"is_reserved":false,"is_disabled":false,"rental_uris":{"android":"levelo://app?vid=78dd9ec3-e46f-4c47-8efe-ec255d574cc0","ios":"levelo://app?vid=78dd9ec3-e46f-4c47-8efe-ec255d574cc0"},"vehicle_type_id":"4","last_reported":1743419348,"current_range_meters":3600,"station_id":"ce4bgn12rcd13ifvqbt0","pricing_plan_id":"cebpf4jnsgd1na2vs0mg"},{"bike_id":"94d23e93-2f97-4513-86ed-3f8a131822d6","system_id":"levelo_inurba_marseille","lat":43.31692,"lon":5.40477,"is_reserved":false,"is_disabled":false,"rental_uris":{"android":"levelo://app?vid=94d23e93-2f97-4513-86ed-3f8a131822d6","ios":"levelo://app?vid=94d23e93-2f97-4513-86ed-3f8a131822d6"},"vehicle_type_id":"4","last_reported":1743419348,"current_range_meters":3600,"station_id":"ce4bh012rcd13ifvqd00","pricing_plan_id":"cebpf4jnsgd1na2vs0mg"},{"bike_id":"d7ef9f68-4547-4f34-a995-9ced6be6ed05","system_id":"levelo_inurba_marseille","lat":43.29525,"lon":5.39393,"is_reserved":false,"is_disabled":false,"rental_uris":{"android":"levelo://app?vid=d7ef9f68-4547-4f34-a995-9ced6be6ed05","ios":"levelo://app?vid=d7ef9f68-4547-4f34-a995-9ced6be6ed05"},"vehicle_type_id":"4","last_reported":1743419348,"current_range_meters":3600,"station_id":"ce4bh292rcd13ifvqdf0","pricing_plan_id":"cebpf4jnsgd1na2vs0mg"},{"bike_id":"39a43e2c-bbd5-44d1-abc4-b426abd573a9","system_id":"levelo_inurba_marseille","lat":43.27055,"lon":5.40261,"is_reserved":false,"is_disabled":false,"rental_uris":{"android":"levelo://app?vid=39a43e2c-bbd5-44d1-abc4-b426abd573a9","ios":"levelo://app?vid=39a43e2c-bbd5-44d1-abc4-b426abd573a9"},"vehicle_type_id":"4","last_reported":1743419348,"current_range_meters":3600,"station_id":"ce4bhk92rcd13ifvqgc0","pricing_plan_id":"cebpf4jnsgd1na2vs0mg"},{"bike_id":"52367b58-f838-4393-9510-a3dd5cf3be2b","system_id":"levelo_inurba_marseille","lat":43.28702,"lon":5.39979,"is_reserved":false,"is_disabled":false,"rental_uris":{"android":"levelo://app?vid=52367b58-f838-4393-9510-a3dd5cf3be2b","ios":"levelo://app?vid=52367b58-f838-4393-9510-a3dd5cf3be2b"},"vehicle_type_id":"4","last_reported":1743419348,"current_range_meters":3600,"station_id":"ce4bho92rcd13ifvqh3g","pricing_plan_id":"cebpf4jnsgd1na2vs0mg"},{"bike_id":"c82d5dd1-4f66-4fdc-8b9d-012172fac7dd","system_id":"levelo_inurba_marseille","lat":43.22938,"lon":5.35373,"is_reserved":false,"is_disabled":false,"rental_uris":{"android":"levelo://app?vid=c82d5dd1-4f66-4fdc-8b9d-012172fac7dd","ios":"levelo://app?vid=c82d5dd1-4f66-4fdc-8b9d-012172fac7dd"},"vehicle_type_id":"4","last_reported":1743419348,"current_range_meters":3600,"station_id":"cpo3532slgdg3j2ikp40","pricing_plan_id":"cebpf4jnsgd1na2vs0mg"},{"bike_id":"9e3ea65a-aa5e-40d4-bb01-a7c791ad4d8f","system_id":"levelo_inurba_marseille","lat":43.28352,"lon":5.38099,"is_reserved":false,"is_disabled":false,"rental_uris":{"android":"levelo://app?vid=9e3ea65a-aa5e-40d4-bb01-a7c791ad4d8f","ios":"levelo://app?vid=9e3ea65a-aa5e-40d4-bb01-a7c791ad4d8f"},"vehicle_type_id":"4","last_reported":1743419348,"current_range_meters":4000,"station_id":"ce4bh412rcd13ifvqdr0","pricing_plan_id":"cebpf4jnsgd1na2vs0mg"},{"bike_id":"f9f53151-180a-4ad9-981c-4bbf9dcec44f","system_id":"levelo_inurba_marseille","lat":43.23148,"lon":5.43715,"is_reserved":false,"is_disabled":false,"rental_uris":{"android":"levelo://app?vid=f9f53151-180a-4ad9-981c-4bbf9dcec44f","ios":"levelo://app?vid=f9f53151-180a-4ad9-981c-4bbf9dcec44f"},"vehicle_type_id":"4","last_reported":1743419348,"current_range_meters":4400,"station_id":"ce4bhmp2rcd13ifvqgog","pricing_plan_id":"cebpf4jnsgd1na2vs0mg"},{"bike_id":"d0ed36b4-3c5a-4da6-8fb4-955c321dd03a","system_id":"levelo_inurba_marseille","lat":43.27532,"lon":5.41012,"is_reserved":false,"is_disabled":false,"rental_uris":{"android":"levelo://app?vid=d0ed36b4-3c5a-4da6-8fb4-955c321dd03a","ios":"levelo://app?vid=d0ed36b4-3c5a-4da6-8fb4-955c321dd03a"},"vehicle_type_id":"4","last_reported":1743419348,"current_range_meters":4800,"station_id":"","pricing_plan_id":"cebpf4jnsgd1na2vs0mg"},{"bike_id":"292f8a19-f233-4e51-9a26-c3a52018dc73","system_id":"levelo_inurba_marseille","lat":43.2707,"lon":5.42275,"is_reserved":false,"is_disabled":false,"rental_uris":{"android":"levelo://app?vid=292f8a19-f233-4e51-9a26-c3a52018dc73","ios":"levelo://app?vid=292f8a19-f233-4e51-9a26-c3a52018dc73"},"vehicle_type_id":"4","last_reported":1743419348,"current_range_meters":4800,"station_id":"ce4bhk92rcd13ifvqgb0","pricing_plan_id":"cebpf4jnsgd1na2vs0mg"},{"bike_id":"09652dc6-223f-491a-a1ce-7f1a323d102e","system_id":"levelo_inurba_marseille","lat":43.30563,"lon":5.36539,"is_reserved":false,"is_disabled":false,"rental_uris":{"android":"levelo://app?vid=09652dc6-223f-491a-a1ce-7f1a323d102e","ios":"levelo://app?vid=09652dc6-223f-491a-a1ce-7f1a323d102e"},"vehicle_type_id":"4","last_reported":1743419348,"current_range_meters":5600,"station_id":"ce4bgs12rcd13ifvqcag","pricing_plan_id":"cebpf4jnsgd1na2vs0mg"},{"bike_id":"3d559752-4124-4304-bce2-0b863e5a6dbe","system_id":"levelo_inurba_marseille","lat":43.25699,"lon":5.41064,"is_reserved":false,"is_disabled":false,"rental_uris":{"android":"levelo://app?vid=3d559752-4124-4304-bce2-0b863e5a6dbe","ios":"levelo://app?vid=3d559752-4124-4304-bce2-0b863e5a6dbe"},"vehicle_type_id":"4","last_reported":1743419348,"current_range_meters":5600,"station_id":"ce4bhkp2rcd13ifvqgd0","pricing_plan_id":"cebpf4jnsgd1na2vs0mg"},{"bike_id":"108d5fb2-6de1-4cd7-bf6b-d4c7865d55d9","system_id":"levelo_inurba_marseille","lat":43.28701,"lon":5.39972,"is_reserved":false,"is_disabled":false,"rental_uris":{"android":"levelo://app?vid=108d5fb2-6de1-4cd7-bf6b-d4c7865d55d9","ios":"levelo://app?vid=108d5fb2-6de1-4cd7-bf6b-d4c7865d55d9"},"vehicle_type_id":"4","last_reported":1743419348,"current_range_meters":5600,"station_id":"ce4bho92rcd13ifvqh3g","pricing_plan_id":"cebpf4jnsgd1na2vs0mg"},{"bike_id":"b4f8a49c-a9d1-4682-8c09-20820c62e7e8","system_id":"levelo_inurba_marseille","lat":43.26802,"lon":5.40266,"is_reserved":false,"is_disabled":false,"rental_uris":{"android":"levelo://app?vid=b4f8a49c-a9d1-4682-8c09-20820c62e7e8","ios":"levelo://app?vid=b4f8a49c-a9d1-4682-8c09-20820c62e7e8"},"vehicle_type_id":"4","last_reported":1743419348,"current_range_meters":5600,"station_id":"ce501612rcd8frsf0b60","pricing_plan_id":"cebpf4jnsgd1na2vs0mg"},{"bike_id":"41e9a9d2-b957-42bc-b3a7-2c11b5e841e5","system_id":"levelo_inurba_marseille","lat":43.27562,"lon":5.38425,"is_reserved":false,"is_disabled":false,"rental_uris":{"android":"levelo://app?vid=41e9a9d2-b957-42bc-b3a7-2c11b5e841e5","ios":"levelo://app?vid=41e9a9d2-b957-42bc-b3a7-2c11b5e841e5"},"vehicle_type_id":"4","last_reported":1743419348,"current_range_meters":6000,"station_id":"ce4bhh92rcd13ifvqfi0","pricing_plan_id":"cebpf4jnsgd1na2vs0mg"},{"bike_id":"36438f87-de35-42e6-84d1-312e6a8359ec","system_id":"levelo_inurba_marseille","lat":43.24179,"lon":5.39716,"is_reserved":false,"is_disabled":false,"rental_uris":{"android":"levelo://app?vid=36438f87-de35-42e6-84d1-312e6a8359ec","ios":"levelo://app?vid=36438f87-de35-42e6-84d1-312e6a8359ec"},"vehicle_type_id":"4","last_reported":1743419348,"current_range_meters":6000,"station_id":"ce4bhn12rcd13ifvqgpg","pricing_plan_id":"cebpf4jnsgd1na2vs0mg"},{"bike_id":"fbcaac2e-7bb7-458e-862f-1aa7edb19ac0","system_id":"levelo_inurba_marseille","lat":43.29598,"lon":5.38111,"is_reserved":false,"is_disabled":false,"rental_uris":{"android":"levelo://app?vid=fbcaac2e-7bb7-458e-862f-1aa7edb19ac0","ios":"levelo://app?vid=fbcaac2e-7bb7-458e-862f-1aa7edb19ac0"},"vehicle_type_id":"4","last_reported":1743419348,"current_range_meters":6400,"station_id":"ce4bgl12rcd13ifvqbo0","pricing_plan_id":"cebpf4jnsgd1na2vs0mg"},{"bike_id":"318f8afe-268b-49d7-b52e-fa439b044e3a","system_id":"levelo_inurba_marseille","lat":43.28351,"lon":5.381,"is_reserved":false,"is_disabled":false,"rental_uris":{"android":"levelo://app?vid=318f8afe-268b-49d7-b52e-fa439b044e3a","ios":"levelo://app?vid=318f8afe-268b-49d7-b52e-fa439b044e3a"},"vehicle_type_id":"4","last_reported":1743419348,"current_range_meters":6400,"station_id":"ce4bh412rcd13ifvqdr0","pricing_plan_id":"cebpf4jnsgd1na2vs0mg"},{"bike_id":"f9416aff-17eb-4404-baa4-0a5990f3510c","system_id":"levelo_inurba_marseille","lat":43.28674,"lon":5.3866,"is_reserved":false,"is_disabled":false,"rental_uris":{"android":"levelo://app?vid=f9416aff-17eb-4404-baa4-0a5990f3510c","ios":"levelo://app?vid=f9416aff-17eb-4404-baa4-0a5990f3510c"},"vehicle_type_id":"4","last_reported":1743419348,"current_range_meters":6400,"station_id":"ce4bh492rcd13ifvqdug","pricing_plan_id":"cebpf4jnsgd1na2vs0mg"},{"bike_id":"93b55f3d-b1dd-4f3f-b1f6-f78029e736da","system_id":"levelo_inurba_marseille","lat":43.2315,"lon":5.43709,"is_reserved":false,"is_disabled":false,"rental_uris":{"android":"levelo://app?vid=93b55f3d-b1dd-4f3f-b1f6-f78029e736da","ios":"levelo://app?vid=93b55f3d-b1dd-4f3f-b1f6-f78029e736da"},"vehicle_type_id":"4","last_reported":1743419348,"current_range_meters":6400,"station_id":"ce4bhmp2rcd13ifvqgog","pricing_plan_id":"cebpf4jnsgd1na2vs0mg"},{"bike_id":"7ea47a59-ef13-43d4-81ed-a9b5c1a31f9b","system_id":"levelo_inurba_marseille","lat":43.29795,"lon":5.38111,"is_reserved":false,"is_disabled":false,"rental_uris":{"android":"levelo://app?vid=7ea47a59-ef13-43d4-81ed-a9b5c1a31f9b","ios":"levelo://app?vid=7ea47a59-ef13-43d4-81ed-a9b5c1a31f9b"},"vehicle_type_id":"4","last_reported":1743419348,"current_range_meters":6800,"station_id":"ce4bgip2rcd13ifvqbb0","pricing_plan_id":"cebpf4jnsgd1na2vs0mg"},{"bike_id":"18a0240a-4b66-4de0-8774-60a112f77be3","system_id":"levelo_inurba_marseille","lat":43.31253,"lon":5.36867,"is_reserved":false,"is_disabled":false,"rental_uris":{"android":"levelo://app?vid=18a0240a-4b66-4de0-8774-60a112f77be3","ios":"levelo://app?vid=18a0240a-4b66-4de0-8774-60a112f77be3"},"vehicle_type_id":"4","last_reported":1743419348,"current_range_meters":6800,"station_id":"ce4bgl92rcd13ifvqbq0","pricing_plan_id":"cebpf4jnsgd1na2vs0mg"},{"bike_id":"26febead-b7d3-4531-87e0-18f41eca5408","system_id":"levelo_inurba_marseille","lat":43.29854,"lon":5.36274,"is_reserved":false,"is_disabled":false,"rental_uris":{"android":"levelo://app?vid=26febead-b7d3-4531-87e0-18f41eca5408","ios":"levelo://app?vid=26febead-b7d3-4531-87e0-18f41eca5408"},"vehicle_type_id":"4","last_reported":1743419348,"current_range_meters":6800,"station_id":"ce4bgpp2rcd13ifvqc3g","pricing_plan_id":"cebpf4jnsgd1na2vs0mg"},{"bike_id":"2201fb24-281b-488f-b78d-a2cece1a8ca9","system_id":"levelo_inurba_marseille","lat":43.30533,"lon":5.36525,"is_reserved":false,"is_disabled":false,"rental_uris":{"android":"levelo://app?vid=2201fb24-281b-488f-b78d-a2cece1a8ca9","ios":"levelo://app?vid=2201fb24-281b-488f-b78d-a2cece1a8ca9"},"vehicle_type_id":"4","last_reported":1743419348,"current_range_meters":6800,"station_id":"ce4bgs12rcd13ifvqcag","pricing_plan_id":"cebpf4jnsgd1na2vs0mg"},{"bike_id":"6abfcf76-b46b-48ec-9741-222295465860","system_id":"levelo_inurba_marseille","lat":43.28598,"lon":5.37069,"is_reserved":false,"is_disabled":false,"rental_uris":{"android":"levelo://app?vid=6abfcf76-b46b-48ec-9741-222295465860","ios":"levelo://app?vid=6abfcf76-b46b-48ec-9741-222295465860"},"vehicle_type_id":"4","last_reported":1743419348,"current_range_meters":6800,"station_id":"ce4bh312rcd13ifvqdj0","pricing_plan_id":"cebpf4jnsgd1na2vs0mg"},{"bike_id":"93944404-6abd-41a8-a24d-27485090d68c","system_id":"levelo_inurba_marseille","lat":43.25636,"lon":5.41104,"is_reserved":false,"is_disabled":false,"rental_uris":{"android":"levelo://app?vid=93944404-6abd-41a8-a24d-27485090d68c","ios":"levelo://app?vid=93944404-6abd-41a8-a24d-27485090d68c"},"vehicle_type_id":"4","last_reported":1743419348,"current_range_meters":6800,"station_id":"ce4bhkp2rcd13ifvqgd0","pricing_plan_id":"cebpf4jnsgd1na2vs0mg"},{"bike_id":"33a2857d-fc02-4112-94e5-d394d3d364f0","system_id":"levelo_inurba_marseille","lat":43.31248,"lon":5.36892,"is_reserved":false,"is_disabled":false,"rental_uris":{"android":"levelo://app?vid=33a2857d-fc02-4112-94e5-d394d3d364f0","ios":"levelo://app?vid=33a2857d-fc02-4112-94e5-d394d3d364f0"},"vehicle_type_id":"4","last_reported":1743419348,"current_range_meters":7200,"station_id":"ce4bgl92rcd13ifvqbq0","pricing_plan_id":"cebpf4jnsgd1na2vs0mg"},{"bike_id":"82b3062a-68c3-433c-bdc5-ab87522dc401","system_id":"levelo_inurba_marseille","lat":43.3047,"lon":5.37901,"is_reserved":false,"is_disabled":false,"rental_uris":{"android":"levelo://app?vid=82b3062a-68c3-433c-bdc5-ab87522dc401","ios":"levelo://app?vid=82b3062a-68c3-433c-bdc5-ab87522dc401"},"vehicle_type_id":"4","last_reported":1743419348,"current_range_meters":7200,"station_id":"ce4bgup2rcd13ifvqcn0","pricing_plan_id":"cebpf4jnsgd1na2vs0mg"},{"bike_id":"ee08ea86-29dd-46ca-a0e2-35a9e0c2eab6","system_id":"levelo_inurba_marseille","lat":43.29036,"lon":5.37558,"is_reserved":false,"is_disabled":false,"rental_uris":{"android":"levelo://app?vid=ee08ea86-29dd-46ca-a0e2-35a9e0c2eab6","ios":"levelo://app?vid=ee08ea86-29dd-46ca-a0e2-35a9e0c2eab6"},"vehicle_type_id":"4","last_reported":1743419348,"current_range_meters":7200,"station_id":"ce4bh692rcd13ifvqe90","pricing_plan_id":"cebpf4jnsgd1na2vs0mg"},{"bike_id":"edb87a25-ebb7-46a0-bae0-cfbe10b2b7a8","system_id":"levelo_inurba_marseille","lat":43.28721,"lon":5.37945,"is_reserved":false,"is_disabled":false,"rental_uris":{"android":"levelo://app?vid=edb87a25-ebb7-46a0-bae0-cfbe10b2b7a8","ios":"levelo://app?vid=edb87a25-ebb7-46a0-bae0-cfbe10b2b7a8"},"vehicle_type_id":"4","last_reported":1743419348,"current_range_meters":7200,"station_id":"ce4bh9p2rcd13ifvqec0","pricing_plan_id":"cebpf4jnsgd1na2vs0mg"},{"bike_id":"793b1d5c-c6f7-453b-87dd-7d15ceb7ee59","system_id":"levelo_inurba_marseille","lat":43.29219,"lon":5.36068,"is_reserved":false,"is_disabled":false,"rental_uris":{"android":"levelo://app?vid=793b1d5c-c6f7-453b-87dd-7d15ceb7ee59","ios":"levelo://app?vid=793b1d5c-c6f7-453b-87dd-7d15ceb7ee59"},"vehicle_type_id":"4","last_reported":1743419348,"current_range_meters":7200,"station_id":"ce4bhbh2rcd13ifvqeqg","pricing_plan_id":"cebpf4jnsgd1na2vs0mg"},{"bike_id":"8a423c5b-57f1-4052-9547-c2b64f34ded2","system_id":"levelo_inurba_marseille","lat":43.28264,"lon":5.35064,"is_reserved":false,"is_disabled":false,"rental_uris":{"android":"levelo://app?vid=8a423c5b-57f1-4052-9547-c2b64f34ded2","ios":"levelo://app?vid=8a423c5b-57f1-4052-9547-c2b64f34ded2"},"vehicle_type_id":"4","last_reported":1743419348,"current_range_meters":7200,"station_id":"ce4bhbp2rcd13ifvqerg","pricing_plan_id":"cebpf4jnsgd1na2vs0mg"},{"bike_id":"5f043ac0-7cd9-4cf8-adee-1f3874e8e8bd","system_id":"levelo_inurba_marseille","lat":43.3063,"lon":5.36401,"is_reserved":false,"is_disabled":false,"rental_uris":{"android":"levelo://app?vid=5f043ac0-7cd9-4cf8-adee-1f3874e8e8bd","ios":"levelo://app?vid=5f043ac0-7cd9-4cf8-adee-1f3874e8e8bd"},"vehicle_type_id":"4","last_reported":1743419348,"current_range_meters":8000,"station_id":"","pricing_plan_id":"cebpf4jnsgd1na2vs0mg"},{"bike_id":"0b5abddd-5097-49db-978a-f9f5a1d42236","system_id":"levelo_inurba_marseille","lat":43.30921,"lon":5.36803,"is_reserved":false,"is_disabled":false,"rental_uris":{"android":"levelo://app?vid=0b5abddd-5097-49db-978a-f9f5a1d42236","ios":"levelo://app?vid=0b5abddd-5097-49db-978a-f9f5a1d42236"},"vehicle_type_id":"4","last_reported":1743419348,"current_range_meters":8000,"station_id":"ce4bgn92rcd13ifvqbvg","pricing_plan_id":"cebpf4jnsgd1na2vs0mg"},{"bike_id":"1bec37d2-b300-490d-ae51-8f205dd896fa","system_id":"levelo_inurba_marseille","lat":43.28358,"lon":5.38115,"is_reserved":false,"is_disabled":false,"rental_uris":{"android":"levelo://app?vid=1bec37d2-b300-490d-ae51-8f205dd896fa","ios":"levelo://app?vid=1bec37d2-b300-490d-ae51-8f205dd896fa"},"vehicle_type_id":"4","last_reported":1743419348,"current_range_meters":8000,"station_id":"ce4bh412rcd13ifvqdr0","pricing_plan_id":"cebpf4jnsgd1na2vs0mg"},{"bike_id":"08581c25-02e5-4c2f-80f6-5187bceaa98a","system_id":"levelo_inurba_marseille","lat":43.24798,"lon":5.37476,"is_reserved":false,"is_disabled":false,"rental_uris":{"android":"levelo://app?vid=08581c25-02e5-4c2f-80f6-5187bceaa98a","ios":"levelo://app?vid=08581c25-02e5-4c2f-80f6-5187bceaa98a"},"vehicle_type_id":"4","last_reported":1743419348,"current_range_meters":8000,"station_id":"ce4bhgh2rcd13ifvqfb0","pricing_plan_id":"cebpf4jnsgd1na2vs0mg"},{"bike_id":"7c55376a-1b9e-4718-b9bb-c97f42cbe11f","system_id":"levelo_inurba_marseille","lat":43.2314,"lon":5.43691,"is_reserved":false,"is_disabled":false,"rental_uris":{"android":"levelo://app?vid=7c55376a-1b9e-4718-b9bb-c97f42cbe11f","ios":"levelo://app?vid=7c55376a-1b9e-4718-b9bb-c97f42cbe11f"},"vehicle_type_id":"4","last_reported":1743419348,"current_range_meters":8000,"station_id":"ce4bhmp2rcd13ifvqgog","pricing_plan_id":"cebpf4jnsgd1na2vs0mg"},{"bike_id":"581ad151-a541-416f-8ceb-5952a9da3bdb","system_id":"levelo_inurba_marseille","lat":43.23155,"lon":5.43735,"is_reserved":false,"is_disabled":false,"rental_uris":{"android":"levelo://app?vid=581ad151-a541-416f-8ceb-5952a9da3bdb","ios":"levelo://app?vid=581ad151-a541-416f-8ceb-5952a9da3bdb"},"vehicle_type_id":"4","last_reported":1743419348,"current_range_meters":8000,"station_id":"ce4bhmp2rcd13ifvqgog","pricing_plan_id":"cebpf4jnsgd1na2vs0mg"},{"bike_id":"e672d27b-9fd8-4a34-be0c-e3809200516c","system_id":"levelo_inurba_marseille","lat":43.27493,"lon":5.4245,"is_reserved":false,"is_disabled":false,"rental_uris":{"android":"levelo://app?vid=e672d27b-9fd8-4a34-be0c-e3809200516c","ios":"levelo://app?vid=e672d27b-9fd8-4a34-be0c-e3809200516c"},"vehicle_type_id":"4","last_reported":1743419348,"current_range_meters":8000,"station_id":"ce4bhn92rcd13ifvqgrg","pricing_plan_id":"cebpf4jnsgd1na2vs0mg"},{"bike_id":"58ba954f-d3fd-4cac-abd2-623144afb52a","system_id":"levelo_inurba_marseille","lat":43.2293,"lon":5.3538,"is_reserved":false,"is_disabled":false,"rental_uris":{"android":"levelo://app?vid=58ba954f-d3fd-4cac-abd2-623144afb52a","ios":"levelo://app?vid=58ba954f-d3fd-4cac-abd2-623144afb52a"},"vehicle_type_id":"4","last_reported":1743419348,"current_range_meters":8000,"station_id":"cpo3532slgdg3j2ikp40","pricing_plan_id":"cebpf4jnsgd1na2vs0mg"},{"bike_id":"ca0583b7-5669-4753-8262-d8e09aa9fe38","system_id":"levelo_inurba_marseille","lat":43.30552,"lon":5.36543,"is_reserved":false,"is_disabled":false,"rental_uris":{"android":"levelo://app?vid=ca0583b7-5669-4753-8262-d8e09aa9fe38","ios":"levelo://app?vid=ca0583b7-5669-4753-8262-d8e09aa9fe38"},"vehicle_type_id":"4","last_reported":1743419348,"current_range_meters":8400,"station_id":"ce4bgs12rcd13ifvqcag","pricing_plan_id":"cebpf4jnsgd1na2vs0mg"},{"bike_id":"e23e8554-73a4-4293-b5da-0071d5a46b19","system_id":"levelo_inurba_marseille","lat":43.28925,"lon":5.38401,"is_reserved":false,"is_disabled":false,"rental_uris":{"android":"levelo://app?vid=e23e8554-73a4-4293-b5da-0071d5a46b19","ios":"levelo://app?vid=e23e8554-73a4-4293-b5da-0071d5a46b19"},"vehicle_type_id":"4","last_reported":1743419348,"current_range_meters":8400,"station_id":"ce4bh612rcd13ifvqe6g","pricing_plan_id":"cebpf4jnsgd1na2vs0mg"},{"bike_id":"f069c8aa-5c9c-4eb4-86bd-8e04589e3898","system_id":"levelo_inurba_marseille","lat":43.23155,"lon":5.4371,"is_reserved":false,"is_disabled":false,"rental_uris":{"android":"levelo://app?vid=f069c8aa-5c9c-4eb4-86bd-8e04589e3898","ios":"levelo://app?vid=f069c8aa-5c9c-4eb4-86bd-8e04589e3898"},"vehicle_type_id":"4","last_reported":1743419348,"current_range_meters":8400,"station_id":"ce4bhmp2rcd13ifvqgog","pricing_plan_id":"cebpf4jnsgd1na2vs0mg"},{"bike_id":"452ee7ed-aed5-4f3a-80c1-b63ab3953967","system_id":"levelo_inurba_marseille","lat":43.27952,"lon":5.41026,"is_reserved":false,"is_disabled":false,"rental_uris":{"android":"levelo://app?vid=452ee7ed-aed5-4f3a-80c1-b63ab3953967","ios":"levelo://app?vid=452ee7ed-aed5-4f3a-80c1-b63ab3953967"},"vehicle_type_id":"4","last_reported":1743419348,"current_range_meters":8400,"station_id":"ce4bhnp2rcd13ifvqh0g","pricing_plan_id":"cebpf4jnsgd1na2vs0mg"},{"bike_id":"533dde56-3c6f-4b30-a6d4-69433b869256","system_id":"levelo_inurba_marseille","lat":43.2873,"lon":5.39975,"is_reserved":false,"is_disabled":false,"rental_uris":{"android":"levelo://app?vid=533dde56-3c6f-4b30-a6d4-69433b869256","ios":"levelo://app?vid=533dde56-3c6f-4b30-a6d4-69433b869256"},"vehicle_type_id":"4","last_reported":1743419348,"current_range_meters":8400,"station_id":"ce4bho92rcd13ifvqh3g","pricing_plan_id":"cebpf4jnsgd1na2vs0mg"},{"bike_id":"0d8aeec0-3717-4a11-ab9d-27a48ba26d86","system_id":"levelo_inurba_marseille","lat":43.29789,"lon":5.39346,"is_reserved":false,"is_disabled":false,"rental_uris":{"android":"levelo://app?vid=0d8aeec0-3717-4a11-ab9d-27a48ba26d86","ios":"levelo://app?vid=0d8aeec0-3717-4a11-ab9d-27a48ba26d86"},"vehicle_type_id":"4","last_reported":1743419348,"current_range_meters":8400,"station_id":"chh1huq6cuj3fo74tm60","pricing_plan_id":"cebpf4jnsgd1na2vs0mg"},{"bike_id":"407b633a-987e-4722-b77a-993eaa06a6b7","system_id":"levelo_inurba_marseille","lat":43.315677,"lon":5.3884,"is_reserved":false,"is_disabled":false,"rental_uris":{"android":"levelo://app?vid=407b633a-987e-4722-b77a-993eaa06a6b7","ios":"levelo://app?vid=407b633a-987e-4722-b77a-993eaa06a6b7"},"vehicle_type_id":"4","last_reported":1743419348,"current_range_meters":8800,"station_id":"","pricing_plan_id":"cebpf4jnsgd1na2vs0mg"},{"bike_id":"6165c5e1-15f4-4779-ba2f-91df8ba3f8c0","system_id":"levelo_inurba_marseille","lat":43.28899,"lon":5.42976,"is_reserved":false,"is_disabled":false,"rental_uris":{"android":"levelo://app?vid=6165c5e1-15f4-4779-ba2f-91df8ba3f8c0","ios":"levelo://app?vid=6165c5e1-15f4-4779-ba2f-91df8ba3f8c0"},"vehicle_type_id":"4","last_reported":1743419348,"current_range_meters":8800,"station_id":"","pricing_plan_id":"cebpf4jnsgd1na2vs0mg"},{"bike_id":"371f4c45-c697-4bdf-a243-45faa9e4d451","system_id":"levelo_inurba_marseille","lat":43.29192,"lon":5.39324,"is_reserved":false,"is_disabled":false,"rental_uris":{"android":"levelo://app?vid=371f4c45-c697-4bdf-a243-45faa9e4d451","ios":"levelo://app?vid=371f4c45-c697-4bdf-a243-45faa9e4d451"},"vehicle_type_id":"4","last_reported":1743419348,"current_range_meters":8800,"station_id":"ce4bh192rcd13ifvqdd0","pricing_plan_id":"cebpf4jnsgd1na2vs0mg"},{"bike_id":"e01213cb-6e38-4f5c-a0b5-ec9b95e9c950","system_id":"levelo_inurba_marseille","lat":43.28458,"lon":5.35885,"is_reserved":false,"is_disabled":false,"rental_uris":{"android":"levelo://app?vid=e01213cb-6e38-4f5c-a0b5-ec9b95e9c950","ios":"levelo://app?vid=e01213cb-6e38-4f5c-a0b5-ec9b95e9c950"},"vehicle_type_id":"4","last_reported":1743419348,"current_range_meters":8800,"station_id":"ce4bhah2rcd13ifvqei0","pricing_plan_id":"cebpf4jnsgd1na2vs0mg"},{"bike_id":"99e7d147-e2b6-4982-8a11-f600737d5497","system_id":"levelo_inurba_marseille","lat":43.31819,"lon":5.36879,"is_reserved":false,"is_disabled":false,"rental_uris":{"android":"levelo://app?vid=99e7d147-e2b6-4982-8a11-f600737d5497","ios":"levelo://app?vid=99e7d147-e2b6-4982-8a11-f600737d5497"},"vehicle_type_id":"4","last_reported":1743419348,"current_range_meters":9200,"station_id":"","pricing_plan_id":"cebpf4jnsgd1na2vs0mg"},{"bike_id":"204ecd7d-d79a-4494-8305-7c83c69add7d","system_id":"levelo_inurba_marseille","lat":43.2566,"lon":5.41972,"is_reserved":false,"is_disabled":false,"rental_uris":{"android":"levelo://app?vid=204ecd7d-d79a-4494-8305-7c83c69add7d","ios":"levelo://app?vid=204ecd7d-d79a-4494-8305-7c83c69add7d"},"vehicle_type_id":"4","last_reported":1743419348,"current_range_meters":9200,"station_id":"","pricing_plan_id":"cebpf4jnsgd1na2vs0mg"},{"bike_id":"ba1107aa-9b1f-4710-bb75-05314e757fc6","system_id":"levelo_inurba_marseille","lat":43.3166,"lon":5.37254,"is_reserved":false,"is_disabled":false,"rental_uris":{"android":"levelo://app?vid=ba1107aa-9b1f-4710-bb75-05314e757fc6","ios":"levelo://app?vid=ba1107aa-9b1f-4710-bb75-05314e757fc6"},"vehicle_type_id":"4","last_reported":1743419348,"current_range_meters":9200,"station_id":"","pricing_plan_id":"cebpf4jnsgd1na2vs0mg"},{"bike_id":"85111842-e14b-41e9-99d0-4aceca9ec59f","system_id":"levelo_inurba_marseille","lat":43.292538,"lon":5.409188,"is_reserved":false,"is_disabled":false,"rental_uris":{"android":"levelo://app?vid=85111842-e14b-41e9-99d0-4aceca9ec59f","ios":"levelo://app?vid=85111842-e14b-41e9-99d0-4aceca9ec59f"},"vehicle_type_id":"4","last_reported":1743419348,"current_range_meters":9200,"station_id":"ce4bh192rcd13ifvqdc0","pricing_plan_id":"cebpf4jnsgd1na2vs0mg"},{"bike_id":"54320756-890a-4f26-ba4d-75d513e814d9","system_id":"levelo_inurba_marseille","lat":43.313414,"lon":5.36703,"is_reserved":false,"is_disabled":false,"rental_uris":{"android":"levelo://app?vid=54320756-890a-4f26-ba4d-75d513e814d9","ios":"levelo://app?vid=54320756-890a-4f26-ba4d-75d513e814d9"},"vehicle_type_id":"4","last_reported":1743419348,"current_range_meters":9200,"station_id":"ce4bhlh2rcd13ifvqgig","pricing_plan_id":"cebpf4jnsgd1na2vs0mg"},{"bike_id":"b7fd714f-9e42-444f-b394-b6dda2cac0dc","system_id":"levelo_inurba_marseille","lat":43.23155,"lon":5.43721,"is_reserved":false,"is_disabled":false,"rental_uris":{"android":"levelo://app?vid=b7fd714f-9e42-444f-b394-b6dda2cac0dc","ios":"levelo://app?vid=b7fd714f-9e42-444f-b394-b6dda2cac0dc"},"vehicle_type_id":"4","last_reported":1743419348,"current_range_meters":9200,"station_id":"ce4bhmp2rcd13ifvqgog","pricing_plan_id":"cebpf4jnsgd1na2vs0mg"},{"bike_id":"cf824bcf-70b6-4436-9a47-53e8b7965d84","system_id":"levelo_inurba_marseille","lat":43.33719,"lon":5.3918,"is_reserved":false,"is_disabled":false,"rental_uris":{"android":"levelo://app?vid=cf824bcf-70b6-4436-9a47-53e8b7965d84","ios":"levelo://app?vid=cf824bcf-70b6-4436-9a47-53e8b7965d84"},"vehicle_type_id":"4","last_reported":1743419348,"current_range_meters":9200,"station_id":"ce4bhr92rcd13ifvqhsg","pricing_plan_id":"cebpf4jnsgd1na2vs0mg"},{"bike_id":"5f4b6dec-c8cd-4fba-a769-4892a6dbdf94","system_id":"levelo_inurba_marseille","lat":43.28124,"lon":5.39859,"is_reserved":false,"is_disabled":false,"rental_uris":{"android":"levelo://app?vid=5f4b6dec-c8cd-4fba-a769-4892a6dbdf94","ios":"levelo://app?vid=5f4b6dec-c8cd-4fba-a769-4892a6dbdf94"},"vehicle_type_id":"4","last_reported":1743419348,"current_range_meters":9600,"station_id":"","pricing_plan_id":"cebpf4jnsgd1na2vs0mg"},{"bike_id":"83dd7646-aa4b-440f-a571-2d33c4bdfbfb","system_id":"levelo_inurba_marseille","lat":43.30961,"lon":5.39045,"is_reserved":false,"is_disabled":false,"rental_uris":{"android":"levelo://app?vid=83dd7646-aa4b-440f-a571-2d33c4bdfbfb","ios":"levelo://app?vid=83dd7646-aa4b-440f-a571-2d33c4bdfbfb"},"vehicle_type_id":"4","last_reported":1743419348,"current_range_meters":9600,"station_id":"ce4bgup2rcd13ifvqco0","pricing_plan_id":"cebpf4jnsgd1na2vs0mg"},{"bike_id":"05813c5b-d4f8-4cd6-8ee5-2ff730a94ee8","system_id":"levelo_inurba_marseille","lat":43.29256,"lon":5.40915,"is_reserved":false,"is_disabled":false,"rental_uris":{"android":"levelo://app?vid=05813c5b-d4f8-4cd6-8ee5-2ff730a94ee8","ios":"levelo://app?vid=05813c5b-d4f8-4cd6-8ee5-2ff730a94ee8"},"vehicle_type_id":"4","last_reported":1743419348,"current_range_meters":9600,"station_id":"ce4bh192rcd13ifvqdc0","pricing_plan_id":"cebpf4jnsgd1na2vs0mg"},{"bike_id":"49b48b9a-235d-4812-beb7-0955b05c9278","system_id":"levelo_inurba_marseille","lat":43.29257,"lon":5.40909,"is_reserved":false,"is_disabled":false,"rental_uris":{"android":"levelo://app?vid=49b48b9a-235d-4812-beb7-0955b05c9278","ios":"levelo://app?vid=49b48b9a-235d-4812-beb7-0955b05c9278"},"vehicle_type_id":"4","last_reported":1743419348,"current_range_meters":9600,"station_id":"ce4bh192rcd13ifvqdc0","pricing_plan_id":"cebpf4jnsgd1na2vs0mg"},{"bike_id":"9c7e6248-09bb-4dfc-8def-6023b27ac66c","system_id":"levelo_inurba_marseille","lat":43.28839,"lon":5.39304,"is_reserved":false,"is_disabled":false,"rental_uris":{"android":"levelo://app?vid=9c7e6248-09bb-4dfc-8def-6023b27ac66c","ios":"levelo://app?vid=9c7e6248-09bb-4dfc-8def-6023b27ac66c"},"vehicle_type_id":"4","last_reported":1743419348,"current_range_meters":9600,"station_id":"ce4bh2p2rcd13ifvqdi0","pricing_plan_id":"cebpf4jnsgd1na2vs0mg"},{"bike_id":"8e81b475-f78a-4a99-844e-4656a13dca51","system_id":"levelo_inurba_marseille","lat":43.29289,"lon":5.36852,"is_reserved":false,"is_disabled":false,"rental_uris":{"android":"levelo://app?vid=8e81b475-f78a-4a99-844e-4656a13dca51","ios":"levelo://app?vid=8e81b475-f78a-4a99-844e-4656a13dca51"},"vehicle_type_id":"4","last_reported":1743419348,"current_range_meters":9600,"station_id":"ce4bhbp2rcd13ifvqesg","pricing_plan_id":"cebpf4jnsgd1na2vs0mg"},{"bike_id":"121010d1-d0ea-475b-97a6-f9054736109c","system_id":"levelo_inurba_marseille","lat":43.23189,"lon":5.39978,"is_reserved":false,"is_disabled":false,"rental_uris":{"android":"levelo://app?vid=121010d1-d0ea-475b-97a6-f9054736109c","ios":"levelo://app?vid=121010d1-d0ea-475b-97a6-f9054736109c"},"vehicle_type_id":"4","last_reported":1743419348,"current_range_meters":9600,"station_id":"ce4bhn12rcd13ifvqgqg","pricing_plan_id":"cebpf4jnsgd1na2vs0mg"},{"bike_id":"3550a36d-3c45-4392-b638-e4bfcd519444","system_id":"levelo_inurba_marseille","lat":43.29907,"lon":5.38139,"is_reserved":false,"is_disabled":false,"rental_uris":{"android":"levelo://app?vid=3550a36d-3c45-4392-b638-e4bfcd519444","ios":"levelo://app?vid=3550a36d-3c45-4392-b638-e4bfcd519444"},"vehicle_type_id":"4","last_reported":1743419348,"current_range_meters":10000,"station_id":"ce4bgj12rcd13ifvqbc0","pricing_plan_id":"cebpf4jnsgd1na2vs0mg"},{"bike_id":"abe50da3-d276-4e2d-89dc-4ba535cd6c8e","system_id":"levelo_inurba_marseille","lat":43.30908,"lon":5.36865,"is_reserved":false,"is_disabled":false,"rental_uris":{"android":"levelo://app?vid=abe50da3-d276-4e2d-89dc-4ba535cd6c8e","ios":"levelo://app?vid=abe50da3-d276-4e2d-89dc-4ba535cd6c8e"},"vehicle_type_id":"4","last_reported":1743419348,"current_range_meters":10000,"station_id":"ce4bgn92rcd13ifvqbvg","pricing_plan_id":"cebpf4jnsgd1na2vs0mg"},{"bike_id":"17883c73-0f61-452e-9f07-988d5933a738","system_id":"levelo_inurba_marseille","lat":43.27068,"lon":5.42261,"is_reserved":false,"is_disabled":false,"rental_uris":{"android":"levelo://app?vid=17883c73-0f61-452e-9f07-988d5933a738","ios":"levelo://app?vid=17883c73-0f61-452e-9f07-988d5933a738"},"vehicle_type_id":"4","last_reported":1743419348,"current_range_meters":10000,"station_id":"ce4bhk92rcd13ifvqgb0","pricing_plan_id":"cebpf4jnsgd1na2vs0mg"},{"bike_id":"443b1ee5-f3f9-4110-95a2-b62fcdfc5153","system_id":"levelo_inurba_marseille","lat":43.23075,"lon":5.35498,"is_reserved":false,"is_disabled":false,"rental_uris":{"android":"levelo://app?vid=443b1ee5-f3f9-4110-95a2-b62fcdfc5153","ios":"levelo://app?vid=443b1ee5-f3f9-4110-95a2-b62fcdfc5153"},"vehicle_type_id":"4","last_reported":1743419348,"current_range_meters":10000,"station_id":"cpo3342slgdg3j2ifvpg","pricing_plan_id":"cebpf4jnsgd1na2vs0mg"},{"bike_id":"0f8f638f-6c59-4dfb-ab4f-882d40e453aa","system_id":"levelo_inurba_marseille","lat":43.29288,"lon":5.42769,"is_reserved":false,"is_disabled":false,"rental_uris":{"android":"levelo://app?vid=0f8f638f-6c59-4dfb-ab4f-882d40e453aa","ios":"levelo://app?vid=0f8f638f-6c59-4dfb-ab4f-882d40e453aa"},"vehicle_type_id":"4","last_reported":1743419348,"current_range_meters":10800,"station_id":"","pricing_plan_id":"cebpf4jnsgd1na2vs0mg"},{"bike_id":"362750b3-6733-46ac-a34d-f586b50f6397","system_id":"levelo_inurba_marseille","lat":43.262,"lon":5.37438,"is_reserved":false,"is_disabled":false,"rental_uris":{"android":"levelo://app?vid=362750b3-6733-46ac-a34d-f586b50f6397","ios":"levelo://app?vid=362750b3-6733-46ac-a34d-f586b50f6397"},"vehicle_type_id":"4","last_reported":1743419348,"current_range_meters":10800,"station_id":"ce4bhgp2rcd13ifvqfc0","pricing_plan_id":"cebpf4jnsgd1na2vs0mg"},{"bike_id":"1a130b3a-a65d-435d-a5a2-838d45f8e81b","system_id":"levelo_inurba_marseille","lat":43.24174,"lon":5.39725,"is_reserved":false,"is_disabled":false,"rental_uris":{"android":"levelo://app?vid=1a130b3a-a65d-435d-a5a2-838d45f8e81b","ios":"levelo://app?vid=1a130b3a-a65d-435d-a5a2-838d45f8e81b"},"vehicle_type_id":"4","last_reported":1743419348,"current_range_meters":10800,"station_id":"ce4bhn12rcd13ifvqgpg","pricing_plan_id":"cebpf4jnsgd1na2vs0mg"},{"bike_id":"2bf31f9f-c5c0-434c-ab3b-b017d7dc966d","system_id":"levelo_inurba_marseille","lat":43.23058,"lon":5.354948,"is_reserved":false,"is_disabled":false,"rental_uris":{"android":"levelo://app?vid=2bf31f9f-c5c0-434c-ab3b-b017d7dc966d","ios":"levelo://app?vid=2bf31f9f-c5c0-434c-ab3b-b017d7dc966d"},"vehicle_type_id":"4","last_reported":1743419348,"current_range_meters":10800,"station_id":"cpo3342slgdg3j2ifvpg","pricing_plan_id":"cebpf4jnsgd1na2vs0mg"},{"bike_id":"f66b0562-2339-474f-acf8-fea355b1a2e2","system_id":"levelo_inurba_marseille","lat":43.30883,"lon":5.37202,"is_reserved":false,"is_disabled":false,"rental_uris":{"android":"levelo://app?vid=f66b0562-2339-474f-acf8-fea355b1a2e2","ios":"levelo://app?vid=f66b0562-2339-474f-acf8-fea355b1a2e2"},"vehicle_type_id":"4","last_reported":1743419348,"current_range_meters":11200,"station_id":"ce4bguh2rcd13ifvqckg","pricing_plan_id":"cebpf4jnsgd1na2vs0mg"},{"bike_id":"5f1b71ed-f979-467c-8b94-862d7dae73db","system_id":"levelo_inurba_marseille","lat":43.29219,"lon":5.36058,"is_reserved":false,"is_disabled":false,"rental_uris":{"android":"levelo://app?vid=5f1b71ed-f979-467c-8b94-862d7dae73db","ios":"levelo://app?vid=5f1b71ed-f979-467c-8b94-862d7dae73db"},"vehicle_type_id":"4","last_reported":1743419348,"current_range_meters":11200,"station_id":"ce4bhbh2rcd13ifvqeqg","pricing_plan_id":"cebpf4jnsgd1na2vs0mg"},{"bike_id":"fa844529-f618-4707-acaf-d3130fd9d61b","system_id":"levelo_inurba_marseille","lat":43.27971,"lon":5.38737,"is_reserved":false,"is_disabled":false,"rental_uris":{"android":"levelo://app?vid=fa844529-f618-4707-acaf-d3130fd9d61b","ios":"levelo://app?vid=fa844529-f618-4707-acaf-d3130fd9d61b"},"vehicle_type_id":"4","last_reported":1743419348,"current_range_meters":11200,"station_id":"ce4bhg12rcd13ifvqf80","pricing_plan_id":"cebpf4jnsgd1na2vs0mg"},{"bike_id":"d012fd68-81fc-49f9-b223-25b1fc30e863","system_id":"levelo_inurba_marseille","lat":43.28688,"lon":5.39982,"is_reserved":false,"is_disabled":false,"rental_uris":{"android":"levelo://app?vid=d012fd68-81fc-49f9-b223-25b1fc30e863","ios":"levelo://app?vid=d012fd68-81fc-49f9-b223-25b1fc30e863"},"vehicle_type_id":"4","last_reported":1743419348,"current_range_meters":11200,"station_id":"ce4bho92rcd13ifvqh3g","pricing_plan_id":"cebpf4jnsgd1na2vs0mg"},{"bike_id":"dbf2c2a2-a48c-4fc8-98b6-09240850e2db","system_id":"levelo_inurba_marseille","lat":43.32368,"lon":5.38879,"is_reserved":false,"is_disabled":false,"rental_uris":{"android":"levelo://app?vid=dbf2c2a2-a48c-4fc8-98b6-09240850e2db","ios":"levelo://app?vid=dbf2c2a2-a48c-4fc8-98b6-09240850e2db"},"vehicle_type_id":"4","last_reported":1743419348,"current_range_meters":11200,"station_id":"ce4bhqp2rcd13ifvqhog","pricing_plan_id":"cebpf4jnsgd1na2vs0mg"},{"bike_id":"51978973-8141-43c4-9a6c-b50852994e60","system_id":"levelo_inurba_marseille","lat":43.32369,"lon":5.38876,"is_reserved":false,"is_disabled":false,"rental_uris":{"android":"levelo://app?vid=51978973-8141-43c4-9a6c-b50852994e60","ios":"levelo://app?vid=51978973-8141-43c4-9a6c-b50852994e60"},"vehicle_type_id":"4","last_reported":1743419348,"current_range_meters":11200,"station_id":"ce4bhqp2rcd13ifvqhog","pricing_plan_id":"cebpf4jnsgd1na2vs0mg"},{"bike_id":"8fa5fb11-10c8-4bed-b75c-83f4c72259ad","system_id":"levelo_inurba_marseille","lat":43.3236,"lon":5.36765,"is_reserved":false,"is_disabled":false,"rental_uris":{"android":"levelo://app?vid=8fa5fb11-10c8-4bed-b75c-83f4c72259ad","ios":"levelo://app?vid=8fa5fb11-10c8-4bed-b75c-83f4c72259ad"},"vehicle_type_id":"4","last_reported":1743419348,"current_range_meters":11200,"station_id":"ce4bhsh2rcd13ifvqi2g","pricing_plan_id":"cebpf4jnsgd1na2vs0mg"},{"bike_id":"d4768257-c448-40e3-972b-88ebc499a01a","system_id":"levelo_inurba_marseille","lat":43.29567,"lon":5.37533,"is_reserved":false,"is_disabled":false,"rental_uris":{"android":"levelo://app?vid=d4768257-c448-40e3-972b-88ebc499a01a","ios":"levelo://app?vid=d4768257-c448-40e3-972b-88ebc499a01a"},"vehicle_type_id":"4","last_reported":1743419348,"current_range_meters":11600,"station_id":"ce4bgh92rcd13ifvqb50","pricing_plan_id":"cebpf4jnsgd1na2vs0mg"},{"bike_id":"5c0e63be-1fcb-4a9d-9fe1-aa707b336b8b","system_id":"levelo_inurba_marseille","lat":43.301435,"lon":5.380038,"is_reserved":false,"is_disabled":false,"rental_uris":{"android":"levelo://app?vid=5c0e63be-1fcb-4a9d-9fe1-aa707b336b8b","ios":"levelo://app?vid=5c0e63be-1fcb-4a9d-9fe1-aa707b336b8b"},"vehicle_type_id":"4","last_reported":1743419348,"current_range_meters":11600,"station_id":"ce4bgup2rcd13ifvqcn0","pricing_plan_id":"cebpf4jnsgd1na2vs0mg"},{"bike_id":"6fa97106-103e-4571-85c0-458067ed9648","system_id":"levelo_inurba_marseille","lat":43.22932,"lon":5.35368,"is_reserved":false,"is_disabled":false,"rental_uris":{"android":"levelo://app?vid=6fa97106-103e-4571-85c0-458067ed9648","ios":"levelo://app?vid=6fa97106-103e-4571-85c0-458067ed9648"},"vehicle_type_id":"4","last_reported":1743419348,"current_range_meters":11600,"station_id":"cpo3532slgdg3j2ikp40","pricing_plan_id":"cebpf4jnsgd1na2vs0mg"},{"bike_id":"24a26cc1-e86a-4373-bbfa-fe2533da907a","system_id":"levelo_inurba_marseille","lat":43.30534,"lon":5.36694,"is_reserved":false,"is_disabled":false,"rental_uris":{"android":"levelo://app?vid=24a26cc1-e86a-4373-bbfa-fe2533da907a","ios":"levelo://app?vid=24a26cc1-e86a-4373-bbfa-fe2533da907a"},"vehicle_type_id":"4","last_reported":1743419348,"current_range_meters":12000,"station_id":"ce4bgrp2rcd13ifvqc9g","pricing_plan_id":"cebpf4jnsgd1na2vs0mg"},{"bike_id":"92fc1d36-1fe7-4bcf-b2c5-fc0e570ebf39","system_id":"levelo_inurba_marseille","lat":43.305413,"lon":5.365257,"is_reserved":false,"is_disabled":false,"rental_uris":{"android":"levelo://app?vid=92fc1d36-1fe7-4bcf-b2c5-fc0e570ebf39","ios":"levelo://app?vid=92fc1d36-1fe7-4bcf-b2c5-fc0e570ebf39"},"vehicle_type_id":"4","last_reported":1743419348,"current_range_meters":12000,"station_id":"ce4bgs12rcd13ifvqcag","pricing_plan_id":"cebpf4jnsgd1na2vs0mg"},{"bike_id":"7f5cf8fb-c9cd-4cb3-9784-abf9046809a5","system_id":"levelo_inurba_marseille","lat":43.29269,"lon":5.38433,"is_reserved":false,"is_disabled":false,"rental_uris":{"android":"levelo://app?vid=7f5cf8fb-c9cd-4cb3-9784-abf9046809a5","ios":"levelo://app?vid=7f5cf8fb-c9cd-4cb3-9784-abf9046809a5"},"vehicle_type_id":"4","last_reported":1743419348,"current_range_meters":12000,"station_id":"ce4bh692rcd13ifvqea0","pricing_plan_id":"cebpf4jnsgd1na2vs0mg"},{"bike_id":"e3ed6a7b-116d-4bce-98f8-0c4519635233","system_id":"levelo_inurba_marseille","lat":43.31945,"lon":5.37443,"is_reserved":false,"is_disabled":false,"rental_uris":{"android":"levelo://app?vid=e3ed6a7b-116d-4bce-98f8-0c4519635233","ios":"levelo://app?vid=e3ed6a7b-116d-4bce-98f8-0c4519635233"},"vehicle_type_id":"4","last_reported":1743419348,"current_range_meters":12400,"station_id":"","pricing_plan_id":"cebpf4jnsgd1na2vs0mg"},{"bike_id":"0ec1bf56-1521-4d0c-9c0f-d51a54f916ad","system_id":"levelo_inurba_marseille","lat":43.296173,"lon":5.37715,"is_reserved":false,"is_disabled":false,"rental_uris":{"android":"levelo://app?vid=0ec1bf56-1521-4d0c-9c0f-d51a54f916ad","ios":"levelo://app?vid=0ec1bf56-1521-4d0c-9c0f-d51a54f916ad"},"vehicle_type_id":"4","last_reported":1743419348,"current_range_meters":12400,"station_id":"ce4bgi92rcd13ifvqb90","pricing_plan_id":"cebpf4jnsgd1na2vs0mg"},{"bike_id":"2b480e4b-b8a7-4f29-8488-c72025a00414","system_id":"levelo_inurba_marseille","lat":43.30452,"lon":5.379,"is_reserved":false,"is_disabled":false,"rental_uris":{"android":"levelo://app?vid=2b480e4b-b8a7-4f29-8488-c72025a00414","ios":"levelo://app?vid=2b480e4b-b8a7-4f29-8488-c72025a00414"},"vehicle_type_id":"4","last_reported":1743419348,"current_range_meters":12400,"station_id":"ce4bgup2rcd13ifvqcn0","pricing_plan_id":"cebpf4jnsgd1na2vs0mg"},{"bike_id":"6dc2da9a-5d5b-4c7d-be49-cacf6d875dbe","system_id":"levelo_inurba_marseille","lat":43.28923,"lon":5.38391,"is_reserved":false,"is_disabled":false,"rental_uris":{"android":"levelo://app?vid=6dc2da9a-5d5b-4c7d-be49-cacf6d875dbe","ios":"levelo://app?vid=6dc2da9a-5d5b-4c7d-be49-cacf6d875dbe"},"vehicle_type_id":"4","last_reported":1743419348,"current_range_meters":12400,"station_id":"ce4bh612rcd13ifvqe6g","pricing_plan_id":"cebpf4jnsgd1na2vs0mg"},{"bike_id":"a49051c8-5f06-4471-9ba7-c2f53f6d878a","system_id":"levelo_inurba_marseille","lat":43.28416,"lon":5.3498,"is_reserved":false,"is_disabled":false,"rental_uris":{"android":"levelo://app?vid=a49051c8-5f06-4471-9ba7-c2f53f6d878a","ios":"levelo://app?vid=a49051c8-5f06-4471-9ba7-c2f53f6d878a"},"vehicle_type_id":"4","last_reported":1743419348,"current_range_meters":12400,"station_id":"ce4bhbh2rcd13ifvqepg","pricing_plan_id":"cebpf4jnsgd1na2vs0mg"},{"bike_id":"41936b70-56e3-44a1-af2c-b79f756f30d4","system_id":"levelo_inurba_marseille","lat":43.30421,"lon":5.41279,"is_reserved":false,"is_disabled":false,"rental_uris":{"android":"levelo://app?vid=41936b70-56e3-44a1-af2c-b79f756f30d4","ios":"levelo://app?vid=41936b70-56e3-44a1-af2c-b79f756f30d4"},"vehicle_type_id":"4","last_reported":1743419348,"current_range_meters":12400,"station_id":"ce4bhop2rcd13ifvqh8g","pricing_plan_id":"cebpf4jnsgd1na2vs0mg"},{"bike_id":"fd63be84-051e-408d-b006-77fc7d83d3c7","system_id":"levelo_inurba_marseille","lat":43.32244,"lon":5.39402,"is_reserved":false,"is_disabled":false,"rental_uris":{"android":"levelo://app?vid=fd63be84-051e-408d-b006-77fc7d83d3c7","ios":"levelo://app?vid=fd63be84-051e-408d-b006-77fc7d83d3c7"},"vehicle_type_id":"4","last_reported":1743419348,"current_range_meters":12800,"station_id":"","pricing_plan_id":"cebpf4jnsgd1na2vs0mg"},{"bike_id":"d9220de9-7056-4c3b-8b37-e22d129e0e0f","system_id":"levelo_inurba_marseille","lat":43.29263,"lon":5.38442,"is_reserved":false,"is_disabled":false,"rental_uris":{"android":"levelo://app?vid=d9220de9-7056-4c3b-8b37-e22d129e0e0f","ios":"levelo://app?vid=d9220de9-7056-4c3b-8b37-e22d129e0e0f"},"vehicle_type_id":"4","last_reported":1743419348,"current_range_meters":12800,"station_id":"ce4bh692rcd13ifvqea0","pricing_plan_id":"cebpf4jnsgd1na2vs0mg"},{"bike_id":"7600e00f-345b-474f-bf8f-5d0482aa16fc","system_id":"levelo_inurba_marseille","lat":43.26959,"lon":5.38642,"is_reserved":false,"is_disabled":false,"rental_uris":{"android":"levelo://app?vid=7600e00f-345b-474f-bf8f-5d0482aa16fc","ios":"levelo://app?vid=7600e00f-345b-474f-bf8f-5d0482aa16fc"},"vehicle_type_id":"4","last_reported":1743419348,"current_range_meters":12800,"station_id":"ce4bhh92rcd13ifvqfh0","pricing_plan_id":"cebpf4jnsgd1na2vs0mg"},{"bike_id":"33ac7997-e875-45e5-a20f-760ee6b4a597","system_id":"levelo_inurba_marseille","lat":43.25918,"lon":5.40867,"is_reserved":false,"is_disabled":false,"rental_uris":{"android":"levelo://app?vid=33ac7997-e875-45e5-a20f-760ee6b4a597","ios":"levelo://app?vid=33ac7997-e875-45e5-a20f-760ee6b4a597"},"vehicle_type_id":"4","last_reported":1743419348,"current_range_meters":12800,"station_id":"ce4bhm92rcd13ifvqglg","pricing_plan_id":"cebpf4jnsgd1na2vs0mg"},{"bike_id":"175bf96e-f60e-4896-8750-ac5a7a12912b","system_id":"levelo_inurba_marseille","lat":43.23142,"lon":5.43716,"is_reserved":false,"is_disabled":false,"rental_uris":{"android":"levelo://app?vid=175bf96e-f60e-4896-8750-ac5a7a12912b","ios":"levelo://app?vid=175bf96e-f60e-4896-8750-ac5a7a12912b"},"vehicle_type_id":"4","last_reported":1743419348,"current_range_meters":12800,"station_id":"ce4bhmp2rcd13ifvqgog","pricing_plan_id":"cebpf4jnsgd1na2vs0mg"},{"bike_id":"c3727a8f-3883-4457-ae61-5d2373be8ae3","system_id":"levelo_inurba_marseille","lat":43.29787,"lon":5.38108,"is_reserved":false,"is_disabled":false,"rental_uris":{"android":"levelo://app?vid=c3727a8f-3883-4457-ae61-5d2373be8ae3","ios":"levelo://app?vid=c3727a8f-3883-4457-ae61-5d2373be8ae3"},"vehicle_type_id":"4","last_reported":1743419348,"current_range_meters":13600,"station_id":"ce4bgip2rcd13ifvqbb0","pricing_plan_id":"cebpf4jnsgd1na2vs0mg"},{"bike_id":"272dfb68-4ced-4551-8c48-e7b2c71f900c","system_id":"levelo_inurba_marseille","lat":43.297877,"lon":5.38087,"is_reserved":false,"is_disabled":false,"rental_uris":{"android":"levelo://app?vid=272dfb68-4ced-4551-8c48-e7b2c71f900c","ios":"levelo://app?vid=272dfb68-4ced-4551-8c48-e7b2c71f900c"},"vehicle_type_id":"4","last_reported":1743419348,"current_range_meters":13600,"station_id":"ce4bgip2rcd13ifvqbb0","pricing_plan_id":"cebpf4jnsgd1na2vs0mg"},{"bike_id":"7e4fc632-a4c3-48e0-a2b9-944afab0b7d6","system_id":"levelo_inurba_marseille","lat":43.30473,"lon":5.37914,"is_reserved":false,"is_disabled":false,"rental_uris":{"android":"levelo://app?vid=7e4fc632-a4c3-48e0-a2b9-944afab0b7d6","ios":"levelo://app?vid=7e4fc632-a4c3-48e0-a2b9-944afab0b7d6"},"vehicle_type_id":"4","last_reported":1743419348,"current_range_meters":13600,"station_id":"ce4bgup2rcd13ifvqcn0","pricing_plan_id":"cebpf4jnsgd1na2vs0mg"},{"bike_id":"5778b92a-5200-4800-a4cb-08db6f9fffcd","system_id":"levelo_inurba_marseille","lat":43.30956,"lon":5.3904,"is_reserved":false,"is_disabled":false,"rental_uris":{"android":"levelo://app?vid=5778b92a-5200-4800-a4cb-08db6f9fffcd","ios":"levelo://app?vid=5778b92a-5200-4800-a4cb-08db6f9fffcd"},"vehicle_type_id":"4","last_reported":1743419348,"current_range_meters":13600,"station_id":"ce4bgup2rcd13ifvqco0","pricing_plan_id":"cebpf4jnsgd1na2vs0mg"},{"bike_id":"975a0229-af5c-4746-83c3-8b2f6c8857e4","system_id":"levelo_inurba_marseille","lat":43.296195,"lon":5.400116,"is_reserved":false,"is_disabled":false,"rental_uris":{"android":"levelo://app?vid=975a0229-af5c-4746-83c3-8b2f6c8857e4","ios":"levelo://app?vid=975a0229-af5c-4746-83c3-8b2f6c8857e4"},"vehicle_type_id":"4","last_reported":1743419348,"current_range_meters":13600,"station_id":"ce4bh312rcd13ifvqdj0","pricing_plan_id":"cebpf4jnsgd1na2vs0mg"},{"bike_id":"80c9594f-b59d-4c44-adce-9cfb1f91822b","system_id":"levelo_inurba_marseille","lat":43.28477,"lon":5.38562,"is_reserved":false,"is_disabled":false,"rental_uris":{"android":"levelo://app?vid=80c9594f-b59d-4c44-adce-9cfb1f91822b","ios":"levelo://app?vid=80c9594f-b59d-4c44-adce-9cfb1f91822b"},"vehicle_type_id":"4","last_reported":1743419348,"current_range_meters":13600,"station_id":"ce4bh8p2rcd13ifvqeb0","pricing_plan_id":"cebpf4jnsgd1na2vs0mg"},{"bike_id":"4c77666d-c871-4779-a332-0a69cbf45fd3","system_id":"levelo_inurba_marseille","lat":43.26561,"lon":5.39016,"is_reserved":false,"is_disabled":false,"rental_uris":{"android":"levelo://app?vid=4c77666d-c871-4779-a332-0a69cbf45fd3","ios":"levelo://app?vid=4c77666d-c871-4779-a332-0a69cbf45fd3"},"vehicle_type_id":"4","last_reported":1743419348,"current_range_meters":13600,"station_id":"ce4bhe12rcd13ifvqf30","pricing_plan_id":"cebpf4jnsgd1na2vs0mg"},{"bike_id":"ac74822a-6f30-45ed-8b29-5edf5b670444","system_id":"levelo_inurba_marseille","lat":43.24071,"lon":5.37756,"is_reserved":false,"is_disabled":false,"rental_uris":{"android":"levelo://app?vid=ac74822a-6f30-45ed-8b29-5edf5b670444","ios":"levelo://app?vid=ac74822a-6f30-45ed-8b29-5edf5b670444"},"vehicle_type_id":"4","last_reported":1743419348,"current_range_meters":13600,"station_id":"ce4bhnp2rcd13ifvqgvg","pricing_plan_id":"cebpf4jnsgd1na2vs0mg"},{"bike_id":"53c7c307-c8f9-4829-a7cf-6f029e4820a4","system_id":"levelo_inurba_marseille","lat":43.31225,"lon":5.36847,"is_reserved":false,"is_disabled":false,"rental_uris":{"android":"levelo://app?vid=53c7c307-c8f9-4829-a7cf-6f029e4820a4","ios":"levelo://app?vid=53c7c307-c8f9-4829-a7cf-6f029e4820a4"},"vehicle_type_id":"4","last_reported":1743419348,"current_range_meters":14000,"station_id":"ce4bgl92rcd13ifvqbq0","pricing_plan_id":"cebpf4jnsgd1na2vs0mg"},{"bike_id":"ebcfd383-523e-452c-a3db-47a779010e20","system_id":"levelo_inurba_marseille","lat":43.30322,"lon":5.40431,"is_reserved":false,"is_disabled":false,"rental_uris":{"android":"levelo://app?vid=ebcfd383-523e-452c-a3db-47a779010e20","ios":"levelo://app?vid=ebcfd383-523e-452c-a3db-47a779010e20"},"vehicle_type_id":"4","last_reported":1743419348,"current_range_meters":14000,"station_id":"ce4bh012rcd13ifvqd10","pricing_plan_id":"cebpf4jnsgd1na2vs0mg"},{"bike_id":"eb673400-c5d4-4307-98d9-d724903561a5","system_id":"levelo_inurba_marseille","lat":43.29886,"lon":5.38906,"is_reserved":false,"is_disabled":false,"rental_uris":{"android":"levelo://app?vid=eb673400-c5d4-4307-98d9-d724903561a5","ios":"levelo://app?vid=eb673400-c5d4-4307-98d9-d724903561a5"},"vehicle_type_id":"4","last_reported":1743419348,"current_range_meters":14000,"station_id":"ce4bh392rcd13ifvqdl0","pricing_plan_id":"cebpf4jnsgd1na2vs0mg"},{"bike_id":"3490d095-f463-4b05-8c7b-5f65bcb53021","system_id":"levelo_inurba_marseille","lat":43.28476,"lon":5.3855,"is_reserved":false,"is_disabled":false,"rental_uris":{"android":"levelo://app?vid=3490d095-f463-4b05-8c7b-5f65bcb53021","ios":"levelo://app?vid=3490d095-f463-4b05-8c7b-5f65bcb53021"},"vehicle_type_id":"4","last_reported":1743419348,"current_range_meters":14000,"station_id":"ce4bh8p2rcd13ifvqeb0","pricing_plan_id":"cebpf4jnsgd1na2vs0mg"},{"bike_id":"2256a5a9-cce1-418d-8e93-736359c5f021","system_id":"levelo_inurba_marseille","lat":43.23155,"lon":5.43705,"is_reserved":false,"is_disabled":false,"rental_uris":{"android":"levelo://app?vid=2256a5a9-cce1-418d-8e93-736359c5f021","ios":"levelo://app?vid=2256a5a9-cce1-418d-8e93-736359c5f021"},"vehicle_type_id":"4","last_reported":1743419348,"current_range_meters":14000,"station_id":"ce4bhmp2rcd13ifvqgog","pricing_plan_id":"cebpf4jnsgd1na2vs0mg"},{"bike_id":"ec6fb640-1770-4a7e-92ce-11af1c15d61d","system_id":"levelo_inurba_marseille","lat":43.32371,"lon":5.38901,"is_reserved":false,"is_disabled":false,"rental_uris":{"android":"levelo://app?vid=ec6fb640-1770-4a7e-92ce-11af1c15d61d","ios":"levelo://app?vid=ec6fb640-1770-4a7e-92ce-11af1c15d61d"},"vehicle_type_id":"4","last_reported":1743419348,"current_range_meters":14000,"station_id":"ce4bhqp2rcd13ifvqhog","pricing_plan_id":"cebpf4jnsgd1na2vs0mg"},{"bike_id":"5f9d53b7-c28c-42e2-b4d4-ef12491291fd","system_id":"levelo_inurba_marseille","lat":43.29004,"lon":5.35614,"is_reserved":false,"is_disabled":false,"rental_uris":{"android":"levelo://app?vid=5f9d53b7-c28c-42e2-b4d4-ef12491291fd","ios":"levelo://app?vid=5f9d53b7-c28c-42e2-b4d4-ef12491291fd"},"vehicle_type_id":"4","last_reported":1743419348,"current_range_meters":14400,"station_id":"ce4bhb92rcd13ifvqen0","pricing_plan_id":"cebpf4jnsgd1na2vs0mg"},{"bike_id":"666b44e7-b710-4f18-81e8-6a0f6cb4fe3b","system_id":"levelo_inurba_marseille","lat":43.31524,"lon":5.37263,"is_reserved":false,"is_disabled":false,"rental_uris":{"android":"levelo://app?vid=666b44e7-b710-4f18-81e8-6a0f6cb4fe3b","ios":"levelo://app?vid=666b44e7-b710-4f18-81e8-6a0f6cb4fe3b"},"vehicle_type_id":"4","last_reported":1743419348,"current_range_meters":14800,"station_id":"","pricing_plan_id":"cebpf4jnsgd1na2vs0mg"},{"bike_id":"9ec59da0-9fc3-446f-b012-d6bf0b078f62","system_id":"levelo_inurba_marseille","lat":43.30091,"lon":5.39094,"is_reserved":false,"is_disabled":false,"rental_uris":{"android":"levelo://app?vid=9ec59da0-9fc3-446f-b012-d6bf0b078f62","ios":"levelo://app?vid=9ec59da0-9fc3-446f-b012-d6bf0b078f62"},"vehicle_type_id":"4","last_reported":1743419348,"current_range_meters":14800,"station_id":"ce4bh192rcd13ifvqdb0","pricing_plan_id":"cebpf4jnsgd1na2vs0mg"},{"bike_id":"e68b71c8-d97d-43f9-873e-c45ca8d5d216","system_id":"levelo_inurba_marseille","lat":43.28664,"lon":5.38687,"is_reserved":false,"is_disabled":false,"rental_uris":{"android":"levelo://app?vid=e68b71c8-d97d-43f9-873e-c45ca8d5d216","ios":"levelo://app?vid=e68b71c8-d97d-43f9-873e-c45ca8d5d216"},"vehicle_type_id":"4","last_reported":1743419348,"current_range_meters":14800,"station_id":"ce4bh492rcd13ifvqdug","pricing_plan_id":"cebpf4jnsgd1na2vs0mg"},{"bike_id":"31349135-1628-41cd-a034-49c95e388b8e","system_id":"levelo_inurba_marseille","lat":43.28264,"lon":5.35062,"is_reserved":false,"is_disabled":false,"rental_uris":{"android":"levelo://app?vid=31349135-1628-41cd-a034-49c95e388b8e","ios":"levelo://app?vid=31349135-1628-41cd-a034-49c95e388b8e"},"vehicle_type_id":"4","last_reported":1743419348,"current_range_meters":14800,"station_id":"ce4bhbp2rcd13ifvqerg","pricing_plan_id":"cebpf4jnsgd1na2vs0mg"},{"bike_id":"cb25180e-133d-4119-9cb0-ce17a1f495b8","system_id":"levelo_inurba_marseille","lat":43.23152,"lon":5.43707,"is_reserved":false,"is_disabled":false,"rental_uris":{"android":"levelo://app?vid=cb25180e-133d-4119-9cb0-ce17a1f495b8","ios":"levelo://app?vid=cb25180e-133d-4119-9cb0-ce17a1f495b8"},"vehicle_type_id":"4","last_reported":1743419348,"current_range_meters":14800,"station_id":"ce4bhmp2rcd13ifvqgog","pricing_plan_id":"cebpf4jnsgd1na2vs0mg"},{"bike_id":"3250f0e8-0eb5-4ad4-b7be-e3278d3853c4","system_id":"levelo_inurba_marseille","lat":43.3108,"lon":5.42431,"is_reserved":false,"is_disabled":false,"rental_uris":{"android":"levelo://app?vid=3250f0e8-0eb5-4ad4-b7be-e3278d3853c4","ios":"levelo://app?vid=3250f0e8-0eb5-4ad4-b7be-e3278d3853c4"},"vehicle_type_id":"4","last_reported":1743419348,"current_range_meters":14800,"station_id":"ce4bhp92rcd13ifvqhag","pricing_plan_id":"cebpf4jnsgd1na2vs0mg"},{"bike_id":"563f1298-5e80-43d7-bd83-8b78e60378b3","system_id":"levelo_inurba_marseille","lat":43.30532,"lon":5.36552,"is_reserved":false,"is_disabled":false,"rental_uris":{"android":"levelo://app?vid=563f1298-5e80-43d7-bd83-8b78e60378b3","ios":"levelo://app?vid=563f1298-5e80-43d7-bd83-8b78e60378b3"},"vehicle_type_id":"4","last_reported":1743419348,"current_range_meters":15200,"station_id":"ce4bgs12rcd13ifvqcag","pricing_plan_id":"cebpf4jnsgd1na2vs0mg"},{"bike_id":"9076cba5-1376-4918-a6a1-9514e129d8a0","system_id":"levelo_inurba_marseille","lat":43.25922,"lon":5.40885,"is_reserved":false,"is_disabled":false,"rental_uris":{"android":"levelo://app?vid=9076cba5-1376-4918-a6a1-9514e129d8a0","ios":"levelo://app?vid=9076cba5-1376-4918-a6a1-9514e129d8a0"},"vehicle_type_id":"4","last_reported":1743419348,"current_range_meters":15200,"station_id":"ce4bhm92rcd13ifvqglg","pricing_plan_id":"cebpf4jnsgd1na2vs0mg"},{"bike_id":"7a894edd-a4a4-40de-8b70-ca9fb3d5e3fd","system_id":"levelo_inurba_marseille","lat":43.3109,"lon":5.42442,"is_reserved":false,"is_disabled":false,"rental_uris":{"android":"levelo://app?vid=7a894edd-a4a4-40de-8b70-ca9fb3d5e3fd","ios":"levelo://app?vid=7a894edd-a4a4-40de-8b70-ca9fb3d5e3fd"},"vehicle_type_id":"4","last_reported":1743419348,"current_range_meters":15200,"station_id":"ce4bhp92rcd13ifvqhag","pricing_plan_id":"cebpf4jnsgd1na2vs0mg"},{"bike_id":"83a443f9-465f-4bde-be32-5b8ee967c6a2","system_id":"levelo_inurba_marseille","lat":43.29799,"lon":5.38073,"is_reserved":false,"is_disabled":false,"rental_uris":{"android":"levelo://app?vid=83a443f9-465f-4bde-be32-5b8ee967c6a2","ios":"levelo://app?vid=83a443f9-465f-4bde-be32-5b8ee967c6a2"},"vehicle_type_id":"4","last_reported":1743419348,"current_range_meters":16000,"station_id":"ce4bgip2rcd13ifvqbb0","pricing_plan_id":"cebpf4jnsgd1na2vs0mg"},{"bike_id":"2cd0b446-77e3-4d5f-a896-4c6c345612ca","system_id":"levelo_inurba_marseille","lat":43.29779,"lon":5.37085,"is_reserved":false,"is_disabled":false,"rental_uris":{"android":"levelo://app?vid=2cd0b446-77e3-4d5f-a896-4c6c345612ca","ios":"levelo://app?vid=2cd0b446-77e3-4d5f-a896-4c6c345612ca"},"vehicle_type_id":"4","last_reported":1743419348,"current_range_meters":16000,"station_id":"ce4bgop2rcd13ifvqc1g","pricing_plan_id":"cebpf4jnsgd1na2vs0mg"},{"bike_id":"be598f2b-0290-4b86-85e8-a1bdcbd5fd1a","system_id":"levelo_inurba_marseille","lat":43.2918,"lon":5.39302,"is_reserved":false,"is_disabled":false,"rental_uris":{"android":"levelo://app?vid=be598f2b-0290-4b86-85e8-a1bdcbd5fd1a","ios":"levelo://app?vid=be598f2b-0290-4b86-85e8-a1bdcbd5fd1a"},"vehicle_type_id":"4","last_reported":1743419348,"current_range_meters":16000,"station_id":"ce4bh192rcd13ifvqdd0","pricing_plan_id":"cebpf4jnsgd1na2vs0mg"},{"bike_id":"25f342cb-5037-4c67-806e-a831819e7dc4","system_id":"levelo_inurba_marseille","lat":43.29262,"lon":5.38455,"is_reserved":false,"is_disabled":false,"rental_uris":{"android":"levelo://app?vid=25f342cb-5037-4c67-806e-a831819e7dc4","ios":"levelo://app?vid=25f342cb-5037-4c67-806e-a831819e7dc4"},"vehicle_type_id":"4","last_reported":1743419348,"current_range_meters":16000,"station_id":"ce4bh692rcd13ifvqea0","pricing_plan_id":"cebpf4jnsgd1na2vs0mg"},{"bike_id":"9f26f6b4-6f8c-41bd-9823-94cef41b22be","system_id":"levelo_inurba_marseille","lat":43.23196,"lon":5.40008,"is_reserved":false,"is_disabled":false,"rental_uris":{"android":"levelo://app?vid=9f26f6b4-6f8c-41bd-9823-94cef41b22be","ios":"levelo://app?vid=9f26f6b4-6f8c-41bd-9823-94cef41b22be"},"vehicle_type_id":"4","last_reported":1743419348,"current_range_meters":16000,"station_id":"ce4bhn12rcd13ifvqgqg","pricing_plan_id":"cebpf4jnsgd1na2vs0mg"},{"bike_id":"2cf23dcb-3089-4527-826b-cb1822eb06f7","system_id":"levelo_inurba_marseille","lat":43.31719,"lon":5.42393,"is_reserved":false,"is_disabled":false,"rental_uris":{"android":"levelo://app?vid=2cf23dcb-3089-4527-826b-cb1822eb06f7","ios":"levelo://app?vid=2cf23dcb-3089-4527-826b-cb1822eb06f7"},"vehicle_type_id":"4","last_reported":1743419348,"current_range_meters":16000,"station_id":"ce4bhp92rcd13ifvqhbg","pricing_plan_id":"cebpf4jnsgd1na2vs0mg"},{"bike_id":"f0ff8df1-930d-4d0d-87f8-1e0dc20a46cf","system_id":"levelo_inurba_marseille","lat":43.29845,"lon":5.36286,"is_reserved":false,"is_disabled":false,"rental_uris":{"android":"levelo://app?vid=f0ff8df1-930d-4d0d-87f8-1e0dc20a46cf","ios":"levelo://app?vid=f0ff8df1-930d-4d0d-87f8-1e0dc20a46cf"},"vehicle_type_id":"4","last_reported":1743419348,"current_range_meters":16400,"station_id":"ce4bgpp2rcd13ifvqc3g","pricing_plan_id":"cebpf4jnsgd1na2vs0mg"},{"bike_id":"bfc1b836-b41f-43cb-9557-cb4b4eaede16","system_id":"levelo_inurba_marseille","lat":43.23146,"lon":5.43718,"is_reserved":false,"is_disabled":false,"rental_uris":{"android":"levelo://app?vid=bfc1b836-b41f-43cb-9557-cb4b4eaede16","ios":"levelo://app?vid=bfc1b836-b41f-43cb-9557-cb4b4eaede16"},"vehicle_type_id":"4","last_reported":1743419348,"current_range_meters":16400,"station_id":"ce4bhmp2rcd13ifvqgog","pricing_plan_id":"cebpf4jnsgd1na2vs0mg"},{"bike_id":"e47bc61d-df2d-41b3-b26b-dd94e6e5e301","system_id":"levelo_inurba_marseille","lat":43.2625,"lon":5.42128,"is_reserved":false,"is_disabled":false,"rental_uris":{"android":"levelo://app?vid=e47bc61d-df2d-41b3-b26b-dd94e6e5e301","ios":"levelo://app?vid=e47bc61d-df2d-41b3-b26b-dd94e6e5e301"},"vehicle_type_id":"4","last_reported":1743419348,"current_range_meters":16800,"station_id":"","pricing_plan_id":"cebpf4jnsgd1na2vs0mg"},{"bike_id":"f9a2a5f0-9c98-43ac-84ca-a9b38b605fa6","system_id":"levelo_inurba_marseille","lat":43.30557,"lon":5.36699,"is_reserved":false,"is_disabled":false,"rental_uris":{"android":"levelo://app?vid=f9a2a5f0-9c98-43ac-84ca-a9b38b605fa6","ios":"levelo://app?vid=f9a2a5f0-9c98-43ac-84ca-a9b38b605fa6"},"vehicle_type_id":"4","last_reported":1743419348,"current_range_meters":16800,"station_id":"ce4bgrp2rcd13ifvqc9g","pricing_plan_id":"cebpf4jnsgd1na2vs0mg"},{"bike_id":"0a861bce-e43b-4e0f-88cb-e1f4c36e3623","system_id":"levelo_inurba_marseille","lat":43.26699,"lon":5.38272,"is_reserved":false,"is_disabled":false,"rental_uris":{"android":"levelo://app?vid=0a861bce-e43b-4e0f-88cb-e1f4c36e3623","ios":"levelo://app?vid=0a861bce-e43b-4e0f-88cb-e1f4c36e3623"},"vehicle_type_id":"4","last_reported":1743419348,"current_range_meters":16800,"station_id":"ce4bhg92rcd13ifvqf90","pricing_plan_id":"cebpf4jnsgd1na2vs0mg"},{"bike_id":"efea8596-e131-41f5-8da7-0e50cbd06339","system_id":"levelo_inurba_marseille","lat":43.24073,"lon":5.37761,"is_reserved":false,"is_disabled":false,"rental_uris":{"android":"levelo://app?vid=efea8596-e131-41f5-8da7-0e50cbd06339","ios":"levelo://app?vid=efea8596-e131-41f5-8da7-0e50cbd06339"},"vehicle_type_id":"4","last_reported":1743419348,"current_range_meters":16800,"station_id":"ce4bhnp2rcd13ifvqgvg","pricing_plan_id":"cebpf4jnsgd1na2vs0mg"},{"bike_id":"1b63ccb2-1298-4d96-b7f3-6ad6cace00e9","system_id":"levelo_inurba_marseille","lat":43.26141,"lon":5.40092,"is_reserved":false,"is_disabled":false,"rental_uris":{"android":"levelo://app?vid=1b63ccb2-1298-4d96-b7f3-6ad6cace00e9","ios":"levelo://app?vid=1b63ccb2-1298-4d96-b7f3-6ad6cace00e9"},"vehicle_type_id":"4","last_reported":1743419348,"current_range_meters":17200,"station_id":"","pricing_plan_id":"cebpf4jnsgd1na2vs0mg"},{"bike_id":"ad74a553-2e4f-4b7a-aae2-d01afe143a5a","system_id":"levelo_inurba_marseille","lat":43.312263,"lon":5.368686,"is_reserved":false,"is_disabled":false,"rental_uris":{"android":"levelo://app?vid=ad74a553-2e4f-4b7a-aae2-d01afe143a5a","ios":"levelo://app?vid=ad74a553-2e4f-4b7a-aae2-d01afe143a5a"},"vehicle_type_id":"4","last_reported":1743419348,"current_range_meters":17200,"station_id":"ce4bgl92rcd13ifvqbq0","pricing_plan_id":"cebpf4jnsgd1na2vs0mg"},{"bike_id":"36d0c2e1-7002-4c6a-9d10-054f77a600c2","system_id":"levelo_inurba_marseille","lat":43.29222,"lon":5.36056,"is_reserved":false,"is_disabled":false,"rental_uris":{"android":"levelo://app?vid=36d0c2e1-7002-4c6a-9d10-054f77a600c2","ios":"levelo://app?vid=36d0c2e1-7002-4c6a-9d10-054f77a600c2"},"vehicle_type_id":"4","last_reported":1743419348,"current_range_meters":17200,"station_id":"ce4bhbh2rcd13ifvqeqg","pricing_plan_id":"cebpf4jnsgd1na2vs0mg"},{"bike_id":"e96b24b9-5928-47a9-a3af-1ab7a754a0d9","system_id":"levelo_inurba_marseille","lat":43.25938,"lon":5.4088,"is_reserved":false,"is_disabled":false,"rental_uris":{"android":"levelo://app?vid=e96b24b9-5928-47a9-a3af-1ab7a754a0d9","ios":"levelo://app?vid=e96b24b9-5928-47a9-a3af-1ab7a754a0d9"},"vehicle_type_id":"4","last_reported":1743419348,"current_range_meters":17200,"station_id":"ce4bhm92rcd13ifvqglg","pricing_plan_id":"cebpf4jnsgd1na2vs0mg"},{"bike_id":"27773214-4312-4127-aa54-e74cba3d6d07","system_id":"levelo_inurba_marseille","lat":43.27794,"lon":5.40742,"is_reserved":false,"is_disabled":false,"rental_uris":{"android":"levelo://app?vid=27773214-4312-4127-aa54-e74cba3d6d07","ios":"levelo://app?vid=27773214-4312-4127-aa54-e74cba3d6d07"},"vehicle_type_id":"4","last_reported":1743419348,"current_range_meters":17200,"station_id":"ce4bhnh2rcd13ifvqgtg","pricing_plan_id":"cebpf4jnsgd1na2vs0mg"},{"bike_id":"572e76ab-f86b-41f4-b70d-8535970ec870","system_id":"levelo_inurba_marseille","lat":43.24064,"lon":5.37744,"is_reserved":false,"is_disabled":false,"rental_uris":{"android":"levelo://app?vid=572e76ab-f86b-41f4-b70d-8535970ec870","ios":"levelo://app?vid=572e76ab-f86b-41f4-b70d-8535970ec870"},"vehicle_type_id":"4","last_reported":1743419348,"current_range_meters":17200,"station_id":"ce4bhnp2rcd13ifvqgvg","pricing_plan_id":"cebpf4jnsgd1na2vs0mg"},{"bike_id":"1730118e-e0a1-4956-a1da-64670897fd34","system_id":"levelo_inurba_marseille","lat":43.30597,"lon":5.37226,"is_reserved":false,"is_disabled":false,"rental_uris":{"android":"levelo://app?vid=1730118e-e0a1-4956-a1da-64670897fd34","ios":"levelo://app?vid=1730118e-e0a1-4956-a1da-64670897fd34"},"vehicle_type_id":"4","last_reported":1743419348,"current_range_meters":17600,"station_id":"ce4bgqh2rcd13ifvqc4g","pricing_plan_id":"cebpf4jnsgd1na2vs0mg"},{"bike_id":"c7c4a409-b0a9-4372-adec-737b17e711c1","system_id":"levelo_inurba_marseille","lat":43.27376,"lon":5.36255,"is_reserved":false,"is_disabled":false,"rental_uris":{"android":"levelo://app?vid=c7c4a409-b0a9-4372-adec-737b17e711c1","ios":"levelo://app?vid=c7c4a409-b0a9-4372-adec-737b17e711c1"},"vehicle_type_id":"4","last_reported":1743419348,"current_range_meters":17600,"station_id":"ce4bhbh2rcd13ifvqeo0","pricing_plan_id":"cebpf4jnsgd1na2vs0mg"},{"bike_id":"1a5a0634-7b0f-4d41-970f-ac3259c064d4","system_id":"levelo_inurba_marseille","lat":43.240845,"lon":5.377479,"is_reserved":false,"is_disabled":false,"rental_uris":{"android":"levelo://app?vid=1a5a0634-7b0f-4d41-970f-ac3259c064d4","ios":"levelo://app?vid=1a5a0634-7b0f-4d41-970f-ac3259c064d4"},"vehicle_type_id":"4","last_reported":1743419348,"current_range_meters":17600,"station_id":"ce4bhnp2rcd13ifvqgvg","pricing_plan_id":"cebpf4jnsgd1na2vs0mg"},{"bike_id":"9d14244e-8219-4c10-adfa-29569ca920fe","system_id":"levelo_inurba_marseille","lat":43.30294,"lon":5.37681,"is_reserved":false,"is_disabled":false,"rental_uris":{"android":"levelo://app?vid=9d14244e-8219-4c10-adfa-29569ca920fe","ios":"levelo://app?vid=9d14244e-8219-4c10-adfa-29569ca920fe"},"vehicle_type_id":"4","last_reported":1743419348,"current_range_meters":18000,"station_id":"ce4bguh2rcd13ifvqcj0","pricing_plan_id":"cebpf4jnsgd1na2vs0mg"},{"bike_id":"95f8b2fd-0d77-4be5-9305-9ed4b70fc1a7","system_id":"levelo_inurba_marseille","lat":43.29255,"lon":5.40903,"is_reserved":false,"is_disabled":false,"rental_uris":{"android":"levelo://app?vid=95f8b2fd-0d77-4be5-9305-9ed4b70fc1a7","ios":"levelo://app?vid=95f8b2fd-0d77-4be5-9305-9ed4b70fc1a7"},"vehicle_type_id":"4","last_reported":1743419348,"current_range_meters":18000,"station_id":"ce4bh192rcd13ifvqdc0","pricing_plan_id":"cebpf4jnsgd1na2vs0mg"},{"bike_id":"b50a1393-62bb-4a3c-8fa2-fa4da6323c23","system_id":"levelo_inurba_marseille","lat":43.27501,"lon":5.42449,"is_reserved":false,"is_disabled":false,"rental_uris":{"android":"levelo://app?vid=b50a1393-62bb-4a3c-8fa2-fa4da6323c23","ios":"levelo://app?vid=b50a1393-62bb-4a3c-8fa2-fa4da6323c23"},"vehicle_type_id":"4","last_reported":1743419348,"current_range_meters":18000,"station_id":"ce4bhn92rcd13ifvqgrg","pricing_plan_id":"cebpf4jnsgd1na2vs0mg"},{"bike_id":"03428933-f654-4911-8e5b-283f35475d09","system_id":"levelo_inurba_marseille","lat":43.24075,"lon":5.37753,"is_reserved":false,"is_disabled":false,"rental_uris":{"android":"levelo://app?vid=03428933-f654-4911-8e5b-283f35475d09","ios":"levelo://app?vid=03428933-f654-4911-8e5b-283f35475d09"},"vehicle_type_id":"4","last_reported":1743419348,"current_range_meters":18000,"station_id":"ce4bhnp2rcd13ifvqgvg","pricing_plan_id":"cebpf4jnsgd1na2vs0mg"},{"bike_id":"575af9f1-1889-4d95-8296-086c78a17029","system_id":"levelo_inurba_marseille","lat":43.29772,"lon":5.37102,"is_reserved":false,"is_disabled":false,"rental_uris":{"android":"levelo://app?vid=575af9f1-1889-4d95-8296-086c78a17029","ios":"levelo://app?vid=575af9f1-1889-4d95-8296-086c78a17029"},"vehicle_type_id":"4","last_reported":1743419348,"current_range_meters":18800,"station_id":"ce4bgop2rcd13ifvqc1g","pricing_plan_id":"cebpf4jnsgd1na2vs0mg"},{"bike_id":"db791d2b-ff2f-4c96-b597-86aaedd5fd06","system_id":"levelo_inurba_marseille","lat":43.30558,"lon":5.36531,"is_reserved":false,"is_disabled":false,"rental_uris":{"android":"levelo://app?vid=db791d2b-ff2f-4c96-b597-86aaedd5fd06","ios":"levelo://app?vid=db791d2b-ff2f-4c96-b597-86aaedd5fd06"},"vehicle_type_id":"4","last_reported":1743419348,"current_range_meters":18800,"station_id":"ce4bgs12rcd13ifvqcag","pricing_plan_id":"cebpf4jnsgd1na2vs0mg"},{"bike_id":"61366c2c-7512-4eed-946c-949053d6f3b8","system_id":"levelo_inurba_marseille","lat":43.29021,"lon":5.38622,"is_reserved":false,"is_disabled":false,"rental_uris":{"android":"levelo://app?vid=61366c2c-7512-4eed-946c-949053d6f3b8","ios":"levelo://app?vid=61366c2c-7512-4eed-946c-949053d6f3b8"},"vehicle_type_id":"4","last_reported":1743419348,"current_range_meters":18800,"station_id":"ce4bh4p2rcd13ifvqe0g","pricing_plan_id":"cebpf4jnsgd1na2vs0mg"},{"bike_id":"a5146082-1373-49c0-9fd8-8b99a23ec7bd","system_id":"levelo_inurba_marseille","lat":43.294128,"lon":5.386147,"is_reserved":false,"is_disabled":false,"rental_uris":{"android":"levelo://app?vid=a5146082-1373-49c0-9fd8-8b99a23ec7bd","ios":"levelo://app?vid=a5146082-1373-49c0-9fd8-8b99a23ec7bd"},"vehicle_type_id":"4","last_reported":1743419348,"current_range_meters":18800,"station_id":"ce4bh512rcd13ifvqe3g","pricing_plan_id":"cebpf4jnsgd1na2vs0mg"},{"bike_id":"6ba274a9-d473-4209-93d7-7dc12aabdc2f","system_id":"levelo_inurba_marseille","lat":43.24802,"lon":5.37458,"is_reserved":false,"is_disabled":false,"rental_uris":{"android":"levelo://app?vid=6ba274a9-d473-4209-93d7-7dc12aabdc2f","ios":"levelo://app?vid=6ba274a9-d473-4209-93d7-7dc12aabdc2f"},"vehicle_type_id":"4","last_reported":1743419348,"current_range_meters":18800,"station_id":"ce4bhgh2rcd13ifvqfb0","pricing_plan_id":"cebpf4jnsgd1na2vs0mg"},{"bike_id":"27e0377c-e6a9-4aee-8db2-26597af89147","system_id":"levelo_inurba_marseille","lat":43.28699,"lon":5.39977,"is_reserved":false,"is_disabled":false,"rental_uris":{"android":"levelo://app?vid=27e0377c-e6a9-4aee-8db2-26597af89147","ios":"levelo://app?vid=27e0377c-e6a9-4aee-8db2-26597af89147"},"vehicle_type_id":"4","last_reported":1743419348,"current_range_meters":18800,"station_id":"ce4bho92rcd13ifvqh3g","pricing_plan_id":"cebpf4jnsgd1na2vs0mg"},{"bike_id":"ac7143d4-a41d-414b-bae7-ea3fa410d0f1","system_id":"levelo_inurba_marseille","lat":43.34146,"lon":5.409,"is_reserved":false,"is_disabled":false,"rental_uris":{"android":"levelo://app?vid=ac7143d4-a41d-414b-bae7-ea3fa410d0f1","ios":"levelo://app?vid=ac7143d4-a41d-414b-bae7-ea3fa410d0f1"},"vehicle_type_id":"4","last_reported":1743419348,"current_range_meters":19200,"station_id":"ce4bhqh2rcd13ifvqhlg","pricing_plan_id":"cebpf4jnsgd1na2vs0mg"},{"bike_id":"dd3db03f-0f43-4986-9ec8-2a76818fb28c","system_id":"levelo_inurba_marseille","lat":43.2321,"lon":5.35567,"is_reserved":false,"is_disabled":false,"rental_uris":{"android":"levelo://app?vid=dd3db03f-0f43-4986-9ec8-2a76818fb28c","ios":"levelo://app?vid=dd3db03f-0f43-4986-9ec8-2a76818fb28c"},"vehicle_type_id":"4","last_reported":1743419348,"current_range_meters":19200,"station_id":"ce4bhu92rcd13ifvqi70","pricing_plan_id":"cebpf4jnsgd1na2vs0mg"},{"bike_id":"9cc49715-3f7a-4a61-8376-f69a2cad650a","system_id":"levelo_inurba_marseille","lat":43.26015,"lon":5.41748,"is_reserved":false,"is_disabled":false,"rental_uris":{"android":"levelo://app?vid=9cc49715-3f7a-4a61-8376-f69a2cad650a","ios":"levelo://app?vid=9cc49715-3f7a-4a61-8376-f69a2cad650a"},"vehicle_type_id":"4","last_reported":1743419348,"current_range_meters":19600,"station_id":"","pricing_plan_id":"cebpf4jnsgd1na2vs0mg"},{"bike_id":"620fc093-36d8-412a-a297-b4c13d82d5ff","system_id":"levelo_inurba_marseille","lat":43.31779,"lon":5.40365,"is_reserved":false,"is_disabled":false,"rental_uris":{"android":"levelo://app?vid=620fc093-36d8-412a-a297-b4c13d82d5ff","ios":"levelo://app?vid=620fc093-36d8-412a-a297-b4c13d82d5ff"},"vehicle_type_id":"4","last_reported":1743419348,"current_range_meters":19600,"station_id":"","pricing_plan_id":"cebpf4jnsgd1na2vs0mg"},{"bike_id":"ff981b15-c84c-46ed-8290-3cfa5d8a8f97","system_id":"levelo_inurba_marseille","lat":43.30927,"lon":5.36841,"is_reserved":false,"is_disabled":false,"rental_uris":{"android":"levelo://app?vid=ff981b15-c84c-46ed-8290-3cfa5d8a8f97","ios":"levelo://app?vid=ff981b15-c84c-46ed-8290-3cfa5d8a8f97"},"vehicle_type_id":"4","last_reported":1743419348,"current_range_meters":19600,"station_id":"ce4bgn92rcd13ifvqbvg","pricing_plan_id":"cebpf4jnsgd1na2vs0mg"},{"bike_id":"8e73c3d9-a6a5-42aa-b926-458ab18c6b60","system_id":"levelo_inurba_marseille","lat":43.31385,"lon":5.36666,"is_reserved":false,"is_disabled":false,"rental_uris":{"android":"levelo://app?vid=8e73c3d9-a6a5-42aa-b926-458ab18c6b60","ios":"levelo://app?vid=8e73c3d9-a6a5-42aa-b926-458ab18c6b60"},"vehicle_type_id":"4","last_reported":1743419348,"current_range_meters":19600,"station_id":"ce4bgr92rcd13ifvqc6g","pricing_plan_id":"cebpf4jnsgd1na2vs0mg"},{"bike_id":"e7a5098b-49f5-4ead-bfc5-67734d3e6767","system_id":"levelo_inurba_marseille","lat":43.30592,"lon":5.39357,"is_reserved":false,"is_disabled":false,"rental_uris":{"android":"levelo://app?vid=e7a5098b-49f5-4ead-bfc5-67734d3e6767","ios":"levelo://app?vid=e7a5098b-49f5-4ead-bfc5-67734d3e6767"},"vehicle_type_id":"4","last_reported":1743419348,"current_range_meters":19600,"station_id":"ce4bh0p2rcd13ifvqd80","pricing_plan_id":"cebpf4jnsgd1na2vs0mg"},{"bike_id":"b7fb95b0-d07b-4c3e-bc66-4604e2a03fa9","system_id":"levelo_inurba_marseille","lat":43.29018,"lon":5.383497,"is_reserved":false,"is_disabled":false,"rental_uris":{"android":"levelo://app?vid=b7fb95b0-d07b-4c3e-bc66-4604e2a03fa9","ios":"levelo://app?vid=b7fb95b0-d07b-4c3e-bc66-4604e2a03fa9"},"vehicle_type_id":"4","last_reported":1743419348,"current_range_meters":19600,"station_id":"ce4bh612rcd13ifvqe6g","pricing_plan_id":"cebpf4jnsgd1na2vs0mg"},{"bike_id":"817d7363-622c-4192-8029-ebd00c7cda1c","system_id":"levelo_inurba_marseille","lat":43.26783,"lon":5.39419,"is_reserved":false,"is_disabled":false,"rental_uris":{"android":"levelo://app?vid=817d7363-622c-4192-8029-ebd00c7cda1c","ios":"levelo://app?vid=817d7363-622c-4192-8029-ebd00c7cda1c"},"vehicle_type_id":"4","last_reported":1743419348,"current_range_meters":19600,"station_id":"ce4bhh12rcd13ifvqfg0","pricing_plan_id":"cebpf4jnsgd1na2vs0mg"},{"bike_id":"82df2f38-28c0-45f9-80e4-be2715a447ca","system_id":"levelo_inurba_marseille","lat":43.27072,"lon":5.42275,"is_reserved":false,"is_disabled":false,"rental_uris":{"android":"levelo://app?vid=82df2f38-28c0-45f9-80e4-be2715a447ca","ios":"levelo://app?vid=82df2f38-28c0-45f9-80e4-be2715a447ca"},"vehicle_type_id":"4","last_reported":1743419348,"current_range_meters":19600,"station_id":"ce4bhk92rcd13ifvqgb0","pricing_plan_id":"cebpf4jnsgd1na2vs0mg"},{"bike_id":"70087762-fcff-4356-a192-6b7aa4dd8cab","system_id":"levelo_inurba_marseille","lat":43.26207,"lon":5.40412,"is_reserved":false,"is_disabled":false,"rental_uris":{"android":"levelo://app?vid=70087762-fcff-4356-a192-6b7aa4dd8cab","ios":"levelo://app?vid=70087762-fcff-4356-a192-6b7aa4dd8cab"},"vehicle_type_id":"4","last_reported":1743419348,"current_range_meters":19600,"station_id":"ce4bhmh2rcd13ifvqgmg","pricing_plan_id":"cebpf4jnsgd1na2vs0mg"},{"bike_id":"aadfd68f-ab0f-43bc-8056-c9d16ec262c0","system_id":"levelo_inurba_marseille","lat":43.29786,"lon":5.38084,"is_reserved":false,"is_disabled":false,"rental_uris":{"android":"levelo://app?vid=aadfd68f-ab0f-43bc-8056-c9d16ec262c0","ios":"levelo://app?vid=aadfd68f-ab0f-43bc-8056-c9d16ec262c0"},"vehicle_type_id":"4","last_reported":1743419348,"current_range_meters":20000,"station_id":"ce4bgip2rcd13ifvqbb0","pricing_plan_id":"cebpf4jnsgd1na2vs0mg"},{"bike_id":"bf3aa0d8-0e8a-4251-be8b-c1735a4d46eb","system_id":"levelo_inurba_marseille","lat":43.30312,"lon":5.40485,"is_reserved":false,"is_disabled":false,"rental_uris":{"android":"levelo://app?vid=bf3aa0d8-0e8a-4251-be8b-c1735a4d46eb","ios":"levelo://app?vid=bf3aa0d8-0e8a-4251-be8b-c1735a4d46eb"},"vehicle_type_id":"4","last_reported":1743419348,"current_range_meters":20000,"station_id":"ce4bh012rcd13ifvqd10","pricing_plan_id":"cebpf4jnsgd1na2vs0mg"},{"bike_id":"c420f36e-ef50-4b04-9236-c571377f0257","system_id":"levelo_inurba_marseille","lat":43.29012,"lon":5.38625,"is_reserved":false,"is_disabled":false,"rental_uris":{"android":"levelo://app?vid=c420f36e-ef50-4b04-9236-c571377f0257","ios":"levelo://app?vid=c420f36e-ef50-4b04-9236-c571377f0257"},"vehicle_type_id":"4","last_reported":1743419348,"current_range_meters":20000,"station_id":"ce4bh4p2rcd13ifvqe0g","pricing_plan_id":"cebpf4jnsgd1na2vs0mg"},{"bike_id":"02c7716e-7b34-42ed-ae97-9b8e42f679c0","system_id":"levelo_inurba_marseille","lat":43.289099,"lon":5.362249,"is_reserved":false,"is_disabled":false,"rental_uris":{"android":"levelo://app?vid=02c7716e-7b34-42ed-ae97-9b8e42f679c0","ios":"levelo://app?vid=02c7716e-7b34-42ed-ae97-9b8e42f679c0"},"vehicle_type_id":"4","last_reported":1743419348,"current_range_meters":20000,"station_id":"ce4bhbp2rcd13ifvqerg","pricing_plan_id":"cebpf4jnsgd1na2vs0mg"},{"bike_id":"75dae32f-059a-4b5b-a5e8-963c6eda2f66","system_id":"levelo_inurba_marseille","lat":43.27518,"lon":5.4106,"is_reserved":false,"is_disabled":false,"rental_uris":{"android":"levelo://app?vid=75dae32f-059a-4b5b-a5e8-963c6eda2f66","ios":"levelo://app?vid=75dae32f-059a-4b5b-a5e8-963c6eda2f66"},"vehicle_type_id":"4","last_reported":1743419348,"current_range_meters":20400,"station_id":"","pricing_plan_id":"cebpf4jnsgd1na2vs0mg"},{"bike_id":"b84981b7-a7f4-45b2-8b44-e0098fb03308","system_id":"levelo_inurba_marseille","lat":43.28477,"lon":5.38415,"is_reserved":false,"is_disabled":false,"rental_uris":{"android":"levelo://app?vid=b84981b7-a7f4-45b2-8b44-e0098fb03308","ios":"levelo://app?vid=b84981b7-a7f4-45b2-8b44-e0098fb03308"},"vehicle_type_id":"4","last_reported":1743419348,"current_range_meters":20400,"station_id":"ce4bh512rcd13ifvqe3g","pricing_plan_id":"cebpf4jnsgd1na2vs0mg"},{"bike_id":"79c7711f-2544-40c7-b3f4-4152f2d62e37","system_id":"levelo_inurba_marseille","lat":43.29256,"lon":5.38445,"is_reserved":false,"is_disabled":false,"rental_uris":{"android":"levelo://app?vid=79c7711f-2544-40c7-b3f4-4152f2d62e37","ios":"levelo://app?vid=79c7711f-2544-40c7-b3f4-4152f2d62e37"},"vehicle_type_id":"4","last_reported":1743419348,"current_range_meters":20400,"station_id":"ce4bh692rcd13ifvqea0","pricing_plan_id":"cebpf4jnsgd1na2vs0mg"},{"bike_id":"782e9737-99a5-49e6-ad94-95b0c04b6195","system_id":"levelo_inurba_marseille","lat":43.246535,"lon":5.381765,"is_reserved":false,"is_disabled":false,"rental_uris":{"android":"levelo://app?vid=782e9737-99a5-49e6-ad94-95b0c04b6195","ios":"levelo://app?vid=782e9737-99a5-49e6-ad94-95b0c04b6195"},"vehicle_type_id":"4","last_reported":1743419348,"current_range_meters":20400,"station_id":"ce4bhh12rcd13ifvqff0","pricing_plan_id":"cebpf4jnsgd1na2vs0mg"},{"bike_id":"b80ee275-2592-4659-b2e9-175feb839700","system_id":"levelo_inurba_marseille","lat":43.23245,"lon":5.3553,"is_reserved":false,"is_disabled":false,"rental_uris":{"android":"levelo://app?vid=b80ee275-2592-4659-b2e9-175feb839700","ios":"levelo://app?vid=b80ee275-2592-4659-b2e9-175feb839700"},"vehicle_type_id":"4","last_reported":1743419348,"current_range_meters":20800,"station_id":"","pricing_plan_id":"cebpf4jnsgd1na2vs0mg"},{"bike_id":"e0db37d4-74ed-4ccf-8ac7-22d633cffff3","system_id":"levelo_inurba_marseille","lat":43.302927,"lon":5.4016,"is_reserved":false,"is_disabled":false,"rental_uris":{"android":"levelo://app?vid=e0db37d4-74ed-4ccf-8ac7-22d633cffff3","ios":"levelo://app?vid=e0db37d4-74ed-4ccf-8ac7-22d633cffff3"},"vehicle_type_id":"4","last_reported":1743419348,"current_range_meters":20800,"station_id":"ce4bh012rcd13ifvqd10","pricing_plan_id":"cebpf4jnsgd1na2vs0mg"},{"bike_id":"6e5e654a-0636-4986-a872-23dc30808bce","system_id":"levelo_inurba_marseille","lat":43.28614,"lon":5.35103,"is_reserved":false,"is_disabled":false,"rental_uris":{"android":"levelo://app?vid=6e5e654a-0636-4986-a872-23dc30808bce","ios":"levelo://app?vid=6e5e654a-0636-4986-a872-23dc30808bce"},"vehicle_type_id":"4","last_reported":1743419348,"current_range_meters":20800,"station_id":"ce4bhch2rcd13ifvqeug","pricing_plan_id":"cebpf4jnsgd1na2vs0mg"},{"bike_id":"aeaafd7b-9c7b-4427-a094-92b8f5bbda98","system_id":"levelo_inurba_marseille","lat":43.26194,"lon":5.37446,"is_reserved":false,"is_disabled":false,"rental_uris":{"android":"levelo://app?vid=aeaafd7b-9c7b-4427-a094-92b8f5bbda98","ios":"levelo://app?vid=aeaafd7b-9c7b-4427-a094-92b8f5bbda98"},"vehicle_type_id":"4","last_reported":1743419348,"current_range_meters":20800,"station_id":"ce4bhgp2rcd13ifvqfc0","pricing_plan_id":"cebpf4jnsgd1na2vs0mg"},{"bike_id":"07c63968-d362-43a8-894b-822794997954","system_id":"levelo_inurba_marseille","lat":43.282654,"lon":5.350561,"is_reserved":false,"is_disabled":false,"rental_uris":{"android":"levelo://app?vid=07c63968-d362-43a8-894b-822794997954","ios":"levelo://app?vid=07c63968-d362-43a8-894b-822794997954"},"vehicle_type_id":"4","last_reported":1743419348,"current_range_meters":21600,"station_id":"","pricing_plan_id":"cebpf4jnsgd1na2vs0mg"},{"bike_id":"9c9137b0-6693-49a6-bedc-f2ea63e283a3","system_id":"levelo_inurba_marseille","lat":43.3051,"lon":5.37057,"is_reserved":false,"is_disabled":false,"rental_uris":{"android":"levelo://app?vid=9c9137b0-6693-49a6-bedc-f2ea63e283a3","ios":"levelo://app?vid=9c9137b0-6693-49a6-bedc-f2ea63e283a3"},"vehicle_type_id":"4","last_reported":1743419348,"current_range_meters":21600,"station_id":"","pricing_plan_id":"cebpf4jnsgd1na2vs0mg"},{"bike_id":"8a0ebc13-fe1a-458b-979a-381428e1e19d","system_id":"levelo_inurba_marseille","lat":43.29077,"lon":5.37161,"is_reserved":false,"is_disabled":false,"rental_uris":{"android":"levelo://app?vid=8a0ebc13-fe1a-458b-979a-381428e1e19d","ios":"levelo://app?vid=8a0ebc13-fe1a-458b-979a-381428e1e19d"},"vehicle_type_id":"4","last_reported":1743419348,"current_range_meters":21600,"station_id":"ce4bh5p2rcd13ifvqe4g","pricing_plan_id":"cebpf4jnsgd1na2vs0mg"},{"bike_id":"d98846b2-d6d6-4059-ac68-1f98769932a5","system_id":"levelo_inurba_marseille","lat":43.28275,"lon":5.35069,"is_reserved":false,"is_disabled":false,"rental_uris":{"android":"levelo://app?vid=d98846b2-d6d6-4059-ac68-1f98769932a5","ios":"levelo://app?vid=d98846b2-d6d6-4059-ac68-1f98769932a5"},