{"last_updated":1746774634,"ttl":60,"version":"2.2","data":{"bikes":[{"bike_id":"0bd7637c-53b6-4ef6-b9b2-364026010703","system_id":"levelo_inurba_marseille","lat":43.26954,"lon":5.38633,"is_reserved":false,"is_disabled":false,"rental_uris":{"android":"levelo://app?vid=0bd7637c-53b6-4ef6-b9b2-364026010703","ios":"levelo://app?vid=0bd7637c-53b6-4ef6-b9b2-364026010703"},"vehicle_type_id":"4","last_reported":1746774634,"current_range_meters":2800,"station_id":"ce4bhh92rcd13ifvqfh0","pricing_plan_id":"cebpf4jnsgd1na2vs0mg"},{"bike_id":"8873594a-89a0-4085-9263-c64f00cf22db","system_id":"levelo_inurba_marseille","lat":43.29572,"lon":5.37528,"is_reserved":false,"is_disabled":false,"rental_uris":{"android":"levelo://app?vid=8873594a-89a0-4085-9263-c64f00cf22db","ios":"levelo://app?vid=8873594a-89a0-4085-9263-c64f00cf22db"},"vehicle_type_id":"4","last_reported":1746774634,"current_range_meters":2800,"station_id":"ce4bgh92rcd13ifvqb50","pricing_plan_id":"cebpf4jnsgd1na2vs0mg"},{"bike_id":"031f3005-9039-4979-ae05-9b52dcf4d5f9","system_id":"levelo_inurba_marseille","lat":43.31175,"lon":5.38718,"is_reserved":false,"is_disabled":false,"rental_uris":{"android":"levelo://app?vid=031f3005-9039-4979-ae05-9b52dcf4d5f9","ios":"levelo://app?vid=031f3005-9039-4979-ae05-9b52dcf4d5f9"},"vehicle_type_id":"4","last_reported":1746774634,"current_range_meters":2800,"station_id":"ce4bgv12rcd13ifvqcp0","pricing_plan_id":"cebpf4jnsgd1na2vs0mg"},{"bike_id":"14e638c3-6ba0-4ad0-8ab0-153f53fa1fbe","system_id":"levelo_inurba_marseille","lat":43.229229,"lon":5.353771,"is_reserved":false,"is_disabled":false,"rental_uris":{"android":"levelo://app?vid=14e638c3-6ba0-4ad0-8ab0-153f53fa1fbe","ios":"levelo://app?vid=14e638c3-6ba0-4ad0-8ab0-153f53fa1fbe"},"vehicle_type_id":"4","last_reported":1746774634,"current_range_meters":3200,"station_id":"cpo3532slgdg3j2ikp40","pricing_plan_id":"cebpf4jnsgd1na2vs0mg"},{"bike_id":"472e3c1a-d6e1-4dbb-b1ce-cd54ea716381","system_id":"levelo_inurba_marseille","lat":43.24597,"lon":5.40179,"is_reserved":false,"is_disabled":false,"rental_uris":{"android":"levelo://app?vid=472e3c1a-d6e1-4dbb-b1ce-cd54ea716381","ios":"levelo://app?vid=472e3c1a-d6e1-4dbb-b1ce-cd54ea716381"},"vehicle_type_id":"4","last_reported":1746774634,"current_range_meters":3200,"station_id":"","pricing_plan_id":"cebpf4jnsgd1na2vs0mg"},{"bike_id":"79cb60e3-05a2-4a51-a445-210a086a015e","system_id":"levelo_inurba_marseille","lat":43.28477,"lon":5.38431,"is_reserved":false,"is_disabled":false,"rental_uris":{"android":"levelo://app?vid=79cb60e3-05a2-4a51-a445-210a086a015e","ios":"levelo://app?vid=79cb60e3-05a2-4a51-a445-210a086a015e"},"vehicle_type_id":"4","last_reported":1746774634,"current_range_meters":3200,"station_id":"ce4bh512rcd13ifvqe3g","pricing_plan_id":"cebpf4jnsgd1na2vs0mg"},{"bike_id":"0b0b9891-bf29-4b14-8487-1cf7d84f95a2","system_id":"levelo_inurba_marseille","lat":43.30947,"lon":5.39044,"is_reserved":false,"is_disabled":false,"rental_uris":{"android":"levelo://app?vid=0b0b9891-bf29-4b14-8487-1cf7d84f95a2","ios":"levelo://app?vid=0b0b9891-bf29-4b14-8487-1cf7d84f95a2"},"vehicle_type_id":"4","last_reported":1746774634,"current_range_meters":3200,"station_id":"ce4bgup2rcd13ifvqco0","pricing_plan_id":"cebpf4jnsgd1na2vs0mg"},{"bike_id":"87566af3-ff08-4ceb-83c6-0614d0d24b87","system_id":"levelo_inurba_marseille","lat":43.28593,"lon":5.36757,"is_reserved":false,"is_disabled":true,"rental_uris":{"android":"levelo://app?vid=87566af3-ff08-4ceb-83c6-0614d0d24b87","ios":"levelo://app?vid=87566af3-ff08-4ceb-83c6-0614d0d24b87"},"vehicle_type_id":"4","last_reported":1746774634,"current_range_meters":3600,"station_id":"","pricing_plan_id":"cebpf4jnsgd1na2vs0mg"},{"bike_id":"24a02016-a932-4bb5-b40e-e65338592af4","system_id":"levelo_inurba_marseille","lat":43.25,"lon":5.38942,"is_reserved":false,"is_disabled":false,"rental_uris":{"android":"levelo://app?vid=24a02016-a932-4bb5-b40e-e65338592af4","ios":"levelo://app?vid=24a02016-a932-4bb5-b40e-e65338592af4"},"vehicle_type_id":"4","last_reported":1746774634,"current_range_meters":3600,"station_id":"ce4bhgp2rcd13ifvqfd0","pricing_plan_id":"cebpf4jnsgd1na2vs0mg"},{"bike_id":"a028d979-2c70-4a8a-ba05-0d12e62aa6db","system_id":"levelo_inurba_marseille","lat":43.28359,"lon":5.38108,"is_reserved":false,"is_disabled":false,"rental_uris":{"android":"levelo://app?vid=a028d979-2c70-4a8a-ba05-0d12e62aa6db","ios":"levelo://app?vid=a028d979-2c70-4a8a-ba05-0d12e62aa6db"},"vehicle_type_id":"4","last_reported":1746774634,"current_range_meters":4000,"station_id":"ce4bh412rcd13ifvqdr0","pricing_plan_id":"cebpf4jnsgd1na2vs0mg"},{"bike_id":"30a57150-f7d3-44ff-a719-985e18fc9a3a","system_id":"levelo_inurba_marseille","lat":43.31111,"lon":5.37769,"is_reserved":false,"is_disabled":false,"rental_uris":{"android":"levelo://app?vid=30a57150-f7d3-44ff-a719-985e18fc9a3a","ios":"levelo://app?vid=30a57150-f7d3-44ff-a719-985e18fc9a3a"},"vehicle_type_id":"4","last_reported":1746774634,"current_range_meters":4800,"station_id":"ce4bgt92rcd13ifvqcg0","pricing_plan_id":"cebpf4jnsgd1na2vs0mg"},{"bike_id":"44fe0ebc-ac6f-4ca0-8427-6d28db5bee6c","system_id":"levelo_inurba_marseille","lat":43.26655,"lon":5.39023,"is_reserved":false,"is_disabled":false,"rental_uris":{"android":"levelo://app?vid=44fe0ebc-ac6f-4ca0-8427-6d28db5bee6c","ios":"levelo://app?vid=44fe0ebc-ac6f-4ca0-8427-6d28db5bee6c"},"vehicle_type_id":"4","last_reported":1746774634,"current_range_meters":4800,"station_id":"ce4bhe12rcd13ifvqf30","pricing_plan_id":"cebpf4jnsgd1na2vs0mg"},{"bike_id":"341f6043-e914-44c4-896b-32102a500281","system_id":"levelo_inurba_marseille","lat":43.3153,"lon":5.37315,"is_reserved":false,"is_disabled":false,"rental_uris":{"android":"levelo://app?vid=341f6043-e914-44c4-896b-32102a500281","ios":"levelo://app?vid=341f6043-e914-44c4-896b-32102a500281"},"vehicle_type_id":"4","last_reported":1746774634,"current_range_meters":5600,"station_id":"ce4bgt12rcd13ifvqcd0","pricing_plan_id":"cebpf4jnsgd1na2vs0mg"},{"bike_id":"c91b378d-26a5-4ed8-99d4-6b3ec43dd75e","system_id":"levelo_inurba_marseille","lat":43.240723,"lon":5.37713,"is_reserved":false,"is_disabled":false,"rental_uris":{"android":"levelo://app?vid=c91b378d-26a5-4ed8-99d4-6b3ec43dd75e","ios":"levelo://app?vid=c91b378d-26a5-4ed8-99d4-6b3ec43dd75e"},"vehicle_type_id":"4","last_reported":1746774634,"current_range_meters":5600,"station_id":"ce4bhnp2rcd13ifvqgvg","pricing_plan_id":"cebpf4jnsgd1na2vs0mg"},{"bike_id":"79ff6315-b314-4711-842a-c9b72d408e6e","system_id":"levelo_inurba_marseille","lat":43.31354,"lon":5.36729,"is_reserved":false,"is_disabled":false,"rental_uris":{"android":"levelo://app?vid=79ff6315-b314-4711-842a-c9b72d408e6e","ios":"levelo://app?vid=79ff6315-b314-4711-842a-c9b72d408e6e"},"vehicle_type_id":"4","last_reported":1746774634,"current_range_meters":6400,"station_id":"ce4bgr92rcd13ifvqc6g","pricing_plan_id":"cebpf4jnsgd1na2vs0mg"},{"bike_id":"b15fe93b-1059-4d75-abd3-040e349ce402","system_id":"levelo_inurba_marseille","lat":43.3012,"lon":5.37004,"is_reserved":false,"is_disabled":false,"rental_uris":{"android":"levelo://app?vid=b15fe93b-1059-4d75-abd3-040e349ce402","ios":"levelo://app?vid=b15fe93b-1059-4d75-abd3-040e349ce402"},"vehicle_type_id":"4","last_reported":1746774634,"current_range_meters":6400,"station_id":"","pricing_plan_id":"cebpf4jnsgd1na2vs0mg"},{"bike_id":"24f45cdb-3ffb-4dce-871c-ddfe126af050","system_id":"levelo_inurba_marseille","lat":43.27943,"lon":5.41045,"is_reserved":false,"is_disabled":false,"rental_uris":{"android":"levelo://app?vid=24f45cdb-3ffb-4dce-871c-ddfe126af050","ios":"levelo://app?vid=24f45cdb-3ffb-4dce-871c-ddfe126af050"},"vehicle_type_id":"4","last_reported":1746774634,"current_range_meters":6800,"station_id":"ce4bhnp2rcd13ifvqh0g","pricing_plan_id":"cebpf4jnsgd1na2vs0mg"},{"bike_id":"0e88dbb1-1f15-42ae-8eb0-9bdc7d6a246d","system_id":"levelo_inurba_marseille","lat":43.24999,"lon":5.38931,"is_reserved":false,"is_disabled":false,"rental_uris":{"android":"levelo://app?vid=0e88dbb1-1f15-42ae-8eb0-9bdc7d6a246d","ios":"levelo://app?vid=0e88dbb1-1f15-42ae-8eb0-9bdc7d6a246d"},"vehicle_type_id":"4","last_reported":1746774634,"current_range_meters":6400,"station_id":"ce4bhgp2rcd13ifvqfd0","pricing_plan_id":"cebpf4jnsgd1na2vs0mg"},{"bike_id":"8f9f14f5-32c0-4abb-83fb-b1e302581157","system_id":"levelo_inurba_marseille","lat":43.25941,"lon":5.409,"is_reserved":false,"is_disabled":false,"rental_uris":{"android":"levelo://app?vid=8f9f14f5-32c0-4abb-83fb-b1e302581157","ios":"levelo://app?vid=8f9f14f5-32c0-4abb-83fb-b1e302581157"},"vehicle_type_id":"4","last_reported":1746774634,"current_range_meters":6800,"station_id":"ce4bhm92rcd13ifvqglg","pricing_plan_id":"cebpf4jnsgd1na2vs0mg"},{"bike_id":"16e89d24-e296-49c4-aadb-4d31758df010","system_id":"levelo_inurba_marseille","lat":43.28942,"lon":5.38404,"is_reserved":false,"is_disabled":false,"rental_uris":{"android":"levelo://app?vid=16e89d24-e296-49c4-aadb-4d31758df010","ios":"levelo://app?vid=16e89d24-e296-49c4-aadb-4d31758df010"},"vehicle_type_id":"4","last_reported":1746774634,"current_range_meters":5600,"station_id":"ce4bh612rcd13ifvqe6g","pricing_plan_id":"cebpf4jnsgd1na2vs0mg"},{"bike_id":"61d9493e-8d32-4bed-954b-7a20b13db452","system_id":"levelo_inurba_marseille","lat":43.30273,"lon":5.3772,"is_reserved":false,"is_disabled":false,"rental_uris":{"android":"levelo://app?vid=61d9493e-8d32-4bed-954b-7a20b13db452","ios":"levelo://app?vid=61d9493e-8d32-4bed-954b-7a20b13db452"},"vehicle_type_id":"4","last_reported":1746774634,"current_range_meters":6800,"station_id":"ce4bguh2rcd13ifvqcj0","pricing_plan_id":"cebpf4jnsgd1na2vs0mg"},{"bike_id":"1f281ed5-8e05-43ba-b583-cf4e73bd4cb4","system_id":"levelo_inurba_marseille","lat":43.321194,"lon":5.367786,"is_reserved":false,"is_disabled":false,"rental_uris":{"android":"levelo://app?vid=1f281ed5-8e05-43ba-b583-cf4e73bd4cb4","ios":"levelo://app?vid=1f281ed5-8e05-43ba-b583-cf4e73bd4cb4"},"vehicle_type_id":"4","last_reported":1746774634,"current_range_meters":6800,"station_id":"ce4bhrh2rcd13ifvqhug","pricing_plan_id":"cebpf4jnsgd1na2vs0mg"},{"bike_id":"6d27cd6b-8227-4167-83ab-3a9b25df353a","system_id":"levelo_inurba_marseille","lat":43.30946,"lon":5.39005,"is_reserved":false,"is_disabled":false,"rental_uris":{"android":"levelo://app?vid=6d27cd6b-8227-4167-83ab-3a9b25df353a","ios":"levelo://app?vid=6d27cd6b-8227-4167-83ab-3a9b25df353a"},"vehicle_type_id":"4","last_reported":1746774634,"current_range_meters":6800,"station_id":"ce4bgup2rcd13ifvqco0","pricing_plan_id":"cebpf4jnsgd1na2vs0mg"},{"bike_id":"47fa3ad9-3195-4af3-8ab2-5f365426c286","system_id":"levelo_inurba_marseille","lat":43.28364,"lon":5.38623,"is_reserved":false,"is_disabled":false,"rental_uris":{"android":"levelo://app?vid=47fa3ad9-3195-4af3-8ab2-5f365426c286","ios":"levelo://app?vid=47fa3ad9-3195-4af3-8ab2-5f365426c286"},"vehicle_type_id":"4","last_reported":1746774634,"current_range_meters":6800,"station_id":"ce4bh492rcd13ifvqdvg","pricing_plan_id":"cebpf4jnsgd1na2vs0mg"},{"bike_id":"3380be41-5609-4f83-92ea-376897d27f4f","system_id":"levelo_inurba_marseille","lat":43.231872,"lon":5.399949,"is_reserved":false,"is_disabled":false,"rental_uris":{"android":"levelo://app?vid=3380be41-5609-4f83-92ea-376897d27f4f","ios":"levelo://app?vid=3380be41-5609-4f83-92ea-376897d27f4f"},"vehicle_type_id":"4","last_reported":1746774634,"current_range_meters":6800,"station_id":"ce4bhn12rcd13ifvqgqg","pricing_plan_id":"cebpf4jnsgd1na2vs0mg"},{"bike_id":"94548bbc-0565-40b2-9e19-d4d8f4a3e175","system_id":"levelo_inurba_marseille","lat":43.23195,"lon":5.35594,"is_reserved":false,"is_disabled":true,"rental_uris":{"android":"levelo://app?vid=94548bbc-0565-40b2-9e19-d4d8f4a3e175","ios":"levelo://app?vid=94548bbc-0565-40b2-9e19-d4d8f4a3e175"},"vehicle_type_id":"4","last_reported":1746774634,"current_range_meters":7200,"station_id":"ce4bhu92rcd13ifvqi70","pricing_plan_id":"cebpf4jnsgd1na2vs0mg"},{"bike_id":"8b698a34-fbf5-484e-9ecb-26e22393bc90","system_id":"levelo_inurba_marseille","lat":43.330302,"lon":5.39041,"is_reserved":false,"is_disabled":false,"rental_uris":{"android":"levelo://app?vid=8b698a34-fbf5-484e-9ecb-26e22393bc90","ios":"levelo://app?vid=8b698a34-fbf5-484e-9ecb-26e22393bc90"},"vehicle_type_id":"4","last_reported":1746774634,"current_range_meters":7200,"station_id":"ce4bhr92rcd13ifvqhrg","pricing_plan_id":"cebpf4jnsgd1na2vs0mg"},{"bike_id":"33e117f2-538f-49bf-8892-acc47b91dd92","system_id":"levelo_inurba_marseille","lat":43.3229,"lon":5.38266,"is_reserved":false,"is_disabled":false,"rental_uris":{"android":"levelo://app?vid=33e117f2-538f-49bf-8892-acc47b91dd92","ios":"levelo://app?vid=33e117f2-538f-49bf-8892-acc47b91dd92"},"vehicle_type_id":"4","last_reported":1746774634,"current_range_meters":7200,"station_id":"ce4bhr12rcd13ifvqhqg","pricing_plan_id":"cebpf4jnsgd1na2vs0mg"},{"bike_id":"b6a4bdb2-31a2-432b-9697-0659b61f4f64","system_id":"levelo_inurba_marseille","lat":43.24085,"lon":5.3775,"is_reserved":false,"is_disabled":false,"rental_uris":{"android":"levelo://app?vid=b6a4bdb2-31a2-432b-9697-0659b61f4f64","ios":"levelo://app?vid=b6a4bdb2-31a2-432b-9697-0659b61f4f64"},"vehicle_type_id":"4","last_reported":1746774634,"current_range_meters":7200,"station_id":"ce4bhnp2rcd13ifvqgvg","pricing_plan_id":"cebpf4jnsgd1na2vs0mg"},{"bike_id":"165087f0-ecec-4039-a450-d02638c79528","system_id":"levelo_inurba_marseille","lat":43.313527,"lon":5.366973,"is_reserved":false,"is_disabled":false,"rental_uris":{"android":"levelo://app?vid=165087f0-ecec-4039-a450-d02638c79528","ios":"levelo://app?vid=165087f0-ecec-4039-a450-d02638c79528"},"vehicle_type_id":"4","last_reported":1746774634,"current_range_meters":7200,"station_id":"ce4bgr92rcd13ifvqc6g","pricing_plan_id":"cebpf4jnsgd1na2vs0mg"},{"bike_id":"40b09ade-eb7f-4daa-b44c-cdb4bfa2c446","system_id":"levelo_inurba_marseille","lat":43.30464,"lon":5.37905,"is_reserved":false,"is_disabled":false,"rental_uris":{"android":"levelo://app?vid=40b09ade-eb7f-4daa-b44c-cdb4bfa2c446","ios":"levelo://app?vid=40b09ade-eb7f-4daa-b44c-cdb4bfa2c446"},"vehicle_type_id":"4","last_reported":1746774634,"current_range_meters":7200,"station_id":"ce4bgup2rcd13ifvqcn0","pricing_plan_id":"cebpf4jnsgd1na2vs0mg"},{"bike_id":"916d67d8-ccd1-41b8-923b-e1ce6259ee20","system_id":"levelo_inurba_marseille","lat":43.3075,"lon":5.37423,"is_reserved":false,"is_disabled":false,"rental_uris":{"android":"levelo://app?vid=916d67d8-ccd1-41b8-923b-e1ce6259ee20","ios":"levelo://app?vid=916d67d8-ccd1-41b8-923b-e1ce6259ee20"},"vehicle_type_id":"4","last_reported":1746774634,"current_range_meters":7200,"station_id":"","pricing_plan_id":"cebpf4jnsgd1na2vs0mg"},{"bike_id":"c43ed3ca-340d-43d7-8ad5-7e6b2386ac59","system_id":"levelo_inurba_marseille","lat":43.29878,"lon":5.43656,"is_reserved":false,"is_disabled":false,"rental_uris":{"android":"levelo://app?vid=c43ed3ca-340d-43d7-8ad5-7e6b2386ac59","ios":"levelo://app?vid=c43ed3ca-340d-43d7-8ad5-7e6b2386ac59"},"vehicle_type_id":"4","last_reported":1746774634,"current_range_meters":7200,"station_id":"ce4bhpp2rcd13ifvqhfg","pricing_plan_id":"cebpf4jnsgd1na2vs0mg"},{"bike_id":"00138ee9-dd3d-4b66-85a7-f8ff69dd7e90","system_id":"levelo_inurba_marseille","lat":43.28495,"lon":5.3858,"is_reserved":false,"is_disabled":true,"rental_uris":{"android":"levelo://app?vid=00138ee9-dd3d-4b66-85a7-f8ff69dd7e90","ios":"levelo://app?vid=00138ee9-dd3d-4b66-85a7-f8ff69dd7e90"},"vehicle_type_id":"4","last_reported":1746774634,"current_range_meters":7200,"station_id":"ce4bh8p2rcd13ifvqeb0","pricing_plan_id":"cebpf4jnsgd1na2vs0mg"},{"bike_id":"11f2f90e-07ea-45fc-bea7-59b140809475","system_id":"levelo_inurba_marseille","lat":43.284839,"lon":5.385861,"is_reserved":false,"is_disabled":false,"rental_uris":{"android":"levelo://app?vid=11f2f90e-07ea-45fc-bea7-59b140809475","ios":"levelo://app?vid=11f2f90e-07ea-45fc-bea7-59b140809475"},"vehicle_type_id":"4","last_reported":1746774634,"current_range_meters":7200,"station_id":"ce4bh8p2rcd13ifvqeb0","pricing_plan_id":"cebpf4jnsgd1na2vs0mg"},{"bike_id":"59b15bd5-ad81-47d1-8912-c2efa57e7e1f","system_id":"levelo_inurba_marseille","lat":43.29313,"lon":5.37184,"is_reserved":false,"is_disabled":true,"rental_uris":{"android":"levelo://app?vid=59b15bd5-ad81-47d1-8912-c2efa57e7e1f","ios":"levelo://app?vid=59b15bd5-ad81-47d1-8912-c2efa57e7e1f"},"vehicle_type_id":"4","last_reported":1746774634,"current_range_meters":8000,"station_id":"ce4bgh92rcd13ifvqb40","pricing_plan_id":"cebpf4jnsgd1na2vs0mg"},{"bike_id":"7047aaf7-5d58-4343-b8d8-a498bfaa03c7","system_id":"levelo_inurba_marseille","lat":43.27101,"lon":5.4225,"is_reserved":false,"is_disabled":false,"rental_uris":{"android":"levelo://app?vid=7047aaf7-5d58-4343-b8d8-a498bfaa03c7","ios":"levelo://app?vid=7047aaf7-5d58-4343-b8d8-a498bfaa03c7"},"vehicle_type_id":"4","last_reported":1746774634,"current_range_meters":8000,"station_id":"ce4bhk92rcd13ifvqgb0","pricing_plan_id":"cebpf4jnsgd1na2vs0mg"},{"bike_id":"35f36335-51c7-48bf-a321-437e1aea77da","system_id":"levelo_inurba_marseille","lat":43.32349,"lon":5.3667,"is_reserved":false,"is_disabled":false,"rental_uris":{"android":"levelo://app?vid=35f36335-51c7-48bf-a321-437e1aea77da","ios":"levelo://app?vid=35f36335-51c7-48bf-a321-437e1aea77da"},"vehicle_type_id":"4","last_reported":1746774634,"current_range_meters":8000,"station_id":"ce4bhsh2rcd13ifvqi2g","pricing_plan_id":"cebpf4jnsgd1na2vs0mg"},{"bike_id":"4ae7a83c-4508-4420-bdfc-fc011c19b67a","system_id":"levelo_inurba_marseille","lat":43.337682,"lon":5.374925,"is_reserved":false,"is_disabled":false,"rental_uris":{"android":"levelo://app?vid=4ae7a83c-4508-4420-bdfc-fc011c19b67a","ios":"levelo://app?vid=4ae7a83c-4508-4420-bdfc-fc011c19b67a"},"vehicle_type_id":"4","last_reported":1746774634,"current_range_meters":8000,"station_id":"","pricing_plan_id":"cebpf4jnsgd1na2vs0mg"},{"bike_id":"fd991be1-d3a7-48e9-af71-ab1504a07e0f","system_id":"levelo_inurba_marseille","lat":43.23185,"lon":5.39992,"is_reserved":false,"is_disabled":false,"rental_uris":{"android":"levelo://app?vid=fd991be1-d3a7-48e9-af71-ab1504a07e0f","ios":"levelo://app?vid=fd991be1-d3a7-48e9-af71-ab1504a07e0f"},"vehicle_type_id":"4","last_reported":1746774634,"current_range_meters":8000,"station_id":"ce4bhn12rcd13ifvqgqg","pricing_plan_id":"cebpf4jnsgd1na2vs0mg"},{"bike_id":"6fbfffee-b2a7-4e9e-b262-ecd5bb698acd","system_id":"levelo_inurba_marseille","lat":43.3103,"lon":5.3774,"is_reserved":false,"is_disabled":false,"rental_uris":{"android":"levelo://app?vid=6fbfffee-b2a7-4e9e-b262-ecd5bb698acd","ios":"levelo://app?vid=6fbfffee-b2a7-4e9e-b262-ecd5bb698acd"},"vehicle_type_id":"4","last_reported":1746774634,"current_range_meters":8000,"station_id":"","pricing_plan_id":"cebpf4jnsgd1na2vs0mg"},{"bike_id":"3fe9c26d-6cbd-4fbe-be4f-05656d269c9d","system_id":"levelo_inurba_marseille","lat":43.24073,"lon":5.37766,"is_reserved":false,"is_disabled":false,"rental_uris":{"android":"levelo://app?vid=3fe9c26d-6cbd-4fbe-be4f-05656d269c9d","ios":"levelo://app?vid=3fe9c26d-6cbd-4fbe-be4f-05656d269c9d"},"vehicle_type_id":"4","last_reported":1746774634,"current_range_meters":8000,"station_id":"ce4bhnp2rcd13ifvqgvg","pricing_plan_id":"cebpf4jnsgd1na2vs0mg"},{"bike_id":"35e8d545-8f0a-4b08-81d3-1acb9b10f3ac","system_id":"levelo_inurba_marseille","lat":43.21748,"lon":5.346017,"is_reserved":false,"is_disabled":true,"rental_uris":{"android":"levelo://app?vid=35e8d545-8f0a-4b08-81d3-1acb9b10f3ac","ios":"levelo://app?vid=35e8d545-8f0a-4b08-81d3-1acb9b10f3ac"},"vehicle_type_id":"4","last_reported":1746774634,"current_range_meters":8400,"station_id":"","pricing_plan_id":"cebpf4jnsgd1na2vs0mg"},{"bike_id":"693700f4-1518-43ad-a514-297122fc3ff9","system_id":"levelo_inurba_marseille","lat":43.33596,"lon":5.40992,"is_reserved":false,"is_disabled":false,"rental_uris":{"android":"levelo://app?vid=693700f4-1518-43ad-a514-297122fc3ff9","ios":"levelo://app?vid=693700f4-1518-43ad-a514-297122fc3ff9"},"vehicle_type_id":"4","last_reported":1746774634,"current_range_meters":8400,"station_id":"ce4bhqh2rcd13ifvqhmg","pricing_plan_id":"cebpf4jnsgd1na2vs0mg"},{"bike_id":"18cda92a-27ed-4133-b925-31854ac3cc76","system_id":"levelo_inurba_marseille","lat":43.290043,"lon":5.356102,"is_reserved":false,"is_disabled":false,"rental_uris":{"android":"levelo://app?vid=18cda92a-27ed-4133-b925-31854ac3cc76","ios":"levelo://app?vid=18cda92a-27ed-4133-b925-31854ac3cc76"},"vehicle_type_id":"4","last_reported":1746774634,"current_range_meters":8400,"station_id":"ce4bhb92rcd13ifvqen0","pricing_plan_id":"cebpf4jnsgd1na2vs0mg"},{"bike_id":"6fccf782-c0bd-4c46-a14e-b6b5acb8bc55","system_id":"levelo_inurba_marseille","lat":43.25618,"lon":5.38225,"is_reserved":false,"is_disabled":false,"rental_uris":{"android":"levelo://app?vid=6fccf782-c0bd-4c46-a14e-b6b5acb8bc55","ios":"levelo://app?vid=6fccf782-c0bd-4c46-a14e-b6b5acb8bc55"},"vehicle_type_id":"4","last_reported":1746774634,"current_range_meters":8800,"station_id":"ce4bhih2rcd13ifvqfs0","pricing_plan_id":"cebpf4jnsgd1na2vs0mg"},{"bike_id":"3311c1f1-091b-4394-846c-138bab96fa5d","system_id":"levelo_inurba_marseille","lat":43.2791,"lon":5.380087,"is_reserved":false,"is_disabled":false,"rental_uris":{"android":"levelo://app?vid=3311c1f1-091b-4394-846c-138bab96fa5d","ios":"levelo://app?vid=3311c1f1-091b-4394-846c-138bab96fa5d"},"vehicle_type_id":"4","last_reported":1746774634,"current_range_meters":8800,"station_id":"ce4bhf92rcd13ifvqf50","pricing_plan_id":"cebpf4jnsgd1na2vs0mg"},{"bike_id":"af9f94e5-315e-4cb9-add5-039180487c31","system_id":"levelo_inurba_marseille","lat":43.25003,"lon":5.38924,"is_reserved":false,"is_disabled":false,"rental_uris":{"android":"levelo://app?vid=af9f94e5-315e-4cb9-add5-039180487c31","ios":"levelo://app?vid=af9f94e5-315e-4cb9-add5-039180487c31"},"vehicle_type_id":"4","last_reported":1746774634,"current_range_meters":8400,"station_id":"ce4bhgp2rcd13ifvqfd0","pricing_plan_id":"cebpf4jnsgd1na2vs0mg"},{"bike_id":"8500e17f-10c7-404a-a199-6ea032c34ea6","system_id":"levelo_inurba_marseille","lat":43.26947,"lon":5.38635,"is_reserved":false,"is_disabled":false,"rental_uris":{"android":"levelo://app?vid=8500e17f-10c7-404a-a199-6ea032c34ea6","ios":"levelo://app?vid=8500e17f-10c7-404a-a199-6ea032c34ea6"},"vehicle_type_id":"4","last_reported":1746774634,"current_range_meters":8800,"station_id":"ce4bhh92rcd13ifvqfh0","pricing_plan_id":"cebpf4jnsgd1na2vs0mg"},{"bike_id":"809c8673-c032-46b9-aa07-62c38e26d44e","system_id":"levelo_inurba_marseille","lat":43.25043,"lon":5.387981,"is_reserved":false,"is_disabled":false,"rental_uris":{"android":"levelo://app?vid=809c8673-c032-46b9-aa07-62c38e26d44e","ios":"levelo://app?vid=809c8673-c032-46b9-aa07-62c38e26d44e"},"vehicle_type_id":"4","last_reported":1746774634,"current_range_meters":9200,"station_id":"","pricing_plan_id":"cebpf4jnsgd1na2vs0mg"},{"bike_id":"47bb6f34-9c89-4a6c-b2ec-6a2d3e007f08","system_id":"levelo_inurba_marseille","lat":43.25725,"lon":5.41144,"is_reserved":false,"is_disabled":false,"rental_uris":{"android":"levelo://app?vid=47bb6f34-9c89-4a6c-b2ec-6a2d3e007f08","ios":"levelo://app?vid=47bb6f34-9c89-4a6c-b2ec-6a2d3e007f08"},"vehicle_type_id":"4","last_reported":1746774634,"current_range_meters":9600,"station_id":"ce4bhkp2rcd13ifvqgd0","pricing_plan_id":"cebpf4jnsgd1na2vs0mg"},{"bike_id":"caf9033d-5f00-49c3-b1ee-1328b62008dc","system_id":"levelo_inurba_marseille","lat":43.33596,"lon":5.4282,"is_reserved":false,"is_disabled":false,"rental_uris":{"android":"levelo://app?vid=caf9033d-5f00-49c3-b1ee-1328b62008dc","ios":"levelo://app?vid=caf9033d-5f00-49c3-b1ee-1328b62008dc"},"vehicle_type_id":"4","last_reported":1746774634,"current_range_meters":9600,"station_id":"","pricing_plan_id":"cebpf4jnsgd1na2vs0mg"},{"bike_id":"1f652c85-4929-4b67-a87b-0d632d497642","system_id":"levelo_inurba_marseille","lat":43.25497,"lon":5.37649,"is_reserved":false,"is_disabled":false,"rental_uris":{"android":"levelo://app?vid=1f652c85-4929-4b67-a87b-0d632d497642","ios":"levelo://app?vid=1f652c85-4929-4b67-a87b-0d632d497642"},"vehicle_type_id":"4","last_reported":1746774634,"current_range_meters":9600,"station_id":"ce4bhh12rcd13ifvqff0","pricing_plan_id":"cebpf4jnsgd1na2vs0mg"},{"bike_id":"7ef3e4f4-5d8a-45b2-8a3a-c031488f47d3","system_id":"levelo_inurba_marseille","lat":43.3056,"lon":5.36738,"is_reserved":false,"is_disabled":false,"rental_uris":{"android":"levelo://app?vid=7ef3e4f4-5d8a-45b2-8a3a-c031488f47d3","ios":"levelo://app?vid=7ef3e4f4-5d8a-45b2-8a3a-c031488f47d3"},"vehicle_type_id":"4","last_reported":1746774634,"current_range_meters":9600,"station_id":"ce4bgrp2rcd13ifvqc9g","pricing_plan_id":"cebpf4jnsgd1na2vs0mg"},{"bike_id":"294e5e93-618a-4492-9bac-02c9b5b12a80","system_id":"levelo_inurba_marseille","lat":43.32096,"lon":5.36761,"is_reserved":false,"is_disabled":true,"rental_uris":{"android":"levelo://app?vid=294e5e93-618a-4492-9bac-02c9b5b12a80","ios":"levelo://app?vid=294e5e93-618a-4492-9bac-02c9b5b12a80"},"vehicle_type_id":"4","last_reported":1746774634,"current_range_meters":10000,"station_id":"ce4bhrh2rcd13ifvqhug","pricing_plan_id":"cebpf4jnsgd1na2vs0mg"},{"bike_id":"812e31b7-42f9-4d63-b220-e99af5c192ed","system_id":"levelo_inurba_marseille","lat":43.3118,"lon":5.41618,"is_reserved":false,"is_disabled":false,"rental_uris":{"android":"levelo://app?vid=812e31b7-42f9-4d63-b220-e99af5c192ed","ios":"levelo://app?vid=812e31b7-42f9-4d63-b220-e99af5c192ed"},"vehicle_type_id":"4","last_reported":1746774634,"current_range_meters":10000,"station_id":"","pricing_plan_id":"cebpf4jnsgd1na2vs0mg"},{"bike_id":"a2309e80-b2ba-42c9-9c60-147f0babf9f9","system_id":"levelo_inurba_marseille","lat":43.30851,"lon":5.37038,"is_reserved":false,"is_disabled":false,"rental_uris":{"android":"levelo://app?vid=a2309e80-b2ba-42c9-9c60-147f0babf9f9","ios":"levelo://app?vid=a2309e80-b2ba-42c9-9c60-147f0babf9f9"},"vehicle_type_id":"4","last_reported":1746774634,"current_range_meters":10800,"station_id":"","pricing_plan_id":"cebpf4jnsgd1na2vs0mg"},{"bike_id":"84bc0b21-c9f6-433b-949a-e2aacba3ed85","system_id":"levelo_inurba_marseille","lat":43.23152,"lon":5.43713,"is_reserved":false,"is_disabled":false,"rental_uris":{"android":"levelo://app?vid=84bc0b21-c9f6-433b-949a-e2aacba3ed85","ios":"levelo://app?vid=84bc0b21-c9f6-433b-949a-e2aacba3ed85"},"vehicle_type_id":"4","last_reported":1746774634,"current_range_meters":10800,"station_id":"ce4bhmp2rcd13ifvqgog","pricing_plan_id":"cebpf4jnsgd1na2vs0mg"},{"bike_id":"caccb556-2ad0-45b8-84b8-819024dd44e6","system_id":"levelo_inurba_marseille","lat":43.297921,"lon":5.367926,"is_reserved":false,"is_disabled":false,"rental_uris":{"android":"levelo://app?vid=caccb556-2ad0-45b8-84b8-819024dd44e6","ios":"levelo://app?vid=caccb556-2ad0-45b8-84b8-819024dd44e6"},"vehicle_type_id":"4","last_reported":1746774634,"current_range_meters":10800,"station_id":"","pricing_plan_id":"cebpf4jnsgd1na2vs0mg"},{"bike_id":"102dcd7c-3f1d-4f36-82bb-4cb134e318bc","system_id":"levelo_inurba_marseille","lat":43.265683,"lon":5.39008,"is_reserved":false,"is_disabled":false,"rental_uris":{"android":"levelo://app?vid=102dcd7c-3f1d-4f36-82bb-4cb134e318bc","ios":"levelo://app?vid=102dcd7c-3f1d-4f36-82bb-4cb134e318bc"},"vehicle_type_id":"4","last_reported":1746774634,"current_range_meters":10800,"station_id":"ce4bhe12rcd13ifvqf30","pricing_plan_id":"cebpf4jnsgd1na2vs0mg"},{"bike_id":"ded8612e-711d-40ca-9ab1-869f52835937","system_id":"levelo_inurba_marseille","lat":43.32921,"lon":5.38021,"is_reserved":false,"is_disabled":false,"rental_uris":{"android":"levelo://app?vid=ded8612e-711d-40ca-9ab1-869f52835937","ios":"levelo://app?vid=ded8612e-711d-40ca-9ab1-869f52835937"},"vehicle_type_id":"4","last_reported":1746774634,"current_range_meters":11200,"station_id":"","pricing_plan_id":"cebpf4jnsgd1na2vs0mg"},{"bike_id":"e52bfd82-0d4c-4ec9-a63b-aa566ebda16e","system_id":"levelo_inurba_marseille","lat":43.31803,"lon":5.36825,"is_reserved":false,"is_disabled":false,"rental_uris":{"android":"levelo://app?vid=e52bfd82-0d4c-4ec9-a63b-aa566ebda16e","ios":"levelo://app?vid=e52bfd82-0d4c-4ec9-a63b-aa566ebda16e"},"vehicle_type_id":"4","last_reported":1746774634,"current_range_meters":11200,"station_id":"","pricing_plan_id":"cebpf4jnsgd1na2vs0mg"},{"bike_id":"1e122cb6-c6ae-4b5c-b493-07ff2a289a32","system_id":"levelo_inurba_marseille","lat":43.31351,"lon":5.36719,"is_reserved":false,"is_disabled":false,"rental_uris":{"android":"levelo://app?vid=1e122cb6-c6ae-4b5c-b493-07ff2a289a32","ios":"levelo://app?vid=1e122cb6-c6ae-4b5c-b493-07ff2a289a32"},"vehicle_type_id":"4","last_reported":1746774634,"current_range_meters":11200,"station_id":"ce4bgr92rcd13ifvqc6g","pricing_plan_id":"cebpf4jnsgd1na2vs0mg"},{"bike_id":"cf91c94b-333a-46c5-905c-455e2fd196cf","system_id":"levelo_inurba_marseille","lat":43.24178,"lon":5.397352,"is_reserved":false,"is_disabled":false,"rental_uris":{"android":"levelo://app?vid=cf91c94b-333a-46c5-905c-455e2fd196cf","ios":"levelo://app?vid=cf91c94b-333a-46c5-905c-455e2fd196cf"},"vehicle_type_id":"4","last_reported":1746774634,"current_range_meters":11200,"station_id":"ce4bhn12rcd13ifvqgpg","pricing_plan_id":"cebpf4jnsgd1na2vs0mg"},{"bike_id":"8b602850-abe9-47e5-9d5a-f2ac46d9d544","system_id":"levelo_inurba_marseille","lat":43.28614,"lon":5.351,"is_reserved":false,"is_disabled":false,"rental_uris":{"android":"levelo://app?vid=8b602850-abe9-47e5-9d5a-f2ac46d9d544","ios":"levelo://app?vid=8b602850-abe9-47e5-9d5a-f2ac46d9d544"},"vehicle_type_id":"4","last_reported":1746774634,"current_range_meters":11600,"station_id":"ce4bhch2rcd13ifvqeug","pricing_plan_id":"cebpf4jnsgd1na2vs0mg"},{"bike_id":"5b1117b6-2b38-4a7f-bdce-77a7a8c24844","system_id":"levelo_inurba_marseille","lat":43.30923,"lon":5.36841,"is_reserved":false,"is_disabled":false,"rental_uris":{"android":"levelo://app?vid=5b1117b6-2b38-4a7f-bdce-77a7a8c24844","ios":"levelo://app?vid=5b1117b6-2b38-4a7f-bdce-77a7a8c24844"},"vehicle_type_id":"4","last_reported":1746774634,"current_range_meters":11600,"station_id":"ce4bgn92rcd13ifvqbvg","pricing_plan_id":"cebpf4jnsgd1na2vs0mg"},{"bike_id":"044478cb-8194-4092-b984-4fc9c042ef68","system_id":"levelo_inurba_marseille","lat":43.28708,"lon":5.46575,"is_reserved":false,"is_disabled":false,"rental_uris":{"android":"levelo://app?vid=044478cb-8194-4092-b984-4fc9c042ef68","ios":"levelo://app?vid=044478cb-8194-4092-b984-4fc9c042ef68"},"vehicle_type_id":"4","last_reported":1746774634,"current_range_meters":11600,"station_id":"","pricing_plan_id":"cebpf4jnsgd1na2vs0mg"},{"bike_id":"9962b8cb-c94d-4a94-804b-a946a3138815","system_id":"levelo_inurba_marseille","lat":43.31343,"lon":5.37347,"is_reserved":false,"is_disabled":false,"rental_uris":{"android":"levelo://app?vid=9962b8cb-c94d-4a94-804b-a946a3138815","ios":"levelo://app?vid=9962b8cb-c94d-4a94-804b-a946a3138815"},"vehicle_type_id":"4","last_reported":1746774634,"current_range_meters":11600,"station_id":"","pricing_plan_id":"cebpf4jnsgd1na2vs0mg"},{"bike_id":"049dee66-f320-4a39-90d5-cac240a0fc35","system_id":"levelo_inurba_marseille","lat":43.27086,"lon":5.42281,"is_reserved":false,"is_disabled":false,"rental_uris":{"android":"levelo://app?vid=049dee66-f320-4a39-90d5-cac240a0fc35","ios":"levelo://app?vid=049dee66-f320-4a39-90d5-cac240a0fc35"},"vehicle_type_id":"4","last_reported":1746774634,"current_range_meters":11600,"station_id":"ce4bhk92rcd13ifvqgb0","pricing_plan_id":"cebpf4jnsgd1na2vs0mg"},{"bike_id":"057fc800-9f9b-44e6-8681-ad898305eaf8","system_id":"levelo_inurba_marseille","lat":43.32004,"lon":5.38149,"is_reserved":false,"is_disabled":true,"rental_uris":{"android":"levelo://app?vid=057fc800-9f9b-44e6-8681-ad898305eaf8","ios":"levelo://app?vid=057fc800-9f9b-44e6-8681-ad898305eaf8"},"vehicle_type_id":"4","last_reported":1746774634,"current_range_meters":11600,"station_id":"ce4bhr12rcd13ifvqhpg","pricing_plan_id":"cebpf4jnsgd1na2vs0mg"},{"bike_id":"c42d0137-01db-4e02-8a6e-f9af61ad1319","system_id":"levelo_inurba_marseille","lat":43.314545,"lon":5.37306,"is_reserved":false,"is_disabled":false,"rental_uris":{"android":"levelo://app?vid=c42d0137-01db-4e02-8a6e-f9af61ad1319","ios":"levelo://app?vid=c42d0137-01db-4e02-8a6e-f9af61ad1319"},"vehicle_type_id":"4","last_reported":1746774634,"current_range_meters":11600,"station_id":"ce4bgt12rcd13ifvqcd0","pricing_plan_id":"cebpf4jnsgd1na2vs0mg"},{"bike_id":"b0c54ead-2c9a-4d45-904a-5e1b9abf7338","system_id":"levelo_inurba_marseille","lat":43.278847,"lon":5.440656,"is_reserved":false,"is_disabled":false,"rental_uris":{"android":"levelo://app?vid=b0c54ead-2c9a-4d45-904a-5e1b9abf7338","ios":"levelo://app?vid=b0c54ead-2c9a-4d45-904a-5e1b9abf7338"},"vehicle_type_id":"4","last_reported":1746774634,"current_range_meters":12000,"station_id":"","pricing_plan_id":"cebpf4jnsgd1na2vs0mg"},{"bike_id":"f462a049-18fd-4541-8391-1f91f453fda8","system_id":"levelo_inurba_marseille","lat":43.30538,"lon":5.36545,"is_reserved":false,"is_disabled":false,"rental_uris":{"android":"levelo://app?vid=f462a049-18fd-4541-8391-1f91f453fda8","ios":"levelo://app?vid=f462a049-18fd-4541-8391-1f91f453fda8"},"vehicle_type_id":"4","last_reported":1746774634,"current_range_meters":12000,"station_id":"ce4bgs12rcd13ifvqcag","pricing_plan_id":"cebpf4jnsgd1na2vs0mg"},{"bike_id":"cfb5f8ab-2814-4f4d-9d75-d10095b1f175","system_id":"levelo_inurba_marseille","lat":43.25915,"lon":5.40887,"is_reserved":false,"is_disabled":false,"rental_uris":{"android":"levelo://app?vid=cfb5f8ab-2814-4f4d-9d75-d10095b1f175","ios":"levelo://app?vid=cfb5f8ab-2814-4f4d-9d75-d10095b1f175"},"vehicle_type_id":"4","last_reported":1746774634,"current_range_meters":12000,"station_id":"ce4bhm92rcd13ifvqglg","pricing_plan_id":"cebpf4jnsgd1na2vs0mg"},{"bike_id":"c507e2d7-6246-40fb-85be-523db9e457c8","system_id":"levelo_inurba_marseille","lat":43.294655,"lon":5.381913,"is_reserved":false,"is_disabled":false,"rental_uris":{"android":"levelo://app?vid=c507e2d7-6246-40fb-85be-523db9e457c8","ios":"levelo://app?vid=c507e2d7-6246-40fb-85be-523db9e457c8"},"vehicle_type_id":"4","last_reported":1746774634,"current_range_meters":12000,"station_id":"ce4bhb12rcd13ifvqem0","pricing_plan_id":"cebpf4jnsgd1na2vs0mg"},{"bike_id":"af35e981-889f-4dac-a8e2-436578f2e1c0","system_id":"levelo_inurba_marseille","lat":43.29724,"lon":5.37695,"is_reserved":false,"is_disabled":false,"rental_uris":{"android":"levelo://app?vid=af35e981-889f-4dac-a8e2-436578f2e1c0","ios":"levelo://app?vid=af35e981-889f-4dac-a8e2-436578f2e1c0"},"vehicle_type_id":"4","last_reported":1746774634,"current_range_meters":12400,"station_id":"ce4bgkh2rcd13ifvqbl0","pricing_plan_id":"cebpf4jnsgd1na2vs0mg"},{"bike_id":"28d9eac0-f697-46d6-8ca6-58fb68ab0f5c","system_id":"levelo_inurba_marseille","lat":43.26195,"lon":5.37926,"is_reserved":false,"is_disabled":false,"rental_uris":{"android":"levelo://app?vid=28d9eac0-f697-46d6-8ca6-58fb68ab0f5c","ios":"levelo://app?vid=28d9eac0-f697-46d6-8ca6-58fb68ab0f5c"},"vehicle_type_id":"4","last_reported":1746774634,"current_range_meters":12400,"station_id":"ce4bhjp2rcd13ifvqg90","pricing_plan_id":"cebpf4jnsgd1na2vs0mg"},{"bike_id":"1a9fc9a9-b634-4678-af05-42c4ceaa73fa","system_id":"levelo_inurba_marseille","lat":43.3032,"lon":5.40436,"is_reserved":false,"is_disabled":true,"rental_uris":{"android":"levelo://app?vid=1a9fc9a9-b634-4678-af05-42c4ceaa73fa","ios":"levelo://app?vid=1a9fc9a9-b634-4678-af05-42c4ceaa73fa"},"vehicle_type_id":"4","last_reported":1746774634,"current_range_meters":12400,"station_id":"ce4bh012rcd13ifvqd10","pricing_plan_id":"cebpf4jnsgd1na2vs0mg"},{"bike_id":"9f5c2541-d2d5-4e18-9467-072453be38a2","system_id":"levelo_inurba_marseille","lat":43.23072,"lon":5.43752,"is_reserved":false,"is_disabled":false,"rental_uris":{"android":"levelo://app?vid=9f5c2541-d2d5-4e18-9467-072453be38a2","ios":"levelo://app?vid=9f5c2541-d2d5-4e18-9467-072453be38a2"},"vehicle_type_id":"4","last_reported":1746774634,"current_range_meters":12800,"station_id":"ce4bhmp2rcd13ifvqgog","pricing_plan_id":"cebpf4jnsgd1na2vs0mg"},{"bike_id":"3bcffddb-f495-4fde-ab59-c90c69f11bcc","system_id":"levelo_inurba_marseille","lat":43.269677,"lon":5.402907,"is_reserved":false,"is_disabled":true,"rental_uris":{"android":"levelo://app?vid=3bcffddb-f495-4fde-ab59-c90c69f11bcc","ios":"levelo://app?vid=3bcffddb-f495-4fde-ab59-c90c69f11bcc"},"vehicle_type_id":"4","last_reported":1746774634,"current_range_meters":12800,"station_id":"cjm6bp8fraef2m0cb0m0","pricing_plan_id":"cebpf4jnsgd1na2vs0mg"},{"bike_id":"abfab5a1-f29f-49fc-9757-11916345b2ec","system_id":"levelo_inurba_marseille","lat":43.30539,"lon":5.36699,"is_reserved":false,"is_disabled":false,"rental_uris":{"android":"levelo://app?vid=abfab5a1-f29f-49fc-9757-11916345b2ec","ios":"levelo://app?vid=abfab5a1-f29f-49fc-9757-11916345b2ec"},"vehicle_type_id":"4","last_reported":1746774634,"current_range_meters":12400,"station_id":"ce4bgrp2rcd13ifvqc9g","pricing_plan_id":"cebpf4jnsgd1na2vs0mg"},{"bike_id":"ef8bf495-473a-44ca-833b-0ad5cc8e9cb7","system_id":"levelo_inurba_marseille","lat":43.30487,"lon":5.37925,"is_reserved":false,"is_disabled":false,"rental_uris":{"android":"levelo://app?vid=ef8bf495-473a-44ca-833b-0ad5cc8e9cb7","ios":"levelo://app?vid=ef8bf495-473a-44ca-833b-0ad5cc8e9cb7"},"vehicle_type_id":"4","last_reported":1746774634,"current_range_meters":12800,"station_id":"ce4bgup2rcd13ifvqcn0","pricing_plan_id":"cebpf4jnsgd1na2vs0mg"},{"bike_id":"8003133d-4f16-480b-a00f-f8b759ba4ae8","system_id":"levelo_inurba_marseille","lat":43.27575,"lon":5.3843,"is_reserved":false,"is_disabled":false,"rental_uris":{"android":"levelo://app?vid=8003133d-4f16-480b-a00f-f8b759ba4ae8","ios":"levelo://app?vid=8003133d-4f16-480b-a00f-f8b759ba4ae8"},"vehicle_type_id":"4","last_reported":1746774634,"current_range_meters":13600,"station_id":"ce4bhh92rcd13ifvqfi0","pricing_plan_id":"cebpf4jnsgd1na2vs0mg"},{"bike_id":"f673a50d-776a-4d4f-8bc2-0f75017ffb52","system_id":"levelo_inurba_marseille","lat":43.284499,"lon":5.358347,"is_reserved":false,"is_disabled":false,"rental_uris":{"android":"levelo://app?vid=f673a50d-776a-4d4f-8bc2-0f75017ffb52","ios":"levelo://app?vid=f673a50d-776a-4d4f-8bc2-0f75017ffb52"},"vehicle_type_id":"4","last_reported":1746774634,"current_range_meters":13600,"station_id":"","pricing_plan_id":"cebpf4jnsgd1na2vs0mg"},{"bike_id":"ce6c0307-9675-4ac5-a20f-41cc762d3746","system_id":"levelo_inurba_marseille","lat":43.24171,"lon":5.39737,"is_reserved":false,"is_disabled":false,"rental_uris":{"android":"levelo://app?vid=ce6c0307-9675-4ac5-a20f-41cc762d3746","ios":"levelo://app?vid=ce6c0307-9675-4ac5-a20f-41cc762d3746"},"vehicle_type_id":"4","last_reported":1746774634,"current_range_meters":13600,"station_id":"ce4bhn12rcd13ifvqgpg","pricing_plan_id":"cebpf4jnsgd1na2vs0mg"},{"bike_id":"84aadfcb-e7a1-46e6-a055-3a1d6c9c2b84","system_id":"levelo_inurba_marseille","lat":43.26947,"lon":5.38623,"is_reserved":false,"is_disabled":false,"rental_uris":{"android":"levelo://app?vid=84aadfcb-e7a1-46e6-a055-3a1d6c9c2b84","ios":"levelo://app?vid=84aadfcb-e7a1-46e6-a055-3a1d6c9c2b84"},"vehicle_type_id":"4","last_reported":1746774634,"current_range_meters":13600,"station_id":"ce4bhh92rcd13ifvqfh0","pricing_plan_id":"cebpf4jnsgd1na2vs0mg"},{"bike_id":"d50b3231-62ee-409a-84ed-694a06009124","system_id":"levelo_inurba_marseille","lat":43.24077,"lon":5.3776,"is_reserved":false,"is_disabled":false,"rental_uris":{"android":"levelo://app?vid=d50b3231-62ee-409a-84ed-694a06009124","ios":"levelo://app?vid=d50b3231-62ee-409a-84ed-694a06009124"},"vehicle_type_id":"4","last_reported":1746774634,"current_range_meters":14000,"station_id":"ce4bhnp2rcd13ifvqgvg","pricing_plan_id":"cebpf4jnsgd1na2vs0mg"},{"bike_id":"2e719a53-5bb7-4e06-8c27-2cf0eae6c9f7","system_id":"levelo_inurba_marseille","lat":43.29257,"lon":5.40124,"is_reserved":false,"is_disabled":true,"rental_uris":{"android":"levelo://app?vid=2e719a53-5bb7-4e06-8c27-2cf0eae6c9f7","ios":"levelo://app?vid=2e719a53-5bb7-4e06-8c27-2cf0eae6c9f7"},"vehicle_type_id":"4","last_reported":1746774634,"current_range_meters":14000,"station_id":"ce4bh312rcd13ifvqdk0","pricing_plan_id":"cebpf4jnsgd1na2vs0mg"},{"bike_id":"a20a1240-7ac9-4476-9baa-68d9ee79a31b","system_id":"levelo_inurba_marseille","lat":43.32534,"lon":5.41471,"is_reserved":false,"is_disabled":false,"rental_uris":{"android":"levelo://app?vid=a20a1240-7ac9-4476-9baa-68d9ee79a31b","ios":"levelo://app?vid=a20a1240-7ac9-4476-9baa-68d9ee79a31b"},"vehicle_type_id":"4","last_reported":1746774634,"current_range_meters":14400,"station_id":"ce4bhq12rcd13ifvqhhg","pricing_plan_id":"cebpf4jnsgd1na2vs0mg"},{"bike_id":"94b1c6a7-a958-417d-853f-1e7583bcb7f5","system_id":"levelo_inurba_marseille","lat":43.323548,"lon":5.367536,"is_reserved":false,"is_disabled":false,"rental_uris":{"android":"levelo://app?vid=94b1c6a7-a958-417d-853f-1e7583bcb7f5","ios":"levelo://app?vid=94b1c6a7-a958-417d-853f-1e7583bcb7f5"},"vehicle_type_id":"4","last_reported":1746774634,"current_range_meters":14400,"station_id":"ce4bhsh2rcd13ifvqi2g","pricing_plan_id":"cebpf4jnsgd1na2vs0mg"},{"bike_id":"cbbe0265-23b2-48fc-94d9-172a989cda5b","system_id":"levelo_inurba_marseille","lat":43.27377,"lon":5.42391,"is_reserved":false,"is_disabled":false,"rental_uris":{"android":"levelo://app?vid=cbbe0265-23b2-48fc-94d9-172a989cda5b","ios":"levelo://app?vid=cbbe0265-23b2-48fc-94d9-172a989cda5b"},"vehicle_type_id":"4","last_reported":1746774634,"current_range_meters":14400,"station_id":"","pricing_plan_id":"cebpf4jnsgd1na2vs0mg"},{"bike_id":"77177599-3355-4653-a49c-4fb952f4c4c1","system_id":"levelo_inurba_marseille","lat":43.273285,"lon":5.361809,"is_reserved":false,"is_disabled":true,"rental_uris":{"android":"levelo://app?vid=77177599-3355-4653-a49c-4fb952f4c4c1","ios":"levelo://app?vid=77177599-3355-4653-a49c-4fb952f4c4c1"},"vehicle_type_id":"4","last_reported":1746774634,"current_range_meters":14800,"station_id":"","pricing_plan_id":"cebpf4jnsgd1na2vs0mg"},{"bike_id":"b5807c8e-7636-47d9-88f5-d7ef60eca3eb","system_id":"levelo_inurba_marseille","lat":43.21777,"lon":5.34601,"is_reserved":false,"is_disabled":true,"rental_uris":{"android":"levelo://app?vid=b5807c8e-7636-47d9-88f5-d7ef60eca3eb","ios":"levelo://app?vid=b5807c8e-7636-47d9-88f5-d7ef60eca3eb"},"vehicle_type_id":"4","last_reported":1746774634,"current_range_meters":14800,"station_id":"st_cvj6r9ubvosntc0bgbag","pricing_plan_id":"cebpf4jnsgd1na2vs0mg"},{"bike_id":"1f226b66-b0a5-43c2-b2c5-0563e6e9e107","system_id":"levelo_inurba_marseille","lat":43.27493,"lon":5.42466,"is_reserved":false,"is_disabled":false,"rental_uris":{"android":"levelo://app?vid=1f226b66-b0a5-43c2-b2c5-0563e6e9e107","ios":"levelo://app?vid=1f226b66-b0a5-43c2-b2c5-0563e6e9e107"},"vehicle_type_id":"4","last_reported":1746774634,"current_range_meters":14800,"station_id":"ce4bhn92rcd13ifvqgrg","pricing_plan_id":"cebpf4jnsgd1na2vs0mg"},{"bike_id":"0c4cd874-6764-419b-8d5d-acb3bbe70dc0","system_id":"levelo_inurba_marseille","lat":43.28716,"lon":5.39993,"is_reserved":false,"is_disabled":false,"rental_uris":{"android":"levelo://app?vid=0c4cd874-6764-419b-8d5d-acb3bbe70dc0","ios":"levelo://app?vid=0c4cd874-6764-419b-8d5d-acb3bbe70dc0"},"vehicle_type_id":"4","last_reported":1746774634,"current_range_meters":14800,"station_id":"ce4bho92rcd13ifvqh3g","pricing_plan_id":"cebpf4jnsgd1na2vs0mg"},{"bike_id":"95ce2447-8542-43fe-ab80-6b72ce59cb67","system_id":"levelo_inurba_marseille","lat":43.23153,"lon":5.43716,"is_reserved":false,"is_disabled":false,"rental_uris":{"android":"levelo://app?vid=95ce2447-8542-43fe-ab80-6b72ce59cb67","ios":"levelo://app?vid=95ce2447-8542-43fe-ab80-6b72ce59cb67"},"vehicle_type_id":"4","last_reported":1746774634,"current_range_meters":14800,"station_id":"ce4bhmp2rcd13ifvqgog","pricing_plan_id":"cebpf4jnsgd1na2vs0mg"},{"bike_id":"e6282093-23fb-41a9-859d-c0d9ad966535","system_id":"levelo_inurba_marseille","lat":43.31545,"lon":5.3823,"is_reserved":false,"is_disabled":false,"rental_uris":{"android":"levelo://app?vid=e6282093-23fb-41a9-859d-c0d9ad966535","ios":"levelo://app?vid=e6282093-23fb-41a9-859d-c0d9ad966535"},"vehicle_type_id":"4","last_reported":1746774634,"current_range_meters":14800,"station_id":"","pricing_plan_id":"cebpf4jnsgd1na2vs0mg"},{"bike_id":"526ac06a-cd77-4007-acca-7871d3084f3b","system_id":"levelo_inurba_marseille","lat":43.305511,"lon":5.365507,"is_reserved":false,"is_disabled":false,"rental_uris":{"android":"levelo://app?vid=526ac06a-cd77-4007-acca-7871d3084f3b","ios":"levelo://app?vid=526ac06a-cd77-4007-acca-7871d3084f3b"},"vehicle_type_id":"4","last_reported":1746774634,"current_range_meters":14800,"station_id":"ce4bgs12rcd13ifvqcag","pricing_plan_id":"cebpf4jnsgd1na2vs0mg"},{"bike_id":"32f6a443-9300-4a98-8d94-da328169d2f9","system_id":"levelo_inurba_marseille","lat":43.2407,"lon":5.37769,"is_reserved":false,"is_disabled":false,"rental_uris":{"android":"levelo://app?vid=32f6a443-9300-4a98-8d94-da328169d2f9","ios":"levelo://app?vid=32f6a443-9300-4a98-8d94-da328169d2f9"},"vehicle_type_id":"4","last_reported":1746774634,"current_range_meters":14800,"station_id":"ce4bhnp2rcd13ifvqgvg","pricing_plan_id":"cebpf4jnsgd1na2vs0mg"},{"bike_id":"4fc2916e-fd8a-4057-add3-fd7205558b49","system_id":"levelo_inurba_marseille","lat":43.31493,"lon":5.39068,"is_reserved":false,"is_disabled":false,"rental_uris":{"android":"levelo://app?vid=4fc2916e-fd8a-4057-add3-fd7205558b49","ios":"levelo://app?vid=4fc2916e-fd8a-4057-add3-fd7205558b49"},"vehicle_type_id":"4","last_reported":1746774634,"current_range_meters":14800,"station_id":"","pricing_plan_id":"cebpf4jnsgd1na2vs0mg"},{"bike_id":"db01a8a4-fc6c-47b0-b62e-79d7358b734a","system_id":"levelo_inurba_marseille","lat":43.28297,"lon":5.43235,"is_reserved":false,"is_disabled":false,"rental_uris":{"android":"levelo://app?vid=db01a8a4-fc6c-47b0-b62e-79d7358b734a","ios":"levelo://app?vid=db01a8a4-fc6c-47b0-b62e-79d7358b734a"},"vehicle_type_id":"4","last_reported":1746774634,"current_range_meters":14800,"station_id":"","pricing_plan_id":"cebpf4jnsgd1na2vs0mg"},{"bike_id":"59c9eee2-2711-40e5-ad57-f78d6a66b9e3","system_id":"levelo_inurba_marseille","lat":43.25934,"lon":5.4089,"is_reserved":false,"is_disabled":true,"rental_uris":{"android":"levelo://app?vid=59c9eee2-2711-40e5-ad57-f78d6a66b9e3","ios":"levelo://app?vid=59c9eee2-2711-40e5-ad57-f78d6a66b9e3"},"vehicle_type_id":"4","last_reported":1746774634,"current_range_meters":15200,"station_id":"ce4bhm92rcd13ifvqglg","pricing_plan_id":"cebpf4jnsgd1na2vs0mg"},{"bike_id":"1eae8875-97d6-4285-b520-c6c5b7bd55e5","system_id":"levelo_inurba_marseille","lat":43.2973,"lon":5.36636,"is_reserved":false,"is_disabled":true,"rental_uris":{"android":"levelo://app?vid=1eae8875-97d6-4285-b520-c6c5b7bd55e5","ios":"levelo://app?vid=1eae8875-97d6-4285-b520-c6c5b7bd55e5"},"vehicle_type_id":"4","last_reported":1746774634,"current_range_meters":15200,"station_id":"ce4bgn12rcd13ifvqbt0","pricing_plan_id":"cebpf4jnsgd1na2vs0mg"},{"bike_id":"17c53b35-a2f1-475d-b28d-2c3ab96850e4","system_id":"levelo_inurba_marseille","lat":43.25932,"lon":5.40905,"is_reserved":false,"is_disabled":false,"rental_uris":{"android":"levelo://app?vid=17c53b35-a2f1-475d-b28d-2c3ab96850e4","ios":"levelo://app?vid=17c53b35-a2f1-475d-b28d-2c3ab96850e4"},"vehicle_type_id":"4","last_reported":1746774634,"current_range_meters":15200,"station_id":"ce4bhm92rcd13ifvqglg","pricing_plan_id":"cebpf4jnsgd1na2vs0mg"},{"bike_id":"b8b6fc85-33fa-4159-81c7-83f345d8c861","system_id":"levelo_inurba_marseille","lat":43.2969,"lon":5.37299,"is_reserved":false,"is_disabled":false,"rental_uris":{"android":"levelo://app?vid=b8b6fc85-33fa-4159-81c7-83f345d8c861","ios":"levelo://app?vid=b8b6fc85-33fa-4159-81c7-83f345d8c861"},"vehicle_type_id":"4","last_reported":1746774634,"current_range_meters":15200,"station_id":"ce4bgk12rcd13ifvqbj0","pricing_plan_id":"cebpf4jnsgd1na2vs0mg"},{"bike_id":"44355d28-d86b-44dd-a795-f92231357464","system_id":"levelo_inurba_marseille","lat":43.25941,"lon":5.40906,"is_reserved":false,"is_disabled":false,"rental_uris":{"android":"levelo://app?vid=44355d28-d86b-44dd-a795-f92231357464","ios":"levelo://app?vid=44355d28-d86b-44dd-a795-f92231357464"},"vehicle_type_id":"4","last_reported":1746774634,"current_range_meters":16000,"station_id":"ce4bhm92rcd13ifvqglg","pricing_plan_id":"cebpf4jnsgd1na2vs0mg"},{"bike_id":"d4e825d6-11df-4dfe-b9f6-1d81c835a98c","system_id":"levelo_inurba_marseille","lat":43.28742,"lon":5.37959,"is_reserved":false,"is_disabled":false,"rental_uris":{"android":"levelo://app?vid=d4e825d6-11df-4dfe-b9f6-1d81c835a98c","ios":"levelo://app?vid=d4e825d6-11df-4dfe-b9f6-1d81c835a98c"},"vehicle_type_id":"4","last_reported":1746774634,"current_range_meters":16000,"station_id":"ce4bh9p2rcd13ifvqec0","pricing_plan_id":"cebpf4jnsgd1na2vs0mg"},{"bike_id":"0ddbc89d-17e4-426d-8539-f3af2b22f6e9","system_id":"levelo_inurba_marseille","lat":43.27499,"lon":5.42457,"is_reserved":false,"is_disabled":false,"rental_uris":{"android":"levelo://app?vid=0ddbc89d-17e4-426d-8539-f3af2b22f6e9","ios":"levelo://app?vid=0ddbc89d-17e4-426d-8539-f3af2b22f6e9"},"vehicle_type_id":"4","last_reported":1746774634,"current_range_meters":16400,"station_id":"ce4bhn92rcd13ifvqgrg","pricing_plan_id":"cebpf4jnsgd1na2vs0mg"},{"bike_id":"39005936-d671-4d0a-9547-d8fb0f8d498d","system_id":"levelo_inurba_marseille","lat":43.33602,"lon":5.41008,"is_reserved":false,"is_disabled":false,"rental_uris":{"android":"levelo://app?vid=39005936-d671-4d0a-9547-d8fb0f8d498d","ios":"levelo://app?vid=39005936-d671-4d0a-9547-d8fb0f8d498d"},"vehicle_type_id":"4","last_reported":1746774634,"current_range_meters":16400,"station_id":"ce4bhqh2rcd13ifvqhmg","pricing_plan_id":"cebpf4jnsgd1na2vs0mg"},{"bike_id":"f969b97c-1c1a-4079-a8d8-16efa103018e","system_id":"levelo_inurba_marseille","lat":43.25939,"lon":5.40904,"is_reserved":false,"is_disabled":false,"rental_uris":{"android":"levelo://app?vid=f969b97c-1c1a-4079-a8d8-16efa103018e","ios":"levelo://app?vid=f969b97c-1c1a-4079-a8d8-16efa103018e"},"vehicle_type_id":"4","last_reported":1746774634,"current_range_meters":16400,"station_id":"ce4bhm92rcd13ifvqglg","pricing_plan_id":"cebpf4jnsgd1na2vs0mg"},{"bike_id":"bf43ecf2-8fa8-40db-9f78-00302703cc3d","system_id":"levelo_inurba_marseille","lat":43.304656,"lon":5.379094,"is_reserved":false,"is_disabled":false,"rental_uris":{"android":"levelo://app?vid=bf43ecf2-8fa8-40db-9f78-00302703cc3d","ios":"levelo://app?vid=bf43ecf2-8fa8-40db-9f78-00302703cc3d"},"vehicle_type_id":"4","last_reported":1746774634,"current_range_meters":16400,"station_id":"ce4bgup2rcd13ifvqcn0","pricing_plan_id":"cebpf4jnsgd1na2vs0mg"},{"bike_id":"897f8669-0a3c-48d9-b576-75f7ac4ee3aa","system_id":"levelo_inurba_marseille","lat":43.309113,"lon":5.368367,"is_reserved":false,"is_disabled":false,"rental_uris":{"android":"levelo://app?vid=897f8669-0a3c-48d9-b576-75f7ac4ee3aa","ios":"levelo://app?vid=897f8669-0a3c-48d9-b576-75f7ac4ee3aa"},"vehicle_type_id":"4","last_reported":1746774634,"current_range_meters":16400,"station_id":"ce4bgn92rcd13ifvqbvg","pricing_plan_id":"cebpf4jnsgd1na2vs0mg"},{"bike_id":"5b344d27-f9bd-418a-92d9-a75c11471f71","system_id":"levelo_inurba_marseille","lat":43.30973,"lon":5.3914,"is_reserved":false,"is_disabled":false,"rental_uris":{"android":"levelo://app?vid=5b344d27-f9bd-418a-92d9-a75c11471f71","ios":"levelo://app?vid=5b344d27-f9bd-418a-92d9-a75c11471f71"},"vehicle_type_id":"4","last_reported":1746774634,"current_range_meters":16400,"station_id":"ce4bgup2rcd13ifvqco0","pricing_plan_id":"cebpf4jnsgd1na2vs0mg"},{"bike_id":"f67736aa-fe78-43b4-88f3-cb130731b90b","system_id":"levelo_inurba_marseille","lat":43.335993,"lon":5.41004,"is_reserved":false,"is_disabled":false,"rental_uris":{"android":"levelo://app?vid=f67736aa-fe78-43b4-88f3-cb130731b90b","ios":"levelo://app?vid=f67736aa-fe78-43b4-88f3-cb130731b90b"},"vehicle_type_id":"4","last_reported":1746774634,"current_range_meters":16400,"station_id":"ce4bhqh2rcd13ifvqhmg","pricing_plan_id":"cebpf4jnsgd1na2vs0mg"},{"bike_id":"eddc5826-cde2-4992-9127-8adddc5f6e68","system_id":"levelo_inurba_marseille","lat":43.3047,"lon":5.37904,"is_reserved":false,"is_disabled":false,"rental_uris":{"android":"levelo://app?vid=eddc5826-cde2-4992-9127-8adddc5f6e68","ios":"levelo://app?vid=eddc5826-cde2-4992-9127-8adddc5f6e68"},"vehicle_type_id":"4","last_reported":1746774634,"current_range_meters":16400,"station_id":"ce4bgup2rcd13ifvqcn0","pricing_plan_id":"cebpf4jnsgd1na2vs0mg"},{"bike_id":"d5ae9987-3c36-4197-a244-adc74140878e","system_id":"levelo_inurba_marseille","lat":43.31346,"lon":5.36715,"is_reserved":false,"is_disabled":false,"rental_uris":{"android":"levelo://app?vid=d5ae9987-3c36-4197-a244-adc74140878e","ios":"levelo://app?vid=d5ae9987-3c36-4197-a244-adc74140878e"},"vehicle_type_id":"4","last_reported":1746774634,"current_range_meters":16800,"station_id":"ce4bgr92rcd13ifvqc6g","pricing_plan_id":"cebpf4jnsgd1na2vs0mg"},{"bike_id":"81e82e29-73fd-4ccc-84f7-33ae8a5a0fc5","system_id":"levelo_inurba_marseille","lat":43.29043,"lon":5.39971,"is_reserved":false,"is_disabled":false,"rental_uris":{"android":"levelo://app?vid=81e82e29-73fd-4ccc-84f7-33ae8a5a0fc5","ios":"levelo://app?vid=81e82e29-73fd-4ccc-84f7-33ae8a5a0fc5"},"vehicle_type_id":"4","last_reported":1746774634,"current_range_meters":16800,"station_id":"ce4bh392rcd13ifvqdm0","pricing_plan_id":"cebpf4jnsgd1na2vs0mg"},{"bike_id":"0cb542d0-661d-4a86-904d-249f6866850a","system_id":"levelo_inurba_marseille","lat":43.257115,"lon":5.411168,"is_reserved":false,"is_disabled":false,"rental_uris":{"android":"levelo://app?vid=0cb542d0-661d-4a86-904d-249f6866850a","ios":"levelo://app?vid=0cb542d0-661d-4a86-904d-249f6866850a"},"vehicle_type_id":"4","last_reported":1746774634,"current_range_meters":16800,"station_id":"ce4bhkp2rcd13ifvqgd0","pricing_plan_id":"cebpf4jnsgd1na2vs0mg"},{"bike_id":"011969bc-0f12-4269-953b-4c1d6a4ccb57","system_id":"levelo_inurba_marseille","lat":43.30525,"lon":5.36694,"is_reserved":false,"is_disabled":false,"rental_uris":{"android":"levelo://app?vid=011969bc-0f12-4269-953b-4c1d6a4ccb57","ios":"levelo://app?vid=011969bc-0f12-4269-953b-4c1d6a4ccb57"},"vehicle_type_id":"4","last_reported":1746774634,"current_range_meters":17200,"station_id":"ce4bgrp2rcd13ifvqc9g","pricing_plan_id":"cebpf4jnsgd1na2vs0mg"},{"bike_id":"d1f95632-6d5e-406f-a729-dddd76eef8cc","system_id":"levelo_inurba_marseille","lat":43.2749,"lon":5.42464,"is_reserved":false,"is_disabled":false,"rental_uris":{"android":"levelo://app?vid=d1f95632-6d5e-406f-a729-dddd76eef8cc","ios":"levelo://app?vid=d1f95632-6d5e-406f-a729-dddd76eef8cc"},"vehicle_type_id":"4","last_reported":1746774634,"current_range_meters":16800,"station_id":"ce4bhn92rcd13ifvqgrg","pricing_plan_id":"cebpf4jnsgd1na2vs0mg"},{"bike_id":"1bc71fc2-e553-4d46-a216-fcdcaea618f0","system_id":"levelo_inurba_marseille","lat":43.34151,"lon":5.40901,"is_reserved":false,"is_disabled":true,"rental_uris":{"android":"levelo://app?vid=1bc71fc2-e553-4d46-a216-fcdcaea618f0","ios":"levelo://app?vid=1bc71fc2-e553-4d46-a216-fcdcaea618f0"},"vehicle_type_id":"4","last_reported":1746774634,"current_range_meters":16800,"station_id":"ce4bhqh2rcd13ifvqhlg","pricing_plan_id":"cebpf4jnsgd1na2vs0mg"},{"bike_id":"0d7db551-b064-4c6d-a08e-11e38caeab54","system_id":"levelo_inurba_marseille","lat":43.312253,"lon":5.368597,"is_reserved":false,"is_disabled":true,"rental_uris":{"android":"levelo://app?vid=0d7db551-b064-4c6d-a08e-11e38caeab54","ios":"levelo://app?vid=0d7db551-b064-4c6d-a08e-11e38caeab54"},"vehicle_type_id":"4","last_reported":1746774634,"current_range_meters":17200,"station_id":"ce4bgl92rcd13ifvqbq0","pricing_plan_id":"cebpf4jnsgd1na2vs0mg"},{"bike_id":"0a1a2cf6-8ec4-4374-a505-7537295ab120","system_id":"levelo_inurba_marseille","lat":43.33604,"lon":5.41019,"is_reserved":false,"is_disabled":false,"rental_uris":{"android":"levelo://app?vid=0a1a2cf6-8ec4-4374-a505-7537295ab120","ios":"levelo://app?vid=0a1a2cf6-8ec4-4374-a505-7537295ab120"},"vehicle_type_id":"4","last_reported":1746774634,"current_range_meters":17600,"station_id":"ce4bhqh2rcd13ifvqhmg","pricing_plan_id":"cebpf4jnsgd1na2vs0mg"},{"bike_id":"c5bfa5aa-e777-4ba5-a3e7-d593329e7d80","system_id":"levelo_inurba_marseille","lat":43.33612,"lon":5.41027,"is_reserved":false,"is_disabled":false,"rental_uris":{"android":"levelo://app?vid=c5bfa5aa-e777-4ba5-a3e7-d593329e7d80","ios":"levelo://app?vid=c5bfa5aa-e777-4ba5-a3e7-d593329e7d80"},"vehicle_type_id":"4","last_reported":1746774634,"current_range_meters":17200,"station_id":"","pricing_plan_id":"cebpf4jnsgd1na2vs0mg"},{"bike_id":"793939f5-c851-4fcb-af74-43de216dfc3a","system_id":"levelo_inurba_marseille","lat":43.301688,"lon":5.366281,"is_reserved":false,"is_disabled":false,"rental_uris":{"android":"levelo://app?vid=793939f5-c851-4fcb-af74-43de216dfc3a","ios":"levelo://app?vid=793939f5-c851-4fcb-af74-43de216dfc3a"},"vehicle_type_id":"4","last_reported":1746774634,"current_range_meters":17600,"station_id":"ce4bgrh2rcd13ifvqc8g","pricing_plan_id":"cebpf4jnsgd1na2vs0mg"},{"bike_id":"c1041c9f-2085-470a-b13c-f88fd8323115","system_id":"levelo_inurba_marseille","lat":43.277489,"lon":5.387282,"is_reserved":false,"is_disabled":false,"rental_uris":{"android":"levelo://app?vid=c1041c9f-2085-470a-b13c-f88fd8323115","ios":"levelo://app?vid=c1041c9f-2085-470a-b13c-f88fd8323115"},"vehicle_type_id":"4","last_reported":1746774634,"current_range_meters":17600,"station_id":"","pricing_plan_id":"cebpf4jnsgd1na2vs0mg"},{"bike_id":"0bdcdff3-8294-49b9-80e9-145bbc1ad711","system_id":"levelo_inurba_marseille","lat":43.32255,"lon":5.367793,"is_reserved":false,"is_disabled":false,"rental_uris":{"android":"levelo://app?vid=0bdcdff3-8294-49b9-80e9-145bbc1ad711","ios":"levelo://app?vid=0bdcdff3-8294-49b9-80e9-145bbc1ad711"},"vehicle_type_id":"4","last_reported":1746774634,"current_range_meters":17600,"station_id":"","pricing_plan_id":"cebpf4jnsgd1na2vs0mg"},{"bike_id":"8efe695a-4f08-49cf-bd56-6938ba40d8bb","system_id":"levelo_inurba_marseille","lat":43.3248,"lon":5.36564,"is_reserved":false,"is_disabled":false,"rental_uris":{"android":"levelo://app?vid=8efe695a-4f08-49cf-bd56-6938ba40d8bb","ios":"levelo://app?vid=8efe695a-4f08-49cf-bd56-6938ba40d8bb"},"vehicle_type_id":"4","last_reported":1746774634,"current_range_meters":17200,"station_id":"ce4bhs12rcd13ifvqhvg","pricing_plan_id":"cebpf4jnsgd1na2vs0mg"},{"bike_id":"230ea7c8-1167-47e8-8df1-9058a67debcf","system_id":"levelo_inurba_marseille","lat":43.31313,"lon":5.36719,"is_reserved":false,"is_disabled":false,"rental_uris":{"android":"levelo://app?vid=230ea7c8-1167-47e8-8df1-9058a67debcf","ios":"levelo://app?vid=230ea7c8-1167-47e8-8df1-9058a67debcf"},"vehicle_type_id":"4","last_reported":1746774634,"current_range_meters":17600,"station_id":"ce4bgr92rcd13ifvqc6g","pricing_plan_id":"cebpf4jnsgd1na2vs0mg"},{"bike_id":"577b6fa1-01aa-4b90-beb1-386dce7ef354","system_id":"levelo_inurba_marseille","lat":43.25922,"lon":5.40889,"is_reserved":false,"is_disabled":false,"rental_uris":{"android":"levelo://app?vid=577b6fa1-01aa-4b90-beb1-386dce7ef354","ios":"levelo://app?vid=577b6fa1-01aa-4b90-beb1-386dce7ef354"},"vehicle_type_id":"4","last_reported":1746774634,"current_range_meters":17600,"station_id":"ce4bhm92rcd13ifvqglg","pricing_plan_id":"cebpf4jnsgd1na2vs0mg"},{"bike_id":"3ddec5e8-9d48-4f1d-866c-2cb5c584adb4","system_id":"levelo_inurba_marseille","lat":43.28395,"lon":5.38645,"is_reserved":false,"is_disabled":false,"rental_uris":{"android":"levelo://app?vid=3ddec5e8-9d48-4f1d-866c-2cb5c584adb4","ios":"levelo://app?vid=3ddec5e8-9d48-4f1d-866c-2cb5c584adb4"},"vehicle_type_id":"4","last_reported":1746774634,"current_range_meters":17600,"station_id":"ce4bh492rcd13ifvqdvg","pricing_plan_id":"cebpf4jnsgd1na2vs0mg"},{"bike_id":"f0e0ae6b-18c7-4fdd-b166-fc7e9a679cab","system_id":"levelo_inurba_marseille","lat":43.29035,"lon":5.3996,"is_reserved":false,"is_disabled":false,"rental_uris":{"android":"levelo://app?vid=f0e0ae6b-18c7-4fdd-b166-fc7e9a679cab","ios":"levelo://app?vid=f0e0ae6b-18c7-4fdd-b166-fc7e9a679cab"},"vehicle_type_id":"4","last_reported":1746774634,"current_range_meters":17600,"station_id":"ce4bh392rcd13ifvqdm0","pricing_plan_id":"cebpf4jnsgd1na2vs0mg"},{"bike_id":"6294889e-8d73-4042-8891-9c49e4c4a089","system_id":"levelo_inurba_marseille","lat":43.304666,"lon":5.37901,"is_reserved":false,"is_disabled":false,"rental_uris":{"android":"levelo://app?vid=6294889e-8d73-4042-8891-9c49e4c4a089","ios":"levelo://app?vid=6294889e-8d73-4042-8891-9c49e4c4a089"},"vehicle_type_id":"4","last_reported":1746774634,"current_range_meters":18000,"station_id":"ce4bgup2rcd13ifvqcn0","pricing_plan_id":"cebpf4jnsgd1na2vs0mg"},{"bike_id":"14f68caa-6d4f-4584-abdf-1143d9baf33f","system_id":"levelo_inurba_marseille","lat":43.27519,"lon":5.42453,"is_reserved":false,"is_disabled":false,"rental_uris":{"android":"levelo://app?vid=14f68caa-6d4f-4584-abdf-1143d9baf33f","ios":"levelo://app?vid=14f68caa-6d4f-4584-abdf-1143d9baf33f"},"vehicle_type_id":"4","last_reported":1746774634,"current_range_meters":18000,"station_id":"ce4bhn92rcd13ifvqgrg","pricing_plan_id":"cebpf4jnsgd1na2vs0mg"},{"bike_id":"7f2b5664-2fda-4b51-860c-e4106f0b39e6","system_id":"levelo_inurba_marseille","lat":43.23182,"lon":5.39993,"is_reserved":false,"is_disabled":false,"rental_uris":{"android":"levelo://app?vid=7f2b5664-2fda-4b51-860c-e4106f0b39e6","ios":"levelo://app?vid=7f2b5664-2fda-4b51-860c-e4106f0b39e6"},"vehicle_type_id":"4","last_reported":1746774634,"current_range_meters":18000,"station_id":"ce4bhn12rcd13ifvqgqg","pricing_plan_id":"cebpf4jnsgd1na2vs0mg"},{"bike_id":"18fc0d34-3175-4e98-afa4-91a308790560","system_id":"levelo_inurba_marseille","lat":43.266811,"lon":5.402758,"is_reserved":false,"is_disabled":true,"rental_uris":{"android":"levelo://app?vid=18fc0d34-3175-4e98-afa4-91a308790560","ios":"levelo://app?vid=18fc0d34-3175-4e98-afa4-91a308790560"},"vehicle_type_id":"4","last_reported":1746774634,"current_range_meters":18000,"station_id":"","pricing_plan_id":"cebpf4jnsgd1na2vs0mg"},{"bike_id":"af07f2ba-567d-41f6-80a1-9b5cec286faf","system_id":"levelo_inurba_marseille","lat":43.22939,"lon":5.35379,"is_reserved":false,"is_disabled":false,"rental_uris":{"android":"levelo://app?vid=af07f2ba-567d-41f6-80a1-9b5cec286faf","ios":"levelo://app?vid=af07f2ba-567d-41f6-80a1-9b5cec286faf"},"vehicle_type_id":"4","last_reported":1746774634,"current_range_meters":18000,"station_id":"cpo3532slgdg3j2ikp40","pricing_plan_id":"cebpf4jnsgd1na2vs0mg"},{"bike_id":"47bbd894-0455-49a1-8108-82b4a0663e89","system_id":"levelo_inurba_marseille","lat":43.29844,"lon":5.36272,"is_reserved":false,"is_disabled":false,"rental_uris":{"android":"levelo://app?vid=47bbd894-0455-49a1-8108-82b4a0663e89","ios":"levelo://app?vid=47bbd894-0455-49a1-8108-82b4a0663e89"},"vehicle_type_id":"4","last_reported":1746774634,"current_range_meters":18800,"station_id":"ce4bgpp2rcd13ifvqc3g","pricing_plan_id":"cebpf4jnsgd1na2vs0mg"},{"bike_id":"ed0c6d89-432e-4f1c-b109-a5d589bd2f90","system_id":"levelo_inurba_marseille","lat":43.28678,"lon":5.36364,"is_reserved":false,"is_disabled":false,"rental_uris":{"android":"levelo://app?vid=ed0c6d89-432e-4f1c-b109-a5d589bd2f90","ios":"levelo://app?vid=ed0c6d89-432e-4f1c-b109-a5d589bd2f90"},"vehicle_type_id":"4","last_reported":1746774634,"current_range_meters":18000,"station_id":"ce4bhah2rcd13ifvqej0","pricing_plan_id":"cebpf4jnsgd1na2vs0mg"},{"bike_id":"14627cc4-f356-4135-9618-f7b7e9a0230f","system_id":"levelo_inurba_marseille","lat":43.27497,"lon":5.42451,"is_reserved":false,"is_disabled":true,"rental_uris":{"android":"levelo://app?vid=14627cc4-f356-4135-9618-f7b7e9a0230f","ios":"levelo://app?vid=14627cc4-f356-4135-9618-f7b7e9a0230f"},"vehicle_type_id":"4","last_reported":1746774634,"current_range_meters":18800,"station_id":"ce4bhn92rcd13ifvqgrg","pricing_plan_id":"cebpf4jnsgd1na2vs0mg"},{"bike_id":"e12d9d7c-7d91-4e14-8703-0c11cffd12e1","system_id":"levelo_inurba_marseille","lat":43.296272,"lon":5.373012,"is_reserved":false,"is_disabled":false,"rental_uris":{"android":"levelo://app?vid=e12d9d7c-7d91-4e14-8703-0c11cffd12e1","ios":"levelo://app?vid=e12d9d7c-7d91-4e14-8703-0c11cffd12e1"},"vehicle_type_id":"4","last_reported":1746774634,"current_range_meters":18800,"station_id":"ce4bgph2rcd13ifvqc2g","pricing_plan_id":"cebpf4jnsgd1na2vs0mg"},{"bike_id":"0dfa6de0-3f08-4278-b339-d8d1d608350a","system_id":"levelo_inurba_marseille","lat":43.30471,"lon":5.379,"is_reserved":false,"is_disabled":false,"rental_uris":{"android":"levelo://app?vid=0dfa6de0-3f08-4278-b339-d8d1d608350a","ios":"levelo://app?vid=0dfa6de0-3f08-4278-b339-d8d1d608350a"},"vehicle_type_id":"4","last_reported":1746774634,"current_range_meters":18800,"station_id":"ce4bgup2rcd13ifvqcn0","pricing_plan_id":"cebpf4jnsgd1na2vs0mg"},{"bike_id":"5ee48014-6b7e-42ac-8555-9310c89dd9ae","system_id":"levelo_inurba_marseille","lat":43.265907,"lon":5.390327,"is_reserved":false,"is_disabled":false,"rental_uris":{"android":"levelo://app?vid=5ee48014-6b7e-42ac-8555-9310c89dd9ae","ios":"levelo://app?vid=5ee48014-6b7e-42ac-8555-9310c89dd9ae"},"vehicle_type_id":"4","last_reported":1746774634,"current_range_meters":19200,"station_id":"ce4bhe12rcd13ifvqf30","pricing_plan_id":"cebpf4jnsgd1na2vs0mg"},{"bike_id":"a4c6a415-a8d3-413a-ba85-7cdbf624eae6","system_id":"levelo_inurba_marseille","lat":43.29249,"lon":5.39332,"is_reserved":false,"is_disabled":true,"rental_uris":{"android":"levelo://app?vid=a4c6a415-a8d3-413a-ba85-7cdbf624eae6","ios":"levelo://app?vid=a4c6a415-a8d3-413a-ba85-7cdbf624eae6"},"vehicle_type_id":"4","last_reported":1746774634,"current_range_meters":19200,"station_id":"ce4bh192rcd13ifvqdd0","pricing_plan_id":"cebpf4jnsgd1na2vs0mg"},{"bike_id":"c65732d7-d6e4-4134-b90d-85c2276db215","system_id":"levelo_inurba_marseille","lat":43.25923,"lon":5.40888,"is_reserved":false,"is_disabled":false,"rental_uris":{"android":"levelo://app?vid=c65732d7-d6e4-4134-b90d-85c2276db215","ios":"levelo://app?vid=c65732d7-d6e4-4134-b90d-85c2276db215"},"vehicle_type_id":"4","last_reported":1746774634,"current_range_meters":19200,"station_id":"ce4bhm92rcd13ifvqglg","pricing_plan_id":"cebpf4jnsgd1na2vs0mg"},{"bike_id":"3e7c6aae-b2bc-4dc1-ae18-e8b01d55045f","system_id":"levelo_inurba_marseille","lat":43.24652,"lon":5.43629,"is_reserved":false,"is_disabled":false,"rental_uris":{"android":"levelo://app?vid=3e7c6aae-b2bc-4dc1-ae18-e8b01d55045f","ios":"levelo://app?vid=3e7c6aae-b2bc-4dc1-ae18-e8b01d55045f"},"vehicle_type_id":"4","last_reported":1746774634,"current_range_meters":19200,"station_id":"","pricing_plan_id":"cebpf4jnsgd1na2vs0mg"},{"bike_id":"881c097a-b180-44f5-9d6b-1f54f714978b","system_id":"levelo_inurba_marseille","lat":43.27073,"lon":5.42289,"is_reserved":false,"is_disabled":false,"rental_uris":{"android":"levelo://app?vid=881c097a-b180-44f5-9d6b-1f54f714978b","ios":"levelo://app?vid=881c097a-b180-44f5-9d6b-1f54f714978b"},"vehicle_type_id":"4","last_reported":1746774634,"current_range_meters":19200,"station_id":"ce4bhk92rcd13ifvqgb0","pricing_plan_id":"cebpf4jnsgd1na2vs0mg"},{"bike_id":"ffb97e98-b63f-4c42-9b50-5f510ebcee9b","system_id":"levelo_inurba_marseille","lat":43.27498,"lon":5.4246,"is_reserved":false,"is_disabled":false,"rental_uris":{"android":"levelo://app?vid=ffb97e98-b63f-4c42-9b50-5f510ebcee9b","ios":"levelo://app?vid=ffb97e98-b63f-4c42-9b50-5f510ebcee9b"},"vehicle_type_id":"4","last_reported":1746774634,"current_range_meters":19200,"station_id":"ce4bhn92rcd13ifvqgrg","pricing_plan_id":"cebpf4jnsgd1na2vs0mg"},{"bike_id":"abb842f5-7949-4a02-bff6-7f107a389073","system_id":"levelo_inurba_marseille","lat":43.30952,"lon":5.39028,"is_reserved":false,"is_disabled":false,"rental_uris":{"android":"levelo://app?vid=abb842f5-7949-4a02-bff6-7f107a389073","ios":"levelo://app?vid=abb842f5-7949-4a02-bff6-7f107a389073"},"vehicle_type_id":"4","last_reported":1746774634,"current_range_meters":19200,"station_id":"ce4bgup2rcd13ifvqco0","pricing_plan_id":"cebpf4jnsgd1na2vs0mg"},{"bike_id":"2216c489-9ce2-4c98-86b0-50e6f232bd46","system_id":"levelo_inurba_marseille","lat":43.26562,"lon":5.39018,"is_reserved":false,"is_disabled":false,"rental_uris":{"android":"levelo://app?vid=2216c489-9ce2-4c98-86b0-50e6f232bd46","ios":"levelo://app?vid=2216c489-9ce2-4c98-86b0-50e6f232bd46"},"vehicle_type_id":"4","last_reported":1746774634,"current_range_meters":19200,"station_id":"ce4bhe12rcd13ifvqf30","pricing_plan_id":"cebpf4jnsgd1na2vs0mg"},{"bike_id":"c27a6880-77bb-42e5-bbbb-0e131e49345c","system_id":"levelo_inurba_marseille","lat":43.29262,"lon":5.38427,"is_reserved":false,"is_disabled":false,"rental_uris":{"android":"levelo://app?vid=c27a6880-77bb-42e5-bbbb-0e131e49345c","ios":"levelo://app?vid=c27a6880-77bb-42e5-bbbb-0e131e49345c"},"vehicle_type_id":"4","last_reported":1746774634,"current_range_meters":19200,"station_id":"ce4bh692rcd13ifvqea0","pricing_plan_id":"cebpf4jnsgd1na2vs0mg"},{"bike_id":"d41a9ce3-cdae-405f-b097-97f6178b5f4b","system_id":"levelo_inurba_marseille","lat":43.28679,"lon":5.3636,"is_reserved":false,"is_disabled":false,"rental_uris":{"android":"levelo://app?vid=d41a9ce3-cdae-405f-b097-97f6178b5f4b","ios":"levelo://app?vid=d41a9ce3-cdae-405f-b097-97f6178b5f4b"},"vehicle_type_id":"4","last_reported":1746774634,"current_range_meters":18800,"station_id":"ce4bhah2rcd13ifvqej0","pricing_plan_id":"cebpf4jnsgd1na2vs0mg"},{"bike_id":"4b55cb69-087f-4ac8-aec8-33ebaad80586","system_id":"levelo_inurba_marseille","lat":43.32553,"lon":5.414438,"is_reserved":false,"is_disabled":false,"rental_uris":{"android":"levelo://app?vid=4b55cb69-087f-4ac8-aec8-33ebaad80586","ios":"levelo://app?vid=4b55cb69-087f-4ac8-aec8-33ebaad80586"},"vehicle_type_id":"4","last_reported":1746774634,"current_range_meters":19600,"station_id":"ce4bhq12rcd13ifvqhhg","pricing_plan_id":"cebpf4jnsgd1na2vs0mg"},{"bike_id":"2b695556-5fdc-4725-a789-9b7b81b7a3a6","system_id":"levelo_inurba_marseille","lat":43.323624,"lon":5.367676,"is_reserved":false,"is_disabled":false,"rental_uris":{"android":"levelo://app?vid=2b695556-5fdc-4725-a789-9b7b81b7a3a6","ios":"levelo://app?vid=2b695556-5fdc-4725-a789-9b7b81b7a3a6"},"vehicle_type_id":"4","last_reported":1746774634,"current_range_meters":20000,"station_id":"ce4bhsh2rcd13ifvqi2g","pricing_plan_id":"cebpf4jnsgd1na2vs0mg"},{"bike_id":"037ec810-a86d-4268-ab9b-146734bddaae","system_id":"levelo_inurba_marseille","lat":43.230642,"lon":5.354881,"is_reserved":false,"is_disabled":false,"rental_uris":{"android":"levelo://app?vid=037ec810-a86d-4268-ab9b-146734bddaae","ios":"levelo://app?vid=037ec810-a86d-4268-ab9b-146734bddaae"},"vehicle_type_id":"4","last_reported":1746774634,"current_range_meters":20000,"station_id":"cpo3342slgdg3j2ifvpg","pricing_plan_id":"cebpf4jnsgd1na2vs0mg"},{"bike_id":"9708883f-58e8-4f42-bc19-86a7649589ac","system_id":"levelo_inurba_marseille","lat":43.319978,"lon":5.381569,"is_reserved":false,"is_disabled":false,"rental_uris":{"android":"levelo://app?vid=9708883f-58e8-4f42-bc19-86a7649589ac","ios":"levelo://app?vid=9708883f-58e8-4f42-bc19-86a7649589ac"},"vehicle_type_id":"4","last_reported":1746774634,"current_range_meters":19600,"station_id":"ce4bhr12rcd13ifvqhpg","pricing_plan_id":"cebpf4jnsgd1na2vs0mg"},{"bike_id":"f450e35b-8df9-497f-bac7-f50553cca1a1","system_id":"levelo_inurba_marseille","lat":43.21756,"lon":5.34614,"is_reserved":false,"is_disabled":false,"rental_uris":{"android":"levelo://app?vid=f450e35b-8df9-497f-bac7-f50553cca1a1","ios":"levelo://app?vid=f450e35b-8df9-497f-bac7-f50553cca1a1"},"vehicle_type_id":"4","last_reported":1746774634,"current_range_meters":20000,"station_id":"st_cvj6r9ubvosntc0bgbag","pricing_plan_id":"cebpf4jnsgd1na2vs0mg"},{"bike_id":"62229c65-46f3-4238-b480-5d0b68fcee5a","system_id":"levelo_inurba_marseille","lat":43.287233,"lon":5.399897,"is_reserved":false,"is_disabled":false,"rental_uris":{"android":"levelo://app?vid=62229c65-46f3-4238-b480-5d0b68fcee5a","ios":"levelo://app?vid=62229c65-46f3-4238-b480-5d0b68fcee5a"},"vehicle_type_id":"4","last_reported":1746774634,"current_range_meters":20000,"station_id":"ce4bho92rcd13ifvqh3g","pricing_plan_id":"cebpf4jnsgd1na2vs0mg"},{"bike_id":"ec913260-aadc-4458-bc73-4a58d04a1887","system_id":"levelo_inurba_marseille","lat":43.30467,"lon":5.37907,"is_reserved":false,"is_disabled":false,"rental_uris":{"android":"levelo://app?vid=ec913260-aadc-4458-bc73-4a58d04a1887","ios":"levelo://app?vid=ec913260-aadc-4458-bc73-4a58d04a1887"},"vehicle_type_id":"4","last_reported":1746774634,"current_range_meters":20000,"station_id":"ce4bgup2rcd13ifvqcn0","pricing_plan_id":"cebpf4jnsgd1na2vs0mg"},{"bike_id":"2e163a66-f820-48e7-9423-2ffb36ddd32a","system_id":"levelo_inurba_marseille","lat":43.2418,"lon":5.39737,"is_reserved":false,"is_disabled":false,"rental_uris":{"android":"levelo://app?vid=2e163a66-f820-48e7-9423-2ffb36ddd32a","ios":"levelo://app?vid=2e163a66-f820-48e7-9423-2ffb36ddd32a"},"vehicle_type_id":"4","last_reported":1746774634,"current_range_meters":20000,"station_id":"ce4bhn12rcd13ifvqgpg","pricing_plan_id":"cebpf4jnsgd1na2vs0mg"},{"bike_id":"545e5687-b7df-4883-81be-75a8925d5f91","system_id":"levelo_inurba_marseille","lat":43.337444,"lon":5.374475,"is_reserved":false,"is_disabled":false,"rental_uris":{"android":"levelo://app?vid=545e5687-b7df-4883-81be-75a8925d5f91","ios":"levelo://app?vid=545e5687-b7df-4883-81be-75a8925d5f91"},"vehicle_type_id":"4","last_reported":1746774634,"current_range_meters":20000,"station_id":"","pricing_plan_id":"cebpf4jnsgd1na2vs0mg"},{"bike_id":"e4309409-2fdc-4b68-a032-aaef1c1bd268","system_id":"levelo_inurba_marseille","lat":43.28721,"lon":5.36071,"is_reserved":false,"is_disabled":false,"rental_uris":{"android":"levelo://app?vid=e4309409-2fdc-4b68-a032-aaef1c1bd268","ios":"levelo://app?vid=e4309409-2fdc-4b68-a032-aaef1c1bd268"},"vehicle_type_id":"4","last_reported":1746774634,"current_range_meters":20000,"station_id":"cki0cbj6b192h4jlfktg","pricing_plan_id":"cebpf4jnsgd1na2vs0mg"},{"bike_id":"aa87049f-0c02-4c84-8b67-99ac7c7be172","system_id":"levelo_inurba_marseille","lat":43.31225,"lon":5.36855,"is_reserved":false,"is_disabled":false,"rental_uris":{"android":"levelo://app?vid=aa87049f-0c02-4c84-8b67-99ac7c7be172","ios":"levelo://app?vid=aa87049f-0c02-4c84-8b67-99ac7c7be172"},"vehicle_type_id":"4","last_reported":1746774634,"current_range_meters":20000,"station_id":"ce4bgl92rcd13ifvqbq0","pricing_plan_id":"cebpf4jnsgd1na2vs0mg"},{"bike_id":"c989f169-93e2-4526-bbcb-7d094f818e01","system_id":"levelo_inurba_marseille","lat":43.24069,"lon":5.37759,"is_reserved":false,"is_disabled":true,"rental_uris":{"android":"levelo://app?vid=c989f169-93e2-4526-bbcb-7d094f818e01","ios":"levelo://app?vid=c989f169-93e2-4526-bbcb-7d094f818e01"},"vehicle_type_id":"4","last_reported":1746774634,"current_range_meters":20400,"station_id":"ce4bhnp2rcd13ifvqgvg","pricing_plan_id":"cebpf4jnsgd1na2vs0mg"},{"bike_id":"fc2577e7-1497-425b-9d4f-ab8d7dc843c6","system_id":"levelo_inurba_marseille","lat":43.33771,"lon":5.37485,"is_reserved":false,"is_disabled":false,"rental_uris":{"android":"levelo://app?vid=fc2577e7-1497-425b-9d4f-ab8d7dc843c6","ios":"levelo://app?vid=fc2577e7-1497-425b-9d4f-ab8d7dc843c6"},"vehicle_type_id":"4","last_reported":1746774634,"current_range_meters":20400,"station_id":"","pricing_plan_id":"cebpf4jnsgd1na2vs0mg"},{"bike_id":"fa1b1f66-7519-42e8-92aa-be43cf3d9e34","system_id":"levelo_inurba_marseille","lat":43.22502,"lon":5.34782,"is_reserved":false,"is_disabled":true,"rental_uris":{"android":"levelo://app?vid=fa1b1f66-7519-42e8-92aa-be43cf3d9e34","ios":"levelo://app?vid=fa1b1f66-7519-42e8-92aa-be43cf3d9e34"},"vehicle_type_id":"4","last_reported":1746774634,"current_range_meters":20400,"station_id":"st_cvj5dfep6f1abm77gieg","pricing_plan_id":"cebpf4jnsgd1na2vs0mg"},{"bike_id":"50ada4fa-fab1-41f0-b8fd-c4dc3e84ffb1","system_id":"levelo_inurba_marseille","lat":43.23195,"lon":5.35551,"is_reserved":false,"is_disabled":false,"rental_uris":{"android":"levelo://app?vid=50ada4fa-fab1-41f0-b8fd-c4dc3e84ffb1","ios":"levelo://app?vid=50ada4fa-fab1-41f0-b8fd-c4dc3e84ffb1"},"vehicle_type_id":"4","last_reported":1746774634,"current_range_meters":20400,"station_id":"ce4bhu92rcd13ifvqi70","pricing_plan_id":"cebpf4jnsgd1na2vs0mg"},{"bike_id":"3b122410-ab11-411d-9861-ff41351c718b","system_id":"levelo_inurba_marseille","lat":43.32656,"lon":5.41,"is_reserved":false,"is_disabled":false,"rental_uris":{"android":"levelo://app?vid=3b122410-ab11-411d-9861-ff41351c718b","ios":"levelo://app?vid=3b122410-ab11-411d-9861-ff41351c718b"},"vehicle_type_id":"4","last_reported":1746774634,"current_range_meters":20400,"station_id":"ce4bhpp2rcd13ifvqhgg","pricing_plan_id":"cebpf4jnsgd1na2vs0mg"},{"bike_id":"1496a41e-3b69-46ed-bd2c-93c9bc7bd271","system_id":"levelo_inurba_marseille","lat":43.24068,"lon":5.37745,"is_reserved":false,"is_disabled":false,"rental_uris":{"android":"levelo://app?vid=1496a41e-3b69-46ed-bd2c-93c9bc7bd271","ios":"levelo://app?vid=1496a41e-3b69-46ed-bd2c-93c9bc7bd271"},"vehicle_type_id":"4","last_reported":1746774634,"current_range_meters":20400,"station_id":"ce4bhnp2rcd13ifvqgvg","pricing_plan_id":"cebpf4jnsgd1na2vs0mg"},{"bike_id":"a162c5f1-732c-44af-a1c0-c0cba2f75af8","system_id":"levelo_inurba_marseille","lat":43.28697,"lon":5.39991,"is_reserved":false,"is_disabled":false,"rental_uris":{"android":"levelo://app?vid=a162c5f1-732c-44af-a1c0-c0cba2f75af8","ios":"levelo://app?vid=a162c5f1-732c-44af-a1c0-c0cba2f75af8"},"vehicle_type_id":"4","last_reported":1746774634,"current_range_meters":20400,"station_id":"ce4bho92rcd13ifvqh3g","pricing_plan_id":"cebpf4jnsgd1na2vs0mg"},{"bike_id":"96747cbf-85b0-42b6-af3b-64265369fd0a","system_id":"levelo_inurba_marseille","lat":43.30423,"lon":5.41283,"is_reserved":false,"is_disabled":false,"rental_uris":{"android":"levelo://app?vid=96747cbf-85b0-42b6-af3b-64265369fd0a","ios":"levelo://app?vid=96747cbf-85b0-42b6-af3b-64265369fd0a"},"vehicle_type_id":"4","last_reported":1746774634,"current_range_meters":20400,"station_id":"ce4bhop2rcd13ifvqh8g","pricing_plan_id":"cebpf4jnsgd1na2vs0mg"},{"bike_id":"88ab416e-5825-4b4c-ba3f-bbfa172c11a2","system_id":"levelo_inurba_marseille","lat":43.30959,"lon":5.39042,"is_reserved":false,"is_disabled":false,"rental_uris":{"android":"levelo://app?vid=88ab416e-5825-4b4c-ba3f-bbfa172c11a2","ios":"levelo://app?vid=88ab416e-5825-4b4c-ba3f-bbfa172c11a2"},"vehicle_type_id":"4","last_reported":1746774634,"current_range_meters":20800,"station_id":"ce4bgup2rcd13ifvqco0","pricing_plan_id":"cebpf4jnsgd1na2vs0mg"},{"bike_id":"6bd14865-8d6b-40ce-86e0-18c752f173ed","system_id":"levelo_inurba_marseille","lat":43.315,"lon":5.37308,"is_reserved":false,"is_disabled":false,"rental_uris":{"android":"levelo://app?vid=6bd14865-8d6b-40ce-86e0-18c752f173ed","ios":"levelo://app?vid=6bd14865-8d6b-40ce-86e0-18c752f173ed"},"vehicle_type_id":"4","last_reported":1746774634,"current_range_meters":20800,"station_id":"ce4bgt12rcd13ifvqcd0","pricing_plan_id":"cebpf4jnsgd1na2vs0mg"},{"bike_id":"db56a795-a831-45bf-b6e7-e8659764e51d","system_id":"levelo_inurba_marseille","lat":43.26684,"lon":5.3827,"is_reserved":false,"is_disabled":false,"rental_uris":{"android":"levelo://app?vid=db56a795-a831-45bf-b6e7-e8659764e51d","ios":"levelo://app?vid=db56a795-a831-45bf-b6e7-e8659764e51d"},"vehicle_type_id":"4","last_reported":1746774634,"current_range_meters":20000,"station_id":"ce4bhg92rcd13ifvqf90","pricing_plan_id":"cebpf4jnsgd1na2vs0mg"},{"bike_id":"95dc5ac3-f9a8-4e4d-a9ba-a15ab0bdde00","system_id":"levelo_inurba_marseille","lat":43.240637,"lon":5.377617,"is_reserved":false,"is_disabled":false,"rental_uris":{"android":"levelo://app?vid=95dc5ac3-f9a8-4e4d-a9ba-a15ab0bdde00","ios":"levelo://app?vid=95dc5ac3-f9a8-4e4d-a9ba-a15ab0bdde00"},"vehicle_type_id":"4","last_reported":1746774634,"current_range_meters":20800,"station_id":"ce4bhnp2rcd13ifvqgvg","pricing_plan_id":"cebpf4jnsgd1na2vs0mg"},{"bike_id":"7dbf7670-d1d0-4a80-8ac5-74bfe0c01954","system_id":"levelo_inurba_marseille","lat":43.23765,"lon":5.36182,"is_reserved":false,"is_disabled":false,"rental_uris":{"android":"levelo://app?vid=7dbf7670-d1d0-4a80-8ac5-74bfe0c01954","ios":"levelo://app?vid=7dbf7670-d1d0-4a80-8ac5-74bfe0c01954"},"vehicle_type_id":"4","last_reported":1746774634,"current_range_meters":20800,"station_id":"","pricing_plan_id":"cebpf4jnsgd1na2vs0mg"},{"bike_id":"edd60f3c-8f20-43fd-b8a1-002c70da4042","system_id":"levelo_inurba_marseille","lat":43.2455,"lon":5.39481,"is_reserved":false,"is_disabled":false,"rental_uris":{"android":"levelo://app?vid=edd60f3c-8f20-43fd-b8a1-002c70da4042","ios":"levelo://app?vid=edd60f3c-8f20-43fd-b8a1-002c70da4042"},"vehicle_type_id":"4","last_reported":1746774634,"current_range_meters":20800,"station_id":"ce4bhlp2rcd13ifvqgjg","pricing_plan_id":"cebpf4jnsgd1na2vs0mg"},{"bike_id":"66d39f5f-1aac-423b-9ea7-bf9c1b0e5079","system_id":"levelo_inurba_marseille","lat":43.275074,"lon":5.411238,"is_reserved":false,"is_disabled":false,"rental_uris":{"android":"levelo://app?vid=66d39f5f-1aac-423b-9ea7-bf9c1b0e5079","ios":"levelo://app?vid=66d39f5f-1aac-423b-9ea7-bf9c1b0e5079"},"vehicle_type_id":"4","last_reported":1746774634,"current_range_meters":20800,"station_id":"","pricing_plan_id":"cebpf4jnsgd1na2vs0mg"},{"bike_id":"3b8aa428-be44-4b7c-bc5b-5f40f1b3ad78","system_id":"levelo_inurba_marseille","lat":43.25938,"lon":5.4091,"is_reserved":false,"is_disabled":false,"rental_uris":{"android":"levelo://app?vid=3b8aa428-be44-4b7c-bc5b-5f40f1b3ad78","ios":"levelo://app?vid=3b8aa428-be44-4b7c-bc5b-5f40f1b3ad78"},"vehicle_type_id":"4","last_reported":1746774634,"current_range_meters":21600,"station_id":"ce4bhm92rcd13ifvqglg","pricing_plan_id":"cebpf4jnsgd1na2vs0mg"},{"bike_id":"8a277907-7015-4c21-bde8-64405278d4c1","system_id":"levelo_inurba_marseille","lat":43.309029,"lon":5.368485,"is_reserved":false,"is_disabled":false,"rental_uris":{"android":"levelo://app?vid=8a277907-7015-4c21-bde8-64405278d4c1","ios":"levelo://app?vid=8a277907-7015-4c21-bde8-64405278d4c1"},"vehicle_type_id":"4","last_reported":1746774634,"current_range_meters":21600,"station_id":"ce4bgn92rcd13ifvqbvg","pricing_plan_id":"cebpf4jnsgd1na2vs0mg"},{"bike_id":"c410a750-c8f0-48c3-993b-6ff06aae5c52","system_id":"levelo_inurba_marseille","lat":43.26577,"lon":5.39011,"is_reserved":false,"is_disabled":false,"rental_uris":{"android":"levelo://app?vid=c410a750-c8f0-48c3-993b-6ff06aae5c52","ios":"levelo://app?vid=c410a750-c8f0-48c3-993b-6ff06aae5c52"},"vehicle_type_id":"4","last_reported":1746774634,"current_range_meters":21600,"station_id":"ce4bhe12rcd13ifvqf30","pricing_plan_id":"cebpf4jnsgd1na2vs0mg"},{"bike_id":"7365be41-1046-4ddc-b6a7-e28a1ad56b2a","system_id":"levelo_inurba_marseille","lat":43.3255,"lon":5.41453,"is_reserved":false,"is_disabled":false,"rental_uris":{"android":"levelo://app?vid=7365be41-1046-4ddc-b6a7-e28a1ad56b2a","ios":"levelo://app?vid=7365be41-1046-4ddc-b6a7-e28a1ad56b2a"},"vehicle_type_id":"4","last_reported":1746774634,"current_range_meters":22000,"station_id":"ce4bhq12rcd13ifvqhhg","pricing_plan_id":"cebpf4jnsgd1na2vs0mg"},{"bike_id":"9b84e65f-2424-4f8e-b51b-21355d123536","system_id":"levelo_inurba_marseille","lat":43.31506,"lon":5.37238,"is_reserved":false,"is_disabled":false,"rental_uris":{"android":"levelo://app?vid=9b84e65f-2424-4f8e-b51b-21355d123536","ios":"levelo://app?vid=9b84e65f-2424-4f8e-b51b-21355d123536"},"vehicle_type_id":"4","last_reported":1746774634,"current_range_meters":22000,"station_id":"","pricing_plan_id":"cebpf4jnsgd1na2vs0mg"},{"bike_id":"a1121b36-b5cd-4dda-96ef-13a3dfaa55e1","system_id":"levelo_inurba_marseille","lat":43.301401,"lon":5.387791,"is_reserved":false,"is_disabled":false,"rental_uris":{"android":"levelo://app?vid=a1121b36-b5cd-4dda-96ef-13a3dfaa55e1","ios":"levelo://app?vid=a1121b36-b5cd-4dda-96ef-13a3dfaa55e1"},"vehicle_type_id":"4","last_reported":1746774634,"current_range_meters":22000,"station_id":"","pricing_plan_id":"cebpf4jnsgd1na2vs0mg"},{"bike_id":"a7ad83d4-b109-4b29-aaf3-aaaf261d1a57","system_id":"levelo_inurba_marseille","lat":43.25919,"lon":5.4088,"is_reserved":false,"is_disabled":false,"rental_uris":{"android":"levelo://app?vid=a7ad83d4-b109-4b29-aaf3-aaaf261d1a57","ios":"levelo://app?vid=a7ad83d4-b109-4b29-aaf3-aaaf261d1a57"},"vehicle_type_id":"4","last_reported":1746774634,"current_range_meters":22000,"station_id":"ce4bhm92rcd13ifvqglg","pricing_plan_id":"cebpf4jnsgd1na2vs0mg"},{"bike_id":"2a781898-733f-4cb8-9ad2-8dda03244433","system_id":"levelo_inurba_marseille","lat":43.30498,"lon":5.37913,"is_reserved":false,"is_disabled":false,"rental_uris":{"android":"levelo://app?vid=2a781898-733f-4cb8-9ad2-8dda03244433","ios":"levelo://app?vid=2a781898-733f-4cb8-9ad2-8dda03244433"},"vehicle_type_id":"4","last_reported":1746774634,"current_range_meters":22000,"station_id":"ce4bgup2rcd13ifvqcn0","pricing_plan_id":"cebpf4jnsgd1na2vs0mg"},{"bike_id":"c549b371-f9b6-4ff7-a2d2-9f5f456f537b","system_id":"levelo_inurba_marseille","lat":43.23199,"lon":5.39985,"is_reserved":false,"is_disabled":false,"rental_uris":{"android":"levelo://app?vid=c549b371-f9b6-4ff7-a2d2-9f5f456f537b","ios":"levelo://app?vid=c549b371-f9b6-4ff7-a2d2-9f5f456f537b"},"vehicle_type_id":"4","last_reported":1746774634,"current_range_meters":22000,"station_id":"ce4bhn12rcd13ifvqgqg","pricing_plan_id":"cebpf4jnsgd1na2vs0mg"},{"bike_id":"da9bb11b-1cb7-45ed-b7bc-8a349e88f4b8","system_id":"levelo_inurba_marseille","lat":43.30887,"lon":5.37189,"is_reserved":false,"is_disabled":true,"rental_uris":{"android":"levelo://app?vid=da9bb11b-1cb7-45ed-b7bc-8a349e88f4b8","ios":"levelo://app?vid=da9bb11b-1cb7-45ed-b7bc-8a349e88f4b8"},"vehicle_type_id":"4","last_reported":1746774634,"current_range_meters":22000,"station_id":"ce4bguh2rcd13ifvqckg","pricing_plan_id":"cebpf4jnsgd1na2vs0mg"},{"bike_id":"bef5a1e9-3a53-4b79-8ee5-9b0c66f395e5","system_id":"levelo_inurba_marseille","lat":43.29856,"lon":5.36286,"is_reserved":false,"is_disabled":false,"rental_uris":{"android":"levelo://app?vid=bef5a1e9-3a53-4b79-8ee5-9b0c66f395e5","ios":"levelo://app?vid=bef5a1e9-3a53-4b79-8ee5-9b0c66f395e5"},"vehicle_type_id":"4","last_reported":1746774634,"current_range_meters":22400,"station_id":"ce4bgpp2rcd13ifvqc3g","pricing_plan_id":"cebpf4jnsgd1na2vs0mg"},{"bike_id":"52756607-7827-4f61-8695-3cabe7ff1d7c","system_id":"levelo_inurba_marseille","lat":43.24178,"lon":5.39729,"is_reserved":false,"is_disabled":false,"rental_uris":{"android":"levelo://app?vid=52756607-7827-4f61-8695-3cabe7ff1d7c","ios":"levelo://app?vid=52756607-7827-4f61-8695-3cabe7ff1d7c"},"vehicle_type_id":"4","last_reported":1746774634,"current_range_meters":19600,"station_id":"ce4bhn12rcd13ifvqgpg","pricing_plan_id":"cebpf4jnsgd1na2vs0mg"},{"bike_id":"a1c032d9-fb7e-4306-9ec1-d783dff7f244","system_id":"levelo_inurba_marseille","lat":43.30527,"lon":5.38417,"is_reserved":false,"is_disabled":false,"rental_uris":{"android":"levelo://app?vid=a1c032d9-fb7e-4306-9ec1-d783dff7f244","ios":"levelo://app?vid=a1c032d9-fb7e-4306-9ec1-d783dff7f244"},"vehicle_type_id":"4","last_reported":1746774634,"current_range_meters":22400,"station_id":"ce4bgg92rcd13ifvqb30","pricing_plan_id":"cebpf4jnsgd1na2vs0mg"},{"bike_id":"2d6856ac-db8e-4729-a56c-d8940dfaff9b","system_id":"levelo_inurba_marseille","lat":43.25935,"lon":5.40899,"is_reserved":false,"is_disabled":false,"rental_uris":{"android":"levelo://app?vid=2d6856ac-db8e-4729-a56c-d8940dfaff9b","ios":"levelo://app?vid=2d6856ac-db8e-4729-a56c-d8940dfaff9b"},"vehicle_type_id":"4","last_reported":1746774634,"current_range_meters":22400,"station_id":"ce4bhm92rcd13ifvqglg","pricing_plan_id":"cebpf4jnsgd1na2vs0mg"},{"bike_id":"14223776-a23e-4712-8bee-ecd2a1646e05","system_id":"levelo_inurba_marseille","lat":43.2903,"lon":5.38646,"is_reserved":false,"is_disabled":false,"rental_uris":{"android":"levelo://app?vid=14223776-a23e-4712-8bee-ecd2a1646e05","ios":"levelo://app?vid=14223776-a23e-4712-8bee-ecd2a1646e05"},"vehicle_type_id":"4","last_reported":1746774634,"current_range_meters":22400,"station_id":"ce4bh4p2rcd13ifvqe0g","pricing_plan_id":"cebpf4jnsgd1na2vs0mg"},{"bike_id":"6c036e22-2880-4ca3-8ec2-3c1c93aa2e22","system_id":"levelo_inurba_marseille","lat":43.33043,"lon":5.39051,"is_reserved":false,"is_disabled":false,"rental_uris":{"android":"levelo://app?vid=6c036e22-2880-4ca3-8ec2-3c1c93aa2e22","ios":"levelo://app?vid=6c036e22-2880-4ca3-8ec2-3c1c93aa2e22"},"vehicle_type_id":"4","last_reported":1746774634,"current_range_meters":22800,"station_id":"ce4bhr92rcd13ifvqhrg","pricing_plan_id":"cebpf4jnsgd1na2vs0mg"},{"bike_id":"bf3c2987-1afc-49a8-82dc-b158828729b4","system_id":"levelo_inurba_marseille","lat":43.28692,"lon":5.39989,"is_reserved":false,"is_disabled":false,"rental_uris":{"android":"levelo://app?vid=bf3c2987-1afc-49a8-82dc-b158828729b4","ios":"levelo://app?vid=bf3c2987-1afc-49a8-82dc-b158828729b4"},"vehicle_type_id":"4","last_reported":1746774634,"current_range_meters":22800,"station_id":"ce4bho92rcd13ifvqh3g","pricing_plan_id":"cebpf4jnsgd1na2vs0mg"},{"bike_id":"1c731629-96f5-4188-8708-0364441a3ffd","system_id":"levelo_inurba_marseille","lat":43.27496,"lon":5.42462,"is_reserved":false,"is_disabled":false,"rental_uris":{"android":"levelo://app?vid=1c731629-96f5-4188-8708-0364441a3ffd","ios":"levelo://app?vid=1c731629-96f5-4188-8708-0364441a3ffd"},"vehicle_type_id":"4","last_reported":1746774634,"current_range_meters":22800,"station_id":"ce4bhn92rcd13ifvqgrg","pricing_plan_id":"cebpf4jnsgd1na2vs0mg"},{"bike_id":"5d2b7d32-3398-4e85-9947-c5b202c86379","system_id":"levelo_inurba_marseille","lat":43.285707,"lon":5.394887,"is_reserved":false,"is_disabled":true,"rental_uris":{"android":"levelo://app?vid=5d2b7d32-3398-4e85-9947-c5b202c86379","ios":"levelo://app?vid=5d2b7d32-3398-4e85-9947-c5b202c86379"},"vehicle_type_id":"4","last_reported":1746774634,"current_range_meters":22800,"station_id":"","pricing_plan_id":"cebpf4jnsgd1na2vs0mg"},{"bike_id":"e452c63a-c77f-4b5c-9712-2be0fc8111c4","system_id":"levelo_inurba_marseille","lat":43.32535,"lon":5.41446,"is_reserved":false,"is_disabled":false,"rental_uris":{"android":"levelo://app?vid=e452c63a-c77f-4b5c-9712-2be0fc8111c4","ios":"levelo://app?vid=e452c63a-c77f-4b5c-9712-2be0fc8111c4"},"vehicle_type_id":"4","last_reported":1746774634,"current_range_meters":22800,"station_id":"ce4bhq12rcd13ifvqhhg","pricing_plan_id":"cebpf4jnsgd1na2vs0mg"},{"bike_id":"6fd41433-8072-4307-9efc-7964e4d6a723","system_id":"levelo_inurba_marseille","lat":43.24065,"lon":5.37759,"is_reserved":false,"is_disabled":false,"rental_uris":{"android":"levelo://app?vid=6fd41433-8072-4307-9efc-7964e4d6a723","ios":"levelo://app?vid=6fd41433-8072-4307-9efc-7964e4d6a723"},"vehicle_type_id":"4","last_reported":1746774634,"current_range_meters":23200,"station_id":"ce4bhnp2rcd13ifvqgvg","pricing_plan_id":"cebpf4jnsgd1na2vs0mg"},{"bike_id":"c10faa6f-1b04-4eed-a4a7-870b3add300e","system_id":"levelo_inurba_marseille","lat":43.24083,"lon":5.3772,"is_reserved":false,"is_disabled":false,"rental_uris":{"android":"levelo://app?vid=c10faa6f-1b04-4eed-a4a7-870b3add300e","ios":"levelo://app?vid=c10faa6f-1b04-4eed-a4a7-870b3add300e"},"vehicle_type_id":"4","last_reported":1746774634,"current_range_meters":22800,"station_id":"ce4bhnp2rcd13ifvqgvg","pricing_plan_id":"cebpf4jnsgd1na2vs0mg"},{"bike_id":"a161c35e-1c40-43d7-a73d-d3580ffe22a2","system_id":"levelo_inurba_marseille","lat":43.29935,"lon":5.36521,"is_reserved":false,"is_disabled":false,"rental_uris":{"android":"levelo://app?vid=a161c35e-1c40-43d7-a73d-d3580ffe22a2","ios":"levelo://app?vid=a161c35e-1c40-43d7-a73d-d3580ffe22a2"},"vehicle_type_id":"4","last_reported":1746774634,"current_range_meters":23200,"station_id":"ce4bgm92rcd13ifvqbr0","pricing_plan_id":"cebpf4jnsgd1na2vs0mg"},{"bike_id":"5456f221-acee-47dc-a991-5c9e91f0fd0c","system_id":"levelo_inurba_marseille","lat":43.30212,"lon":5.39466,"is_reserved":false,"is_disabled":false,"rental_uris":{"android":"levelo://app?vid=5456f221-acee-47dc-a991-5c9e91f0fd0c","ios":"levelo://app?vid=5456f221-acee-47dc-a991-5c9e91f0fd0c"},"vehicle_type_id":"4","last_reported":1746774634,"current_range_meters":23200,"station_id":"ce4bh0p2rcd13ifvqd70","pricing_plan_id":"cebpf4jnsgd1na2vs0mg"},{"bike_id":"c858c73e-da31-4827-8661-76fb4ce30ba1","system_id":"levelo_inurba_marseille","lat":43.25685,"lon":5.41047,"is_reserved":false,"is_disabled":true,"rental_uris":{"android":"levelo://app?vid=c858c73e-da31-4827-8661-76fb4ce30ba1","ios":"levelo://app?vid=c858c73e-da31-4827-8661-76fb4ce30ba1"},"vehicle_type_id":"4","last_reported":1746774634,"current_range_meters":23200,"station_id":"ce4bhkp2rcd13ifvqgd0","pricing_plan_id":"cebpf4jnsgd1na2vs0mg"},{"bike_id":"c9d955c9-04d1-429a-9835-09a447da332e","system_id":"levelo_inurba_marseille","lat":43.29745,"lon":5.38103,"is_reserved":false,"is_disabled":false,"rental_uris":{"android":"levelo://app?vid=c9d955c9-04d1-429a-9835-09a447da332e","ios":"levelo://app?vid=c9d955c9-04d1-429a-9835-09a447da332e"},"vehicle_type_id":"4","last_reported":1746774634,"current_range_meters":23200,"station_id":"","pricing_plan_id":"cebpf4jnsgd1na2vs0mg"},{"bike_id":"ad85f1e3-389f-4069-aac4-a6c8c44d54cf","system_id":"levelo_inurba_marseille","lat":43.24104,"lon":5.37753,"is_reserved":false,"is_disabled":false,"rental_uris":{"android":"levelo://app?vid=ad85f1e3-389f-4069-aac4-a6c8c44d54cf","ios":"levelo://app?vid=ad85f1e3-389f-4069-aac4-a6c8c44d54cf"},"vehicle_type_id":"4","last_reported":1746774634,"current_range_meters":23200,"station_id":"ce4bhnp2rcd13ifvqgvg","pricing_plan_id":"cebpf4jnsgd1na2vs0mg"},{"bike_id":"3431a8eb-34d0-49a1-ab82-bc6f15881f16","system_id":"levelo_inurba_marseille","lat":43.28952,"lon":5.36392,"is_reserved":false,"is_disabled":false,"rental_uris":{"android":"levelo://app?vid=3431a8eb-34d0-49a1-ab82-bc6f15881f16","ios":"levelo://app?vid=3431a8eb-34d0-49a1-ab82-bc6f15881f16"},"vehicle_type_id":"4","last_reported":1746774634,"current_range_meters":24000,"station_id":"ce4bhc92rcd13ifvqetg","pricing_plan_id":"cebpf4jnsgd1na2vs0mg"},{"bike_id":"68618caa-50bc-43f5-93b1-b8d3a9e2ef7f","system_id":"levelo_inurba_marseille","lat":43.24181,"lon":5.39724,"is_reserved":false,"is_disabled":false,"rental_uris":{"android":"levelo://app?vid=68618caa-50bc-43f5-93b1-b8d3a9e2ef7f","ios":"levelo://app?vid=68618caa-50bc-43f5-93b1-b8d3a9e2ef7f"},"vehicle_type_id":"4","last_reported":1746774634,"current_range_meters":24000,"station_id":"ce4bhn12rcd13ifvqgpg","pricing_plan_id":"cebpf4jnsgd1na2vs0mg"},{"bike_id":"48f291ec-8c3a-4722-9348-ae375f5bc9d0","system_id":"levelo_inurba_marseille","lat":43.27497,"lon":5.42456,"is_reserved":false,"is_disabled":false,"rental_uris":{"android":"levelo://app?vid=48f291ec-8c3a-4722-9348-ae375f5bc9d0","ios":"levelo://app?vid=48f291ec-8c3a-4722-9348-ae375f5bc9d0"},"vehicle_type_id":"4","last_reported":1746774634,"current_range_meters":24000,"station_id":"ce4bhn92rcd13ifvqgrg","pricing_plan_id":"cebpf4jnsgd1na2vs0mg"},{"bike_id":"28cfacc9-1cdf-43eb-a95d-f45acb313b30","system_id":"levelo_inurba_marseille","lat":43.30446,"lon":5.37911,"is_reserved":false,"is_disabled":false,"rental_uris":{"android":"levelo://app?vid=28cfacc9-1cdf-43eb-a95d-f45acb313b30","ios":"levelo://app?vid=28cfacc9-1cdf-43eb-a95d-f45acb313b30"},"vehicle_type_id":"4","last_reported":1746774634,"current_range_meters":24000,"station_id":"ce4bgup2rcd13ifvqcn0","pricing_plan_id":"cebpf4jnsgd1na2vs0mg"},{"bike_id":"46847ce3-24a2-4af0-80b2-7e78ef50263d","system_id":"levelo_inurba_marseille","lat":43.26559,"lon":5.37284,"is_reserved":false,"is_disabled":false,"rental_uris":{"android":"levelo://app?vid=46847ce3-24a2-4af0-80b2-7e78ef50263d","ios":"levelo://app?vid=46847ce3-24a2-4af0-80b2-7e78ef50263d"},"vehicle_type_id":"4","last_reported":1746774634,"current_range_meters":24000,"station_id":"ce4bhg12rcd13ifvqf70","pricing_plan_id":"cebpf4jnsgd1na2vs0mg"},{"bike_id":"b231de86-301b-4d98-9cbd-e6e1e5a11c65","system_id":"levelo_inurba_marseille","lat":43.2905,"lon":5.39969,"is_reserved":false,"is_disabled":false,"rental_uris":{"android":"levelo://app?vid=b231de86-301b-4d98-9cbd-e6e1e5a11c65","ios":"levelo://app?vid=b231de86-301b-4d98-9cbd-e6e1e5a11c65"},"vehicle_type_id":"4","last_reported":1746774634,"current_range_meters":24000,"station_id":"ce4bh392rcd13ifvqdm0","pricing_plan_id":"cebpf4jnsgd1na2vs0mg"},{"bike_id":"725e20dd-e5cb-40e2-9c7d-5c2a9fddd9d3","system_id":"levelo_inurba_marseille","lat":43.24096,"lon":5.37777,"is_reserved":false,"is_disabled":false,"rental_uris":{"android":"levelo://app?vid=725e20dd-e5cb-40e2-9c7d-5c2a9fddd9d3","ios":"levelo://app?vid=725e20dd-e5cb-40e2-9c7d-5c2a9fddd9d3"},"vehicle_type_id":"4","last_reported":1746774634,"current_range_meters":24400,"station_id":"ce4bhnp2rcd13ifvqgvg","pricing_plan_id":"cebpf4jnsgd1na2vs0mg"},{"bike_id":"4a12c727-da06-441a-affb-72d375ee09f8","system_id":"levelo_inurba_marseille","lat":43.31332,"lon":5.36712,"is_reserved":false,"is_disabled":false,"rental_uris":{"android":"levelo://app?vid=4a12c727-da06-441a-affb-72d375ee09f8","ios":"levelo://app?vid=4a12c727-da06-441a-affb-72d375ee09f8"},"vehicle_type_id":"4","last_reported":1746774634,"current_range_meters":24400,"station_id":"ce4bgr92rcd13ifvqc6g","pricing_plan_id":"cebpf4jnsgd1na2vs0mg"},{"bike_id":"a6dea811-f996-4595-81ec-efa22a05d318","system_id":"levelo_inurba_marseille","lat":43.312051,"lon":5.368774,"is_reserved":false,"is_disabled":false,"rental_uris":{"android":"levelo://app?vid=a6dea811-f996-4595-81ec-efa22a05d318","ios":"levelo://app?vid=a6dea811-f996-4595-81ec-efa22a05d318"},"vehicle_type_id":"4","last_reported":1746774634,"current_range_meters":24400,"station_id":"ce4bgl92rcd13ifvqbq0","pricing_plan_id":"cebpf4jnsgd1na2vs0mg"},{"bike_id":"87fa0919-3ab2-46fb-aaba-a66daab56c83","system_id":"levelo_inurba_marseille","lat":43.290159,"lon":5.381299,"is_reserved":false,"is_disabled":false,"rental_uris":{"android":"levelo://app?vid=87fa0919-3ab2-46fb-aaba-a66daab56c83","ios":"levelo://app?vid=87fa0919-3ab2-46fb-aaba-a66daab56c83"},"vehicle_type_id":"4","last_reported":1746774634,"current_range_meters":24400,"station_id":"","pricing_plan_id":"cebpf4jnsgd1na2vs0mg"},{"bike_id":"5a4bf01e-5d8b-44f7-99b0-41b8f402fd41","system_id":"levelo_inurba_marseille","lat":43.23195,"lon":5.39978,"is_reserved":false,"is_disabled":false,"rental_uris":{"android":"levelo://app?vid=5a4bf01e-5d8b-44f7-99b0-41b8f402fd41","ios":"levelo://app?vid=5a4bf01e-5d8b-44f7-99b0-41b8f402fd41"},"vehicle_type_id":"4","last_reported":1746774634,"current_range_meters":24000,"station_id":"ce4bhn12rcd13ifvqgqg","pricing_plan_id":"cebpf4jnsgd1na2vs0mg"},{"bike_id":"81f72c1a-7a67-4781-a6af-ee4771a23b00","system_id":"levelo_inurba_marseille","lat":43.24081,"lon":5.37754,"is_reserved":false,"is_disabled":false,"rental_uris":{"android":"levelo://app?vid=81f72c1a-7a67-4781-a6af-ee4771a23b00","ios":"levelo://app?vid=81f72c1a-7a67-4781-a6af-ee4771a23b00"},"vehicle_type_id":"4","last_reported":1746774634,"current_range_meters":24400,"station_id":"ce4bhnp2rcd13ifvqgvg","pricing_plan_id":"cebpf4jnsgd1na2vs0mg"},{"bike_id":"b07bc1f9-a255-4d1a-b586-06af31f999a4","system_id":"levelo_inurba_marseille","lat":43.3096,"lon":5.39042,"is_reserved":false,"is_disabled":false,"rental_uris":{"android":"levelo://app?vid=b07bc1f9-a255-4d1a-b586-06af31f999a4","ios":"levelo://app?vid=b07bc1f9-a255-4d1a-b586-06af31f999a4"},"vehicle_type_id":"4","last_reported":1746774634,"current_range_meters":24400,"station_id":"ce4bgup2rcd13ifvqco0","pricing_plan_id":"cebpf4jnsgd1na2vs0mg"},{"bike_id":"1163b2df-bde6-4dce-9fbb-d7e838d79527","system_id":"levelo_inurba_marseille","lat":43.29181,"lon":5.3933,"is_reserved":false,"is_disabled":true,"rental_uris":{"android":"levelo://app?vid=1163b2df-bde6-4dce-9fbb-d7e838d79527","ios":"levelo://app?vid=1163b2df-bde6-4dce-9fbb-d7e838d79527"},"vehicle_type_id":"4","last_reported":1746774634,"current_range_meters":24400,"station_id":"ce4bh192rcd13ifvqdd0","pricing_plan_id":"cebpf4jnsgd1na2vs0mg"},{"bike_id":"57d8bb6b-f041-4d17-b320-44d7867a1c31","system_id":"levelo_inurba_marseille","lat":43.275,"lon":5.42466,"is_reserved":false,"is_disabled":false,"rental_uris":{"android":"levelo://app?vid=57d8bb6b-f041-4d17-b320-44d7867a1c31","ios":"levelo://app?vid=57d8bb6b-f041-4d17-b320-44d7867a1c31"},"vehicle_type_id":"4","last_reported":1746774634,"current_range_meters":24800,"station_id":"ce4bhn92rcd13ifvqgrg","pricing_plan_id":"cebpf4jnsgd1na2vs0mg"},