{"last_updated":1745590158,"ttl":60,"version":"2.2","data":{"bikes":[{"bike_id":"3a91727e-e30d-4cba-87c8-6742206e686e","system_id":"levelo_inurba_marseille","lat":43.2902,"lon":5.38123,"is_reserved":false,"is_disabled":false,"rental_uris":{"android":"levelo://app?vid=3a91727e-e30d-4cba-87c8-6742206e686e","ios":"levelo://app?vid=3a91727e-e30d-4cba-87c8-6742206e686e"},"vehicle_type_id":"4","last_reported":1745590158,"current_range_meters":2800,"station_id":"ce4bh4p2rcd13ifvqe1g","pricing_plan_id":"cebpf4jnsgd1na2vs0mg"},{"bike_id":"c7cc71a6-3246-4489-82d3-312ec6347cf6","system_id":"levelo_inurba_marseille","lat":43.27682,"lon":5.38876,"is_reserved":false,"is_disabled":false,"rental_uris":{"android":"levelo://app?vid=c7cc71a6-3246-4489-82d3-312ec6347cf6","ios":"levelo://app?vid=c7cc71a6-3246-4489-82d3-312ec6347cf6"},"vehicle_type_id":"4","last_reported":1745590158,"current_range_meters":2800,"station_id":"ce4bhi12rcd13ifvqfo0","pricing_plan_id":"cebpf4jnsgd1na2vs0mg"},{"bike_id":"ecea3744-0ef2-48a0-82b6-b33c33c83a7a","system_id":"levelo_inurba_marseille","lat":43.28474,"lon":5.38423,"is_reserved":false,"is_disabled":false,"rental_uris":{"android":"levelo://app?vid=ecea3744-0ef2-48a0-82b6-b33c33c83a7a","ios":"levelo://app?vid=ecea3744-0ef2-48a0-82b6-b33c33c83a7a"},"vehicle_type_id":"4","last_reported":1745590158,"current_range_meters":2800,"station_id":"ce4bh512rcd13ifvqe3g","pricing_plan_id":"cebpf4jnsgd1na2vs0mg"},{"bike_id":"ce54d01c-87fc-4d2d-b9c0-863eba06c77d","system_id":"levelo_inurba_marseille","lat":43.25577,"lon":5.38227,"is_reserved":false,"is_disabled":false,"rental_uris":{"android":"levelo://app?vid=ce54d01c-87fc-4d2d-b9c0-863eba06c77d","ios":"levelo://app?vid=ce54d01c-87fc-4d2d-b9c0-863eba06c77d"},"vehicle_type_id":"4","last_reported":1745590158,"current_range_meters":2800,"station_id":"ce4bhih2rcd13ifvqfs0","pricing_plan_id":"cebpf4jnsgd1na2vs0mg"},{"bike_id":"1291c428-506a-43ad-b76b-8723adc97379","system_id":"levelo_inurba_marseille","lat":43.31554,"lon":5.36974,"is_reserved":false,"is_disabled":false,"rental_uris":{"android":"levelo://app?vid=1291c428-506a-43ad-b76b-8723adc97379","ios":"levelo://app?vid=1291c428-506a-43ad-b76b-8723adc97379"},"vehicle_type_id":"4","last_reported":1745590158,"current_range_meters":2800,"station_id":"","pricing_plan_id":"cebpf4jnsgd1na2vs0mg"},{"bike_id":"d68c2903-d1d4-4fde-a802-5dc98ebb2c30","system_id":"levelo_inurba_marseille","lat":43.26208,"lon":5.40445,"is_reserved":false,"is_disabled":false,"rental_uris":{"android":"levelo://app?vid=d68c2903-d1d4-4fde-a802-5dc98ebb2c30","ios":"levelo://app?vid=d68c2903-d1d4-4fde-a802-5dc98ebb2c30"},"vehicle_type_id":"4","last_reported":1745590158,"current_range_meters":2800,"station_id":"","pricing_plan_id":"cebpf4jnsgd1na2vs0mg"},{"bike_id":"12d7ba48-ba99-4460-9ab0-5e5cd51fe24f","system_id":"levelo_inurba_marseille","lat":43.27376,"lon":5.3625,"is_reserved":false,"is_disabled":false,"rental_uris":{"android":"levelo://app?vid=12d7ba48-ba99-4460-9ab0-5e5cd51fe24f","ios":"levelo://app?vid=12d7ba48-ba99-4460-9ab0-5e5cd51fe24f"},"vehicle_type_id":"4","last_reported":1745590158,"current_range_meters":2800,"station_id":"ce4bhbh2rcd13ifvqeo0","pricing_plan_id":"cebpf4jnsgd1na2vs0mg"},{"bike_id":"5990dd6b-2bfa-40e4-b850-371ffe8b0d49","system_id":"levelo_inurba_marseille","lat":43.2737,"lon":5.362473,"is_reserved":false,"is_disabled":false,"rental_uris":{"android":"levelo://app?vid=5990dd6b-2bfa-40e4-b850-371ffe8b0d49","ios":"levelo://app?vid=5990dd6b-2bfa-40e4-b850-371ffe8b0d49"},"vehicle_type_id":"4","last_reported":1745590158,"current_range_meters":2800,"station_id":"ce4bhbh2rcd13ifvqeo0","pricing_plan_id":"cebpf4jnsgd1na2vs0mg"},{"bike_id":"6262037e-9f57-43de-ab03-ad8ec57b4a63","system_id":"levelo_inurba_marseille","lat":43.26928,"lon":5.389316,"is_reserved":false,"is_disabled":false,"rental_uris":{"android":"levelo://app?vid=6262037e-9f57-43de-ab03-ad8ec57b4a63","ios":"levelo://app?vid=6262037e-9f57-43de-ab03-ad8ec57b4a63"},"vehicle_type_id":"4","last_reported":1745590158,"current_range_meters":3200,"station_id":"ce4bhhh2rcd13ifvqfl0","pricing_plan_id":"cebpf4jnsgd1na2vs0mg"},{"bike_id":"20250e1d-df17-49b3-b3a7-1d67823325ac","system_id":"levelo_inurba_marseille","lat":43.33608,"lon":5.4103,"is_reserved":false,"is_disabled":false,"rental_uris":{"android":"levelo://app?vid=20250e1d-df17-49b3-b3a7-1d67823325ac","ios":"levelo://app?vid=20250e1d-df17-49b3-b3a7-1d67823325ac"},"vehicle_type_id":"4","last_reported":1745590158,"current_range_meters":3200,"station_id":"ce4bhqh2rcd13ifvqhmg","pricing_plan_id":"cebpf4jnsgd1na2vs0mg"},{"bike_id":"8367019d-5bcc-4ce9-9c11-4795eaa4f71a","system_id":"levelo_inurba_marseille","lat":43.21186,"lon":5.35071,"is_reserved":false,"is_disabled":false,"rental_uris":{"android":"levelo://app?vid=8367019d-5bcc-4ce9-9c11-4795eaa4f71a","ios":"levelo://app?vid=8367019d-5bcc-4ce9-9c11-4795eaa4f71a"},"vehicle_type_id":"4","last_reported":1745590158,"current_range_meters":3200,"station_id":"st_cvj6sg6p6f1abm77japg","pricing_plan_id":"cebpf4jnsgd1na2vs0mg"},{"bike_id":"edcb5616-651a-479b-8c9d-7988ee3d78b8","system_id":"levelo_inurba_marseille","lat":43.26673,"lon":5.38305,"is_reserved":false,"is_disabled":false,"rental_uris":{"android":"levelo://app?vid=edcb5616-651a-479b-8c9d-7988ee3d78b8","ios":"levelo://app?vid=edcb5616-651a-479b-8c9d-7988ee3d78b8"},"vehicle_type_id":"4","last_reported":1745590158,"current_range_meters":3200,"station_id":"ce4bhg92rcd13ifvqf90","pricing_plan_id":"cebpf4jnsgd1na2vs0mg"},{"bike_id":"2309ecee-e589-4974-898a-b67a358364bd","system_id":"levelo_inurba_marseille","lat":43.26561,"lon":5.37303,"is_reserved":false,"is_disabled":false,"rental_uris":{"android":"levelo://app?vid=2309ecee-e589-4974-898a-b67a358364bd","ios":"levelo://app?vid=2309ecee-e589-4974-898a-b67a358364bd"},"vehicle_type_id":"4","last_reported":1745590158,"current_range_meters":3200,"station_id":"ce4bhg12rcd13ifvqf70","pricing_plan_id":"cebpf4jnsgd1na2vs0mg"},{"bike_id":"2104615f-4211-4aef-9eb1-9d45a42ea105","system_id":"levelo_inurba_marseille","lat":43.28414,"lon":5.3751,"is_reserved":false,"is_disabled":false,"rental_uris":{"android":"levelo://app?vid=2104615f-4211-4aef-9eb1-9d45a42ea105","ios":"levelo://app?vid=2104615f-4211-4aef-9eb1-9d45a42ea105"},"vehicle_type_id":"4","last_reported":1745590158,"current_range_meters":3200,"station_id":"ce4bh412rcd13ifvqds0","pricing_plan_id":"cebpf4jnsgd1na2vs0mg"},{"bike_id":"8cf8da14-e1fd-4fcc-b81a-bf72a0e4400c","system_id":"levelo_inurba_marseille","lat":43.26725,"lon":5.38279,"is_reserved":false,"is_disabled":true,"rental_uris":{"android":"levelo://app?vid=8cf8da14-e1fd-4fcc-b81a-bf72a0e4400c","ios":"levelo://app?vid=8cf8da14-e1fd-4fcc-b81a-bf72a0e4400c"},"vehicle_type_id":"4","last_reported":1745590158,"current_range_meters":3200,"station_id":"ce4bhg92rcd13ifvqf90","pricing_plan_id":"cebpf4jnsgd1na2vs0mg"},{"bike_id":"071e6e8c-6c9c-47a9-9529-3c81205621a7","system_id":"levelo_inurba_marseille","lat":43.28617,"lon":5.35103,"is_reserved":false,"is_disabled":false,"rental_uris":{"android":"levelo://app?vid=071e6e8c-6c9c-47a9-9529-3c81205621a7","ios":"levelo://app?vid=071e6e8c-6c9c-47a9-9529-3c81205621a7"},"vehicle_type_id":"4","last_reported":1745590158,"current_range_meters":3600,"station_id":"ce4bhch2rcd13ifvqeug","pricing_plan_id":"cebpf4jnsgd1na2vs0mg"},{"bike_id":"04de76c4-a1ad-45bf-9e28-7c78bfcbb5c0","system_id":"levelo_inurba_marseille","lat":43.25225,"lon":5.37434,"is_reserved":false,"is_disabled":false,"rental_uris":{"android":"levelo://app?vid=04de76c4-a1ad-45bf-9e28-7c78bfcbb5c0","ios":"levelo://app?vid=04de76c4-a1ad-45bf-9e28-7c78bfcbb5c0"},"vehicle_type_id":"4","last_reported":1745590158,"current_range_meters":3600,"station_id":"","pricing_plan_id":"cebpf4jnsgd1na2vs0mg"},{"bike_id":"a2c7668e-5b2f-49e7-ac42-4521e25f64cd","system_id":"levelo_inurba_marseille","lat":43.2827,"lon":5.35068,"is_reserved":false,"is_disabled":false,"rental_uris":{"android":"levelo://app?vid=a2c7668e-5b2f-49e7-ac42-4521e25f64cd","ios":"levelo://app?vid=a2c7668e-5b2f-49e7-ac42-4521e25f64cd"},"vehicle_type_id":"4","last_reported":1745590158,"current_range_meters":3600,"station_id":"ce4bhbp2rcd13ifvqerg","pricing_plan_id":"cebpf4jnsgd1na2vs0mg"},{"bike_id":"bf9e11ba-c2ea-4dcb-a517-2d24561dbc28","system_id":"levelo_inurba_marseille","lat":43.26558,"lon":5.37283,"is_reserved":false,"is_disabled":false,"rental_uris":{"android":"levelo://app?vid=bf9e11ba-c2ea-4dcb-a517-2d24561dbc28","ios":"levelo://app?vid=bf9e11ba-c2ea-4dcb-a517-2d24561dbc28"},"vehicle_type_id":"4","last_reported":1745590158,"current_range_meters":4000,"station_id":"ce4bhg12rcd13ifvqf70","pricing_plan_id":"cebpf4jnsgd1na2vs0mg"},{"bike_id":"a4acedc4-5188-4b2a-befd-9fbf971c21de","system_id":"levelo_inurba_marseille","lat":43.2293,"lon":5.3538,"is_reserved":false,"is_disabled":false,"rental_uris":{"android":"levelo://app?vid=a4acedc4-5188-4b2a-befd-9fbf971c21de","ios":"levelo://app?vid=a4acedc4-5188-4b2a-befd-9fbf971c21de"},"vehicle_type_id":"4","last_reported":1745590158,"current_range_meters":4000,"station_id":"cpo3532slgdg3j2ikp40","pricing_plan_id":"cebpf4jnsgd1na2vs0mg"},{"bike_id":"7ee1cd34-84a7-4099-a4d0-6a98bd41da08","system_id":"levelo_inurba_marseille","lat":43.28704,"lon":5.37386,"is_reserved":false,"is_disabled":false,"rental_uris":{"android":"levelo://app?vid=7ee1cd34-84a7-4099-a4d0-6a98bd41da08","ios":"levelo://app?vid=7ee1cd34-84a7-4099-a4d0-6a98bd41da08"},"vehicle_type_id":"4","last_reported":1745590158,"current_range_meters":4000,"station_id":"ce4bh3p2rcd13ifvqdq0","pricing_plan_id":"cebpf4jnsgd1na2vs0mg"},{"bike_id":"67226af1-8b95-4a0f-8a7a-2610a7929764","system_id":"levelo_inurba_marseille","lat":43.23149,"lon":5.43719,"is_reserved":false,"is_disabled":false,"rental_uris":{"android":"levelo://app?vid=67226af1-8b95-4a0f-8a7a-2610a7929764","ios":"levelo://app?vid=67226af1-8b95-4a0f-8a7a-2610a7929764"},"vehicle_type_id":"4","last_reported":1745590158,"current_range_meters":4000,"station_id":"ce4bhmp2rcd13ifvqgog","pricing_plan_id":"cebpf4jnsgd1na2vs0mg"},{"bike_id":"93816a58-87b9-4716-aa86-00402b0b20cf","system_id":"levelo_inurba_marseille","lat":43.24167,"lon":5.36389,"is_reserved":false,"is_disabled":false,"rental_uris":{"android":"levelo://app?vid=93816a58-87b9-4716-aa86-00402b0b20cf","ios":"levelo://app?vid=93816a58-87b9-4716-aa86-00402b0b20cf"},"vehicle_type_id":"4","last_reported":1745590158,"current_range_meters":4000,"station_id":"cpo36qri1sfpv3e86is0","pricing_plan_id":"cebpf4jnsgd1na2vs0mg"},{"bike_id":"fd265570-119b-4158-9264-8701f39090e6","system_id":"levelo_inurba_marseille","lat":43.29037,"lon":5.37128,"is_reserved":false,"is_disabled":true,"rental_uris":{"android":"levelo://app?vid=fd265570-119b-4158-9264-8701f39090e6","ios":"levelo://app?vid=fd265570-119b-4158-9264-8701f39090e6"},"vehicle_type_id":"4","last_reported":1745590158,"current_range_meters":4400,"station_id":"ce4bh5p2rcd13ifvqe4g","pricing_plan_id":"cebpf4jnsgd1na2vs0mg"},{"bike_id":"08315858-5771-46c7-8eec-3ac6e18f0cff","system_id":"levelo_inurba_marseille","lat":43.28271,"lon":5.3507,"is_reserved":false,"is_disabled":false,"rental_uris":{"android":"levelo://app?vid=08315858-5771-46c7-8eec-3ac6e18f0cff","ios":"levelo://app?vid=08315858-5771-46c7-8eec-3ac6e18f0cff"},"vehicle_type_id":"4","last_reported":1745590158,"current_range_meters":4400,"station_id":"ce4bhbp2rcd13ifvqerg","pricing_plan_id":"cebpf4jnsgd1na2vs0mg"},{"bike_id":"ef2dd97d-a1ad-4167-86f6-e4d7c9cab2e4","system_id":"levelo_inurba_marseille","lat":43.32733,"lon":5.39242,"is_reserved":false,"is_disabled":false,"rental_uris":{"android":"levelo://app?vid=ef2dd97d-a1ad-4167-86f6-e4d7c9cab2e4","ios":"levelo://app?vid=ef2dd97d-a1ad-4167-86f6-e4d7c9cab2e4"},"vehicle_type_id":"4","last_reported":1745590158,"current_range_meters":4400,"station_id":"","pricing_plan_id":"cebpf4jnsgd1na2vs0mg"},{"bike_id":"47c415eb-9c02-4094-bc4c-e5bc6add6cc6","system_id":"levelo_inurba_marseille","lat":43.2119,"lon":5.35072,"is_reserved":false,"is_disabled":false,"rental_uris":{"android":"levelo://app?vid=47c415eb-9c02-4094-bc4c-e5bc6add6cc6","ios":"levelo://app?vid=47c415eb-9c02-4094-bc4c-e5bc6add6cc6"},"vehicle_type_id":"4","last_reported":1745590158,"current_range_meters":4400,"station_id":"st_cvj6sg6p6f1abm77japg","pricing_plan_id":"cebpf4jnsgd1na2vs0mg"},{"bike_id":"15535ed3-93ca-44cb-9a8c-b10347556610","system_id":"levelo_inurba_marseille","lat":43.2894,"lon":5.36395,"is_reserved":false,"is_disabled":false,"rental_uris":{"android":"levelo://app?vid=15535ed3-93ca-44cb-9a8c-b10347556610","ios":"levelo://app?vid=15535ed3-93ca-44cb-9a8c-b10347556610"},"vehicle_type_id":"4","last_reported":1745590158,"current_range_meters":4400,"station_id":"ce4bhc92rcd13ifvqetg","pricing_plan_id":"cebpf4jnsgd1na2vs0mg"},{"bike_id":"77ef87d6-660a-4b36-b626-882b0d1adca0","system_id":"levelo_inurba_marseille","lat":43.26581,"lon":5.37297,"is_reserved":false,"is_disabled":false,"rental_uris":{"android":"levelo://app?vid=77ef87d6-660a-4b36-b626-882b0d1adca0","ios":"levelo://app?vid=77ef87d6-660a-4b36-b626-882b0d1adca0"},"vehicle_type_id":"4","last_reported":1745590158,"current_range_meters":4400,"station_id":"ce4bhg12rcd13ifvqf70","pricing_plan_id":"cebpf4jnsgd1na2vs0mg"},{"bike_id":"1ad821f0-3398-42be-99e2-5422ff077661","system_id":"levelo_inurba_marseille","lat":43.30924,"lon":5.40143,"is_reserved":false,"is_disabled":true,"rental_uris":{"android":"levelo://app?vid=1ad821f0-3398-42be-99e2-5422ff077661","ios":"levelo://app?vid=1ad821f0-3398-42be-99e2-5422ff077661"},"vehicle_type_id":"4","last_reported":1745590158,"current_range_meters":4400,"station_id":"ce4bgvp2rcd13ifvqct0","pricing_plan_id":"cebpf4jnsgd1na2vs0mg"},{"bike_id":"6e5e1f5f-aa69-46eb-9bfc-b752dcff2065","system_id":"levelo_inurba_marseille","lat":43.2466,"lon":5.38159,"is_reserved":false,"is_disabled":false,"rental_uris":{"android":"levelo://app?vid=6e5e1f5f-aa69-46eb-9bfc-b752dcff2065","ios":"levelo://app?vid=6e5e1f5f-aa69-46eb-9bfc-b752dcff2065"},"vehicle_type_id":"4","last_reported":1745590158,"current_range_meters":4400,"station_id":"ce4bhih2rcd13ifvqfr0","pricing_plan_id":"cebpf4jnsgd1na2vs0mg"},{"bike_id":"1c442364-a3b8-40b6-9404-00cde11331d3","system_id":"levelo_inurba_marseille","lat":43.25939,"lon":5.40904,"is_reserved":false,"is_disabled":false,"rental_uris":{"android":"levelo://app?vid=1c442364-a3b8-40b6-9404-00cde11331d3","ios":"levelo://app?vid=1c442364-a3b8-40b6-9404-00cde11331d3"},"vehicle_type_id":"4","last_reported":1745590158,"current_range_meters":4400,"station_id":"ce4bhm92rcd13ifvqglg","pricing_plan_id":"cebpf4jnsgd1na2vs0mg"},{"bike_id":"8604dbe3-1bcb-4f8e-bef7-3b589cf63116","system_id":"levelo_inurba_marseille","lat":43.31225,"lon":5.36854,"is_reserved":false,"is_disabled":false,"rental_uris":{"android":"levelo://app?vid=8604dbe3-1bcb-4f8e-bef7-3b589cf63116","ios":"levelo://app?vid=8604dbe3-1bcb-4f8e-bef7-3b589cf63116"},"vehicle_type_id":"4","last_reported":1745590158,"current_range_meters":4800,"station_id":"ce4bgl92rcd13ifvqbq0","pricing_plan_id":"cebpf4jnsgd1na2vs0mg"},{"bike_id":"8c62b292-a2f6-4b05-aa81-73f60bf1dda9","system_id":"levelo_inurba_marseille","lat":43.24389,"lon":5.3705,"is_reserved":false,"is_disabled":false,"rental_uris":{"android":"levelo://app?vid=8c62b292-a2f6-4b05-aa81-73f60bf1dda9","ios":"levelo://app?vid=8c62b292-a2f6-4b05-aa81-73f60bf1dda9"},"vehicle_type_id":"4","last_reported":1745590158,"current_range_meters":4800,"station_id":"ce4bhhh2rcd13ifvqfk0","pricing_plan_id":"cebpf4jnsgd1na2vs0mg"},{"bike_id":"6f99535d-4291-4c4d-99f1-c22d0eb9e1f7","system_id":"levelo_inurba_marseille","lat":43.25943,"lon":5.40929,"is_reserved":false,"is_disabled":false,"rental_uris":{"android":"levelo://app?vid=6f99535d-4291-4c4d-99f1-c22d0eb9e1f7","ios":"levelo://app?vid=6f99535d-4291-4c4d-99f1-c22d0eb9e1f7"},"vehicle_type_id":"4","last_reported":1745590158,"current_range_meters":4800,"station_id":"ce4bhm92rcd13ifvqglg","pricing_plan_id":"cebpf4jnsgd1na2vs0mg"},{"bike_id":"4b096c20-9ead-4918-be2f-7bf9169e226a","system_id":"levelo_inurba_marseille","lat":43.28928,"lon":5.36624,"is_reserved":false,"is_disabled":false,"rental_uris":{"android":"levelo://app?vid=4b096c20-9ead-4918-be2f-7bf9169e226a","ios":"levelo://app?vid=4b096c20-9ead-4918-be2f-7bf9169e226a"},"vehicle_type_id":"4","last_reported":1745590158,"current_range_meters":4800,"station_id":"ce4bhap2rcd13ifvqek0","pricing_plan_id":"cebpf4jnsgd1na2vs0mg"},{"bike_id":"c6ec32c7-a1b5-47c3-8cbf-5fbd75de7902","system_id":"levelo_inurba_marseille","lat":43.2846,"lon":5.35872,"is_reserved":false,"is_disabled":false,"rental_uris":{"android":"levelo://app?vid=c6ec32c7-a1b5-47c3-8cbf-5fbd75de7902","ios":"levelo://app?vid=c6ec32c7-a1b5-47c3-8cbf-5fbd75de7902"},"vehicle_type_id":"4","last_reported":1745590158,"current_range_meters":4800,"station_id":"ce4bhah2rcd13ifvqei0","pricing_plan_id":"cebpf4jnsgd1na2vs0mg"},{"bike_id":"68f5cf34-6787-4d95-b234-1ac82c72145b","system_id":"levelo_inurba_marseille","lat":43.26028,"lon":5.37549,"is_reserved":false,"is_disabled":false,"rental_uris":{"android":"levelo://app?vid=68f5cf34-6787-4d95-b234-1ac82c72145b","ios":"levelo://app?vid=68f5cf34-6787-4d95-b234-1ac82c72145b"},"vehicle_type_id":"4","last_reported":1745590158,"current_range_meters":4800,"station_id":"ce4bhgh2rcd13ifvqfa0","pricing_plan_id":"cebpf4jnsgd1na2vs0mg"},{"bike_id":"728abfb7-4996-4686-b811-2723795de44b","system_id":"levelo_inurba_marseille","lat":43.29517,"lon":5.3939,"is_reserved":false,"is_disabled":false,"rental_uris":{"android":"levelo://app?vid=728abfb7-4996-4686-b811-2723795de44b","ios":"levelo://app?vid=728abfb7-4996-4686-b811-2723795de44b"},"vehicle_type_id":"4","last_reported":1745590158,"current_range_meters":5600,"station_id":"ce4bh292rcd13ifvqdf0","pricing_plan_id":"cebpf4jnsgd1na2vs0mg"},{"bike_id":"79769fd3-4c57-4312-ae29-deea0a59ec7f","system_id":"levelo_inurba_marseille","lat":43.240666,"lon":5.377665,"is_reserved":false,"is_disabled":false,"rental_uris":{"android":"levelo://app?vid=79769fd3-4c57-4312-ae29-deea0a59ec7f","ios":"levelo://app?vid=79769fd3-4c57-4312-ae29-deea0a59ec7f"},"vehicle_type_id":"4","last_reported":1745590158,"current_range_meters":5600,"station_id":"ce4bhnp2rcd13ifvqgvg","pricing_plan_id":"cebpf4jnsgd1na2vs0mg"},{"bike_id":"d5728c1c-304a-47d1-826c-fc2f923d7cf1","system_id":"levelo_inurba_marseille","lat":43.26788,"lon":5.39405,"is_reserved":false,"is_disabled":false,"rental_uris":{"android":"levelo://app?vid=d5728c1c-304a-47d1-826c-fc2f923d7cf1","ios":"levelo://app?vid=d5728c1c-304a-47d1-826c-fc2f923d7cf1"},"vehicle_type_id":"4","last_reported":1745590158,"current_range_meters":5600,"station_id":"ce4bhh12rcd13ifvqfg0","pricing_plan_id":"cebpf4jnsgd1na2vs0mg"},{"bike_id":"98635f2b-e15d-453d-a28b-b57fac4e7bb3","system_id":"levelo_inurba_marseille","lat":43.284271,"lon":5.349802,"is_reserved":false,"is_disabled":false,"rental_uris":{"android":"levelo://app?vid=98635f2b-e15d-453d-a28b-b57fac4e7bb3","ios":"levelo://app?vid=98635f2b-e15d-453d-a28b-b57fac4e7bb3"},"vehicle_type_id":"4","last_reported":1745590158,"current_range_meters":6000,"station_id":"ce4bhbh2rcd13ifvqepg","pricing_plan_id":"cebpf4jnsgd1na2vs0mg"},{"bike_id":"4d4d336b-6e25-464c-a884-df47a35cfed0","system_id":"levelo_inurba_marseille","lat":43.26212,"lon":5.37443,"is_reserved":false,"is_disabled":false,"rental_uris":{"android":"levelo://app?vid=4d4d336b-6e25-464c-a884-df47a35cfed0","ios":"levelo://app?vid=4d4d336b-6e25-464c-a884-df47a35cfed0"},"vehicle_type_id":"4","last_reported":1745590158,"current_range_meters":5600,"station_id":"ce4bhah2rcd13ifvqej0","pricing_plan_id":"cebpf4jnsgd1na2vs0mg"},{"bike_id":"fb05f55e-9993-4058-8607-3e436aa41b49","system_id":"levelo_inurba_marseille","lat":43.28461,"lon":5.3587,"is_reserved":false,"is_disabled":false,"rental_uris":{"android":"levelo://app?vid=fb05f55e-9993-4058-8607-3e436aa41b49","ios":"levelo://app?vid=fb05f55e-9993-4058-8607-3e436aa41b49"},"vehicle_type_id":"4","last_reported":1745590158,"current_range_meters":6000,"station_id":"ce4bhah2rcd13ifvqei0","pricing_plan_id":"cebpf4jnsgd1na2vs0mg"},{"bike_id":"afa10ca1-b787-4891-8a18-f9d395e25601","system_id":"levelo_inurba_marseille","lat":43.259265,"lon":5.40898,"is_reserved":false,"is_disabled":false,"rental_uris":{"android":"levelo://app?vid=afa10ca1-b787-4891-8a18-f9d395e25601","ios":"levelo://app?vid=afa10ca1-b787-4891-8a18-f9d395e25601"},"vehicle_type_id":"4","last_reported":1745590158,"current_range_meters":6000,"station_id":"ce4bhm92rcd13ifvqglg","pricing_plan_id":"cebpf4jnsgd1na2vs0mg"},{"bike_id":"5c6ae2ff-d6df-4ddc-bb74-e7b77c370c9b","system_id":"levelo_inurba_marseille","lat":43.28274,"lon":5.3507,"is_reserved":false,"is_disabled":false,"rental_uris":{"android":"levelo://app?vid=5c6ae2ff-d6df-4ddc-bb74-e7b77c370c9b","ios":"levelo://app?vid=5c6ae2ff-d6df-4ddc-bb74-e7b77c370c9b"},"vehicle_type_id":"4","last_reported":1745590158,"current_range_meters":6000,"station_id":"ce4bhbp2rcd13ifvqerg","pricing_plan_id":"cebpf4jnsgd1na2vs0mg"},{"bike_id":"ebd86740-c4a2-4d12-a9da-f8021c74921e","system_id":"levelo_inurba_marseille","lat":43.22505,"lon":5.34766,"is_reserved":false,"is_disabled":false,"rental_uris":{"android":"levelo://app?vid=ebd86740-c4a2-4d12-a9da-f8021c74921e","ios":"levelo://app?vid=ebd86740-c4a2-4d12-a9da-f8021c74921e"},"vehicle_type_id":"4","last_reported":1745590158,"current_range_meters":6000,"station_id":"st_cvj5dfep6f1abm77gieg","pricing_plan_id":"cebpf4jnsgd1na2vs0mg"},{"bike_id":"141535cf-fb3b-46b7-aef5-8d6d20a2c722","system_id":"levelo_inurba_marseille","lat":43.281,"lon":5.37809,"is_reserved":false,"is_disabled":false,"rental_uris":{"android":"levelo://app?vid=141535cf-fb3b-46b7-aef5-8d6d20a2c722","ios":"levelo://app?vid=141535cf-fb3b-46b7-aef5-8d6d20a2c722"},"vehicle_type_id":"4","last_reported":1745590158,"current_range_meters":6000,"station_id":"ce4bha12rcd13ifvqee0","pricing_plan_id":"cebpf4jnsgd1na2vs0mg"},{"bike_id":"269fd9af-e169-4b22-ba3d-1215b3834cca","system_id":"levelo_inurba_marseille","lat":43.25503,"lon":5.37643,"is_reserved":false,"is_disabled":false,"rental_uris":{"android":"levelo://app?vid=269fd9af-e169-4b22-ba3d-1215b3834cca","ios":"levelo://app?vid=269fd9af-e169-4b22-ba3d-1215b3834cca"},"vehicle_type_id":"4","last_reported":1745590158,"current_range_meters":6400,"station_id":"ce4bhh12rcd13ifvqff0","pricing_plan_id":"cebpf4jnsgd1na2vs0mg"},{"bike_id":"572dc956-018f-4ea2-8c54-7b45e08469c3","system_id":"levelo_inurba_marseille","lat":43.31333,"lon":5.39688,"is_reserved":false,"is_disabled":false,"rental_uris":{"android":"levelo://app?vid=572dc956-018f-4ea2-8c54-7b45e08469c3","ios":"levelo://app?vid=572dc956-018f-4ea2-8c54-7b45e08469c3"},"vehicle_type_id":"4","last_reported":1745590158,"current_range_meters":6400,"station_id":"ce4bgvp2rcd13ifvqcu0","pricing_plan_id":"cebpf4jnsgd1na2vs0mg"},{"bike_id":"5530a23f-505a-45f1-81fa-c72f981d6c3b","system_id":"levelo_inurba_marseille","lat":43.27907,"lon":5.38005,"is_reserved":false,"is_disabled":false,"rental_uris":{"android":"levelo://app?vid=5530a23f-505a-45f1-81fa-c72f981d6c3b","ios":"levelo://app?vid=5530a23f-505a-45f1-81fa-c72f981d6c3b"},"vehicle_type_id":"4","last_reported":1745590158,"current_range_meters":6000,"station_id":"ce4bhf92rcd13ifvqf50","pricing_plan_id":"cebpf4jnsgd1na2vs0mg"},{"bike_id":"17ba261c-0d4e-428a-8272-9057c651d980","system_id":"levelo_inurba_marseille","lat":43.27373,"lon":5.36248,"is_reserved":false,"is_disabled":false,"rental_uris":{"android":"levelo://app?vid=17ba261c-0d4e-428a-8272-9057c651d980","ios":"levelo://app?vid=17ba261c-0d4e-428a-8272-9057c651d980"},"vehicle_type_id":"4","last_reported":1745590158,"current_range_meters":6400,"station_id":"ce4bhbh2rcd13ifvqeo0","pricing_plan_id":"cebpf4jnsgd1na2vs0mg"},{"bike_id":"5ca8cc21-08c9-475d-abb8-43d3975f4b77","system_id":"levelo_inurba_marseille","lat":43.27618,"lon":5.36099,"is_reserved":false,"is_disabled":false,"rental_uris":{"android":"levelo://app?vid=5ca8cc21-08c9-475d-abb8-43d3975f4b77","ios":"levelo://app?vid=5ca8cc21-08c9-475d-abb8-43d3975f4b77"},"vehicle_type_id":"4","last_reported":1745590158,"current_range_meters":6000,"station_id":"ce4bgj92rcd13ifvqbe0","pricing_plan_id":"cebpf4jnsgd1na2vs0mg"},{"bike_id":"46374c49-3adc-4c5a-8966-e00f056c0d57","system_id":"levelo_inurba_marseille","lat":43.27846,"lon":5.35442,"is_reserved":false,"is_disabled":false,"rental_uris":{"android":"levelo://app?vid=46374c49-3adc-4c5a-8966-e00f056c0d57","ios":"levelo://app?vid=46374c49-3adc-4c5a-8966-e00f056c0d57"},"vehicle_type_id":"4","last_reported":1745590158,"current_range_meters":6800,"station_id":"","pricing_plan_id":"cebpf4jnsgd1na2vs0mg"},{"bike_id":"3c5d2a60-24ad-4097-bd73-f37fb833c654","system_id":"levelo_inurba_marseille","lat":43.28463,"lon":5.35875,"is_reserved":false,"is_disabled":false,"rental_uris":{"android":"levelo://app?vid=3c5d2a60-24ad-4097-bd73-f37fb833c654","ios":"levelo://app?vid=3c5d2a60-24ad-4097-bd73-f37fb833c654"},"vehicle_type_id":"4","last_reported":1745590158,"current_range_meters":6800,"station_id":"ce4bhah2rcd13ifvqei0","pricing_plan_id":"cebpf4jnsgd1na2vs0mg"},{"bike_id":"d582a2ba-acc1-4efe-9c35-50793c9a2000","system_id":"levelo_inurba_marseille","lat":43.26684,"lon":5.38267,"is_reserved":false,"is_disabled":false,"rental_uris":{"android":"levelo://app?vid=d582a2ba-acc1-4efe-9c35-50793c9a2000","ios":"levelo://app?vid=d582a2ba-acc1-4efe-9c35-50793c9a2000"},"vehicle_type_id":"4","last_reported":1745590158,"current_range_meters":6800,"station_id":"ce4bhg92rcd13ifvqf90","pricing_plan_id":"cebpf4jnsgd1na2vs0mg"},{"bike_id":"9d16ad86-9ee6-430b-bde1-d7870d768403","system_id":"levelo_inurba_marseille","lat":43.25946,"lon":5.40907,"is_reserved":false,"is_disabled":false,"rental_uris":{"android":"levelo://app?vid=9d16ad86-9ee6-430b-bde1-d7870d768403","ios":"levelo://app?vid=9d16ad86-9ee6-430b-bde1-d7870d768403"},"vehicle_type_id":"4","last_reported":1745590158,"current_range_meters":6800,"station_id":"ce4bhm92rcd13ifvqglg","pricing_plan_id":"cebpf4jnsgd1na2vs0mg"},{"bike_id":"60a983a0-3a77-4501-a833-b71ac54833d6","system_id":"levelo_inurba_marseille","lat":43.23185,"lon":5.39976,"is_reserved":false,"is_disabled":false,"rental_uris":{"android":"levelo://app?vid=60a983a0-3a77-4501-a833-b71ac54833d6","ios":"levelo://app?vid=60a983a0-3a77-4501-a833-b71ac54833d6"},"vehicle_type_id":"4","last_reported":1745590158,"current_range_meters":6800,"station_id":"ce4bhn12rcd13ifvqgqg","pricing_plan_id":"cebpf4jnsgd1na2vs0mg"},{"bike_id":"f587b1ad-8767-42fd-bb98-bdf1bb330f9a","system_id":"levelo_inurba_marseille","lat":43.32367,"lon":5.42094,"is_reserved":false,"is_disabled":false,"rental_uris":{"android":"levelo://app?vid=f587b1ad-8767-42fd-bb98-bdf1bb330f9a","ios":"levelo://app?vid=f587b1ad-8767-42fd-bb98-bdf1bb330f9a"},"vehicle_type_id":"4","last_reported":1745590158,"current_range_meters":6800,"station_id":"","pricing_plan_id":"cebpf4jnsgd1na2vs0mg"},{"bike_id":"98182166-4fcb-4dc0-9c52-de1b349f298b","system_id":"levelo_inurba_marseille","lat":43.28709,"lon":5.399915,"is_reserved":false,"is_disabled":true,"rental_uris":{"android":"levelo://app?vid=98182166-4fcb-4dc0-9c52-de1b349f298b","ios":"levelo://app?vid=98182166-4fcb-4dc0-9c52-de1b349f298b"},"vehicle_type_id":"4","last_reported":1745590158,"current_range_meters":6800,"station_id":"ce4bho92rcd13ifvqh3g","pricing_plan_id":"cebpf4jnsgd1na2vs0mg"},{"bike_id":"88337da4-0cfd-402f-bd5f-d6baf873e3ca","system_id":"levelo_inurba_marseille","lat":43.27381,"lon":5.36263,"is_reserved":false,"is_disabled":false,"rental_uris":{"android":"levelo://app?vid=88337da4-0cfd-402f-bd5f-d6baf873e3ca","ios":"levelo://app?vid=88337da4-0cfd-402f-bd5f-d6baf873e3ca"},"vehicle_type_id":"4","last_reported":1745590158,"current_range_meters":7200,"station_id":"ce4bhbh2rcd13ifvqeo0","pricing_plan_id":"cebpf4jnsgd1na2vs0mg"},{"bike_id":"491b9db1-b36c-4511-81fd-9abc7a06a608","system_id":"levelo_inurba_marseille","lat":43.23191,"lon":5.35558,"is_reserved":false,"is_disabled":false,"rental_uris":{"android":"levelo://app?vid=491b9db1-b36c-4511-81fd-9abc7a06a608","ios":"levelo://app?vid=491b9db1-b36c-4511-81fd-9abc7a06a608"},"vehicle_type_id":"4","last_reported":1745590158,"current_range_meters":8000,"station_id":"ce4bhu92rcd13ifvqi70","pricing_plan_id":"cebpf4jnsgd1na2vs0mg"},{"bike_id":"0c209c70-3279-43d6-815b-5533bc81f144","system_id":"levelo_inurba_marseille","lat":43.25133,"lon":5.4032,"is_reserved":false,"is_disabled":false,"rental_uris":{"android":"levelo://app?vid=0c209c70-3279-43d6-815b-5533bc81f144","ios":"levelo://app?vid=0c209c70-3279-43d6-815b-5533bc81f144"},"vehicle_type_id":"4","last_reported":1745590158,"current_range_meters":7200,"station_id":"ce4bhlh2rcd13ifvqgig","pricing_plan_id":"cebpf4jnsgd1na2vs0mg"},{"bike_id":"64c02018-55fd-4304-b521-efa885005080","system_id":"levelo_inurba_marseille","lat":43.279876,"lon":5.387737,"is_reserved":false,"is_disabled":false,"rental_uris":{"android":"levelo://app?vid=64c02018-55fd-4304-b521-efa885005080","ios":"levelo://app?vid=64c02018-55fd-4304-b521-efa885005080"},"vehicle_type_id":"4","last_reported":1745590158,"current_range_meters":7200,"station_id":"ce4bh692rcd13ifvqe90","pricing_plan_id":"cebpf4jnsgd1na2vs0mg"},{"bike_id":"ad8dd8c6-fcb2-4a82-8a58-806a807d4a26","system_id":"levelo_inurba_marseille","lat":43.279181,"lon":5.395777,"is_reserved":false,"is_disabled":false,"rental_uris":{"android":"levelo://app?vid=ad8dd8c6-fcb2-4a82-8a58-806a807d4a26","ios":"levelo://app?vid=ad8dd8c6-fcb2-4a82-8a58-806a807d4a26"},"vehicle_type_id":"4","last_reported":1745590158,"current_range_meters":8000,"station_id":"ce4bhf92rcd13ifvqf40","pricing_plan_id":"cebpf4jnsgd1na2vs0mg"},{"bike_id":"18581b79-962f-43e4-a54b-3d0fb1dd5daf","system_id":"levelo_inurba_marseille","lat":43.23146,"lon":5.43714,"is_reserved":false,"is_disabled":false,"rental_uris":{"android":"levelo://app?vid=18581b79-962f-43e4-a54b-3d0fb1dd5daf","ios":"levelo://app?vid=18581b79-962f-43e4-a54b-3d0fb1dd5daf"},"vehicle_type_id":"4","last_reported":1745590158,"current_range_meters":8000,"station_id":"ce4bhmp2rcd13ifvqgog","pricing_plan_id":"cebpf4jnsgd1na2vs0mg"},{"bike_id":"fa08c917-15f0-46bf-9b4b-3ce0e752e62f","system_id":"levelo_inurba_marseille","lat":43.33396,"lon":5.40055,"is_reserved":false,"is_disabled":false,"rental_uris":{"android":"levelo://app?vid=fa08c917-15f0-46bf-9b4b-3ce0e752e62f","ios":"levelo://app?vid=fa08c917-15f0-46bf-9b4b-3ce0e752e62f"},"vehicle_type_id":"4","last_reported":1745590158,"current_range_meters":8000,"station_id":"","pricing_plan_id":"cebpf4jnsgd1na2vs0mg"},{"bike_id":"bc18be50-08c2-4e37-ac0e-89dcfb324b40","system_id":"levelo_inurba_marseille","lat":43.28618,"lon":5.35095,"is_reserved":false,"is_disabled":false,"rental_uris":{"android":"levelo://app?vid=bc18be50-08c2-4e37-ac0e-89dcfb324b40","ios":"levelo://app?vid=bc18be50-08c2-4e37-ac0e-89dcfb324b40"},"vehicle_type_id":"4","last_reported":1745590158,"current_range_meters":8000,"station_id":"ce4bhch2rcd13ifvqeug","pricing_plan_id":"cebpf4jnsgd1na2vs0mg"},{"bike_id":"31fac320-7dc9-4d9e-928b-34e5deaa2431","system_id":"levelo_inurba_marseille","lat":43.28415,"lon":5.34975,"is_reserved":false,"is_disabled":false,"rental_uris":{"android":"levelo://app?vid=31fac320-7dc9-4d9e-928b-34e5deaa2431","ios":"levelo://app?vid=31fac320-7dc9-4d9e-928b-34e5deaa2431"},"vehicle_type_id":"4","last_reported":1745590158,"current_range_meters":8000,"station_id":"ce4bhbh2rcd13ifvqepg","pricing_plan_id":"cebpf4jnsgd1na2vs0mg"},{"bike_id":"8502fb82-caf0-4873-b028-d7d007fb855c","system_id":"levelo_inurba_marseille","lat":43.32335,"lon":5.40617,"is_reserved":false,"is_disabled":false,"rental_uris":{"android":"levelo://app?vid=8502fb82-caf0-4873-b028-d7d007fb855c","ios":"levelo://app?vid=8502fb82-caf0-4873-b028-d7d007fb855c"},"vehicle_type_id":"4","last_reported":1745590158,"current_range_meters":8000,"station_id":"ce4bhq92rcd13ifvqhjg","pricing_plan_id":"cebpf4jnsgd1na2vs0mg"},{"bike_id":"e3e8f973-9e7a-4efe-bdf5-4ae70670a04e","system_id":"levelo_inurba_marseille","lat":43.26584,"lon":5.37295,"is_reserved":false,"is_disabled":false,"rental_uris":{"android":"levelo://app?vid=e3e8f973-9e7a-4efe-bdf5-4ae70670a04e","ios":"levelo://app?vid=e3e8f973-9e7a-4efe-bdf5-4ae70670a04e"},"vehicle_type_id":"4","last_reported":1745590158,"current_range_meters":8400,"station_id":"ce4bhg12rcd13ifvqf70","pricing_plan_id":"cebpf4jnsgd1na2vs0mg"},{"bike_id":"0baf0519-4f74-4b8b-811a-d2c3bceba98e","system_id":"levelo_inurba_marseille","lat":43.26951,"lon":5.38913,"is_reserved":false,"is_disabled":false,"rental_uris":{"android":"levelo://app?vid=0baf0519-4f74-4b8b-811a-d2c3bceba98e","ios":"levelo://app?vid=0baf0519-4f74-4b8b-811a-d2c3bceba98e"},"vehicle_type_id":"4","last_reported":1745590158,"current_range_meters":8400,"station_id":"ce4bhhh2rcd13ifvqfl0","pricing_plan_id":"cebpf4jnsgd1na2vs0mg"},{"bike_id":"7ddfde6d-2e8e-430f-bfa6-68dfdd4ea4ff","system_id":"levelo_inurba_marseille","lat":43.25498,"lon":5.37645,"is_reserved":false,"is_disabled":false,"rental_uris":{"android":"levelo://app?vid=7ddfde6d-2e8e-430f-bfa6-68dfdd4ea4ff","ios":"levelo://app?vid=7ddfde6d-2e8e-430f-bfa6-68dfdd4ea4ff"},"vehicle_type_id":"4","last_reported":1745590158,"current_range_meters":8000,"station_id":"ce4bhh12rcd13ifvqff0","pricing_plan_id":"cebpf4jnsgd1na2vs0mg"},{"bike_id":"abca1288-ae9a-4a2e-a1f9-c37cd8c1116e","system_id":"levelo_inurba_marseille","lat":43.23179,"lon":5.39983,"is_reserved":false,"is_disabled":false,"rental_uris":{"android":"levelo://app?vid=abca1288-ae9a-4a2e-a1f9-c37cd8c1116e","ios":"levelo://app?vid=abca1288-ae9a-4a2e-a1f9-c37cd8c1116e"},"vehicle_type_id":"4","last_reported":1745590158,"current_range_meters":8400,"station_id":"ce4bhn12rcd13ifvqgqg","pricing_plan_id":"cebpf4jnsgd1na2vs0mg"},{"bike_id":"e52b8da7-98f9-4e55-a025-10dea4c1f453","system_id":"levelo_inurba_marseille","lat":43.2596,"lon":5.40903,"is_reserved":false,"is_disabled":false,"rental_uris":{"android":"levelo://app?vid=e52b8da7-98f9-4e55-a025-10dea4c1f453","ios":"levelo://app?vid=e52b8da7-98f9-4e55-a025-10dea4c1f453"},"vehicle_type_id":"4","last_reported":1745590158,"current_range_meters":8400,"station_id":"ce4bhm92rcd13ifvqglg","pricing_plan_id":"cebpf4jnsgd1na2vs0mg"},{"bike_id":"d54ef0f7-9ac7-4dc7-af22-0d437d9b8e0b","system_id":"levelo_inurba_marseille","lat":43.21189,"lon":5.3507,"is_reserved":false,"is_disabled":false,"rental_uris":{"android":"levelo://app?vid=d54ef0f7-9ac7-4dc7-af22-0d437d9b8e0b","ios":"levelo://app?vid=d54ef0f7-9ac7-4dc7-af22-0d437d9b8e0b"},"vehicle_type_id":"4","last_reported":1745590158,"current_range_meters":8400,"station_id":"st_cvj6sg6p6f1abm77japg","pricing_plan_id":"cebpf4jnsgd1na2vs0mg"},{"bike_id":"fdd7c31f-e868-4deb-b812-6047e94a4937","system_id":"levelo_inurba_marseille","lat":43.24806,"lon":5.37454,"is_reserved":false,"is_disabled":false,"rental_uris":{"android":"levelo://app?vid=fdd7c31f-e868-4deb-b812-6047e94a4937","ios":"levelo://app?vid=fdd7c31f-e868-4deb-b812-6047e94a4937"},"vehicle_type_id":"4","last_reported":1745590158,"current_range_meters":8400,"station_id":"ce4bhgh2rcd13ifvqfb0","pricing_plan_id":"cebpf4jnsgd1na2vs0mg"},{"bike_id":"a717ebd8-9e67-42ca-9377-90b6733fcf62","system_id":"levelo_inurba_marseille","lat":43.21201,"lon":5.35084,"is_reserved":false,"is_disabled":false,"rental_uris":{"android":"levelo://app?vid=a717ebd8-9e67-42ca-9377-90b6733fcf62","ios":"levelo://app?vid=a717ebd8-9e67-42ca-9377-90b6733fcf62"},"vehicle_type_id":"4","last_reported":1745590158,"current_range_meters":8400,"station_id":"st_cvj6sg6p6f1abm77japg","pricing_plan_id":"cebpf4jnsgd1na2vs0mg"},{"bike_id":"6c66f039-d14a-494e-a9cd-5a847cc10124","system_id":"levelo_inurba_marseille","lat":43.28007,"lon":5.39958,"is_reserved":false,"is_disabled":false,"rental_uris":{"android":"levelo://app?vid=6c66f039-d14a-494e-a9cd-5a847cc10124","ios":"levelo://app?vid=6c66f039-d14a-494e-a9cd-5a847cc10124"},"vehicle_type_id":"4","last_reported":1745590158,"current_range_meters":8800,"station_id":"ce4bho92rcd13ifvqh4g","pricing_plan_id":"cebpf4jnsgd1na2vs0mg"},{"bike_id":"fa69fb32-156f-4894-af95-ad17185d8752","system_id":"levelo_inurba_marseille","lat":43.25582,"lon":5.3823,"is_reserved":false,"is_disabled":false,"rental_uris":{"android":"levelo://app?vid=fa69fb32-156f-4894-af95-ad17185d8752","ios":"levelo://app?vid=fa69fb32-156f-4894-af95-ad17185d8752"},"vehicle_type_id":"4","last_reported":1745590158,"current_range_meters":8800,"station_id":"ce4bhih2rcd13ifvqfs0","pricing_plan_id":"cebpf4jnsgd1na2vs0mg"},{"bike_id":"c1ccd199-3bfe-4293-a4cb-6829c97c125f","system_id":"levelo_inurba_marseille","lat":43.32372,"lon":5.38885,"is_reserved":false,"is_disabled":false,"rental_uris":{"android":"levelo://app?vid=c1ccd199-3bfe-4293-a4cb-6829c97c125f","ios":"levelo://app?vid=c1ccd199-3bfe-4293-a4cb-6829c97c125f"},"vehicle_type_id":"4","last_reported":1745590158,"current_range_meters":8800,"station_id":"ce4bhqp2rcd13ifvqhog","pricing_plan_id":"cebpf4jnsgd1na2vs0mg"},{"bike_id":"ab49b0ae-90ee-4214-bbd8-e0867a6763e8","system_id":"levelo_inurba_marseille","lat":43.31255,"lon":5.37167,"is_reserved":false,"is_disabled":false,"rental_uris":{"android":"levelo://app?vid=ab49b0ae-90ee-4214-bbd8-e0867a6763e8","ios":"levelo://app?vid=ab49b0ae-90ee-4214-bbd8-e0867a6763e8"},"vehicle_type_id":"4","last_reported":1745590158,"current_range_meters":8800,"station_id":"","pricing_plan_id":"cebpf4jnsgd1na2vs0mg"},{"bike_id":"d024718e-7ee5-4368-8955-4a2c9032ac75","system_id":"levelo_inurba_marseille","lat":43.21201,"lon":5.35067,"is_reserved":false,"is_disabled":false,"rental_uris":{"android":"levelo://app?vid=d024718e-7ee5-4368-8955-4a2c9032ac75","ios":"levelo://app?vid=d024718e-7ee5-4368-8955-4a2c9032ac75"},"vehicle_type_id":"4","last_reported":1745590158,"current_range_meters":8800,"station_id":"st_cvj6sg6p6f1abm77japg","pricing_plan_id":"cebpf4jnsgd1na2vs0mg"},{"bike_id":"3fea2e24-70fa-4cae-849c-73acd09533f2","system_id":"levelo_inurba_marseille","lat":43.27498,"lon":5.42439,"is_reserved":false,"is_disabled":false,"rental_uris":{"android":"levelo://app?vid=3fea2e24-70fa-4cae-849c-73acd09533f2","ios":"levelo://app?vid=3fea2e24-70fa-4cae-849c-73acd09533f2"},"vehicle_type_id":"4","last_reported":1745590158,"current_range_meters":8800,"station_id":"ce4bhn92rcd13ifvqgrg","pricing_plan_id":"cebpf4jnsgd1na2vs0mg"},{"bike_id":"1c762556-d1a5-47cf-8b55-79517f258d48","system_id":"levelo_inurba_marseille","lat":43.21195,"lon":5.35076,"is_reserved":false,"is_disabled":false,"rental_uris":{"android":"levelo://app?vid=1c762556-d1a5-47cf-8b55-79517f258d48","ios":"levelo://app?vid=1c762556-d1a5-47cf-8b55-79517f258d48"},"vehicle_type_id":"4","last_reported":1745590158,"current_range_meters":8800,"station_id":"st_cvj6sg6p6f1abm77japg","pricing_plan_id":"cebpf4jnsgd1na2vs0mg"},{"bike_id":"cfa34a75-efec-4eb8-a020-77feca0ad5e2","system_id":"levelo_inurba_marseille","lat":43.21267,"lon":5.35098,"is_reserved":false,"is_disabled":false,"rental_uris":{"android":"levelo://app?vid=cfa34a75-efec-4eb8-a020-77feca0ad5e2","ios":"levelo://app?vid=cfa34a75-efec-4eb8-a020-77feca0ad5e2"},"vehicle_type_id":"4","last_reported":1745590158,"current_range_meters":9200,"station_id":"","pricing_plan_id":"cebpf4jnsgd1na2vs0mg"},{"bike_id":"f80df130-90ca-4488-9e73-299ef9e56b4e","system_id":"levelo_inurba_marseille","lat":43.30344,"lon":5.3661,"is_reserved":false,"is_disabled":false,"rental_uris":{"android":"levelo://app?vid=f80df130-90ca-4488-9e73-299ef9e56b4e","ios":"levelo://app?vid=f80df130-90ca-4488-9e73-299ef9e56b4e"},"vehicle_type_id":"4","last_reported":1745590158,"current_range_meters":9200,"station_id":"","pricing_plan_id":"cebpf4jnsgd1na2vs0mg"},{"bike_id":"1e3d3a8f-837d-49e2-9662-f7f09f4541fa","system_id":"levelo_inurba_marseille","lat":43.23141,"lon":5.4372,"is_reserved":false,"is_disabled":false,"rental_uris":{"android":"levelo://app?vid=1e3d3a8f-837d-49e2-9662-f7f09f4541fa","ios":"levelo://app?vid=1e3d3a8f-837d-49e2-9662-f7f09f4541fa"},"vehicle_type_id":"4","last_reported":1745590158,"current_range_meters":9200,"station_id":"ce4bhmp2rcd13ifvqgog","pricing_plan_id":"cebpf4jnsgd1na2vs0mg"},{"bike_id":"4d85172b-2726-49ee-82ca-5a844a307cf1","system_id":"levelo_inurba_marseille","lat":43.23182,"lon":5.39979,"is_reserved":false,"is_disabled":false,"rental_uris":{"android":"levelo://app?vid=4d85172b-2726-49ee-82ca-5a844a307cf1","ios":"levelo://app?vid=4d85172b-2726-49ee-82ca-5a844a307cf1"},"vehicle_type_id":"4","last_reported":1745590158,"current_range_meters":9600,"station_id":"ce4bhn12rcd13ifvqgqg","pricing_plan_id":"cebpf4jnsgd1na2vs0mg"},{"bike_id":"bcde3a77-f9c9-48b7-8b13-643a2426b61d","system_id":"levelo_inurba_marseille","lat":43.240417,"lon":5.377558,"is_reserved":false,"is_disabled":false,"rental_uris":{"android":"levelo://app?vid=bcde3a77-f9c9-48b7-8b13-643a2426b61d","ios":"levelo://app?vid=bcde3a77-f9c9-48b7-8b13-643a2426b61d"},"vehicle_type_id":"4","last_reported":1745590158,"current_range_meters":9600,"station_id":"ce4bhah2rcd13ifvqei0","pricing_plan_id":"cebpf4jnsgd1na2vs0mg"},{"bike_id":"bcb5075d-0ef6-4d65-afca-a59c4c971cbe","system_id":"levelo_inurba_marseille","lat":43.26195,"lon":5.40442,"is_reserved":false,"is_disabled":false,"rental_uris":{"android":"levelo://app?vid=bcb5075d-0ef6-4d65-afca-a59c4c971cbe","ios":"levelo://app?vid=bcb5075d-0ef6-4d65-afca-a59c4c971cbe"},"vehicle_type_id":"4","last_reported":1745590158,"current_range_meters":9600,"station_id":"ce4bhmh2rcd13ifvqgmg","pricing_plan_id":"cebpf4jnsgd1na2vs0mg"},{"bike_id":"672aa13b-570b-426a-bc68-363b37d5cc15","system_id":"levelo_inurba_marseille","lat":43.269432,"lon":5.40254,"is_reserved":false,"is_disabled":false,"rental_uris":{"android":"levelo://app?vid=672aa13b-570b-426a-bc68-363b37d5cc15","ios":"levelo://app?vid=672aa13b-570b-426a-bc68-363b37d5cc15"},"vehicle_type_id":"4","last_reported":1745590158,"current_range_meters":9600,"station_id":"ce4bhl12rcd13ifvqgf0","pricing_plan_id":"cebpf4jnsgd1na2vs0mg"},{"bike_id":"22b32926-6d73-4f29-a0eb-33abe62b9fa2","system_id":"levelo_inurba_marseille","lat":43.24652,"lon":5.38888,"is_reserved":false,"is_disabled":false,"rental_uris":{"android":"levelo://app?vid=22b32926-6d73-4f29-a0eb-33abe62b9fa2","ios":"levelo://app?vid=22b32926-6d73-4f29-a0eb-33abe62b9fa2"},"vehicle_type_id":"4","last_reported":1745590158,"current_range_meters":9200,"station_id":"ce4bhg12rcd13ifvqf60","pricing_plan_id":"cebpf4jnsgd1na2vs0mg"},{"bike_id":"4b81d817-609e-42bb-8f5a-a4da8735e598","system_id":"levelo_inurba_marseille","lat":43.27385,"lon":5.36261,"is_reserved":false,"is_disabled":false,"rental_uris":{"android":"levelo://app?vid=4b81d817-609e-42bb-8f5a-a4da8735e598","ios":"levelo://app?vid=4b81d817-609e-42bb-8f5a-a4da8735e598"},"vehicle_type_id":"4","last_reported":1745590158,"current_range_meters":10000,"station_id":"ce4bhbh2rcd13ifvqeo0","pricing_plan_id":"cebpf4jnsgd1na2vs0mg"},{"bike_id":"e59da2de-5a0d-4b2a-ba19-d5331f1a326e","system_id":"levelo_inurba_marseille","lat":43.278588,"lon":5.392663,"is_reserved":false,"is_disabled":false,"rental_uris":{"android":"levelo://app?vid=e59da2de-5a0d-4b2a-ba19-d5331f1a326e","ios":"levelo://app?vid=e59da2de-5a0d-4b2a-ba19-d5331f1a326e"},"vehicle_type_id":"4","last_reported":1745590158,"current_range_meters":10000,"station_id":"ce4bhjp2rcd13ifvqga0","pricing_plan_id":"cebpf4jnsgd1na2vs0mg"},{"bike_id":"7bfcdb06-1ff0-4c4e-ba7c-45e7f6393f4a","system_id":"levelo_inurba_marseille","lat":43.25727,"lon":5.41104,"is_reserved":false,"is_disabled":false,"rental_uris":{"android":"levelo://app?vid=7bfcdb06-1ff0-4c4e-ba7c-45e7f6393f4a","ios":"levelo://app?vid=7bfcdb06-1ff0-4c4e-ba7c-45e7f6393f4a"},"vehicle_type_id":"4","last_reported":1745590158,"current_range_meters":10000,"station_id":"ce4bhkp2rcd13ifvqgd0","pricing_plan_id":"cebpf4jnsgd1na2vs0mg"},{"bike_id":"a8a48dcd-11a7-40b3-965e-085ae500616c","system_id":"levelo_inurba_marseille","lat":43.26569,"lon":5.39008,"is_reserved":false,"is_disabled":false,"rental_uris":{"android":"levelo://app?vid=a8a48dcd-11a7-40b3-965e-085ae500616c","ios":"levelo://app?vid=a8a48dcd-11a7-40b3-965e-085ae500616c"},"vehicle_type_id":"4","last_reported":1745590158,"current_range_meters":10000,"station_id":"ce4bhe12rcd13ifvqf30","pricing_plan_id":"cebpf4jnsgd1na2vs0mg"},{"bike_id":"8d30b6d6-af9a-4100-a4cc-c9a776b62142","system_id":"levelo_inurba_marseille","lat":43.246593,"lon":5.381724,"is_reserved":false,"is_disabled":false,"rental_uris":{"android":"levelo://app?vid=8d30b6d6-af9a-4100-a4cc-c9a776b62142","ios":"levelo://app?vid=8d30b6d6-af9a-4100-a4cc-c9a776b62142"},"vehicle_type_id":"4","last_reported":1745590158,"current_range_meters":10000,"station_id":"ce4bhh92rcd13ifvqfj0","pricing_plan_id":"cebpf4jnsgd1na2vs0mg"},{"bike_id":"e71b3f1c-b0fa-4315-8c3b-5c7acd77500c","system_id":"levelo_inurba_marseille","lat":43.26225,"lon":5.40452,"is_reserved":false,"is_disabled":false,"rental_uris":{"android":"levelo://app?vid=e71b3f1c-b0fa-4315-8c3b-5c7acd77500c","ios":"levelo://app?vid=e71b3f1c-b0fa-4315-8c3b-5c7acd77500c"},"vehicle_type_id":"4","last_reported":1745590158,"current_range_meters":10800,"station_id":"ce4bhmh2rcd13ifvqgmg","pricing_plan_id":"cebpf4jnsgd1na2vs0mg"},{"bike_id":"a9193099-440e-4ca9-b0ab-6bcfbd5c3301","system_id":"levelo_inurba_marseille","lat":43.28439,"lon":5.34998,"is_reserved":false,"is_disabled":false,"rental_uris":{"android":"levelo://app?vid=a9193099-440e-4ca9-b0ab-6bcfbd5c3301","ios":"levelo://app?vid=a9193099-440e-4ca9-b0ab-6bcfbd5c3301"},"vehicle_type_id":"4","last_reported":1745590158,"current_range_meters":10800,"station_id":"ce4bhbh2rcd13ifvqepg","pricing_plan_id":"cebpf4jnsgd1na2vs0mg"},{"bike_id":"4c610c96-ea2f-43dd-94f5-7ba6695ff91f","system_id":"levelo_inurba_marseille","lat":43.26214,"lon":5.37436,"is_reserved":false,"is_disabled":false,"rental_uris":{"android":"levelo://app?vid=4c610c96-ea2f-43dd-94f5-7ba6695ff91f","ios":"levelo://app?vid=4c610c96-ea2f-43dd-94f5-7ba6695ff91f"},"vehicle_type_id":"4","last_reported":1745590158,"current_range_meters":10800,"station_id":"ce4bhgp2rcd13ifvqfc0","pricing_plan_id":"cebpf4jnsgd1na2vs0mg"},{"bike_id":"7689f96b-82a5-4a03-99ce-dd24e959196d","system_id":"levelo_inurba_marseille","lat":43.28259,"lon":5.35072,"is_reserved":false,"is_disabled":false,"rental_uris":{"android":"levelo://app?vid=7689f96b-82a5-4a03-99ce-dd24e959196d","ios":"levelo://app?vid=7689f96b-82a5-4a03-99ce-dd24e959196d"},"vehicle_type_id":"4","last_reported":1745590158,"current_range_meters":11200,"station_id":"ce4bhbp2rcd13ifvqerg","pricing_plan_id":"cebpf4jnsgd1na2vs0mg"},{"bike_id":"c4e6ae2b-9056-4ad3-8a3e-b79004cb9194","system_id":"levelo_inurba_marseille","lat":43.30877,"lon":5.3965,"is_reserved":false,"is_disabled":false,"rental_uris":{"android":"levelo://app?vid=c4e6ae2b-9056-4ad3-8a3e-b79004cb9194","ios":"levelo://app?vid=c4e6ae2b-9056-4ad3-8a3e-b79004cb9194"},"vehicle_type_id":"4","last_reported":1745590158,"current_range_meters":11200,"station_id":"ce4bh012rcd13ifvqcv0","pricing_plan_id":"cebpf4jnsgd1na2vs0mg"},{"bike_id":"e2529024-d8ea-40aa-8155-7a22a948709a","system_id":"levelo_inurba_marseille","lat":43.22502,"lon":5.34774,"is_reserved":false,"is_disabled":false,"rental_uris":{"android":"levelo://app?vid=e2529024-d8ea-40aa-8155-7a22a948709a","ios":"levelo://app?vid=e2529024-d8ea-40aa-8155-7a22a948709a"},"vehicle_type_id":"4","last_reported":1745590158,"current_range_meters":11200,"station_id":"","pricing_plan_id":"cebpf4jnsgd1na2vs0mg"},{"bike_id":"f1712a7d-5871-41e3-9b46-1f2f2ece89a0","system_id":"levelo_inurba_marseille","lat":43.231823,"lon":5.399815,"is_reserved":false,"is_disabled":false,"rental_uris":{"android":"levelo://app?vid=f1712a7d-5871-41e3-9b46-1f2f2ece89a0","ios":"levelo://app?vid=f1712a7d-5871-41e3-9b46-1f2f2ece89a0"},"vehicle_type_id":"4","last_reported":1745590158,"current_range_meters":11200,"station_id":"ce4bhn12rcd13ifvqgqg","pricing_plan_id":"cebpf4jnsgd1na2vs0mg"},{"bike_id":"5c8dde23-03af-4ec7-8c64-b6a7b95cfa5a","system_id":"levelo_inurba_marseille","lat":43.337302,"lon":5.391801,"is_reserved":false,"is_disabled":false,"rental_uris":{"android":"levelo://app?vid=5c8dde23-03af-4ec7-8c64-b6a7b95cfa5a","ios":"levelo://app?vid=5c8dde23-03af-4ec7-8c64-b6a7b95cfa5a"},"vehicle_type_id":"4","last_reported":1745590158,"current_range_meters":11200,"station_id":"ce4bhr92rcd13ifvqhsg","pricing_plan_id":"cebpf4jnsgd1na2vs0mg"},{"bike_id":"0c4077b4-cbda-4729-a3cf-4be66247bebe","system_id":"levelo_inurba_marseille","lat":43.28466,"lon":5.35892,"is_reserved":false,"is_disabled":false,"rental_uris":{"android":"levelo://app?vid=0c4077b4-cbda-4729-a3cf-4be66247bebe","ios":"levelo://app?vid=0c4077b4-cbda-4729-a3cf-4be66247bebe"},"vehicle_type_id":"4","last_reported":1745590158,"current_range_meters":11200,"station_id":"ce4bhah2rcd13ifvqei0","pricing_plan_id":"cebpf4jnsgd1na2vs0mg"},{"bike_id":"3684d2d7-9d09-47ba-9bd8-842361bdfd93","system_id":"levelo_inurba_marseille","lat":43.31733,"lon":5.43724,"is_reserved":false,"is_disabled":false,"rental_uris":{"android":"levelo://app?vid=3684d2d7-9d09-47ba-9bd8-842361bdfd93","ios":"levelo://app?vid=3684d2d7-9d09-47ba-9bd8-842361bdfd93"},"vehicle_type_id":"4","last_reported":1745590158,"current_range_meters":11200,"station_id":"ce4bhp92rcd13ifvqhcg","pricing_plan_id":"cebpf4jnsgd1na2vs0mg"},{"bike_id":"bd95f0bb-c5b1-4d5c-837c-b505e5069d47","system_id":"levelo_inurba_marseille","lat":43.33227,"lon":5.39761,"is_reserved":false,"is_disabled":false,"rental_uris":{"android":"levelo://app?vid=bd95f0bb-c5b1-4d5c-837c-b505e5069d47","ios":"levelo://app?vid=bd95f0bb-c5b1-4d5c-837c-b505e5069d47"},"vehicle_type_id":"4","last_reported":1745590158,"current_range_meters":11200,"station_id":"","pricing_plan_id":"cebpf4jnsgd1na2vs0mg"},{"bike_id":"4df68446-6247-4377-9cce-506c372913e4","system_id":"levelo_inurba_marseille","lat":43.31369,"lon":5.38495,"is_reserved":false,"is_disabled":false,"rental_uris":{"android":"levelo://app?vid=4df68446-6247-4377-9cce-506c372913e4","ios":"levelo://app?vid=4df68446-6247-4377-9cce-506c372913e4"},"vehicle_type_id":"4","last_reported":1745590158,"current_range_meters":11200,"station_id":"ce4bgt92rcd13ifvqcf0","pricing_plan_id":"cebpf4jnsgd1na2vs0mg"},{"bike_id":"f03660d6-be35-4f02-872c-0090522cc1c1","system_id":"levelo_inurba_marseille","lat":43.29027,"lon":5.38646,"is_reserved":false,"is_disabled":false,"rental_uris":{"android":"levelo://app?vid=f03660d6-be35-4f02-872c-0090522cc1c1","ios":"levelo://app?vid=f03660d6-be35-4f02-872c-0090522cc1c1"},"vehicle_type_id":"4","last_reported":1745590158,"current_range_meters":11200,"station_id":"ce4bh4p2rcd13ifvqe0g","pricing_plan_id":"cebpf4jnsgd1na2vs0mg"},{"bike_id":"a0e599c3-926d-4e5f-bdb0-698e594cb218","system_id":"levelo_inurba_marseille","lat":43.2871,"lon":5.3738,"is_reserved":false,"is_disabled":false,"rental_uris":{"android":"levelo://app?vid=a0e599c3-926d-4e5f-bdb0-698e594cb218","ios":"levelo://app?vid=a0e599c3-926d-4e5f-bdb0-698e594cb218"},"vehicle_type_id":"4","last_reported":1745590158,"current_range_meters":11600,"station_id":"ce4bh3p2rcd13ifvqdq0","pricing_plan_id":"cebpf4jnsgd1na2vs0mg"},{"bike_id":"f300c769-8c43-4378-8cc9-5aebd7031a72","system_id":"levelo_inurba_marseille","lat":43.28618,"lon":5.35089,"is_reserved":false,"is_disabled":false,"rental_uris":{"android":"levelo://app?vid=f300c769-8c43-4378-8cc9-5aebd7031a72","ios":"levelo://app?vid=f300c769-8c43-4378-8cc9-5aebd7031a72"},"vehicle_type_id":"4","last_reported":1745590158,"current_range_meters":11600,"station_id":"ce4bhch2rcd13ifvqeug","pricing_plan_id":"cebpf4jnsgd1na2vs0mg"},{"bike_id":"84c53609-d9b3-464c-8aec-09fe2106c6dd","system_id":"levelo_inurba_marseille","lat":43.2894,"lon":5.36633,"is_reserved":false,"is_disabled":false,"rental_uris":{"android":"levelo://app?vid=84c53609-d9b3-464c-8aec-09fe2106c6dd","ios":"levelo://app?vid=84c53609-d9b3-464c-8aec-09fe2106c6dd"},"vehicle_type_id":"4","last_reported":1745590158,"current_range_meters":11200,"station_id":"ce4bhap2rcd13ifvqek0","pricing_plan_id":"cebpf4jnsgd1na2vs0mg"},{"bike_id":"05478e01-3d9a-48a1-ba7c-fcc8b81dfe26","system_id":"levelo_inurba_marseille","lat":43.29563,"lon":5.4229,"is_reserved":false,"is_disabled":false,"rental_uris":{"android":"levelo://app?vid=05478e01-3d9a-48a1-ba7c-fcc8b81dfe26","ios":"levelo://app?vid=05478e01-3d9a-48a1-ba7c-fcc8b81dfe26"},"vehicle_type_id":"4","last_reported":1745590158,"current_range_meters":11600,"station_id":"ce4bhph2rcd13ifvqhdg","pricing_plan_id":"cebpf4jnsgd1na2vs0mg"},{"bike_id":"dc01f0b5-b1ff-492a-9187-c2aa24895f43","system_id":"levelo_inurba_marseille","lat":43.23189,"lon":5.39988,"is_reserved":false,"is_disabled":false,"rental_uris":{"android":"levelo://app?vid=dc01f0b5-b1ff-492a-9187-c2aa24895f43","ios":"levelo://app?vid=dc01f0b5-b1ff-492a-9187-c2aa24895f43"},"vehicle_type_id":"4","last_reported":1745590158,"current_range_meters":11600,"station_id":"ce4bhn12rcd13ifvqgqg","pricing_plan_id":"cebpf4jnsgd1na2vs0mg"},{"bike_id":"e9b40b8c-aa8b-493b-9704-ac204b4fdb74","system_id":"levelo_inurba_marseille","lat":43.22509,"lon":5.34789,"is_reserved":false,"is_disabled":false,"rental_uris":{"android":"levelo://app?vid=e9b40b8c-aa8b-493b-9704-ac204b4fdb74","ios":"levelo://app?vid=e9b40b8c-aa8b-493b-9704-ac204b4fdb74"},"vehicle_type_id":"4","last_reported":1745590158,"current_range_meters":12000,"station_id":"st_cvj5dfep6f1abm77gieg","pricing_plan_id":"cebpf4jnsgd1na2vs0mg"},{"bike_id":"01762caa-1a5d-4881-9c47-5521a85d4a8c","system_id":"levelo_inurba_marseille","lat":43.287012,"lon":5.373902,"is_reserved":false,"is_disabled":false,"rental_uris":{"android":"levelo://app?vid=01762caa-1a5d-4881-9c47-5521a85d4a8c","ios":"levelo://app?vid=01762caa-1a5d-4881-9c47-5521a85d4a8c"},"vehicle_type_id":"4","last_reported":1745590158,"current_range_meters":12000,"station_id":"ce4bh3p2rcd13ifvqdq0","pricing_plan_id":"cebpf4jnsgd1na2vs0mg"},{"bike_id":"2d238b07-fb79-48ef-b26e-08ec265e5270","system_id":"levelo_inurba_marseille","lat":43.28465,"lon":5.35889,"is_reserved":false,"is_disabled":false,"rental_uris":{"android":"levelo://app?vid=2d238b07-fb79-48ef-b26e-08ec265e5270","ios":"levelo://app?vid=2d238b07-fb79-48ef-b26e-08ec265e5270"},"vehicle_type_id":"4","last_reported":1745590158,"current_range_meters":12000,"station_id":"ce4bhah2rcd13ifvqei0","pricing_plan_id":"cebpf4jnsgd1na2vs0mg"},{"bike_id":"bdac74d6-fa4b-438e-a9f6-078569b49bdb","system_id":"levelo_inurba_marseille","lat":43.23201,"lon":5.35552,"is_reserved":false,"is_disabled":false,"rental_uris":{"android":"levelo://app?vid=bdac74d6-fa4b-438e-a9f6-078569b49bdb","ios":"levelo://app?vid=bdac74d6-fa4b-438e-a9f6-078569b49bdb"},"vehicle_type_id":"4","last_reported":1745590158,"current_range_meters":12000,"station_id":"ce4bhu92rcd13ifvqi70","pricing_plan_id":"cebpf4jnsgd1na2vs0mg"},{"bike_id":"e6540e07-c0c5-4161-aed6-9a62cdbe291c","system_id":"levelo_inurba_marseille","lat":43.24361,"lon":5.36999,"is_reserved":false,"is_disabled":false,"rental_uris":{"android":"levelo://app?vid=e6540e07-c0c5-4161-aed6-9a62cdbe291c","ios":"levelo://app?vid=e6540e07-c0c5-4161-aed6-9a62cdbe291c"},"vehicle_type_id":"4","last_reported":1745590158,"current_range_meters":12000,"station_id":"","pricing_plan_id":"cebpf4jnsgd1na2vs0mg"},{"bike_id":"db09287a-0ef4-4f88-8d76-6d7a6ddf5bf8","system_id":"levelo_inurba_marseille","lat":43.29374,"lon":5.37854,"is_reserved":false,"is_disabled":true,"rental_uris":{"android":"levelo://app?vid=db09287a-0ef4-4f88-8d76-6d7a6ddf5bf8","ios":"levelo://app?vid=db09287a-0ef4-4f88-8d76-6d7a6ddf5bf8"},"vehicle_type_id":"4","last_reported":1745590158,"current_range_meters":12000,"station_id":"ce4bgjh2rcd13ifvqbf0","pricing_plan_id":"cebpf4jnsgd1na2vs0mg"},{"bike_id":"8a77ee29-81af-49a1-b6ad-1972af0a1f58","system_id":"levelo_inurba_marseille","lat":43.26034,"lon":5.37555,"is_reserved":false,"is_disabled":false,"rental_uris":{"android":"levelo://app?vid=8a77ee29-81af-49a1-b6ad-1972af0a1f58","ios":"levelo://app?vid=8a77ee29-81af-49a1-b6ad-1972af0a1f58"},"vehicle_type_id":"4","last_reported":1745590158,"current_range_meters":12000,"station_id":"ce4bhgh2rcd13ifvqfa0","pricing_plan_id":"cebpf4jnsgd1na2vs0mg"},{"bike_id":"4c79909e-3dc1-4e69-b98e-60c41d6d3d0c","system_id":"levelo_inurba_marseille","lat":43.23058,"lon":5.35487,"is_reserved":false,"is_disabled":false,"rental_uris":{"android":"levelo://app?vid=4c79909e-3dc1-4e69-b98e-60c41d6d3d0c","ios":"levelo://app?vid=4c79909e-3dc1-4e69-b98e-60c41d6d3d0c"},"vehicle_type_id":"4","last_reported":1745590158,"current_range_meters":12400,"station_id":"cpo3342slgdg3j2ifvpg","pricing_plan_id":"cebpf4jnsgd1na2vs0mg"},{"bike_id":"8aafb379-4fb7-4a42-b733-3c0bc62fc5a0","system_id":"levelo_inurba_marseille","lat":43.30886,"lon":5.39654,"is_reserved":false,"is_disabled":false,"rental_uris":{"android":"levelo://app?vid=8aafb379-4fb7-4a42-b733-3c0bc62fc5a0","ios":"levelo://app?vid=8aafb379-4fb7-4a42-b733-3c0bc62fc5a0"},"vehicle_type_id":"4","last_reported":1745590158,"current_range_meters":12400,"station_id":"ce4bh012rcd13ifvqcv0","pricing_plan_id":"cebpf4jnsgd1na2vs0mg"},{"bike_id":"f07b3c5b-fd4b-4f93-8a6b-c152845e8f8c","system_id":"levelo_inurba_marseille","lat":43.31994,"lon":5.38136,"is_reserved":false,"is_disabled":false,"rental_uris":{"android":"levelo://app?vid=f07b3c5b-fd4b-4f93-8a6b-c152845e8f8c","ios":"levelo://app?vid=f07b3c5b-fd4b-4f93-8a6b-c152845e8f8c"},"vehicle_type_id":"4","last_reported":1745590158,"current_range_meters":12400,"station_id":"ce4bhr12rcd13ifvqhpg","pricing_plan_id":"cebpf4jnsgd1na2vs0mg"},{"bike_id":"a1239a8f-43d4-4093-be84-1546659c01f4","system_id":"levelo_inurba_marseille","lat":43.21749,"lon":5.34603,"is_reserved":false,"is_disabled":false,"rental_uris":{"android":"levelo://app?vid=a1239a8f-43d4-4093-be84-1546659c01f4","ios":"levelo://app?vid=a1239a8f-43d4-4093-be84-1546659c01f4"},"vehicle_type_id":"4","last_reported":1745590158,"current_range_meters":12400,"station_id":"st_cvj6r9ubvosntc0bgbag","pricing_plan_id":"cebpf4jnsgd1na2vs0mg"},{"bike_id":"a1897321-d43a-4a7f-9420-75209779ce53","system_id":"levelo_inurba_marseille","lat":43.28945,"lon":5.36635,"is_reserved":false,"is_disabled":false,"rental_uris":{"android":"levelo://app?vid=a1897321-d43a-4a7f-9420-75209779ce53","ios":"levelo://app?vid=a1897321-d43a-4a7f-9420-75209779ce53"},"vehicle_type_id":"4","last_reported":1745590158,"current_range_meters":12800,"station_id":"ce4bhap2rcd13ifvqek0","pricing_plan_id":"cebpf4jnsgd1na2vs0mg"},{"bike_id":"03ec5728-5a8d-475c-be69-d63e54c8d683","system_id":"levelo_inurba_marseille","lat":43.32469,"lon":5.3673,"is_reserved":false,"is_disabled":false,"rental_uris":{"android":"levelo://app?vid=03ec5728-5a8d-475c-be69-d63e54c8d683","ios":"levelo://app?vid=03ec5728-5a8d-475c-be69-d63e54c8d683"},"vehicle_type_id":"4","last_reported":1745590158,"current_range_meters":12800,"station_id":"","pricing_plan_id":"cebpf4jnsgd1na2vs0mg"},{"bike_id":"00dd4008-b8cd-459b-8f24-a4218f6e8179","system_id":"levelo_inurba_marseille","lat":43.23198,"lon":5.35555,"is_reserved":false,"is_disabled":false,"rental_uris":{"android":"levelo://app?vid=00dd4008-b8cd-459b-8f24-a4218f6e8179","ios":"levelo://app?vid=00dd4008-b8cd-459b-8f24-a4218f6e8179"},"vehicle_type_id":"4","last_reported":1745590158,"current_range_meters":12800,"station_id":"ce4bhu92rcd13ifvqi70","pricing_plan_id":"cebpf4jnsgd1na2vs0mg"},{"bike_id":"6ba30cc1-bc56-4c52-9fd3-0120cc5829be","system_id":"levelo_inurba_marseille","lat":43.26028,"lon":5.37549,"is_reserved":false,"is_disabled":false,"rental_uris":{"android":"levelo://app?vid=6ba30cc1-bc56-4c52-9fd3-0120cc5829be","ios":"levelo://app?vid=6ba30cc1-bc56-4c52-9fd3-0120cc5829be"},"vehicle_type_id":"4","last_reported":1745590158,"current_range_meters":12800,"station_id":"ce4bhgh2rcd13ifvqfa0","pricing_plan_id":"cebpf4jnsgd1na2vs0mg"},{"bike_id":"3e5a5bec-d3d4-45ee-9c95-7c9b8e7a4c49","system_id":"levelo_inurba_marseille","lat":43.32352,"lon":5.36744,"is_reserved":false,"is_disabled":false,"rental_uris":{"android":"levelo://app?vid=3e5a5bec-d3d4-45ee-9c95-7c9b8e7a4c49","ios":"levelo://app?vid=3e5a5bec-d3d4-45ee-9c95-7c9b8e7a4c49"},"vehicle_type_id":"4","last_reported":1745590158,"current_range_meters":12800,"station_id":"ce4bhsh2rcd13ifvqi2g","pricing_plan_id":"cebpf4jnsgd1na2vs0mg"},{"bike_id":"41588ddd-de3f-43ba-8b39-79cebfd357c3","system_id":"levelo_inurba_marseille","lat":43.26028,"lon":5.37544,"is_reserved":false,"is_disabled":false,"rental_uris":{"android":"levelo://app?vid=41588ddd-de3f-43ba-8b39-79cebfd357c3","ios":"levelo://app?vid=41588ddd-de3f-43ba-8b39-79cebfd357c3"},"vehicle_type_id":"4","last_reported":1745590158,"current_range_meters":12800,"station_id":"ce4bhgh2rcd13ifvqfa0","pricing_plan_id":"cebpf4jnsgd1na2vs0mg"},{"bike_id":"bff532e1-58f7-4601-87b6-d6ae8925747c","system_id":"levelo_inurba_marseille","lat":43.25903,"lon":5.4089,"is_reserved":false,"is_disabled":false,"rental_uris":{"android":"levelo://app?vid=bff532e1-58f7-4601-87b6-d6ae8925747c","ios":"levelo://app?vid=bff532e1-58f7-4601-87b6-d6ae8925747c"},"vehicle_type_id":"4","last_reported":1745590158,"current_range_meters":13600,"station_id":"ce4bhm92rcd13ifvqglg","pricing_plan_id":"cebpf4jnsgd1na2vs0mg"},{"bike_id":"e2dcabcf-64d8-4394-bb9a-ff877bee611a","system_id":"levelo_inurba_marseille","lat":43.3205,"lon":5.4152,"is_reserved":false,"is_disabled":false,"rental_uris":{"android":"levelo://app?vid=e2dcabcf-64d8-4394-bb9a-ff877bee611a","ios":"levelo://app?vid=e2dcabcf-64d8-4394-bb9a-ff877bee611a"},"vehicle_type_id":"4","last_reported":1745590158,"current_range_meters":13600,"station_id":"ce4bhq92rcd13ifvqhkg","pricing_plan_id":"cebpf4jnsgd1na2vs0mg"},{"bike_id":"20f43bed-cd6c-4e3e-b47b-055df6184bb1","system_id":"levelo_inurba_marseille","lat":43.28269,"lon":5.3507,"is_reserved":false,"is_disabled":false,"rental_uris":{"android":"levelo://app?vid=20f43bed-cd6c-4e3e-b47b-055df6184bb1","ios":"levelo://app?vid=20f43bed-cd6c-4e3e-b47b-055df6184bb1"},"vehicle_type_id":"4","last_reported":1745590158,"current_range_meters":13600,"station_id":"ce4bhbp2rcd13ifvqerg","pricing_plan_id":"cebpf4jnsgd1na2vs0mg"},{"bike_id":"4c11ff0f-a579-4f78-9960-a443174b0bdd","system_id":"levelo_inurba_marseille","lat":43.21188,"lon":5.35077,"is_reserved":false,"is_disabled":false,"rental_uris":{"android":"levelo://app?vid=4c11ff0f-a579-4f78-9960-a443174b0bdd","ios":"levelo://app?vid=4c11ff0f-a579-4f78-9960-a443174b0bdd"},"vehicle_type_id":"4","last_reported":1745590158,"current_range_meters":13600,"station_id":"st_cvj6sg6p6f1abm77japg","pricing_plan_id":"cebpf4jnsgd1na2vs0mg"},{"bike_id":"7fc5ed43-b2c3-4cf7-b081-488a7cbcc12f","system_id":"levelo_inurba_marseille","lat":43.33031,"lon":5.39032,"is_reserved":false,"is_disabled":false,"rental_uris":{"android":"levelo://app?vid=7fc5ed43-b2c3-4cf7-b081-488a7cbcc12f","ios":"levelo://app?vid=7fc5ed43-b2c3-4cf7-b081-488a7cbcc12f"},"vehicle_type_id":"4","last_reported":1745590158,"current_range_meters":13600,"station_id":"ce4bhr92rcd13ifvqhrg","pricing_plan_id":"cebpf4jnsgd1na2vs0mg"},{"bike_id":"93e1d1f4-9466-4efe-a53a-81a54bc39247","system_id":"levelo_inurba_marseille","lat":43.24997,"lon":5.38927,"is_reserved":false,"is_disabled":false,"rental_uris":{"android":"levelo://app?vid=93e1d1f4-9466-4efe-a53a-81a54bc39247","ios":"levelo://app?vid=93e1d1f4-9466-4efe-a53a-81a54bc39247"},"vehicle_type_id":"4","last_reported":1745590158,"current_range_meters":13600,"station_id":"ce4bhgp2rcd13ifvqfd0","pricing_plan_id":"cebpf4jnsgd1na2vs0mg"},{"bike_id":"452f2c91-8a42-4b2e-b84b-b27753a7d0e7","system_id":"levelo_inurba_marseille","lat":43.33452,"lon":5.36116,"is_reserved":false,"is_disabled":false,"rental_uris":{"android":"levelo://app?vid=452f2c91-8a42-4b2e-b84b-b27753a7d0e7","ios":"levelo://app?vid=452f2c91-8a42-4b2e-b84b-b27753a7d0e7"},"vehicle_type_id":"4","last_reported":1745590158,"current_range_meters":14000,"station_id":"","pricing_plan_id":"cebpf4jnsgd1na2vs0mg"},{"bike_id":"a5dd102c-29df-4586-ba4f-efced2cf91b2","system_id":"levelo_inurba_marseille","lat":43.24084,"lon":5.37727,"is_reserved":false,"is_disabled":false,"rental_uris":{"android":"levelo://app?vid=a5dd102c-29df-4586-ba4f-efced2cf91b2","ios":"levelo://app?vid=a5dd102c-29df-4586-ba4f-efced2cf91b2"},"vehicle_type_id":"4","last_reported":1745590158,"current_range_meters":14000,"station_id":"ce4bhnp2rcd13ifvqgvg","pricing_plan_id":"cebpf4jnsgd1na2vs0mg"},{"bike_id":"db019888-8474-4b24-bd86-a290e5b86519","system_id":"levelo_inurba_marseille","lat":43.23147,"lon":5.43711,"is_reserved":false,"is_disabled":false,"rental_uris":{"android":"levelo://app?vid=db019888-8474-4b24-bd86-a290e5b86519","ios":"levelo://app?vid=db019888-8474-4b24-bd86-a290e5b86519"},"vehicle_type_id":"4","last_reported":1745590158,"current_range_meters":14000,"station_id":"ce4bhmp2rcd13ifvqgog","pricing_plan_id":"cebpf4jnsgd1na2vs0mg"},{"bike_id":"bdbbd478-9a69-4bfb-9542-cc09e3df6c81","system_id":"levelo_inurba_marseille","lat":43.22791,"lon":5.3514,"is_reserved":false,"is_disabled":false,"rental_uris":{"android":"levelo://app?vid=bdbbd478-9a69-4bfb-9542-cc09e3df6c81","ios":"levelo://app?vid=bdbbd478-9a69-4bfb-9542-cc09e3df6c81"},"vehicle_type_id":"4","last_reported":1745590158,"current_range_meters":14000,"station_id":"","pricing_plan_id":"cebpf4jnsgd1na2vs0mg"},{"bike_id":"990ec2da-8bdd-47a3-83c6-eda2a6c38af9","system_id":"levelo_inurba_marseille","lat":43.267857,"lon":5.394168,"is_reserved":false,"is_disabled":false,"rental_uris":{"android":"levelo://app?vid=990ec2da-8bdd-47a3-83c6-eda2a6c38af9","ios":"levelo://app?vid=990ec2da-8bdd-47a3-83c6-eda2a6c38af9"},"vehicle_type_id":"4","last_reported":1745590158,"current_range_meters":14000,"station_id":"ce4bhh12rcd13ifvqfg0","pricing_plan_id":"cebpf4jnsgd1na2vs0mg"},{"bike_id":"c65adb3e-50be-42af-92da-68dd7e4eacc9","system_id":"levelo_inurba_marseille","lat":43.30148,"lon":5.38098,"is_reserved":false,"is_disabled":true,"rental_uris":{"android":"levelo://app?vid=c65adb3e-50be-42af-92da-68dd7e4eacc9","ios":"levelo://app?vid=c65adb3e-50be-42af-92da-68dd7e4eacc9"},"vehicle_type_id":"4","last_reported":1745590158,"current_range_meters":14000,"station_id":"ce4bgjp2rcd13ifvqbh0","pricing_plan_id":"cebpf4jnsgd1na2vs0mg"},{"bike_id":"0ac0f854-c594-45a1-a7f5-ddd02ab8e9ae","system_id":"levelo_inurba_marseille","lat":43.24387,"lon":5.37053,"is_reserved":false,"is_disabled":false,"rental_uris":{"android":"levelo://app?vid=0ac0f854-c594-45a1-a7f5-ddd02ab8e9ae","ios":"levelo://app?vid=0ac0f854-c594-45a1-a7f5-ddd02ab8e9ae"},"vehicle_type_id":"4","last_reported":1745590158,"current_range_meters":14000,"station_id":"ce4bhhh2rcd13ifvqfk0","pricing_plan_id":"cebpf4jnsgd1na2vs0mg"},{"bike_id":"0bfff189-ec6a-4439-b345-e9dd168ab867","system_id":"levelo_inurba_marseille","lat":43.337348,"lon":5.391716,"is_reserved":false,"is_disabled":false,"rental_uris":{"android":"levelo://app?vid=0bfff189-ec6a-4439-b345-e9dd168ab867","ios":"levelo://app?vid=0bfff189-ec6a-4439-b345-e9dd168ab867"},"vehicle_type_id":"4","last_reported":1745590158,"current_range_meters":14000,"station_id":"ce4bhr92rcd13ifvqhsg","pricing_plan_id":"cebpf4jnsgd1na2vs0mg"},{"bike_id":"b1a1c864-a846-4f7e-b2f1-87205961f7d4","system_id":"levelo_inurba_marseille","lat":43.30929,"lon":5.40145,"is_reserved":false,"is_disabled":false,"rental_uris":{"android":"levelo://app?vid=b1a1c864-a846-4f7e-b2f1-87205961f7d4","ios":"levelo://app?vid=b1a1c864-a846-4f7e-b2f1-87205961f7d4"},"vehicle_type_id":"4","last_reported":1745590158,"current_range_meters":14400,"station_id":"ce4bgvp2rcd13ifvqct0","pricing_plan_id":"cebpf4jnsgd1na2vs0mg"},{"bike_id":"9a1c0be7-bd1a-4081-ab84-3ef05258b407","system_id":"levelo_inurba_marseille","lat":43.2293,"lon":5.35374,"is_reserved":false,"is_disabled":false,"rental_uris":{"android":"levelo://app?vid=9a1c0be7-bd1a-4081-ab84-3ef05258b407","ios":"levelo://app?vid=9a1c0be7-bd1a-4081-ab84-3ef05258b407"},"vehicle_type_id":"4","last_reported":1745590158,"current_range_meters":14800,"station_id":"cpo3532slgdg3j2ikp40","pricing_plan_id":"cebpf4jnsgd1na2vs0mg"},{"bike_id":"d2713e2c-70d8-478b-869d-f061cc9825e6","system_id":"levelo_inurba_marseille","lat":43.23194,"lon":5.35589,"is_reserved":false,"is_disabled":false,"rental_uris":{"android":"levelo://app?vid=d2713e2c-70d8-478b-869d-f061cc9825e6","ios":"levelo://app?vid=d2713e2c-70d8-478b-869d-f061cc9825e6"},"vehicle_type_id":"4","last_reported":1745590158,"current_range_meters":14800,"station_id":"ce4bhu92rcd13ifvqi70","pricing_plan_id":"cebpf4jnsgd1na2vs0mg"},{"bike_id":"2cc49b22-90ed-40b7-8f38-e015facc8413","system_id":"levelo_inurba_marseille","lat":43.29903,"lon":5.43664,"is_reserved":false,"is_disabled":false,"rental_uris":{"android":"levelo://app?vid=2cc49b22-90ed-40b7-8f38-e015facc8413","ios":"levelo://app?vid=2cc49b22-90ed-40b7-8f38-e015facc8413"},"vehicle_type_id":"4","last_reported":1745590158,"current_range_meters":14800,"station_id":"ce4bhpp2rcd13ifvqhfg","pricing_plan_id":"cebpf4jnsgd1na2vs0mg"},{"bike_id":"146c870b-92e7-4655-b565-3cb052ff2b87","system_id":"levelo_inurba_marseille","lat":43.2958,"lon":5.37857,"is_reserved":false,"is_disabled":false,"rental_uris":{"android":"levelo://app?vid=146c870b-92e7-4655-b565-3cb052ff2b87","ios":"levelo://app?vid=146c870b-92e7-4655-b565-3cb052ff2b87"},"vehicle_type_id":"4","last_reported":1745590158,"current_range_meters":15200,"station_id":"","pricing_plan_id":"cebpf4jnsgd1na2vs0mg"},{"bike_id":"1a69caa3-ebfd-407e-9683-528788ef2d0c","system_id":"levelo_inurba_marseille","lat":43.29959,"lon":5.41325,"is_reserved":false,"is_disabled":false,"rental_uris":{"android":"levelo://app?vid=1a69caa3-ebfd-407e-9683-528788ef2d0c","ios":"levelo://app?vid=1a69caa3-ebfd-407e-9683-528788ef2d0c"},"vehicle_type_id":"4","last_reported":1745590158,"current_range_meters":15200,"station_id":"ce4bhp12rcd13ifvqh9g","pricing_plan_id":"cebpf4jnsgd1na2vs0mg"},{"bike_id":"55008cbb-8084-488f-a7c1-d76ecd860132","system_id":"levelo_inurba_marseille","lat":43.273743,"lon":5.362627,"is_reserved":false,"is_disabled":false,"rental_uris":{"android":"levelo://app?vid=55008cbb-8084-488f-a7c1-d76ecd860132","ios":"levelo://app?vid=55008cbb-8084-488f-a7c1-d76ecd860132"},"vehicle_type_id":"4","last_reported":1745590158,"current_range_meters":15200,"station_id":"ce4bhbh2rcd13ifvqeo0","pricing_plan_id":"cebpf4jnsgd1na2vs0mg"},{"bike_id":"f1922683-609d-48fe-9667-76af8eac5360","system_id":"levelo_inurba_marseille","lat":43.29535,"lon":5.37502,"is_reserved":false,"is_disabled":false,"rental_uris":{"android":"levelo://app?vid=f1922683-609d-48fe-9667-76af8eac5360","ios":"levelo://app?vid=f1922683-609d-48fe-9667-76af8eac5360"},"vehicle_type_id":"4","last_reported":1745590158,"current_range_meters":15200,"station_id":"ce4bgkp2rcd13ifvqbmg","pricing_plan_id":"cebpf4jnsgd1na2vs0mg"},{"bike_id":"168c9e22-5ac0-4499-87a6-929af2fcaf22","system_id":"levelo_inurba_marseille","lat":43.282593,"lon":5.350582,"is_reserved":false,"is_disabled":false,"rental_uris":{"android":"levelo://app?vid=168c9e22-5ac0-4499-87a6-929af2fcaf22","ios":"levelo://app?vid=168c9e22-5ac0-4499-87a6-929af2fcaf22"},"vehicle_type_id":"4","last_reported":1745590158,"current_range_meters":15200,"station_id":"ce4bhbp2rcd13ifvqerg","pricing_plan_id":"cebpf4jnsgd1na2vs0mg"},{"bike_id":"57aa967a-f0c4-4383-8d3f-be0d9536d26b","system_id":"levelo_inurba_marseille","lat":43.28617,"lon":5.35103,"is_reserved":false,"is_disabled":false,"rental_uris":{"android":"levelo://app?vid=57aa967a-f0c4-4383-8d3f-be0d9536d26b","ios":"levelo://app?vid=57aa967a-f0c4-4383-8d3f-be0d9536d26b"},"vehicle_type_id":"4","last_reported":1745590158,"current_range_meters":15200,"station_id":"ce4bhch2rcd13ifvqeug","pricing_plan_id":"cebpf4jnsgd1na2vs0mg"},{"bike_id":"51e93dd6-45e6-4fd0-a9cf-2fd16dc2b201","system_id":"levelo_inurba_marseille","lat":43.26947,"lon":5.38913,"is_reserved":false,"is_disabled":false,"rental_uris":{"android":"levelo://app?vid=51e93dd6-45e6-4fd0-a9cf-2fd16dc2b201","ios":"levelo://app?vid=51e93dd6-45e6-4fd0-a9cf-2fd16dc2b201"},"vehicle_type_id":"4","last_reported":1745590158,"current_range_meters":15200,"station_id":"ce4bhhh2rcd13ifvqfl0","pricing_plan_id":"cebpf4jnsgd1na2vs0mg"},{"bike_id":"3767ba54-0ee2-464a-8805-d28bad95405b","system_id":"levelo_inurba_marseille","lat":43.2723,"lon":5.39175,"is_reserved":false,"is_disabled":false,"rental_uris":{"android":"levelo://app?vid=3767ba54-0ee2-464a-8805-d28bad95405b","ios":"levelo://app?vid=3767ba54-0ee2-464a-8805-d28bad95405b"},"vehicle_type_id":"4","last_reported":1745590158,"current_range_meters":16000,"station_id":"ce4bhhp2rcd13ifvqfm0","pricing_plan_id":"cebpf4jnsgd1na2vs0mg"},{"bike_id":"5267f34e-fce0-44b4-ad50-2f11d4f8abac","system_id":"levelo_inurba_marseille","lat":43.282728,"lon":5.350736,"is_reserved":false,"is_disabled":false,"rental_uris":{"android":"levelo://app?vid=5267f34e-fce0-44b4-ad50-2f11d4f8abac","ios":"levelo://app?vid=5267f34e-fce0-44b4-ad50-2f11d4f8abac"},"vehicle_type_id":"4","last_reported":1745590158,"current_range_meters":15200,"station_id":"ce4bhbp2rcd13ifvqerg","pricing_plan_id":"cebpf4jnsgd1na2vs0mg"},{"bike_id":"524afa0c-c9c2-4bbb-a98a-f9bef9f4ca68","system_id":"levelo_inurba_marseille","lat":43.28464,"lon":5.35881,"is_reserved":false,"is_disabled":false,"rental_uris":{"android":"levelo://app?vid=524afa0c-c9c2-4bbb-a98a-f9bef9f4ca68","ios":"levelo://app?vid=524afa0c-c9c2-4bbb-a98a-f9bef9f4ca68"},"vehicle_type_id":"4","last_reported":1745590158,"current_range_meters":16000,"station_id":"ce4bhah2rcd13ifvqei0","pricing_plan_id":"cebpf4jnsgd1na2vs0mg"},{"bike_id":"403b8dff-1637-4b10-9174-5098599937f6","system_id":"levelo_inurba_marseille","lat":43.25826,"lon":5.39432,"is_reserved":false,"is_disabled":false,"rental_uris":{"android":"levelo://app?vid=403b8dff-1637-4b10-9174-5098599937f6","ios":"levelo://app?vid=403b8dff-1637-4b10-9174-5098599937f6"},"vehicle_type_id":"4","last_reported":1745590158,"current_range_meters":16000,"station_id":"ce4bhip2rcd13ifvqft0","pricing_plan_id":"cebpf4jnsgd1na2vs0mg"},{"bike_id":"eee8c9d0-aaee-44c3-b706-bf3c1ef50c66","system_id":"levelo_inurba_marseille","lat":43.28418,"lon":5.34993,"is_reserved":false,"is_disabled":false,"rental_uris":{"android":"levelo://app?vid=eee8c9d0-aaee-44c3-b706-bf3c1ef50c66","ios":"levelo://app?vid=eee8c9d0-aaee-44c3-b706-bf3c1ef50c66"},"vehicle_type_id":"4","last_reported":1745590158,"current_range_meters":16000,"station_id":"ce4bhbh2rcd13ifvqepg","pricing_plan_id":"cebpf4jnsgd1na2vs0mg"},{"bike_id":"a4144925-062c-47af-bc78-4d9ecb8e0099","system_id":"levelo_inurba_marseille","lat":43.22507,"lon":5.34782,"is_reserved":false,"is_disabled":false,"rental_uris":{"android":"levelo://app?vid=a4144925-062c-47af-bc78-4d9ecb8e0099","ios":"levelo://app?vid=a4144925-062c-47af-bc78-4d9ecb8e0099"},"vehicle_type_id":"4","last_reported":1745590158,"current_range_meters":16000,"station_id":"st_cvj5dfep6f1abm77gieg","pricing_plan_id":"cebpf4jnsgd1na2vs0mg"},{"bike_id":"b370ec72-25aa-4e18-90be-0a23445d821b","system_id":"levelo_inurba_marseille","lat":43.21787,"lon":5.34627,"is_reserved":false,"is_disabled":false,"rental_uris":{"android":"levelo://app?vid=b370ec72-25aa-4e18-90be-0a23445d821b","ios":"levelo://app?vid=b370ec72-25aa-4e18-90be-0a23445d821b"},"vehicle_type_id":"4","last_reported":1745590158,"current_range_meters":16000,"station_id":"","pricing_plan_id":"cebpf4jnsgd1na2vs0mg"},{"bike_id":"b99c3ed2-37c4-489b-a2c4-d846fb8fe83a","system_id":"levelo_inurba_marseille","lat":43.273692,"lon":5.362583,"is_reserved":false,"is_disabled":false,"rental_uris":{"android":"levelo://app?vid=b99c3ed2-37c4-489b-a2c4-d846fb8fe83a","ios":"levelo://app?vid=b99c3ed2-37c4-489b-a2c4-d846fb8fe83a"},"vehicle_type_id":"4","last_reported":1745590158,"current_range_meters":16000,"station_id":"ce4bhbh2rcd13ifvqeo0","pricing_plan_id":"cebpf4jnsgd1na2vs0mg"},{"bike_id":"4ab5e76c-acd8-47e2-a153-cca9263d02f0","system_id":"levelo_inurba_marseille","lat":43.251,"lon":5.40315,"is_reserved":false,"is_disabled":false,"rental_uris":{"android":"levelo://app?vid=4ab5e76c-acd8-47e2-a153-cca9263d02f0","ios":"levelo://app?vid=4ab5e76c-acd8-47e2-a153-cca9263d02f0"},"vehicle_type_id":"4","last_reported":1745590158,"current_range_meters":16000,"station_id":"ce4bhlh2rcd13ifvqgig","pricing_plan_id":"cebpf4jnsgd1na2vs0mg"},{"bike_id":"071c1165-d0c3-4152-8608-afc3b64c18ee","system_id":"levelo_inurba_marseille","lat":43.21216,"lon":5.35066,"is_reserved":false,"is_disabled":false,"rental_uris":{"android":"levelo://app?vid=071c1165-d0c3-4152-8608-afc3b64c18ee","ios":"levelo://app?vid=071c1165-d0c3-4152-8608-afc3b64c18ee"},"vehicle_type_id":"4","last_reported":1745590158,"current_range_meters":16000,"station_id":"st_cvj6sg6p6f1abm77japg","pricing_plan_id":"cebpf4jnsgd1na2vs0mg"},{"bike_id":"b0d37937-9bb2-4f31-a984-8f36582b6ce9","system_id":"levelo_inurba_marseille","lat":43.21748,"lon":5.34597,"is_reserved":false,"is_disabled":false,"rental_uris":{"android":"levelo://app?vid=b0d37937-9bb2-4f31-a984-8f36582b6ce9","ios":"levelo://app?vid=b0d37937-9bb2-4f31-a984-8f36582b6ce9"},"vehicle_type_id":"4","last_reported":1745590158,"current_range_meters":16000,"station_id":"st_cvj6r9ubvosntc0bgbag","pricing_plan_id":"cebpf4jnsgd1na2vs0mg"},{"bike_id":"568053e1-9183-4cee-acca-959027493876","system_id":"levelo_inurba_marseille","lat":43.30905,"lon":5.36843,"is_reserved":false,"is_disabled":true,"rental_uris":{"android":"levelo://app?vid=568053e1-9183-4cee-acca-959027493876","ios":"levelo://app?vid=568053e1-9183-4cee-acca-959027493876"},"vehicle_type_id":"4","last_reported":1745590158,"current_range_meters":16400,"station_id":"ce4bgn92rcd13ifvqbvg","pricing_plan_id":"cebpf4jnsgd1na2vs0mg"},{"bike_id":"af6af1ea-83a0-4448-a6b9-d143557f7290","system_id":"levelo_inurba_marseille","lat":43.27044,"lon":5.40212,"is_reserved":false,"is_disabled":false,"rental_uris":{"android":"levelo://app?vid=af6af1ea-83a0-4448-a6b9-d143557f7290","ios":"levelo://app?vid=af6af1ea-83a0-4448-a6b9-d143557f7290"},"vehicle_type_id":"4","last_reported":1745590158,"current_range_meters":16400,"station_id":"ce4bhk92rcd13ifvqgc0","pricing_plan_id":"cebpf4jnsgd1na2vs0mg"},{"bike_id":"c6f9b08b-85d4-4ea1-a207-d942c5041c83","system_id":"levelo_inurba_marseille","lat":43.23941,"lon":5.36642,"is_reserved":false,"is_disabled":false,"rental_uris":{"android":"levelo://app?vid=c6f9b08b-85d4-4ea1-a207-d942c5041c83","ios":"levelo://app?vid=c6f9b08b-85d4-4ea1-a207-d942c5041c83"},"vehicle_type_id":"4","last_reported":1745590158,"current_range_meters":16400,"station_id":"ce4bhi12rcd13ifvqfp0","pricing_plan_id":"cebpf4jnsgd1na2vs0mg"},{"bike_id":"40f1b1c1-8f23-404f-9e29-a58f51fa78fe","system_id":"levelo_inurba_marseille","lat":43.28035,"lon":5.36949,"is_reserved":false,"is_disabled":false,"rental_uris":{"android":"levelo://app?vid=40f1b1c1-8f23-404f-9e29-a58f51fa78fe","ios":"levelo://app?vid=40f1b1c1-8f23-404f-9e29-a58f51fa78fe"},"vehicle_type_id":"4","last_reported":1745590158,"current_range_meters":16400,"station_id":"ce4bha12rcd13ifvqef0","pricing_plan_id":"cebpf4jnsgd1na2vs0mg"},{"bike_id":"84f2a8ff-6f50-4091-9c9a-2b2bd52cf0e0","system_id":"levelo_inurba_marseille","lat":43.28269,"lon":5.35059,"is_reserved":false,"is_disabled":false,"rental_uris":{"android":"levelo://app?vid=84f2a8ff-6f50-4091-9c9a-2b2bd52cf0e0","ios":"levelo://app?vid=84f2a8ff-6f50-4091-9c9a-2b2bd52cf0e0"},"vehicle_type_id":"4","last_reported":1745590158,"current_range_meters":16400,"station_id":"ce4bhbp2rcd13ifvqerg","pricing_plan_id":"cebpf4jnsgd1na2vs0mg"},{"bike_id":"1bd28368-da6e-4567-a232-bfbd04e388f9","system_id":"levelo_inurba_marseille","lat":43.28472,"lon":5.3589,"is_reserved":false,"is_disabled":false,"rental_uris":{"android":"levelo://app?vid=1bd28368-da6e-4567-a232-bfbd04e388f9","ios":"levelo://app?vid=1bd28368-da6e-4567-a232-bfbd04e388f9"},"vehicle_type_id":"4","last_reported":1745590158,"current_range_meters":16800,"station_id":"ce4bhah2rcd13ifvqei0","pricing_plan_id":"cebpf4jnsgd1na2vs0mg"},{"bike_id":"5d9c1574-7299-43ae-a032-cbfe0be61242","system_id":"levelo_inurba_marseille","lat":43.23062,"lon":5.35487,"is_reserved":false,"is_disabled":false,"rental_uris":{"android":"levelo://app?vid=5d9c1574-7299-43ae-a032-cbfe0be61242","ios":"levelo://app?vid=5d9c1574-7299-43ae-a032-cbfe0be61242"},"vehicle_type_id":"4","last_reported":1745590158,"current_range_meters":16800,"station_id":"cpo3342slgdg3j2ifvpg","pricing_plan_id":"cebpf4jnsgd1na2vs0mg"},{"bike_id":"1ebb1eb1-592d-42f5-a5c8-14d38c1e10b4","system_id":"levelo_inurba_marseille","lat":43.28413,"lon":5.34971,"is_reserved":false,"is_disabled":false,"rental_uris":{"android":"levelo://app?vid=1ebb1eb1-592d-42f5-a5c8-14d38c1e10b4","ios":"levelo://app?vid=1ebb1eb1-592d-42f5-a5c8-14d38c1e10b4"},"vehicle_type_id":"4","last_reported":1745590158,"current_range_meters":16800,"station_id":"ce4bhbh2rcd13ifvqepg","pricing_plan_id":"cebpf4jnsgd1na2vs0mg"},{"bike_id":"47c6ce9d-d558-4eb5-865a-92aaeb61b1b1","system_id":"levelo_inurba_marseille","lat":43.23209,"lon":5.35558,"is_reserved":false,"is_disabled":false,"rental_uris":{"android":"levelo://app?vid=47c6ce9d-d558-4eb5-865a-92aaeb61b1b1","ios":"levelo://app?vid=47c6ce9d-d558-4eb5-865a-92aaeb61b1b1"},"vehicle_type_id":"4","last_reported":1745590158,"current_range_meters":16800,"station_id":"ce4bhu92rcd13ifvqi70","pricing_plan_id":"cebpf4jnsgd1na2vs0mg"},{"bike_id":"41d3b4e9-617f-4af5-b65f-25fa64c444ae","system_id":"levelo_inurba_marseille","lat":43.311119,"lon":5.396289,"is_reserved":false,"is_disabled":false,"rental_uris":{"android":"levelo://app?vid=41d3b4e9-617f-4af5-b65f-25fa64c444ae","ios":"levelo://app?vid=41d3b4e9-617f-4af5-b65f-25fa64c444ae"},"vehicle_type_id":"4","last_reported":1745590158,"current_range_meters":16800,"station_id":"ce4bgvp2rcd13ifvqcu0","pricing_plan_id":"cebpf4jnsgd1na2vs0mg"},{"bike_id":"3e6060f0-e0c6-4155-bdb5-c229766a5d7d","system_id":"levelo_inurba_marseille","lat":43.23195,"lon":5.35547,"is_reserved":false,"is_disabled":false,"rental_uris":{"android":"levelo://app?vid=3e6060f0-e0c6-4155-bdb5-c229766a5d7d","ios":"levelo://app?vid=3e6060f0-e0c6-4155-bdb5-c229766a5d7d"},"vehicle_type_id":"4","last_reported":1745590158,"current_range_meters":16800,"station_id":"ce4bhu92rcd13ifvqi70","pricing_plan_id":"cebpf4jnsgd1na2vs0mg"},{"bike_id":"ee61fe24-3052-476a-a28c-913cc78e6bf5","system_id":"levelo_inurba_marseille","lat":43.28268,"lon":5.35072,"is_reserved":false,"is_disabled":false,"rental_uris":{"android":"levelo://app?vid=ee61fe24-3052-476a-a28c-913cc78e6bf5","ios":"levelo://app?vid=ee61fe24-3052-476a-a28c-913cc78e6bf5"},"vehicle_type_id":"4","last_reported":1745590158,"current_range_meters":16800,"station_id":"ce4bhbp2rcd13ifvqerg","pricing_plan_id":"cebpf4jnsgd1na2vs0mg"},{"bike_id":"4534d7e3-24a6-4022-8d6e-c87dbbcde225","system_id":"levelo_inurba_marseille","lat":43.22506,"lon":5.34775,"is_reserved":false,"is_disabled":false,"rental_uris":{"android":"levelo://app?vid=4534d7e3-24a6-4022-8d6e-c87dbbcde225","ios":"levelo://app?vid=4534d7e3-24a6-4022-8d6e-c87dbbcde225"},"vehicle_type_id":"4","last_reported":1745590158,"current_range_meters":16800,"station_id":"st_cvj5dfep6f1abm77gieg","pricing_plan_id":"cebpf4jnsgd1na2vs0mg"},{"bike_id":"ebd00153-2f96-48ee-8cc3-98db762717e4","system_id":"levelo_inurba_marseille","lat":43.27318,"lon":5.39074,"is_reserved":false,"is_disabled":false,"rental_uris":{"android":"levelo://app?vid=ebd00153-2f96-48ee-8cc3-98db762717e4","ios":"levelo://app?vid=ebd00153-2f96-48ee-8cc3-98db762717e4"},"vehicle_type_id":"4","last_reported":1745590158,"current_range_meters":16800,"station_id":"ce4bhgp2rcd13ifvqfe0","pricing_plan_id":"cebpf4jnsgd1na2vs0mg"},{"bike_id":"987d7900-bb2a-45cb-bed7-6d69f6fd4fa3","system_id":"levelo_inurba_marseille","lat":43.28483,"lon":5.38445,"is_reserved":false,"is_disabled":false,"rental_uris":{"android":"levelo://app?vid=987d7900-bb2a-45cb-bed7-6d69f6fd4fa3","ios":"levelo://app?vid=987d7900-bb2a-45cb-bed7-6d69f6fd4fa3"},"vehicle_type_id":"4","last_reported":1745590158,"current_range_meters":16800,"station_id":"ce4bh512rcd13ifvqe3g","pricing_plan_id":"cebpf4jnsgd1na2vs0mg"},{"bike_id":"5d90e8c4-88f9-42f1-bfd8-e31a43c95b58","system_id":"levelo_inurba_marseille","lat":43.324756,"lon":5.365568,"is_reserved":false,"is_disabled":false,"rental_uris":{"android":"levelo://app?vid=5d90e8c4-88f9-42f1-bfd8-e31a43c95b58","ios":"levelo://app?vid=5d90e8c4-88f9-42f1-bfd8-e31a43c95b58"},"vehicle_type_id":"4","last_reported":1745590158,"current_range_meters":16800,"station_id":"ce4bhs12rcd13ifvqhvg","pricing_plan_id":"cebpf4jnsgd1na2vs0mg"},{"bike_id":"68f41976-f120-4b90-b898-70949d6de24e","system_id":"levelo_inurba_marseille","lat":43.24999,"lon":5.38928,"is_reserved":false,"is_disabled":false,"rental_uris":{"android":"levelo://app?vid=68f41976-f120-4b90-b898-70949d6de24e","ios":"levelo://app?vid=68f41976-f120-4b90-b898-70949d6de24e"},"vehicle_type_id":"4","last_reported":1745590158,"current_range_meters":17200,"station_id":"ce4bhgp2rcd13ifvqfd0","pricing_plan_id":"cebpf4jnsgd1na2vs0mg"},{"bike_id":"34172cb6-b4ad-4838-ab0f-4c4a5aa33abd","system_id":"levelo_inurba_marseille","lat":43.33724,"lon":5.39181,"is_reserved":false,"is_disabled":false,"rental_uris":{"android":"levelo://app?vid=34172cb6-b4ad-4838-ab0f-4c4a5aa33abd","ios":"levelo://app?vid=34172cb6-b4ad-4838-ab0f-4c4a5aa33abd"},"vehicle_type_id":"4","last_reported":1745590158,"current_range_meters":17200,"station_id":"ce4bhr92rcd13ifvqhsg","pricing_plan_id":"cebpf4jnsgd1na2vs0mg"},{"bike_id":"07123722-6e02-40c7-a90b-e57c54fa3c66","system_id":"levelo_inurba_marseille","lat":43.26025,"lon":5.3755,"is_reserved":false,"is_disabled":false,"rental_uris":{"android":"levelo://app?vid=07123722-6e02-40c7-a90b-e57c54fa3c66","ios":"levelo://app?vid=07123722-6e02-40c7-a90b-e57c54fa3c66"},"vehicle_type_id":"4","last_reported":1745590158,"current_range_meters":17200,"station_id":"ce4bhgh2rcd13ifvqfa0","pricing_plan_id":"cebpf4jnsgd1na2vs0mg"},{"bike_id":"67b1218a-2dbe-4997-a11d-958918d3662c","system_id":"levelo_inurba_marseille","lat":43.295924,"lon":5.38028,"is_reserved":false,"is_disabled":false,"rental_uris":{"android":"levelo://app?vid=67b1218a-2dbe-4997-a11d-958918d3662c","ios":"levelo://app?vid=67b1218a-2dbe-4997-a11d-958918d3662c"},"vehicle_type_id":"4","last_reported":1745590158,"current_range_meters":17200,"station_id":"","pricing_plan_id":"cebpf4jnsgd1na2vs0mg"},{"bike_id":"808dd04f-45a7-4e5e-a30a-c7ef09b55bb5","system_id":"levelo_inurba_marseille","lat":43.22505,"lon":5.34778,"is_reserved":false,"is_disabled":false,"rental_uris":{"android":"levelo://app?vid=808dd04f-45a7-4e5e-a30a-c7ef09b55bb5","ios":"levelo://app?vid=808dd04f-45a7-4e5e-a30a-c7ef09b55bb5"},"vehicle_type_id":"4","last_reported":1745590158,"current_range_meters":17200,"station_id":"st_cvj5dfep6f1abm77gieg","pricing_plan_id":"cebpf4jnsgd1na2vs0mg"},{"bike_id":"5e280645-0a0c-4165-a0b2-ec4306c61a73","system_id":"levelo_inurba_marseille","lat":43.292,"lon":5.35797,"is_reserved":false,"is_disabled":false,"rental_uris":{"android":"levelo://app?vid=5e280645-0a0c-4165-a0b2-ec4306c61a73","ios":"levelo://app?vid=5e280645-0a0c-4165-a0b2-ec4306c61a73"},"vehicle_type_id":"4","last_reported":1745590158,"current_range_meters":17200,"station_id":"ce4bhb12rcd13ifvqel0","pricing_plan_id":"cebpf4jnsgd1na2vs0mg"},{"bike_id":"f0dd7e89-93db-4e98-8a1c-6f7e70717424","system_id":"levelo_inurba_marseille","lat":43.282593,"lon":5.350525,"is_reserved":false,"is_disabled":false,"rental_uris":{"android":"levelo://app?vid=f0dd7e89-93db-4e98-8a1c-6f7e70717424","ios":"levelo://app?vid=f0dd7e89-93db-4e98-8a1c-6f7e70717424"},"vehicle_type_id":"4","last_reported":1745590158,"current_range_meters":17600,"station_id":"ce4bhbp2rcd13ifvqerg","pricing_plan_id":"cebpf4jnsgd1na2vs0mg"},{"bike_id":"090cea2e-104d-4cc8-a2be-c72d7979ae33","system_id":"levelo_inurba_marseille","lat":43.31331,"lon":5.39686,"is_reserved":false,"is_disabled":false,"rental_uris":{"android":"levelo://app?vid=090cea2e-104d-4cc8-a2be-c72d7979ae33","ios":"levelo://app?vid=090cea2e-104d-4cc8-a2be-c72d7979ae33"},"vehicle_type_id":"4","last_reported":1745590158,"current_range_meters":17200,"station_id":"ce4bgvp2rcd13ifvqcu0","pricing_plan_id":"cebpf4jnsgd1na2vs0mg"},{"bike_id":"bdd0222f-8955-4090-86de-0be16c2ab322","system_id":"levelo_inurba_marseille","lat":43.29879,"lon":5.43632,"is_reserved":false,"is_disabled":false,"rental_uris":{"android":"levelo://app?vid=bdd0222f-8955-4090-86de-0be16c2ab322","ios":"levelo://app?vid=bdd0222f-8955-4090-86de-0be16c2ab322"},"vehicle_type_id":"4","last_reported":1745590158,"current_range_meters":17600,"station_id":"ce4bhpp2rcd13ifvqhfg","pricing_plan_id":"cebpf4jnsgd1na2vs0mg"},{"bike_id":"f8918494-09aa-4f0f-b89c-be49ec40c84a","system_id":"levelo_inurba_marseille","lat":43.28614,"lon":5.35101,"is_reserved":false,"is_disabled":false,"rental_uris":{"android":"levelo://app?vid=f8918494-09aa-4f0f-b89c-be49ec40c84a","ios":"levelo://app?vid=f8918494-09aa-4f0f-b89c-be49ec40c84a"},"vehicle_type_id":"4","last_reported":1745590158,"current_range_meters":17600,"station_id":"ce4bhch2rcd13ifvqeug","pricing_plan_id":"cebpf4jnsgd1na2vs0mg"},{"bike_id":"51a4b1f4-4cfb-4b9e-b7e6-50254ee4c796","system_id":"levelo_inurba_marseille","lat":43.28612,"lon":5.3706,"is_reserved":false,"is_disabled":true,"rental_uris":{"android":"levelo://app?vid=51a4b1f4-4cfb-4b9e-b7e6-50254ee4c796","ios":"levelo://app?vid=51a4b1f4-4cfb-4b9e-b7e6-50254ee4c796"},"vehicle_type_id":"4","last_reported":1745590158,"current_range_meters":17600,"station_id":"ce4bht12rcd13ifvqi60","pricing_plan_id":"cebpf4jnsgd1na2vs0mg"},{"bike_id":"5b137603-d771-4416-91a8-4d5b9b090982","system_id":"levelo_inurba_marseille","lat":43.28269,"lon":5.35073,"is_reserved":false,"is_disabled":false,"rental_uris":{"android":"levelo://app?vid=5b137603-d771-4416-91a8-4d5b9b090982","ios":"levelo://app?vid=5b137603-d771-4416-91a8-4d5b9b090982"},"vehicle_type_id":"4","last_reported":1745590158,"current_range_meters":18000,"station_id":"ce4bhbp2rcd13ifvqerg","pricing_plan_id":"cebpf4jnsgd1na2vs0mg"},{"bike_id":"cf488e7c-098d-4d41-ba62-ca41251ea758","system_id":"levelo_inurba_marseille","lat":43.29006,"lon":5.35605,"is_reserved":false,"is_disabled":false,"rental_uris":{"android":"levelo://app?vid=cf488e7c-098d-4d41-ba62-ca41251ea758","ios":"levelo://app?vid=cf488e7c-098d-4d41-ba62-ca41251ea758"},"vehicle_type_id":"4","last_reported":1745590158,"current_range_meters":18000,"station_id":"ce4bhb92rcd13ifvqen0","pricing_plan_id":"cebpf4jnsgd1na2vs0mg"},{"bike_id":"fe0374b7-64a0-4ed7-965b-a373c6faca8b","system_id":"levelo_inurba_marseille","lat":43.262149,"lon":5.374347,"is_reserved":false,"is_disabled":false,"rental_uris":{"android":"levelo://app?vid=fe0374b7-64a0-4ed7-965b-a373c6faca8b","ios":"levelo://app?vid=fe0374b7-64a0-4ed7-965b-a373c6faca8b"},"vehicle_type_id":"4","last_reported":1745590158,"current_range_meters":17600,"station_id":"ce4bhf92rcd13ifvqf50","pricing_plan_id":"cebpf4jnsgd1na2vs0mg"},{"bike_id":"13731016-9cf7-4d91-a42f-f54be16a7958","system_id":"levelo_inurba_marseille","lat":43.21191,"lon":5.35069,"is_reserved":false,"is_disabled":false,"rental_uris":{"android":"levelo://app?vid=13731016-9cf7-4d91-a42f-f54be16a7958","ios":"levelo://app?vid=13731016-9cf7-4d91-a42f-f54be16a7958"},"vehicle_type_id":"4","last_reported":1745590158,"current_range_meters":18000,"station_id":"st_cvj6sg6p6f1abm77japg","pricing_plan_id":"cebpf4jnsgd1na2vs0mg"},{"bike_id":"4046a82f-66e8-4b55-bd0a-356edea772d8","system_id":"levelo_inurba_marseille","lat":43.30815,"lon":5.37307,"is_reserved":false,"is_disabled":false,"rental_uris":{"android":"levelo://app?vid=4046a82f-66e8-4b55-bd0a-356edea772d8","ios":"levelo://app?vid=4046a82f-66e8-4b55-bd0a-356edea772d8"},"vehicle_type_id":"4","last_reported":1745590158,"current_range_meters":18800,"station_id":"","pricing_plan_id":"cebpf4jnsgd1na2vs0mg"},{"bike_id":"0256468c-6929-4ff1-93ea-df8acc6b3876","system_id":"levelo_inurba_marseille","lat":43.28462,"lon":5.35872,"is_reserved":false,"is_disabled":false,"rental_uris":{"android":"levelo://app?vid=0256468c-6929-4ff1-93ea-df8acc6b3876","ios":"levelo://app?vid=0256468c-6929-4ff1-93ea-df8acc6b3876"},"vehicle_type_id":"4","last_reported":1745590158,"current_range_meters":18800,"station_id":"ce4bhah2rcd13ifvqei0","pricing_plan_id":"cebpf4jnsgd1na2vs0mg"},{"bike_id":"d28bf9af-5868-40cf-bc78-dd7cb5c022b5","system_id":"levelo_inurba_marseille","lat":43.29979,"lon":5.385,"is_reserved":false,"is_disabled":true,"rental_uris":{"android":"levelo://app?vid=d28bf9af-5868-40cf-bc78-dd7cb5c022b5","ios":"levelo://app?vid=d28bf9af-5868-40cf-bc78-dd7cb5c022b5"},"vehicle_type_id":"4","last_reported":1745590158,"current_range_meters":18800,"station_id":"ce4bgj92rcd13ifvqbd0","pricing_plan_id":"cebpf4jnsgd1na2vs0mg"},{"bike_id":"94b7da04-5082-421d-aeef-f6f9b0ab2015","system_id":"levelo_inurba_marseille","lat":43.26556,"lon":5.37285,"is_reserved":false,"is_disabled":false,"rental_uris":{"android":"levelo://app?vid=94b7da04-5082-421d-aeef-f6f9b0ab2015","ios":"levelo://app?vid=94b7da04-5082-421d-aeef-f6f9b0ab2015"},"vehicle_type_id":"4","last_reported":1745590158,"current_range_meters":18800,"station_id":"ce4bhg12rcd13ifvqf70","pricing_plan_id":"cebpf4jnsgd1na2vs0mg"},{"bike_id":"79ffd577-c06f-4898-b813-2dd8142120d9","system_id":"levelo_inurba_marseille","lat":43.28634,"lon":5.35042,"is_reserved":false,"is_disabled":false,"rental_uris":{"android":"levelo://app?vid=79ffd577-c06f-4898-b813-2dd8142120d9","ios":"levelo://app?vid=79ffd577-c06f-4898-b813-2dd8142120d9"},"vehicle_type_id":"4","last_reported":1745590158,"current_range_meters":18800,"station_id":"","pricing_plan_id":"cebpf4jnsgd1na2vs0mg"},{"bike_id":"4d967fd0-75d1-438b-b381-56818b3ac1e3","system_id":"levelo_inurba_marseille","lat":43.28262,"lon":5.35061,"is_reserved":false,"is_disabled":false,"rental_uris":{"android":"levelo://app?vid=4d967fd0-75d1-438b-b381-56818b3ac1e3","ios":"levelo://app?vid=4d967fd0-75d1-438b-b381-56818b3ac1e3"},"vehicle_type_id":"4","last_reported":1745590158,"current_range_meters":18800,"station_id":"ce4bhbp2rcd13ifvqerg","pricing_plan_id":"cebpf4jnsgd1na2vs0mg"},{"bike_id":"21978060-c5cd-4428-ac70-76cca77f5c21","system_id":"levelo_inurba_marseille","lat":43.21207,"lon":5.35066,"is_reserved":false,"is_disabled":false,"rental_uris":{"android":"levelo://app?vid=21978060-c5cd-4428-ac70-76cca77f5c21","ios":"levelo://app?vid=21978060-c5cd-4428-ac70-76cca77f5c21"},"vehicle_type_id":"4","last_reported":1745590158,"current_range_meters":18800,"station_id":"st_cvj6sg6p6f1abm77japg","pricing_plan_id":"cebpf4jnsgd1na2vs0mg"},{"bike_id":"db7d7242-8c7e-4f94-b69e-661206cd7af4","system_id":"levelo_inurba_marseille","lat":43.28417,"lon":5.34971,"is_reserved":false,"is_disabled":false,"rental_uris":{"android":"levelo://app?vid=db7d7242-8c7e-4f94-b69e-661206cd7af4","ios":"levelo://app?vid=db7d7242-8c7e-4f94-b69e-661206cd7af4"},"vehicle_type_id":"4","last_reported":1745590158,"current_range_meters":18800,"station_id":"","pricing_plan_id":"cebpf4jnsgd1na2vs0mg"},{"bike_id":"93c94bf0-0989-42b8-9fdf-a02ea4794c81","system_id":"levelo_inurba_marseille","lat":43.28619,"lon":5.35103,"is_reserved":false,"is_disabled":false,"rental_uris":{"android":"levelo://app?vid=93c94bf0-0989-42b8-9fdf-a02ea4794c81","ios":"levelo://app?vid=93c94bf0-0989-42b8-9fdf-a02ea4794c81"},"vehicle_type_id":"4","last_reported":1745590158,"current_range_meters":19200,"station_id":"ce4bhch2rcd13ifvqeug","pricing_plan_id":"cebpf4jnsgd1na2vs0mg"},{"bike_id":"714b9c2d-9538-49f4-8ca3-576a0961d30e","system_id":"levelo_inurba_marseille","lat":43.28036,"lon":5.3695,"is_reserved":false,"is_disabled":false,"rental_uris":{"android":"levelo://app?vid=714b9c2d-9538-49f4-8ca3-576a0961d30e","ios":"levelo://app?vid=714b9c2d-9538-49f4-8ca3-576a0961d30e"},"vehicle_type_id":"4","last_reported":1745590158,"current_range_meters":19200,"station_id":"ce4bha12rcd13ifvqef0","pricing_plan_id":"cebpf4jnsgd1na2vs0mg"},{"bike_id":"5a7d5f58-55b9-43f0-ada2-3de3e119a779","system_id":"levelo_inurba_marseille","lat":43.262097,"lon":5.37442,"is_reserved":false,"is_disabled":false,"rental_uris":{"android":"levelo://app?vid=5a7d5f58-55b9-43f0-ada2-3de3e119a779","ios":"levelo://app?vid=5a7d5f58-55b9-43f0-ada2-3de3e119a779"},"vehicle_type_id":"4","last_reported":1745590158,"current_range_meters":19200,"station_id":"ce4bhgp2rcd13ifvqfc0","pricing_plan_id":"cebpf4jnsgd1na2vs0mg"},{"bike_id":"2bcccb43-69dd-44e4-8a75-02e465a1f932","system_id":"levelo_inurba_marseille","lat":43.28942,"lon":5.36638,"is_reserved":false,"is_disabled":false,"rental_uris":{"android":"levelo://app?vid=2bcccb43-69dd-44e4-8a75-02e465a1f932","ios":"levelo://app?vid=2bcccb43-69dd-44e4-8a75-02e465a1f932"},"vehicle_type_id":"4","last_reported":1745590158,"current_range_meters":19200,"station_id":"ce4bhap2rcd13ifvqek0","pricing_plan_id":"cebpf4jnsgd1na2vs0mg"},{"bike_id":"9fac8949-580c-4814-ac69-31148581f4a2","system_id":"levelo_inurba_marseille","lat":43.33003,"lon":5.3913,"is_reserved":false,"is_disabled":false,"rental_uris":{"android":"levelo://app?vid=9fac8949-580c-4814-ac69-31148581f4a2","ios":"levelo://app?vid=9fac8949-580c-4814-ac69-31148581f4a2"},"vehicle_type_id":"4","last_reported":1745590158,"current_range_meters":19200,"station_id":"","pricing_plan_id":"cebpf4jnsgd1na2vs0mg"},{"bike_id":"9e494dcd-738c-4811-8f1c-af9096119303","system_id":"levelo_inurba_marseille","lat":43.2861,"lon":5.35098,"is_reserved":false,"is_disabled":false,"rental_uris":{"android":"levelo://app?vid=9e494dcd-738c-4811-8f1c-af9096119303","ios":"levelo://app?vid=9e494dcd-738c-4811-8f1c-af9096119303"},"vehicle_type_id":"4","last_reported":1745590158,"current_range_meters":19200,"station_id":"ce4bhch2rcd13ifvqeug","pricing_plan_id":"cebpf4jnsgd1na2vs0mg"},{"bike_id":"e92565b1-0dda-4426-8c0d-cf38ecdda8a2","system_id":"levelo_inurba_marseille","lat":43.21764,"lon":5.34608,"is_reserved":false,"is_disabled":false,"rental_uris":{"android":"levelo://app?vid=e92565b1-0dda-4426-8c0d-cf38ecdda8a2","ios":"levelo://app?vid=e92565b1-0dda-4426-8c0d-cf38ecdda8a2"},"vehicle_type_id":"4","last_reported":1745590158,"current_range_meters":19200,"station_id":"st_cvj6r9ubvosntc0bgbag","pricing_plan_id":"cebpf4jnsgd1na2vs0mg"},{"bike_id":"ad3c94e1-8391-4efe-af05-1c04ab10781e","system_id":"levelo_inurba_marseille","lat":43.30888,"lon":5.39643,"is_reserved":false,"is_disabled":false,"rental_uris":{"android":"levelo://app?vid=ad3c94e1-8391-4efe-af05-1c04ab10781e","ios":"levelo://app?vid=ad3c94e1-8391-4efe-af05-1c04ab10781e"},"vehicle_type_id":"4","last_reported":1745590158,"current_range_meters":19600,"station_id":"ce4bh012rcd13ifvqcv0","pricing_plan_id":"cebpf4jnsgd1na2vs0mg"},{"bike_id":"7ace6ae9-8262-4e62-b1a3-08905cbcbf78","system_id":"levelo_inurba_marseille","lat":43.29043,"lon":5.37549,"is_reserved":false,"is_disabled":false,"rental_uris":{"android":"levelo://app?vid=7ace6ae9-8262-4e62-b1a3-08905cbcbf78","ios":"levelo://app?vid=7ace6ae9-8262-4e62-b1a3-08905cbcbf78"},"vehicle_type_id":"4","last_reported":1745590158,"current_range_meters":19600,"station_id":"ce4bh692rcd13ifvqe90","pricing_plan_id":"cebpf4jnsgd1na2vs0mg"},{"bike_id":"6708c982-3584-4348-865e-f9dd359592f0","system_id":"levelo_inurba_marseille","lat":43.267812,"lon":5.39413,"is_reserved":false,"is_disabled":false,"rental_uris":{"android":"levelo://app?vid=6708c982-3584-4348-865e-f9dd359592f0","ios":"levelo://app?vid=6708c982-3584-4348-865e-f9dd359592f0"},"vehicle_type_id":"4","last_reported":1745590158,"current_range_meters":19600,"station_id":"ce4bhh12rcd13ifvqfg0","pricing_plan_id":"cebpf4jnsgd1na2vs0mg"},{"bike_id":"df834ade-3b62-498e-9da6-c32c025ea67a","system_id":"levelo_inurba_marseille","lat":43.27379,"lon":5.362604,"is_reserved":false,"is_disabled":false,"rental_uris":{"android":"levelo://app?vid=df834ade-3b62-498e-9da6-c32c025ea67a","ios":"levelo://app?vid=df834ade-3b62-498e-9da6-c32c025ea67a"},"vehicle_type_id":"4","last_reported":1745590158,"current_range_meters":19600,"station_id":"ce4bhbh2rcd13ifvqeo0","pricing_plan_id":"cebpf4jnsgd1na2vs0mg"},{"bike_id":"2dcbeb76-0a86-4f3d-afb4-d6019d866388","system_id":"levelo_inurba_marseille","lat":43.21749,"lon":5.34595,"is_reserved":false,"is_disabled":false,"rental_uris":{"android":"levelo://app?vid=2dcbeb76-0a86-4f3d-afb4-d6019d866388","ios":"levelo://app?vid=2dcbeb76-0a86-4f3d-afb4-d6019d866388"},