{"last_updated":1693047875,"ttl":30,"version":"2.2","data":{"bikes":[{"bike_id":"200bb941-7b54-46bf-bef0-86333e42f27f","system_id":"levelo_inurba_marseille","lat":43.313391,"lon":5.36706,"is_reserved":false,"is_disabled":false,"rental_uris":{"android":"levelo://app?vid=200bb941-7b54-46bf-bef0-86333e42f27f","ios":"levelo://app?vid=200bb941-7b54-46bf-bef0-86333e42f27f"},"vehicle_type_id":"4","last_reported":1693047875,"current_range_meters":31200,"station_id":"ce4bgr92rcd13ifvqc6g","pricing_plan_id":"free"},{"bike_id":"31154d0b-5653-4072-86b8-ded84158bd9c","system_id":"levelo_inurba_marseille","lat":43.31341,"lon":5.367098,"is_reserved":false,"is_disabled":false,"rental_uris":{"android":"levelo://app?vid=31154d0b-5653-4072-86b8-ded84158bd9c","ios":"levelo://app?vid=31154d0b-5653-4072-86b8-ded84158bd9c"},"vehicle_type_id":"4","last_reported":1693047875,"current_range_meters":30000,"station_id":"ce4bgr92rcd13ifvqc6g","pricing_plan_id":"free"},{"bike_id":"d61257e3-c39c-4dbc-99d5-bc4be6d4ad9d","system_id":"levelo_inurba_marseille","lat":43.31341,"lon":5.367098,"is_reserved":false,"is_disabled":false,"rental_uris":{"android":"levelo://app?vid=d61257e3-c39c-4dbc-99d5-bc4be6d4ad9d","ios":"levelo://app?vid=d61257e3-c39c-4dbc-99d5-bc4be6d4ad9d"},"vehicle_type_id":"4","last_reported":1693047875,"current_range_meters":31200,"station_id":"ce4bgr92rcd13ifvqc6g","pricing_plan_id":"free"},{"bike_id":"fb0e914d-18b9-404a-9b62-176fbc5fd81b","system_id":"levelo_inurba_marseille","lat":43.31341,"lon":5.367098,"is_reserved":false,"is_disabled":false,"rental_uris":{"android":"levelo://app?vid=fb0e914d-18b9-404a-9b62-176fbc5fd81b","ios":"levelo://app?vid=fb0e914d-18b9-404a-9b62-176fbc5fd81b"},"vehicle_type_id":"4","last_reported":1693047875,"current_range_meters":30800,"station_id":"ce4bgr92rcd13ifvqc6g","pricing_plan_id":"free"},{"bike_id":"6e05c03b-75ad-4325-9e03-dbbbcdcfdee5","system_id":"levelo_inurba_marseille","lat":43.31341,"lon":5.367098,"is_reserved":false,"is_disabled":false,"rental_uris":{"android":"levelo://app?vid=6e05c03b-75ad-4325-9e03-dbbbcdcfdee5","ios":"levelo://app?vid=6e05c03b-75ad-4325-9e03-dbbbcdcfdee5"},"vehicle_type_id":"4","last_reported":1693047875,"current_range_meters":29600,"station_id":"ce4bgr92rcd13ifvqc6g","pricing_plan_id":"free"},{"bike_id":"f22ca441-4e4e-4660-b824-b2f46943e54d","system_id":"levelo_inurba_marseille","lat":43.312239,"lon":5.368562,"is_reserved":false,"is_disabled":false,"rental_uris":{"android":"levelo://app?vid=f22ca441-4e4e-4660-b824-b2f46943e54d","ios":"levelo://app?vid=f22ca441-4e4e-4660-b824-b2f46943e54d"},"vehicle_type_id":"4","last_reported":1693047875,"current_range_meters":31200,"station_id":"ce4bgl92rcd13ifvqbq0","pricing_plan_id":"free"},{"bike_id":"65674239-bfb7-4928-84de-b7277febf7c2","system_id":"levelo_inurba_marseille","lat":43.312239,"lon":5.368562,"is_reserved":false,"is_disabled":false,"rental_uris":{"android":"levelo://app?vid=65674239-bfb7-4928-84de-b7277febf7c2","ios":"levelo://app?vid=65674239-bfb7-4928-84de-b7277febf7c2"},"vehicle_type_id":"4","last_reported":1693047875,"current_range_meters":31200,"station_id":"ce4bgl92rcd13ifvqbq0","pricing_plan_id":"free"},{"bike_id":"e3c4aad0-7b99-4a09-ad94-863437ff0df5","system_id":"levelo_inurba_marseille","lat":43.31402,"lon":5.37255,"is_reserved":false,"is_disabled":false,"rental_uris":{"android":"levelo://app?vid=e3c4aad0-7b99-4a09-ad94-863437ff0df5","ios":"levelo://app?vid=e3c4aad0-7b99-4a09-ad94-863437ff0df5"},"vehicle_type_id":"4","last_reported":1693047875,"current_range_meters":9200,"station_id":"","pricing_plan_id":"free"},{"bike_id":"d2be997d-44d2-40a5-bb20-02aeaaf65fa5","system_id":"levelo_inurba_marseille","lat":43.314811,"lon":5.373103,"is_reserved":false,"is_disabled":false,"rental_uris":{"android":"levelo://app?vid=d2be997d-44d2-40a5-bb20-02aeaaf65fa5","ios":"levelo://app?vid=d2be997d-44d2-40a5-bb20-02aeaaf65fa5"},"vehicle_type_id":"4","last_reported":1693047875,"current_range_meters":31200,"station_id":"ce4bgt12rcd13ifvqcd0","pricing_plan_id":"free"},{"bike_id":"3fbd72a5-7958-405d-b558-a473fbc9491a","system_id":"levelo_inurba_marseille","lat":43.309039,"lon":5.371797,"is_reserved":false,"is_disabled":false,"rental_uris":{"android":"levelo://app?vid=3fbd72a5-7958-405d-b558-a473fbc9491a","ios":"levelo://app?vid=3fbd72a5-7958-405d-b558-a473fbc9491a"},"vehicle_type_id":"4","last_reported":1693047875,"current_range_meters":27200,"station_id":"ce4bguh2rcd13ifvqckg","pricing_plan_id":"free"},{"bike_id":"0dddb6ac-86b7-4291-b974-32059cdd9d36","system_id":"levelo_inurba_marseille","lat":43.30551,"lon":5.36556,"is_reserved":false,"is_disabled":false,"rental_uris":{"android":"levelo://app?vid=0dddb6ac-86b7-4291-b974-32059cdd9d36","ios":"levelo://app?vid=0dddb6ac-86b7-4291-b974-32059cdd9d36"},"vehicle_type_id":"4","last_reported":1693047875,"current_range_meters":20000,"station_id":"ce4bgs12rcd13ifvqcag","pricing_plan_id":"free"},{"bike_id":"18ca499c-c5ed-4f9a-abe3-3185707d9bf8","system_id":"levelo_inurba_marseille","lat":43.305712,"lon":5.365641,"is_reserved":false,"is_disabled":false,"rental_uris":{"android":"levelo://app?vid=18ca499c-c5ed-4f9a-abe3-3185707d9bf8","ios":"levelo://app?vid=18ca499c-c5ed-4f9a-abe3-3185707d9bf8"},"vehicle_type_id":"4","last_reported":1693047875,"current_range_meters":15200,"station_id":"ce4bgs12rcd13ifvqcag","pricing_plan_id":"free"},{"bike_id":"1b632f03-a3bb-4cf7-b2f0-2759cc16cf10","system_id":"levelo_inurba_marseille","lat":43.305714,"lon":5.365633,"is_reserved":false,"is_disabled":false,"rental_uris":{"android":"levelo://app?vid=1b632f03-a3bb-4cf7-b2f0-2759cc16cf10","ios":"levelo://app?vid=1b632f03-a3bb-4cf7-b2f0-2759cc16cf10"},"vehicle_type_id":"4","last_reported":1693047875,"current_range_meters":28800,"station_id":"ce4bgs12rcd13ifvqcag","pricing_plan_id":"free"},{"bike_id":"d384ca18-b354-48d1-9372-08a5f3bb95cb","system_id":"levelo_inurba_marseille","lat":43.305714,"lon":5.365633,"is_reserved":false,"is_disabled":false,"rental_uris":{"android":"levelo://app?vid=d384ca18-b354-48d1-9372-08a5f3bb95cb","ios":"levelo://app?vid=d384ca18-b354-48d1-9372-08a5f3bb95cb"},"vehicle_type_id":"4","last_reported":1693047875,"current_range_meters":7600,"station_id":"ce4bgs12rcd13ifvqcag","pricing_plan_id":"free"},{"bike_id":"92637172-01ec-4539-b603-749a7aace878","system_id":"levelo_inurba_marseille","lat":43.305714,"lon":5.365633,"is_reserved":false,"is_disabled":false,"rental_uris":{"android":"levelo://app?vid=92637172-01ec-4539-b603-749a7aace878","ios":"levelo://app?vid=92637172-01ec-4539-b603-749a7aace878"},"vehicle_type_id":"4","last_reported":1693047875,"current_range_meters":28000,"station_id":"ce4bgs12rcd13ifvqcag","pricing_plan_id":"free"},{"bike_id":"4030450c-3efa-4b5a-9fe5-cec4a6eb86b1","system_id":"levelo_inurba_marseille","lat":43.306131,"lon":5.372365,"is_reserved":false,"is_disabled":false,"rental_uris":{"android":"levelo://app?vid=4030450c-3efa-4b5a-9fe5-cec4a6eb86b1","ios":"levelo://app?vid=4030450c-3efa-4b5a-9fe5-cec4a6eb86b1"},"vehicle_type_id":"4","last_reported":1693047875,"current_range_meters":26800,"station_id":"ce4bgqh2rcd13ifvqc4g","pricing_plan_id":"free"},{"bike_id":"58234d64-e37e-41fa-9350-13fddd0c2039","system_id":"levelo_inurba_marseille","lat":43.305989,"lon":5.37225,"is_reserved":false,"is_disabled":false,"rental_uris":{"android":"levelo://app?vid=58234d64-e37e-41fa-9350-13fddd0c2039","ios":"levelo://app?vid=58234d64-e37e-41fa-9350-13fddd0c2039"},"vehicle_type_id":"4","last_reported":1693047875,"current_range_meters":14800,"station_id":"ce4bgqh2rcd13ifvqc4g","pricing_plan_id":"free"},{"bike_id":"490ccd24-afa0-4a35-8d23-1d1b0d9d7294","system_id":"levelo_inurba_marseille","lat":43.305989,"lon":5.37225,"is_reserved":false,"is_disabled":false,"rental_uris":{"android":"levelo://app?vid=490ccd24-afa0-4a35-8d23-1d1b0d9d7294","ios":"levelo://app?vid=490ccd24-afa0-4a35-8d23-1d1b0d9d7294"},"vehicle_type_id":"4","last_reported":1693047875,"current_range_meters":30000,"station_id":"ce4bgqh2rcd13ifvqc4g","pricing_plan_id":"free"},{"bike_id":"49975c46-72a3-48c2-9c32-8131c301bcee","system_id":"levelo_inurba_marseille","lat":43.307945,"lon":5.376487,"is_reserved":false,"is_disabled":false,"rental_uris":{"android":"levelo://app?vid=49975c46-72a3-48c2-9c32-8131c301bcee","ios":"levelo://app?vid=49975c46-72a3-48c2-9c32-8131c301bcee"},"vehicle_type_id":"4","last_reported":1693047875,"current_range_meters":7200,"station_id":"ce4bgv92rcd13ifvqcq0","pricing_plan_id":"free"},{"bike_id":"d5e5e3e0-c256-4c7b-a27d-4e2d383d6d9c","system_id":"levelo_inurba_marseille","lat":43.30795,"lon":5.37645,"is_reserved":false,"is_disabled":false,"rental_uris":{"android":"levelo://app?vid=d5e5e3e0-c256-4c7b-a27d-4e2d383d6d9c","ios":"levelo://app?vid=d5e5e3e0-c256-4c7b-a27d-4e2d383d6d9c"},"vehicle_type_id":"4","last_reported":1693047875,"current_range_meters":2000,"station_id":"ce4bgv92rcd13ifvqcq0","pricing_plan_id":"free"},{"bike_id":"dd6e0f01-b9fe-4d80-8a11-068e21cb2d23","system_id":"levelo_inurba_marseille","lat":43.31529,"lon":5.38043,"is_reserved":false,"is_disabled":false,"rental_uris":{"android":"levelo://app?vid=dd6e0f01-b9fe-4d80-8a11-068e21cb2d23","ios":"levelo://app?vid=dd6e0f01-b9fe-4d80-8a11-068e21cb2d23"},"vehicle_type_id":"4","last_reported":1693047875,"current_range_meters":22000,"station_id":"ce4bhsp2rcd13ifvqi50","pricing_plan_id":"free"},{"bike_id":"d732eed9-e3d9-483c-b5d5-ea5c2b438a39","system_id":"levelo_inurba_marseille","lat":43.315293,"lon":5.380349,"is_reserved":false,"is_disabled":false,"rental_uris":{"android":"levelo://app?vid=d732eed9-e3d9-483c-b5d5-ea5c2b438a39","ios":"levelo://app?vid=d732eed9-e3d9-483c-b5d5-ea5c2b438a39"},"vehicle_type_id":"4","last_reported":1693047875,"current_range_meters":31200,"station_id":"ce4bhsp2rcd13ifvqi50","pricing_plan_id":"free"},{"bike_id":"13784a4a-8a00-41d0-aa90-6c0494af843a","system_id":"levelo_inurba_marseille","lat":43.30178,"lon":5.36608,"is_reserved":false,"is_disabled":false,"rental_uris":{"android":"levelo://app?vid=13784a4a-8a00-41d0-aa90-6c0494af843a","ios":"levelo://app?vid=13784a4a-8a00-41d0-aa90-6c0494af843a"},"vehicle_type_id":"4","last_reported":1693047875,"current_range_meters":22000,"station_id":"ce4bgrh2rcd13ifvqc8g","pricing_plan_id":"free"},{"bike_id":"60b87c82-a552-4d51-8831-4a72d0926fc8","system_id":"levelo_inurba_marseille","lat":43.308,"lon":5.3815,"is_reserved":false,"is_disabled":false,"rental_uris":{"android":"levelo://app?vid=60b87c82-a552-4d51-8831-4a72d0926fc8","ios":"levelo://app?vid=60b87c82-a552-4d51-8831-4a72d0926fc8"},"vehicle_type_id":"4","last_reported":1693047875,"current_range_meters":24800,"station_id":"ce4bgt12rcd13ifvqce0","pricing_plan_id":"free"},{"bike_id":"484a4b0b-508a-46aa-86b7-1a969fcd9af6","system_id":"levelo_inurba_marseille","lat":43.304606,"lon":5.379026,"is_reserved":false,"is_disabled":false,"rental_uris":{"android":"levelo://app?vid=484a4b0b-508a-46aa-86b7-1a969fcd9af6","ios":"levelo://app?vid=484a4b0b-508a-46aa-86b7-1a969fcd9af6"},"vehicle_type_id":"4","last_reported":1693047875,"current_range_meters":14400,"station_id":"ce4bgup2rcd13ifvqcn0","pricing_plan_id":"free"},{"bike_id":"7f3223a0-dbe2-40ec-9652-4264252e4e74","system_id":"levelo_inurba_marseille","lat":43.304606,"lon":5.379026,"is_reserved":false,"is_disabled":false,"rental_uris":{"android":"levelo://app?vid=7f3223a0-dbe2-40ec-9652-4264252e4e74","ios":"levelo://app?vid=7f3223a0-dbe2-40ec-9652-4264252e4e74"},"vehicle_type_id":"4","last_reported":1693047875,"current_range_meters":31200,"station_id":"ce4bgup2rcd13ifvqcn0","pricing_plan_id":"free"},{"bike_id":"653d65b0-c0dc-4666-9cf5-cb25d9a2b279","system_id":"levelo_inurba_marseille","lat":43.304606,"lon":5.379026,"is_reserved":false,"is_disabled":false,"rental_uris":{"android":"levelo://app?vid=653d65b0-c0dc-4666-9cf5-cb25d9a2b279","ios":"levelo://app?vid=653d65b0-c0dc-4666-9cf5-cb25d9a2b279"},"vehicle_type_id":"4","last_reported":1693047875,"current_range_meters":31200,"station_id":"ce4bgup2rcd13ifvqcn0","pricing_plan_id":"free"},{"bike_id":"45950b0b-b495-4fb7-b28b-fadb1a10b5f4","system_id":"levelo_inurba_marseille","lat":43.304606,"lon":5.379026,"is_reserved":false,"is_disabled":false,"rental_uris":{"android":"levelo://app?vid=45950b0b-b495-4fb7-b28b-fadb1a10b5f4","ios":"levelo://app?vid=45950b0b-b495-4fb7-b28b-fadb1a10b5f4"},"vehicle_type_id":"4","last_reported":1693047875,"current_range_meters":31200,"station_id":"ce4bgup2rcd13ifvqcn0","pricing_plan_id":"free"},{"bike_id":"9d9737a7-3f49-41a5-aac1-16b40868001d","system_id":"levelo_inurba_marseille","lat":43.304606,"lon":5.379026,"is_reserved":false,"is_disabled":false,"rental_uris":{"android":"levelo://app?vid=9d9737a7-3f49-41a5-aac1-16b40868001d","ios":"levelo://app?vid=9d9737a7-3f49-41a5-aac1-16b40868001d"},"vehicle_type_id":"4","last_reported":1693047875,"current_range_meters":22400,"station_id":"ce4bgup2rcd13ifvqcn0","pricing_plan_id":"free"},{"bike_id":"988fca20-331b-435c-81be-93e19a147053","system_id":"levelo_inurba_marseille","lat":43.304606,"lon":5.379026,"is_reserved":false,"is_disabled":false,"rental_uris":{"android":"levelo://app?vid=988fca20-331b-435c-81be-93e19a147053","ios":"levelo://app?vid=988fca20-331b-435c-81be-93e19a147053"},"vehicle_type_id":"4","last_reported":1693047875,"current_range_meters":31200,"station_id":"ce4bgup2rcd13ifvqcn0","pricing_plan_id":"free"},{"bike_id":"3aa6221e-ce52-4b89-a385-3f2250624aef","system_id":"levelo_inurba_marseille","lat":43.304606,"lon":5.379026,"is_reserved":false,"is_disabled":false,"rental_uris":{"android":"levelo://app?vid=3aa6221e-ce52-4b89-a385-3f2250624aef","ios":"levelo://app?vid=3aa6221e-ce52-4b89-a385-3f2250624aef"},"vehicle_type_id":"4","last_reported":1693047875,"current_range_meters":31200,"station_id":"ce4bgup2rcd13ifvqcn0","pricing_plan_id":"free"},{"bike_id":"2da4a174-f4d2-4a32-9c94-67a876f323b0","system_id":"levelo_inurba_marseille","lat":43.304606,"lon":5.379026,"is_reserved":false,"is_disabled":false,"rental_uris":{"android":"levelo://app?vid=2da4a174-f4d2-4a32-9c94-67a876f323b0","ios":"levelo://app?vid=2da4a174-f4d2-4a32-9c94-67a876f323b0"},"vehicle_type_id":"4","last_reported":1693047875,"current_range_meters":31200,"station_id":"ce4bgup2rcd13ifvqcn0","pricing_plan_id":"free"},{"bike_id":"ed1438a3-6c83-4f81-b2e5-b95aa5e7b004","system_id":"levelo_inurba_marseille","lat":43.304606,"lon":5.379026,"is_reserved":false,"is_disabled":false,"rental_uris":{"android":"levelo://app?vid=ed1438a3-6c83-4f81-b2e5-b95aa5e7b004","ios":"levelo://app?vid=ed1438a3-6c83-4f81-b2e5-b95aa5e7b004"},"vehicle_type_id":"4","last_reported":1693047875,"current_range_meters":24800,"station_id":"ce4bgup2rcd13ifvqcn0","pricing_plan_id":"free"},{"bike_id":"7ec93667-05b3-4819-a26b-ef508078e93c","system_id":"levelo_inurba_marseille","lat":43.304606,"lon":5.379026,"is_reserved":false,"is_disabled":false,"rental_uris":{"android":"levelo://app?vid=7ec93667-05b3-4819-a26b-ef508078e93c","ios":"levelo://app?vid=7ec93667-05b3-4819-a26b-ef508078e93c"},"vehicle_type_id":"4","last_reported":1693047875,"current_range_meters":29600,"station_id":"ce4bgup2rcd13ifvqcn0","pricing_plan_id":"free"},{"bike_id":"1f06e49d-0442-407c-b853-741a8f131382","system_id":"levelo_inurba_marseille","lat":43.304606,"lon":5.379026,"is_reserved":false,"is_disabled":false,"rental_uris":{"android":"levelo://app?vid=1f06e49d-0442-407c-b853-741a8f131382","ios":"levelo://app?vid=1f06e49d-0442-407c-b853-741a8f131382"},"vehicle_type_id":"4","last_reported":1693047875,"current_range_meters":31200,"station_id":"ce4bgup2rcd13ifvqcn0","pricing_plan_id":"free"},{"bike_id":"629b84d9-95c3-4f53-90ac-7f16b18e3e53","system_id":"levelo_inurba_marseille","lat":43.304606,"lon":5.379026,"is_reserved":false,"is_disabled":false,"rental_uris":{"android":"levelo://app?vid=629b84d9-95c3-4f53-90ac-7f16b18e3e53","ios":"levelo://app?vid=629b84d9-95c3-4f53-90ac-7f16b18e3e53"},"vehicle_type_id":"4","last_reported":1693047875,"current_range_meters":26000,"station_id":"ce4bgup2rcd13ifvqcn0","pricing_plan_id":"free"},{"bike_id":"b69a09e8-57d7-4899-aa4d-05fc91c5c1fb","system_id":"levelo_inurba_marseille","lat":43.304606,"lon":5.379026,"is_reserved":false,"is_disabled":false,"rental_uris":{"android":"levelo://app?vid=b69a09e8-57d7-4899-aa4d-05fc91c5c1fb","ios":"levelo://app?vid=b69a09e8-57d7-4899-aa4d-05fc91c5c1fb"},"vehicle_type_id":"4","last_reported":1693047875,"current_range_meters":24400,"station_id":"ce4bgup2rcd13ifvqcn0","pricing_plan_id":"free"},{"bike_id":"73ce547d-5ac6-4c63-8d5d-b6aca1fd6977","system_id":"levelo_inurba_marseille","lat":43.304606,"lon":5.379026,"is_reserved":false,"is_disabled":false,"rental_uris":{"android":"levelo://app?vid=73ce547d-5ac6-4c63-8d5d-b6aca1fd6977","ios":"levelo://app?vid=73ce547d-5ac6-4c63-8d5d-b6aca1fd6977"},"vehicle_type_id":"4","last_reported":1693047875,"current_range_meters":31200,"station_id":"ce4bgup2rcd13ifvqcn0","pricing_plan_id":"free"},{"bike_id":"e3116188-6e52-4226-9322-fa8298491331","system_id":"levelo_inurba_marseille","lat":43.302784,"lon":5.377158,"is_reserved":false,"is_disabled":false,"rental_uris":{"android":"levelo://app?vid=e3116188-6e52-4226-9322-fa8298491331","ios":"levelo://app?vid=e3116188-6e52-4226-9322-fa8298491331"},"vehicle_type_id":"4","last_reported":1693047875,"current_range_meters":15200,"station_id":"ce4bguh2rcd13ifvqcj0","pricing_plan_id":"free"},{"bike_id":"887ba86a-9742-4793-aee7-d7bb5284e94f","system_id":"levelo_inurba_marseille","lat":43.302784,"lon":5.377158,"is_reserved":false,"is_disabled":false,"rental_uris":{"android":"levelo://app?vid=887ba86a-9742-4793-aee7-d7bb5284e94f","ios":"levelo://app?vid=887ba86a-9742-4793-aee7-d7bb5284e94f"},"vehicle_type_id":"4","last_reported":1693047875,"current_range_meters":28400,"station_id":"ce4bguh2rcd13ifvqcj0","pricing_plan_id":"free"},{"bike_id":"4bb30914-7ca5-4850-ad06-5a2762b81aa5","system_id":"levelo_inurba_marseille","lat":43.302784,"lon":5.377158,"is_reserved":false,"is_disabled":false,"rental_uris":{"android":"levelo://app?vid=4bb30914-7ca5-4850-ad06-5a2762b81aa5","ios":"levelo://app?vid=4bb30914-7ca5-4850-ad06-5a2762b81aa5"},"vehicle_type_id":"4","last_reported":1693047875,"current_range_meters":31600,"station_id":"ce4bguh2rcd13ifvqcj0","pricing_plan_id":"free"},{"bike_id":"59315421-0e57-476b-a9a1-5c76524c6e9c","system_id":"levelo_inurba_marseille","lat":43.302784,"lon":5.377158,"is_reserved":false,"is_disabled":false,"rental_uris":{"android":"levelo://app?vid=59315421-0e57-476b-a9a1-5c76524c6e9c","ios":"levelo://app?vid=59315421-0e57-476b-a9a1-5c76524c6e9c"},"vehicle_type_id":"4","last_reported":1693047875,"current_range_meters":31600,"station_id":"ce4bguh2rcd13ifvqcj0","pricing_plan_id":"free"},{"bike_id":"f42329e6-9a00-41e6-8044-10d62f735241","system_id":"levelo_inurba_marseille","lat":43.30136,"lon":5.37417,"is_reserved":false,"is_disabled":false,"rental_uris":{"android":"levelo://app?vid=f42329e6-9a00-41e6-8044-10d62f735241","ios":"levelo://app?vid=f42329e6-9a00-41e6-8044-10d62f735241"},"vehicle_type_id":"4","last_reported":1693047875,"current_range_meters":6400,"station_id":"ce4bgs92rcd13ifvqcc0","pricing_plan_id":"free"},{"bike_id":"2863e736-ee89-4d65-a41a-47b9db7de000","system_id":"levelo_inurba_marseille","lat":43.302784,"lon":5.377158,"is_reserved":false,"is_disabled":false,"rental_uris":{"android":"levelo://app?vid=2863e736-ee89-4d65-a41a-47b9db7de000","ios":"levelo://app?vid=2863e736-ee89-4d65-a41a-47b9db7de000"},"vehicle_type_id":"4","last_reported":1693047875,"current_range_meters":20800,"station_id":"ce4bguh2rcd13ifvqcj0","pricing_plan_id":"free"},{"bike_id":"6e96383e-11ce-476f-8851-71558e36b5f1","system_id":"levelo_inurba_marseille","lat":43.313571,"lon":5.384829,"is_reserved":false,"is_disabled":false,"rental_uris":{"android":"levelo://app?vid=6e96383e-11ce-476f-8851-71558e36b5f1","ios":"levelo://app?vid=6e96383e-11ce-476f-8851-71558e36b5f1"},"vehicle_type_id":"4","last_reported":1693047875,"current_range_meters":30800,"station_id":"ce4bgt92rcd13ifvqcf0","pricing_plan_id":"free"},{"bike_id":"e2d23f41-3523-4db3-bda8-c7590672cd18","system_id":"levelo_inurba_marseille","lat":43.29942,"lon":5.36558,"is_reserved":false,"is_disabled":false,"rental_uris":{"android":"levelo://app?vid=e2d23f41-3523-4db3-bda8-c7590672cd18","ios":"levelo://app?vid=e2d23f41-3523-4db3-bda8-c7590672cd18"},"vehicle_type_id":"4","last_reported":1693047875,"current_range_meters":18000,"station_id":"ce4bgm92rcd13ifvqbr0","pricing_plan_id":"free"},{"bike_id":"d3613e71-aa23-4c38-a31d-6defd07f8659","system_id":"levelo_inurba_marseille","lat":43.299411,"lon":5.365614,"is_reserved":false,"is_disabled":false,"rental_uris":{"android":"levelo://app?vid=d3613e71-aa23-4c38-a31d-6defd07f8659","ios":"levelo://app?vid=d3613e71-aa23-4c38-a31d-6defd07f8659"},"vehicle_type_id":"4","last_reported":1693047875,"current_range_meters":15600,"station_id":"","pricing_plan_id":"free"},{"bike_id":"351802ff-657e-4df0-8585-a7aee8ed91fa","system_id":"levelo_inurba_marseille","lat":43.29983,"lon":5.37174,"is_reserved":false,"is_disabled":false,"rental_uris":{"android":"levelo://app?vid=351802ff-657e-4df0-8585-a7aee8ed91fa","ios":"levelo://app?vid=351802ff-657e-4df0-8585-a7aee8ed91fa"},"vehicle_type_id":"4","last_reported":1693047875,"current_range_meters":18400,"station_id":"ce4bgr92rcd13ifvqc7g","pricing_plan_id":"free"},{"bike_id":"6340fcc4-c259-4a92-83c2-53131f65958a","system_id":"levelo_inurba_marseille","lat":43.299222,"lon":5.365554,"is_reserved":false,"is_disabled":false,"rental_uris":{"android":"levelo://app?vid=6340fcc4-c259-4a92-83c2-53131f65958a","ios":"levelo://app?vid=6340fcc4-c259-4a92-83c2-53131f65958a"},"vehicle_type_id":"4","last_reported":1693047875,"current_range_meters":4000,"station_id":"ce4bgm92rcd13ifvqbr0","pricing_plan_id":"free"},{"bike_id":"ea628102-f413-4421-a451-01c3055a1ca3","system_id":"levelo_inurba_marseille","lat":43.305364,"lon":5.384119,"is_reserved":false,"is_disabled":false,"rental_uris":{"android":"levelo://app?vid=ea628102-f413-4421-a451-01c3055a1ca3","ios":"levelo://app?vid=ea628102-f413-4421-a451-01c3055a1ca3"},"vehicle_type_id":"4","last_reported":1693047875,"current_range_meters":23200,"station_id":"ce4bgg92rcd13ifvqb30","pricing_plan_id":"free"},{"bike_id":"35eec3a1-aa54-4990-8eb4-78e6c0dd24d0","system_id":"levelo_inurba_marseille","lat":43.299243,"lon":5.374807,"is_reserved":false,"is_disabled":false,"rental_uris":{"android":"levelo://app?vid=35eec3a1-aa54-4990-8eb4-78e6c0dd24d0","ios":"levelo://app?vid=35eec3a1-aa54-4990-8eb4-78e6c0dd24d0"},"vehicle_type_id":"4","last_reported":1693047875,"current_range_meters":29200,"station_id":"ce4bgjh2rcd13ifvqbg0","pricing_plan_id":"free"},{"bike_id":"2f9e2def-2173-4eb4-a460-9a385f59debe","system_id":"levelo_inurba_marseille","lat":43.299243,"lon":5.37481,"is_reserved":false,"is_disabled":false,"rental_uris":{"android":"levelo://app?vid=2f9e2def-2173-4eb4-a460-9a385f59debe","ios":"levelo://app?vid=2f9e2def-2173-4eb4-a460-9a385f59debe"},"vehicle_type_id":"4","last_reported":1693047875,"current_range_meters":31200,"station_id":"ce4bgjh2rcd13ifvqbg0","pricing_plan_id":"free"},{"bike_id":"d33833fc-1832-4a43-8c70-5bbddc275d7d","system_id":"levelo_inurba_marseille","lat":43.29916,"lon":5.37494,"is_reserved":false,"is_disabled":false,"rental_uris":{"android":"levelo://app?vid=d33833fc-1832-4a43-8c70-5bbddc275d7d","ios":"levelo://app?vid=d33833fc-1832-4a43-8c70-5bbddc275d7d"},"vehicle_type_id":"4","last_reported":1693047875,"current_range_meters":31200,"station_id":"ce4bgjh2rcd13ifvqbg0","pricing_plan_id":"free"},{"bike_id":"74bb8e6c-4d66-4dad-992e-bd7bea15b2f1","system_id":"levelo_inurba_marseille","lat":43.311648,"lon":5.387257,"is_reserved":false,"is_disabled":false,"rental_uris":{"android":"levelo://app?vid=74bb8e6c-4d66-4dad-992e-bd7bea15b2f1","ios":"levelo://app?vid=74bb8e6c-4d66-4dad-992e-bd7bea15b2f1"},"vehicle_type_id":"4","last_reported":1693047875,"current_range_meters":0,"station_id":"ce4bgv12rcd13ifvqcp0","pricing_plan_id":"free"},{"bike_id":"26f29f1e-69c1-4419-a4d0-78500a569174","system_id":"levelo_inurba_marseille","lat":43.297794,"lon":5.370888,"is_reserved":false,"is_disabled":false,"rental_uris":{"android":"levelo://app?vid=26f29f1e-69c1-4419-a4d0-78500a569174","ios":"levelo://app?vid=26f29f1e-69c1-4419-a4d0-78500a569174"},"vehicle_type_id":"4","last_reported":1693047875,"current_range_meters":28400,"station_id":"ce4bgop2rcd13ifvqc1g","pricing_plan_id":"free"},{"bike_id":"f5eb6da3-2147-4c1a-bc28-260913d0ed33","system_id":"levelo_inurba_marseille","lat":43.297774,"lon":5.370875,"is_reserved":false,"is_disabled":false,"rental_uris":{"android":"levelo://app?vid=f5eb6da3-2147-4c1a-bc28-260913d0ed33","ios":"levelo://app?vid=f5eb6da3-2147-4c1a-bc28-260913d0ed33"},"vehicle_type_id":"4","last_reported":1693047875,"current_range_meters":17600,"station_id":"ce4bgop2rcd13ifvqc1g","pricing_plan_id":"free"},{"bike_id":"2ddc5d1c-4a62-4d0b-b125-a6c57642f6bb","system_id":"levelo_inurba_marseille","lat":43.328371,"lon":5.366909,"is_reserved":false,"is_disabled":false,"rental_uris":{"android":"levelo://app?vid=2ddc5d1c-4a62-4d0b-b125-a6c57642f6bb","ios":"levelo://app?vid=2ddc5d1c-4a62-4d0b-b125-a6c57642f6bb"},"vehicle_type_id":"4","last_reported":1693047875,"current_range_meters":27200,"station_id":"ce4bhs92rcd13ifvqi0g","pricing_plan_id":"free"},{"bike_id":"de38cd29-7482-42fd-acae-359271fd06ec","system_id":"levelo_inurba_marseille","lat":43.32827,"lon":5.36676,"is_reserved":false,"is_disabled":false,"rental_uris":{"android":"levelo://app?vid=de38cd29-7482-42fd-acae-359271fd06ec","ios":"levelo://app?vid=de38cd29-7482-42fd-acae-359271fd06ec"},"vehicle_type_id":"4","last_reported":1693047875,"current_range_meters":18000,"station_id":"ce4bhs92rcd13ifvqi0g","pricing_plan_id":"free"},{"bike_id":"af3c4ca4-7799-495c-8104-f6474edf014b","system_id":"levelo_inurba_marseille","lat":43.328371,"lon":5.366909,"is_reserved":false,"is_disabled":false,"rental_uris":{"android":"levelo://app?vid=af3c4ca4-7799-495c-8104-f6474edf014b","ios":"levelo://app?vid=af3c4ca4-7799-495c-8104-f6474edf014b"},"vehicle_type_id":"4","last_reported":1693047875,"current_range_meters":24400,"station_id":"ce4bhs92rcd13ifvqi0g","pricing_plan_id":"free"},{"bike_id":"ef00f862-a014-448e-a272-2d8aeebbd1fb","system_id":"levelo_inurba_marseille","lat":43.328371,"lon":5.366912,"is_reserved":false,"is_disabled":false,"rental_uris":{"android":"levelo://app?vid=ef00f862-a014-448e-a272-2d8aeebbd1fb","ios":"levelo://app?vid=ef00f862-a014-448e-a272-2d8aeebbd1fb"},"vehicle_type_id":"4","last_reported":1693047875,"current_range_meters":16800,"station_id":"ce4bhs92rcd13ifvqi0g","pricing_plan_id":"free"},{"bike_id":"7713fce6-61f5-48dd-a139-0a91fcbcc973","system_id":"levelo_inurba_marseille","lat":43.32828,"lon":5.36684,"is_reserved":false,"is_disabled":false,"rental_uris":{"android":"levelo://app?vid=7713fce6-61f5-48dd-a139-0a91fcbcc973","ios":"levelo://app?vid=7713fce6-61f5-48dd-a139-0a91fcbcc973"},"vehicle_type_id":"4","last_reported":1693047875,"current_range_meters":3200,"station_id":"ce4bhs92rcd13ifvqi0g","pricing_plan_id":"free"},{"bike_id":"ff13a729-a3be-460c-91c8-08b0c45017da","system_id":"levelo_inurba_marseille","lat":43.328371,"lon":5.366909,"is_reserved":false,"is_disabled":false,"rental_uris":{"android":"levelo://app?vid=ff13a729-a3be-460c-91c8-08b0c45017da","ios":"levelo://app?vid=ff13a729-a3be-460c-91c8-08b0c45017da"},"vehicle_type_id":"4","last_reported":1693047875,"current_range_meters":25200,"station_id":"ce4bhs92rcd13ifvqi0g","pricing_plan_id":"free"},{"bike_id":"b2a6fc0b-fe04-43b7-8835-223f314ba282","system_id":"levelo_inurba_marseille","lat":43.32829,"lon":5.366933,"is_reserved":false,"is_disabled":false,"rental_uris":{"android":"levelo://app?vid=b2a6fc0b-fe04-43b7-8835-223f314ba282","ios":"levelo://app?vid=b2a6fc0b-fe04-43b7-8835-223f314ba282"},"vehicle_type_id":"4","last_reported":1693047875,"current_range_meters":19600,"station_id":"ce4bhs92rcd13ifvqi0g","pricing_plan_id":"free"},{"bike_id":"88dd6925-52f3-4ca8-b806-f16b4ecdf8a1","system_id":"levelo_inurba_marseille","lat":43.32829,"lon":5.36668,"is_reserved":false,"is_disabled":false,"rental_uris":{"android":"levelo://app?vid=88dd6925-52f3-4ca8-b806-f16b4ecdf8a1","ios":"levelo://app?vid=88dd6925-52f3-4ca8-b806-f16b4ecdf8a1"},"vehicle_type_id":"4","last_reported":1693047875,"current_range_meters":28400,"station_id":"ce4bhs92rcd13ifvqi0g","pricing_plan_id":"free"},{"bike_id":"68586394-f91a-426a-b749-687244ad71e7","system_id":"levelo_inurba_marseille","lat":43.328371,"lon":5.366909,"is_reserved":false,"is_disabled":false,"rental_uris":{"android":"levelo://app?vid=68586394-f91a-426a-b749-687244ad71e7","ios":"levelo://app?vid=68586394-f91a-426a-b749-687244ad71e7"},"vehicle_type_id":"4","last_reported":1693047875,"current_range_meters":26400,"station_id":"ce4bhs92rcd13ifvqi0g","pricing_plan_id":"free"},{"bike_id":"a492e2ef-d185-4453-b986-4538de112dd3","system_id":"levelo_inurba_marseille","lat":43.297163,"lon":5.365866,"is_reserved":false,"is_disabled":false,"rental_uris":{"android":"levelo://app?vid=a492e2ef-d185-4453-b986-4538de112dd3","ios":"levelo://app?vid=a492e2ef-d185-4453-b986-4538de112dd3"},"vehicle_type_id":"4","last_reported":1693047875,"current_range_meters":29200,"station_id":"ce4bgn12rcd13ifvqbt0","pricing_plan_id":"free"},{"bike_id":"dd789220-e7b5-42c1-b9dc-dc4243148021","system_id":"levelo_inurba_marseille","lat":43.297163,"lon":5.365866,"is_reserved":false,"is_disabled":false,"rental_uris":{"android":"levelo://app?vid=dd789220-e7b5-42c1-b9dc-dc4243148021","ios":"levelo://app?vid=dd789220-e7b5-42c1-b9dc-dc4243148021"},"vehicle_type_id":"4","last_reported":1693047875,"current_range_meters":31600,"station_id":"ce4bgn12rcd13ifvqbt0","pricing_plan_id":"free"},{"bike_id":"704c0286-52b4-4880-abba-175a138f0784","system_id":"levelo_inurba_marseille","lat":43.328371,"lon":5.366912,"is_reserved":false,"is_disabled":false,"rental_uris":{"android":"levelo://app?vid=704c0286-52b4-4880-abba-175a138f0784","ios":"levelo://app?vid=704c0286-52b4-4880-abba-175a138f0784"},"vehicle_type_id":"4","last_reported":1693047875,"current_range_meters":23600,"station_id":"ce4bhs92rcd13ifvqi0g","pricing_plan_id":"free"},{"bike_id":"cd446b24-0605-47e8-a42c-868f9f929a8b","system_id":"levelo_inurba_marseille","lat":43.328371,"lon":5.366909,"is_reserved":false,"is_disabled":false,"rental_uris":{"android":"levelo://app?vid=cd446b24-0605-47e8-a42c-868f9f929a8b","ios":"levelo://app?vid=cd446b24-0605-47e8-a42c-868f9f929a8b"},"vehicle_type_id":"4","last_reported":1693047875,"current_range_meters":11600,"station_id":"ce4bhs92rcd13ifvqi0g","pricing_plan_id":"free"},{"bike_id":"bd0bd295-6ecc-40c4-a4d0-89f645593756","system_id":"levelo_inurba_marseille","lat":43.297163,"lon":5.365866,"is_reserved":false,"is_disabled":false,"rental_uris":{"android":"levelo://app?vid=bd0bd295-6ecc-40c4-a4d0-89f645593756","ios":"levelo://app?vid=bd0bd295-6ecc-40c4-a4d0-89f645593756"},"vehicle_type_id":"4","last_reported":1693047875,"current_range_meters":21600,"station_id":"ce4bgn12rcd13ifvqbt0","pricing_plan_id":"free"},{"bike_id":"7233bbaf-90de-4d9e-bf9b-eb6208ecd0a2","system_id":"levelo_inurba_marseille","lat":43.297163,"lon":5.365866,"is_reserved":false,"is_disabled":false,"rental_uris":{"android":"levelo://app?vid=7233bbaf-90de-4d9e-bf9b-eb6208ecd0a2","ios":"levelo://app?vid=7233bbaf-90de-4d9e-bf9b-eb6208ecd0a2"},"vehicle_type_id":"4","last_reported":1693047875,"current_range_meters":28000,"station_id":"ce4bgn12rcd13ifvqbt0","pricing_plan_id":"free"},{"bike_id":"d3139180-8ba9-4c91-b6e4-8baae3c22113","system_id":"levelo_inurba_marseille","lat":43.296131,"lon":5.370791,"is_reserved":false,"is_disabled":false,"rental_uris":{"android":"levelo://app?vid=d3139180-8ba9-4c91-b6e4-8baae3c22113","ios":"levelo://app?vid=d3139180-8ba9-4c91-b6e4-8baae3c22113"},"vehicle_type_id":"4","last_reported":1693047875,"current_range_meters":31200,"station_id":"ce4bgnh2rcd13ifvqc0g","pricing_plan_id":"free"},{"bike_id":"5e461bb3-b08d-4aa5-b64f-5b22e89efc8c","system_id":"levelo_inurba_marseille","lat":43.296131,"lon":5.370791,"is_reserved":false,"is_disabled":false,"rental_uris":{"android":"levelo://app?vid=5e461bb3-b08d-4aa5-b64f-5b22e89efc8c","ios":"levelo://app?vid=5e461bb3-b08d-4aa5-b64f-5b22e89efc8c"},"vehicle_type_id":"4","last_reported":1693047875,"current_range_meters":19200,"station_id":"ce4bgnh2rcd13ifvqc0g","pricing_plan_id":"free"},{"bike_id":"aaab5674-bf6f-4fea-939d-8ee09a7bb79b","system_id":"levelo_inurba_marseille","lat":43.296131,"lon":5.370791,"is_reserved":false,"is_disabled":false,"rental_uris":{"android":"levelo://app?vid=aaab5674-bf6f-4fea-939d-8ee09a7bb79b","ios":"levelo://app?vid=aaab5674-bf6f-4fea-939d-8ee09a7bb79b"},"vehicle_type_id":"4","last_reported":1693047875,"current_range_meters":8000,"station_id":"ce4bgnh2rcd13ifvqc0g","pricing_plan_id":"free"},{"bike_id":"4379b014-1c48-4664-8300-581ab586131b","system_id":"levelo_inurba_marseille","lat":43.29618,"lon":5.37148,"is_reserved":false,"is_disabled":false,"rental_uris":{"android":"levelo://app?vid=4379b014-1c48-4664-8300-581ab586131b","ios":"levelo://app?vid=4379b014-1c48-4664-8300-581ab586131b"},"vehicle_type_id":"4","last_reported":1693047875,"current_range_meters":800,"station_id":"ce4bgk12rcd13ifvqbj0","pricing_plan_id":"free"},{"bike_id":"0f6ae9e2-8272-416c-b694-527349ff3134","system_id":"levelo_inurba_marseille","lat":43.29583,"lon":5.36742,"is_reserved":false,"is_disabled":false,"rental_uris":{"android":"levelo://app?vid=0f6ae9e2-8272-416c-b694-527349ff3134","ios":"levelo://app?vid=0f6ae9e2-8272-416c-b694-527349ff3134"},"vehicle_type_id":"4","last_reported":1693047875,"current_range_meters":28000,"station_id":"ce4bgph2rcd13ifvqc2g","pricing_plan_id":"free"},{"bike_id":"65d934c8-ea94-404c-b991-a012f59c0b64","system_id":"levelo_inurba_marseille","lat":43.296129,"lon":5.370777,"is_reserved":false,"is_disabled":false,"rental_uris":{"android":"levelo://app?vid=65d934c8-ea94-404c-b991-a012f59c0b64","ios":"levelo://app?vid=65d934c8-ea94-404c-b991-a012f59c0b64"},"vehicle_type_id":"4","last_reported":1693047875,"current_range_meters":28400,"station_id":"ce4bgnh2rcd13ifvqc0g","pricing_plan_id":"free"},{"bike_id":"e3992a7c-a802-4f70-8132-a7956c831bfb","system_id":"levelo_inurba_marseille","lat":43.31759,"lon":5.3901,"is_reserved":false,"is_disabled":false,"rental_uris":{"android":"levelo://app?vid=e3992a7c-a802-4f70-8132-a7956c831bfb","ios":"levelo://app?vid=e3992a7c-a802-4f70-8132-a7956c831bfb"},"vehicle_type_id":"4","last_reported":1693047875,"current_range_meters":31600,"station_id":"ce4bhqp2rcd13ifvqhng","pricing_plan_id":"free"},{"bike_id":"2c93ce6f-c5e1-4ec9-9941-ebb7469bb8f2","system_id":"levelo_inurba_marseille","lat":43.31759,"lon":5.39016,"is_reserved":false,"is_disabled":false,"rental_uris":{"android":"levelo://app?vid=2c93ce6f-c5e1-4ec9-9941-ebb7469bb8f2","ios":"levelo://app?vid=2c93ce6f-c5e1-4ec9-9941-ebb7469bb8f2"},"vehicle_type_id":"4","last_reported":1693047875,"current_range_meters":31200,"station_id":"ce4bhqp2rcd13ifvqhng","pricing_plan_id":"free"},{"bike_id":"66202a94-79e4-4920-ac6d-4a4620437425","system_id":"levelo_inurba_marseille","lat":43.298037,"lon":5.381066,"is_reserved":false,"is_disabled":false,"rental_uris":{"android":"levelo://app?vid=66202a94-79e4-4920-ac6d-4a4620437425","ios":"levelo://app?vid=66202a94-79e4-4920-ac6d-4a4620437425"},"vehicle_type_id":"4","last_reported":1693047875,"current_range_meters":24800,"station_id":"ce4bgip2rcd13ifvqbb0","pricing_plan_id":"free"},{"bike_id":"9ad9fda5-8a46-4a35-b1a1-bcaa585f2ad5","system_id":"levelo_inurba_marseille","lat":43.298037,"lon":5.381066,"is_reserved":false,"is_disabled":false,"rental_uris":{"android":"levelo://app?vid=9ad9fda5-8a46-4a35-b1a1-bcaa585f2ad5","ios":"levelo://app?vid=9ad9fda5-8a46-4a35-b1a1-bcaa585f2ad5"},"vehicle_type_id":"4","last_reported":1693047875,"current_range_meters":5200,"station_id":"ce4bgip2rcd13ifvqbb0","pricing_plan_id":"free"},{"bike_id":"f63638e9-a4ef-463f-a3d3-19b80442734f","system_id":"levelo_inurba_marseille","lat":43.298037,"lon":5.381066,"is_reserved":false,"is_disabled":false,"rental_uris":{"android":"levelo://app?vid=f63638e9-a4ef-463f-a3d3-19b80442734f","ios":"levelo://app?vid=f63638e9-a4ef-463f-a3d3-19b80442734f"},"vehicle_type_id":"4","last_reported":1693047875,"current_range_meters":27200,"station_id":"ce4bgip2rcd13ifvqbb0","pricing_plan_id":"free"},{"bike_id":"7d411f49-8671-44ea-b339-092304319f78","system_id":"levelo_inurba_marseille","lat":43.304278,"lon":5.388868,"is_reserved":false,"is_disabled":false,"rental_uris":{"android":"levelo://app?vid=7d411f49-8671-44ea-b339-092304319f78","ios":"levelo://app?vid=7d411f49-8671-44ea-b339-092304319f78"},"vehicle_type_id":"4","last_reported":1693047875,"current_range_meters":9600,"station_id":"ce4bgk12rcd13ifvqbi0","pricing_plan_id":"free"},{"bike_id":"cbc85530-f2f7-434f-97c3-073974b15310","system_id":"levelo_inurba_marseille","lat":43.295279,"lon":5.375048,"is_reserved":false,"is_disabled":false,"rental_uris":{"android":"levelo://app?vid=cbc85530-f2f7-434f-97c3-073974b15310","ios":"levelo://app?vid=cbc85530-f2f7-434f-97c3-073974b15310"},"vehicle_type_id":"4","last_reported":1693047875,"current_range_meters":22400,"station_id":"ce4bgkp2rcd13ifvqbmg","pricing_plan_id":"free"},{"bike_id":"952a19e7-6602-41c3-942f-79cfb514366f","system_id":"levelo_inurba_marseille","lat":43.296277,"lon":5.377108,"is_reserved":false,"is_disabled":false,"rental_uris":{"android":"levelo://app?vid=952a19e7-6602-41c3-942f-79cfb514366f","ios":"levelo://app?vid=952a19e7-6602-41c3-942f-79cfb514366f"},"vehicle_type_id":"4","last_reported":1693047875,"current_range_meters":28400,"station_id":"ce4bgi92rcd13ifvqb90","pricing_plan_id":"free"},{"bike_id":"329b52da-6179-4119-8885-76b50cbdc2a9","system_id":"levelo_inurba_marseille","lat":43.299707,"lon":5.384859,"is_reserved":false,"is_disabled":false,"rental_uris":{"android":"levelo://app?vid=329b52da-6179-4119-8885-76b50cbdc2a9","ios":"levelo://app?vid=329b52da-6179-4119-8885-76b50cbdc2a9"},"vehicle_type_id":"4","last_reported":1693047875,"current_range_meters":22800,"station_id":"ce4bgj92rcd13ifvqbd0","pricing_plan_id":"free"},{"bike_id":"5160b4da-2c60-461e-90c3-536d48707b4e","system_id":"levelo_inurba_marseille","lat":43.295279,"lon":5.375048,"is_reserved":false,"is_disabled":false,"rental_uris":{"android":"levelo://app?vid=5160b4da-2c60-461e-90c3-536d48707b4e","ios":"levelo://app?vid=5160b4da-2c60-461e-90c3-536d48707b4e"},"vehicle_type_id":"4","last_reported":1693047875,"current_range_meters":26800,"station_id":"ce4bgkp2rcd13ifvqbmg","pricing_plan_id":"free"},{"bike_id":"9b6e6802-328a-45e4-9ebb-e0074e2fbfb1","system_id":"levelo_inurba_marseille","lat":43.32356,"lon":5.38889,"is_reserved":false,"is_disabled":false,"rental_uris":{"android":"levelo://app?vid=9b6e6802-328a-45e4-9ebb-e0074e2fbfb1","ios":"levelo://app?vid=9b6e6802-328a-45e4-9ebb-e0074e2fbfb1"},"vehicle_type_id":"4","last_reported":1693047875,"current_range_meters":31200,"station_id":"ce4bhqp2rcd13ifvqhog","pricing_plan_id":"free"},{"bike_id":"7b694443-f8bd-415b-8543-e7ff248e2b5f","system_id":"levelo_inurba_marseille","lat":43.32362,"lon":5.38884,"is_reserved":false,"is_disabled":false,"rental_uris":{"android":"levelo://app?vid=7b694443-f8bd-415b-8543-e7ff248e2b5f","ios":"levelo://app?vid=7b694443-f8bd-415b-8543-e7ff248e2b5f"},"vehicle_type_id":"4","last_reported":1693047875,"current_range_meters":14400,"station_id":"ce4bhqp2rcd13ifvqhog","pricing_plan_id":"free"},{"bike_id":"41407177-acad-4597-905d-de8d34a075b1","system_id":"levelo_inurba_marseille","lat":43.32362,"lon":5.38886,"is_reserved":false,"is_disabled":false,"rental_uris":{"android":"levelo://app?vid=41407177-acad-4597-905d-de8d34a075b1","ios":"levelo://app?vid=41407177-acad-4597-905d-de8d34a075b1"},"vehicle_type_id":"4","last_reported":1693047875,"current_range_meters":29200,"station_id":"ce4bhqp2rcd13ifvqhog","pricing_plan_id":"free"},{"bike_id":"00883cd9-a56a-4720-bb55-237d0136a4a1","system_id":"levelo_inurba_marseille","lat":43.32357,"lon":5.38892,"is_reserved":false,"is_disabled":false,"rental_uris":{"android":"levelo://app?vid=00883cd9-a56a-4720-bb55-237d0136a4a1","ios":"levelo://app?vid=00883cd9-a56a-4720-bb55-237d0136a4a1"},"vehicle_type_id":"4","last_reported":1693047875,"current_range_meters":17600,"station_id":"ce4bhqp2rcd13ifvqhog","pricing_plan_id":"free"},{"bike_id":"4c4c1eac-3ee0-415a-9977-dd90a394fdd4","system_id":"levelo_inurba_marseille","lat":43.3237,"lon":5.38885,"is_reserved":false,"is_disabled":false,"rental_uris":{"android":"levelo://app?vid=4c4c1eac-3ee0-415a-9977-dd90a394fdd4","ios":"levelo://app?vid=4c4c1eac-3ee0-415a-9977-dd90a394fdd4"},"vehicle_type_id":"4","last_reported":1693047875,"current_range_meters":17600,"station_id":"ce4bhqp2rcd13ifvqhog","pricing_plan_id":"free"},{"bike_id":"7fc7692c-aca5-4dc0-a60c-eb50a60f5179","system_id":"levelo_inurba_marseille","lat":43.3237,"lon":5.38886,"is_reserved":false,"is_disabled":false,"rental_uris":{"android":"levelo://app?vid=7fc7692c-aca5-4dc0-a60c-eb50a60f5179","ios":"levelo://app?vid=7fc7692c-aca5-4dc0-a60c-eb50a60f5179"},"vehicle_type_id":"4","last_reported":1693047875,"current_range_meters":10400,"station_id":"ce4bhqp2rcd13ifvqhog","pricing_plan_id":"free"},{"bike_id":"f910f113-d32f-4a8b-a00f-a96762bf6fc9","system_id":"levelo_inurba_marseille","lat":43.32367,"lon":5.388836,"is_reserved":false,"is_disabled":false,"rental_uris":{"android":"levelo://app?vid=f910f113-d32f-4a8b-a00f-a96762bf6fc9","ios":"levelo://app?vid=f910f113-d32f-4a8b-a00f-a96762bf6fc9"},"vehicle_type_id":"4","last_reported":1693047875,"current_range_meters":26400,"station_id":"ce4bhqp2rcd13ifvqhog","pricing_plan_id":"free"},{"bike_id":"a63ed082-18a6-4d5d-bdf2-3e45647b92bb","system_id":"levelo_inurba_marseille","lat":43.29342,"lon":5.37141,"is_reserved":false,"is_disabled":false,"rental_uris":{"android":"levelo://app?vid=a63ed082-18a6-4d5d-bdf2-3e45647b92bb","ios":"levelo://app?vid=a63ed082-18a6-4d5d-bdf2-3e45647b92bb"},"vehicle_type_id":"4","last_reported":1693047875,"current_range_meters":15200,"station_id":"ce4bhch2rcd13ifvqeug","pricing_plan_id":"free"},{"bike_id":"6533c646-1091-4458-9ef2-bc9d36dce22d","system_id":"levelo_inurba_marseille","lat":43.29305,"lon":5.37439,"is_reserved":false,"is_disabled":false,"rental_uris":{"android":"levelo://app?vid=6533c646-1091-4458-9ef2-bc9d36dce22d","ios":"levelo://app?vid=6533c646-1091-4458-9ef2-bc9d36dce22d"},"vehicle_type_id":"4","last_reported":1693047875,"current_range_meters":30000,"station_id":"ce4bgi12rcd13ifvqb70","pricing_plan_id":"free"},{"bike_id":"38fef587-7cc5-4800-b069-87b8f296a10a","system_id":"levelo_inurba_marseille","lat":43.293009,"lon":5.374584,"is_reserved":false,"is_disabled":false,"rental_uris":{"android":"levelo://app?vid=38fef587-7cc5-4800-b069-87b8f296a10a","ios":"levelo://app?vid=38fef587-7cc5-4800-b069-87b8f296a10a"},"vehicle_type_id":"4","last_reported":1693047875,"current_range_meters":31200,"station_id":"ce4bgi12rcd13ifvqb70","pricing_plan_id":"free"},{"bike_id":"47ee0fb5-f455-4924-aa3f-1e518941eb50","system_id":"levelo_inurba_marseille","lat":43.293009,"lon":5.374584,"is_reserved":false,"is_disabled":false,"rental_uris":{"android":"levelo://app?vid=47ee0fb5-f455-4924-aa3f-1e518941eb50","ios":"levelo://app?vid=47ee0fb5-f455-4924-aa3f-1e518941eb50"},"vehicle_type_id":"4","last_reported":1693047875,"current_range_meters":30400,"station_id":"ce4bgi12rcd13ifvqb70","pricing_plan_id":"free"},{"bike_id":"24583505-eb5c-4f40-a2e3-c1527cc76603","system_id":"levelo_inurba_marseille","lat":43.2936,"lon":5.37835,"is_reserved":false,"is_disabled":false,"rental_uris":{"android":"levelo://app?vid=24583505-eb5c-4f40-a2e3-c1527cc76603","ios":"levelo://app?vid=24583505-eb5c-4f40-a2e3-c1527cc76603"},"vehicle_type_id":"4","last_reported":1693047875,"current_range_meters":6800,"station_id":"ce4bgjh2rcd13ifvqbf0","pricing_plan_id":"free"},{"bike_id":"cd0a24f0-98f6-4703-a5f1-1d0144e80c05","system_id":"levelo_inurba_marseille","lat":43.2936,"lon":5.37835,"is_reserved":false,"is_disabled":false,"rental_uris":{"android":"levelo://app?vid=cd0a24f0-98f6-4703-a5f1-1d0144e80c05","ios":"levelo://app?vid=cd0a24f0-98f6-4703-a5f1-1d0144e80c05"},"vehicle_type_id":"4","last_reported":1693047875,"current_range_meters":1200,"station_id":"ce4bgjh2rcd13ifvqbf0","pricing_plan_id":"free"},{"bike_id":"b6048dd9-ffe9-4e1b-b6be-f3f123b38b17","system_id":"levelo_inurba_marseille","lat":43.2936,"lon":5.37835,"is_reserved":false,"is_disabled":false,"rental_uris":{"android":"levelo://app?vid=b6048dd9-ffe9-4e1b-b6be-f3f123b38b17","ios":"levelo://app?vid=b6048dd9-ffe9-4e1b-b6be-f3f123b38b17"},"vehicle_type_id":"4","last_reported":1693047875,"current_range_meters":9600,"station_id":"ce4bgjh2rcd13ifvqbf0","pricing_plan_id":"free"},{"bike_id":"0724f352-a262-45b7-9b71-9a09ff17d945","system_id":"levelo_inurba_marseille","lat":43.302992,"lon":5.392136,"is_reserved":false,"is_disabled":false,"rental_uris":{"android":"levelo://app?vid=0724f352-a262-45b7-9b71-9a09ff17d945","ios":"levelo://app?vid=0724f352-a262-45b7-9b71-9a09ff17d945"},"vehicle_type_id":"4","last_reported":1693047875,"current_range_meters":13200,"station_id":"ce4bgkh2rcd13ifvqbk0","pricing_plan_id":"free"},{"bike_id":"59d4a7cc-c4d8-47e1-a63f-2e26b5d209c3","system_id":"levelo_inurba_marseille","lat":43.2936,"lon":5.37835,"is_reserved":false,"is_disabled":false,"rental_uris":{"android":"levelo://app?vid=59d4a7cc-c4d8-47e1-a63f-2e26b5d209c3","ios":"levelo://app?vid=59d4a7cc-c4d8-47e1-a63f-2e26b5d209c3"},"vehicle_type_id":"4","last_reported":1693047875,"current_range_meters":30000,"station_id":"ce4bgjh2rcd13ifvqbf0","pricing_plan_id":"free"},{"bike_id":"8dec5be1-ba6e-456f-b511-f6cbeb975260","system_id":"levelo_inurba_marseille","lat":43.292663,"lon":5.376389,"is_reserved":false,"is_disabled":false,"rental_uris":{"android":"levelo://app?vid=8dec5be1-ba6e-456f-b511-f6cbeb975260","ios":"levelo://app?vid=8dec5be1-ba6e-456f-b511-f6cbeb975260"},"vehicle_type_id":"4","last_reported":1693047875,"current_range_meters":16000,"station_id":"ce4bgi12rcd13ifvqb80","pricing_plan_id":"free"},{"bike_id":"f6fcdd28-f1d9-41a8-8651-3b0409c26028","system_id":"levelo_inurba_marseille","lat":43.291671,"lon":5.371575,"is_reserved":false,"is_disabled":false,"rental_uris":{"android":"levelo://app?vid=f6fcdd28-f1d9-41a8-8651-3b0409c26028","ios":"levelo://app?vid=f6fcdd28-f1d9-41a8-8651-3b0409c26028"},"vehicle_type_id":"4","last_reported":1693047875,"current_range_meters":400,"station_id":"ce4bha92rcd13ifvqeh0","pricing_plan_id":"free"},{"bike_id":"b706f720-3c26-4be9-b08a-80010e3a037b","system_id":"levelo_inurba_marseille","lat":43.291994,"lon":5.357886,"is_reserved":false,"is_disabled":false,"rental_uris":{"android":"levelo://app?vid=b706f720-3c26-4be9-b08a-80010e3a037b","ios":"levelo://app?vid=b706f720-3c26-4be9-b08a-80010e3a037b"},"vehicle_type_id":"4","last_reported":1693047875,"current_range_meters":5600,"station_id":"ce4bhb12rcd13ifvqel0","pricing_plan_id":"free"},{"bike_id":"f320a30f-6acf-4ca0-a511-0eae40f96cca","system_id":"levelo_inurba_marseille","lat":43.31332,"lon":5.39688,"is_reserved":false,"is_disabled":false,"rental_uris":{"android":"levelo://app?vid=f320a30f-6acf-4ca0-a511-0eae40f96cca","ios":"levelo://app?vid=f320a30f-6acf-4ca0-a511-0eae40f96cca"},"vehicle_type_id":"4","last_reported":1693047875,"current_range_meters":28400,"station_id":"ce4bgvp2rcd13ifvqcu0","pricing_plan_id":"free"},{"bike_id":"28fee223-0c85-45e8-8829-176c071db3ec","system_id":"levelo_inurba_marseille","lat":43.309038,"lon":5.396546,"is_reserved":false,"is_disabled":false,"rental_uris":{"android":"levelo://app?vid=28fee223-0c85-45e8-8829-176c071db3ec","ios":"levelo://app?vid=28fee223-0c85-45e8-8829-176c071db3ec"},"vehicle_type_id":"4","last_reported":1693047875,"current_range_meters":12000,"station_id":"ce4bh012rcd13ifvqcv0","pricing_plan_id":"free"},{"bike_id":"ba1be175-c38d-4cf4-b12d-486e2571c2a4","system_id":"levelo_inurba_marseille","lat":43.290779,"lon":5.371482,"is_reserved":false,"is_disabled":false,"rental_uris":{"android":"levelo://app?vid=ba1be175-c38d-4cf4-b12d-486e2571c2a4","ios":"levelo://app?vid=ba1be175-c38d-4cf4-b12d-486e2571c2a4"},"vehicle_type_id":"4","last_reported":1693047875,"current_range_meters":0,"station_id":"ce4bh5p2rcd13ifvqe4g","pricing_plan_id":"free"},{"bike_id":"74a9b669-eebf-435c-aa12-961112b8a9bf","system_id":"levelo_inurba_marseille","lat":43.30896,"lon":5.39664,"is_reserved":false,"is_disabled":false,"rental_uris":{"android":"levelo://app?vid=74a9b669-eebf-435c-aa12-961112b8a9bf","ios":"levelo://app?vid=74a9b669-eebf-435c-aa12-961112b8a9bf"},"vehicle_type_id":"4","last_reported":1693047875,"current_range_meters":15600,"station_id":"ce4bh012rcd13ifvqcv0","pricing_plan_id":"free"},{"bike_id":"d971eff6-8f62-40f3-a067-723109760da5","system_id":"levelo_inurba_marseille","lat":43.290779,"lon":5.371482,"is_reserved":false,"is_disabled":false,"rental_uris":{"android":"levelo://app?vid=d971eff6-8f62-40f3-a067-723109760da5","ios":"levelo://app?vid=d971eff6-8f62-40f3-a067-723109760da5"},"vehicle_type_id":"4","last_reported":1693047875,"current_range_meters":10800,"station_id":"ce4bh5p2rcd13ifvqe4g","pricing_plan_id":"free"},{"bike_id":"b4e61762-e204-42a6-b44c-98d7bce80157","system_id":"levelo_inurba_marseille","lat":43.290779,"lon":5.371482,"is_reserved":false,"is_disabled":false,"rental_uris":{"android":"levelo://app?vid=b4e61762-e204-42a6-b44c-98d7bce80157","ios":"levelo://app?vid=b4e61762-e204-42a6-b44c-98d7bce80157"},"vehicle_type_id":"4","last_reported":1693047875,"current_range_meters":23200,"station_id":"ce4bh5p2rcd13ifvqe4g","pricing_plan_id":"free"},{"bike_id":"3ec44927-cf01-411a-951b-83972b780746","system_id":"levelo_inurba_marseille","lat":43.290779,"lon":5.371482,"is_reserved":false,"is_disabled":false,"rental_uris":{"android":"levelo://app?vid=3ec44927-cf01-411a-951b-83972b780746","ios":"levelo://app?vid=3ec44927-cf01-411a-951b-83972b780746"},"vehicle_type_id":"4","last_reported":1693047875,"current_range_meters":800,"station_id":"ce4bh5p2rcd13ifvqe4g","pricing_plan_id":"free"},{"bike_id":"ff9e4d81-e910-4536-9279-731c0d7754ea","system_id":"levelo_inurba_marseille","lat":43.302008,"lon":5.394694,"is_reserved":false,"is_disabled":false,"rental_uris":{"android":"levelo://app?vid=ff9e4d81-e910-4536-9279-731c0d7754ea","ios":"levelo://app?vid=ff9e4d81-e910-4536-9279-731c0d7754ea"},"vehicle_type_id":"4","last_reported":1693047875,"current_range_meters":19200,"station_id":"ce4bh0p2rcd13ifvqd70","pricing_plan_id":"free"},{"bike_id":"28aabab3-d50b-420a-9aa0-1521b59d6aab","system_id":"levelo_inurba_marseille","lat":43.302008,"lon":5.394694,"is_reserved":false,"is_disabled":false,"rental_uris":{"android":"levelo://app?vid=28aabab3-d50b-420a-9aa0-1521b59d6aab","ios":"levelo://app?vid=28aabab3-d50b-420a-9aa0-1521b59d6aab"},"vehicle_type_id":"4","last_reported":1693047875,"current_range_meters":3600,"station_id":"ce4bh0p2rcd13ifvqd70","pricing_plan_id":"free"},{"bike_id":"ef97f15f-8365-476a-8ec8-262889e4719d","system_id":"levelo_inurba_marseille","lat":43.302008,"lon":5.394694,"is_reserved":false,"is_disabled":false,"rental_uris":{"android":"levelo://app?vid=ef97f15f-8365-476a-8ec8-262889e4719d","ios":"levelo://app?vid=ef97f15f-8365-476a-8ec8-262889e4719d"},"vehicle_type_id":"4","last_reported":1693047875,"current_range_meters":20800,"station_id":"ce4bh0p2rcd13ifvqd70","pricing_plan_id":"free"},{"bike_id":"bd1b7d90-f5fa-4156-84ac-a763d5af7cc2","system_id":"levelo_inurba_marseille","lat":43.302008,"lon":5.394694,"is_reserved":false,"is_disabled":false,"rental_uris":{"android":"levelo://app?vid=bd1b7d90-f5fa-4156-84ac-a763d5af7cc2","ios":"levelo://app?vid=bd1b7d90-f5fa-4156-84ac-a763d5af7cc2"},"vehicle_type_id":"4","last_reported":1693047875,"current_range_meters":22000,"station_id":"ce4bh0p2rcd13ifvqd70","pricing_plan_id":"free"},{"bike_id":"2f93318d-a393-4e93-88c9-60d3ec241b0e","system_id":"levelo_inurba_marseille","lat":43.289184,"lon":5.366408,"is_reserved":false,"is_disabled":false,"rental_uris":{"android":"levelo://app?vid=2f93318d-a393-4e93-88c9-60d3ec241b0e","ios":"levelo://app?vid=2f93318d-a393-4e93-88c9-60d3ec241b0e"},"vehicle_type_id":"4","last_reported":1693047875,"current_range_meters":31200,"station_id":"ce4bhap2rcd13ifvqek0","pricing_plan_id":"free"},{"bike_id":"b0d87817-6aad-4b3c-b8ef-9844e79c6921","system_id":"levelo_inurba_marseille","lat":43.304296,"lon":5.397513,"is_reserved":false,"is_disabled":false,"rental_uris":{"android":"levelo://app?vid=b0d87817-6aad-4b3c-b8ef-9844e79c6921","ios":"levelo://app?vid=b0d87817-6aad-4b3c-b8ef-9844e79c6921"},"vehicle_type_id":"4","last_reported":1693047875,"current_range_meters":22000,"station_id":"ce4bh092rcd13ifvqd20","pricing_plan_id":"free"},{"bike_id":"f10717b1-2d8e-45e1-9f93-7c87584a474a","system_id":"levelo_inurba_marseille","lat":43.33037,"lon":5.38917,"is_reserved":false,"is_disabled":false,"rental_uris":{"android":"levelo://app?vid=f10717b1-2d8e-45e1-9f93-7c87584a474a","ios":"levelo://app?vid=f10717b1-2d8e-45e1-9f93-7c87584a474a"},"vehicle_type_id":"4","last_reported":1693047875,"current_range_meters":30000,"station_id":"ce4bhr92rcd13ifvqhrg","pricing_plan_id":"free"},{"bike_id":"1c07e25f-84db-4513-bedb-11b97c6ec9b6","system_id":"levelo_inurba_marseille","lat":43.33048,"lon":5.38903,"is_reserved":false,"is_disabled":false,"rental_uris":{"android":"levelo://app?vid=1c07e25f-84db-4513-bedb-11b97c6ec9b6","ios":"levelo://app?vid=1c07e25f-84db-4513-bedb-11b97c6ec9b6"},"vehicle_type_id":"4","last_reported":1693047875,"current_range_meters":24800,"station_id":"ce4bhr92rcd13ifvqhrg","pricing_plan_id":"free"},{"bike_id":"242a25a0-05f5-409b-9960-55e3c4942f42","system_id":"levelo_inurba_marseille","lat":43.33038,"lon":5.38919,"is_reserved":false,"is_disabled":false,"rental_uris":{"android":"levelo://app?vid=242a25a0-05f5-409b-9960-55e3c4942f42","ios":"levelo://app?vid=242a25a0-05f5-409b-9960-55e3c4942f42"},"vehicle_type_id":"4","last_reported":1693047875,"current_range_meters":18800,"station_id":"ce4bhr92rcd13ifvqhrg","pricing_plan_id":"free"},{"bike_id":"73e30c8d-1fec-42fa-994e-db63cd20ad16","system_id":"levelo_inurba_marseille","lat":43.33039,"lon":5.38919,"is_reserved":false,"is_disabled":false,"rental_uris":{"android":"levelo://app?vid=73e30c8d-1fec-42fa-994e-db63cd20ad16","ios":"levelo://app?vid=73e30c8d-1fec-42fa-994e-db63cd20ad16"},"vehicle_type_id":"4","last_reported":1693047875,"current_range_meters":10400,"station_id":"ce4bhr92rcd13ifvqhrg","pricing_plan_id":"free"},{"bike_id":"1895038e-acdb-4d35-aa35-e1291f23a30a","system_id":"levelo_inurba_marseille","lat":43.290103,"lon":5.356114,"is_reserved":false,"is_disabled":false,"rental_uris":{"android":"levelo://app?vid=1895038e-acdb-4d35-aa35-e1291f23a30a","ios":"levelo://app?vid=1895038e-acdb-4d35-aa35-e1291f23a30a"},"vehicle_type_id":"4","last_reported":1693047875,"current_range_meters":31200,"station_id":"ce4bhb92rcd13ifvqen0","pricing_plan_id":"free"},{"bike_id":"71060115-897b-4ad3-a035-2c7c2abf3f14","system_id":"levelo_inurba_marseille","lat":43.290104,"lon":5.356111,"is_reserved":false,"is_disabled":false,"rental_uris":{"android":"levelo://app?vid=71060115-897b-4ad3-a035-2c7c2abf3f14","ios":"levelo://app?vid=71060115-897b-4ad3-a035-2c7c2abf3f14"},"vehicle_type_id":"4","last_reported":1693047875,"current_range_meters":20400,"station_id":"ce4bhb92rcd13ifvqen0","pricing_plan_id":"free"},{"bike_id":"2162d794-f7ce-4c9d-bb4a-b79528b23c0f","system_id":"levelo_inurba_marseille","lat":43.33052,"lon":5.38913,"is_reserved":false,"is_disabled":false,"rental_uris":{"android":"levelo://app?vid=2162d794-f7ce-4c9d-bb4a-b79528b23c0f","ios":"levelo://app?vid=2162d794-f7ce-4c9d-bb4a-b79528b23c0f"},"vehicle_type_id":"4","last_reported":1693047875,"current_range_meters":31200,"station_id":"ce4bhr92rcd13ifvqhrg","pricing_plan_id":"free"},{"bike_id":"e2c265c4-53bc-4afc-8c91-c8654d181f86","system_id":"levelo_inurba_marseille","lat":43.33049,"lon":5.38918,"is_reserved":false,"is_disabled":false,"rental_uris":{"android":"levelo://app?vid=e2c265c4-53bc-4afc-8c91-c8654d181f86","ios":"levelo://app?vid=e2c265c4-53bc-4afc-8c91-c8654d181f86"},"vehicle_type_id":"4","last_reported":1693047875,"current_range_meters":18800,"station_id":"ce4bhr92rcd13ifvqhrg","pricing_plan_id":"free"},{"bike_id":"a4df99ce-0488-49dd-a888-94686f562e88","system_id":"levelo_inurba_marseille","lat":43.290104,"lon":5.356111,"is_reserved":false,"is_disabled":false,"rental_uris":{"android":"levelo://app?vid=a4df99ce-0488-49dd-a888-94686f562e88","ios":"levelo://app?vid=a4df99ce-0488-49dd-a888-94686f562e88"},"vehicle_type_id":"4","last_reported":1693047875,"current_range_meters":29600,"station_id":"ce4bhb92rcd13ifvqen0","pricing_plan_id":"free"},{"bike_id":"b29b42a3-3ad5-4024-8614-a62760665da0","system_id":"levelo_inurba_marseille","lat":43.33047,"lon":5.38927,"is_reserved":false,"is_disabled":false,"rental_uris":{"android":"levelo://app?vid=b29b42a3-3ad5-4024-8614-a62760665da0","ios":"levelo://app?vid=b29b42a3-3ad5-4024-8614-a62760665da0"},"vehicle_type_id":"4","last_reported":1693047875,"current_range_meters":25600,"station_id":"ce4bhr92rcd13ifvqhrg","pricing_plan_id":"free"},{"bike_id":"f67a28d5-0aab-4b35-8b40-a731ad172f18","system_id":"levelo_inurba_marseille","lat":43.290104,"lon":5.356111,"is_reserved":false,"is_disabled":false,"rental_uris":{"android":"levelo://app?vid=f67a28d5-0aab-4b35-8b40-a731ad172f18","ios":"levelo://app?vid=f67a28d5-0aab-4b35-8b40-a731ad172f18"},"vehicle_type_id":"4","last_reported":1693047875,"current_range_meters":4800,"station_id":"ce4bhb92rcd13ifvqen0","pricing_plan_id":"free"},{"bike_id":"6093d433-f9d6-48fe-897b-a1be7c29ef34","system_id":"levelo_inurba_marseille","lat":43.28998,"lon":5.35613,"is_reserved":false,"is_disabled":false,"rental_uris":{"android":"levelo://app?vid=6093d433-f9d6-48fe-897b-a1be7c29ef34","ios":"levelo://app?vid=6093d433-f9d6-48fe-897b-a1be7c29ef34"},"vehicle_type_id":"4","last_reported":1693047875,"current_range_meters":30400,"station_id":"ce4bhb92rcd13ifvqen0","pricing_plan_id":"free"},{"bike_id":"9e01d4f0-403d-4f5a-8cbf-b1db12b210d1","system_id":"levelo_inurba_marseille","lat":43.290143,"lon":5.381258,"is_reserved":false,"is_disabled":false,"rental_uris":{"android":"levelo://app?vid=9e01d4f0-403d-4f5a-8cbf-b1db12b210d1","ios":"levelo://app?vid=9e01d4f0-403d-4f5a-8cbf-b1db12b210d1"},"vehicle_type_id":"4","last_reported":1693047875,"current_range_meters":4800,"station_id":"","pricing_plan_id":"free"},{"bike_id":"f6e4668c-be15-431b-939f-c23f0a1e838e","system_id":"levelo_inurba_marseille","lat":43.28856,"lon":5.358371,"is_reserved":false,"is_disabled":false,"rental_uris":{"android":"levelo://app?vid=f6e4668c-be15-431b-939f-c23f0a1e838e","ios":"levelo://app?vid=f6e4668c-be15-431b-939f-c23f0a1e838e"},"vehicle_type_id":"4","last_reported":1693047875,"current_range_meters":25600,"station_id":"ce4bhb12rcd13ifvqem0","pricing_plan_id":"free"},{"bike_id":"86081d9d-8496-428d-897f-37e02a93fd2e","system_id":"levelo_inurba_marseille","lat":43.28856,"lon":5.358371,"is_reserved":false,"is_disabled":false,"rental_uris":{"android":"levelo://app?vid=86081d9d-8496-428d-897f-37e02a93fd2e","ios":"levelo://app?vid=86081d9d-8496-428d-897f-37e02a93fd2e"},"vehicle_type_id":"4","last_reported":1693047875,"current_range_meters":5600,"station_id":"ce4bhb12rcd13ifvqem0","pricing_plan_id":"free"},{"bike_id":"c1e0b72f-aa5e-4fc6-b578-a1252f5c880c","system_id":"levelo_inurba_marseille","lat":43.309336,"lon":5.401359,"is_reserved":false,"is_disabled":false,"rental_uris":{"android":"levelo://app?vid=c1e0b72f-aa5e-4fc6-b578-a1252f5c880c","ios":"levelo://app?vid=c1e0b72f-aa5e-4fc6-b578-a1252f5c880c"},"vehicle_type_id":"4","last_reported":1693047875,"current_range_meters":22800,"station_id":"ce4bh012rcd13ifvqd00","pricing_plan_id":"free"},{"bike_id":"2f6c2cbe-7135-4f10-b430-5aaf05c128f7","system_id":"levelo_inurba_marseille","lat":43.312736,"lon":5.401688,"is_reserved":false,"is_disabled":false,"rental_uris":{"android":"levelo://app?vid=2f6c2cbe-7135-4f10-b430-5aaf05c128f7","ios":"levelo://app?vid=2f6c2cbe-7135-4f10-b430-5aaf05c128f7"},"vehicle_type_id":"4","last_reported":1693047875,"current_range_meters":22000,"station_id":"ce4bh092rcd13ifvqd30","pricing_plan_id":"free"},{"bike_id":"18a3f515-fa17-46cf-9e78-42d4f55dc083","system_id":"levelo_inurba_marseille","lat":43.30925,"lon":5.40139,"is_reserved":false,"is_disabled":false,"rental_uris":{"android":"levelo://app?vid=18a3f515-fa17-46cf-9e78-42d4f55dc083","ios":"levelo://app?vid=18a3f515-fa17-46cf-9e78-42d4f55dc083"},"vehicle_type_id":"4","last_reported":1693047875,"current_range_meters":30000,"station_id":"ce4bgvp2rcd13ifvqct0","pricing_plan_id":"free"},{"bike_id":"0169431d-b2df-4266-9ab9-686e21ea08dd","system_id":"levelo_inurba_marseille","lat":43.30929,"lon":5.4014,"is_reserved":false,"is_disabled":false,"rental_uris":{"android":"levelo://app?vid=0169431d-b2df-4266-9ab9-686e21ea08dd","ios":"levelo://app?vid=0169431d-b2df-4266-9ab9-686e21ea08dd"},"vehicle_type_id":"4","last_reported":1693047875,"current_range_meters":26800,"station_id":"ce4bgvp2rcd13ifvqct0","pricing_plan_id":"free"},{"bike_id":"c85b85f6-1322-4273-9369-5bd814b61e05","system_id":"levelo_inurba_marseille","lat":43.309371,"lon":5.401449,"is_reserved":false,"is_disabled":false,"rental_uris":{"android":"levelo://app?vid=c85b85f6-1322-4273-9369-5bd814b61e05","ios":"levelo://app?vid=c85b85f6-1322-4273-9369-5bd814b61e05"},"vehicle_type_id":"4","last_reported":1693047875,"current_range_meters":19200,"station_id":"ce4bgvp2rcd13ifvqct0","pricing_plan_id":"free"},{"bike_id":"f2c48f37-89c1-48a1-b8dd-6fd16f5a1eef","system_id":"levelo_inurba_marseille","lat":43.30648,"lon":5.40091,"is_reserved":false,"is_disabled":false,"rental_uris":{"android":"levelo://app?vid=f2c48f37-89c1-48a1-b8dd-6fd16f5a1eef","ios":"levelo://app?vid=f2c48f37-89c1-48a1-b8dd-6fd16f5a1eef"},"vehicle_type_id":"4","last_reported":1693047875,"current_range_meters":23200,"station_id":"ce4bh112rcd13ifvqda0","pricing_plan_id":"free"},{"bike_id":"d23497f5-2d7c-4da7-be63-5bab9ba9b88e","system_id":"levelo_inurba_marseille","lat":43.30642,"lon":5.401031,"is_reserved":false,"is_disabled":false,"rental_uris":{"android":"levelo://app?vid=d23497f5-2d7c-4da7-be63-5bab9ba9b88e","ios":"levelo://app?vid=d23497f5-2d7c-4da7-be63-5bab9ba9b88e"},"vehicle_type_id":"4","last_reported":1693047875,"current_range_meters":16800,"station_id":"ce4bh112rcd13ifvqda0","pricing_plan_id":"free"},{"bike_id":"6ad77d6d-4637-4dd2-acb5-0637e19f4f24","system_id":"levelo_inurba_marseille","lat":43.286961,"lon":5.373785,"is_reserved":false,"is_disabled":false,"rental_uris":{"android":"levelo://app?vid=6ad77d6d-4637-4dd2-acb5-0637e19f4f24","ios":"levelo://app?vid=6ad77d6d-4637-4dd2-acb5-0637e19f4f24"},"vehicle_type_id":"4","last_reported":1693047875,"current_range_meters":6400,"station_id":"ce4bh3p2rcd13ifvqdq0","pricing_plan_id":"free"},{"bike_id":"2f2a297e-9bff-4063-84d4-5d28df3d307d","system_id":"levelo_inurba_marseille","lat":43.286591,"lon":5.363346,"is_reserved":false,"is_disabled":false,"rental_uris":{"android":"levelo://app?vid=2f2a297e-9bff-4063-84d4-5d28df3d307d","ios":"levelo://app?vid=2f2a297e-9bff-4063-84d4-5d28df3d307d"},"vehicle_type_id":"4","last_reported":1693047875,"current_range_meters":14000,"station_id":"ce4bhah2rcd13ifvqej0","pricing_plan_id":"free"},{"bike_id":"75199276-b705-4ad7-b6a9-49aeaa84628a","system_id":"levelo_inurba_marseille","lat":43.286591,"lon":5.363346,"is_reserved":false,"is_disabled":false,"rental_uris":{"android":"levelo://app?vid=75199276-b705-4ad7-b6a9-49aeaa84628a","ios":"levelo://app?vid=75199276-b705-4ad7-b6a9-49aeaa84628a"},"vehicle_type_id":"4","last_reported":1693047875,"current_range_meters":30400,"station_id":"ce4bhah2rcd13ifvqej0","pricing_plan_id":"free"},{"bike_id":"4b11263c-ebdc-46d0-9105-46687582b388","system_id":"levelo_inurba_marseille","lat":43.302759,"lon":5.400793,"is_reserved":false,"is_disabled":false,"rental_uris":{"android":"levelo://app?vid=4b11263c-ebdc-46d0-9105-46687582b388","ios":"levelo://app?vid=4b11263c-ebdc-46d0-9105-46687582b388"},"vehicle_type_id":"4","last_reported":1693047875,"current_range_meters":12800,"station_id":"ce4bgvh2rcd13ifvqcs0","pricing_plan_id":"free"},{"bike_id":"6917615e-547b-441b-9856-bb6a8d0ad7dd","system_id":"levelo_inurba_marseille","lat":43.286591,"lon":5.363346,"is_reserved":false,"is_disabled":false,"rental_uris":{"android":"levelo://app?vid=6917615e-547b-441b-9856-bb6a8d0ad7dd","ios":"levelo://app?vid=6917615e-547b-441b-9856-bb6a8d0ad7dd"},"vehicle_type_id":"4","last_reported":1693047875,"current_range_meters":9200,"station_id":"ce4bhah2rcd13ifvqej0","pricing_plan_id":"free"},{"bike_id":"70c31d84-de43-47cd-9b97-45ccaa14810b","system_id":"levelo_inurba_marseille","lat":43.298681,"lon":5.397225,"is_reserved":false,"is_disabled":false,"rental_uris":{"android":"levelo://app?vid=70c31d84-de43-47cd-9b97-45ccaa14810b","ios":"levelo://app?vid=70c31d84-de43-47cd-9b97-45ccaa14810b"},"vehicle_type_id":"4","last_reported":1693047875,"current_range_meters":0,"station_id":"ce4bh0h2rcd13ifvqd50","pricing_plan_id":"free"},{"bike_id":"2365150f-73ab-4507-aea4-76016e6109c8","system_id":"levelo_inurba_marseille","lat":43.286593,"lon":5.363346,"is_reserved":false,"is_disabled":false,"rental_uris":{"android":"levelo://app?vid=2365150f-73ab-4507-aea4-76016e6109c8","ios":"levelo://app?vid=2365150f-73ab-4507-aea4-76016e6109c8"},"vehicle_type_id":"4","last_reported":1693047875,"current_range_meters":31200,"station_id":"ce4bhah2rcd13ifvqej0","pricing_plan_id":"free"},{"bike_id":"2534bd16-4fbd-4a57-8501-f3fe6cd67b79","system_id":"levelo_inurba_marseille","lat":43.286591,"lon":5.363346,"is_reserved":false,"is_disabled":false,"rental_uris":{"android":"levelo://app?vid=2534bd16-4fbd-4a57-8501-f3fe6cd67b79","ios":"levelo://app?vid=2534bd16-4fbd-4a57-8501-f3fe6cd67b79"},"vehicle_type_id":"4","last_reported":1693047875,"current_range_meters":17200,"station_id":"ce4bhah2rcd13ifvqej0","pricing_plan_id":"free"},{"bike_id":"5d5605ca-46ac-41fd-98cb-d6bc4d8e7ff7","system_id":"levelo_inurba_marseille","lat":43.286593,"lon":5.363346,"is_reserved":false,"is_disabled":false,"rental_uris":{"android":"levelo://app?vid=5d5605ca-46ac-41fd-98cb-d6bc4d8e7ff7","ios":"levelo://app?vid=5d5605ca-46ac-41fd-98cb-d6bc4d8e7ff7"},"vehicle_type_id":"4","last_reported":1693047875,"current_range_meters":23200,"station_id":"ce4bhah2rcd13ifvqej0","pricing_plan_id":"free"},{"bike_id":"f576cc61-d994-4c64-8a6b-81d3bdd5b29a","system_id":"levelo_inurba_marseille","lat":43.30246,"lon":5.4005,"is_reserved":false,"is_disabled":false,"rental_uris":{"android":"levelo://app?vid=f576cc61-d994-4c64-8a6b-81d3bdd5b29a","ios":"levelo://app?vid=f576cc61-d994-4c64-8a6b-81d3bdd5b29a"},"vehicle_type_id":"4","last_reported":1693047875,"current_range_meters":24800,"station_id":"ce4bgvh2rcd13ifvqcs0","pricing_plan_id":"free"},{"bike_id":"977ee9da-a27f-4a86-b577-dd79fc5ba049","system_id":"levelo_inurba_marseille","lat":43.302759,"lon":5.400793,"is_reserved":false,"is_disabled":false,"rental_uris":{"android":"levelo://app?vid=977ee9da-a27f-4a86-b577-dd79fc5ba049","ios":"levelo://app?vid=977ee9da-a27f-4a86-b577-dd79fc5ba049"},"vehicle_type_id":"4","last_reported":1693047875,"current_range_meters":26800,"station_id":"ce4bgvh2rcd13ifvqcs0","pricing_plan_id":"free"},{"bike_id":"e80f1cb9-5d80-4496-aad5-da08770faea5","system_id":"levelo_inurba_marseille","lat":43.290301,"lon":5.386538,"is_reserved":false,"is_disabled":false,"rental_uris":{"android":"levelo://app?vid=e80f1cb9-5d80-4496-aad5-da08770faea5","ios":"levelo://app?vid=e80f1cb9-5d80-4496-aad5-da08770faea5"},"vehicle_type_id":"4","last_reported":1693047875,"current_range_meters":13600,"station_id":"ce4bh4p2rcd13ifvqe0g","pricing_plan_id":"free"},{"bike_id":"d336bba2-c61d-4d54-915c-a5894a335242","system_id":"levelo_inurba_marseille","lat":43.302759,"lon":5.400793,"is_reserved":false,"is_disabled":false,"rental_uris":{"android":"levelo://app?vid=d336bba2-c61d-4d54-915c-a5894a335242","ios":"levelo://app?vid=d336bba2-c61d-4d54-915c-a5894a335242"},"vehicle_type_id":"4","last_reported":1693047875,"current_range_meters":28800,"station_id":"ce4bgvh2rcd13ifvqcs0","pricing_plan_id":"free"},{"bike_id":"33a70750-866f-4932-b1a4-d3ec9e8ba5ac","system_id":"levelo_inurba_marseille","lat":43.302759,"lon":5.400793,"is_reserved":false,"is_disabled":false,"rental_uris":{"android":"levelo://app?vid=33a70750-866f-4932-b1a4-d3ec9e8ba5ac","ios":"levelo://app?vid=33a70750-866f-4932-b1a4-d3ec9e8ba5ac"},"vehicle_type_id":"4","last_reported":1693047875,"current_range_meters":29200,"station_id":"ce4bgvh2rcd13ifvqcs0","pricing_plan_id":"free"},{"bike_id":"176dcfd2-aec3-43d9-b912-6ac77b35b27a","system_id":"levelo_inurba_marseille","lat":43.30247,"lon":5.40082,"is_reserved":false,"is_disabled":false,"rental_uris":{"android":"levelo://app?vid=176dcfd2-aec3-43d9-b912-6ac77b35b27a","ios":"levelo://app?vid=176dcfd2-aec3-43d9-b912-6ac77b35b27a"},"vehicle_type_id":"4","last_reported":1693047875,"current_range_meters":29200,"station_id":"ce4bgvh2rcd13ifvqcs0","pricing_plan_id":"free"},{"bike_id":"88ad9f19-c5db-4223-a600-0e25e78bce9f","system_id":"levelo_inurba_marseille","lat":43.286039,"lon":5.370681,"is_reserved":false,"is_disabled":false,"rental_uris":{"android":"levelo://app?vid=88ad9f19-c5db-4223-a600-0e25e78bce9f","ios":"levelo://app?vid=88ad9f19-c5db-4223-a600-0e25e78bce9f"},"vehicle_type_id":"4","last_reported":1693047875,"current_range_meters":3200,"station_id":"ce4bht12rcd13ifvqi60","pricing_plan_id":"free"},{"bike_id":"0567be89-47a1-4da4-b94e-95024b98de9f","system_id":"levelo_inurba_marseille","lat":43.286039,"lon":5.370679,"is_reserved":false,"is_disabled":false,"rental_uris":{"android":"levelo://app?vid=0567be89-47a1-4da4-b94e-95024b98de9f","ios":"levelo://app?vid=0567be89-47a1-4da4-b94e-95024b98de9f"},"vehicle_type_id":"4","last_reported":1693047875,"current_range_meters":13600,"station_id":"ce4bht12rcd13ifvqi60","pricing_plan_id":"free"},{"bike_id":"e323f223-d063-439b-bd9a-0db16fba58b3","system_id":"levelo_inurba_marseille","lat":43.287184,"lon":5.37937,"is_reserved":false,"is_disabled":false,"rental_uris":{"android":"levelo://app?vid=e323f223-d063-439b-bd9a-0db16fba58b3","ios":"levelo://app?vid=e323f223-d063-439b-bd9a-0db16fba58b3"},"vehicle_type_id":"4","last_reported":1693047875,"current_range_meters":8400,"station_id":"ce4bh9p2rcd13ifvqec0","pricing_plan_id":"free"},{"bike_id":"a660c9a0-5d39-4dce-8e76-1c1ee1926189","system_id":"levelo_inurba_marseille","lat":43.31642,"lon":5.40428,"is_reserved":false,"is_disabled":false,"rental_uris":{"android":"levelo://app?vid=a660c9a0-5d39-4dce-8e76-1c1ee1926189","ios":"levelo://app?vid=a660c9a0-5d39-4dce-8e76-1c1ee1926189"},"vehicle_type_id":"4","last_reported":1693047875,"current_range_meters":19200,"station_id":"ce4bh012rcd13ifvqd00","pricing_plan_id":"free"},{"bike_id":"7da9e437-1e79-4b5f-9ab0-65254ac17dd7","system_id":"levelo_inurba_marseille","lat":43.31646,"lon":5.40436,"is_reserved":false,"is_disabled":false,"rental_uris":{"android":"levelo://app?vid=7da9e437-1e79-4b5f-9ab0-65254ac17dd7","ios":"levelo://app?vid=7da9e437-1e79-4b5f-9ab0-65254ac17dd7"},"vehicle_type_id":"4","last_reported":1693047875,"current_range_meters":13600,"station_id":"ce4bh012rcd13ifvqd00","pricing_plan_id":"free"},{"bike_id":"05663ff5-c893-42d5-a0ea-fea927df9803","system_id":"levelo_inurba_marseille","lat":43.31656,"lon":5.40438,"is_reserved":false,"is_disabled":false,"rental_uris":{"android":"levelo://app?vid=05663ff5-c893-42d5-a0ea-fea927df9803","ios":"levelo://app?vid=05663ff5-c893-42d5-a0ea-fea927df9803"},"vehicle_type_id":"4","last_reported":1693047875,"current_range_meters":8800,"station_id":"ce4bh012rcd13ifvqd00","pricing_plan_id":"free"},{"bike_id":"e6a453c8-5aae-4bb4-b022-577b52b6d19c","system_id":"levelo_inurba_marseille","lat":43.284538,"lon":5.358657,"is_reserved":false,"is_disabled":false,"rental_uris":{"android":"levelo://app?vid=e6a453c8-5aae-4bb4-b022-577b52b6d19c","ios":"levelo://app?vid=e6a453c8-5aae-4bb4-b022-577b52b6d19c"},"vehicle_type_id":"4","last_reported":1693047875,"current_range_meters":20400,"station_id":"ce4bhah2rcd13ifvqei0","pricing_plan_id":"free"},{"bike_id":"f2d8eaba-3d92-478e-b1ae-4afa03be882b","system_id":"levelo_inurba_marseille","lat":43.29446,"lon":5.39755,"is_reserved":false,"is_disabled":false,"rental_uris":{"android":"levelo://app?vid=f2d8eaba-3d92-478e-b1ae-4afa03be882b","ios":"levelo://app?vid=f2d8eaba-3d92-478e-b1ae-4afa03be882b"},"vehicle_type_id":"4","last_reported":1693047875,"current_range_meters":7200,"station_id":"ce4bh3h2rcd13ifvqdo0","pricing_plan_id":"free"},{"bike_id":"cc28b05c-4bb9-4639-8903-e27c06190da5","system_id":"levelo_inurba_marseille","lat":43.29455,"lon":5.39769,"is_reserved":false,"is_disabled":false,"rental_uris":{"android":"levelo://app?vid=cc28b05c-4bb9-4639-8903-e27c06190da5","ios":"levelo://app?vid=cc28b05c-4bb9-4639-8903-e27c06190da5"},"vehicle_type_id":"4","last_reported":1693047875,"current_range_meters":18400,"station_id":"ce4bh3h2rcd13ifvqdo0","pricing_plan_id":"free"},{"bike_id":"c45f0fff-3cbe-44f3-8ad5-23b70576265d","system_id":"levelo_inurba_marseille","lat":43.285856,"lon":5.350771,"is_reserved":false,"is_disabled":false,"rental_uris":{"android":"levelo://app?vid=c45f0fff-3cbe-44f3-8ad5-23b70576265d","ios":"levelo://app?vid=c45f0fff-3cbe-44f3-8ad5-23b70576265d"},"vehicle_type_id":"4","last_reported":1693047875,"current_range_meters":24400,"station_id":"ce4bhch2rcd13ifvqeug","pricing_plan_id":"free"},{"bike_id":"8e127cbc-e4cf-4756-9cc5-9d3837622726","system_id":"levelo_inurba_marseille","lat":43.2862,"lon":5.35104,"is_reserved":false,"is_disabled":false,"rental_uris":{"android":"levelo://app?vid=8e127cbc-e4cf-4756-9cc5-9d3837622726","ios":"levelo://app?vid=8e127cbc-e4cf-4756-9cc5-9d3837622726"},"vehicle_type_id":"4","last_reported":1693047875,"current_range_meters":25200,"station_id":"ce4bhch2rcd13ifvqeug","pricing_plan_id":"free"},{"bike_id":"088051a8-50b8-499c-8da5-aea8a87245e1","system_id":"levelo_inurba_marseille","lat":43.28618,"lon":5.35102,"is_reserved":false,"is_disabled":false,"rental_uris":{"android":"levelo://app?vid=088051a8-50b8-499c-8da5-aea8a87245e1","ios":"levelo://app?vid=088051a8-50b8-499c-8da5-aea8a87245e1"},"vehicle_type_id":"4","last_reported":1693047875,"current_range_meters":8000,"station_id":"ce4bhch2rcd13ifvqeug","pricing_plan_id":"free"},{"bike_id":"ce74f417-4c23-4d9b-b866-d182994c2c67","system_id":"levelo_inurba_marseille","lat":43.28617,"lon":5.35105,"is_reserved":false,"is_disabled":false,"rental_uris":{"android":"levelo://app?vid=ce74f417-4c23-4d9b-b866-d182994c2c67","ios":"levelo://app?vid=ce74f417-4c23-4d9b-b866-d182994c2c67"},"vehicle_type_id":"4","last_reported":1693047875,"current_range_meters":19200,"station_id":"ce4bhch2rcd13ifvqeug","pricing_plan_id":"free"},{"bike_id":"1ec88761-a20b-4bee-a5ba-58a3ab4ddf55","system_id":"levelo_inurba_marseille","lat":43.28618,"lon":5.35101,"is_reserved":false,"is_disabled":false,"rental_uris":{"android":"levelo://app?vid=1ec88761-a20b-4bee-a5ba-58a3ab4ddf55","ios":"levelo://app?vid=1ec88761-a20b-4bee-a5ba-58a3ab4ddf55"},"vehicle_type_id":"4","last_reported":1693047875,"current_range_meters":22000,"station_id":"ce4bhch2rcd13ifvqeug","pricing_plan_id":"free"},{"bike_id":"44620649-9952-49de-a7cf-5f922c15938f","system_id":"levelo_inurba_marseille","lat":43.285856,"lon":5.350771,"is_reserved":false,"is_disabled":false,"rental_uris":{"android":"levelo://app?vid=44620649-9952-49de-a7cf-5f922c15938f","ios":"levelo://app?vid=44620649-9952-49de-a7cf-5f922c15938f"},"vehicle_type_id":"4","last_reported":1693047875,"current_range_meters":28000,"station_id":"ce4bhch2rcd13ifvqeug","pricing_plan_id":"free"},{"bike_id":"f15d4327-7a4b-425e-bc76-884c2ca0ab98","system_id":"levelo_inurba_marseille","lat":43.285856,"lon":5.350771,"is_reserved":false,"is_disabled":false,"rental_uris":{"android":"levelo://app?vid=f15d4327-7a4b-425e-bc76-884c2ca0ab98","ios":"levelo://app?vid=f15d4327-7a4b-425e-bc76-884c2ca0ab98"},"vehicle_type_id":"4","last_reported":1693047875,"current_range_meters":13600,"station_id":"ce4bhch2rcd13ifvqeug","pricing_plan_id":"free"},{"bike_id":"13c38911-dea6-4472-8748-c19ed0fd75e5","system_id":"levelo_inurba_marseille","lat":43.28613,"lon":5.35099,"is_reserved":false,"is_disabled":false,"rental_uris":{"android":"levelo://app?vid=13c38911-dea6-4472-8748-c19ed0fd75e5","ios":"levelo://app?vid=13c38911-dea6-4472-8748-c19ed0fd75e5"},"vehicle_type_id":"4","last_reported":1693047875,"current_range_meters":3200,"station_id":"ce4bhch2rcd13ifvqeug","pricing_plan_id":"free"},{"bike_id":"217bb5de-ff4f-4f52-815a-b930dffb0478","system_id":"levelo_inurba_marseille","lat":43.2861,"lon":5.35103,"is_reserved":false,"is_disabled":false,"rental_uris":{"android":"levelo://app?vid=217bb5de-ff4f-4f52-815a-b930dffb0478","ios":"levelo://app?vid=217bb5de-ff4f-4f52-815a-b930dffb0478"},"vehicle_type_id":"4","last_reported":1693047875,"current_range_meters":8800,"station_id":"ce4bhch2rcd13ifvqeug","pricing_plan_id":"free"},{"bike_id":"2363d3b5-6c15-401a-a59c-ee80bd4af927","system_id":"levelo_inurba_marseille","lat":43.28415,"lon":5.37522,"is_reserved":false,"is_disabled":false,"rental_uris":{"android":"levelo://app?vid=2363d3b5-6c15-401a-a59c-ee80bd4af927","ios":"levelo://app?vid=2363d3b5-6c15-401a-a59c-ee80bd4af927"},"vehicle_type_id":"4","last_reported":1693047875,"current_range_meters":0,"station_id":"ce4bh412rcd13ifvqds0","pricing_plan_id":"free"},{"bike_id":"b1b079ba-598e-4040-829f-41e6be0d66e5","system_id":"levelo_inurba_marseille","lat":43.295713,"lon":5.399639,"is_reserved":false,"is_disabled":false,"rental_uris":{"android":"levelo://app?vid=b1b079ba-598e-4040-829f-41e6be0d66e5","ios":"levelo://app?vid=b1b079ba-598e-4040-829f-41e6be0d66e5"},"vehicle_type_id":"4","last_reported":1693047875,"current_range_meters":8400,"station_id":"ce4bh312rcd13ifvqdj0","pricing_plan_id":"free"},{"bike_id":"f8cb7ce8-6006-47bb-99ce-927c308dcbbb","system_id":"levelo_inurba_marseille","lat":43.295713,"lon":5.399639,"is_reserved":false,"is_disabled":false,"rental_uris":{"android":"levelo://app?vid=f8cb7ce8-6006-47bb-99ce-927c308dcbbb","ios":"levelo://app?vid=f8cb7ce8-6006-47bb-99ce-927c308dcbbb"},"vehicle_type_id":"4","last_reported":1693047875,"current_range_meters":24400,"station_id":"ce4bh312rcd13ifvqdj0","pricing_plan_id":"free"},{"bike_id":"bbe9ea26-c31d-422d-b7a7-6a5833caa177","system_id":"levelo_inurba_marseille","lat":43.286805,"lon":5.386633,"is_reserved":false,"is_disabled":false,"rental_uris":{"android":"levelo://app?vid=bbe9ea26-c31d-422d-b7a7-6a5833caa177","ios":"levelo://app?vid=bbe9ea26-c31d-422d-b7a7-6a5833caa177"},"vehicle_type_id":"4","last_reported":1693047875,"current_range_meters":24000,"station_id":"","pricing_plan_id":"free"},{"bike_id":"ed802e91-6438-450a-b49e-d58ddc050e51","system_id":"levelo_inurba_marseille","lat":43.286595,"lon":5.386795,"is_reserved":false,"is_disabled":false,"rental_uris":{"android":"levelo://app?vid=ed802e91-6438-450a-b49e-d58ddc050e51","ios":"levelo://app?vid=ed802e91-6438-450a-b49e-d58ddc050e51"},"vehicle_type_id":"4","last_reported":1693047875,"current_range_meters":24400,"station_id":"ce4bh492rcd13ifvqdug","pricing_plan_id":"free"},{"bike_id":"fbafa583-df2f-4beb-bbab-161640a3afd5","system_id":"levelo_inurba_marseille","lat":43.33718,"lon":5.39177,"is_reserved":false,"is_disabled":false,"rental_uris":{"android":"levelo://app?vid=fbafa583-df2f-4beb-bbab-161640a3afd5","ios":"levelo://app?vid=fbafa583-df2f-4beb-bbab-161640a3afd5"},"vehicle_type_id":"4","last_reported":1693047875,"current_range_meters":16000,"station_id":"ce4bhr92rcd13ifvqhsg","pricing_plan_id":"free"},{"bike_id":"180b8d82-e769-43df-afb4-0eaef17259b0","system_id":"levelo_inurba_marseille","lat":43.33719,"lon":5.39179,"is_reserved":false,"is_disabled":false,"rental_uris":{"android":"levelo://app?vid=180b8d82-e769-43df-afb4-0eaef17259b0","ios":"levelo://app?vid=180b8d82-e769-43df-afb4-0eaef17259b0"},"vehicle_type_id":"4","last_reported":1693047875,"current_range_meters":18000,"station_id":"ce4bhr92rcd13ifvqhsg","pricing_plan_id":"free"},{"bike_id":"261eaadf-6347-42f2-b9c2-72bd0b4a7c63","system_id":"levelo_inurba_marseille","lat":43.337168,"lon":5.391825,"is_reserved":false,"is_disabled":false,"rental_uris":{"android":"levelo://app?vid=261eaadf-6347-42f2-b9c2-72bd0b4a7c63","ios":"levelo://app?vid=261eaadf-6347-42f2-b9c2-72bd0b4a7c63"},"vehicle_type_id":"4","last_reported":1693047875,"current_range_meters":30800,"station_id":"ce4bhr92rcd13ifvqhsg","pricing_plan_id":"free"},{"bike_id":"62456cc1-e569-4b64-8586-a8c45ea5695c","system_id":"levelo_inurba_marseille","lat":43.337202,"lon":5.391822,"is_reserved":false,"is_disabled":false,"rental_uris":{"android":"levelo://app?vid=62456cc1-e569-4b64-8586-a8c45ea5695c","ios":"levelo://app?vid=62456cc1-e569-4b64-8586-a8c45ea5695c"},"vehicle_type_id":"4","last_reported":1693047875,"current_range_meters":26800,"station_id":"","pricing_plan_id":"free"},{"bike_id":"531d6e23-0278-4a54-a610-21397a86f1a4","system_id":"levelo_inurba_marseille","lat":43.337168,"lon":5.391825,"is_reserved":false,"is_disabled":false,"rental_uris":{"android":"levelo://app?vid=531d6e23-0278-4a54-a610-21397a86f1a4","ios":"levelo://app?vid=531d6e23-0278-4a54-a610-21397a86f1a4"},"vehicle_type_id":"4","last_reported":1693047875,"current_range_meters":25600,"station_id":"ce4bhr92rcd13ifvqhsg","pricing_plan_id":"free"},{"bike_id":"7e4b49c2-f4de-4644-9176-19b326f1db26","system_id":"levelo_inurba_marseille","lat":43.337168,"lon":5.391825,"is_reserved":false,"is_disabled":false,"rental_uris":{"android":"levelo://app?vid=7e4b49c2-f4de-4644-9176-19b326f1db26","ios":"levelo://app?vid=7e4b49c2-f4de-4644-9176-19b326f1db26"},"vehicle_type_id":"4","last_reported":1693047875,"current_range_meters":24800,"station_id":"ce4bhr92rcd13ifvqhsg","pricing_plan_id":"free"},{"bike_id":"cb01a8a3-0d33-478d-bbe8-f8f6720769cc","system_id":"levelo_inurba_marseille","lat":43.33724,"lon":5.39185,"is_reserved":false,"is_disabled":false,"rental_uris":{"android":"levelo://app?vid=cb01a8a3-0d33-478d-bbe8-f8f6720769cc","ios":"levelo://app?vid=cb01a8a3-0d33-478d-bbe8-f8f6720769cc"},"vehicle_type_id":"4","last_reported":1693047875,"current_range_meters":23600,"station_id":"ce4bhr92rcd13ifvqhsg","pricing_plan_id":"free"},{"bike_id":"b9178fa1-3d9f-472a-a834-0e7c633bb4af","system_id":"levelo_inurba_marseille","lat":43.337168,"lon":5.391825,"is_reserved":false,"is_disabled":false,"rental_uris":{"android":"levelo://app?vid=b9178fa1-3d9f-472a-a834-0e7c633bb4af","ios":"levelo://app?vid=b9178fa1-3d9f-472a-a834-0e7c633bb4af"},"vehicle_type_id":"4","last_reported":1693047875,"current_range_meters":11600,"station_id":"ce4bhr92rcd13ifvqhsg","pricing_plan_id":"free"},{"bike_id":"414290bd-353b-41b2-bd9a-1d3c2c5739df","system_id":"levelo_inurba_marseille","lat":43.284793,"lon":5.384113,"is_reserved":false,"is_disabled":false,"rental_uris":{"android":"levelo://app?vid=414290bd-353b-41b2-bd9a-1d3c2c5739df","ios":"levelo://app?vid=414290bd-353b-41b2-bd9a-1d3c2c5739df"},"vehicle_type_id":"4","last_reported":1693047875,"current_range_meters":30000,"station_id":"ce4bh512rcd13ifvqe3g","pricing_plan_id":"free"},{"bike_id":"81207e02-e329-4cea-9b6c-33ba9c0267d2","system_id":"levelo_inurba_marseille","lat":43.284787,"lon":5.384116,"is_reserved":false,"is_disabled":false,"rental_uris":{"android":"levelo://app?vid=81207e02-e329-4cea-9b6c-33ba9c0267d2","ios":"levelo://app?vid=81207e02-e329-4cea-9b6c-33ba9c0267d2"},"vehicle_type_id":"4","last_reported":1693047875,"current_range_meters":31200,"station_id":"ce4bh512rcd13ifvqe3g","pricing_plan_id":"free"},{"bike_id":"41dd483c-d80d-4777-a33b-ff049ddd67d7","system_id":"levelo_inurba_marseille","lat":43.284793,"lon":5.384119,"is_reserved":false,"is_disabled":false,"rental_uris":{"android":"levelo://app?vid=41dd483c-d80d-4777-a33b-ff049ddd67d7","ios":"levelo://app?vid=41dd483c-d80d-4777-a33b-ff049ddd67d7"},"vehicle_type_id":"4","last_reported":1693047875,"current_range_meters":27600,"station_id":"ce4bh512rcd13ifvqe3g","pricing_plan_id":"free"},{"bike_id":"4a7b08c0-d98e-4bb8-a78f-27dd2bde6883","system_id":"levelo_inurba_marseille","lat":43.288497,"lon":5.393089,"is_reserved":false,"is_disabled":false,"rental_uris":{"android":"levelo://app?vid=4a7b08c0-d98e-4bb8-a78f-27dd2bde6883","ios":"levelo://app?vid=4a7b08c0-d98e-4bb8-a78f-27dd2bde6883"},"vehicle_type_id":"4","last_reported":1693047875,"current_range_meters":7600,"station_id":"ce4bh2p2rcd13ifvqdi0","pricing_plan_id":"free"},{"bike_id":"8f1bb7ca-fcdd-4904-84f5-ac3f2d2671e6","system_id":"levelo_inurba_marseille","lat":43.32549,"lon":5.40548,"is_reserved":false,"is_disabled":false,"rental_uris":{"android":"levelo://app?vid=8f1bb7ca-fcdd-4904-84f5-ac3f2d2671e6","ios":"levelo://app?vid=8f1bb7ca-fcdd-4904-84f5-ac3f2d2671e6"},"vehicle_type_id":"4","last_reported":1693047875,"current_range_meters":7200,"station_id":"","pricing_plan_id":"free"},{"bike_id":"5a443bd5-876f-468e-8a1b-17472202dcf3","system_id":"levelo_inurba_marseille","lat":43.29795,"lon":5.404086,"is_reserved":false,"is_disabled":false,"rental_uris":{"android":"levelo://app?vid=5a443bd5-876f-468e-8a1b-17472202dcf3","ios":"levelo://app?vid=5a443bd5-876f-468e-8a1b-17472202dcf3"},"vehicle_type_id":"4","last_reported":1693047875,"current_range_meters":5200,"station_id":"ce4bh112rcd13ifvqd90","pricing_plan_id":"free"},{"bike_id":"5ea04bc7-19e6-4506-9587-a6b7f0236886","system_id":"levelo_inurba_marseille","lat":43.28856,"lon":5.3933,"is_reserved":false,"is_disabled":false,"rental_uris":{"android":"levelo://app?vid=5ea04bc7-19e6-4506-9587-a6b7f0236886","ios":"levelo://app?vid=5ea04bc7-19e6-4506-9587-a6b7f0236886"},"vehicle_type_id":"4","last_reported":1693047875,"current_range_meters":22000,"station_id":"","pricing_plan_id":"free"},{"bike_id":"0b164d58-4528-4145-9b64-d1fc9787ba5a","system_id":"levelo_inurba_marseille","lat":43.284219,"lon":5.3497,"is_reserved":false,"is_disabled":false,"rental_uris":{"android":"levelo://app?vid=0b164d58-4528-4145-9b64-d1fc9787ba5a","ios":"levelo://app?vid=0b164d58-4528-4145-9b64-d1fc9787ba5a"},"vehicle_type_id":"4","last_reported":1693047875,"current_range_meters":32000,"station_id":"ce4bhbh2rcd13ifvqepg","pricing_plan_id":"free"},{"bike_id":"e69ca5da-710c-47d4-85b8-7934bc769c29","system_id":"levelo_inurba_marseille","lat":43.284219,"lon":5.3497,"is_reserved":false,"is_disabled":false,"rental_uris":{"android":"levelo://app?vid=e69ca5da-710c-47d4-85b8-7934bc769c29","ios":"levelo://app?vid=e69ca5da-710c-47d4-85b8-7934bc769c29"},"vehicle_type_id":"4","last_reported":1693047875,"current_range_meters":9200,"station_id":"ce4bhbh2rcd13ifvqepg","pricing_plan_id":"free"},{"bike_id":"d2f55048-2148-4894-9c84-b00f7ea80f20","system_id":"levelo_inurba_marseille","lat":43.284219,"lon":5.3497,"is_reserved":false,"is_disabled":false,"rental_uris":{"android":"levelo://app?vid=d2f55048-2148-4894-9c84-b00f7ea80f20","ios":"levelo://app?vid=d2f55048-2148-4894-9c84-b00f7ea80f20"},"vehicle_type_id":"4","last_reported":1693047875,"current_range_meters":30400,"station_id":"ce4bhbh2rcd13ifvqepg","pricing_plan_id":"free"},{"bike_id":"b06bf0d8-c6ae-4a65-bd28-67e12bb84c99","system_id":"levelo_inurba_marseille","lat":43.284219,"lon":5.3497,"is_reserved":false,"is_disabled":false,"rental_uris":{"android":"levelo://app?vid=b06bf0d8-c6ae-4a65-bd28-67e12bb84c99","ios":"levelo://app?vid=b06bf0d8-c6ae-4a65-bd28-67e12bb84c99"},"vehicle_type_id":"4","last_reported":1693047875,"current_range_meters":31600,"station_id":"ce4bhbh2rcd13ifvqepg","pricing_plan_id":"free"},{"bike_id":"822b00ef-b660-4af0-97f2-62ef4bfe71c7","system_id":"levelo_inurba_marseille","lat":43.284219,"lon":5.3497,"is_reserved":false,"is_disabled":false,"rental_uris":{"android":"levelo://app?vid=822b00ef-b660-4af0-97f2-62ef4bfe71c7","ios":"levelo://app?vid=822b00ef-b660-4af0-97f2-62ef4bfe71c7"},"vehicle_type_id":"4","last_reported":1693047875,"current_range_meters":20800,"station_id":"ce4bhbh2rcd13ifvqepg","pricing_plan_id":"free"},{"bike_id":"a5ba01a7-ebb3-46dd-abed-3fc647e56acc","system_id":"levelo_inurba_marseille","lat":43.284217,"lon":5.349697,"is_reserved":false,"is_disabled":false,"rental_uris":{"android":"levelo://app?vid=a5ba01a7-ebb3-46dd-abed-3fc647e56acc","ios":"levelo://app?vid=a5ba01a7-ebb3-46dd-abed-3fc647e56acc"},"vehicle_type_id":"4","last_reported":1693047875,"current_range_meters":26800,"station_id":"ce4bhbh2rcd13ifvqepg","pricing_plan_id":"free"},{"bike_id":"686dd8fe-0539-4be4-bc87-72c81b11017a","system_id":"levelo_inurba_marseille","lat":43.284219,"lon":5.3497,"is_reserved":false,"is_disabled":false,"rental_uris":{"android":"levelo://app?vid=686dd8fe-0539-4be4-bc87-72c81b11017a","ios":"levelo://app?vid=686dd8fe-0539-4be4-bc87-72c81b11017a"},"vehicle_type_id":"4","last_reported":1693047875,"current_range_meters":22800,"station_id":"ce4bhbh2rcd13ifvqepg","pricing_plan_id":"free"},{"bike_id":"4c5855a0-2062-4c2f-8de9-9e5459bafa05","system_id":"levelo_inurba_marseille","lat":43.284219,"lon":5.3497,"is_reserved":false,"is_disabled":false,"rental_uris":{"android":"levelo://app?vid=4c5855a0-2062-4c2f-8de9-9e5459bafa05","ios":"levelo://app?vid=4c5855a0-2062-4c2f-8de9-9e5459bafa05"},"vehicle_type_id":"4","last_reported":1693047875,"current_range_meters":15600,"station_id":"ce4bhbh2rcd13ifvqepg","pricing_plan_id":"free"},{"bike_id":"965ddd57-c85f-4a1a-9a88-a7320dcebcc9","system_id":"levelo_inurba_marseille","lat":43.284219,"lon":5.3497,"is_reserved":false,"is_disabled":false,"rental_uris":{"android":"levelo://app?vid=965ddd57-c85f-4a1a-9a88-a7320dcebcc9","ios":"levelo://app?vid=965ddd57-c85f-4a1a-9a88-a7320dcebcc9"},"vehicle_type_id":"4","last_reported":1693047875,"current_range_meters":21200,"station_id":"ce4bhbh2rcd13ifvqepg","pricing_plan_id":"free"},{"bike_id":"bd4fca13-0f76-43ad-ae01-cf3d631490f1","system_id":"levelo_inurba_marseille","lat":43.28429,"lon":5.34975,"is_reserved":false,"is_disabled":false,"rental_uris":{"android":"levelo://app?vid=bd4fca13-0f76-43ad-ae01-cf3d631490f1","ios":"levelo://app?vid=bd4fca13-0f76-43ad-ae01-cf3d631490f1"},"vehicle_type_id":"4","last_reported":1693047875,"current_range_meters":22400,"station_id":"ce4bhbh2rcd13ifvqepg","pricing_plan_id":"free"},{"bike_id":"e83f6f76-c4d3-45cd-b98e-63de94248f56","system_id":"levelo_inurba_marseille","lat":43.284219,"lon":5.3497,"is_reserved":false,"is_disabled":false,"rental_uris":{"android":"levelo://app?vid=e83f6f76-c4d3-45cd-b98e-63de94248f56","ios":"levelo://app?vid=e83f6f76-c4d3-45cd-b98e-63de94248f56"},"vehicle_type_id":"4","last_reported":1693047875,"current_range_meters":0,"station_id":"ce4bhbh2rcd13ifvqepg","pricing_plan_id":"free"},{"bike_id":"5c7ef4f2-0aa9-435a-aaf1-035201ad6621","system_id":"levelo_inurba_marseille","lat":43.28425,"lon":5.34984,"is_reserved":false,"is_disabled":false,"rental_uris":{"android":"levelo://app?vid=5c7ef4f2-0aa9-435a-aaf1-035201ad6621","ios":"levelo://app?vid=5c7ef4f2-0aa9-435a-aaf1-035201ad6621"},"vehicle_type_id":"4","last_reported":1693047875,"current_range_meters":8400,"station_id":"ce4bhbh2rcd13ifvqepg","pricing_plan_id":"free"},{"bike_id":"4c8e5593-47a1-4c6e-b5e7-c04d5a1dd964","system_id":"levelo_inurba_marseille","lat":43.284219,"lon":5.3497,"is_reserved":false,"is_disabled":false,"rental_uris":{"android":"levelo://app?vid=4c8e5593-47a1-4c6e-b5e7-c04d5a1dd964","ios":"levelo://app?vid=4c8e5593-47a1-4c6e-b5e7-c04d5a1dd964"},"vehicle_type_id":"4","last_reported":1693047875,"current_range_meters":28000,"station_id":"ce4bhbh2rcd13ifvqepg","pricing_plan_id":"free"},{"bike_id":"2651e694-13b2-4573-bcde-e9c44d7cf289","system_id":"levelo_inurba_marseille","lat":43.2842,"lon":5.34995,"is_reserved":false,"is_disabled":false,"rental_uris":{"android":"levelo://app?vid=2651e694-13b2-4573-bcde-e9c44d7cf289","ios":"levelo://app?vid=2651e694-13b2-4573-bcde-e9c44d7cf289"},"vehicle_type_id":"4","last_reported":1693047875,"current_range_meters":22000,"station_id":"ce4bhbh2rcd13ifvqepg","pricing_plan_id":"free"},{"bike_id":"124797f3-6b8d-4c4d-a93f-52441d51a049","system_id":"levelo_inurba_marseille","lat":43.284219,"lon":5.3497,"is_reserved":false,"is_disabled":false,"rental_uris":{"android":"levelo://app?vid=124797f3-6b8d-4c4d-a93f-52441d51a049","ios":"levelo://app?vid=124797f3-6b8d-4c4d-a93f-52441d51a049"},"vehicle_type_id":"4","last_reported":1693047875,"current_range_meters":20800,"station_id":"ce4bhbh2rcd13ifvqepg","pricing_plan_id":"free"},{"bike_id":"da9dc679-b4b3-4dab-9582-03800c105784","system_id":"levelo_inurba_marseille","lat":43.2842,"lon":5.34977,"is_reserved":false,"is_disabled":false,"rental_uris":{"android":"levelo://app?vid=da9dc679-b4b3-4dab-9582-03800c105784","ios":"levelo://app?vid=da9dc679-b4b3-4dab-9582-03800c105784"},"vehicle_type_id":"4","last_reported":1693047875,"current_range_meters":19200,"station_id":"ce4bhbh2rcd13ifvqepg","pricing_plan_id":"free"},{"bike_id":"b1fd103e-a6c8-46f4-ad8e-28f7d93c20b2","system_id":"levelo_inurba_marseille","lat":43.28417,"lon":5.34986,"is_reserved":false,"is_disabled":false,"rental_uris":{"android":"levelo://app?vid=b1fd103e-a6c8-46f4-ad8e-28f7d93c20b2","ios":"levelo://app?vid=b1fd103e-a6c8-46f4-ad8e-28f7d93c20b2"},"vehicle_type_id":"4","last_reported":1693047875,"current_range_meters":29200,"station_id":"ce4bhbh2rcd13ifvqepg","pricing_plan_id":"free"},{"bike_id":"64d3c53c-947e-4e78-9403-8a193edce984","system_id":"levelo_inurba_marseille","lat":43.28417,"lon":5.3498,"is_reserved":false,"is_disabled":false,"rental_uris":{"android":"levelo://app?vid=64d3c53c-947e-4e78-9403-8a193edce984","ios":"levelo://app?vid=64d3c53c-947e-4e78-9403-8a193edce984"},"vehicle_type_id":"4","last_reported":1693047875,"current_range_meters":0,"station_id":"ce4bhbh2rcd13ifvqepg","pricing_plan_id":"free"},{"bike_id":"4910e0b5-8929-4cae-833d-990a0eae743f","system_id":"levelo_inurba_marseille","lat":43.28417,"lon":5.34979,"is_reserved":false,"is_disabled":false,"rental_uris":{"android":"levelo://app?vid=4910e0b5-8929-4cae-833d-990a0eae743f","ios":"levelo://app?vid=4910e0b5-8929-4cae-833d-990a0eae743f"},"vehicle_type_id":"4","last_reported":1693047875,"current_range_meters":22000,"station_id":"ce4bhbh2rcd13ifvqepg","pricing_plan_id":"free"},{"bike_id":"4faf0224-da6e-45de-bbcd-b0b7cf9a062e","system_id":"levelo_inurba_marseille","lat":43.284219,"lon":5.3497,"is_reserved":false,"is_disabled":false,"rental_uris":{"android":"levelo://app?vid=4faf0224-da6e-45de-bbcd-b0b7cf9a062e","ios":"levelo://app?vid=4faf0224-da6e-45de-bbcd-b0b7cf9a062e"},"vehicle_type_id":"4","last_reported":1693047875,"current_range_meters":32000,"station_id":"ce4bhbh2rcd13ifvqepg","pricing_plan_id":"free"},{"bike_id":"847d98b0-595a-4b2e-acfc-bee8ee7b0fb6","system_id":"levelo_inurba_marseille","lat":43.28415,"lon":5.34981,"is_reserved":false,"is_disabled":false,"rental_uris":{"android":"levelo://app?vid=847d98b0-595a-4b2e-acfc-bee8ee7b0fb6","ios":"levelo://app?vid=847d98b0-595a-4b2e-acfc-bee8ee7b0fb6"},"vehicle_type_id":"4","last_reported":1693047875,"current_range_meters":20400,"station_id":"ce4bhbh2rcd13ifvqepg","pricing_plan_id":"free"},{"bike_id":"9597f5e3-e206-48bb-b3b9-d82dd810cca2","system_id":"levelo_inurba_marseille","lat":43.284217,"lon":5.349697,"is_reserved":false,"is_disabled":false,"rental_uris":{"android":"levelo://app?vid=9597f5e3-e206-48bb-b3b9-d82dd810cca2","ios":"levelo://app?vid=9597f5e3-e206-48bb-b3b9-d82dd810cca2"},"vehicle_type_id":"4","last_reported":1693047875,"current_range_meters":25600,"station_id":"ce4bhbh2rcd13ifvqepg","pricing_plan_id":"free"},{"bike_id":"f50aca5f-cf5b-4020-925f-826a2e34874f","system_id":"levelo_inurba_marseille","lat":43.289363,"lon":5.396322,"is_reserved":false,"is_disabled":false,"rental_uris":{"android":"levelo://app?vid=f50aca5f-cf5b-4020-925f-826a2e34874f","ios":"levelo://app?vid=f50aca5f-cf5b-4020-925f-826a2e34874f"},"vehicle_type_id":"4","last_reported":1693047875,"current_range_meters":30400,"station_id":"ce4bh3h2rcd13ifvqdn0","pricing_plan_id":"free"},{"bike_id":"1781c7f0-92b9-4402-bdb4-cda5cbe741e8","system_id":"levelo_inurba_marseille","lat":43.2828,"lon":5.35075,"is_reserved":false,"is_disabled":false,"rental_uris":{"android":"levelo://app?vid=1781c7f0-92b9-4402-bdb4-cda5cbe741e8","ios":"levelo://app?vid=1781c7f0-92b9-4402-bdb4-cda5cbe741e8"},"vehicle_type_id":"4","last_reported":1693047875,"current_range_meters":6000,"station_id":"ce4bhbp2rcd13ifvqerg","pricing_plan_id":"free"},{"bike_id":"662908d3-e5a2-474c-993f-36cf9283b7e5","system_id":"levelo_inurba_marseille","lat":43.28281,"lon":5.35065,"is_reserved":false,"is_disabled":false,"rental_uris":{"android":"levelo://app?vid=662908d3-e5a2-474c-993f-36cf9283b7e5","ios":"levelo://app?vid=662908d3-e5a2-474c-993f-36cf9283b7e5"},"vehicle_type_id":"4","last_reported":1693047875,"current_range_meters":13600,"station_id":"ce4bhbp2rcd13ifvqerg","pricing_plan_id":"free"},{"bike_id":"d1840188-213e-4c45-a47b-b4482824f171","system_id":"levelo_inurba_marseille","lat":43.2828,"lon":5.35066,"is_reserved":false,"is_disabled":false,"rental_uris":{"android":"levelo://app?vid=d1840188-213e-4c45-a47b-b4482824f171","ios":"levelo://app?vid=d1840188-213e-4c45-a47b-b4482824f171"},"vehicle_type_id":"4","last_reported":1693047875,"current_range_meters":28000,"station_id":"ce4bhbp2rcd13ifvqerg","pricing_plan_id":"free"},{"bike_id":"3fde4bc7-9a09-4990-b374-f22e869673b5","system_id":"levelo_inurba_marseille","lat":43.28277,"lon":5.35061,"is_reserved":false,"is_disabled":false,"rental_uris":{"android":"levelo://app?vid=3fde4bc7-9a09-4990-b374-f22e869673b5","ios":"levelo://app?vid=3fde4bc7-9a09-4990-b374-f22e869673b5"},"vehicle_type_id":"4","last_reported":1693047875,"current_range_meters":12800,"station_id":"ce4bhbp2rcd13ifvqerg","pricing_plan_id":"free"},{"bike_id":"ebde3c00-5c9b-463d-97e7-01ac4cf88474","system_id":"levelo_inurba_marseille","lat":43.28277,"lon":5.35058,"is_reserved":false,"is_disabled":false,"rental_uris":{"android":"levelo://app?vid=ebde3c00-5c9b-463d-97e7-01ac4cf88474","ios":"levelo://app?vid=ebde3c00-5c9b-463d-97e7-01ac4cf88474"},"vehicle_type_id":"4","last_reported":1693047875,"current_range_meters":16800,"station_id":"","pricing_plan_id":"free"},{"bike_id":"8c8a30c2-0431-494b-820c-0375a8949590","system_id":"levelo_inurba_marseille","lat":43.283502,"lon":5.386471,"is_reserved":false,"is_disabled":false,"rental_uris":{"android":"levelo://app?vid=8c8a30c2-0431-494b-820c-0375a8949590","ios":"levelo://app?vid=8c8a30c2-0431-494b-820c-0375a8949590"},"vehicle_type_id":"4","last_reported":1693047875,"current_range_meters":10400,"station_id":"ce4bh492rcd13ifvqdvg","pricing_plan_id":"free"},{"bike_id":"256abd91-e965-46c3-8588-c73f6a739f39","system_id":"levelo_inurba_marseille","lat":43.283502,"lon":5.386471,"is_reserved":false,"is_disabled":false,"rental_uris":{"android":"levelo://app?vid=256abd91-e965-46c3-8588-c73f6a739f39","ios":"levelo://app?vid=256abd91-e965-46c3-8588-c73f6a739f39"},"vehicle_type_id":"4","last_reported":1693047875,"current_range_meters":28000,"station_id":"ce4bh492rcd13ifvqdvg","pricing_plan_id":"free"},{"bike_id":"74c33e45-ff9a-4c80-a021-bfd2d5550bcb","system_id":"levelo_inurba_marseille","lat":43.282744,"lon":5.350533,"is_reserved":false,"is_disabled":false,"rental_uris":{"android":"levelo://app?vid=74c33e45-ff9a-4c80-a021-bfd2d5550bcb","ios":"levelo://app?vid=74c33e45-ff9a-4c80-a021-bfd2d5550bcb"},"vehicle_type_id":"4","last_reported":1693047875,"current_range_meters":30400,"station_id":"ce4bhbp2rcd13ifvqerg","pricing_plan_id":"free"},{"bike_id":"9eecdd84-04c8-4f68-a087-2888c83ee6b0","system_id":"levelo_inurba_marseille","lat":43.282754,"lon":5.350519,"is_reserved":false,"is_disabled":false,"rental_uris":{"android":"levelo://app?vid=9eecdd84-04c8-4f68-a087-2888c83ee6b0","ios":"levelo://app?vid=9eecdd84-04c8-4f68-a087-2888c83ee6b0"},"vehicle_type_id":"4","last_reported":1693047875,"current_range_meters":31600,"station_id":"ce4bhbp2rcd13ifvqerg","pricing_plan_id":"free"},