{"last_updated":1727547067,"ttl":60,"version":"2.2","data":{"bikes":[{"bike_id":"2713031b-7879-48ff-8abe-6c9306427eba","system_id":"levelo_inurba_marseille","lat":43.31848,"lon":5.40492,"is_reserved":false,"is_disabled":false,"rental_uris":{"android":"levelo://app?vid=2713031b-7879-48ff-8abe-6c9306427eba","ios":"levelo://app?vid=2713031b-7879-48ff-8abe-6c9306427eba"},"vehicle_type_id":"4","last_reported":1727547067,"current_range_meters":8000,"station_id":"ce4bhq12rcd13ifvqhig","pricing_plan_id":"cebpf4jnsgd1na2vs0mg"},{"bike_id":"409f8e56-7b05-4fc8-983d-fadc6468525f","system_id":"levelo_inurba_marseille","lat":43.28428,"lon":5.39199,"is_reserved":false,"is_disabled":false,"rental_uris":{"android":"levelo://app?vid=409f8e56-7b05-4fc8-983d-fadc6468525f","ios":"levelo://app?vid=409f8e56-7b05-4fc8-983d-fadc6468525f"},"vehicle_type_id":"4","last_reported":1727547067,"current_range_meters":38800,"station_id":"ce4bhoh2rcd13ifvqh5g","pricing_plan_id":"cebpf4jnsgd1na2vs0mg"},{"bike_id":"41a31b5d-5f5a-490e-8f33-49b7cd14caa7","system_id":"levelo_inurba_marseille","lat":43.28149,"lon":5.42635,"is_reserved":false,"is_disabled":false,"rental_uris":{"android":"levelo://app?vid=41a31b5d-5f5a-490e-8f33-49b7cd14caa7","ios":"levelo://app?vid=41a31b5d-5f5a-490e-8f33-49b7cd14caa7"},"vehicle_type_id":"4","last_reported":1727547067,"current_range_meters":27200,"station_id":"ce4bhnh2rcd13ifvqgug","pricing_plan_id":"cebpf4jnsgd1na2vs0mg"},{"bike_id":"acf0da7d-e6b3-48a2-8905-5de8bc3b795a","system_id":"levelo_inurba_marseille","lat":43.31995,"lon":5.38167,"is_reserved":false,"is_disabled":false,"rental_uris":{"android":"levelo://app?vid=acf0da7d-e6b3-48a2-8905-5de8bc3b795a","ios":"levelo://app?vid=acf0da7d-e6b3-48a2-8905-5de8bc3b795a"},"vehicle_type_id":"4","last_reported":1727547067,"current_range_meters":12400,"station_id":"ce4bhr12rcd13ifvqhpg","pricing_plan_id":"cebpf4jnsgd1na2vs0mg"},{"bike_id":"0ea9e4c4-cc08-41d9-862d-a80f7d54740c","system_id":"levelo_inurba_marseille","lat":43.32287,"lon":5.38278,"is_reserved":false,"is_disabled":false,"rental_uris":{"android":"levelo://app?vid=0ea9e4c4-cc08-41d9-862d-a80f7d54740c","ios":"levelo://app?vid=0ea9e4c4-cc08-41d9-862d-a80f7d54740c"},"vehicle_type_id":"4","last_reported":1727547067,"current_range_meters":38800,"station_id":"ce4bhr12rcd13ifvqhqg","pricing_plan_id":"cebpf4jnsgd1na2vs0mg"},{"bike_id":"00f912a4-3792-4d5b-9b46-0b7324d3a417","system_id":"levelo_inurba_marseille","lat":43.2694,"lon":5.40265,"is_reserved":false,"is_disabled":false,"rental_uris":{"android":"levelo://app?vid=00f912a4-3792-4d5b-9b46-0b7324d3a417","ios":"levelo://app?vid=00f912a4-3792-4d5b-9b46-0b7324d3a417"},"vehicle_type_id":"4","last_reported":1727547067,"current_range_meters":25600,"station_id":"cjm6bp8fraef2m0cb0m0","pricing_plan_id":"cebpf4jnsgd1na2vs0mg"},{"bike_id":"10496950-ed5f-408b-ae51-07c02168af07","system_id":"levelo_inurba_marseille","lat":43.25006,"lon":5.38915,"is_reserved":false,"is_disabled":false,"rental_uris":{"android":"levelo://app?vid=10496950-ed5f-408b-ae51-07c02168af07","ios":"levelo://app?vid=10496950-ed5f-408b-ae51-07c02168af07"},"vehicle_type_id":"4","last_reported":1727547067,"current_range_meters":19200,"station_id":"ce4bhgp2rcd13ifvqfd0","pricing_plan_id":"cebpf4jnsgd1na2vs0mg"},{"bike_id":"b9b4e362-aaec-480b-9381-c970e50bcb62","system_id":"levelo_inurba_marseille","lat":43.29305,"lon":5.37178,"is_reserved":false,"is_disabled":false,"rental_uris":{"android":"levelo://app?vid=b9b4e362-aaec-480b-9381-c970e50bcb62","ios":"levelo://app?vid=b9b4e362-aaec-480b-9381-c970e50bcb62"},"vehicle_type_id":"4","last_reported":1727547067,"current_range_meters":27200,"station_id":"ce4bgh92rcd13ifvqb40","pricing_plan_id":"cebpf4jnsgd1na2vs0mg"},{"bike_id":"e8f339a7-5e65-4275-8576-718fc09f5e43","system_id":"levelo_inurba_marseille","lat":43.27614,"lon":5.36116,"is_reserved":false,"is_disabled":false,"rental_uris":{"android":"levelo://app?vid=e8f339a7-5e65-4275-8576-718fc09f5e43","ios":"levelo://app?vid=e8f339a7-5e65-4275-8576-718fc09f5e43"},"vehicle_type_id":"4","last_reported":1727547067,"current_range_meters":14000,"station_id":"ce4bgj92rcd13ifvqbe0","pricing_plan_id":"cebpf4jnsgd1na2vs0mg"},{"bike_id":"9c2008e0-d591-4940-8143-df32df5b0745","system_id":"levelo_inurba_marseille","lat":43.30896,"lon":5.37229,"is_reserved":false,"is_disabled":false,"rental_uris":{"android":"levelo://app?vid=9c2008e0-d591-4940-8143-df32df5b0745","ios":"levelo://app?vid=9c2008e0-d591-4940-8143-df32df5b0745"},"vehicle_type_id":"4","last_reported":1727547067,"current_range_meters":8000,"station_id":"ce4bguh2rcd13ifvqckg","pricing_plan_id":"cebpf4jnsgd1na2vs0mg"},{"bike_id":"cba3a4b3-4a51-4978-92cf-0c47b4b0b4e3","system_id":"levelo_inurba_marseille","lat":43.24993,"lon":5.38943,"is_reserved":false,"is_disabled":false,"rental_uris":{"android":"levelo://app?vid=cba3a4b3-4a51-4978-92cf-0c47b4b0b4e3","ios":"levelo://app?vid=cba3a4b3-4a51-4978-92cf-0c47b4b0b4e3"},"vehicle_type_id":"4","last_reported":1727547067,"current_range_meters":16000,"station_id":"ce4bhgp2rcd13ifvqfd0","pricing_plan_id":"cebpf4jnsgd1na2vs0mg"},{"bike_id":"9a47dcb1-61bb-411f-affb-55731480b4cc","system_id":"levelo_inurba_marseille","lat":43.23963,"lon":5.36639,"is_reserved":false,"is_disabled":false,"rental_uris":{"android":"levelo://app?vid=9a47dcb1-61bb-411f-affb-55731480b4cc","ios":"levelo://app?vid=9a47dcb1-61bb-411f-affb-55731480b4cc"},"vehicle_type_id":"4","last_reported":1727547067,"current_range_meters":38800,"station_id":"ce4bhi12rcd13ifvqfp0","pricing_plan_id":"cebpf4jnsgd1na2vs0mg"},{"bike_id":"0f61ce82-cd50-41a8-9204-442b6b3c891b","system_id":"levelo_inurba_marseille","lat":43.2898,"lon":5.38668,"is_reserved":false,"is_disabled":false,"rental_uris":{"android":"levelo://app?vid=0f61ce82-cd50-41a8-9204-442b6b3c891b","ios":"levelo://app?vid=0f61ce82-cd50-41a8-9204-442b6b3c891b"},"vehicle_type_id":"4","last_reported":1727547067,"current_range_meters":24800,"station_id":"ce4bgnh2rcd13ifvqc0g","pricing_plan_id":"cebpf4jnsgd1na2vs0mg"},{"bike_id":"4f1e54a2-8067-47c3-8e41-76e269b20aa9","system_id":"levelo_inurba_marseille","lat":43.29621,"lon":5.37155,"is_reserved":false,"is_disabled":false,"rental_uris":{"android":"levelo://app?vid=4f1e54a2-8067-47c3-8e41-76e269b20aa9","ios":"levelo://app?vid=4f1e54a2-8067-47c3-8e41-76e269b20aa9"},"vehicle_type_id":"4","last_reported":1727547067,"current_range_meters":34000,"station_id":"ce4bgnh2rcd13ifvqc0g","pricing_plan_id":"cebpf4jnsgd1na2vs0mg"},{"bike_id":"f63240a5-9260-4da2-b04a-81cb251a274d","system_id":"levelo_inurba_marseille","lat":43.2963,"lon":5.40614,"is_reserved":false,"is_disabled":false,"rental_uris":{"android":"levelo://app?vid=f63240a5-9260-4da2-b04a-81cb251a274d","ios":"levelo://app?vid=f63240a5-9260-4da2-b04a-81cb251a274d"},"vehicle_type_id":"4","last_reported":1727547067,"current_range_meters":36800,"station_id":"ce4bh0h2rcd13ifvqd60","pricing_plan_id":"cebpf4jnsgd1na2vs0mg"},{"bike_id":"8d567739-eb5f-4d81-8599-6a35961a338d","system_id":"levelo_inurba_marseille","lat":43.29364,"lon":5.38537,"is_reserved":false,"is_disabled":false,"rental_uris":{"android":"levelo://app?vid=8d567739-eb5f-4d81-8599-6a35961a338d","ios":"levelo://app?vid=8d567739-eb5f-4d81-8599-6a35961a338d"},"vehicle_type_id":"4","last_reported":1727547067,"current_range_meters":2000,"station_id":"","pricing_plan_id":"cebpf4jnsgd1na2vs0mg"},{"bike_id":"3fd8890d-e398-46f3-97e2-5c4c7703d1c1","system_id":"levelo_inurba_marseille","lat":43.29517,"lon":5.39049,"is_reserved":false,"is_disabled":false,"rental_uris":{"android":"levelo://app?vid=3fd8890d-e398-46f3-97e2-5c4c7703d1c1","ios":"levelo://app?vid=3fd8890d-e398-46f3-97e2-5c4c7703d1c1"},"vehicle_type_id":"4","last_reported":1727547067,"current_range_meters":6000,"station_id":"ce4bh3p2rcd13ifvqdp0","pricing_plan_id":"cebpf4jnsgd1na2vs0mg"},{"bike_id":"e4e47c0d-39db-4e87-aa03-c44c40bcb4f1","system_id":"levelo_inurba_marseille","lat":43.29199,"lon":5.39331,"is_reserved":false,"is_disabled":false,"rental_uris":{"android":"levelo://app?vid=e4e47c0d-39db-4e87-aa03-c44c40bcb4f1","ios":"levelo://app?vid=e4e47c0d-39db-4e87-aa03-c44c40bcb4f1"},"vehicle_type_id":"4","last_reported":1727547067,"current_range_meters":14800,"station_id":"ce4bh192rcd13ifvqdd0","pricing_plan_id":"cebpf4jnsgd1na2vs0mg"},{"bike_id":"05cb1368-165f-4bb9-979e-77cd071ffcf3","system_id":"levelo_inurba_marseille","lat":43.2969,"lon":5.37303,"is_reserved":false,"is_disabled":false,"rental_uris":{"android":"levelo://app?vid=05cb1368-165f-4bb9-979e-77cd071ffcf3","ios":"levelo://app?vid=05cb1368-165f-4bb9-979e-77cd071ffcf3"},"vehicle_type_id":"4","last_reported":1727547067,"current_range_meters":39200,"station_id":"ce4bgk12rcd13ifvqbj0","pricing_plan_id":"cebpf4jnsgd1na2vs0mg"},{"bike_id":"7bdb6542-34d4-409e-96e4-4aeb97032ede","system_id":"levelo_inurba_marseille","lat":43.29552,"lon":5.42283,"is_reserved":false,"is_disabled":false,"rental_uris":{"android":"levelo://app?vid=7bdb6542-34d4-409e-96e4-4aeb97032ede","ios":"levelo://app?vid=7bdb6542-34d4-409e-96e4-4aeb97032ede"},"vehicle_type_id":"4","last_reported":1727547067,"current_range_meters":9200,"station_id":"ce4bhph2rcd13ifvqhdg","pricing_plan_id":"cebpf4jnsgd1na2vs0mg"},{"bike_id":"be4cb9c2-1d72-459b-a272-9bf86e293135","system_id":"levelo_inurba_marseille","lat":43.27205,"lon":5.39185,"is_reserved":false,"is_disabled":false,"rental_uris":{"android":"levelo://app?vid=be4cb9c2-1d72-459b-a272-9bf86e293135","ios":"levelo://app?vid=be4cb9c2-1d72-459b-a272-9bf86e293135"},"vehicle_type_id":"4","last_reported":1727547067,"current_range_meters":8400,"station_id":"ce4bhhp2rcd13ifvqfm0","pricing_plan_id":"cebpf4jnsgd1na2vs0mg"},{"bike_id":"d8c5797a-2942-4c85-950d-15dfc2259736","system_id":"levelo_inurba_marseille","lat":43.30953,"lon":5.39025,"is_reserved":false,"is_disabled":false,"rental_uris":{"android":"levelo://app?vid=d8c5797a-2942-4c85-950d-15dfc2259736","ios":"levelo://app?vid=d8c5797a-2942-4c85-950d-15dfc2259736"},"vehicle_type_id":"4","last_reported":1727547067,"current_range_meters":22800,"station_id":"ce4bgup2rcd13ifvqco0","pricing_plan_id":"cebpf4jnsgd1na2vs0mg"},{"bike_id":"8524a85f-8427-4a60-91b5-869fad39ff42","system_id":"levelo_inurba_marseille","lat":43.24996,"lon":5.38942,"is_reserved":false,"is_disabled":false,"rental_uris":{"android":"levelo://app?vid=8524a85f-8427-4a60-91b5-869fad39ff42","ios":"levelo://app?vid=8524a85f-8427-4a60-91b5-869fad39ff42"},"vehicle_type_id":"4","last_reported":1727547067,"current_range_meters":32400,"station_id":"ce4bhgp2rcd13ifvqfd0","pricing_plan_id":"cebpf4jnsgd1na2vs0mg"},{"bike_id":"0b69476c-b883-458f-8188-b6a647be96e5","system_id":"levelo_inurba_marseille","lat":43.30149,"lon":5.38773,"is_reserved":false,"is_disabled":false,"rental_uris":{"android":"levelo://app?vid=0b69476c-b883-458f-8188-b6a647be96e5","ios":"levelo://app?vid=0b69476c-b883-458f-8188-b6a647be96e5"},"vehicle_type_id":"4","last_reported":1727547067,"current_range_meters":16800,"station_id":"ce4bghh2rcd13ifvqb60","pricing_plan_id":"cebpf4jnsgd1na2vs0mg"},{"bike_id":"1ce7c25b-6bd2-4b64-b4ae-543ea784fc5d","system_id":"levelo_inurba_marseille","lat":43.337444,"lon":5.374475,"is_reserved":false,"is_disabled":false,"rental_uris":{"android":"levelo://app?vid=1ce7c25b-6bd2-4b64-b4ae-543ea784fc5d","ios":"levelo://app?vid=1ce7c25b-6bd2-4b64-b4ae-543ea784fc5d"},"vehicle_type_id":"4","last_reported":1727547067,"current_range_meters":36000,"station_id":"","pricing_plan_id":"cebpf4jnsgd1na2vs0mg"},{"bike_id":"e57d0c0b-8300-48fb-a25d-d9c8c2a37848","system_id":"levelo_inurba_marseille","lat":43.31163,"lon":5.42688,"is_reserved":false,"is_disabled":false,"rental_uris":{"android":"levelo://app?vid=e57d0c0b-8300-48fb-a25d-d9c8c2a37848","ios":"levelo://app?vid=e57d0c0b-8300-48fb-a25d-d9c8c2a37848"},"vehicle_type_id":"4","last_reported":1727547067,"current_range_meters":17600,"station_id":"ce4bhp92rcd13ifvqhcg","pricing_plan_id":"cebpf4jnsgd1na2vs0mg"},{"bike_id":"8a019057-df41-4cd9-8391-6e887f9eb193","system_id":"levelo_inurba_marseille","lat":43.29309,"lon":5.3718,"is_reserved":false,"is_disabled":false,"rental_uris":{"android":"levelo://app?vid=8a019057-df41-4cd9-8391-6e887f9eb193","ios":"levelo://app?vid=8a019057-df41-4cd9-8391-6e887f9eb193"},"vehicle_type_id":"4","last_reported":1727547067,"current_range_meters":9200,"station_id":"ce4bgh92rcd13ifvqb40","pricing_plan_id":"cebpf4jnsgd1na2vs0mg"},{"bike_id":"35a6ca74-a0b6-4f73-bcf2-e86397ec7a04","system_id":"levelo_inurba_marseille","lat":43.24811,"lon":5.37466,"is_reserved":false,"is_disabled":false,"rental_uris":{"android":"levelo://app?vid=35a6ca74-a0b6-4f73-bcf2-e86397ec7a04","ios":"levelo://app?vid=35a6ca74-a0b6-4f73-bcf2-e86397ec7a04"},"vehicle_type_id":"4","last_reported":1727547067,"current_range_meters":6400,"station_id":"ce4bhgh2rcd13ifvqfb0","pricing_plan_id":"cebpf4jnsgd1na2vs0mg"},{"bike_id":"0c6a3edd-0259-43fd-a8d1-3d4bb6023605","system_id":"levelo_inurba_marseille","lat":43.24388,"lon":5.37051,"is_reserved":false,"is_disabled":false,"rental_uris":{"android":"levelo://app?vid=0c6a3edd-0259-43fd-a8d1-3d4bb6023605","ios":"levelo://app?vid=0c6a3edd-0259-43fd-a8d1-3d4bb6023605"},"vehicle_type_id":"4","last_reported":1727547067,"current_range_meters":38800,"station_id":"ce4bhhh2rcd13ifvqfk0","pricing_plan_id":"cebpf4jnsgd1na2vs0mg"},{"bike_id":"ff8188b8-9b00-49b7-822c-c50acd6dfada","system_id":"levelo_inurba_marseille","lat":43.29517,"lon":5.39409,"is_reserved":false,"is_disabled":false,"rental_uris":{"android":"levelo://app?vid=ff8188b8-9b00-49b7-822c-c50acd6dfada","ios":"levelo://app?vid=ff8188b8-9b00-49b7-822c-c50acd6dfada"},"vehicle_type_id":"4","last_reported":1727547067,"current_range_meters":37600,"station_id":"ce4bh292rcd13ifvqdf0","pricing_plan_id":"cebpf4jnsgd1na2vs0mg"},{"bike_id":"9c73fabf-e2f2-4374-8a8c-a2b87914ea10","system_id":"levelo_inurba_marseille","lat":43.29031,"lon":5.37554,"is_reserved":false,"is_disabled":false,"rental_uris":{"android":"levelo://app?vid=9c73fabf-e2f2-4374-8a8c-a2b87914ea10","ios":"levelo://app?vid=9c73fabf-e2f2-4374-8a8c-a2b87914ea10"},"vehicle_type_id":"4","last_reported":1727547067,"current_range_meters":9200,"station_id":"ce4bh692rcd13ifvqe90","pricing_plan_id":"cebpf4jnsgd1na2vs0mg"},{"bike_id":"6b0e3b67-3daf-4b03-8aa0-99e6c8dc5e62","system_id":"levelo_inurba_marseille","lat":43.28154,"lon":5.42643,"is_reserved":false,"is_disabled":false,"rental_uris":{"android":"levelo://app?vid=6b0e3b67-3daf-4b03-8aa0-99e6c8dc5e62","ios":"levelo://app?vid=6b0e3b67-3daf-4b03-8aa0-99e6c8dc5e62"},"vehicle_type_id":"4","last_reported":1727547067,"current_range_meters":19600,"station_id":"ce4bhnh2rcd13ifvqgug","pricing_plan_id":"cebpf4jnsgd1na2vs0mg"},{"bike_id":"b835983a-9553-403f-958c-0f0673e0b3a7","system_id":"levelo_inurba_marseille","lat":43.3414,"lon":5.40904,"is_reserved":false,"is_disabled":false,"rental_uris":{"android":"levelo://app?vid=b835983a-9553-403f-958c-0f0673e0b3a7","ios":"levelo://app?vid=b835983a-9553-403f-958c-0f0673e0b3a7"},"vehicle_type_id":"4","last_reported":1727547067,"current_range_meters":28400,"station_id":"ce4bhqh2rcd13ifvqhlg","pricing_plan_id":"cebpf4jnsgd1na2vs0mg"},{"bike_id":"de5eb6dd-993f-40d2-b6d8-2d51085f3360","system_id":"levelo_inurba_marseille","lat":43.25576,"lon":5.38246,"is_reserved":false,"is_disabled":false,"rental_uris":{"android":"levelo://app?vid=de5eb6dd-993f-40d2-b6d8-2d51085f3360","ios":"levelo://app?vid=de5eb6dd-993f-40d2-b6d8-2d51085f3360"},"vehicle_type_id":"4","last_reported":1727547067,"current_range_meters":25600,"station_id":"ce4bhih2rcd13ifvqfs0","pricing_plan_id":"cebpf4jnsgd1na2vs0mg"},{"bike_id":"6a52f468-9bf5-46c2-819d-2c732c18128e","system_id":"levelo_inurba_marseille","lat":43.23957,"lon":5.36641,"is_reserved":false,"is_disabled":false,"rental_uris":{"android":"levelo://app?vid=6a52f468-9bf5-46c2-819d-2c732c18128e","ios":"levelo://app?vid=6a52f468-9bf5-46c2-819d-2c732c18128e"},"vehicle_type_id":"4","last_reported":1727547067,"current_range_meters":39200,"station_id":"ce4bhi12rcd13ifvqfp0","pricing_plan_id":"cebpf4jnsgd1na2vs0mg"},{"bike_id":"2bc11f3d-4022-43e9-9ae9-19efdac4cf42","system_id":"levelo_inurba_marseille","lat":43.28477,"lon":5.38424,"is_reserved":false,"is_disabled":false,"rental_uris":{"android":"levelo://app?vid=2bc11f3d-4022-43e9-9ae9-19efdac4cf42","ios":"levelo://app?vid=2bc11f3d-4022-43e9-9ae9-19efdac4cf42"},"vehicle_type_id":"4","last_reported":1727547067,"current_range_meters":24400,"station_id":"ce4bh512rcd13ifvqe3g","pricing_plan_id":"cebpf4jnsgd1na2vs0mg"},{"bike_id":"45867bfa-277f-4b27-a95e-3c81a6edcc5b","system_id":"levelo_inurba_marseille","lat":43.26033,"lon":5.37552,"is_reserved":false,"is_disabled":false,"rental_uris":{"android":"levelo://app?vid=45867bfa-277f-4b27-a95e-3c81a6edcc5b","ios":"levelo://app?vid=45867bfa-277f-4b27-a95e-3c81a6edcc5b"},"vehicle_type_id":"4","last_reported":1727547067,"current_range_meters":28000,"station_id":"ce4bhgh2rcd13ifvqfa0","pricing_plan_id":"cebpf4jnsgd1na2vs0mg"},{"bike_id":"72be6392-a3f1-4c72-9845-ba02653fbb3f","system_id":"levelo_inurba_marseille","lat":43.29269,"lon":5.38444,"is_reserved":false,"is_disabled":false,"rental_uris":{"android":"levelo://app?vid=72be6392-a3f1-4c72-9845-ba02653fbb3f","ios":"levelo://app?vid=72be6392-a3f1-4c72-9845-ba02653fbb3f"},"vehicle_type_id":"4","last_reported":1727547067,"current_range_meters":39200,"station_id":"ce4bh692rcd13ifvqea0","pricing_plan_id":"cebpf4jnsgd1na2vs0mg"},{"bike_id":"67b9eb05-c36e-4582-9b61-98d56d57348d","system_id":"levelo_inurba_marseille","lat":43.26058,"lon":5.39397,"is_reserved":false,"is_disabled":false,"rental_uris":{"android":"levelo://app?vid=67b9eb05-c36e-4582-9b61-98d56d57348d","ios":"levelo://app?vid=67b9eb05-c36e-4582-9b61-98d56d57348d"},"vehicle_type_id":"4","last_reported":1727547067,"current_range_meters":38800,"station_id":"ce4bhh92rcd13ifvqfj0","pricing_plan_id":"cebpf4jnsgd1na2vs0mg"},{"bike_id":"f5b0afff-566d-4744-93ce-e562577a47f4","system_id":"levelo_inurba_marseille","lat":43.25007,"lon":5.38914,"is_reserved":false,"is_disabled":false,"rental_uris":{"android":"levelo://app?vid=f5b0afff-566d-4744-93ce-e562577a47f4","ios":"levelo://app?vid=f5b0afff-566d-4744-93ce-e562577a47f4"},"vehicle_type_id":"4","last_reported":1727547067,"current_range_meters":36800,"station_id":"ce4bhgp2rcd13ifvqfd0","pricing_plan_id":"cebpf4jnsgd1na2vs0mg"},{"bike_id":"1a08eb27-5616-4615-8c7f-aaa33811054b","system_id":"levelo_inurba_marseille","lat":43.248048,"lon":5.374629,"is_reserved":false,"is_disabled":false,"rental_uris":{"android":"levelo://app?vid=1a08eb27-5616-4615-8c7f-aaa33811054b","ios":"levelo://app?vid=1a08eb27-5616-4615-8c7f-aaa33811054b"},"vehicle_type_id":"4","last_reported":1727547067,"current_range_meters":39200,"station_id":"ce4bhgh2rcd13ifvqfb0","pricing_plan_id":"cebpf4jnsgd1na2vs0mg"},{"bike_id":"a79cd993-7ebd-4a8d-9fbf-95a06dc866e6","system_id":"levelo_inurba_marseille","lat":43.30592,"lon":5.39362,"is_reserved":false,"is_disabled":false,"rental_uris":{"android":"levelo://app?vid=a79cd993-7ebd-4a8d-9fbf-95a06dc866e6","ios":"levelo://app?vid=a79cd993-7ebd-4a8d-9fbf-95a06dc866e6"},"vehicle_type_id":"4","last_reported":1727547067,"current_range_meters":32000,"station_id":"ce4bh0p2rcd13ifvqd80","pricing_plan_id":"cebpf4jnsgd1na2vs0mg"},{"bike_id":"058015ff-93f3-4781-b89b-44ed6634bd9e","system_id":"levelo_inurba_marseille","lat":43.256165,"lon":5.393941,"is_reserved":false,"is_disabled":false,"rental_uris":{"android":"levelo://app?vid=058015ff-93f3-4781-b89b-44ed6634bd9e","ios":"levelo://app?vid=058015ff-93f3-4781-b89b-44ed6634bd9e"},"vehicle_type_id":"4","last_reported":1727547067,"current_range_meters":24800,"station_id":"ce4bhip2rcd13ifvqft0","pricing_plan_id":"cebpf4jnsgd1na2vs0mg"},{"bike_id":"87e54456-ce48-439f-8feb-28b2346cdff6","system_id":"levelo_inurba_marseille","lat":43.27808,"lon":5.39218,"is_reserved":false,"is_disabled":false,"rental_uris":{"android":"levelo://app?vid=87e54456-ce48-439f-8feb-28b2346cdff6","ios":"levelo://app?vid=87e54456-ce48-439f-8feb-28b2346cdff6"},"vehicle_type_id":"4","last_reported":1727547067,"current_range_meters":22800,"station_id":"ce4bhjp2rcd13ifvqga0","pricing_plan_id":"cebpf4jnsgd1na2vs0mg"},{"bike_id":"006d9a21-1a28-43cd-b87d-e84a3c46b6a7","system_id":"levelo_inurba_marseille","lat":43.28364,"lon":5.38664,"is_reserved":false,"is_disabled":false,"rental_uris":{"android":"levelo://app?vid=006d9a21-1a28-43cd-b87d-e84a3c46b6a7","ios":"levelo://app?vid=006d9a21-1a28-43cd-b87d-e84a3c46b6a7"},"vehicle_type_id":"4","last_reported":1727547067,"current_range_meters":14800,"station_id":"ce4bh492rcd13ifvqdvg","pricing_plan_id":"cebpf4jnsgd1na2vs0mg"},{"bike_id":"bab8aed6-a876-4e4f-98a6-6752ec56e447","system_id":"levelo_inurba_marseille","lat":43.29257,"lon":5.38456,"is_reserved":false,"is_disabled":false,"rental_uris":{"android":"levelo://app?vid=bab8aed6-a876-4e4f-98a6-6752ec56e447","ios":"levelo://app?vid=bab8aed6-a876-4e4f-98a6-6752ec56e447"},"vehicle_type_id":"4","last_reported":1727547067,"current_range_meters":6800,"station_id":"ce4bh692rcd13ifvqea0","pricing_plan_id":"cebpf4jnsgd1na2vs0mg"},{"bike_id":"cad90722-175d-4766-8175-595e33d51807","system_id":"levelo_inurba_marseille","lat":43.29166,"lon":5.37157,"is_reserved":false,"is_disabled":false,"rental_uris":{"android":"levelo://app?vid=cad90722-175d-4766-8175-595e33d51807","ios":"levelo://app?vid=cad90722-175d-4766-8175-595e33d51807"},"vehicle_type_id":"4","last_reported":1727547067,"current_range_meters":21600,"station_id":"ce4bha92rcd13ifvqeh0","pricing_plan_id":"cebpf4jnsgd1na2vs0mg"},{"bike_id":"cf2a99f0-171d-46e2-b5f9-b8e518581e33","system_id":"levelo_inurba_marseille","lat":43.23957,"lon":5.36633,"is_reserved":false,"is_disabled":false,"rental_uris":{"android":"levelo://app?vid=cf2a99f0-171d-46e2-b5f9-b8e518581e33","ios":"levelo://app?vid=cf2a99f0-171d-46e2-b5f9-b8e518581e33"},"vehicle_type_id":"4","last_reported":1727547067,"current_range_meters":36800,"station_id":"ce4bhi12rcd13ifvqfp0","pricing_plan_id":"cebpf4jnsgd1na2vs0mg"},{"bike_id":"f28b863e-fcfa-4dda-b75e-9fa840c6607d","system_id":"levelo_inurba_marseille","lat":43.295532,"lon":5.375104,"is_reserved":false,"is_disabled":false,"rental_uris":{"android":"levelo://app?vid=f28b863e-fcfa-4dda-b75e-9fa840c6607d","ios":"levelo://app?vid=f28b863e-fcfa-4dda-b75e-9fa840c6607d"},"vehicle_type_id":"4","last_reported":1727547067,"current_range_meters":28800,"station_id":"ce4bgi92rcd13ifvqb90","pricing_plan_id":"cebpf4jnsgd1na2vs0mg"},{"bike_id":"ed57af66-ef11-4c02-bc28-789ccb2ff9a0","system_id":"levelo_inurba_marseille","lat":43.292786,"lon":5.401335,"is_reserved":false,"is_disabled":false,"rental_uris":{"android":"levelo://app?vid=ed57af66-ef11-4c02-bc28-789ccb2ff9a0","ios":"levelo://app?vid=ed57af66-ef11-4c02-bc28-789ccb2ff9a0"},"vehicle_type_id":"4","last_reported":1727547067,"current_range_meters":4000,"station_id":"ce4bh312rcd13ifvqdk0","pricing_plan_id":"cebpf4jnsgd1na2vs0mg"},{"bike_id":"af27e55c-9092-4f57-a5c6-7251428e651f","system_id":"levelo_inurba_marseille","lat":43.23193,"lon":5.35557,"is_reserved":false,"is_disabled":false,"rental_uris":{"android":"levelo://app?vid=af27e55c-9092-4f57-a5c6-7251428e651f","ios":"levelo://app?vid=af27e55c-9092-4f57-a5c6-7251428e651f"},"vehicle_type_id":"4","last_reported":1727547067,"current_range_meters":14400,"station_id":"ce4bhu92rcd13ifvqi70","pricing_plan_id":"cebpf4jnsgd1na2vs0mg"},{"bike_id":"fdb61897-97d0-4689-adc4-02e79ee31d57","system_id":"levelo_inurba_marseille","lat":43.23955,"lon":5.36635,"is_reserved":false,"is_disabled":false,"rental_uris":{"android":"levelo://app?vid=fdb61897-97d0-4689-adc4-02e79ee31d57","ios":"levelo://app?vid=fdb61897-97d0-4689-adc4-02e79ee31d57"},"vehicle_type_id":"4","last_reported":1727547067,"current_range_meters":38800,"station_id":"ce4bhi12rcd13ifvqfp0","pricing_plan_id":"cebpf4jnsgd1na2vs0mg"},{"bike_id":"52f17877-110a-422d-89ae-fdeda162e6f3","system_id":"levelo_inurba_marseille","lat":43.23963,"lon":5.36619,"is_reserved":false,"is_disabled":false,"rental_uris":{"android":"levelo://app?vid=52f17877-110a-422d-89ae-fdeda162e6f3","ios":"levelo://app?vid=52f17877-110a-422d-89ae-fdeda162e6f3"},"vehicle_type_id":"4","last_reported":1727547067,"current_range_meters":10000,"station_id":"ce4bhi12rcd13ifvqfp0","pricing_plan_id":"cebpf4jnsgd1na2vs0mg"},{"bike_id":"7a8f28c6-ab6f-49c3-b59d-8e597cfc4655","system_id":"levelo_inurba_marseille","lat":43.33724,"lon":5.39181,"is_reserved":false,"is_disabled":false,"rental_uris":{"android":"levelo://app?vid=7a8f28c6-ab6f-49c3-b59d-8e597cfc4655","ios":"levelo://app?vid=7a8f28c6-ab6f-49c3-b59d-8e597cfc4655"},"vehicle_type_id":"4","last_reported":1727547067,"current_range_meters":22800,"station_id":"ce4bhr92rcd13ifvqhsg","pricing_plan_id":"cebpf4jnsgd1na2vs0mg"},{"bike_id":"a5dfdf15-cd4d-44ef-8773-9581105a7fbb","system_id":"levelo_inurba_marseille","lat":43.28076,"lon":5.39665,"is_reserved":false,"is_disabled":false,"rental_uris":{"android":"levelo://app?vid=a5dfdf15-cd4d-44ef-8773-9581105a7fbb","ios":"levelo://app?vid=a5dfdf15-cd4d-44ef-8773-9581105a7fbb"},"vehicle_type_id":"4","last_reported":1727547067,"current_range_meters":4000,"station_id":"ce4bho12rcd13ifvqh2g","pricing_plan_id":"cebpf4jnsgd1na2vs0mg"},{"bike_id":"8706dbad-74a1-4401-bd4a-b4ae01455ac4","system_id":"levelo_inurba_marseille","lat":43.27615,"lon":5.36115,"is_reserved":false,"is_disabled":false,"rental_uris":{"android":"levelo://app?vid=8706dbad-74a1-4401-bd4a-b4ae01455ac4","ios":"levelo://app?vid=8706dbad-74a1-4401-bd4a-b4ae01455ac4"},"vehicle_type_id":"4","last_reported":1727547067,"current_range_meters":20400,"station_id":"ce4bgj92rcd13ifvqbe0","pricing_plan_id":"cebpf4jnsgd1na2vs0mg"},{"bike_id":"31561fb6-8d19-4b86-8469-1f708c7c9199","system_id":"levelo_inurba_marseille","lat":43.29568,"lon":5.37527,"is_reserved":false,"is_disabled":false,"rental_uris":{"android":"levelo://app?vid=31561fb6-8d19-4b86-8469-1f708c7c9199","ios":"levelo://app?vid=31561fb6-8d19-4b86-8469-1f708c7c9199"},"vehicle_type_id":"4","last_reported":1727547067,"current_range_meters":4800,"station_id":"ce4bgh92rcd13ifvqb50","pricing_plan_id":"cebpf4jnsgd1na2vs0mg"},{"bike_id":"9e0e602a-711e-4e75-a4b3-f0d70db8f823","system_id":"levelo_inurba_marseille","lat":43.23958,"lon":5.36641,"is_reserved":false,"is_disabled":false,"rental_uris":{"android":"levelo://app?vid=9e0e602a-711e-4e75-a4b3-f0d70db8f823","ios":"levelo://app?vid=9e0e602a-711e-4e75-a4b3-f0d70db8f823"},"vehicle_type_id":"4","last_reported":1727547067,"current_range_meters":18800,"station_id":"ce4bhi12rcd13ifvqfp0","pricing_plan_id":"cebpf4jnsgd1na2vs0mg"},{"bike_id":"0b70659b-826c-4cb0-8faa-bce4f3dbdbd5","system_id":"levelo_inurba_marseille","lat":43.31273,"lon":5.40187,"is_reserved":false,"is_disabled":false,"rental_uris":{"android":"levelo://app?vid=0b70659b-826c-4cb0-8faa-bce4f3dbdbd5","ios":"levelo://app?vid=0b70659b-826c-4cb0-8faa-bce4f3dbdbd5"},"vehicle_type_id":"4","last_reported":1727547067,"current_range_meters":6800,"station_id":"ce4bgh92rcd13ifvqb40","pricing_plan_id":"cebpf4jnsgd1na2vs0mg"},{"bike_id":"b39bca7b-2d92-4d3b-80ea-584a93fabcbd","system_id":"levelo_inurba_marseille","lat":43.31721,"lon":5.42411,"is_reserved":false,"is_disabled":false,"rental_uris":{"android":"levelo://app?vid=b39bca7b-2d92-4d3b-80ea-584a93fabcbd","ios":"levelo://app?vid=b39bca7b-2d92-4d3b-80ea-584a93fabcbd"},"vehicle_type_id":"4","last_reported":1727547067,"current_range_meters":22800,"station_id":"ce4bhp92rcd13ifvqhbg","pricing_plan_id":"cebpf4jnsgd1na2vs0mg"},{"bike_id":"0e88644a-50d2-4a6e-acf1-5401f6edde7f","system_id":"levelo_inurba_marseille","lat":43.26569,"lon":5.39031,"is_reserved":false,"is_disabled":false,"rental_uris":{"android":"levelo://app?vid=0e88644a-50d2-4a6e-acf1-5401f6edde7f","ios":"levelo://app?vid=0e88644a-50d2-4a6e-acf1-5401f6edde7f"},"vehicle_type_id":"4","last_reported":1727547067,"current_range_meters":24400,"station_id":"ce4bhe12rcd13ifvqf30","pricing_plan_id":"cebpf4jnsgd1na2vs0mg"},{"bike_id":"ce987245-adda-45c6-9c5d-48d5eda057cd","system_id":"levelo_inurba_marseille","lat":43.27425,"lon":5.39422,"is_reserved":false,"is_disabled":false,"rental_uris":{"android":"levelo://app?vid=ce987245-adda-45c6-9c5d-48d5eda057cd","ios":"levelo://app?vid=ce987245-adda-45c6-9c5d-48d5eda057cd"},"vehicle_type_id":"4","last_reported":1727547067,"current_range_meters":6800,"station_id":"ce4bhdp2rcd13ifvqf20","pricing_plan_id":"cebpf4jnsgd1na2vs0mg"},{"bike_id":"f6b1db3c-e87e-4b11-9c24-3bba5e5ab6f6","system_id":"levelo_inurba_marseille","lat":43.286743,"lon":5.386683,"is_reserved":false,"is_disabled":false,"rental_uris":{"android":"levelo://app?vid=f6b1db3c-e87e-4b11-9c24-3bba5e5ab6f6","ios":"levelo://app?vid=f6b1db3c-e87e-4b11-9c24-3bba5e5ab6f6"},"vehicle_type_id":"4","last_reported":1727547067,"current_range_meters":24000,"station_id":"ce4bh492rcd13ifvqdug","pricing_plan_id":"cebpf4jnsgd1na2vs0mg"},{"bike_id":"258e025d-f605-4338-84a0-17f713af0b8d","system_id":"levelo_inurba_marseille","lat":43.24806,"lon":5.37452,"is_reserved":false,"is_disabled":false,"rental_uris":{"android":"levelo://app?vid=258e025d-f605-4338-84a0-17f713af0b8d","ios":"levelo://app?vid=258e025d-f605-4338-84a0-17f713af0b8d"},"vehicle_type_id":"4","last_reported":1727547067,"current_range_meters":38800,"station_id":"ce4bhgh2rcd13ifvqfb0","pricing_plan_id":"cebpf4jnsgd1na2vs0mg"},{"bike_id":"a6991862-ced6-4817-9cf3-de62718e8149","system_id":"levelo_inurba_marseille","lat":43.29102,"lon":5.38144,"is_reserved":false,"is_disabled":false,"rental_uris":{"android":"levelo://app?vid=a6991862-ced6-4817-9cf3-de62718e8149","ios":"levelo://app?vid=a6991862-ced6-4817-9cf3-de62718e8149"},"vehicle_type_id":"4","last_reported":1727547067,"current_range_meters":37600,"station_id":"ce4bh512rcd13ifvqe2g","pricing_plan_id":"cebpf4jnsgd1na2vs0mg"},{"bike_id":"48ac0a00-7daa-4c12-9a4d-5dab28220f2e","system_id":"levelo_inurba_marseille","lat":43.32361,"lon":5.38886,"is_reserved":false,"is_disabled":false,"rental_uris":{"android":"levelo://app?vid=48ac0a00-7daa-4c12-9a4d-5dab28220f2e","ios":"levelo://app?vid=48ac0a00-7daa-4c12-9a4d-5dab28220f2e"},"vehicle_type_id":"4","last_reported":1727547067,"current_range_meters":10000,"station_id":"ce4bhqp2rcd13ifvqhog","pricing_plan_id":"cebpf4jnsgd1na2vs0mg"},{"bike_id":"94bb8c78-e5ce-463d-a260-e629eb2416cf","system_id":"levelo_inurba_marseille","lat":43.299625,"lon":5.384802,"is_reserved":false,"is_disabled":false,"rental_uris":{"android":"levelo://app?vid=94bb8c78-e5ce-463d-a260-e629eb2416cf","ios":"levelo://app?vid=94bb8c78-e5ce-463d-a260-e629eb2416cf"},"vehicle_type_id":"4","last_reported":1727547067,"current_range_meters":8800,"station_id":"ce4bgip2rcd13ifvqbb0","pricing_plan_id":"cebpf4jnsgd1na2vs0mg"},{"bike_id":"937ae9ba-4750-482e-be10-8463290fb54f","system_id":"levelo_inurba_marseille","lat":43.28847,"lon":5.3932,"is_reserved":false,"is_disabled":false,"rental_uris":{"android":"levelo://app?vid=937ae9ba-4750-482e-be10-8463290fb54f","ios":"levelo://app?vid=937ae9ba-4750-482e-be10-8463290fb54f"},"vehicle_type_id":"4","last_reported":1727547067,"current_range_meters":38800,"station_id":"ce4bh2p2rcd13ifvqdi0","pricing_plan_id":"cebpf4jnsgd1na2vs0mg"},{"bike_id":"1f313afb-1cf8-4bb7-8831-2c9f193c2d0c","system_id":"levelo_inurba_marseille","lat":43.24807,"lon":5.37457,"is_reserved":false,"is_disabled":false,"rental_uris":{"android":"levelo://app?vid=1f313afb-1cf8-4bb7-8831-2c9f193c2d0c","ios":"levelo://app?vid=1f313afb-1cf8-4bb7-8831-2c9f193c2d0c"},"vehicle_type_id":"4","last_reported":1727547067,"current_range_meters":38800,"station_id":"ce4bhgh2rcd13ifvqfb0","pricing_plan_id":"cebpf4jnsgd1na2vs0mg"},{"bike_id":"a63d4449-4f5a-4f1c-9a3c-27c8d74bd2a3","system_id":"levelo_inurba_marseille","lat":43.2439,"lon":5.37066,"is_reserved":false,"is_disabled":false,"rental_uris":{"android":"levelo://app?vid=a63d4449-4f5a-4f1c-9a3c-27c8d74bd2a3","ios":"levelo://app?vid=a63d4449-4f5a-4f1c-9a3c-27c8d74bd2a3"},"vehicle_type_id":"4","last_reported":1727547067,"current_range_meters":14800,"station_id":"ce4bhhh2rcd13ifvqfk0","pricing_plan_id":"cebpf4jnsgd1na2vs0mg"},{"bike_id":"9761c67b-e8f9-4227-a54d-31faa9c21e44","system_id":"levelo_inurba_marseille","lat":43.25118,"lon":5.40311,"is_reserved":false,"is_disabled":false,"rental_uris":{"android":"levelo://app?vid=9761c67b-e8f9-4227-a54d-31faa9c21e44","ios":"levelo://app?vid=9761c67b-e8f9-4227-a54d-31faa9c21e44"},"vehicle_type_id":"4","last_reported":1727547067,"current_range_meters":4000,"station_id":"ce4bhlh2rcd13ifvqgig","pricing_plan_id":"cebpf4jnsgd1na2vs0mg"},{"bike_id":"638865c7-2a86-4e66-a9b0-1c28e20e4ac7","system_id":"levelo_inurba_marseille","lat":43.290538,"lon":5.35916,"is_reserved":false,"is_disabled":false,"rental_uris":{"android":"levelo://app?vid=638865c7-2a86-4e66-a9b0-1c28e20e4ac7","ios":"levelo://app?vid=638865c7-2a86-4e66-a9b0-1c28e20e4ac7"},"vehicle_type_id":"4","last_reported":1727547067,"current_range_meters":14800,"station_id":"ce4bguh2rcd13ifvqcj0","pricing_plan_id":"cebpf4jnsgd1na2vs0mg"},{"bike_id":"bc7dc6a9-589f-4649-9e06-6ce7434d3293","system_id":"levelo_inurba_marseille","lat":43.2866,"lon":5.36351,"is_reserved":false,"is_disabled":false,"rental_uris":{"android":"levelo://app?vid=bc7dc6a9-589f-4649-9e06-6ce7434d3293","ios":"levelo://app?vid=bc7dc6a9-589f-4649-9e06-6ce7434d3293"},"vehicle_type_id":"4","last_reported":1727547067,"current_range_meters":24400,"station_id":"ce4bhah2rcd13ifvqej0","pricing_plan_id":"cebpf4jnsgd1na2vs0mg"},{"bike_id":"f8cd1665-2182-42bb-993d-799437deb95c","system_id":"levelo_inurba_marseille","lat":43.23192,"lon":5.35552,"is_reserved":false,"is_disabled":false,"rental_uris":{"android":"levelo://app?vid=f8cd1665-2182-42bb-993d-799437deb95c","ios":"levelo://app?vid=f8cd1665-2182-42bb-993d-799437deb95c"},"vehicle_type_id":"4","last_reported":1727547067,"current_range_meters":7200,"station_id":"ce4bhu92rcd13ifvqi70","pricing_plan_id":"cebpf4jnsgd1na2vs0mg"},{"bike_id":"84a3f127-ae8a-4f05-8774-b32326c03857","system_id":"levelo_inurba_marseille","lat":43.28104,"lon":5.37843,"is_reserved":false,"is_disabled":false,"rental_uris":{"android":"levelo://app?vid=84a3f127-ae8a-4f05-8774-b32326c03857","ios":"levelo://app?vid=84a3f127-ae8a-4f05-8774-b32326c03857"},"vehicle_type_id":"4","last_reported":1727547067,"current_range_meters":11600,"station_id":"ce4bha12rcd13ifvqee0","pricing_plan_id":"cebpf4jnsgd1na2vs0mg"},{"bike_id":"977c5858-5b7a-45a3-a2d6-5e714835c599","system_id":"levelo_inurba_marseille","lat":43.26804,"lon":5.40274,"is_reserved":false,"is_disabled":false,"rental_uris":{"android":"levelo://app?vid=977c5858-5b7a-45a3-a2d6-5e714835c599","ios":"levelo://app?vid=977c5858-5b7a-45a3-a2d6-5e714835c599"},"vehicle_type_id":"4","last_reported":1727547067,"current_range_meters":36000,"station_id":"ce501612rcd8frsf0b60","pricing_plan_id":"cebpf4jnsgd1na2vs0mg"},{"bike_id":"c20aa169-0982-4da6-8a27-37e8c5a04ddc","system_id":"levelo_inurba_marseille","lat":43.24393,"lon":5.37066,"is_reserved":false,"is_disabled":false,"rental_uris":{"android":"levelo://app?vid=c20aa169-0982-4da6-8a27-37e8c5a04ddc","ios":"levelo://app?vid=c20aa169-0982-4da6-8a27-37e8c5a04ddc"},"vehicle_type_id":"4","last_reported":1727547067,"current_range_meters":28400,"station_id":"ce4bhhh2rcd13ifvqfk0","pricing_plan_id":"cebpf4jnsgd1na2vs0mg"},{"bike_id":"7a461302-f167-4111-92d7-631e3861ed34","system_id":"levelo_inurba_marseille","lat":43.2657,"lon":5.39029,"is_reserved":false,"is_disabled":false,"rental_uris":{"android":"levelo://app?vid=7a461302-f167-4111-92d7-631e3861ed34","ios":"levelo://app?vid=7a461302-f167-4111-92d7-631e3861ed34"},"vehicle_type_id":"4","last_reported":1727547067,"current_range_meters":25600,"station_id":"ce4bhe12rcd13ifvqf30","pricing_plan_id":"cebpf4jnsgd1na2vs0mg"},{"bike_id":"33a208a0-528f-435e-9250-dd35029a5d5a","system_id":"levelo_inurba_marseille","lat":43.309357,"lon":5.40162,"is_reserved":false,"is_disabled":false,"rental_uris":{"android":"levelo://app?vid=33a208a0-528f-435e-9250-dd35029a5d5a","ios":"levelo://app?vid=33a208a0-528f-435e-9250-dd35029a5d5a"},"vehicle_type_id":"4","last_reported":1727547067,"current_range_meters":28400,"station_id":"ce4bgvp2rcd13ifvqct0","pricing_plan_id":"cebpf4jnsgd1na2vs0mg"},{"bike_id":"f663f295-c346-4c5d-8e25-19d433cb2d87","system_id":"levelo_inurba_marseille","lat":43.30925,"lon":5.40157,"is_reserved":false,"is_disabled":false,"rental_uris":{"android":"levelo://app?vid=f663f295-c346-4c5d-8e25-19d433cb2d87","ios":"levelo://app?vid=f663f295-c346-4c5d-8e25-19d433cb2d87"},"vehicle_type_id":"4","last_reported":1727547067,"current_range_meters":8400,"station_id":"ce4bgvp2rcd13ifvqct0","pricing_plan_id":"cebpf4jnsgd1na2vs0mg"},{"bike_id":"3b170ecf-4bbb-421f-886d-94818fba1de8","system_id":"levelo_inurba_marseille","lat":43.28492,"lon":5.40046,"is_reserved":false,"is_disabled":false,"rental_uris":{"android":"levelo://app?vid=3b170ecf-4bbb-421f-886d-94818fba1de8","ios":"levelo://app?vid=3b170ecf-4bbb-421f-886d-94818fba1de8"},"vehicle_type_id":"4","last_reported":1727547067,"current_range_meters":36400,"station_id":"ce4bh2h2rcd13ifvqdh0","pricing_plan_id":"cebpf4jnsgd1na2vs0mg"},{"bike_id":"de704d9e-d5ce-4f43-a84a-56dc0f451b48","system_id":"levelo_inurba_marseille","lat":43.29433,"lon":5.38603,"is_reserved":false,"is_disabled":false,"rental_uris":{"android":"levelo://app?vid=de704d9e-d5ce-4f43-a84a-56dc0f451b48","ios":"levelo://app?vid=de704d9e-d5ce-4f43-a84a-56dc0f451b48"},"vehicle_type_id":"4","last_reported":1727547067,"current_range_meters":37600,"station_id":"ce4bh2h2rcd13ifvqdh0","pricing_plan_id":"cebpf4jnsgd1na2vs0mg"},{"bike_id":"1b5c59f8-89a9-4e46-93f7-af2461aa251a","system_id":"levelo_inurba_marseille","lat":43.23964,"lon":5.36629,"is_reserved":false,"is_disabled":false,"rental_uris":{"android":"levelo://app?vid=1b5c59f8-89a9-4e46-93f7-af2461aa251a","ios":"levelo://app?vid=1b5c59f8-89a9-4e46-93f7-af2461aa251a"},"vehicle_type_id":"4","last_reported":1727547067,"current_range_meters":9200,"station_id":"ce4bhi12rcd13ifvqfp0","pricing_plan_id":"cebpf4jnsgd1na2vs0mg"},{"bike_id":"de3ca0ce-601a-4c2d-9698-5635c756a39e","system_id":"levelo_inurba_marseille","lat":43.28267,"lon":5.35085,"is_reserved":false,"is_disabled":false,"rental_uris":{"android":"levelo://app?vid=de3ca0ce-601a-4c2d-9698-5635c756a39e","ios":"levelo://app?vid=de3ca0ce-601a-4c2d-9698-5635c756a39e"},"vehicle_type_id":"4","last_reported":1727547067,"current_range_meters":40000,"station_id":"ce4bhbp2rcd13ifvqerg","pricing_plan_id":"cebpf4jnsgd1na2vs0mg"},{"bike_id":"8f1adf28-1e5a-4a9e-b3d1-69d9e33a370b","system_id":"levelo_inurba_marseille","lat":43.29256,"lon":5.3844,"is_reserved":false,"is_disabled":false,"rental_uris":{"android":"levelo://app?vid=8f1adf28-1e5a-4a9e-b3d1-69d9e33a370b","ios":"levelo://app?vid=8f1adf28-1e5a-4a9e-b3d1-69d9e33a370b"},"vehicle_type_id":"4","last_reported":1727547067,"current_range_meters":20400,"station_id":"ce4bh692rcd13ifvqea0","pricing_plan_id":"cebpf4jnsgd1na2vs0mg"},{"bike_id":"1fc91da5-5505-4ca9-810a-c5838ed72fc9","system_id":"levelo_inurba_marseille","lat":43.30141,"lon":5.37424,"is_reserved":false,"is_disabled":false,"rental_uris":{"android":"levelo://app?vid=1fc91da5-5505-4ca9-810a-c5838ed72fc9","ios":"levelo://app?vid=1fc91da5-5505-4ca9-810a-c5838ed72fc9"},"vehicle_type_id":"4","last_reported":1727547067,"current_range_meters":17600,"station_id":"ce4bgs92rcd13ifvqcc0","pricing_plan_id":"cebpf4jnsgd1na2vs0mg"},{"bike_id":"c7f92961-47a9-4184-b651-35cb3fb37bbd","system_id":"levelo_inurba_marseille","lat":43.29581,"lon":5.37511,"is_reserved":false,"is_disabled":false,"rental_uris":{"android":"levelo://app?vid=c7f92961-47a9-4184-b651-35cb3fb37bbd","ios":"levelo://app?vid=c7f92961-47a9-4184-b651-35cb3fb37bbd"},"vehicle_type_id":"4","last_reported":1727547067,"current_range_meters":36800,"station_id":"ce4bgh92rcd13ifvqb50","pricing_plan_id":"cebpf4jnsgd1na2vs0mg"},{"bike_id":"5fce9e69-a4bc-466b-9f3d-a464b9926fe6","system_id":"levelo_inurba_marseille","lat":43.27947,"lon":5.41047,"is_reserved":false,"is_disabled":false,"rental_uris":{"android":"levelo://app?vid=5fce9e69-a4bc-466b-9f3d-a464b9926fe6","ios":"levelo://app?vid=5fce9e69-a4bc-466b-9f3d-a464b9926fe6"},"vehicle_type_id":"4","last_reported":1727547067,"current_range_meters":30400,"station_id":"ce4bhnp2rcd13ifvqh0g","pricing_plan_id":"cebpf4jnsgd1na2vs0mg"},{"bike_id":"0366810a-018b-4fc2-93d5-9c21f3d9e109","system_id":"levelo_inurba_marseille","lat":43.29306,"lon":5.37173,"is_reserved":false,"is_disabled":false,"rental_uris":{"android":"levelo://app?vid=0366810a-018b-4fc2-93d5-9c21f3d9e109","ios":"levelo://app?vid=0366810a-018b-4fc2-93d5-9c21f3d9e109"},"vehicle_type_id":"4","last_reported":1727547067,"current_range_meters":31200,"station_id":"ce4bgh92rcd13ifvqb40","pricing_plan_id":"cebpf4jnsgd1na2vs0mg"},{"bike_id":"fff7ca58-9a03-4aea-a8e5-eccdf53b0b4b","system_id":"levelo_inurba_marseille","lat":43.28431,"lon":5.3919,"is_reserved":false,"is_disabled":false,"rental_uris":{"android":"levelo://app?vid=fff7ca58-9a03-4aea-a8e5-eccdf53b0b4b","ios":"levelo://app?vid=fff7ca58-9a03-4aea-a8e5-eccdf53b0b4b"},"vehicle_type_id":"4","last_reported":1727547067,"current_range_meters":38000,"station_id":"ce4bhoh2rcd13ifvqh5g","pricing_plan_id":"cebpf4jnsgd1na2vs0mg"},{"bike_id":"eb35b74a-e100-4849-baf8-86135e114bef","system_id":"levelo_inurba_marseille","lat":43.23157,"lon":5.437,"is_reserved":false,"is_disabled":false,"rental_uris":{"android":"levelo://app?vid=eb35b74a-e100-4849-baf8-86135e114bef","ios":"levelo://app?vid=eb35b74a-e100-4849-baf8-86135e114bef"},"vehicle_type_id":"4","last_reported":1727547067,"current_range_meters":36400,"station_id":"ce4bhmp2rcd13ifvqgog","pricing_plan_id":"cebpf4jnsgd1na2vs0mg"},{"bike_id":"1b5b4caa-d6d6-4856-bf01-f3a7cca85928","system_id":"levelo_inurba_marseille","lat":43.27948,"lon":5.38701,"is_reserved":false,"is_disabled":false,"rental_uris":{"android":"levelo://app?vid=1b5b4caa-d6d6-4856-bf01-f3a7cca85928","ios":"levelo://app?vid=1b5b4caa-d6d6-4856-bf01-f3a7cca85928"},"vehicle_type_id":"4","last_reported":1727547067,"current_range_meters":4000,"station_id":"ce4bhg12rcd13ifvqf80","pricing_plan_id":"cebpf4jnsgd1na2vs0mg"},{"bike_id":"b7edec61-05a9-4448-8725-131f3fa0925d","system_id":"levelo_inurba_marseille","lat":43.30137,"lon":5.37427,"is_reserved":false,"is_disabled":false,"rental_uris":{"android":"levelo://app?vid=b7edec61-05a9-4448-8725-131f3fa0925d","ios":"levelo://app?vid=b7edec61-05a9-4448-8725-131f3fa0925d"},"vehicle_type_id":"4","last_reported":1727547067,"current_range_meters":38800,"station_id":"ce4bgs92rcd13ifvqcc0","pricing_plan_id":"cebpf4jnsgd1na2vs0mg"},{"bike_id":"8238858f-58f3-4fdc-8a0c-578cf2c0b572","system_id":"levelo_inurba_marseille","lat":43.2694,"lon":5.40267,"is_reserved":false,"is_disabled":false,"rental_uris":{"android":"levelo://app?vid=8238858f-58f3-4fdc-8a0c-578cf2c0b572","ios":"levelo://app?vid=8238858f-58f3-4fdc-8a0c-578cf2c0b572"},"vehicle_type_id":"4","last_reported":1727547067,"current_range_meters":21600,"station_id":"cjm6bp8fraef2m0cb0m0","pricing_plan_id":"cebpf4jnsgd1na2vs0mg"},{"bike_id":"ceda1303-8e1d-4d6f-8792-80ce6a3025d5","system_id":"levelo_inurba_marseille","lat":43.31722,"lon":5.43678,"is_reserved":false,"is_disabled":false,"rental_uris":{"android":"levelo://app?vid=ceda1303-8e1d-4d6f-8792-80ce6a3025d5","ios":"levelo://app?vid=ceda1303-8e1d-4d6f-8792-80ce6a3025d5"},"vehicle_type_id":"4","last_reported":1727547067,"current_range_meters":4800,"station_id":"ce4bhp92rcd13ifvqhcg","pricing_plan_id":"cebpf4jnsgd1na2vs0mg"},{"bike_id":"248828cb-c062-4397-b804-7dfba96f4a27","system_id":"levelo_inurba_marseille","lat":43.30903,"lon":5.37216,"is_reserved":false,"is_disabled":false,"rental_uris":{"android":"levelo://app?vid=248828cb-c062-4397-b804-7dfba96f4a27","ios":"levelo://app?vid=248828cb-c062-4397-b804-7dfba96f4a27"},"vehicle_type_id":"4","last_reported":1727547067,"current_range_meters":16400,"station_id":"ce4bguh2rcd13ifvqckg","pricing_plan_id":"cebpf4jnsgd1na2vs0mg"},{"bike_id":"8eb5911f-c95e-4f31-a6d6-b3cd459f46bc","system_id":"levelo_inurba_marseille","lat":43.32481,"lon":5.36575,"is_reserved":false,"is_disabled":false,"rental_uris":{"android":"levelo://app?vid=8eb5911f-c95e-4f31-a6d6-b3cd459f46bc","ios":"levelo://app?vid=8eb5911f-c95e-4f31-a6d6-b3cd459f46bc"},"vehicle_type_id":"4","last_reported":1727547067,"current_range_meters":16400,"station_id":"ce4bhs12rcd13ifvqhvg","pricing_plan_id":"cebpf4jnsgd1na2vs0mg"},{"bike_id":"80e4479e-510e-4a0b-b957-43ceb24b22e5","system_id":"levelo_inurba_marseille","lat":43.25582,"lon":5.38248,"is_reserved":false,"is_disabled":false,"rental_uris":{"android":"levelo://app?vid=80e4479e-510e-4a0b-b957-43ceb24b22e5","ios":"levelo://app?vid=80e4479e-510e-4a0b-b957-43ceb24b22e5"},"vehicle_type_id":"4","last_reported":1727547067,"current_range_meters":8800,"station_id":"ce4bhih2rcd13ifvqfs0","pricing_plan_id":"cebpf4jnsgd1na2vs0mg"},{"bike_id":"b7182170-31fe-4052-872f-0c90d06a407f","system_id":"levelo_inurba_marseille","lat":43.28104,"lon":5.37839,"is_reserved":false,"is_disabled":false,"rental_uris":{"android":"levelo://app?vid=b7182170-31fe-4052-872f-0c90d06a407f","ios":"levelo://app?vid=b7182170-31fe-4052-872f-0c90d06a407f"},"vehicle_type_id":"4","last_reported":1727547067,"current_range_meters":11200,"station_id":"ce4bha12rcd13ifvqee0","pricing_plan_id":"cebpf4jnsgd1na2vs0mg"},{"bike_id":"da7a0958-aa7b-4685-a44a-b6e07ea47ade","system_id":"levelo_inurba_marseille","lat":43.29892,"lon":5.38876,"is_reserved":false,"is_disabled":false,"rental_uris":{"android":"levelo://app?vid=da7a0958-aa7b-4685-a44a-b6e07ea47ade","ios":"levelo://app?vid=da7a0958-aa7b-4685-a44a-b6e07ea47ade"},"vehicle_type_id":"4","last_reported":1727547067,"current_range_meters":20000,"station_id":"ce4bgkh2rcd13ifvqbk0","pricing_plan_id":"cebpf4jnsgd1na2vs0mg"},{"bike_id":"ce192fae-8e79-405f-aae6-e5055c6b7e4e","system_id":"levelo_inurba_marseille","lat":43.28668,"lon":5.38674,"is_reserved":false,"is_disabled":false,"rental_uris":{"android":"levelo://app?vid=ce192fae-8e79-405f-aae6-e5055c6b7e4e","ios":"levelo://app?vid=ce192fae-8e79-405f-aae6-e5055c6b7e4e"},"vehicle_type_id":"4","last_reported":1727547067,"current_range_meters":38800,"station_id":"ce4bh492rcd13ifvqdug","pricing_plan_id":"cebpf4jnsgd1na2vs0mg"},{"bike_id":"5d5ce8f7-bc3d-48b3-b5e9-3ed06ef2c30a","system_id":"levelo_inurba_marseille","lat":43.29447,"lon":5.39756,"is_reserved":false,"is_disabled":false,"rental_uris":{"android":"levelo://app?vid=5d5ce8f7-bc3d-48b3-b5e9-3ed06ef2c30a","ios":"levelo://app?vid=5d5ce8f7-bc3d-48b3-b5e9-3ed06ef2c30a"},"vehicle_type_id":"4","last_reported":1727547067,"current_range_meters":15200,"station_id":"ce4bh3h2rcd13ifvqdo0","pricing_plan_id":"cebpf4jnsgd1na2vs0mg"},{"bike_id":"9efdf05c-571e-4c3a-a0bf-af0e0fbc032d","system_id":"levelo_inurba_marseille","lat":43.25092,"lon":5.39515,"is_reserved":false,"is_disabled":false,"rental_uris":{"android":"levelo://app?vid=9efdf05c-571e-4c3a-a0bf-af0e0fbc032d","ios":"levelo://app?vid=9efdf05c-571e-4c3a-a0bf-af0e0fbc032d"},"vehicle_type_id":"4","last_reported":1727547067,"current_range_meters":22400,"station_id":"ce4bhm12rcd13ifvqgkg","pricing_plan_id":"cebpf4jnsgd1na2vs0mg"},{"bike_id":"a9c91798-71f2-4080-867a-43aa3846d09c","system_id":"levelo_inurba_marseille","lat":43.293,"lon":5.3747,"is_reserved":false,"is_disabled":false,"rental_uris":{"android":"levelo://app?vid=a9c91798-71f2-4080-867a-43aa3846d09c","ios":"levelo://app?vid=a9c91798-71f2-4080-867a-43aa3846d09c"},"vehicle_type_id":"4","last_reported":1727547067,"current_range_meters":4400,"station_id":"ce4bgi12rcd13ifvqb70","pricing_plan_id":"cebpf4jnsgd1na2vs0mg"},{"bike_id":"8537bd26-c143-480b-ac7c-86d2b5338011","system_id":"levelo_inurba_marseille","lat":43.26206,"lon":5.37451,"is_reserved":false,"is_disabled":false,"rental_uris":{"android":"levelo://app?vid=8537bd26-c143-480b-ac7c-86d2b5338011","ios":"levelo://app?vid=8537bd26-c143-480b-ac7c-86d2b5338011"},"vehicle_type_id":"4","last_reported":1727547067,"current_range_meters":6400,"station_id":"ce4bhgp2rcd13ifvqfc0","pricing_plan_id":"cebpf4jnsgd1na2vs0mg"},{"bike_id":"199f764e-7942-4511-a407-33ff4a7dc457","system_id":"levelo_inurba_marseille","lat":43.26028,"lon":5.37557,"is_reserved":false,"is_disabled":false,"rental_uris":{"android":"levelo://app?vid=199f764e-7942-4511-a407-33ff4a7dc457","ios":"levelo://app?vid=199f764e-7942-4511-a407-33ff4a7dc457"},"vehicle_type_id":"4","last_reported":1727547067,"current_range_meters":38800,"station_id":"ce4bhgh2rcd13ifvqfa0","pricing_plan_id":"cebpf4jnsgd1na2vs0mg"},{"bike_id":"0701cf2a-674c-4c9d-af1e-6650acbaaf74","system_id":"levelo_inurba_marseille","lat":43.28382,"lon":5.37289,"is_reserved":false,"is_disabled":false,"rental_uris":{"android":"levelo://app?vid=0701cf2a-674c-4c9d-af1e-6650acbaaf74","ios":"levelo://app?vid=0701cf2a-674c-4c9d-af1e-6650acbaaf74"},"vehicle_type_id":"4","last_reported":1727547067,"current_range_meters":14800,"station_id":"","pricing_plan_id":"cebpf4jnsgd1na2vs0mg"},{"bike_id":"d86317a1-328b-47fe-b46d-82282492c3b2","system_id":"levelo_inurba_marseille","lat":43.28153,"lon":5.42647,"is_reserved":false,"is_disabled":false,"rental_uris":{"android":"levelo://app?vid=d86317a1-328b-47fe-b46d-82282492c3b2","ios":"levelo://app?vid=d86317a1-328b-47fe-b46d-82282492c3b2"},"vehicle_type_id":"4","last_reported":1727547067,"current_range_meters":32400,"station_id":"ce4bhnh2rcd13ifvqgug","pricing_plan_id":"cebpf4jnsgd1na2vs0mg"},{"bike_id":"f8eb0f3c-9625-474f-9c73-672d87726f31","system_id":"levelo_inurba_marseille","lat":43.28674,"lon":5.3867,"is_reserved":false,"is_disabled":false,"rental_uris":{"android":"levelo://app?vid=f8eb0f3c-9625-474f-9c73-672d87726f31","ios":"levelo://app?vid=f8eb0f3c-9625-474f-9c73-672d87726f31"},"vehicle_type_id":"4","last_reported":1727547067,"current_range_meters":38800,"station_id":"ce4bh492rcd13ifvqdug","pricing_plan_id":"cebpf4jnsgd1na2vs0mg"},{"bike_id":"1e111a8a-0d3b-40be-a5f2-6c45976f4b7d","system_id":"levelo_inurba_marseille","lat":43.29365,"lon":5.37854,"is_reserved":false,"is_disabled":false,"rental_uris":{"android":"levelo://app?vid=1e111a8a-0d3b-40be-a5f2-6c45976f4b7d","ios":"levelo://app?vid=1e111a8a-0d3b-40be-a5f2-6c45976f4b7d"},"vehicle_type_id":"4","last_reported":1727547067,"current_range_meters":14800,"station_id":"ce4bgjh2rcd13ifvqbf0","pricing_plan_id":"cebpf4jnsgd1na2vs0mg"},{"bike_id":"6cdca13d-24d1-4302-912a-54d18c748242","system_id":"levelo_inurba_marseille","lat":43.31083,"lon":5.40132,"is_reserved":false,"is_disabled":false,"rental_uris":{"android":"levelo://app?vid=6cdca13d-24d1-4302-912a-54d18c748242","ios":"levelo://app?vid=6cdca13d-24d1-4302-912a-54d18c748242"},"vehicle_type_id":"4","last_reported":1727547067,"current_range_meters":8400,"station_id":"","pricing_plan_id":"cebpf4jnsgd1na2vs0mg"},{"bike_id":"83d99919-0d38-4c91-80f3-a7770ea6e970","system_id":"levelo_inurba_marseille","lat":43.29263,"lon":5.38429,"is_reserved":false,"is_disabled":false,"rental_uris":{"android":"levelo://app?vid=83d99919-0d38-4c91-80f3-a7770ea6e970","ios":"levelo://app?vid=83d99919-0d38-4c91-80f3-a7770ea6e970"},"vehicle_type_id":"4","last_reported":1727547067,"current_range_meters":36400,"station_id":"ce4bh692rcd13ifvqea0","pricing_plan_id":"cebpf4jnsgd1na2vs0mg"},{"bike_id":"37a1124e-b7c6-4e15-9a6d-401ac467a1b6","system_id":"levelo_inurba_marseille","lat":43.27201,"lon":5.39196,"is_reserved":false,"is_disabled":false,"rental_uris":{"android":"levelo://app?vid=37a1124e-b7c6-4e15-9a6d-401ac467a1b6","ios":"levelo://app?vid=37a1124e-b7c6-4e15-9a6d-401ac467a1b6"},"vehicle_type_id":"4","last_reported":1727547067,"current_range_meters":38800,"station_id":"ce4bhhp2rcd13ifvqfm0","pricing_plan_id":"cebpf4jnsgd1na2vs0mg"},{"bike_id":"7a00023f-56c4-4783-b2a5-18ce5d78331a","system_id":"levelo_inurba_marseille","lat":43.250856,"lon":5.395238,"is_reserved":false,"is_disabled":false,"rental_uris":{"android":"levelo://app?vid=7a00023f-56c4-4783-b2a5-18ce5d78331a","ios":"levelo://app?vid=7a00023f-56c4-4783-b2a5-18ce5d78331a"},"vehicle_type_id":"4","last_reported":1727547067,"current_range_meters":6400,"station_id":"ce4bhm12rcd13ifvqgkg","pricing_plan_id":"cebpf4jnsgd1na2vs0mg"},{"bike_id":"03c5ef95-472f-415e-a264-a117e4def33f","system_id":"levelo_inurba_marseille","lat":43.30953,"lon":5.39028,"is_reserved":false,"is_disabled":false,"rental_uris":{"android":"levelo://app?vid=03c5ef95-472f-415e-a264-a117e4def33f","ios":"levelo://app?vid=03c5ef95-472f-415e-a264-a117e4def33f"},"vehicle_type_id":"4","last_reported":1727547067,"current_range_meters":38800,"station_id":"ce4bgup2rcd13ifvqco0","pricing_plan_id":"cebpf4jnsgd1na2vs0mg"},{"bike_id":"d95cafd2-6ec0-4b24-8abf-5f45e8563d38","system_id":"levelo_inurba_marseille","lat":43.26034,"lon":5.3755,"is_reserved":false,"is_disabled":false,"rental_uris":{"android":"levelo://app?vid=d95cafd2-6ec0-4b24-8abf-5f45e8563d38","ios":"levelo://app?vid=d95cafd2-6ec0-4b24-8abf-5f45e8563d38"},"vehicle_type_id":"4","last_reported":1727547067,"current_range_meters":36400,"station_id":"ce4bhgh2rcd13ifvqfa0","pricing_plan_id":"cebpf4jnsgd1na2vs0mg"},{"bike_id":"d1b26f23-e6e3-4ffb-9452-bc5650506691","system_id":"levelo_inurba_marseille","lat":43.29526,"lon":5.39042,"is_reserved":false,"is_disabled":false,"rental_uris":{"android":"levelo://app?vid=d1b26f23-e6e3-4ffb-9452-bc5650506691","ios":"levelo://app?vid=d1b26f23-e6e3-4ffb-9452-bc5650506691"},"vehicle_type_id":"4","last_reported":1727547067,"current_range_meters":20000,"station_id":"ce4bh3p2rcd13ifvqdp0","pricing_plan_id":"cebpf4jnsgd1na2vs0mg"},{"bike_id":"5220e7ba-5183-450c-986e-1a09b217d618","system_id":"levelo_inurba_marseille","lat":43.28265,"lon":5.35078,"is_reserved":false,"is_disabled":false,"rental_uris":{"android":"levelo://app?vid=5220e7ba-5183-450c-986e-1a09b217d618","ios":"levelo://app?vid=5220e7ba-5183-450c-986e-1a09b217d618"},"vehicle_type_id":"4","last_reported":1727547067,"current_range_meters":2800,"station_id":"ce4bhbp2rcd13ifvqerg","pricing_plan_id":"cebpf4jnsgd1na2vs0mg"},{"bike_id":"3407da71-e9f5-4375-9956-506983640a2f","system_id":"levelo_inurba_marseille","lat":43.2899,"lon":5.37591,"is_reserved":false,"is_disabled":false,"rental_uris":{"android":"levelo://app?vid=3407da71-e9f5-4375-9956-506983640a2f","ios":"levelo://app?vid=3407da71-e9f5-4375-9956-506983640a2f"},"vehicle_type_id":"4","last_reported":1727547067,"current_range_meters":28000,"station_id":"ce4bh692rcd13ifvqe90","pricing_plan_id":"cebpf4jnsgd1na2vs0mg"},{"bike_id":"50706d55-3aa6-40fe-9c0c-e224fd895e38","system_id":"levelo_inurba_marseille","lat":43.31371,"lon":5.38498,"is_reserved":false,"is_disabled":false,"rental_uris":{"android":"levelo://app?vid=50706d55-3aa6-40fe-9c0c-e224fd895e38","ios":"levelo://app?vid=50706d55-3aa6-40fe-9c0c-e224fd895e38"},"vehicle_type_id":"4","last_reported":1727547067,"current_range_meters":30000,"station_id":"ce4bgt92rcd13ifvqcf0","pricing_plan_id":"cebpf4jnsgd1na2vs0mg"},{"bike_id":"d76dccaf-8c44-4da5-be3e-d7392fe238c9","system_id":"levelo_inurba_marseille","lat":43.30586,"lon":5.39343,"is_reserved":false,"is_disabled":false,"rental_uris":{"android":"levelo://app?vid=d76dccaf-8c44-4da5-be3e-d7392fe238c9","ios":"levelo://app?vid=d76dccaf-8c44-4da5-be3e-d7392fe238c9"},"vehicle_type_id":"4","last_reported":1727547067,"current_range_meters":8000,"station_id":"ce4bh0p2rcd13ifvqd80","pricing_plan_id":"cebpf4jnsgd1na2vs0mg"},{"bike_id":"4f04915c-ea45-4067-b437-1ff8f8180cc9","system_id":"levelo_inurba_marseille","lat":43.27209,"lon":5.39187,"is_reserved":false,"is_disabled":false,"rental_uris":{"android":"levelo://app?vid=4f04915c-ea45-4067-b437-1ff8f8180cc9","ios":"levelo://app?vid=4f04915c-ea45-4067-b437-1ff8f8180cc9"},"vehicle_type_id":"4","last_reported":1727547067,"current_range_meters":28400,"station_id":"ce4bhhp2rcd13ifvqfm0","pricing_plan_id":"cebpf4jnsgd1na2vs0mg"},{"bike_id":"616e2356-ee14-4f30-bef3-23b8b26ec636","system_id":"levelo_inurba_marseille","lat":43.30307,"lon":5.39211,"is_reserved":false,"is_disabled":false,"rental_uris":{"android":"levelo://app?vid=616e2356-ee14-4f30-bef3-23b8b26ec636","ios":"levelo://app?vid=616e2356-ee14-4f30-bef3-23b8b26ec636"},"vehicle_type_id":"4","last_reported":1727547067,"current_range_meters":19200,"station_id":"ce4bgkh2rcd13ifvqbk0","pricing_plan_id":"cebpf4jnsgd1na2vs0mg"},{"bike_id":"bfd00496-1643-434b-86b2-4b91a4b3a05e","system_id":"levelo_inurba_marseille","lat":43.2318,"lon":5.39989,"is_reserved":false,"is_disabled":false,"rental_uris":{"android":"levelo://app?vid=bfd00496-1643-434b-86b2-4b91a4b3a05e","ios":"levelo://app?vid=bfd00496-1643-434b-86b2-4b91a4b3a05e"},"vehicle_type_id":"4","last_reported":1727547067,"current_range_meters":14000,"station_id":"ce4bhn12rcd13ifvqgqg","pricing_plan_id":"cebpf4jnsgd1na2vs0mg"},{"bike_id":"2bab82c9-0d0f-4d65-b04c-28688b0ff6e4","system_id":"levelo_inurba_marseille","lat":43.29306,"lon":5.374418,"is_reserved":false,"is_disabled":false,"rental_uris":{"android":"levelo://app?vid=2bab82c9-0d0f-4d65-b04c-28688b0ff6e4","ios":"levelo://app?vid=2bab82c9-0d0f-4d65-b04c-28688b0ff6e4"},"vehicle_type_id":"4","last_reported":1727547067,"current_range_meters":28800,"station_id":"ce4bhah2rcd13ifvqej0","pricing_plan_id":"cebpf4jnsgd1na2vs0mg"},{"bike_id":"275b0a25-1a9f-498c-9202-be550b06c3de","system_id":"levelo_inurba_marseille","lat":43.32289,"lon":5.38291,"is_reserved":false,"is_disabled":false,"rental_uris":{"android":"levelo://app?vid=275b0a25-1a9f-498c-9202-be550b06c3de","ios":"levelo://app?vid=275b0a25-1a9f-498c-9202-be550b06c3de"},"vehicle_type_id":"4","last_reported":1727547067,"current_range_meters":39200,"station_id":"ce4bhr12rcd13ifvqhqg","pricing_plan_id":"cebpf4jnsgd1na2vs0mg"},{"bike_id":"e0448498-1923-4013-96e2-5aec4fc93af7","system_id":"levelo_inurba_marseille","lat":43.24804,"lon":5.37454,"is_reserved":false,"is_disabled":false,"rental_uris":{"android":"levelo://app?vid=e0448498-1923-4013-96e2-5aec4fc93af7","ios":"levelo://app?vid=e0448498-1923-4013-96e2-5aec4fc93af7"},"vehicle_type_id":"4","last_reported":1727547067,"current_range_meters":38400,"station_id":"ce4bhgh2rcd13ifvqfb0","pricing_plan_id":"cebpf4jnsgd1na2vs0mg"},{"bike_id":"7e33d57b-5f08-4740-8a78-150e270fa735","system_id":"levelo_inurba_marseille","lat":43.29553,"lon":5.42293,"is_reserved":false,"is_disabled":false,"rental_uris":{"android":"levelo://app?vid=7e33d57b-5f08-4740-8a78-150e270fa735","ios":"levelo://app?vid=7e33d57b-5f08-4740-8a78-150e270fa735"},"vehicle_type_id":"4","last_reported":1727547067,"current_range_meters":31200,"station_id":"ce4bhph2rcd13ifvqhdg","pricing_plan_id":"cebpf4jnsgd1na2vs0mg"},{"bike_id":"0c3f0369-7cdf-4cba-a0db-09435ab8c8da","system_id":"levelo_inurba_marseille","lat":43.23183,"lon":5.4,"is_reserved":false,"is_disabled":false,"rental_uris":{"android":"levelo://app?vid=0c3f0369-7cdf-4cba-a0db-09435ab8c8da","ios":"levelo://app?vid=0c3f0369-7cdf-4cba-a0db-09435ab8c8da"},"vehicle_type_id":"4","last_reported":1727547067,"current_range_meters":30000,"station_id":"ce4bhn12rcd13ifvqgqg","pricing_plan_id":"cebpf4jnsgd1na2vs0mg"},{"bike_id":"b731020f-c049-475d-837c-14613ccbd9f2","system_id":"levelo_inurba_marseille","lat":43.25086,"lon":5.39528,"is_reserved":false,"is_disabled":false,"rental_uris":{"android":"levelo://app?vid=b731020f-c049-475d-837c-14613ccbd9f2","ios":"levelo://app?vid=b731020f-c049-475d-837c-14613ccbd9f2"},"vehicle_type_id":"4","last_reported":1727547067,"current_range_meters":32000,"station_id":"ce4bhm12rcd13ifvqgkg","pricing_plan_id":"cebpf4jnsgd1na2vs0mg"},{"bike_id":"6de67628-11b0-4651-965f-7729e38c8d9a","system_id":"levelo_inurba_marseille","lat":43.28424,"lon":5.37522,"is_reserved":false,"is_disabled":false,"rental_uris":{"android":"levelo://app?vid=6de67628-11b0-4651-965f-7729e38c8d9a","ios":"levelo://app?vid=6de67628-11b0-4651-965f-7729e38c8d9a"},"vehicle_type_id":"4","last_reported":1727547067,"current_range_meters":9600,"station_id":"ce4bh412rcd13ifvqds0","pricing_plan_id":"cebpf4jnsgd1na2vs0mg"},{"bike_id":"5a82e63b-00bc-4dd6-999c-0f820645be1c","system_id":"levelo_inurba_marseille","lat":43.31354,"lon":5.38501,"is_reserved":false,"is_disabled":false,"rental_uris":{"android":"levelo://app?vid=5a82e63b-00bc-4dd6-999c-0f820645be1c","ios":"levelo://app?vid=5a82e63b-00bc-4dd6-999c-0f820645be1c"},"vehicle_type_id":"4","last_reported":1727547067,"current_range_meters":10000,"station_id":"ce4bgt92rcd13ifvqcf0","pricing_plan_id":"cebpf4jnsgd1na2vs0mg"},{"bike_id":"ab6dc925-331c-4640-a0a0-ddeda01fa995","system_id":"levelo_inurba_marseille","lat":43.254944,"lon":5.37648,"is_reserved":false,"is_disabled":false,"rental_uris":{"android":"levelo://app?vid=ab6dc925-331c-4640-a0a0-ddeda01fa995","ios":"levelo://app?vid=ab6dc925-331c-4640-a0a0-ddeda01fa995"},"vehicle_type_id":"4","last_reported":1727547067,"current_range_meters":37600,"station_id":"ce4bhh12rcd13ifvqff0","pricing_plan_id":"cebpf4jnsgd1na2vs0mg"},{"bike_id":"a2d940d7-10f7-44c8-8a20-ed8f60c6d170","system_id":"levelo_inurba_marseille","lat":43.30794,"lon":5.37666,"is_reserved":false,"is_disabled":false,"rental_uris":{"android":"levelo://app?vid=a2d940d7-10f7-44c8-8a20-ed8f60c6d170","ios":"levelo://app?vid=a2d940d7-10f7-44c8-8a20-ed8f60c6d170"},"vehicle_type_id":"4","last_reported":1727547067,"current_range_meters":9600,"station_id":"ce4bgv92rcd13ifvqcq0","pricing_plan_id":"cebpf4jnsgd1na2vs0mg"},{"bike_id":"cd6da31a-c051-4515-b883-77718034ff6b","system_id":"levelo_inurba_marseille","lat":43.25862,"lon":5.39902,"is_reserved":false,"is_disabled":false,"rental_uris":{"android":"levelo://app?vid=cd6da31a-c051-4515-b883-77718034ff6b","ios":"levelo://app?vid=cd6da31a-c051-4515-b883-77718034ff6b"},"vehicle_type_id":"4","last_reported":1727547067,"current_range_meters":11600,"station_id":"ce4bhl92rcd13ifvqghg","pricing_plan_id":"cebpf4jnsgd1na2vs0mg"},{"bike_id":"d8e32f1c-4c32-4777-922d-4d90b15b71c7","system_id":"levelo_inurba_marseille","lat":43.30863,"lon":5.3685,"is_reserved":false,"is_disabled":false,"rental_uris":{"android":"levelo://app?vid=d8e32f1c-4c32-4777-922d-4d90b15b71c7","ios":"levelo://app?vid=d8e32f1c-4c32-4777-922d-4d90b15b71c7"},"vehicle_type_id":"4","last_reported":1727547067,"current_range_meters":8800,"station_id":"ce4bgn92rcd13ifvqbvg","pricing_plan_id":"cebpf4jnsgd1na2vs0mg"},{"bike_id":"b470945e-f45c-4291-ac95-d7061c9aab44","system_id":"levelo_inurba_marseille","lat":43.27377,"lon":5.41217,"is_reserved":false,"is_disabled":false,"rental_uris":{"android":"levelo://app?vid=b470945e-f45c-4291-ac95-d7061c9aab44","ios":"levelo://app?vid=b470945e-f45c-4291-ac95-d7061c9aab44"},"vehicle_type_id":"4","last_reported":1727547067,"current_range_meters":27600,"station_id":"","pricing_plan_id":"cebpf4jnsgd1na2vs0mg"},{"bike_id":"21ef2630-a0e1-410e-809e-79d15c97a263","system_id":"levelo_inurba_marseille","lat":43.29803,"lon":5.38093,"is_reserved":false,"is_disabled":false,"rental_uris":{"android":"levelo://app?vid=21ef2630-a0e1-410e-809e-79d15c97a263","ios":"levelo://app?vid=21ef2630-a0e1-410e-809e-79d15c97a263"},"vehicle_type_id":"4","last_reported":1727547067,"current_range_meters":36000,"station_id":"ce4bgip2rcd13ifvqbb0","pricing_plan_id":"cebpf4jnsgd1na2vs0mg"},{"bike_id":"ba48508c-4bf3-4e93-b06c-a1aca97b82ff","system_id":"levelo_inurba_marseille","lat":43.26555,"lon":5.37285,"is_reserved":false,"is_disabled":false,"rental_uris":{"android":"levelo://app?vid=ba48508c-4bf3-4e93-b06c-a1aca97b82ff","ios":"levelo://app?vid=ba48508c-4bf3-4e93-b06c-a1aca97b82ff"},"vehicle_type_id":"4","last_reported":1727547067,"current_range_meters":5600,"station_id":"ce4bhg12rcd13ifvqf70","pricing_plan_id":"cebpf4jnsgd1na2vs0mg"},{"bike_id":"9026801e-b5b2-4b8d-8247-a09c24c535b6","system_id":"levelo_inurba_marseille","lat":43.28082,"lon":5.39663,"is_reserved":false,"is_disabled":false,"rental_uris":{"android":"levelo://app?vid=9026801e-b5b2-4b8d-8247-a09c24c535b6","ios":"levelo://app?vid=9026801e-b5b2-4b8d-8247-a09c24c535b6"},"vehicle_type_id":"4","last_reported":1727547067,"current_range_meters":16400,"station_id":"ce4bho12rcd13ifvqh2g","pricing_plan_id":"cebpf4jnsgd1na2vs0mg"},{"bike_id":"e4361fa2-90d9-45ff-9d8a-e7b112f4e011","system_id":"levelo_inurba_marseille","lat":43.28507,"lon":5.39125,"is_reserved":false,"is_disabled":false,"rental_uris":{"android":"levelo://app?vid=e4361fa2-90d9-45ff-9d8a-e7b112f4e011","ios":"levelo://app?vid=e4361fa2-90d9-45ff-9d8a-e7b112f4e011"},"vehicle_type_id":"4","last_reported":1727547067,"current_range_meters":32400,"station_id":"ce4bh3p2rcd13ifvqdp0","pricing_plan_id":"cebpf4jnsgd1na2vs0mg"},{"bike_id":"65f828c7-d12b-47c9-87f8-27b2e7121317","system_id":"levelo_inurba_marseille","lat":43.249973,"lon":5.389302,"is_reserved":false,"is_disabled":false,"rental_uris":{"android":"levelo://app?vid=65f828c7-d12b-47c9-87f8-27b2e7121317","ios":"levelo://app?vid=65f828c7-d12b-47c9-87f8-27b2e7121317"},"vehicle_type_id":"4","last_reported":1727547067,"current_range_meters":12800,"station_id":"ce4bhgp2rcd13ifvqfd0","pricing_plan_id":"cebpf4jnsgd1na2vs0mg"},{"bike_id":"cab45fd0-efbe-42f4-815f-9d32eba24a97","system_id":"levelo_inurba_marseille","lat":43.2792,"lon":5.41218,"is_reserved":false,"is_disabled":false,"rental_uris":{"android":"levelo://app?vid=cab45fd0-efbe-42f4-815f-9d32eba24a97","ios":"levelo://app?vid=cab45fd0-efbe-42f4-815f-9d32eba24a97"},"vehicle_type_id":"4","last_reported":1727547067,"current_range_meters":18000,"station_id":"","pricing_plan_id":"cebpf4jnsgd1na2vs0mg"},{"bike_id":"6eff8d2d-61fa-4715-9388-b30a052d3e98","system_id":"levelo_inurba_marseille","lat":43.337444,"lon":5.374475,"is_reserved":false,"is_disabled":false,"rental_uris":{"android":"levelo://app?vid=6eff8d2d-61fa-4715-9388-b30a052d3e98","ios":"levelo://app?vid=6eff8d2d-61fa-4715-9388-b30a052d3e98"},"vehicle_type_id":"4","last_reported":1727547067,"current_range_meters":32000,"station_id":"","pricing_plan_id":"cebpf4jnsgd1na2vs0mg"},{"bike_id":"568255f1-1589-4719-9997-80255b0e750e","system_id":"levelo_inurba_marseille","lat":43.30329,"lon":5.36656,"is_reserved":false,"is_disabled":false,"rental_uris":{"android":"levelo://app?vid=568255f1-1589-4719-9997-80255b0e750e","ios":"levelo://app?vid=568255f1-1589-4719-9997-80255b0e750e"},"vehicle_type_id":"4","last_reported":1727547067,"current_range_meters":38800,"station_id":"","pricing_plan_id":"cebpf4jnsgd1na2vs0mg"},{"bike_id":"49103c36-092f-43a6-a665-96ac4218adb8","system_id":"levelo_inurba_marseille","lat":43.3229,"lon":5.38272,"is_reserved":false,"is_disabled":false,"rental_uris":{"android":"levelo://app?vid=49103c36-092f-43a6-a665-96ac4218adb8","ios":"levelo://app?vid=49103c36-092f-43a6-a665-96ac4218adb8"},"vehicle_type_id":"4","last_reported":1727547067,"current_range_meters":38800,"station_id":"ce4bhr12rcd13ifvqhqg","pricing_plan_id":"cebpf4jnsgd1na2vs0mg"},{"bike_id":"c0ec20d6-4601-4fe4-b87b-e908f2216910","system_id":"levelo_inurba_marseille","lat":43.29162,"lon":5.3717,"is_reserved":false,"is_disabled":false,"rental_uris":{"android":"levelo://app?vid=c0ec20d6-4601-4fe4-b87b-e908f2216910","ios":"levelo://app?vid=c0ec20d6-4601-4fe4-b87b-e908f2216910"},"vehicle_type_id":"4","last_reported":1727547067,"current_range_meters":3600,"station_id":"ce4bha92rcd13ifvqeh0","pricing_plan_id":"cebpf4jnsgd1na2vs0mg"},{"bike_id":"19402152-3492-432d-9257-16faa02db2af","system_id":"levelo_inurba_marseille","lat":43.267822,"lon":5.394161,"is_reserved":false,"is_disabled":false,"rental_uris":{"android":"levelo://app?vid=19402152-3492-432d-9257-16faa02db2af","ios":"levelo://app?vid=19402152-3492-432d-9257-16faa02db2af"},"vehicle_type_id":"4","last_reported":1727547067,"current_range_meters":38800,"station_id":"ce4bhh12rcd13ifvqfg0","pricing_plan_id":"cebpf4jnsgd1na2vs0mg"},{"bike_id":"202f0daa-e472-43ad-a650-a5496e538b4e","system_id":"levelo_inurba_marseille","lat":43.28098,"lon":5.37836,"is_reserved":false,"is_disabled":false,"rental_uris":{"android":"levelo://app?vid=202f0daa-e472-43ad-a650-a5496e538b4e","ios":"levelo://app?vid=202f0daa-e472-43ad-a650-a5496e538b4e"},"vehicle_type_id":"4","last_reported":1727547067,"current_range_meters":33200,"station_id":"ce4bha12rcd13ifvqee0","pricing_plan_id":"cebpf4jnsgd1na2vs0mg"},{"bike_id":"6f0f9c32-de70-4574-9b89-cca29ab0554e","system_id":"levelo_inurba_marseille","lat":43.337444,"lon":5.374475,"is_reserved":false,"is_disabled":false,"rental_uris":{"android":"levelo://app?vid=6f0f9c32-de70-4574-9b89-cca29ab0554e","ios":"levelo://app?vid=6f0f9c32-de70-4574-9b89-cca29ab0554e"},"vehicle_type_id":"4","last_reported":1727547067,"current_range_meters":29600,"station_id":"","pricing_plan_id":"cebpf4jnsgd1na2vs0mg"},{"bike_id":"44839918-e841-4578-a34d-4d8014b09bc8","system_id":"levelo_inurba_marseille","lat":43.31225,"lon":5.36857,"is_reserved":false,"is_disabled":false,"rental_uris":{"android":"levelo://app?vid=44839918-e841-4578-a34d-4d8014b09bc8","ios":"levelo://app?vid=44839918-e841-4578-a34d-4d8014b09bc8"},"vehicle_type_id":"4","last_reported":1727547067,"current_range_meters":38800,"station_id":"ce4bgl92rcd13ifvqbq0","pricing_plan_id":"cebpf4jnsgd1na2vs0mg"},{"bike_id":"0687a646-be72-47a3-8907-22e0afb02a46","system_id":"levelo_inurba_marseille","lat":43.23962,"lon":5.36629,"is_reserved":false,"is_disabled":false,"rental_uris":{"android":"levelo://app?vid=0687a646-be72-47a3-8907-22e0afb02a46","ios":"levelo://app?vid=0687a646-be72-47a3-8907-22e0afb02a46"},"vehicle_type_id":"4","last_reported":1727547067,"current_range_meters":35200,"station_id":"ce4bhi12rcd13ifvqfp0","pricing_plan_id":"cebpf4jnsgd1na2vs0mg"},{"bike_id":"cd00f807-363f-44a3-a6d4-09923ffae01c","system_id":"levelo_inurba_marseille","lat":43.28849,"lon":5.39314,"is_reserved":false,"is_disabled":false,"rental_uris":{"android":"levelo://app?vid=cd00f807-363f-44a3-a6d4-09923ffae01c","ios":"levelo://app?vid=cd00f807-363f-44a3-a6d4-09923ffae01c"},"vehicle_type_id":"4","last_reported":1727547067,"current_range_meters":5600,"station_id":"ce4bh2p2rcd13ifvqdi0","pricing_plan_id":"cebpf4jnsgd1na2vs0mg"},{"bike_id":"90c05d40-f5db-4a12-95b3-f8d41ae2e51b","system_id":"levelo_inurba_marseille","lat":43.32377,"lon":5.3892,"is_reserved":false,"is_disabled":false,"rental_uris":{"android":"levelo://app?vid=90c05d40-f5db-4a12-95b3-f8d41ae2e51b","ios":"levelo://app?vid=90c05d40-f5db-4a12-95b3-f8d41ae2e51b"},"vehicle_type_id":"4","last_reported":1727547067,"current_range_meters":33600,"station_id":"ce4bhqp2rcd13ifvqhog","pricing_plan_id":"cebpf4jnsgd1na2vs0mg"},{"bike_id":"03b3c6b8-8479-4d30-9bce-fe17e29a7c2f","system_id":"levelo_inurba_marseille","lat":43.31172,"lon":5.38731,"is_reserved":false,"is_disabled":false,"rental_uris":{"android":"levelo://app?vid=03b3c6b8-8479-4d30-9bce-fe17e29a7c2f","ios":"levelo://app?vid=03b3c6b8-8479-4d30-9bce-fe17e29a7c2f"},"vehicle_type_id":"4","last_reported":1727547067,"current_range_meters":22000,"station_id":"ce4bgv12rcd13ifvqcp0","pricing_plan_id":"cebpf4jnsgd1na2vs0mg"},{"bike_id":"c0b89384-c32f-4a90-98b7-1916d02631ff","system_id":"levelo_inurba_marseille","lat":43.29196,"lon":5.39333,"is_reserved":false,"is_disabled":false,"rental_uris":{"android":"levelo://app?vid=c0b89384-c32f-4a90-98b7-1916d02631ff","ios":"levelo://app?vid=c0b89384-c32f-4a90-98b7-1916d02631ff"},"vehicle_type_id":"4","last_reported":1727547067,"current_range_meters":18800,"station_id":"ce4bh192rcd13ifvqdd0","pricing_plan_id":"cebpf4jnsgd1na2vs0mg"},{"bike_id":"3d6528e7-2f80-4f9d-a835-23e800c8b9bc","system_id":"levelo_inurba_marseille","lat":43.27812,"lon":5.40716,"is_reserved":false,"is_disabled":false,"rental_uris":{"android":"levelo://app?vid=3d6528e7-2f80-4f9d-a835-23e800c8b9bc","ios":"levelo://app?vid=3d6528e7-2f80-4f9d-a835-23e800c8b9bc"},"vehicle_type_id":"4","last_reported":1727547067,"current_range_meters":39200,"station_id":"ce4bhnh2rcd13ifvqgtg","pricing_plan_id":"cebpf4jnsgd1na2vs0mg"},{"bike_id":"72a16be7-65a6-4669-8494-d925a235f354","system_id":"levelo_inurba_marseille","lat":43.30952,"lon":5.39026,"is_reserved":false,"is_disabled":false,"rental_uris":{"android":"levelo://app?vid=72a16be7-65a6-4669-8494-d925a235f354","ios":"levelo://app?vid=72a16be7-65a6-4669-8494-d925a235f354"},"vehicle_type_id":"4","last_reported":1727547067,"current_range_meters":33600,"station_id":"ce4bgup2rcd13ifvqco0","pricing_plan_id":"cebpf4jnsgd1na2vs0mg"},{"bike_id":"8a43d6ce-d559-418f-9005-09d10bff5f56","system_id":"levelo_inurba_marseille","lat":43.30786,"lon":5.3766,"is_reserved":false,"is_disabled":false,"rental_uris":{"android":"levelo://app?vid=8a43d6ce-d559-418f-9005-09d10bff5f56","ios":"levelo://app?vid=8a43d6ce-d559-418f-9005-09d10bff5f56"},"vehicle_type_id":"4","last_reported":1727547067,"current_range_meters":38000,"station_id":"ce4bgv92rcd13ifvqcq0","pricing_plan_id":"cebpf4jnsgd1na2vs0mg"},{"bike_id":"9fcb71b8-23d8-4fcd-abcf-98182e2b2bbc","system_id":"levelo_inurba_marseille","lat":43.28031,"lon":5.36942,"is_reserved":false,"is_disabled":false,"rental_uris":{"android":"levelo://app?vid=9fcb71b8-23d8-4fcd-abcf-98182e2b2bbc","ios":"levelo://app?vid=9fcb71b8-23d8-4fcd-abcf-98182e2b2bbc"},"vehicle_type_id":"4","last_reported":1727547067,"current_range_meters":34000,"station_id":"ce4bha12rcd13ifvqef0","pricing_plan_id":"cebpf4jnsgd1na2vs0mg"},{"bike_id":"8f8dbdbf-cd41-48d3-8068-7fe58722ae8d","system_id":"levelo_inurba_marseille","lat":43.25491,"lon":5.37658,"is_reserved":false,"is_disabled":false,"rental_uris":{"android":"levelo://app?vid=8f8dbdbf-cd41-48d3-8068-7fe58722ae8d","ios":"levelo://app?vid=8f8dbdbf-cd41-48d3-8068-7fe58722ae8d"},"vehicle_type_id":"4","last_reported":1727547067,"current_range_meters":38800,"station_id":"ce4bhh12rcd13ifvqff0","pricing_plan_id":"cebpf4jnsgd1na2vs0mg"},{"bike_id":"a5a150f6-b2ee-4d41-b02c-c5259f7e4d0b","system_id":"levelo_inurba_marseille","lat":43.2603,"lon":5.37551,"is_reserved":false,"is_disabled":false,"rental_uris":{"android":"levelo://app?vid=a5a150f6-b2ee-4d41-b02c-c5259f7e4d0b","ios":"levelo://app?vid=a5a150f6-b2ee-4d41-b02c-c5259f7e4d0b"},"vehicle_type_id":"4","last_reported":1727547067,"current_range_meters":38800,"station_id":"ce4bhgh2rcd13ifvqfa0","pricing_plan_id":"cebpf4jnsgd1na2vs0mg"},{"bike_id":"64505043-3291-46b2-831f-6eed2e0ab281","system_id":"levelo_inurba_marseille","lat":43.25575,"lon":5.38249,"is_reserved":false,"is_disabled":false,"rental_uris":{"android":"levelo://app?vid=64505043-3291-46b2-831f-6eed2e0ab281","ios":"levelo://app?vid=64505043-3291-46b2-831f-6eed2e0ab281"},"vehicle_type_id":"4","last_reported":1727547067,"current_range_meters":2800,"station_id":"ce4bhih2rcd13ifvqfs0","pricing_plan_id":"cebpf4jnsgd1na2vs0mg"},{"bike_id":"3357c55b-6f49-4ceb-ad5b-5378b86c00e0","system_id":"levelo_inurba_marseille","lat":43.26813,"lon":5.41121,"is_reserved":false,"is_disabled":false,"rental_uris":{"android":"levelo://app?vid=3357c55b-6f49-4ceb-ad5b-5378b86c00e0","ios":"levelo://app?vid=3357c55b-6f49-4ceb-ad5b-5378b86c00e0"},"vehicle_type_id":"4","last_reported":1727547067,"current_range_meters":22400,"station_id":"","pricing_plan_id":"cebpf4jnsgd1na2vs0mg"},{"bike_id":"b37d9e00-ba30-4162-ba78-41efa2760f53","system_id":"levelo_inurba_marseille","lat":43.26575,"lon":5.39003,"is_reserved":false,"is_disabled":false,"rental_uris":{"android":"levelo://app?vid=b37d9e00-ba30-4162-ba78-41efa2760f53","ios":"levelo://app?vid=b37d9e00-ba30-4162-ba78-41efa2760f53"},"vehicle_type_id":"4","last_reported":1727547067,"current_range_meters":35200,"station_id":"ce4bhe12rcd13ifvqf30","pricing_plan_id":"cebpf4jnsgd1na2vs0mg"},{"bike_id":"9d933d2a-f72c-492c-ae3d-eb238dac3442","system_id":"levelo_inurba_marseille","lat":43.317589,"lon":5.390251,"is_reserved":false,"is_disabled":false,"rental_uris":{"android":"levelo://app?vid=9d933d2a-f72c-492c-ae3d-eb238dac3442","ios":"levelo://app?vid=9d933d2a-f72c-492c-ae3d-eb238dac3442"},"vehicle_type_id":"4","last_reported":1727547067,"current_range_meters":16800,"station_id":"ce4bhqp2rcd13ifvqhng","pricing_plan_id":"cebpf4jnsgd1na2vs0mg"},{"bike_id":"0a71bbf4-40bf-4e8e-9d71-87a87c2646aa","system_id":"levelo_inurba_marseille","lat":43.28065,"lon":5.40987,"is_reserved":false,"is_disabled":false,"rental_uris":{"android":"levelo://app?vid=0a71bbf4-40bf-4e8e-9d71-87a87c2646aa","ios":"levelo://app?vid=0a71bbf4-40bf-4e8e-9d71-87a87c2646aa"},"vehicle_type_id":"4","last_reported":1727547067,"current_range_meters":4800,"station_id":"","pricing_plan_id":"cebpf4jnsgd1na2vs0mg"},{"bike_id":"c9641e8d-5849-4651-b4ee-af905ce3cbcb","system_id":"levelo_inurba_marseille","lat":43.30595,"lon":5.37219,"is_reserved":false,"is_disabled":false,"rental_uris":{"android":"levelo://app?vid=c9641e8d-5849-4651-b4ee-af905ce3cbcb","ios":"levelo://app?vid=c9641e8d-5849-4651-b4ee-af905ce3cbcb"},"vehicle_type_id":"4","last_reported":1727547067,"current_range_meters":6800,"station_id":"ce4bgqh2rcd13ifvqc4g","pricing_plan_id":"cebpf4jnsgd1na2vs0mg"},{"bike_id":"4ced7e61-0929-481f-8875-e2cf90f386a5","system_id":"levelo_inurba_marseille","lat":43.25724,"lon":5.41109,"is_reserved":false,"is_disabled":false,"rental_uris":{"android":"levelo://app?vid=4ced7e61-0929-481f-8875-e2cf90f386a5","ios":"levelo://app?vid=4ced7e61-0929-481f-8875-e2cf90f386a5"},"vehicle_type_id":"4","last_reported":1727547067,"current_range_meters":20000,"station_id":"ce4bhkp2rcd13ifvqgd0","pricing_plan_id":"cebpf4jnsgd1na2vs0mg"},{"bike_id":"27c48c26-5a20-4bc6-bf6b-c86c4e62eaa7","system_id":"levelo_inurba_marseille","lat":43.3266,"lon":5.40994,"is_reserved":false,"is_disabled":false,"rental_uris":{"android":"levelo://app?vid=27c48c26-5a20-4bc6-bf6b-c86c4e62eaa7","ios":"levelo://app?vid=27c48c26-5a20-4bc6-bf6b-c86c4e62eaa7"},"vehicle_type_id":"4","last_reported":1727547067,"current_range_meters":16400,"station_id":"ce4bhpp2rcd13ifvqhgg","pricing_plan_id":"cebpf4jnsgd1na2vs0mg"},{"bike_id":"028fd6c6-1906-40de-b000-52604565d3a3","system_id":"levelo_inurba_marseille","lat":43.29788,"lon":5.38109,"is_reserved":false,"is_disabled":false,"rental_uris":{"android":"levelo://app?vid=028fd6c6-1906-40de-b000-52604565d3a3","ios":"levelo://app?vid=028fd6c6-1906-40de-b000-52604565d3a3"},"vehicle_type_id":"4","last_reported":1727547067,"current_range_meters":6400,"station_id":"ce4bgip2rcd13ifvqbb0","pricing_plan_id":"cebpf4jnsgd1na2vs0mg"},{"bike_id":"5d1a1f47-3c38-4d0a-87c0-b9c4b47730a9","system_id":"levelo_inurba_marseille","lat":43.296936,"lon":5.372878,"is_reserved":false,"is_disabled":false,"rental_uris":{"android":"levelo://app?vid=5d1a1f47-3c38-4d0a-87c0-b9c4b47730a9","ios":"levelo://app?vid=5d1a1f47-3c38-4d0a-87c0-b9c4b47730a9"},"vehicle_type_id":"4","last_reported":1727547067,"current_range_meters":28000,"station_id":"ce4bgk12rcd13ifvqbj0","pricing_plan_id":"cebpf4jnsgd1na2vs0mg"},{"bike_id":"ae420688-5730-4c04-90f7-fb439220597f","system_id":"levelo_inurba_marseille","lat":43.337444,"lon":5.374475,"is_reserved":false,"is_disabled":false,"rental_uris":{"android":"levelo://app?vid=ae420688-5730-4c04-90f7-fb439220597f","ios":"levelo://app?vid=ae420688-5730-4c04-90f7-fb439220597f"},"vehicle_type_id":"4","last_reported":1727547067,"current_range_meters":32400,"station_id":"","pricing_plan_id":"cebpf4jnsgd1na2vs0mg"},{"bike_id":"64c5a41d-9764-4555-8564-e0109a27d62f","system_id":"levelo_inurba_marseille","lat":43.32261,"lon":5.38284,"is_reserved":false,"is_disabled":false,"rental_uris":{"android":"levelo://app?vid=64c5a41d-9764-4555-8564-e0109a27d62f","ios":"levelo://app?vid=64c5a41d-9764-4555-8564-e0109a27d62f"},"vehicle_type_id":"4","last_reported":1727547067,"current_range_meters":19600,"station_id":"ce4bhr12rcd13ifvqhqg","pricing_plan_id":"cebpf4jnsgd1na2vs0mg"},{"bike_id":"f602a99a-8945-4d4f-8888-b097e0039ba6","system_id":"levelo_inurba_marseille","lat":43.29604,"lon":5.40033,"is_reserved":false,"is_disabled":false,"rental_uris":{"android":"levelo://app?vid=f602a99a-8945-4d4f-8888-b097e0039ba6","ios":"levelo://app?vid=f602a99a-8945-4d4f-8888-b097e0039ba6"},"vehicle_type_id":"4","last_reported":1727547067,"current_range_meters":25600,"station_id":"ce4bh312rcd13ifvqdj0","pricing_plan_id":"cebpf4jnsgd1na2vs0mg"},{"bike_id":"86a71ee8-d43f-4ebe-bee2-169dfe2232ae","system_id":"levelo_inurba_marseille","lat":43.23961,"lon":5.36637,"is_reserved":false,"is_disabled":false,"rental_uris":{"android":"levelo://app?vid=86a71ee8-d43f-4ebe-bee2-169dfe2232ae","ios":"levelo://app?vid=86a71ee8-d43f-4ebe-bee2-169dfe2232ae"},"vehicle_type_id":"4","last_reported":1727547067,"current_range_meters":38000,"station_id":"ce4bhi12rcd13ifvqfp0","pricing_plan_id":"cebpf4jnsgd1na2vs0mg"},{"bike_id":"2aa95e35-181d-4561-8dc4-88cecaab12ea","system_id":"levelo_inurba_marseille","lat":43.29908,"lon":5.38545,"is_reserved":false,"is_disabled":false,"rental_uris":{"android":"levelo://app?vid=2aa95e35-181d-4561-8dc4-88cecaab12ea","ios":"levelo://app?vid=2aa95e35-181d-4561-8dc4-88cecaab12ea"},"vehicle_type_id":"4","last_reported":1727547067,"current_range_meters":3200,"station_id":"","pricing_plan_id":"cebpf4jnsgd1na2vs0mg"},{"bike_id":"bfe55f07-6661-4c26-868e-779b9f4a8382","system_id":"levelo_inurba_marseille","lat":43.29256,"lon":5.40908,"is_reserved":false,"is_disabled":false,"rental_uris":{"android":"levelo://app?vid=bfe55f07-6661-4c26-868e-779b9f4a8382","ios":"levelo://app?vid=bfe55f07-6661-4c26-868e-779b9f4a8382"},"vehicle_type_id":"4","last_reported":1727547067,"current_range_meters":0,"station_id":"ce4bh192rcd13ifvqdc0","pricing_plan_id":"cebpf4jnsgd1na2vs0mg"},{"bike_id":"4887abc8-1b4e-4d25-854f-c00c42c01709","system_id":"levelo_inurba_marseille","lat":43.31355,"lon":5.38503,"is_reserved":false,"is_disabled":false,"rental_uris":{"android":"levelo://app?vid=4887abc8-1b4e-4d25-854f-c00c42c01709","ios":"levelo://app?vid=4887abc8-1b4e-4d25-854f-c00c42c01709"},"vehicle_type_id":"4","last_reported":1727547067,"current_range_meters":11200,"station_id":"ce4bgt92rcd13ifvqcf0","pricing_plan_id":"cebpf4jnsgd1na2vs0mg"},{"bike_id":"2120281d-853d-4458-aec2-de006de68b30","system_id":"levelo_inurba_marseille","lat":43.25573,"lon":5.3824,"is_reserved":false,"is_disabled":false,"rental_uris":{"android":"levelo://app?vid=2120281d-853d-4458-aec2-de006de68b30","ios":"levelo://app?vid=2120281d-853d-4458-aec2-de006de68b30"},"vehicle_type_id":"4","last_reported":1727547067,"current_range_meters":7200,"station_id":"ce4bhih2rcd13ifvqfs0","pricing_plan_id":"cebpf4jnsgd1na2vs0mg"},{"bike_id":"ac844928-aa1b-4de2-87bd-be30bb0670a8","system_id":"levelo_inurba_marseille","lat":43.29252,"lon":5.38448,"is_reserved":false,"is_disabled":false,"rental_uris":{"android":"levelo://app?vid=ac844928-aa1b-4de2-87bd-be30bb0670a8","ios":"levelo://app?vid=ac844928-aa1b-4de2-87bd-be30bb0670a8"},"vehicle_type_id":"4","last_reported":1727547067,"current_range_meters":16800,"station_id":"ce4bh692rcd13ifvqea0","pricing_plan_id":"cebpf4jnsgd1na2vs0mg"},{"bike_id":"3238da3f-c1e1-4e79-8882-9d0471fd019d","system_id":"levelo_inurba_marseille","lat":43.25006,"lon":5.38932,"is_reserved":false,"is_disabled":false,"rental_uris":{"android":"levelo://app?vid=3238da3f-c1e1-4e79-8882-9d0471fd019d","ios":"levelo://app?vid=3238da3f-c1e1-4e79-8882-9d0471fd019d"},"vehicle_type_id":"4","last_reported":1727547067,"current_range_meters":38800,"station_id":"ce4bhgp2rcd13ifvqfd0","pricing_plan_id":"cebpf4jnsgd1na2vs0mg"},{"bike_id":"8a0e042a-826a-4100-b05e-b74cd1b30fb8","system_id":"levelo_inurba_marseille","lat":43.29906,"lon":5.43684,"is_reserved":false,"is_disabled":false,"rental_uris":{"android":"levelo://app?vid=8a0e042a-826a-4100-b05e-b74cd1b30fb8","ios":"levelo://app?vid=8a0e042a-826a-4100-b05e-b74cd1b30fb8"},"vehicle_type_id":"4","last_reported":1727547067,"current_range_meters":38400,"station_id":"ce4bhpp2rcd13ifvqhfg","pricing_plan_id":"cebpf4jnsgd1na2vs0mg"},{"bike_id":"80046b3f-c9c2-4f7b-ae88-29d7e08c6fce","system_id":"levelo_inurba_marseille","lat":43.23961,"lon":5.36629,"is_reserved":false,"is_disabled":false,"rental_uris":{"android":"levelo://app?vid=80046b3f-c9c2-4f7b-ae88-29d7e08c6fce","ios":"levelo://app?vid=80046b3f-c9c2-4f7b-ae88-29d7e08c6fce"},"vehicle_type_id":"4","last_reported":1727547067,"current_range_meters":12800,"station_id":"ce4bhi12rcd13ifvqfp0","pricing_plan_id":"cebpf4jnsgd1na2vs0mg"},{"bike_id":"ed94ae71-5ed4-45d5-82ca-bd84a6379bf8","system_id":"levelo_inurba_marseille","lat":43.313629,"lon":5.384936,"is_reserved":false,"is_disabled":false,"rental_uris":{"android":"levelo://app?vid=ed94ae71-5ed4-45d5-82ca-bd84a6379bf8","ios":"levelo://app?vid=ed94ae71-5ed4-45d5-82ca-bd84a6379bf8"},"vehicle_type_id":"4","last_reported":1727547067,"current_range_meters":33600,"station_id":"ce4bgt92rcd13ifvqcf0","pricing_plan_id":"cebpf4jnsgd1na2vs0mg"},{"bike_id":"4d318b26-d482-4682-9243-230890c1826a","system_id":"levelo_inurba_marseille","lat":43.25825,"lon":5.3944,"is_reserved":false,"is_disabled":false,"rental_uris":{"android":"levelo://app?vid=4d318b26-d482-4682-9243-230890c1826a","ios":"levelo://app?vid=4d318b26-d482-4682-9243-230890c1826a"},"vehicle_type_id":"4","last_reported":1727547067,"current_range_meters":38800,"station_id":"ce4bhip2rcd13ifvqft0","pricing_plan_id":"cebpf4jnsgd1na2vs0mg"},{"bike_id":"5a2621c8-044b-4cf9-a1db-e8808e8e4deb","system_id":"levelo_inurba_marseille","lat":43.29025,"lon":5.38161,"is_reserved":false,"is_disabled":false,"rental_uris":{"android":"levelo://app?vid=5a2621c8-044b-4cf9-a1db-e8808e8e4deb","ios":"levelo://app?vid=5a2621c8-044b-4cf9-a1db-e8808e8e4deb"},"vehicle_type_id":"4","last_reported":1727547067,"current_range_meters":38400,"station_id":"ce4bh4p2rcd13ifvqe1g","pricing_plan_id":"cebpf4jnsgd1na2vs0mg"},{"bike_id":"5c9bd508-eaa5-417a-938a-fd9637d0a52a","system_id":"levelo_inurba_marseille","lat":43.3136,"lon":5.38501,"is_reserved":false,"is_disabled":false,"rental_uris":{"android":"levelo://app?vid=5c9bd508-eaa5-417a-938a-fd9637d0a52a","ios":"levelo://app?vid=5c9bd508-eaa5-417a-938a-fd9637d0a52a"},"vehicle_type_id":"4","last_reported":1727547067,"current_range_meters":18000,"station_id":"ce4bgt92rcd13ifvqcf0","pricing_plan_id":"cebpf4jnsgd1na2vs0mg"},{"bike_id":"93ff59c7-ebcf-4494-b75c-022aea061c68","system_id":"levelo_inurba_marseille","lat":43.31168,"lon":5.38732,"is_reserved":false,"is_disabled":false,"rental_uris":{"android":"levelo://app?vid=93ff59c7-ebcf-4494-b75c-022aea061c68","ios":"levelo://app?vid=93ff59c7-ebcf-4494-b75c-022aea061c68"},"vehicle_type_id":"4","last_reported":1727547067,"current_range_meters":35200,"station_id":"ce4bgv12rcd13ifvqcp0","pricing_plan_id":"cebpf4jnsgd1na2vs0mg"},{"bike_id":"cff56c54-d505-4a49-bacd-23e79cfc82b7","system_id":"levelo_inurba_marseille","lat":43.23956,"lon":5.36632,"is_reserved":false,"is_disabled":false,"rental_uris":{"android":"levelo://app?vid=cff56c54-d505-4a49-bacd-23e79cfc82b7","ios":"levelo://app?vid=cff56c54-d505-4a49-bacd-23e79cfc82b7"},"vehicle_type_id":"4","last_reported":1727547067,"current_range_meters":34000,"station_id":"ce4bhi12rcd13ifvqfp0","pricing_plan_id":"cebpf4jnsgd1na2vs0mg"},{"bike_id":"1bdcb3c8-c405-46f5-8052-759bb176ee58","system_id":"levelo_inurba_marseille","lat":43.303582,"lon":5.418863,"is_reserved":false,"is_disabled":false,"rental_uris":{"android":"levelo://app?vid=1bdcb3c8-c405-46f5-8052-759bb176ee58","ios":"levelo://app?vid=1bdcb3c8-c405-46f5-8052-759bb176ee58"},"vehicle_type_id":"4","last_reported":1727547067,"current_range_meters":36800,"station_id":"ce4bhop2rcd13ifvqh7g","pricing_plan_id":"cebpf4jnsgd1na2vs0mg"},{"bike_id":"f2dfe2b2-df65-4a40-a6d7-ded1e815a1f8","system_id":"levelo_inurba_marseille","lat":43.28928,"lon":5.36399,"is_reserved":false,"is_disabled":false,"rental_uris":{"android":"levelo://app?vid=f2dfe2b2-df65-4a40-a6d7-ded1e815a1f8","ios":"levelo://app?vid=f2dfe2b2-df65-4a40-a6d7-ded1e815a1f8"},"vehicle_type_id":"4","last_reported":1727547067,"current_range_meters":38800,"station_id":"ce4bhc92rcd13ifvqetg","pricing_plan_id":"cebpf4jnsgd1na2vs0mg"},{"bike_id":"1ca0c643-9742-499c-b457-b24c30395ced","system_id":"levelo_inurba_marseille","lat":43.25436,"lon":5.37715,"is_reserved":false,"is_disabled":false,"rental_uris":{"android":"levelo://app?vid=1ca0c643-9742-499c-b457-b24c30395ced","ios":"levelo://app?vid=1ca0c643-9742-499c-b457-b24c30395ced"},"vehicle_type_id":"4","last_reported":1727547067,"current_range_meters":33200,"station_id":"","pricing_plan_id":"cebpf4jnsgd1na2vs0mg"},{"bike_id":"0abcee10-ec3e-42ed-9428-73573d7b046e","system_id":"levelo_inurba_marseille","lat":43.29189,"lon":5.35809,"is_reserved":false,"is_disabled":false,"rental_uris":{"android":"levelo://app?vid=0abcee10-ec3e-42ed-9428-73573d7b046e","ios":"levelo://app?vid=0abcee10-ec3e-42ed-9428-73573d7b046e"},"vehicle_type_id":"4","last_reported":1727547067,"current_range_meters":4000,"station_id":"ce4bhb12rcd13ifvqel0","pricing_plan_id":"cebpf4jnsgd1na2vs0mg"},{"bike_id":"d1195cde-968d-4a92-b19e-89edd8e649c1","system_id":"levelo_inurba_marseille","lat":43.32284,"lon":5.38284,"is_reserved":false,"is_disabled":false,"rental_uris":{"android":"levelo://app?vid=d1195cde-968d-4a92-b19e-89edd8e649c1","ios":"levelo://app?vid=d1195cde-968d-4a92-b19e-89edd8e649c1"},"vehicle_type_id":"4","last_reported":1727547067,"current_range_meters":20400,"station_id":"ce4bhr12rcd13ifvqhqg","pricing_plan_id":"cebpf4jnsgd1na2vs0mg"},{"bike_id":"a62d54e0-18c8-44f3-8f6d-fb9bb9e629fb","system_id":"levelo_inurba_marseille","lat":43.28465,"lon":5.38423,"is_reserved":false,"is_disabled":false,"rental_uris":{"android":"levelo://app?vid=a62d54e0-18c8-44f3-8f6d-fb9bb9e629fb","ios":"levelo://app?vid=a62d54e0-18c8-44f3-8f6d-fb9bb9e629fb"},"vehicle_type_id":"4","last_reported":1727547067,"current_range_meters":6400,"station_id":"ce4bh512rcd13ifvqe3g","pricing_plan_id":"cebpf4jnsgd1na2vs0mg"},{"bike_id":"25f44710-8813-4d0a-9ce5-f3b31aaed9b9","system_id":"levelo_inurba_marseille","lat":43.28103,"lon":5.37845,"is_reserved":false,"is_disabled":false,"rental_uris":{"android":"levelo://app?vid=25f44710-8813-4d0a-9ce5-f3b31aaed9b9","ios":"levelo://app?vid=25f44710-8813-4d0a-9ce5-f3b31aaed9b9"},"vehicle_type_id":"4","last_reported":1727547067,"current_range_meters":8000,"station_id":"ce4bha12rcd13ifvqee0","pricing_plan_id":"cebpf4jnsgd1na2vs0mg"},{"bike_id":"21d2b41d-1909-44ac-bf86-a459399d3dba","system_id":"levelo_inurba_marseille","lat":43.24806,"lon":5.37461,"is_reserved":false,"is_disabled":false,"rental_uris":{"android":"levelo://app?vid=21d2b41d-1909-44ac-bf86-a459399d3dba","ios":"levelo://app?vid=21d2b41d-1909-44ac-bf86-a459399d3dba"},"vehicle_type_id":"4","last_reported":1727547067,"current_range_meters":38800,"station_id":"ce4bhgh2rcd13ifvqfb0","pricing_plan_id":"cebpf4jnsgd1na2vs0mg"},{"bike_id":"a0a56e99-bc5f-434d-8b04-970c6387269f","system_id":"levelo_inurba_marseille","lat":43.29632,"lon":5.40595,"is_reserved":false,"is_disabled":false,"rental_uris":{"android":"levelo://app?vid=a0a56e99-bc5f-434d-8b04-970c6387269f","ios":"levelo://app?vid=a0a56e99-bc5f-434d-8b04-970c6387269f"},"vehicle_type_id":"4","last_reported":1727547067,"current_range_meters":38800,"station_id":"ce4bh0h2rcd13ifvqd60","pricing_plan_id":"cebpf4jnsgd1na2vs0mg"},{"bike_id":"72f04bea-87ff-462d-a51f-4ab9221a2163","system_id":"levelo_inurba_marseille","lat":43.23956,"lon":5.36644,"is_reserved":false,"is_disabled":false,"rental_uris":{"android":"levelo://app?vid=72f04bea-87ff-462d-a51f-4ab9221a2163","ios":"levelo://app?vid=72f04bea-87ff-462d-a51f-4ab9221a2163"},"vehicle_type_id":"4","last_reported":1727547067,"current_range_meters":28800,"station_id":"ce4bhi12rcd13ifvqfp0","pricing_plan_id":"cebpf4jnsgd1na2vs0mg"},{"bike_id":"61104eb8-0722-4b58-a3c1-1d2d82eb257a","system_id":"levelo_inurba_marseille","lat":43.30589,"lon":5.37214,"is_reserved":false,"is_disabled":false,"rental_uris":{"android":"levelo://app?vid=61104eb8-0722-4b58-a3c1-1d2d82eb257a","ios":"levelo://app?vid=61104eb8-0722-4b58-a3c1-1d2d82eb257a"},"vehicle_type_id":"4","last_reported":1727547067,"current_range_meters":32000,"station_id":"ce4bgqh2rcd13ifvqc4g","pricing_plan_id":"cebpf4jnsgd1na2vs0mg"},{"bike_id":"fa70d582-f69e-49f0-aebe-da4e4dd25a4b","system_id":"levelo_inurba_marseille","lat":43.27991,"lon":5.40032,"is_reserved":false,"is_disabled":false,"rental_uris":{"android":"levelo://app?vid=fa70d582-f69e-49f0-aebe-da4e4dd25a4b","ios":"levelo://app?vid=fa70d582-f69e-49f0-aebe-da4e4dd25a4b"},"vehicle_type_id":"4","last_reported":1727547067,"current_range_meters":33600,"station_id":"ce4bho92rcd13ifvqh4g","pricing_plan_id":"cebpf4jnsgd1na2vs0mg"},{"bike_id":"9875a1f0-e592-46f9-8699-96387cfa5ee3","system_id":"levelo_inurba_marseille","lat":43.25727,"lon":5.41114,"is_reserved":false,"is_disabled":false,"rental_uris":{"android":"levelo://app?vid=9875a1f0-e592-46f9-8699-96387cfa5ee3","ios":"levelo://app?vid=9875a1f0-e592-46f9-8699-96387cfa5ee3"},"vehicle_type_id":"4","last_reported":1727547067,"current_range_meters":22000,"station_id":"ce4bhkp2rcd13ifvqgd0","pricing_plan_id":"cebpf4jnsgd1na2vs0mg"},{"bike_id":"b0c31863-9489-4555-8c14-cc83b377024c","system_id":"levelo_inurba_marseille","lat":43.26039,"lon":5.38199,"is_reserved":false,"is_disabled":false,"rental_uris":{"android":"levelo://app?vid=b0c31863-9489-4555-8c14-cc83b377024c","ios":"levelo://app?vid=b0c31863-9489-4555-8c14-cc83b377024c"},"vehicle_type_id":"4","last_reported":1727547067,"current_range_meters":28400,"station_id":"","pricing_plan_id":"cebpf4jnsgd1na2vs0mg"},{"bike_id":"c5780541-b30d-4d72-9466-9846f9352508","system_id":"levelo_inurba_marseille","lat":43.24392,"lon":5.37068,"is_reserved":false,"is_disabled":false,"rental_uris":{"android":"levelo://app?vid=c5780541-b30d-4d72-9466-9846f9352508","ios":"levelo://app?vid=c5780541-b30d-4d72-9466-9846f9352508"},"vehicle_type_id":"4","last_reported":1727547067,"current_range_meters":33200,"station_id":"ce4bhhh2rcd13ifvqfk0","pricing_plan_id":"cebpf4jnsgd1na2vs0mg"},{"bike_id":"94624c09-c951-4d45-897f-2e3fcfd08c64","system_id":"levelo_inurba_marseille","lat":43.29268,"lon":5.38454,"is_reserved":false,"is_disabled":false,"rental_uris":{"android":"levelo://app?vid=94624c09-c951-4d45-897f-2e3fcfd08c64","ios":"levelo://app?vid=94624c09-c951-4d45-897f-2e3fcfd08c64"},"vehicle_type_id":"4","last_reported":1727547067,"current_range_meters":15200,"station_id":"ce4bh692rcd13ifvqea0","pricing_plan_id":"cebpf4jnsgd1na2vs0mg"},{"bike_id":"3fb769ac-0b8b-4699-845d-6b9cef9b3ed1","system_id":"levelo_inurba_marseille","lat":43.24812,"lon":5.37463,"is_reserved":false,"is_disabled":false,"rental_uris":{"android":"levelo://app?vid=3fb769ac-0b8b-4699-845d-6b9cef9b3ed1","ios":"levelo://app?vid=3fb769ac-0b8b-4699-845d-6b9cef9b3ed1"},"vehicle_type_id":"4","last_reported":1727547067,"current_range_meters":38800,"station_id":"ce4bhgh2rcd13ifvqfb0","pricing_plan_id":"cebpf4jnsgd1na2vs0mg"},{"bike_id":"a2d66a49-0e54-4bc3-b75a-a203d00b7e08","system_id":"levelo_inurba_marseille","lat":43.27379,"lon":5.36264,"is_reserved":false,"is_disabled":false,"rental_uris":{"android":"levelo://app?vid=a2d66a49-0e54-4bc3-b75a-a203d00b7e08","ios":"levelo://app?vid=a2d66a49-0e54-4bc3-b75a-a203d00b7e08"},"vehicle_type_id":"4","last_reported":1727547067,"current_range_meters":38800,"station_id":"ce4bhbh2rcd13ifvqeo0","pricing_plan_id":"cebpf4jnsgd1na2vs0mg"},{"bike_id":"86f7f7d1-94aa-4afb-9365-763c39159b8a","system_id":"levelo_inurba_marseille","lat":43.24072,"lon":5.37768,"is_reserved":false,"is_disabled":false,"rental_uris":{"android":"levelo://app?vid=86f7f7d1-94aa-4afb-9365-763c39159b8a","ios":"levelo://app?vid=86f7f7d1-94aa-4afb-9365-763c39159b8a"},"vehicle_type_id":"4","last_reported":1727547067,"current_range_meters":11200,"station_id":"ce4bhnp2rcd13ifvqgvg","pricing_plan_id":"cebpf4jnsgd1na2vs0mg"},{"bike_id":"c981955f-cc5a-4102-9950-c2fb35d351a8","system_id":"levelo_inurba_marseille","lat":43.24812,"lon":5.3746,"is_reserved":false,"is_disabled":false,"rental_uris":{"android":"levelo://app?vid=c981955f-cc5a-4102-9950-c2fb35d351a8","ios":"levelo://app?vid=c981955f-cc5a-4102-9950-c2fb35d351a8"},"vehicle_type_id":"4","last_reported":1727547067,"current_range_meters":26800,"station_id":"ce4bhgh2rcd13ifvqfb0","pricing_plan_id":"cebpf4jnsgd1na2vs0mg"},{"bike_id":"cc189bdb-be15-4ec1-9a90-3ed3ce93f053","system_id":"levelo_inurba_marseille","lat":43.34072,"lon":5.42044,"is_reserved":false,"is_disabled":false,"rental_uris":{"android":"levelo://app?vid=cc189bdb-be15-4ec1-9a90-3ed3ce93f053","ios":"levelo://app?vid=cc189bdb-be15-4ec1-9a90-3ed3ce93f053"},"vehicle_type_id":"4","last_reported":1727547067,"current_range_meters":33200,"station_id":"","pricing_plan_id":"cebpf4jnsgd1na2vs0mg"},{"bike_id":"1c1fb713-5857-4d7d-a0cb-91e25f3d5ab9","system_id":"levelo_inurba_marseille","lat":43.29031,"lon":5.39967,"is_reserved":false,"is_disabled":false,"rental_uris":{"android":"levelo://app?vid=1c1fb713-5857-4d7d-a0cb-91e25f3d5ab9","ios":"levelo://app?vid=1c1fb713-5857-4d7d-a0cb-91e25f3d5ab9"},"vehicle_type_id":"4","last_reported":1727547067,"current_range_meters":16000,"station_id":"ce4bh392rcd13ifvqdm0","pricing_plan_id":"cebpf4jnsgd1na2vs0mg"},{"bike_id":"44cc00c7-5147-4573-89f3-0d9ff0167812","system_id":"levelo_inurba_marseille","lat":43.28107,"lon":5.3784,"is_reserved":false,"is_disabled":false,"rental_uris":{"android":"levelo://app?vid=44cc00c7-5147-4573-89f3-0d9ff0167812","ios":"levelo://app?vid=44cc00c7-5147-4573-89f3-0d9ff0167812"},"vehicle_type_id":"4","last_reported":1727547067,"current_range_meters":4400,"station_id":"ce4bha12rcd13ifvqee0","pricing_plan_id":"cebpf4jnsgd1na2vs0mg"},{"bike_id":"3a1d5f9a-ea5c-4aae-b1f1-3d2e9c094cff","system_id":"levelo_inurba_marseille","lat":43.26215,"lon":5.3744,"is_reserved":false,"is_disabled":false,"rental_uris":{"android":"levelo://app?vid=3a1d5f9a-ea5c-4aae-b1f1-3d2e9c094cff","ios":"levelo://app?vid=3a1d5f9a-ea5c-4aae-b1f1-3d2e9c094cff"},"vehicle_type_id":"4","last_reported":1727547067,"current_range_meters":38800,"station_id":"ce4bhgp2rcd13ifvqfc0","pricing_plan_id":"cebpf4jnsgd1na2vs0mg"},{"bike_id":"43ebc290-3bc9-48d0-86d9-ee33c858314b","system_id":"levelo_inurba_marseille","lat":43.28249,"lon":5.38562,"is_reserved":false,"is_disabled":false,"rental_uris":{"android":"levelo://app?vid=43ebc290-3bc9-48d0-86d9-ee33c858314b","ios":"levelo://app?vid=43ebc290-3bc9-48d0-86d9-ee33c858314b"},"vehicle_type_id":"4","last_reported":1727547067,"current_range_meters":16800,"station_id":"","pricing_plan_id":"cebpf4jnsgd1na2vs0mg"},{"bike_id":"18c34b2d-145e-4326-baa7-8821921f0e99","system_id":"levelo_inurba_marseille","lat":43.24992,"lon":5.38945,"is_reserved":false,"is_disabled":false,"rental_uris":{"android":"levelo://app?vid=18c34b2d-145e-4326-baa7-8821921f0e99","ios":"levelo://app?vid=18c34b2d-145e-4326-baa7-8821921f0e99"},"vehicle_type_id":"4","last_reported":1727547067,"current_range_meters":13600,"station_id":"ce4bhgp2rcd13ifvqfd0","pricing_plan_id":"cebpf4jnsgd1na2vs0mg"},{"bike_id":"5d5a76cf-b385-40f2-b609-439e6ff2e253","system_id":"levelo_inurba_marseille","lat":43.32291,"lon":5.38273,"is_reserved":false,"is_disabled":false,"rental_uris":{"android":"levelo://app?vid=5d5a76cf-b385-40f2-b609-439e6ff2e253","ios":"levelo://app?vid=5d5a76cf-b385-40f2-b609-439e6ff2e253"},"vehicle_type_id":"4","last_reported":1727547067,"current_range_meters":34800,"station_id":"ce4bhr12rcd13ifvqhqg","pricing_plan_id":"cebpf4jnsgd1na2vs0mg"},{"bike_id":"cf50915c-e8ea-48ed-9d58-b3c362e2b1e5","system_id":"levelo_inurba_marseille","lat":43.29206,"lon":5.38394,"is_reserved":false,"is_disabled":false,"rental_uris":{"android":"levelo://app?vid=cf50915c-e8ea-48ed-9d58-b3c362e2b1e5","ios":"levelo://app?vid=cf50915c-e8ea-48ed-9d58-b3c362e2b1e5"},"vehicle_type_id":"4","last_reported":1727547067,"current_range_meters":8800,"station_id":"ce4bh012rcd13ifvqcv0","pricing_plan_id":"cebpf4jnsgd1na2vs0mg"},{"bike_id":"1501e5ab-1ae8-43cd-8de3-e0563fda4bb8","system_id":"levelo_inurba_marseille","lat":43.273468,"lon":5.413042,"is_reserved":false,"is_disabled":false,"rental_uris":{"android":"levelo://app?vid=1501e5ab-1ae8-43cd-8de3-e0563fda4bb8","ios":"levelo://app?vid=1501e5ab-1ae8-43cd-8de3-e0563fda4bb8"},"vehicle_type_id":"4","last_reported":1727547067,"current_range_meters":32400,"station_id":"ce4bhl92rcd13ifvqghg","pricing_plan_id":"cebpf4jnsgd1na2vs0mg"},