{"last_updated":1729513108,"ttl":60,"version":"2.2","data":{"bikes":[{"bike_id":"4764bf24-74b4-4955-a33b-7c25defcec6a","system_id":"levelo_inurba_marseille","lat":43.30542,"lon":5.36547,"is_reserved":false,"is_disabled":false,"rental_uris":{"android":"levelo://app?vid=4764bf24-74b4-4955-a33b-7c25defcec6a","ios":"levelo://app?vid=4764bf24-74b4-4955-a33b-7c25defcec6a"},"vehicle_type_id":"4","last_reported":1729513109,"current_range_meters":27200,"station_id":"ce4bgs12rcd13ifvqcag","pricing_plan_id":"cebpf4jnsgd1na2vs0mg"},{"bike_id":"c98a684d-5391-497b-b5e2-fcfff27ab6f2","system_id":"levelo_inurba_marseille","lat":43.229248,"lon":5.353742,"is_reserved":false,"is_disabled":false,"rental_uris":{"android":"levelo://app?vid=c98a684d-5391-497b-b5e2-fcfff27ab6f2","ios":"levelo://app?vid=c98a684d-5391-497b-b5e2-fcfff27ab6f2"},"vehicle_type_id":"4","last_reported":1729513109,"current_range_meters":38000,"station_id":"ce4bhgh2rcd13ifvqfb0","pricing_plan_id":"cebpf4jnsgd1na2vs0mg"},{"bike_id":"1e9ed0ec-5aa0-45e6-9929-4276c349e4b3","system_id":"levelo_inurba_marseille","lat":43.27616,"lon":5.3611,"is_reserved":false,"is_disabled":false,"rental_uris":{"android":"levelo://app?vid=1e9ed0ec-5aa0-45e6-9929-4276c349e4b3","ios":"levelo://app?vid=1e9ed0ec-5aa0-45e6-9929-4276c349e4b3"},"vehicle_type_id":"4","last_reported":1729513109,"current_range_meters":38000,"station_id":"ce4bgj92rcd13ifvqbe0","pricing_plan_id":"cebpf4jnsgd1na2vs0mg"},{"bike_id":"a057fcc1-7013-42ba-ac01-60ff0a17fd6d","system_id":"levelo_inurba_marseille","lat":43.27617,"lon":5.36102,"is_reserved":false,"is_disabled":false,"rental_uris":{"android":"levelo://app?vid=a057fcc1-7013-42ba-ac01-60ff0a17fd6d","ios":"levelo://app?vid=a057fcc1-7013-42ba-ac01-60ff0a17fd6d"},"vehicle_type_id":"4","last_reported":1729513109,"current_range_meters":20800,"station_id":"ce4bgj92rcd13ifvqbe0","pricing_plan_id":"cebpf4jnsgd1na2vs0mg"},{"bike_id":"e8dffcb2-b85a-4d6a-8a5e-fbff2e3190fc","system_id":"levelo_inurba_marseille","lat":43.24655,"lon":5.38884,"is_reserved":false,"is_disabled":false,"rental_uris":{"android":"levelo://app?vid=e8dffcb2-b85a-4d6a-8a5e-fbff2e3190fc","ios":"levelo://app?vid=e8dffcb2-b85a-4d6a-8a5e-fbff2e3190fc"},"vehicle_type_id":"4","last_reported":1729513109,"current_range_meters":38400,"station_id":"ce4bhg12rcd13ifvqf60","pricing_plan_id":"cebpf4jnsgd1na2vs0mg"},{"bike_id":"71726726-84f1-44e6-8830-f99957db47bc","system_id":"levelo_inurba_marseille","lat":43.30908,"lon":5.36857,"is_reserved":false,"is_disabled":false,"rental_uris":{"android":"levelo://app?vid=71726726-84f1-44e6-8830-f99957db47bc","ios":"levelo://app?vid=71726726-84f1-44e6-8830-f99957db47bc"},"vehicle_type_id":"4","last_reported":1729513109,"current_range_meters":38800,"station_id":"ce4bgn92rcd13ifvqbvg","pricing_plan_id":"cebpf4jnsgd1na2vs0mg"},{"bike_id":"53b5cfa9-cea2-44a2-a93f-ffe40df82b23","system_id":"levelo_inurba_marseille","lat":43.28419,"lon":5.34989,"is_reserved":false,"is_disabled":false,"rental_uris":{"android":"levelo://app?vid=53b5cfa9-cea2-44a2-a93f-ffe40df82b23","ios":"levelo://app?vid=53b5cfa9-cea2-44a2-a93f-ffe40df82b23"},"vehicle_type_id":"4","last_reported":1729513109,"current_range_meters":39200,"station_id":"ce4bhbh2rcd13ifvqepg","pricing_plan_id":"cebpf4jnsgd1na2vs0mg"},{"bike_id":"0692f637-b00e-450d-86a0-9802044e3ef8","system_id":"levelo_inurba_marseille","lat":43.3374,"lon":5.37471,"is_reserved":false,"is_disabled":false,"rental_uris":{"android":"levelo://app?vid=0692f637-b00e-450d-86a0-9802044e3ef8","ios":"levelo://app?vid=0692f637-b00e-450d-86a0-9802044e3ef8"},"vehicle_type_id":"4","last_reported":1729513109,"current_range_meters":38800,"station_id":"","pricing_plan_id":"cebpf4jnsgd1na2vs0mg"},{"bike_id":"016c28d7-8210-49a8-b034-8a2889752202","system_id":"levelo_inurba_marseille","lat":43.34145,"lon":5.40908,"is_reserved":false,"is_disabled":false,"rental_uris":{"android":"levelo://app?vid=016c28d7-8210-49a8-b034-8a2889752202","ios":"levelo://app?vid=016c28d7-8210-49a8-b034-8a2889752202"},"vehicle_type_id":"4","last_reported":1729513109,"current_range_meters":39200,"station_id":"ce4bhqh2rcd13ifvqhlg","pricing_plan_id":"cebpf4jnsgd1na2vs0mg"},{"bike_id":"1229fa61-6299-422c-af02-e930ab349b8a","system_id":"levelo_inurba_marseille","lat":43.24548,"lon":5.39524,"is_reserved":false,"is_disabled":false,"rental_uris":{"android":"levelo://app?vid=1229fa61-6299-422c-af02-e930ab349b8a","ios":"levelo://app?vid=1229fa61-6299-422c-af02-e930ab349b8a"},"vehicle_type_id":"4","last_reported":1729513109,"current_range_meters":38800,"station_id":"ce4bhlp2rcd13ifvqgjg","pricing_plan_id":"cebpf4jnsgd1na2vs0mg"},{"bike_id":"d70a9ed6-14eb-46b0-bcea-473bc4c91b9f","system_id":"levelo_inurba_marseille","lat":43.31347,"lon":5.36714,"is_reserved":false,"is_disabled":false,"rental_uris":{"android":"levelo://app?vid=d70a9ed6-14eb-46b0-bcea-473bc4c91b9f","ios":"levelo://app?vid=d70a9ed6-14eb-46b0-bcea-473bc4c91b9f"},"vehicle_type_id":"4","last_reported":1729513109,"current_range_meters":25600,"station_id":"ce4bgr92rcd13ifvqc6g","pricing_plan_id":"cebpf4jnsgd1na2vs0mg"},{"bike_id":"8a1d499b-8a68-407b-accb-f578eb4f6527","system_id":"levelo_inurba_marseille","lat":43.34147,"lon":5.40906,"is_reserved":false,"is_disabled":false,"rental_uris":{"android":"levelo://app?vid=8a1d499b-8a68-407b-accb-f578eb4f6527","ios":"levelo://app?vid=8a1d499b-8a68-407b-accb-f578eb4f6527"},"vehicle_type_id":"4","last_reported":1729513109,"current_range_meters":20400,"station_id":"ce4bhqh2rcd13ifvqhlg","pricing_plan_id":"cebpf4jnsgd1na2vs0mg"},{"bike_id":"5fc63107-5e8c-4817-8f73-0f8c1165771e","system_id":"levelo_inurba_marseille","lat":43.25091,"lon":5.3952,"is_reserved":false,"is_disabled":false,"rental_uris":{"android":"levelo://app?vid=5fc63107-5e8c-4817-8f73-0f8c1165771e","ios":"levelo://app?vid=5fc63107-5e8c-4817-8f73-0f8c1165771e"},"vehicle_type_id":"4","last_reported":1729513109,"current_range_meters":8400,"station_id":"ce4bhm12rcd13ifvqgkg","pricing_plan_id":"cebpf4jnsgd1na2vs0mg"},{"bike_id":"90d5a534-4ac3-40c2-a2dd-baa8fa9bd45e","system_id":"levelo_inurba_marseille","lat":43.33612,"lon":5.41027,"is_reserved":false,"is_disabled":false,"rental_uris":{"android":"levelo://app?vid=90d5a534-4ac3-40c2-a2dd-baa8fa9bd45e","ios":"levelo://app?vid=90d5a534-4ac3-40c2-a2dd-baa8fa9bd45e"},"vehicle_type_id":"4","last_reported":1729513109,"current_range_meters":20000,"station_id":"ce4bhqh2rcd13ifvqhmg","pricing_plan_id":"cebpf4jnsgd1na2vs0mg"},{"bike_id":"7c3f5388-3b98-4db9-a8d0-2448c30e5869","system_id":"levelo_inurba_marseille","lat":43.22936,"lon":5.35373,"is_reserved":false,"is_disabled":false,"rental_uris":{"android":"levelo://app?vid=7c3f5388-3b98-4db9-a8d0-2448c30e5869","ios":"levelo://app?vid=7c3f5388-3b98-4db9-a8d0-2448c30e5869"},"vehicle_type_id":"4","last_reported":1729513109,"current_range_meters":16400,"station_id":"cpo3532slgdg3j2ikp40","pricing_plan_id":"cebpf4jnsgd1na2vs0mg"},{"bike_id":"0fb1abc2-c7af-4de7-8060-63d371a9df9e","system_id":"levelo_inurba_marseille","lat":43.26195,"lon":5.37919,"is_reserved":false,"is_disabled":false,"rental_uris":{"android":"levelo://app?vid=0fb1abc2-c7af-4de7-8060-63d371a9df9e","ios":"levelo://app?vid=0fb1abc2-c7af-4de7-8060-63d371a9df9e"},"vehicle_type_id":"4","last_reported":1729513109,"current_range_meters":39200,"station_id":"ce4bhjp2rcd13ifvqg90","pricing_plan_id":"cebpf4jnsgd1na2vs0mg"},{"bike_id":"12bea866-6436-4c57-9993-4f602ccc7b3c","system_id":"levelo_inurba_marseille","lat":43.22934,"lon":5.35372,"is_reserved":false,"is_disabled":false,"rental_uris":{"android":"levelo://app?vid=12bea866-6436-4c57-9993-4f602ccc7b3c","ios":"levelo://app?vid=12bea866-6436-4c57-9993-4f602ccc7b3c"},"vehicle_type_id":"4","last_reported":1729513109,"current_range_meters":38400,"station_id":"cpo3532slgdg3j2ikp40","pricing_plan_id":"cebpf4jnsgd1na2vs0mg"},{"bike_id":"eb82dbcf-4bb3-4fb5-8563-6bb6f0bc02f4","system_id":"levelo_inurba_marseille","lat":43.30911,"lon":5.36841,"is_reserved":false,"is_disabled":false,"rental_uris":{"android":"levelo://app?vid=eb82dbcf-4bb3-4fb5-8563-6bb6f0bc02f4","ios":"levelo://app?vid=eb82dbcf-4bb3-4fb5-8563-6bb6f0bc02f4"},"vehicle_type_id":"4","last_reported":1729513109,"current_range_meters":30800,"station_id":"ce4bgn92rcd13ifvqbvg","pricing_plan_id":"cebpf4jnsgd1na2vs0mg"},{"bike_id":"925701a7-9b39-4686-b556-cce6eeae266d","system_id":"levelo_inurba_marseille","lat":43.31371,"lon":5.36711,"is_reserved":false,"is_disabled":false,"rental_uris":{"android":"levelo://app?vid=925701a7-9b39-4686-b556-cce6eeae266d","ios":"levelo://app?vid=925701a7-9b39-4686-b556-cce6eeae266d"},"vehicle_type_id":"4","last_reported":1729513109,"current_range_meters":28400,"station_id":"ce4bgr92rcd13ifvqc6g","pricing_plan_id":"cebpf4jnsgd1na2vs0mg"},{"bike_id":"64466718-1ea9-4aeb-b182-1ef1b7c8b6b5","system_id":"levelo_inurba_marseille","lat":43.31701,"lon":5.40474,"is_reserved":false,"is_disabled":false,"rental_uris":{"android":"levelo://app?vid=64466718-1ea9-4aeb-b182-1ef1b7c8b6b5","ios":"levelo://app?vid=64466718-1ea9-4aeb-b182-1ef1b7c8b6b5"},"vehicle_type_id":"4","last_reported":1729513109,"current_range_meters":25600,"station_id":"ce4bh012rcd13ifvqd00","pricing_plan_id":"cebpf4jnsgd1na2vs0mg"},{"bike_id":"41da4b07-db10-4bd8-bb59-3aa5baaf8c10","system_id":"levelo_inurba_marseille","lat":43.26211,"lon":5.37438,"is_reserved":false,"is_disabled":false,"rental_uris":{"android":"levelo://app?vid=41da4b07-db10-4bd8-bb59-3aa5baaf8c10","ios":"levelo://app?vid=41da4b07-db10-4bd8-bb59-3aa5baaf8c10"},"vehicle_type_id":"4","last_reported":1729513109,"current_range_meters":30400,"station_id":"ce4bhgp2rcd13ifvqfc0","pricing_plan_id":"cebpf4jnsgd1na2vs0mg"},{"bike_id":"885ac4a7-7dad-4016-a286-f6c226180f64","system_id":"levelo_inurba_marseille","lat":43.23199,"lon":5.35554,"is_reserved":false,"is_disabled":false,"rental_uris":{"android":"levelo://app?vid=885ac4a7-7dad-4016-a286-f6c226180f64","ios":"levelo://app?vid=885ac4a7-7dad-4016-a286-f6c226180f64"},"vehicle_type_id":"4","last_reported":1729513109,"current_range_meters":35200,"station_id":"ce4bhu92rcd13ifvqi70","pricing_plan_id":"cebpf4jnsgd1na2vs0mg"},{"bike_id":"41ef5a2e-3327-45a4-bc05-e5e0e876e37d","system_id":"levelo_inurba_marseille","lat":43.31497,"lon":5.37308,"is_reserved":false,"is_disabled":false,"rental_uris":{"android":"levelo://app?vid=41ef5a2e-3327-45a4-bc05-e5e0e876e37d","ios":"levelo://app?vid=41ef5a2e-3327-45a4-bc05-e5e0e876e37d"},"vehicle_type_id":"4","last_reported":1729513109,"current_range_meters":38000,"station_id":"ce4bhph2rcd13ifvqheg","pricing_plan_id":"cebpf4jnsgd1na2vs0mg"},{"bike_id":"a1489b30-e2cd-465d-a3b1-63964b256b98","system_id":"levelo_inurba_marseille","lat":43.28417,"lon":5.34972,"is_reserved":false,"is_disabled":false,"rental_uris":{"android":"levelo://app?vid=a1489b30-e2cd-465d-a3b1-63964b256b98","ios":"levelo://app?vid=a1489b30-e2cd-465d-a3b1-63964b256b98"},"vehicle_type_id":"4","last_reported":1729513109,"current_range_meters":19600,"station_id":"ce4bhbh2rcd13ifvqepg","pricing_plan_id":"cebpf4jnsgd1na2vs0mg"},{"bike_id":"79a5fc68-366a-48dc-bd0c-559aed21059a","system_id":"levelo_inurba_marseille","lat":43.29982,"lon":5.38505,"is_reserved":false,"is_disabled":false,"rental_uris":{"android":"levelo://app?vid=79a5fc68-366a-48dc-bd0c-559aed21059a","ios":"levelo://app?vid=79a5fc68-366a-48dc-bd0c-559aed21059a"},"vehicle_type_id":"4","last_reported":1729513109,"current_range_meters":38400,"station_id":"ce4bgj92rcd13ifvqbd0","pricing_plan_id":"cebpf4jnsgd1na2vs0mg"},{"bike_id":"38618ba4-c3f2-4dde-9e38-44a2fc7cc4e1","system_id":"levelo_inurba_marseille","lat":43.2914,"lon":5.38627,"is_reserved":false,"is_disabled":false,"rental_uris":{"android":"levelo://app?vid=38618ba4-c3f2-4dde-9e38-44a2fc7cc4e1","ios":"levelo://app?vid=38618ba4-c3f2-4dde-9e38-44a2fc7cc4e1"},"vehicle_type_id":"4","last_reported":1729513109,"current_range_meters":25200,"station_id":"","pricing_plan_id":"cebpf4jnsgd1na2vs0mg"},{"bike_id":"5c1388e3-d465-4a7a-8a46-663e3c7129b2","system_id":"levelo_inurba_marseille","lat":43.33027,"lon":5.39044,"is_reserved":false,"is_disabled":false,"rental_uris":{"android":"levelo://app?vid=5c1388e3-d465-4a7a-8a46-663e3c7129b2","ios":"levelo://app?vid=5c1388e3-d465-4a7a-8a46-663e3c7129b2"},"vehicle_type_id":"4","last_reported":1729513109,"current_range_meters":36400,"station_id":"ce4bhr92rcd13ifvqhrg","pricing_plan_id":"cebpf4jnsgd1na2vs0mg"},{"bike_id":"50c45ba5-b004-498d-bc37-c782f44d14ed","system_id":"levelo_inurba_marseille","lat":43.29875,"lon":5.39726,"is_reserved":false,"is_disabled":false,"rental_uris":{"android":"levelo://app?vid=50c45ba5-b004-498d-bc37-c782f44d14ed","ios":"levelo://app?vid=50c45ba5-b004-498d-bc37-c782f44d14ed"},"vehicle_type_id":"4","last_reported":1729513109,"current_range_meters":23200,"station_id":"ce4bh0h2rcd13ifvqd50","pricing_plan_id":"cebpf4jnsgd1na2vs0mg"},{"bike_id":"705f28cb-253b-4a1d-9dbd-48bd4766e685","system_id":"levelo_inurba_marseille","lat":43.30596,"lon":5.37213,"is_reserved":false,"is_disabled":false,"rental_uris":{"android":"levelo://app?vid=705f28cb-253b-4a1d-9dbd-48bd4766e685","ios":"levelo://app?vid=705f28cb-253b-4a1d-9dbd-48bd4766e685"},"vehicle_type_id":"4","last_reported":1729513109,"current_range_meters":37600,"station_id":"ce4bgqh2rcd13ifvqc4g","pricing_plan_id":"cebpf4jnsgd1na2vs0mg"},{"bike_id":"7eca7f29-30c4-4e2a-b82d-db09ddccb02d","system_id":"levelo_inurba_marseille","lat":43.28155,"lon":5.42633,"is_reserved":false,"is_disabled":false,"rental_uris":{"android":"levelo://app?vid=7eca7f29-30c4-4e2a-b82d-db09ddccb02d","ios":"levelo://app?vid=7eca7f29-30c4-4e2a-b82d-db09ddccb02d"},"vehicle_type_id":"4","last_reported":1729513109,"current_range_meters":6800,"station_id":"ce4bhnh2rcd13ifvqgug","pricing_plan_id":"cebpf4jnsgd1na2vs0mg"},{"bike_id":"17a9ea24-a710-45a4-9bf0-91a75aca0687","system_id":"levelo_inurba_marseille","lat":43.28417,"lon":5.34986,"is_reserved":false,"is_disabled":false,"rental_uris":{"android":"levelo://app?vid=17a9ea24-a710-45a4-9bf0-91a75aca0687","ios":"levelo://app?vid=17a9ea24-a710-45a4-9bf0-91a75aca0687"},"vehicle_type_id":"4","last_reported":1729513109,"current_range_meters":28400,"station_id":"ce4bhbh2rcd13ifvqepg","pricing_plan_id":"cebpf4jnsgd1na2vs0mg"},{"bike_id":"34ff40bb-95c5-44a4-8f18-36c897d101e9","system_id":"levelo_inurba_marseille","lat":43.28073,"lon":5.3966,"is_reserved":false,"is_disabled":false,"rental_uris":{"android":"levelo://app?vid=34ff40bb-95c5-44a4-8f18-36c897d101e9","ios":"levelo://app?vid=34ff40bb-95c5-44a4-8f18-36c897d101e9"},"vehicle_type_id":"4","last_reported":1729513109,"current_range_meters":18000,"station_id":"ce4bho12rcd13ifvqh2g","pricing_plan_id":"cebpf4jnsgd1na2vs0mg"},{"bike_id":"f24cc69c-7dad-41cf-864b-61363c3c2320","system_id":"levelo_inurba_marseille","lat":43.295746,"lon":5.375043,"is_reserved":false,"is_disabled":false,"rental_uris":{"android":"levelo://app?vid=f24cc69c-7dad-41cf-864b-61363c3c2320","ios":"levelo://app?vid=f24cc69c-7dad-41cf-864b-61363c3c2320"},"vehicle_type_id":"4","last_reported":1729513109,"current_range_meters":35200,"station_id":"","pricing_plan_id":"cebpf4jnsgd1na2vs0mg"},{"bike_id":"6391129b-1cd1-4e3f-be3c-b65ef35851e1","system_id":"levelo_inurba_marseille","lat":43.27999,"lon":5.40006,"is_reserved":false,"is_disabled":false,"rental_uris":{"android":"levelo://app?vid=6391129b-1cd1-4e3f-be3c-b65ef35851e1","ios":"levelo://app?vid=6391129b-1cd1-4e3f-be3c-b65ef35851e1"},"vehicle_type_id":"4","last_reported":1729513109,"current_range_meters":3200,"station_id":"ce4bho92rcd13ifvqh4g","pricing_plan_id":"cebpf4jnsgd1na2vs0mg"},{"bike_id":"bf964b7d-d70d-4b41-ac3a-0fe8e7d635e3","system_id":"levelo_inurba_marseille","lat":43.30136,"lon":5.39852,"is_reserved":false,"is_disabled":false,"rental_uris":{"android":"levelo://app?vid=bf964b7d-d70d-4b41-ac3a-0fe8e7d635e3","ios":"levelo://app?vid=bf964b7d-d70d-4b41-ac3a-0fe8e7d635e3"},"vehicle_type_id":"4","last_reported":1729513109,"current_range_meters":36800,"station_id":"ce4bh0h2rcd13ifvqd40","pricing_plan_id":"cebpf4jnsgd1na2vs0mg"},{"bike_id":"28e664a8-a8b1-44ef-afe5-7c0f78792048","system_id":"levelo_inurba_marseille","lat":43.24088,"lon":5.37746,"is_reserved":false,"is_disabled":false,"rental_uris":{"android":"levelo://app?vid=28e664a8-a8b1-44ef-afe5-7c0f78792048","ios":"levelo://app?vid=28e664a8-a8b1-44ef-afe5-7c0f78792048"},"vehicle_type_id":"4","last_reported":1729513109,"current_range_meters":37600,"station_id":"ce4bhnp2rcd13ifvqgvg","pricing_plan_id":"cebpf4jnsgd1na2vs0mg"},{"bike_id":"863bc6bc-63c1-4902-8785-5073c55cd36a","system_id":"levelo_inurba_marseille","lat":43.27206,"lon":5.39177,"is_reserved":false,"is_disabled":false,"rental_uris":{"android":"levelo://app?vid=863bc6bc-63c1-4902-8785-5073c55cd36a","ios":"levelo://app?vid=863bc6bc-63c1-4902-8785-5073c55cd36a"},"vehicle_type_id":"4","last_reported":1729513109,"current_range_meters":31200,"station_id":"ce4bhhp2rcd13ifvqfm0","pricing_plan_id":"cebpf4jnsgd1na2vs0mg"},{"bike_id":"35bf409d-13e3-4c38-ab0b-90ae4d4e6ffe","system_id":"levelo_inurba_marseille","lat":43.23153,"lon":5.4372,"is_reserved":false,"is_disabled":false,"rental_uris":{"android":"levelo://app?vid=35bf409d-13e3-4c38-ab0b-90ae4d4e6ffe","ios":"levelo://app?vid=35bf409d-13e3-4c38-ab0b-90ae4d4e6ffe"},"vehicle_type_id":"4","last_reported":1729513109,"current_range_meters":8400,"station_id":"ce4bhmp2rcd13ifvqgog","pricing_plan_id":"cebpf4jnsgd1na2vs0mg"},{"bike_id":"3c2e9290-6792-4e2d-b00d-712b965be0bd","system_id":"levelo_inurba_marseille","lat":43.26425,"lon":5.38678,"is_reserved":false,"is_disabled":false,"rental_uris":{"android":"levelo://app?vid=3c2e9290-6792-4e2d-b00d-712b965be0bd","ios":"levelo://app?vid=3c2e9290-6792-4e2d-b00d-712b965be0bd"},"vehicle_type_id":"4","last_reported":1729513109,"current_range_meters":14000,"station_id":"","pricing_plan_id":"cebpf4jnsgd1na2vs0mg"},{"bike_id":"462788be-48e7-4379-bc0e-0312feb0f5ad","system_id":"levelo_inurba_marseille","lat":43.33754,"lon":5.37461,"is_reserved":false,"is_disabled":false,"rental_uris":{"android":"levelo://app?vid=462788be-48e7-4379-bc0e-0312feb0f5ad","ios":"levelo://app?vid=462788be-48e7-4379-bc0e-0312feb0f5ad"},"vehicle_type_id":"4","last_reported":1729513109,"current_range_meters":4400,"station_id":"","pricing_plan_id":"cebpf4jnsgd1na2vs0mg"},{"bike_id":"c83b89d3-d5e4-431e-85ee-877a77ad74dc","system_id":"levelo_inurba_marseille","lat":43.30888,"lon":5.37187,"is_reserved":false,"is_disabled":false,"rental_uris":{"android":"levelo://app?vid=c83b89d3-d5e4-431e-85ee-877a77ad74dc","ios":"levelo://app?vid=c83b89d3-d5e4-431e-85ee-877a77ad74dc"},"vehicle_type_id":"4","last_reported":1729513109,"current_range_meters":28800,"station_id":"ce4bguh2rcd13ifvqckg","pricing_plan_id":"cebpf4jnsgd1na2vs0mg"},{"bike_id":"7785c850-9741-4dd2-b38b-f3577d3858a6","system_id":"levelo_inurba_marseille","lat":43.25933,"lon":5.40909,"is_reserved":false,"is_disabled":false,"rental_uris":{"android":"levelo://app?vid=7785c850-9741-4dd2-b38b-f3577d3858a6","ios":"levelo://app?vid=7785c850-9741-4dd2-b38b-f3577d3858a6"},"vehicle_type_id":"4","last_reported":1729513109,"current_range_meters":22400,"station_id":"ce4bhm92rcd13ifvqglg","pricing_plan_id":"cebpf4jnsgd1na2vs0mg"},{"bike_id":"30df73e5-9973-4367-a607-82bf6a0d8d91","system_id":"levelo_inurba_marseille","lat":43.2742,"lon":5.39415,"is_reserved":false,"is_disabled":false,"rental_uris":{"android":"levelo://app?vid=30df73e5-9973-4367-a607-82bf6a0d8d91","ios":"levelo://app?vid=30df73e5-9973-4367-a607-82bf6a0d8d91"},"vehicle_type_id":"4","last_reported":1729513109,"current_range_meters":16800,"station_id":"ce4bhdp2rcd13ifvqf20","pricing_plan_id":"cebpf4jnsgd1na2vs0mg"},{"bike_id":"a9131265-1ea6-4cec-af6d-93230c7a9652","system_id":"levelo_inurba_marseille","lat":43.3152,"lon":5.38961,"is_reserved":false,"is_disabled":false,"rental_uris":{"android":"levelo://app?vid=a9131265-1ea6-4cec-af6d-93230c7a9652","ios":"levelo://app?vid=a9131265-1ea6-4cec-af6d-93230c7a9652"},"vehicle_type_id":"4","last_reported":1729513109,"current_range_meters":22400,"station_id":"","pricing_plan_id":"cebpf4jnsgd1na2vs0mg"},{"bike_id":"4f324dee-f214-467b-be0a-656ee0a0ad7d","system_id":"levelo_inurba_marseille","lat":43.28948,"lon":5.36385,"is_reserved":false,"is_disabled":false,"rental_uris":{"android":"levelo://app?vid=4f324dee-f214-467b-be0a-656ee0a0ad7d","ios":"levelo://app?vid=4f324dee-f214-467b-be0a-656ee0a0ad7d"},"vehicle_type_id":"4","last_reported":1729513109,"current_range_meters":36000,"station_id":"ce4bhc92rcd13ifvqetg","pricing_plan_id":"cebpf4jnsgd1na2vs0mg"},{"bike_id":"897897c5-ba38-4989-b2c4-2efe88dc6e81","system_id":"levelo_inurba_marseille","lat":43.26683,"lon":5.38261,"is_reserved":false,"is_disabled":false,"rental_uris":{"android":"levelo://app?vid=897897c5-ba38-4989-b2c4-2efe88dc6e81","ios":"levelo://app?vid=897897c5-ba38-4989-b2c4-2efe88dc6e81"},"vehicle_type_id":"4","last_reported":1729513109,"current_range_meters":18800,"station_id":"ce4bhg92rcd13ifvqf90","pricing_plan_id":"cebpf4jnsgd1na2vs0mg"},{"bike_id":"ab1295d8-40ea-43fa-92fa-abdc33824b2f","system_id":"levelo_inurba_marseille","lat":43.2606,"lon":5.38543,"is_reserved":false,"is_disabled":false,"rental_uris":{"android":"levelo://app?vid=ab1295d8-40ea-43fa-92fa-abdc33824b2f","ios":"levelo://app?vid=ab1295d8-40ea-43fa-92fa-abdc33824b2f"},"vehicle_type_id":"4","last_reported":1729513109,"current_range_meters":14400,"station_id":"","pricing_plan_id":"cebpf4jnsgd1na2vs0mg"},{"bike_id":"4867a399-fe80-4301-8e59-94c8757c3bb8","system_id":"levelo_inurba_marseille","lat":43.23183,"lon":5.39977,"is_reserved":false,"is_disabled":false,"rental_uris":{"android":"levelo://app?vid=4867a399-fe80-4301-8e59-94c8757c3bb8","ios":"levelo://app?vid=4867a399-fe80-4301-8e59-94c8757c3bb8"},"vehicle_type_id":"4","last_reported":1729513109,"current_range_meters":24800,"station_id":"ce4bhn12rcd13ifvqgqg","pricing_plan_id":"cebpf4jnsgd1na2vs0mg"},{"bike_id":"dfd214e0-4dbf-4c03-93e9-204daa78defe","system_id":"levelo_inurba_marseille","lat":43.22933,"lon":5.35379,"is_reserved":false,"is_disabled":false,"rental_uris":{"android":"levelo://app?vid=dfd214e0-4dbf-4c03-93e9-204daa78defe","ios":"levelo://app?vid=dfd214e0-4dbf-4c03-93e9-204daa78defe"},"vehicle_type_id":"4","last_reported":1729513109,"current_range_meters":38400,"station_id":"cpo3532slgdg3j2ikp40","pricing_plan_id":"cebpf4jnsgd1na2vs0mg"},{"bike_id":"8e768f02-489c-4649-8fb3-53544996760b","system_id":"levelo_inurba_marseille","lat":43.27377,"lon":5.36258,"is_reserved":false,"is_disabled":false,"rental_uris":{"android":"levelo://app?vid=8e768f02-489c-4649-8fb3-53544996760b","ios":"levelo://app?vid=8e768f02-489c-4649-8fb3-53544996760b"},"vehicle_type_id":"4","last_reported":1729513109,"current_range_meters":24400,"station_id":"ce4bhbh2rcd13ifvqeo0","pricing_plan_id":"cebpf4jnsgd1na2vs0mg"},{"bike_id":"d57b0c15-4a9f-4fdd-882e-d8c8399a9714","system_id":"levelo_inurba_marseille","lat":43.241793,"lon":5.397308,"is_reserved":false,"is_disabled":false,"rental_uris":{"android":"levelo://app?vid=d57b0c15-4a9f-4fdd-882e-d8c8399a9714","ios":"levelo://app?vid=d57b0c15-4a9f-4fdd-882e-d8c8399a9714"},"vehicle_type_id":"4","last_reported":1729513109,"current_range_meters":19600,"station_id":"ce4bhn12rcd13ifvqgpg","pricing_plan_id":"cebpf4jnsgd1na2vs0mg"},{"bike_id":"de307c2e-ed43-43e2-a7bf-522976a8cf9d","system_id":"levelo_inurba_marseille","lat":43.27619,"lon":5.36101,"is_reserved":false,"is_disabled":false,"rental_uris":{"android":"levelo://app?vid=de307c2e-ed43-43e2-a7bf-522976a8cf9d","ios":"levelo://app?vid=de307c2e-ed43-43e2-a7bf-522976a8cf9d"},"vehicle_type_id":"4","last_reported":1729513109,"current_range_meters":26800,"station_id":"ce4bgj92rcd13ifvqbe0","pricing_plan_id":"cebpf4jnsgd1na2vs0mg"},{"bike_id":"1357eecb-a751-40e2-8cf2-050344320bd7","system_id":"levelo_inurba_marseille","lat":43.32483,"lon":5.36565,"is_reserved":false,"is_disabled":false,"rental_uris":{"android":"levelo://app?vid=1357eecb-a751-40e2-8cf2-050344320bd7","ios":"levelo://app?vid=1357eecb-a751-40e2-8cf2-050344320bd7"},"vehicle_type_id":"4","last_reported":1729513109,"current_range_meters":36000,"station_id":"ce4bhs12rcd13ifvqhvg","pricing_plan_id":"cebpf4jnsgd1na2vs0mg"},{"bike_id":"9aa50d9c-4fd9-4d48-ad2b-8db9639993b9","system_id":"levelo_inurba_marseille","lat":43.30607,"lon":5.37228,"is_reserved":false,"is_disabled":false,"rental_uris":{"android":"levelo://app?vid=9aa50d9c-4fd9-4d48-ad2b-8db9639993b9","ios":"levelo://app?vid=9aa50d9c-4fd9-4d48-ad2b-8db9639993b9"},"vehicle_type_id":"4","last_reported":1729513109,"current_range_meters":16000,"station_id":"ce4bgqh2rcd13ifvqc4g","pricing_plan_id":"cebpf4jnsgd1na2vs0mg"},{"bike_id":"0b150ef5-48f2-4af4-9f84-9a5daa8aaf05","system_id":"levelo_inurba_marseille","lat":43.29225,"lon":5.36068,"is_reserved":false,"is_disabled":false,"rental_uris":{"android":"levelo://app?vid=0b150ef5-48f2-4af4-9f84-9a5daa8aaf05","ios":"levelo://app?vid=0b150ef5-48f2-4af4-9f84-9a5daa8aaf05"},"vehicle_type_id":"4","last_reported":1729513109,"current_range_meters":36400,"station_id":"ce4bhbh2rcd13ifvqeqg","pricing_plan_id":"cebpf4jnsgd1na2vs0mg"},{"bike_id":"ae6f75c8-75b5-4ca3-a9e5-d664b6ea4e8c","system_id":"levelo_inurba_marseille","lat":43.2955,"lon":5.42285,"is_reserved":false,"is_disabled":false,"rental_uris":{"android":"levelo://app?vid=ae6f75c8-75b5-4ca3-a9e5-d664b6ea4e8c","ios":"levelo://app?vid=ae6f75c8-75b5-4ca3-a9e5-d664b6ea4e8c"},"vehicle_type_id":"4","last_reported":1729513109,"current_range_meters":33200,"station_id":"ce4bhph2rcd13ifvqhdg","pricing_plan_id":"cebpf4jnsgd1na2vs0mg"},{"bike_id":"3635f8c5-1d04-4904-826b-3b5c2ba304f2","system_id":"levelo_inurba_marseille","lat":43.28421,"lon":5.34977,"is_reserved":false,"is_disabled":false,"rental_uris":{"android":"levelo://app?vid=3635f8c5-1d04-4904-826b-3b5c2ba304f2","ios":"levelo://app?vid=3635f8c5-1d04-4904-826b-3b5c2ba304f2"},"vehicle_type_id":"4","last_reported":1729513109,"current_range_meters":37600,"station_id":"ce4bhbh2rcd13ifvqepg","pricing_plan_id":"cebpf4jnsgd1na2vs0mg"},{"bike_id":"46167aa0-5c5e-4986-bca6-c7df95fbbd4e","system_id":"levelo_inurba_marseille","lat":43.28944,"lon":5.3663,"is_reserved":false,"is_disabled":false,"rental_uris":{"android":"levelo://app?vid=46167aa0-5c5e-4986-bca6-c7df95fbbd4e","ios":"levelo://app?vid=46167aa0-5c5e-4986-bca6-c7df95fbbd4e"},"vehicle_type_id":"4","last_reported":1729513109,"current_range_meters":29600,"station_id":"ce4bhap2rcd13ifvqek0","pricing_plan_id":"cebpf4jnsgd1na2vs0mg"},{"bike_id":"db671423-918e-4145-8245-a653d94bf9db","system_id":"levelo_inurba_marseille","lat":43.27991,"lon":5.40009,"is_reserved":false,"is_disabled":false,"rental_uris":{"android":"levelo://app?vid=db671423-918e-4145-8245-a653d94bf9db","ios":"levelo://app?vid=db671423-918e-4145-8245-a653d94bf9db"},"vehicle_type_id":"4","last_reported":1729513109,"current_range_meters":30800,"station_id":"ce4bho92rcd13ifvqh4g","pricing_plan_id":"cebpf4jnsgd1na2vs0mg"},{"bike_id":"48d08e27-4914-4db9-9aaa-0d2f6e2c697b","system_id":"levelo_inurba_marseille","lat":43.32342,"lon":5.40623,"is_reserved":false,"is_disabled":false,"rental_uris":{"android":"levelo://app?vid=48d08e27-4914-4db9-9aaa-0d2f6e2c697b","ios":"levelo://app?vid=48d08e27-4914-4db9-9aaa-0d2f6e2c697b"},"vehicle_type_id":"4","last_reported":1729513109,"current_range_meters":30800,"station_id":"ce4bhq92rcd13ifvqhjg","pricing_plan_id":"cebpf4jnsgd1na2vs0mg"},{"bike_id":"82340779-e154-48e9-b7c7-02a7cdbcf1d6","system_id":"levelo_inurba_marseille","lat":43.2921,"lon":5.38023,"is_reserved":false,"is_disabled":false,"rental_uris":{"android":"levelo://app?vid=82340779-e154-48e9-b7c7-02a7cdbcf1d6","ios":"levelo://app?vid=82340779-e154-48e9-b7c7-02a7cdbcf1d6"},"vehicle_type_id":"4","last_reported":1729513109,"current_range_meters":25200,"station_id":"","pricing_plan_id":"cebpf4jnsgd1na2vs0mg"},{"bike_id":"63209cad-9341-4138-8395-52c142cf2fed","system_id":"levelo_inurba_marseille","lat":43.24549,"lon":5.39524,"is_reserved":false,"is_disabled":false,"rental_uris":{"android":"levelo://app?vid=63209cad-9341-4138-8395-52c142cf2fed","ios":"levelo://app?vid=63209cad-9341-4138-8395-52c142cf2fed"},"vehicle_type_id":"4","last_reported":1729513109,"current_range_meters":4400,"station_id":"ce4bhlp2rcd13ifvqgjg","pricing_plan_id":"cebpf4jnsgd1na2vs0mg"},{"bike_id":"f0a3233f-753b-4179-a4b8-476d6c6df688","system_id":"levelo_inurba_marseille","lat":43.26214,"lon":5.37438,"is_reserved":false,"is_disabled":false,"rental_uris":{"android":"levelo://app?vid=f0a3233f-753b-4179-a4b8-476d6c6df688","ios":"levelo://app?vid=f0a3233f-753b-4179-a4b8-476d6c6df688"},"vehicle_type_id":"4","last_reported":1729513109,"current_range_meters":22800,"station_id":"ce4bhgp2rcd13ifvqfc0","pricing_plan_id":"cebpf4jnsgd1na2vs0mg"},{"bike_id":"b029640a-1e24-4384-a21c-55c58b2c42c5","system_id":"levelo_inurba_marseille","lat":43.24072,"lon":5.37756,"is_reserved":false,"is_disabled":false,"rental_uris":{"android":"levelo://app?vid=b029640a-1e24-4384-a21c-55c58b2c42c5","ios":"levelo://app?vid=b029640a-1e24-4384-a21c-55c58b2c42c5"},"vehicle_type_id":"4","last_reported":1729513109,"current_range_meters":4400,"station_id":"ce4bhnp2rcd13ifvqgvg","pricing_plan_id":"cebpf4jnsgd1na2vs0mg"},{"bike_id":"1515a33e-2adb-4044-a97a-62b05c4d267a","system_id":"levelo_inurba_marseille","lat":43.32484,"lon":5.36568,"is_reserved":false,"is_disabled":false,"rental_uris":{"android":"levelo://app?vid=1515a33e-2adb-4044-a97a-62b05c4d267a","ios":"levelo://app?vid=1515a33e-2adb-4044-a97a-62b05c4d267a"},"vehicle_type_id":"4","last_reported":1729513109,"current_range_meters":18000,"station_id":"ce4bhs12rcd13ifvqhvg","pricing_plan_id":"cebpf4jnsgd1na2vs0mg"},{"bike_id":"76888ed7-7d46-4ff1-ba65-4f65160c08cc","system_id":"levelo_inurba_marseille","lat":43.31344,"lon":5.36721,"is_reserved":false,"is_disabled":false,"rental_uris":{"android":"levelo://app?vid=76888ed7-7d46-4ff1-ba65-4f65160c08cc","ios":"levelo://app?vid=76888ed7-7d46-4ff1-ba65-4f65160c08cc"},"vehicle_type_id":"4","last_reported":1729513109,"current_range_meters":30400,"station_id":"ce4bgr92rcd13ifvqc6g","pricing_plan_id":"cebpf4jnsgd1na2vs0mg"},{"bike_id":"0355d8da-e083-48f5-ae06-296cb708799c","system_id":"levelo_inurba_marseille","lat":43.336,"lon":5.41029,"is_reserved":false,"is_disabled":false,"rental_uris":{"android":"levelo://app?vid=0355d8da-e083-48f5-ae06-296cb708799c","ios":"levelo://app?vid=0355d8da-e083-48f5-ae06-296cb708799c"},"vehicle_type_id":"4","last_reported":1729513109,"current_range_meters":36400,"station_id":"ce4bhqh2rcd13ifvqhmg","pricing_plan_id":"cebpf4jnsgd1na2vs0mg"},{"bike_id":"bfd66244-d9df-403a-ad42-0b09e20bfa0a","system_id":"levelo_inurba_marseille","lat":43.34144,"lon":5.40898,"is_reserved":false,"is_disabled":false,"rental_uris":{"android":"levelo://app?vid=bfd66244-d9df-403a-ad42-0b09e20bfa0a","ios":"levelo://app?vid=bfd66244-d9df-403a-ad42-0b09e20bfa0a"},"vehicle_type_id":"4","last_reported":1729513109,"current_range_meters":23200,"station_id":"ce4bhqh2rcd13ifvqhlg","pricing_plan_id":"cebpf4jnsgd1na2vs0mg"},{"bike_id":"7bd82abf-c748-4076-b530-8fc118390ec4","system_id":"levelo_inurba_marseille","lat":43.29893,"lon":5.43669,"is_reserved":false,"is_disabled":false,"rental_uris":{"android":"levelo://app?vid=7bd82abf-c748-4076-b530-8fc118390ec4","ios":"levelo://app?vid=7bd82abf-c748-4076-b530-8fc118390ec4"},"vehicle_type_id":"4","last_reported":1729513109,"current_range_meters":33200,"station_id":"ce4bhpp2rcd13ifvqhfg","pricing_plan_id":"cebpf4jnsgd1na2vs0mg"},{"bike_id":"cf5edb93-17a1-445f-b7b1-309281f715bb","system_id":"levelo_inurba_marseille","lat":43.24546,"lon":5.39529,"is_reserved":false,"is_disabled":false,"rental_uris":{"android":"levelo://app?vid=cf5edb93-17a1-445f-b7b1-309281f715bb","ios":"levelo://app?vid=cf5edb93-17a1-445f-b7b1-309281f715bb"},"vehicle_type_id":"4","last_reported":1729513109,"current_range_meters":10800,"station_id":"ce4bhlp2rcd13ifvqgjg","pricing_plan_id":"cebpf4jnsgd1na2vs0mg"},{"bike_id":"b5a85a50-9d29-4849-83ad-02d25a3138f6","system_id":"levelo_inurba_marseille","lat":43.292987,"lon":5.374555,"is_reserved":false,"is_disabled":false,"rental_uris":{"android":"levelo://app?vid=b5a85a50-9d29-4849-83ad-02d25a3138f6","ios":"levelo://app?vid=b5a85a50-9d29-4849-83ad-02d25a3138f6"},"vehicle_type_id":"4","last_reported":1729513109,"current_range_meters":24400,"station_id":"ce4bgi12rcd13ifvqb70","pricing_plan_id":"cebpf4jnsgd1na2vs0mg"},{"bike_id":"88f78372-d8ce-45c3-9c60-1e53017fe37c","system_id":"levelo_inurba_marseille","lat":43.29624,"lon":5.371476,"is_reserved":false,"is_disabled":false,"rental_uris":{"android":"levelo://app?vid=88f78372-d8ce-45c3-9c60-1e53017fe37c","ios":"levelo://app?vid=88f78372-d8ce-45c3-9c60-1e53017fe37c"},"vehicle_type_id":"4","last_reported":1729513109,"current_range_meters":38000,"station_id":"ce4bgs12rcd13ifvqcag","pricing_plan_id":"cebpf4jnsgd1na2vs0mg"},{"bike_id":"94ad5290-0e6d-4e30-8e4d-37af64da52be","system_id":"levelo_inurba_marseille","lat":43.27499,"lon":5.4245,"is_reserved":false,"is_disabled":false,"rental_uris":{"android":"levelo://app?vid=94ad5290-0e6d-4e30-8e4d-37af64da52be","ios":"levelo://app?vid=94ad5290-0e6d-4e30-8e4d-37af64da52be"},"vehicle_type_id":"4","last_reported":1729513109,"current_range_meters":17200,"station_id":"ce4bhn92rcd13ifvqgrg","pricing_plan_id":"cebpf4jnsgd1na2vs0mg"},{"bike_id":"7b9f80d7-3e6d-4a0c-84d8-44579ef63b83","system_id":"levelo_inurba_marseille","lat":43.25928,"lon":5.40901,"is_reserved":false,"is_disabled":false,"rental_uris":{"android":"levelo://app?vid=7b9f80d7-3e6d-4a0c-84d8-44579ef63b83","ios":"levelo://app?vid=7b9f80d7-3e6d-4a0c-84d8-44579ef63b83"},"vehicle_type_id":"4","last_reported":1729513109,"current_range_meters":11600,"station_id":"ce4bhm92rcd13ifvqglg","pricing_plan_id":"cebpf4jnsgd1na2vs0mg"},{"bike_id":"d2031bab-155b-4bee-920b-a44835533f3d","system_id":"levelo_inurba_marseille","lat":43.26201,"lon":5.37929,"is_reserved":false,"is_disabled":false,"rental_uris":{"android":"levelo://app?vid=d2031bab-155b-4bee-920b-a44835533f3d","ios":"levelo://app?vid=d2031bab-155b-4bee-920b-a44835533f3d"},"vehicle_type_id":"4","last_reported":1729513109,"current_range_meters":38400,"station_id":"ce4bhjp2rcd13ifvqg90","pricing_plan_id":"cebpf4jnsgd1na2vs0mg"},{"bike_id":"0463147f-2d5d-4991-a852-fd6117cb7b0f","system_id":"levelo_inurba_marseille","lat":43.30281,"lon":5.37706,"is_reserved":false,"is_disabled":false,"rental_uris":{"android":"levelo://app?vid=0463147f-2d5d-4991-a852-fd6117cb7b0f","ios":"levelo://app?vid=0463147f-2d5d-4991-a852-fd6117cb7b0f"},"vehicle_type_id":"4","last_reported":1729513109,"current_range_meters":39200,"station_id":"ce4bguh2rcd13ifvqcj0","pricing_plan_id":"cebpf4jnsgd1na2vs0mg"},{"bike_id":"cdbf0195-96d7-46ca-a5f5-49b54defd1b0","system_id":"levelo_inurba_marseille","lat":43.25578,"lon":5.38223,"is_reserved":false,"is_disabled":false,"rental_uris":{"android":"levelo://app?vid=cdbf0195-96d7-46ca-a5f5-49b54defd1b0","ios":"levelo://app?vid=cdbf0195-96d7-46ca-a5f5-49b54defd1b0"},"vehicle_type_id":"4","last_reported":1729513109,"current_range_meters":24000,"station_id":"ce4bhih2rcd13ifvqfs0","pricing_plan_id":"cebpf4jnsgd1na2vs0mg"},{"bike_id":"0728974d-1ad5-4181-91f2-6035aab7157d","system_id":"levelo_inurba_marseille","lat":43.23192,"lon":5.35544,"is_reserved":false,"is_disabled":false,"rental_uris":{"android":"levelo://app?vid=0728974d-1ad5-4181-91f2-6035aab7157d","ios":"levelo://app?vid=0728974d-1ad5-4181-91f2-6035aab7157d"},"vehicle_type_id":"4","last_reported":1729513109,"current_range_meters":38800,"station_id":"ce4bhu92rcd13ifvqi70","pricing_plan_id":"cebpf4jnsgd1na2vs0mg"},{"bike_id":"957a0e0a-78da-4d14-aaa1-4f4b0b21d8ef","system_id":"levelo_inurba_marseille","lat":43.26685,"lon":5.38272,"is_reserved":false,"is_disabled":false,"rental_uris":{"android":"levelo://app?vid=957a0e0a-78da-4d14-aaa1-4f4b0b21d8ef","ios":"levelo://app?vid=957a0e0a-78da-4d14-aaa1-4f4b0b21d8ef"},"vehicle_type_id":"4","last_reported":1729513109,"current_range_meters":38800,"station_id":"ce4bhg92rcd13ifvqf90","pricing_plan_id":"cebpf4jnsgd1na2vs0mg"},{"bike_id":"e3227fe8-85ba-4eb5-98d7-418c667c1cf1","system_id":"levelo_inurba_marseille","lat":43.31667,"lon":5.37547,"is_reserved":false,"is_disabled":false,"rental_uris":{"android":"levelo://app?vid=e3227fe8-85ba-4eb5-98d7-418c667c1cf1","ios":"levelo://app?vid=e3227fe8-85ba-4eb5-98d7-418c667c1cf1"},"vehicle_type_id":"4","last_reported":1729513109,"current_range_meters":16800,"station_id":"","pricing_plan_id":"cebpf4jnsgd1na2vs0mg"},{"bike_id":"581c408e-0ea5-4fb1-8842-f1d09a193a19","system_id":"levelo_inurba_marseille","lat":43.23199,"lon":5.35547,"is_reserved":false,"is_disabled":false,"rental_uris":{"android":"levelo://app?vid=581c408e-0ea5-4fb1-8842-f1d09a193a19","ios":"levelo://app?vid=581c408e-0ea5-4fb1-8842-f1d09a193a19"},"vehicle_type_id":"4","last_reported":1729513109,"current_range_meters":38000,"station_id":"ce4bhu92rcd13ifvqi70","pricing_plan_id":"cebpf4jnsgd1na2vs0mg"},{"bike_id":"1808edf9-ee60-4e5a-95b8-27da92d3f4bd","system_id":"levelo_inurba_marseille","lat":43.23067,"lon":5.35488,"is_reserved":false,"is_disabled":false,"rental_uris":{"android":"levelo://app?vid=1808edf9-ee60-4e5a-95b8-27da92d3f4bd","ios":"levelo://app?vid=1808edf9-ee60-4e5a-95b8-27da92d3f4bd"},"vehicle_type_id":"4","last_reported":1729513109,"current_range_meters":12000,"station_id":"cpo3342slgdg3j2ifvpg","pricing_plan_id":"cebpf4jnsgd1na2vs0mg"},{"bike_id":"59e6dbe3-787b-47ac-905e-d02089889c4b","system_id":"levelo_inurba_marseille","lat":43.32488,"lon":5.36558,"is_reserved":false,"is_disabled":false,"rental_uris":{"android":"levelo://app?vid=59e6dbe3-787b-47ac-905e-d02089889c4b","ios":"levelo://app?vid=59e6dbe3-787b-47ac-905e-d02089889c4b"},"vehicle_type_id":"4","last_reported":1729513109,"current_range_meters":34800,"station_id":"ce4bhs12rcd13ifvqhvg","pricing_plan_id":"cebpf4jnsgd1na2vs0mg"},{"bike_id":"11d3ded0-ef33-4ecb-9c4a-3d27d3cc5480","system_id":"levelo_inurba_marseille","lat":43.290068,"lon":5.356144,"is_reserved":false,"is_disabled":false,"rental_uris":{"android":"levelo://app?vid=11d3ded0-ef33-4ecb-9c4a-3d27d3cc5480","ios":"levelo://app?vid=11d3ded0-ef33-4ecb-9c4a-3d27d3cc5480"},"vehicle_type_id":"4","last_reported":1729513109,"current_range_meters":9200,"station_id":"ce4bhb92rcd13ifvqen0","pricing_plan_id":"cebpf4jnsgd1na2vs0mg"},{"bike_id":"79a1e020-318b-42a1-a8c0-a424b1daf69e","system_id":"levelo_inurba_marseille","lat":43.296,"lon":5.36142,"is_reserved":false,"is_disabled":false,"rental_uris":{"android":"levelo://app?vid=79a1e020-318b-42a1-a8c0-a424b1daf69e","ios":"levelo://app?vid=79a1e020-318b-42a1-a8c0-a424b1daf69e"},"vehicle_type_id":"4","last_reported":1729513109,"current_range_meters":10800,"station_id":"","pricing_plan_id":"cebpf4jnsgd1na2vs0mg"},{"bike_id":"b710cbef-d1a0-4bcf-8b28-29941f49ae2e","system_id":"levelo_inurba_marseille","lat":43.25585,"lon":5.38233,"is_reserved":false,"is_disabled":false,"rental_uris":{"android":"levelo://app?vid=b710cbef-d1a0-4bcf-8b28-29941f49ae2e","ios":"levelo://app?vid=b710cbef-d1a0-4bcf-8b28-29941f49ae2e"},"vehicle_type_id":"4","last_reported":1729513109,"current_range_meters":25600,"station_id":"ce4bhih2rcd13ifvqfs0","pricing_plan_id":"cebpf4jnsgd1na2vs0mg"},{"bike_id":"7d74771e-ecf2-40e9-851b-b13f6625d564","system_id":"levelo_inurba_marseille","lat":43.28356,"lon":5.38623,"is_reserved":false,"is_disabled":false,"rental_uris":{"android":"levelo://app?vid=7d74771e-ecf2-40e9-851b-b13f6625d564","ios":"levelo://app?vid=7d74771e-ecf2-40e9-851b-b13f6625d564"},"vehicle_type_id":"4","last_reported":1729513109,"current_range_meters":20000,"station_id":"ce4bh492rcd13ifvqdvg","pricing_plan_id":"cebpf4jnsgd1na2vs0mg"},{"bike_id":"c8ab3988-c9e3-43f2-89db-149ae165d25c","system_id":"levelo_inurba_marseille","lat":43.23151,"lon":5.43714,"is_reserved":false,"is_disabled":false,"rental_uris":{"android":"levelo://app?vid=c8ab3988-c9e3-43f2-89db-149ae165d25c","ios":"levelo://app?vid=c8ab3988-c9e3-43f2-89db-149ae165d25c"},"vehicle_type_id":"4","last_reported":1729513109,"current_range_meters":11200,"station_id":"ce4bhmp2rcd13ifvqgog","pricing_plan_id":"cebpf4jnsgd1na2vs0mg"},{"bike_id":"76b616ae-0faf-42cf-b5dd-5c98fd3462ba","system_id":"levelo_inurba_marseille","lat":43.313445,"lon":5.367195,"is_reserved":false,"is_disabled":false,"rental_uris":{"android":"levelo://app?vid=76b616ae-0faf-42cf-b5dd-5c98fd3462ba","ios":"levelo://app?vid=76b616ae-0faf-42cf-b5dd-5c98fd3462ba"},"vehicle_type_id":"4","last_reported":1729513109,"current_range_meters":38800,"station_id":"ce4bgr92rcd13ifvqc6g","pricing_plan_id":"cebpf4jnsgd1na2vs0mg"},{"bike_id":"cf16d5bb-4029-4375-b5a9-8412b8e9cc70","system_id":"levelo_inurba_marseille","lat":43.23153,"lon":5.437,"is_reserved":false,"is_disabled":false,"rental_uris":{"android":"levelo://app?vid=cf16d5bb-4029-4375-b5a9-8412b8e9cc70","ios":"levelo://app?vid=cf16d5bb-4029-4375-b5a9-8412b8e9cc70"},"vehicle_type_id":"4","last_reported":1729513109,"current_range_meters":38800,"station_id":"ce4bhmp2rcd13ifvqgog","pricing_plan_id":"cebpf4jnsgd1na2vs0mg"},{"bike_id":"9426298c-60b4-4cbb-823e-58f94ec2f93c","system_id":"levelo_inurba_marseille","lat":43.30906,"lon":5.36854,"is_reserved":false,"is_disabled":false,"rental_uris":{"android":"levelo://app?vid=9426298c-60b4-4cbb-823e-58f94ec2f93c","ios":"levelo://app?vid=9426298c-60b4-4cbb-823e-58f94ec2f93c"},"vehicle_type_id":"4","last_reported":1729513109,"current_range_meters":38800,"station_id":"ce4bgn92rcd13ifvqbvg","pricing_plan_id":"cebpf4jnsgd1na2vs0mg"},{"bike_id":"7adf842b-4b8c-4356-a23f-1be0cbaf4d21","system_id":"levelo_inurba_marseille","lat":43.23199,"lon":5.35545,"is_reserved":false,"is_disabled":false,"rental_uris":{"android":"levelo://app?vid=7adf842b-4b8c-4356-a23f-1be0cbaf4d21","ios":"levelo://app?vid=7adf842b-4b8c-4356-a23f-1be0cbaf4d21"},"vehicle_type_id":"4","last_reported":1729513109,"current_range_meters":16400,"station_id":"ce4bhu92rcd13ifvqi70","pricing_plan_id":"cebpf4jnsgd1na2vs0mg"},{"bike_id":"a92b8621-c271-4098-9c51-210c76b55782","system_id":"levelo_inurba_marseille","lat":43.23195,"lon":5.35552,"is_reserved":false,"is_disabled":false,"rental_uris":{"android":"levelo://app?vid=a92b8621-c271-4098-9c51-210c76b55782","ios":"levelo://app?vid=a92b8621-c271-4098-9c51-210c76b55782"},"vehicle_type_id":"4","last_reported":1729513109,"current_range_meters":20000,"station_id":"ce4bhu92rcd13ifvqi70","pricing_plan_id":"cebpf4jnsgd1na2vs0mg"},{"bike_id":"5878ac2d-e259-4e32-a9e6-e16ca4ac7334","system_id":"levelo_inurba_marseille","lat":43.28152,"lon":5.42645,"is_reserved":false,"is_disabled":false,"rental_uris":{"android":"levelo://app?vid=5878ac2d-e259-4e32-a9e6-e16ca4ac7334","ios":"levelo://app?vid=5878ac2d-e259-4e32-a9e6-e16ca4ac7334"},"vehicle_type_id":"4","last_reported":1729513109,"current_range_meters":21600,"station_id":"ce4bhnh2rcd13ifvqgug","pricing_plan_id":"cebpf4jnsgd1na2vs0mg"},{"bike_id":"dc0d304f-1b76-4732-b850-2135d134146f","system_id":"levelo_inurba_marseille","lat":43.25578,"lon":5.38226,"is_reserved":false,"is_disabled":false,"rental_uris":{"android":"levelo://app?vid=dc0d304f-1b76-4732-b850-2135d134146f","ios":"levelo://app?vid=dc0d304f-1b76-4732-b850-2135d134146f"},"vehicle_type_id":"4","last_reported":1729513109,"current_range_meters":22000,"station_id":"ce4bhih2rcd13ifvqfs0","pricing_plan_id":"cebpf4jnsgd1na2vs0mg"},{"bike_id":"5c90a4b3-5672-400f-938e-fda4e0a6d3b6","system_id":"levelo_inurba_marseille","lat":43.3054,"lon":5.36562,"is_reserved":false,"is_disabled":false,"rental_uris":{"android":"levelo://app?vid=5c90a4b3-5672-400f-938e-fda4e0a6d3b6","ios":"levelo://app?vid=5c90a4b3-5672-400f-938e-fda4e0a6d3b6"},"vehicle_type_id":"4","last_reported":1729513109,"current_range_meters":26800,"station_id":"ce4bgs12rcd13ifvqcag","pricing_plan_id":"cebpf4jnsgd1na2vs0mg"},{"bike_id":"4514e1b2-26da-4ce3-a737-dae48c8331fc","system_id":"levelo_inurba_marseille","lat":43.26936,"lon":5.38918,"is_reserved":false,"is_disabled":false,"rental_uris":{"android":"levelo://app?vid=4514e1b2-26da-4ce3-a737-dae48c8331fc","ios":"levelo://app?vid=4514e1b2-26da-4ce3-a737-dae48c8331fc"},"vehicle_type_id":"4","last_reported":1729513109,"current_range_meters":14800,"station_id":"ce4bhhh2rcd13ifvqfl0","pricing_plan_id":"cebpf4jnsgd1na2vs0mg"},{"bike_id":"42440404-11ef-4a9c-b74a-2f9bf2de8a88","system_id":"levelo_inurba_marseille","lat":43.292683,"lon":5.384376,"is_reserved":false,"is_disabled":false,"rental_uris":{"android":"levelo://app?vid=42440404-11ef-4a9c-b74a-2f9bf2de8a88","ios":"levelo://app?vid=42440404-11ef-4a9c-b74a-2f9bf2de8a88"},"vehicle_type_id":"4","last_reported":1729513109,"current_range_meters":5600,"station_id":"ce4bh692rcd13ifvqea0","pricing_plan_id":"cebpf4jnsgd1na2vs0mg"},{"bike_id":"840a4a8a-efaa-4fdd-b314-c9598a907d84","system_id":"levelo_inurba_marseille","lat":43.29421,"lon":5.38621,"is_reserved":false,"is_disabled":false,"rental_uris":{"android":"levelo://app?vid=840a4a8a-efaa-4fdd-b314-c9598a907d84","ios":"levelo://app?vid=840a4a8a-efaa-4fdd-b314-c9598a907d84"},"vehicle_type_id":"4","last_reported":1729513109,"current_range_meters":28400,"station_id":"ce4bh2h2rcd13ifvqdh0","pricing_plan_id":"cebpf4jnsgd1na2vs0mg"},{"bike_id":"419650c5-4665-4225-a7de-76b51478b177","system_id":"levelo_inurba_marseille","lat":43.24993,"lon":5.38936,"is_reserved":false,"is_disabled":false,"rental_uris":{"android":"levelo://app?vid=419650c5-4665-4225-a7de-76b51478b177","ios":"levelo://app?vid=419650c5-4665-4225-a7de-76b51478b177"},"vehicle_type_id":"4","last_reported":1729513109,"current_range_meters":17600,"station_id":"ce4bhgp2rcd13ifvqfd0","pricing_plan_id":"cebpf4jnsgd1na2vs0mg"},{"bike_id":"d6058890-5031-48fd-a604-23ed7baff33f","system_id":"levelo_inurba_marseille","lat":43.29849,"lon":5.36285,"is_reserved":false,"is_disabled":false,"rental_uris":{"android":"levelo://app?vid=d6058890-5031-48fd-a604-23ed7baff33f","ios":"levelo://app?vid=d6058890-5031-48fd-a604-23ed7baff33f"},"vehicle_type_id":"4","last_reported":1729513109,"current_range_meters":38800,"station_id":"ce4bgpp2rcd13ifvqc3g","pricing_plan_id":"cebpf4jnsgd1na2vs0mg"},{"bike_id":"1098a3c6-88ae-48ac-ade0-49c4ae558815","system_id":"levelo_inurba_marseille","lat":43.28268,"lon":5.35056,"is_reserved":false,"is_disabled":false,"rental_uris":{"android":"levelo://app?vid=1098a3c6-88ae-48ac-ade0-49c4ae558815","ios":"levelo://app?vid=1098a3c6-88ae-48ac-ade0-49c4ae558815"},"vehicle_type_id":"4","last_reported":1729513109,"current_range_meters":30800,"station_id":"ce4bhbp2rcd13ifvqerg","pricing_plan_id":"cebpf4jnsgd1na2vs0mg"},{"bike_id":"39bc0067-6c21-4eaa-b672-08ee1fbd38fb","system_id":"levelo_inurba_marseille","lat":43.28438,"lon":5.39181,"is_reserved":false,"is_disabled":false,"rental_uris":{"android":"levelo://app?vid=39bc0067-6c21-4eaa-b672-08ee1fbd38fb","ios":"levelo://app?vid=39bc0067-6c21-4eaa-b672-08ee1fbd38fb"},"vehicle_type_id":"4","last_reported":1729513109,"current_range_meters":35200,"station_id":"ce4bhoh2rcd13ifvqh5g","pricing_plan_id":"cebpf4jnsgd1na2vs0mg"},{"bike_id":"83ab05a6-4a17-4fa8-9ed5-85b012362ab8","system_id":"levelo_inurba_marseille","lat":43.27216,"lon":5.39177,"is_reserved":false,"is_disabled":false,"rental_uris":{"android":"levelo://app?vid=83ab05a6-4a17-4fa8-9ed5-85b012362ab8","ios":"levelo://app?vid=83ab05a6-4a17-4fa8-9ed5-85b012362ab8"},"vehicle_type_id":"4","last_reported":1729513109,"current_range_meters":8400,"station_id":"ce4bhhp2rcd13ifvqfm0","pricing_plan_id":"cebpf4jnsgd1na2vs0mg"},{"bike_id":"acc16664-0dd5-4988-814a-3b25431bee65","system_id":"levelo_inurba_marseille","lat":43.31337,"lon":5.36714,"is_reserved":false,"is_disabled":false,"rental_uris":{"android":"levelo://app?vid=acc16664-0dd5-4988-814a-3b25431bee65","ios":"levelo://app?vid=acc16664-0dd5-4988-814a-3b25431bee65"},"vehicle_type_id":"4","last_reported":1729513109,"current_range_meters":28400,"station_id":"ce4bgr92rcd13ifvqc6g","pricing_plan_id":"cebpf4jnsgd1na2vs0mg"},{"bike_id":"7c932905-f844-4898-8e72-c0ea34b6941b","system_id":"levelo_inurba_marseille","lat":43.28712,"lon":5.37933,"is_reserved":false,"is_disabled":false,"rental_uris":{"android":"levelo://app?vid=7c932905-f844-4898-8e72-c0ea34b6941b","ios":"levelo://app?vid=7c932905-f844-4898-8e72-c0ea34b6941b"},"vehicle_type_id":"4","last_reported":1729513109,"current_range_meters":37600,"station_id":"ce4bh9p2rcd13ifvqec0","pricing_plan_id":"cebpf4jnsgd1na2vs0mg"},{"bike_id":"081e4c71-7fad-43fd-a308-28afc7ef9dde","system_id":"levelo_inurba_marseille","lat":43.29167,"lon":5.39478,"is_reserved":false,"is_disabled":false,"rental_uris":{"android":"levelo://app?vid=081e4c71-7fad-43fd-a308-28afc7ef9dde","ios":"levelo://app?vid=081e4c71-7fad-43fd-a308-28afc7ef9dde"},"vehicle_type_id":"4","last_reported":1729513109,"current_range_meters":26000,"station_id":"ce4bh3h2rcd13ifvqdn0","pricing_plan_id":"cebpf4jnsgd1na2vs0mg"},{"bike_id":"500cb39a-08fd-4bad-bf3b-4d2b098fccfe","system_id":"levelo_inurba_marseille","lat":43.24656,"lon":5.3889,"is_reserved":false,"is_disabled":false,"rental_uris":{"android":"levelo://app?vid=500cb39a-08fd-4bad-bf3b-4d2b098fccfe","ios":"levelo://app?vid=500cb39a-08fd-4bad-bf3b-4d2b098fccfe"},"vehicle_type_id":"4","last_reported":1729513109,"current_range_meters":19200,"station_id":"ce4bhg12rcd13ifvqf60","pricing_plan_id":"cebpf4jnsgd1na2vs0mg"},{"bike_id":"fbddefad-492e-43e9-a745-b052a6a17725","system_id":"levelo_inurba_marseille","lat":43.24543,"lon":5.39524,"is_reserved":false,"is_disabled":false,"rental_uris":{"android":"levelo://app?vid=fbddefad-492e-43e9-a745-b052a6a17725","ios":"levelo://app?vid=fbddefad-492e-43e9-a745-b052a6a17725"},"vehicle_type_id":"4","last_reported":1729513109,"current_range_meters":16400,"station_id":"ce4bhlp2rcd13ifvqgjg","pricing_plan_id":"cebpf4jnsgd1na2vs0mg"},{"bike_id":"81e3cc03-eae5-4d7f-8343-7d3d2040c830","system_id":"levelo_inurba_marseille","lat":43.2656,"lon":5.39,"is_reserved":false,"is_disabled":false,"rental_uris":{"android":"levelo://app?vid=81e3cc03-eae5-4d7f-8343-7d3d2040c830","ios":"levelo://app?vid=81e3cc03-eae5-4d7f-8343-7d3d2040c830"},"vehicle_type_id":"4","last_reported":1729513109,"current_range_meters":35600,"station_id":"ce4bhe12rcd13ifvqf30","pricing_plan_id":"cebpf4jnsgd1na2vs0mg"},{"bike_id":"4426a32a-f0b0-4dad-8be6-a143f76d5fb4","system_id":"levelo_inurba_marseille","lat":43.26674,"lon":5.3826,"is_reserved":false,"is_disabled":false,"rental_uris":{"android":"levelo://app?vid=4426a32a-f0b0-4dad-8be6-a143f76d5fb4","ios":"levelo://app?vid=4426a32a-f0b0-4dad-8be6-a143f76d5fb4"},"vehicle_type_id":"4","last_reported":1729513109,"current_range_meters":38800,"station_id":"ce4bhg92rcd13ifvqf90","pricing_plan_id":"cebpf4jnsgd1na2vs0mg"},{"bike_id":"c3945b60-e38d-4106-8f18-92c7f436cc4f","system_id":"levelo_inurba_marseille","lat":43.33757,"lon":5.37448,"is_reserved":false,"is_disabled":false,"rental_uris":{"android":"levelo://app?vid=c3945b60-e38d-4106-8f18-92c7f436cc4f","ios":"levelo://app?vid=c3945b60-e38d-4106-8f18-92c7f436cc4f"},"vehicle_type_id":"4","last_reported":1729513109,"current_range_meters":36400,"station_id":"","pricing_plan_id":"cebpf4jnsgd1na2vs0mg"},{"bike_id":"d1a22aa0-e05e-4358-a5f9-56cd8a282e76","system_id":"levelo_inurba_marseille","lat":43.25929,"lon":5.40903,"is_reserved":false,"is_disabled":false,"rental_uris":{"android":"levelo://app?vid=d1a22aa0-e05e-4358-a5f9-56cd8a282e76","ios":"levelo://app?vid=d1a22aa0-e05e-4358-a5f9-56cd8a282e76"},"vehicle_type_id":"4","last_reported":1729513109,"current_range_meters":20400,"station_id":"ce4bhm92rcd13ifvqglg","pricing_plan_id":"cebpf4jnsgd1na2vs0mg"},{"bike_id":"055dc65f-8a00-4168-9765-1782af7fb3fa","system_id":"levelo_inurba_marseille","lat":43.28152,"lon":5.42639,"is_reserved":false,"is_disabled":false,"rental_uris":{"android":"levelo://app?vid=055dc65f-8a00-4168-9765-1782af7fb3fa","ios":"levelo://app?vid=055dc65f-8a00-4168-9765-1782af7fb3fa"},"vehicle_type_id":"4","last_reported":1729513109,"current_range_meters":28000,"station_id":"ce4bhnh2rcd13ifvqgug","pricing_plan_id":"cebpf4jnsgd1na2vs0mg"},{"bike_id":"354da1aa-9e64-4696-b41d-243175101278","system_id":"levelo_inurba_marseille","lat":43.29223,"lon":5.36062,"is_reserved":false,"is_disabled":false,"rental_uris":{"android":"levelo://app?vid=354da1aa-9e64-4696-b41d-243175101278","ios":"levelo://app?vid=354da1aa-9e64-4696-b41d-243175101278"},"vehicle_type_id":"4","last_reported":1729513109,"current_range_meters":36800,"station_id":"ce4bhbh2rcd13ifvqeqg","pricing_plan_id":"cebpf4jnsgd1na2vs0mg"},{"bike_id":"dd367b7c-3e6d-40b4-8761-0a41b09499a2","system_id":"levelo_inurba_marseille","lat":43.31434,"lon":5.36949,"is_reserved":false,"is_disabled":false,"rental_uris":{"android":"levelo://app?vid=dd367b7c-3e6d-40b4-8761-0a41b09499a2","ios":"levelo://app?vid=dd367b7c-3e6d-40b4-8761-0a41b09499a2"},"vehicle_type_id":"4","last_reported":1729513109,"current_range_meters":20800,"station_id":"ce4bgs12rcd13ifvqcag","pricing_plan_id":"cebpf4jnsgd1na2vs0mg"},{"bike_id":"18195e9f-7592-42b5-87c2-8321610f175d","system_id":"levelo_inurba_marseille","lat":43.27075,"lon":5.4227,"is_reserved":false,"is_disabled":false,"rental_uris":{"android":"levelo://app?vid=18195e9f-7592-42b5-87c2-8321610f175d","ios":"levelo://app?vid=18195e9f-7592-42b5-87c2-8321610f175d"},"vehicle_type_id":"4","last_reported":1729513109,"current_range_meters":18000,"station_id":"ce4bhk92rcd13ifvqgb0","pricing_plan_id":"cebpf4jnsgd1na2vs0mg"},{"bike_id":"1ce26204-202b-4d4e-84b1-3c251b72a681","system_id":"levelo_inurba_marseille","lat":43.26679,"lon":5.38274,"is_reserved":false,"is_disabled":false,"rental_uris":{"android":"levelo://app?vid=1ce26204-202b-4d4e-84b1-3c251b72a681","ios":"levelo://app?vid=1ce26204-202b-4d4e-84b1-3c251b72a681"},"vehicle_type_id":"4","last_reported":1729513109,"current_range_meters":39200,"station_id":"ce4bhg92rcd13ifvqf90","pricing_plan_id":"cebpf4jnsgd1na2vs0mg"},{"bike_id":"17c4095e-a57e-47de-836d-4a04556c9f7b","system_id":"levelo_inurba_marseille","lat":43.27177,"lon":5.40992,"is_reserved":false,"is_disabled":false,"rental_uris":{"android":"levelo://app?vid=17c4095e-a57e-47de-836d-4a04556c9f7b","ios":"levelo://app?vid=17c4095e-a57e-47de-836d-4a04556c9f7b"},"vehicle_type_id":"4","last_reported":1729513109,"current_range_meters":4000,"station_id":"ce4bhl12rcd13ifvqgf0","pricing_plan_id":"cebpf4jnsgd1na2vs0mg"},{"bike_id":"3f6e7201-94d6-4e65-a735-53097ba70b5f","system_id":"levelo_inurba_marseille","lat":43.293046,"lon":5.371677,"is_reserved":false,"is_disabled":false,"rental_uris":{"android":"levelo://app?vid=3f6e7201-94d6-4e65-a735-53097ba70b5f","ios":"levelo://app?vid=3f6e7201-94d6-4e65-a735-53097ba70b5f"},"vehicle_type_id":"4","last_reported":1729513109,"current_range_meters":24400,"station_id":"ce4bgh92rcd13ifvqb40","pricing_plan_id":"cebpf4jnsgd1na2vs0mg"},{"bike_id":"f310c7fe-0766-4414-9e60-fd1ce83f3918","system_id":"levelo_inurba_marseille","lat":43.29893,"lon":5.43663,"is_reserved":false,"is_disabled":false,"rental_uris":{"android":"levelo://app?vid=f310c7fe-0766-4414-9e60-fd1ce83f3918","ios":"levelo://app?vid=f310c7fe-0766-4414-9e60-fd1ce83f3918"},"vehicle_type_id":"4","last_reported":1729513109,"current_range_meters":25200,"station_id":"ce4bhpp2rcd13ifvqhfg","pricing_plan_id":"cebpf4jnsgd1na2vs0mg"},{"bike_id":"e1af9334-b5ac-4b47-b670-38084a2cfcfd","system_id":"levelo_inurba_marseille","lat":43.30538,"lon":5.36558,"is_reserved":false,"is_disabled":false,"rental_uris":{"android":"levelo://app?vid=e1af9334-b5ac-4b47-b670-38084a2cfcfd","ios":"levelo://app?vid=e1af9334-b5ac-4b47-b670-38084a2cfcfd"},"vehicle_type_id":"4","last_reported":1729513109,"current_range_meters":14000,"station_id":"ce4bgs12rcd13ifvqcag","pricing_plan_id":"cebpf4jnsgd1na2vs0mg"},{"bike_id":"a42ec5a3-b29b-4a0b-a41c-c5ab7f0bdd31","system_id":"levelo_inurba_marseille","lat":43.25942,"lon":5.40895,"is_reserved":false,"is_disabled":false,"rental_uris":{"android":"levelo://app?vid=a42ec5a3-b29b-4a0b-a41c-c5ab7f0bdd31","ios":"levelo://app?vid=a42ec5a3-b29b-4a0b-a41c-c5ab7f0bdd31"},"vehicle_type_id":"4","last_reported":1729513109,"current_range_meters":32000,"station_id":"ce4bhm92rcd13ifvqglg","pricing_plan_id":"cebpf4jnsgd1na2vs0mg"},{"bike_id":"7159e765-885a-4e7c-a729-745506f12438","system_id":"levelo_inurba_marseille","lat":43.29567,"lon":5.37417,"is_reserved":false,"is_disabled":false,"rental_uris":{"android":"levelo://app?vid=7159e765-885a-4e7c-a729-745506f12438","ios":"levelo://app?vid=7159e765-885a-4e7c-a729-745506f12438"},"vehicle_type_id":"4","last_reported":1729513109,"current_range_meters":38400,"station_id":"","pricing_plan_id":"cebpf4jnsgd1na2vs0mg"},{"bike_id":"999561d6-eea4-4c93-8d14-51fee3140c60","system_id":"levelo_inurba_marseille","lat":43.28412,"lon":5.3498,"is_reserved":false,"is_disabled":false,"rental_uris":{"android":"levelo://app?vid=999561d6-eea4-4c93-8d14-51fee3140c60","ios":"levelo://app?vid=999561d6-eea4-4c93-8d14-51fee3140c60"},"vehicle_type_id":"4","last_reported":1729513109,"current_range_meters":14400,"station_id":"ce4bhbh2rcd13ifvqepg","pricing_plan_id":"cebpf4jnsgd1na2vs0mg"},{"bike_id":"a6e27233-449e-42c0-9898-7c3ac06ca3e1","system_id":"levelo_inurba_marseille","lat":43.303159,"lon":5.369016,"is_reserved":false,"is_disabled":false,"rental_uris":{"android":"levelo://app?vid=a6e27233-449e-42c0-9898-7c3ac06ca3e1","ios":"levelo://app?vid=a6e27233-449e-42c0-9898-7c3ac06ca3e1"},"vehicle_type_id":"4","last_reported":1729513109,"current_range_meters":2800,"station_id":"ce4bgqh2rcd13ifvqc5g","pricing_plan_id":"cebpf4jnsgd1na2vs0mg"},{"bike_id":"de5511c8-8e63-4f93-89fc-d93b562ca605","system_id":"levelo_inurba_marseille","lat":43.27618,"lon":5.36105,"is_reserved":false,"is_disabled":false,"rental_uris":{"android":"levelo://app?vid=de5511c8-8e63-4f93-89fc-d93b562ca605","ios":"levelo://app?vid=de5511c8-8e63-4f93-89fc-d93b562ca605"},"vehicle_type_id":"4","last_reported":1729513109,"current_range_meters":38000,"station_id":"ce4bgj92rcd13ifvqbe0","pricing_plan_id":"cebpf4jnsgd1na2vs0mg"},{"bike_id":"8ff5c174-e5be-4439-9cb8-fc5831fafdc3","system_id":"levelo_inurba_marseille","lat":43.28269,"lon":5.35069,"is_reserved":false,"is_disabled":false,"rental_uris":{"android":"levelo://app?vid=8ff5c174-e5be-4439-9cb8-fc5831fafdc3","ios":"levelo://app?vid=8ff5c174-e5be-4439-9cb8-fc5831fafdc3"},"vehicle_type_id":"4","last_reported":1729513109,"current_range_meters":30000,"station_id":"ce4bhbp2rcd13ifvqerg","pricing_plan_id":"cebpf4jnsgd1na2vs0mg"},{"bike_id":"8e6e2140-9018-4bfb-9d04-7fbfa5dde3a5","system_id":"levelo_inurba_marseille","lat":43.32106,"lon":5.36772,"is_reserved":false,"is_disabled":false,"rental_uris":{"android":"levelo://app?vid=8e6e2140-9018-4bfb-9d04-7fbfa5dde3a5","ios":"levelo://app?vid=8e6e2140-9018-4bfb-9d04-7fbfa5dde3a5"},"vehicle_type_id":"4","last_reported":1729513109,"current_range_meters":36800,"station_id":"ce4bhrh2rcd13ifvqhug","pricing_plan_id":"cebpf4jnsgd1na2vs0mg"},{"bike_id":"235b4b4c-5985-4c80-8b5b-e18a4f3b32d1","system_id":"levelo_inurba_marseille","lat":43.23154,"lon":5.43695,"is_reserved":false,"is_disabled":false,"rental_uris":{"android":"levelo://app?vid=235b4b4c-5985-4c80-8b5b-e18a4f3b32d1","ios":"levelo://app?vid=235b4b4c-5985-4c80-8b5b-e18a4f3b32d1"},"vehicle_type_id":"4","last_reported":1729513109,"current_range_meters":38800,"station_id":"ce4bhmp2rcd13ifvqgog","pricing_plan_id":"cebpf4jnsgd1na2vs0mg"},{"bike_id":"6fe969d3-9ceb-48ba-947c-61366ca4145d","system_id":"levelo_inurba_marseille","lat":43.31341,"lon":5.36712,"is_reserved":false,"is_disabled":false,"rental_uris":{"android":"levelo://app?vid=6fe969d3-9ceb-48ba-947c-61366ca4145d","ios":"levelo://app?vid=6fe969d3-9ceb-48ba-947c-61366ca4145d"},"vehicle_type_id":"4","last_reported":1729513109,"current_range_meters":38800,"station_id":"ce4bgr92rcd13ifvqc6g","pricing_plan_id":"cebpf4jnsgd1na2vs0mg"},{"bike_id":"7f8408b7-3649-494f-aae8-09a28063d31d","system_id":"levelo_inurba_marseille","lat":43.29588,"lon":5.3679,"is_reserved":false,"is_disabled":false,"rental_uris":{"android":"levelo://app?vid=7f8408b7-3649-494f-aae8-09a28063d31d","ios":"levelo://app?vid=7f8408b7-3649-494f-aae8-09a28063d31d"},"vehicle_type_id":"4","last_reported":1729513109,"current_range_meters":34800,"station_id":"ce4bgph2rcd13ifvqc2g","pricing_plan_id":"cebpf4jnsgd1na2vs0mg"},{"bike_id":"b0e575a0-2098-44a4-87ea-fb3fc67166f5","system_id":"levelo_inurba_marseille","lat":43.25504,"lon":5.37651,"is_reserved":false,"is_disabled":false,"rental_uris":{"android":"levelo://app?vid=b0e575a0-2098-44a4-87ea-fb3fc67166f5","ios":"levelo://app?vid=b0e575a0-2098-44a4-87ea-fb3fc67166f5"},"vehicle_type_id":"4","last_reported":1729513109,"current_range_meters":22400,"station_id":"ce4bhh12rcd13ifvqff0","pricing_plan_id":"cebpf4jnsgd1na2vs0mg"},{"bike_id":"0c8074d4-c5d9-44ab-8775-41876bc26843","system_id":"levelo_inurba_marseille","lat":43.31232,"lon":5.36853,"is_reserved":false,"is_disabled":false,"rental_uris":{"android":"levelo://app?vid=0c8074d4-c5d9-44ab-8775-41876bc26843","ios":"levelo://app?vid=0c8074d4-c5d9-44ab-8775-41876bc26843"},"vehicle_type_id":"4","last_reported":1729513109,"current_range_meters":38000,"station_id":"ce4bgl92rcd13ifvqbq0","pricing_plan_id":"cebpf4jnsgd1na2vs0mg"},{"bike_id":"87df11f1-8fea-486b-bc99-ef16ae26b680","system_id":"levelo_inurba_marseille","lat":43.26684,"lon":5.38263,"is_reserved":false,"is_disabled":false,"rental_uris":{"android":"levelo://app?vid=87df11f1-8fea-486b-bc99-ef16ae26b680","ios":"levelo://app?vid=87df11f1-8fea-486b-bc99-ef16ae26b680"},"vehicle_type_id":"4","last_reported":1729513109,"current_range_meters":34000,"station_id":"ce4bhg92rcd13ifvqf90","pricing_plan_id":"cebpf4jnsgd1na2vs0mg"},{"bike_id":"ea761b24-71f3-4e24-88f2-1fa62cd55e51","system_id":"levelo_inurba_marseille","lat":43.337444,"lon":5.374475,"is_reserved":false,"is_disabled":false,"rental_uris":{"android":"levelo://app?vid=ea761b24-71f3-4e24-88f2-1fa62cd55e51","ios":"levelo://app?vid=ea761b24-71f3-4e24-88f2-1fa62cd55e51"},"vehicle_type_id":"4","last_reported":1729513109,"current_range_meters":36000,"station_id":"ce4bgj92rcd13ifvqbd0","pricing_plan_id":"cebpf4jnsgd1na2vs0mg"},{"bike_id":"93b134c1-f5b4-467b-829d-db83d1ce0ea5","system_id":"levelo_inurba_marseille","lat":43.23192,"lon":5.3554,"is_reserved":false,"is_disabled":false,"rental_uris":{"android":"levelo://app?vid=93b134c1-f5b4-467b-829d-db83d1ce0ea5","ios":"levelo://app?vid=93b134c1-f5b4-467b-829d-db83d1ce0ea5"},"vehicle_type_id":"4","last_reported":1729513109,"current_range_meters":37600,"station_id":"ce4bhu92rcd13ifvqi70","pricing_plan_id":"cebpf4jnsgd1na2vs0mg"},{"bike_id":"4c0b4717-f281-411a-b7ac-e498cc790012","system_id":"levelo_inurba_marseille","lat":43.31444,"lon":5.37368,"is_reserved":false,"is_disabled":false,"rental_uris":{"android":"levelo://app?vid=4c0b4717-f281-411a-b7ac-e498cc790012","ios":"levelo://app?vid=4c0b4717-f281-411a-b7ac-e498cc790012"},"vehicle_type_id":"4","last_reported":1729513109,"current_range_meters":38800,"station_id":"","pricing_plan_id":"cebpf4jnsgd1na2vs0mg"},{"bike_id":"8e44e9f9-9037-4578-b2df-0731c0c64497","system_id":"levelo_inurba_marseille","lat":43.31355,"lon":5.3672,"is_reserved":false,"is_disabled":false,"rental_uris":{"android":"levelo://app?vid=8e44e9f9-9037-4578-b2df-0731c0c64497","ios":"levelo://app?vid=8e44e9f9-9037-4578-b2df-0731c0c64497"},"vehicle_type_id":"4","last_reported":1729513109,"current_range_meters":38800,"station_id":"ce4bgr92rcd13ifvqc6g","pricing_plan_id":"cebpf4jnsgd1na2vs0mg"},{"bike_id":"2acd8431-0784-40d0-9191-4ae867800e8a","system_id":"levelo_inurba_marseille","lat":43.22936,"lon":5.35373,"is_reserved":false,"is_disabled":false,"rental_uris":{"android":"levelo://app?vid=2acd8431-0784-40d0-9191-4ae867800e8a","ios":"levelo://app?vid=2acd8431-0784-40d0-9191-4ae867800e8a"},"vehicle_type_id":"4","last_reported":1729513109,"current_range_meters":27600,"station_id":"cpo3532slgdg3j2ikp40","pricing_plan_id":"cebpf4jnsgd1na2vs0mg"},{"bike_id":"9a707fad-f56a-4c4d-be51-eacdec1047d3","system_id":"levelo_inurba_marseille","lat":43.32115,"lon":5.36767,"is_reserved":false,"is_disabled":false,"rental_uris":{"android":"levelo://app?vid=9a707fad-f56a-4c4d-be51-eacdec1047d3","ios":"levelo://app?vid=9a707fad-f56a-4c4d-be51-eacdec1047d3"},"vehicle_type_id":"4","last_reported":1729513109,"current_range_meters":17200,"station_id":"ce4bhrh2rcd13ifvqhug","pricing_plan_id":"cebpf4jnsgd1na2vs0mg"},{"bike_id":"3aaf1726-b642-4b16-bbb6-80a4e88f245d","system_id":"levelo_inurba_marseille","lat":43.26948,"lon":5.38631,"is_reserved":false,"is_disabled":false,"rental_uris":{"android":"levelo://app?vid=3aaf1726-b642-4b16-bbb6-80a4e88f245d","ios":"levelo://app?vid=3aaf1726-b642-4b16-bbb6-80a4e88f245d"},"vehicle_type_id":"4","last_reported":1729513109,"current_range_meters":38800,"station_id":"ce4bhh92rcd13ifvqfh0","pricing_plan_id":"cebpf4jnsgd1na2vs0mg"},{"bike_id":"608cc136-d3d3-4904-bdce-065b3d2c8959","system_id":"levelo_inurba_marseille","lat":43.30917,"lon":5.3685,"is_reserved":false,"is_disabled":false,"rental_uris":{"android":"levelo://app?vid=608cc136-d3d3-4904-bdce-065b3d2c8959","ios":"levelo://app?vid=608cc136-d3d3-4904-bdce-065b3d2c8959"},"vehicle_type_id":"4","last_reported":1729513109,"current_range_meters":39200,"station_id":"ce4bgn92rcd13ifvqbvg","pricing_plan_id":"cebpf4jnsgd1na2vs0mg"},{"bike_id":"052cf3f4-1f43-4250-bc67-2372def116a5","system_id":"levelo_inurba_marseille","lat":43.28415,"lon":5.34984,"is_reserved":false,"is_disabled":false,"rental_uris":{"android":"levelo://app?vid=052cf3f4-1f43-4250-bc67-2372def116a5","ios":"levelo://app?vid=052cf3f4-1f43-4250-bc67-2372def116a5"},"vehicle_type_id":"4","last_reported":1729513109,"current_range_meters":38800,"station_id":"ce4bhbh2rcd13ifvqepg","pricing_plan_id":"cebpf4jnsgd1na2vs0mg"},{"bike_id":"1a57209a-1bd5-42cd-aab1-c0d1e286a2dd","system_id":"levelo_inurba_marseille","lat":43.30465,"lon":5.37898,"is_reserved":false,"is_disabled":false,"rental_uris":{"android":"levelo://app?vid=1a57209a-1bd5-42cd-aab1-c0d1e286a2dd","ios":"levelo://app?vid=1a57209a-1bd5-42cd-aab1-c0d1e286a2dd"},"vehicle_type_id":"4","last_reported":1729513109,"current_range_meters":38800,"station_id":"ce4bgup2rcd13ifvqcn0","pricing_plan_id":"cebpf4jnsgd1na2vs0mg"},{"bike_id":"92223687-1ac8-4442-9a05-aaf7506ce08f","system_id":"levelo_inurba_marseille","lat":43.26943,"lon":5.40252,"is_reserved":false,"is_disabled":false,"rental_uris":{"android":"levelo://app?vid=92223687-1ac8-4442-9a05-aaf7506ce08f","ios":"levelo://app?vid=92223687-1ac8-4442-9a05-aaf7506ce08f"},"vehicle_type_id":"4","last_reported":1729513109,"current_range_meters":16000,"station_id":"cjm6bp8fraef2m0cb0m0","pricing_plan_id":"cebpf4jnsgd1na2vs0mg"},{"bike_id":"b225f7d3-3dda-4e9f-a6a2-887fdd3406ed","system_id":"levelo_inurba_marseille","lat":43.33757,"lon":5.37438,"is_reserved":false,"is_disabled":false,"rental_uris":{"android":"levelo://app?vid=b225f7d3-3dda-4e9f-a6a2-887fdd3406ed","ios":"levelo://app?vid=b225f7d3-3dda-4e9f-a6a2-887fdd3406ed"},"vehicle_type_id":"4","last_reported":1729513109,"current_range_meters":38000,"station_id":"","pricing_plan_id":"cebpf4jnsgd1na2vs0mg"},{"bike_id":"aed33a5f-ccde-4711-89d5-f3554b45ecd7","system_id":"levelo_inurba_marseille","lat":43.23191,"lon":5.3555,"is_reserved":false,"is_disabled":false,"rental_uris":{"android":"levelo://app?vid=aed33a5f-ccde-4711-89d5-f3554b45ecd7","ios":"levelo://app?vid=aed33a5f-ccde-4711-89d5-f3554b45ecd7"},"vehicle_type_id":"4","last_reported":1729513109,"current_range_meters":16400,"station_id":"ce4bhu92rcd13ifvqi70","pricing_plan_id":"cebpf4jnsgd1na2vs0mg"},{"bike_id":"338b3d0e-7a5d-4fbf-9e56-f246cd179a52","system_id":"levelo_inurba_marseille","lat":43.28613,"lon":5.35104,"is_reserved":false,"is_disabled":false,"rental_uris":{"android":"levelo://app?vid=338b3d0e-7a5d-4fbf-9e56-f246cd179a52","ios":"levelo://app?vid=338b3d0e-7a5d-4fbf-9e56-f246cd179a52"},"vehicle_type_id":"4","last_reported":1729513109,"current_range_meters":32400,"station_id":"ce4bhch2rcd13ifvqeug","pricing_plan_id":"cebpf4jnsgd1na2vs0mg"},{"bike_id":"33bbe4ad-0cf9-4c7e-b4a0-f13c698223b5","system_id":"levelo_inurba_marseille","lat":43.22935,"lon":5.35378,"is_reserved":false,"is_disabled":false,"rental_uris":{"android":"levelo://app?vid=33bbe4ad-0cf9-4c7e-b4a0-f13c698223b5","ios":"levelo://app?vid=33bbe4ad-0cf9-4c7e-b4a0-f13c698223b5"},"vehicle_type_id":"4","last_reported":1729513109,"current_range_meters":38800,"station_id":"cpo3532slgdg3j2ikp40","pricing_plan_id":"cebpf4jnsgd1na2vs0mg"},{"bike_id":"e85aa5d1-deaa-4a10-8497-040b24742b6d","system_id":"levelo_inurba_marseille","lat":43.24184,"lon":5.39721,"is_reserved":false,"is_disabled":false,"rental_uris":{"android":"levelo://app?vid=e85aa5d1-deaa-4a10-8497-040b24742b6d","ios":"levelo://app?vid=e85aa5d1-deaa-4a10-8497-040b24742b6d"},"vehicle_type_id":"4","last_reported":1729513109,"current_range_meters":16400,"station_id":"ce4bhn12rcd13ifvqgpg","pricing_plan_id":"cebpf4jnsgd1na2vs0mg"},{"bike_id":"5c003f40-3475-44d7-ba35-c7e9f2e387b4","system_id":"levelo_inurba_marseille","lat":43.30538,"lon":5.365313,"is_reserved":false,"is_disabled":false,"rental_uris":{"android":"levelo://app?vid=5c003f40-3475-44d7-ba35-c7e9f2e387b4","ios":"levelo://app?vid=5c003f40-3475-44d7-ba35-c7e9f2e387b4"},"vehicle_type_id":"4","last_reported":1729513109,"current_range_meters":36000,"station_id":"ce4bgs12rcd13ifvqcag","pricing_plan_id":"cebpf4jnsgd1na2vs0mg"},{"bike_id":"cdc39333-efb7-4147-9a68-359a6af71c93","system_id":"levelo_inurba_marseille","lat":43.28005,"lon":5.40008,"is_reserved":false,"is_disabled":false,"rental_uris":{"android":"levelo://app?vid=cdc39333-efb7-4147-9a68-359a6af71c93","ios":"levelo://app?vid=cdc39333-efb7-4147-9a68-359a6af71c93"},"vehicle_type_id":"4","last_reported":1729513109,"current_range_meters":6000,"station_id":"ce4bho92rcd13ifvqh4g","pricing_plan_id":"cebpf4jnsgd1na2vs0mg"},{"bike_id":"4ce954f8-1655-412a-bf98-b6e646a819c1","system_id":"levelo_inurba_marseille","lat":43.29012,"lon":5.38128,"is_reserved":false,"is_disabled":false,"rental_uris":{"android":"levelo://app?vid=4ce954f8-1655-412a-bf98-b6e646a819c1","ios":"levelo://app?vid=4ce954f8-1655-412a-bf98-b6e646a819c1"},"vehicle_type_id":"4","last_reported":1729513109,"current_range_meters":19600,"station_id":"ce4bh4p2rcd13ifvqe1g","pricing_plan_id":"cebpf4jnsgd1na2vs0mg"},{"bike_id":"09cb8207-c804-47c7-9699-59cc1a14b677","system_id":"levelo_inurba_marseille","lat":43.23062,"lon":5.35489,"is_reserved":false,"is_disabled":false,"rental_uris":{"android":"levelo://app?vid=09cb8207-c804-47c7-9699-59cc1a14b677","ios":"levelo://app?vid=09cb8207-c804-47c7-9699-59cc1a14b677"},"vehicle_type_id":"4","last_reported":1729513109,"current_range_meters":37600,"station_id":"cpo3342slgdg3j2ifvpg","pricing_plan_id":"cebpf4jnsgd1na2vs0mg"},{"bike_id":"407773a7-bafd-4994-a1fd-8a73c9328a48","system_id":"levelo_inurba_marseille","lat":43.28421,"lon":5.34982,"is_reserved":false,"is_disabled":false,"rental_uris":{"android":"levelo://app?vid=407773a7-bafd-4994-a1fd-8a73c9328a48","ios":"levelo://app?vid=407773a7-bafd-4994-a1fd-8a73c9328a48"},"vehicle_type_id":"4","last_reported":1729513109,"current_range_meters":20800,"station_id":"ce4bhbh2rcd13ifvqepg","pricing_plan_id":"cebpf4jnsgd1na2vs0mg"},{"bike_id":"8b6705c7-671f-4bb0-856a-1b2fab99e9b8","system_id":"levelo_inurba_marseille","lat":43.3053,"lon":5.36696,"is_reserved":false,"is_disabled":false,"rental_uris":{"android":"levelo://app?vid=8b6705c7-671f-4bb0-856a-1b2fab99e9b8","ios":"levelo://app?vid=8b6705c7-671f-4bb0-856a-1b2fab99e9b8"},"vehicle_type_id":"4","last_reported":1729513109,"current_range_meters":39200,"station_id":"ce4bgrp2rcd13ifvqc9g","pricing_plan_id":"cebpf4jnsgd1na2vs0mg"},{"bike_id":"92fad4b3-511c-4d2a-b77e-f05afc7b19f7","system_id":"levelo_inurba_marseille","lat":43.26506,"lon":5.39529,"is_reserved":false,"is_disabled":false,"rental_uris":{"android":"levelo://app?vid=92fad4b3-511c-4d2a-b77e-f05afc7b19f7","ios":"levelo://app?vid=92fad4b3-511c-4d2a-b77e-f05afc7b19f7"},"vehicle_type_id":"4","last_reported":1729513109,"current_range_meters":26800,"station_id":"ce4bhi12rcd13ifvqfq0","pricing_plan_id":"cebpf4jnsgd1na2vs0mg"},{"bike_id":"82580397-af24-4f54-bf4f-b84b430d4394","system_id":"levelo_inurba_marseille","lat":43.254962,"lon":5.376573,"is_reserved":false,"is_disabled":false,"rental_uris":{"android":"levelo://app?vid=82580397-af24-4f54-bf4f-b84b430d4394","ios":"levelo://app?vid=82580397-af24-4f54-bf4f-b84b430d4394"},"vehicle_type_id":"4","last_reported":1729513109,"current_range_meters":38800,"station_id":"ce4bhh12rcd13ifvqff0","pricing_plan_id":"cebpf4jnsgd1na2vs0mg"},{"bike_id":"860b99b5-dcbd-44b2-ad2b-314b2ac03c5e","system_id":"levelo_inurba_marseille","lat":43.25582,"lon":5.38232,"is_reserved":false,"is_disabled":false,"rental_uris":{"android":"levelo://app?vid=860b99b5-dcbd-44b2-ad2b-314b2ac03c5e","ios":"levelo://app?vid=860b99b5-dcbd-44b2-ad2b-314b2ac03c5e"},"vehicle_type_id":"4","last_reported":1729513109,"current_range_meters":26800,"station_id":"ce4bhih2rcd13ifvqfs0","pricing_plan_id":"cebpf4jnsgd1na2vs0mg"},{"bike_id":"78a3ae36-2012-4580-aac4-05a230863025","system_id":"levelo_inurba_marseille","lat":43.297688,"lon":5.365893,"is_reserved":false,"is_disabled":false,"rental_uris":{"android":"levelo://app?vid=78a3ae36-2012-4580-aac4-05a230863025","ios":"levelo://app?vid=78a3ae36-2012-4580-aac4-05a230863025"},"vehicle_type_id":"4","last_reported":1729513109,"current_range_meters":30000,"station_id":"ce4bgn12rcd13ifvqbt0","pricing_plan_id":"cebpf4jnsgd1na2vs0mg"},{"bike_id":"d6056c03-fd9a-4318-ab01-54fcb42b30ff","system_id":"levelo_inurba_marseille","lat":43.27618,"lon":5.36103,"is_reserved":false,"is_disabled":false,"rental_uris":{"android":"levelo://app?vid=d6056c03-fd9a-4318-ab01-54fcb42b30ff","ios":"levelo://app?vid=d6056c03-fd9a-4318-ab01-54fcb42b30ff"},"vehicle_type_id":"4","last_reported":1729513109,"current_range_meters":24400,"station_id":"ce4bgj92rcd13ifvqbe0","pricing_plan_id":"cebpf4jnsgd1na2vs0mg"},{"bike_id":"18e44856-9e85-40cc-b945-9045bbe18f27","system_id":"levelo_inurba_marseille","lat":43.25937,"lon":5.40899,"is_reserved":false,"is_disabled":false,"rental_uris":{"android":"levelo://app?vid=18e44856-9e85-40cc-b945-9045bbe18f27","ios":"levelo://app?vid=18e44856-9e85-40cc-b945-9045bbe18f27"},"vehicle_type_id":"4","last_reported":1729513109,"current_range_meters":38400,"station_id":"ce4bhm92rcd13ifvqglg","pricing_plan_id":"cebpf4jnsgd1na2vs0mg"},{"bike_id":"2d2c8b8e-c933-432f-9f07-1b231ee8765f","system_id":"levelo_inurba_marseille","lat":43.30797,"lon":5.38167,"is_reserved":false,"is_disabled":false,"rental_uris":{"android":"levelo://app?vid=2d2c8b8e-c933-432f-9f07-1b231ee8765f","ios":"levelo://app?vid=2d2c8b8e-c933-432f-9f07-1b231ee8765f"},"vehicle_type_id":"4","last_reported":1729513109,"current_range_meters":32400,"station_id":"","pricing_plan_id":"cebpf4jnsgd1na2vs0mg"},{"bike_id":"706b0b56-c33b-4b3b-9b9d-42bf3138002a","system_id":"levelo_inurba_marseille","lat":43.29967,"lon":5.38479,"is_reserved":false,"is_disabled":false,"rental_uris":{"android":"levelo://app?vid=706b0b56-c33b-4b3b-9b9d-42bf3138002a","ios":"levelo://app?vid=706b0b56-c33b-4b3b-9b9d-42bf3138002a"},"vehicle_type_id":"4","last_reported":1729513109,"current_range_meters":38000,"station_id":"ce4bgj92rcd13ifvqbd0","pricing_plan_id":"cebpf4jnsgd1na2vs0mg"},{"bike_id":"64dd3f95-21a7-49d6-b82f-bf957057737e","system_id":"levelo_inurba_marseille","lat":43.2621,"lon":5.3744,"is_reserved":false,"is_disabled":false,"rental_uris":{"android":"levelo://app?vid=64dd3f95-21a7-49d6-b82f-bf957057737e","ios":"levelo://app?vid=64dd3f95-21a7-49d6-b82f-bf957057737e"},"vehicle_type_id":"4","last_reported":1729513109,"current_range_meters":34800,"station_id":"ce4bhgp2rcd13ifvqfc0","pricing_plan_id":"cebpf4jnsgd1na2vs0mg"},{"bike_id":"43bc3d0b-18e5-41c6-8512-26e24d35eaf0","system_id":"levelo_inurba_marseille","lat":43.27375,"lon":5.36253,"is_reserved":false,"is_disabled":false,"rental_uris":{"android":"levelo://app?vid=43bc3d0b-18e5-41c6-8512-26e24d35eaf0","ios":"levelo://app?vid=43bc3d0b-18e5-41c6-8512-26e24d35eaf0"},"vehicle_type_id":"4","last_reported":1729513109,"current_range_meters":38000,"station_id":"ce4bhbh2rcd13ifvqeo0","pricing_plan_id":"cebpf4jnsgd1na2vs0mg"},{"bike_id":"102d0792-d5fd-4fbc-8e1d-89b664d5215e","system_id":"levelo_inurba_marseille","lat":43.29189,"lon":5.35798,"is_reserved":false,"is_disabled":false,"rental_uris":{"android":"levelo://app?vid=102d0792-d5fd-4fbc-8e1d-89b664d5215e","ios":"levelo://app?vid=102d0792-d5fd-4fbc-8e1d-89b664d5215e"},"vehicle_type_id":"4","last_reported":1729513109,"current_range_meters":8000,"station_id":"ce4bhb12rcd13ifvqel0","pricing_plan_id":"cebpf4jnsgd1na2vs0mg"},{"bike_id":"cdd03d3a-91af-4f00-a9bb-239f005fcf37","system_id":"levelo_inurba_marseille","lat":43.31343,"lon":5.36723,"is_reserved":false,"is_disabled":false,"rental_uris":{"android":"levelo://app?vid=cdd03d3a-91af-4f00-a9bb-239f005fcf37","ios":"levelo://app?vid=cdd03d3a-91af-4f00-a9bb-239f005fcf37"},"vehicle_type_id":"4","last_reported":1729513109,"current_range_meters":9200,"station_id":"ce4bgr92rcd13ifvqc6g","pricing_plan_id":"cebpf4jnsgd1na2vs0mg"},{"bike_id":"85353b83-1502-4f48-8702-10d30507bb1e","system_id":"levelo_inurba_marseille","lat":43.284174,"lon":5.349864,"is_reserved":false,"is_disabled":false,"rental_uris":{"android":"levelo://app?vid=85353b83-1502-4f48-8702-10d30507bb1e","ios":"levelo://app?vid=85353b83-1502-4f48-8702-10d30507bb1e"},"vehicle_type_id":"4","last_reported":1729513109,"current_range_meters":35200,"station_id":"ce4bhbh2rcd13ifvqepg","pricing_plan_id":"cebpf4jnsgd1na2vs0mg"},{"bike_id":"ff7da21b-c813-4300-bf01-3a0bd282c985","system_id":"levelo_inurba_marseille","lat":43.31351,"lon":5.36712,"is_reserved":false,"is_disabled":false,"rental_uris":{"android":"levelo://app?vid=ff7da21b-c813-4300-bf01-3a0bd282c985","ios":"levelo://app?vid=ff7da21b-c813-4300-bf01-3a0bd282c985"},"vehicle_type_id":"4","last_reported":1729513109,"current_range_meters":25600,"station_id":"ce4bgr92rcd13ifvqc6g","pricing_plan_id":"cebpf4jnsgd1na2vs0mg"},{"bike_id":"725c330a-6658-436e-be21-26b47949d16d","system_id":"levelo_inurba_marseille","lat":43.27365,"lon":5.36249,"is_reserved":false,"is_disabled":false,"rental_uris":{"android":"levelo://app?vid=725c330a-6658-436e-be21-26b47949d16d","ios":"levelo://app?vid=725c330a-6658-436e-be21-26b47949d16d"},"vehicle_type_id":"4","last_reported":1729513109,"current_range_meters":38400,"station_id":"ce4bhbh2rcd13ifvqeo0","pricing_plan_id":"cebpf4jnsgd1na2vs0mg"},{"bike_id":"c425d2b0-d9e8-4010-8389-9b6a1568b320","system_id":"levelo_inurba_marseille","lat":43.28414,"lon":5.34988,"is_reserved":false,"is_disabled":false,"rental_uris":{"android":"levelo://app?vid=c425d2b0-d9e8-4010-8389-9b6a1568b320","ios":"levelo://app?vid=c425d2b0-d9e8-4010-8389-9b6a1568b320"},"vehicle_type_id":"4","last_reported":1729513109,"current_range_meters":36800,"station_id":"ce4bhbh2rcd13ifvqepg","pricing_plan_id":"cebpf4jnsgd1na2vs0mg"},{"bike_id":"21e824cf-9664-4007-a995-45ed5ea7e486","system_id":"levelo_inurba_marseille","lat":43.33609,"lon":5.41022,"is_reserved":false,"is_disabled":false,"rental_uris":{"android":"levelo://app?vid=21e824cf-9664-4007-a995-45ed5ea7e486","ios":"levelo://app?vid=21e824cf-9664-4007-a995-45ed5ea7e486"},"vehicle_type_id":"4","last_reported":1729513109,"current_range_meters":38800,"station_id":"ce4bhqh2rcd13ifvqhmg","pricing_plan_id":"cebpf4jnsgd1na2vs0mg"},{"bike_id":"33716367-8f01-4668-8d20-37b08d8892ac","system_id":"levelo_inurba_marseille","lat":43.2984,"lon":5.3626,"is_reserved":false,"is_disabled":false,"rental_uris":{"android":"levelo://app?vid=33716367-8f01-4668-8d20-37b08d8892ac","ios":"levelo://app?vid=33716367-8f01-4668-8d20-37b08d8892ac"},"vehicle_type_id":"4","last_reported":1729513109,"current_range_meters":38800,"station_id":"ce4bgpp2rcd13ifvqc3g","pricing_plan_id":"cebpf4jnsgd1na2vs0mg"},{"bike_id":"167f81ac-be1d-407b-97ff-a4824f09fbaa","system_id":"levelo_inurba_marseille","lat":43.25938,"lon":5.409,"is_reserved":false,"is_disabled":false,"rental_uris":{"android":"levelo://app?vid=167f81ac-be1d-407b-97ff-a4824f09fbaa","ios":"levelo://app?vid=167f81ac-be1d-407b-97ff-a4824f09fbaa"},"vehicle_type_id":"4","last_reported":1729513109,"current_range_meters":28800,"station_id":"ce4bhm92rcd13ifvqglg","pricing_plan_id":"cebpf4jnsgd1na2vs0mg"},{"bike_id":"89a5d90e-b5a4-4657-87cc-8ba5d7338aa2","system_id":"levelo_inurba_marseille","lat":43.33605,"lon":5.41031,"is_reserved":false,"is_disabled":false,"rental_uris":{"android":"levelo://app?vid=89a5d90e-b5a4-4657-87cc-8ba5d7338aa2","ios":"levelo://app?vid=89a5d90e-b5a4-4657-87cc-8ba5d7338aa2"},"vehicle_type_id":"4","last_reported":1729513109,"current_range_meters":26800,"station_id":"ce4bhqh2rcd13ifvqhmg","pricing_plan_id":"cebpf4jnsgd1na2vs0mg"},{"bike_id":"686d7620-a3e1-450a-af12-ab47051aeac0","system_id":"levelo_inurba_marseille","lat":43.29575,"lon":5.37498,"is_reserved":false,"is_disabled":false,"rental_uris":{"android":"levelo://app?vid=686d7620-a3e1-450a-af12-ab47051aeac0","ios":"levelo://app?vid=686d7620-a3e1-450a-af12-ab47051aeac0"},"vehicle_type_id":"4","last_reported":1729513109,"current_range_meters":36800,"station_id":"ce4bgh92rcd13ifvqb50","pricing_plan_id":"cebpf4jnsgd1na2vs0mg"},{"bike_id":"5ad572a2-17f1-4316-89d4-8ed1d30eac95","system_id":"levelo_inurba_marseille","lat":43.33759,"lon":5.37447,"is_reserved":false,"is_disabled":false,"rental_uris":{"android":"levelo://app?vid=5ad572a2-17f1-4316-89d4-8ed1d30eac95","ios":"levelo://app?vid=5ad572a2-17f1-4316-89d4-8ed1d30eac95"},"vehicle_type_id":"4","last_reported":1729513109,"current_range_meters":2800,"station_id":"","pricing_plan_id":"cebpf4jnsgd1na2vs0mg"},{"bike_id":"303decf6-ee10-455e-af28-2b6dbe01f914","system_id":"levelo_inurba_marseille","lat":43.337444,"lon":5.374475,"is_reserved":false,"is_disabled":false,"rental_uris":{"android":"levelo://app?vid=303decf6-ee10-455e-af28-2b6dbe01f914","ios":"levelo://app?vid=303decf6-ee10-455e-af28-2b6dbe01f914"},"vehicle_type_id":"4","last_reported":1729513109,"current_range_meters":25600,"station_id":"","pricing_plan_id":"cebpf4jnsgd1na2vs0mg"},{"bike_id":"9f6c69b2-1f25-460c-915a-25666f9b6687","system_id":"levelo_inurba_marseille","lat":43.31344,"lon":5.36719,"is_reserved":false,"is_disabled":false,"rental_uris":{"android":"levelo://app?vid=9f6c69b2-1f25-460c-915a-25666f9b6687","ios":"levelo://app?vid=9f6c69b2-1f25-460c-915a-25666f9b6687"},"vehicle_type_id":"4","last_reported":1729513109,"current_range_meters":31200,"station_id":"ce4bgr92rcd13ifvqc6g","pricing_plan_id":"cebpf4jnsgd1na2vs0mg"},{"bike_id":"5533b39e-0b65-4894-b3d8-b5502094d346","system_id":"levelo_inurba_marseille","lat":43.29556,"lon":5.4228,"is_reserved":false,"is_disabled":false,"rental_uris":{"android":"levelo://app?vid=5533b39e-0b65-4894-b3d8-b5502094d346","ios":"levelo://app?vid=5533b39e-0b65-4894-b3d8-b5502094d346"},"vehicle_type_id":"4","last_reported":1729513109,"current_range_meters":30000,"station_id":"ce4bhph2rcd13ifvqhdg","pricing_plan_id":"cebpf4jnsgd1na2vs0mg"},{"bike_id":"048147df-ce73-4c9b-b1cd-8b1e0152d621","system_id":"levelo_inurba_marseille","lat":43.23066,"lon":5.35487,"is_reserved":false,"is_disabled":false,"rental_uris":{"android":"levelo://app?vid=048147df-ce73-4c9b-b1cd-8b1e0152d621","ios":"levelo://app?vid=048147df-ce73-4c9b-b1cd-8b1e0152d621"},"vehicle_type_id":"4","last_reported":1729513109,"current_range_meters":16400,"station_id":"cpo3342slgdg3j2ifvpg","pricing_plan_id":"cebpf4jnsgd1na2vs0mg"},{"bike_id":"eb16452d-dd22-4a36-8c38-6469acc801a5","system_id":"levelo_inurba_marseille","lat":43.2942,"lon":5.38625,"is_reserved":false,"is_disabled":false,"rental_uris":{"android":"levelo://app?vid=eb16452d-dd22-4a36-8c38-6469acc801a5","ios":"levelo://app?vid=eb16452d-dd22-4a36-8c38-6469acc801a5"},"vehicle_type_id":"4","last_reported":1729513109,"current_range_meters":27600,"station_id":"ce4bh2h2rcd13ifvqdh0","pricing_plan_id":"cebpf4jnsgd1na2vs0mg"},{"bike_id":"b09306b3-e3a1-4853-b1ac-0d8ef161e398","system_id":"levelo_inurba_marseille","lat":43.34143,"lon":5.40901,"is_reserved":false,"is_disabled":false,"rental_uris":{"android":"levelo://app?vid=b09306b3-e3a1-4853-b1ac-0d8ef161e398","ios":"levelo://app?vid=b09306b3-e3a1-4853-b1ac-0d8ef161e398"},"vehicle_type_id":"4","last_reported":1729513109,"current_range_meters":8800,"station_id":"ce4bhqh2rcd13ifvqhlg","pricing_plan_id":"cebpf4jnsgd1na2vs0mg"},{"bike_id":"f65ca95e-d741-48ae-a025-525eea644855","system_id":"levelo_inurba_marseille","lat":43.26677,"lon":5.38268,"is_reserved":false,"is_disabled":false,"rental_uris":{"android":"levelo://app?vid=f65ca95e-d741-48ae-a025-525eea644855","ios":"levelo://app?vid=f65ca95e-d741-48ae-a025-525eea644855"},"vehicle_type_id":"4","last_reported":1729513109,"current_range_meters":16000,"station_id":"ce4bhg92rcd13ifvqf90","pricing_plan_id":"cebpf4jnsgd1na2vs0mg"},{"bike_id":"2021c138-dc7e-48ad-963a-f7e2faed6403","system_id":"levelo_inurba_marseille","lat":43.27205,"lon":5.39177,"is_reserved":false,"is_disabled":false,"rental_uris":{"android":"levelo://app?vid=2021c138-dc7e-48ad-963a-f7e2faed6403","ios":"levelo://app?vid=2021c138-dc7e-48ad-963a-f7e2faed6403"},"vehicle_type_id":"4","last_reported":1729513109,"current_range_meters":22800,"station_id":"ce4bhhp2rcd13ifvqfm0","pricing_plan_id":"cebpf4jnsgd1na2vs0mg"},{"bike_id":"d0a7956a-d7bd-49a8-8af8-9172eb5dc7db","system_id":"levelo_inurba_marseille","lat":43.28611,"lon":5.35104,"is_reserved":false,"is_disabled":false,"rental_uris":{"android":"levelo://app?vid=d0a7956a-d7bd-49a8-8af8-9172eb5dc7db","ios":"levelo://app?vid=d0a7956a-d7bd-49a8-8af8-9172eb5dc7db"},"vehicle_type_id":"4","last_reported":1729513109,"current_range_meters":32400,"station_id":"ce4bhch2rcd13ifvqeug","pricing_plan_id":"cebpf4jnsgd1na2vs0mg"},{"bike_id":"f757616b-7302-4592-8081-1a649ab4b2f6","system_id":"levelo_inurba_marseille","lat":43.24074,"lon":5.37758,"is_reserved":false,"is_disabled":false,"rental_uris":{"android":"levelo://app?vid=f757616b-7302-4592-8081-1a649ab4b2f6","ios":"levelo://app?vid=f757616b-7302-4592-8081-1a649ab4b2f6"},"vehicle_type_id":"4","last_reported":1729513109,"current_range_meters":30400,"station_id":"ce4bhnp2rcd13ifvqgvg","pricing_plan_id":"cebpf4jnsgd1na2vs0mg"},{"bike_id":"d695833b-9218-40a4-b87c-6783a7ef9ce4","system_id":"levelo_inurba_marseille","lat":43.24181,"lon":5.3973,"is_reserved":false,"is_disabled":false,"rental_uris":{"android":"levelo://app?vid=d695833b-9218-40a4-b87c-6783a7ef9ce4","ios":"levelo://app?vid=d695833b-9218-40a4-b87c-6783a7ef9ce4"},"vehicle_type_id":"4","last_reported":1729513109,"current_range_meters":16000,"station_id":"ce4bhn12rcd13ifvqgpg","pricing_plan_id":"cebpf4jnsgd1na2vs0mg"},{"bike_id":"c32b9331-02b8-4c97-a5e2-6aeb94081e16","system_id":"levelo_inurba_marseille","lat":43.28616,"lon":5.35103,"is_reserved":false,"is_disabled":false,"rental_uris":{"android":"levelo://app?vid=c32b9331-02b8-4c97-a5e2-6aeb94081e16","ios":"levelo://app?vid=c32b9331-02b8-4c97-a5e2-6aeb94081e16"},"vehicle_type_id":"4","last_reported":1729513109,"current_range_meters":14800,"station_id":"ce4bhch2rcd13ifvqeug","pricing_plan_id":"cebpf4jnsgd1na2vs0mg"},{"bike_id":"c4bf76ce-8bc4-48e5-b209-db8b62d2dfcb","system_id":"levelo_inurba_marseille","lat":43.30905,"lon":5.36849,"is_reserved":false,"is_disabled":false,"rental_uris":{"android":"levelo://app?vid=c4bf76ce-8bc4-48e5-b209-db8b62d2dfcb","ios":"levelo://app?vid=c4bf76ce-8bc4-48e5-b209-db8b62d2dfcb"},"vehicle_type_id":"4","last_reported":1729513109,"current_range_meters":32400,"station_id":"ce4bgn92rcd13ifvqbvg","pricing_plan_id":"cebpf4jnsgd1na2vs0mg"},{"bike_id":"191e8c1b-8eb2-4dd5-9af3-ecc0a669c64d","system_id":"levelo_inurba_marseille","lat":43.2762,"lon":5.36109,"is_reserved":false,"is_disabled":false,"rental_uris":{"android":"levelo://app?vid=191e8c1b-8eb2-4dd5-9af3-ecc0a669c64d","ios":"levelo://app?vid=191e8c1b-8eb2-4dd5-9af3-ecc0a669c64d"},"vehicle_type_id":"4","last_reported":1729513109,"current_range_meters":39200,"station_id":"ce4bgj92rcd13ifvqbe0","pricing_plan_id":"cebpf4jnsgd1na2vs0mg"},{"bike_id":"885770ae-b853-4394-a684-176e815c24eb","system_id":"levelo_inurba_marseille","lat":43.31346,"lon":5.36716,"is_reserved":false,"is_disabled":false,"rental_uris":{"android":"levelo://app?vid=885770ae-b853-4394-a684-176e815c24eb","ios":"levelo://app?vid=885770ae-b853-4394-a684-176e815c24eb"},"vehicle_type_id":"4","last_reported":1729513109,"current_range_meters":18000,"station_id":"ce4bgr92rcd13ifvqc6g","pricing_plan_id":"cebpf4jnsgd1na2vs0mg"},{"bike_id":"ac0fcd46-66fa-49ff-a921-6abbb2b56fd5","system_id":"levelo_inurba_marseille","lat":43.25575,"lon":5.38228,"is_reserved":false,"is_disabled":false,"rental_uris":{"android":"levelo://app?vid=ac0fcd46-66fa-49ff-a921-6abbb2b56fd5","ios":"levelo://app?vid=ac0fcd46-66fa-49ff-a921-6abbb2b56fd5"},"vehicle_type_id":"4","last_reported":1729513109,"current_range_meters":32400,"station_id":"ce4bhih2rcd13ifvqfs0","pricing_plan_id":"cebpf4jnsgd1na2vs0mg"},{"bike_id":"434d7f14-3dbb-41ee-bea3-4f1a7bf4fcb9","system_id":"levelo_inurba_marseille","lat":43.23154,"lon":5.43719,"is_reserved":false,"is_disabled":false,"rental_uris":{"android":"levelo://app?vid=434d7f14-3dbb-41ee-bea3-4f1a7bf4fcb9","ios":"levelo://app?vid=434d7f14-3dbb-41ee-bea3-4f1a7bf4fcb9"},"vehicle_type_id":"4","last_reported":1729513109,"current_range_meters":8000,"station_id":"ce4bhmp2rcd13ifvqgog","pricing_plan_id":"cebpf4jnsgd1na2vs0mg"},{"bike_id":"b98f85e5-78bd-4583-9201-5d84a6037942","system_id":"levelo_inurba_marseille","lat":43.241753,"lon":5.397333,"is_reserved":false,"is_disabled":false,"rental_uris":{"android":"levelo://app?vid=b98f85e5-78bd-4583-9201-5d84a6037942","ios":"levelo://app?vid=b98f85e5-78bd-4583-9201-5d84a6037942"},"vehicle_type_id":"4","last_reported":1729513109,"current_range_meters":14800,"station_id":"ce4bhn12rcd13ifvqgpg","pricing_plan_id":"cebpf4jnsgd1na2vs0mg"},{"bike_id":"9fbde828-b0c5-401b-b904-db76fa49e433","system_id":"levelo_inurba_marseille","lat":43.30193,"lon":5.36619,"is_reserved":false,"is_disabled":false,"rental_uris":{"android":"levelo://app?vid=9fbde828-b0c5-401b-b904-db76fa49e433","ios":"levelo://app?vid=9fbde828-b0c5-401b-b904-db76fa49e433"},"vehicle_type_id":"4","last_reported":1729513109,"current_range_meters":36000,"station_id":"ce4bgrh2rcd13ifvqc8g","pricing_plan_id":"cebpf4jnsgd1na2vs0mg"},{"bike_id":"13842deb-5c49-4648-871a-5f658297e6c9","system_id":"levelo_inurba_marseille","lat":43.3379,"lon":5.3912,"is_reserved":false,"is_disabled":false,"rental_uris":{"android":"levelo://app?vid=13842deb-5c49-4648-871a-5f658297e6c9","ios":"levelo://app?vid=13842deb-5c49-4648-871a-5f658297e6c9"},"vehicle_type_id":"4","last_reported":1729513109,"current_range_meters":38800,"station_id":"","pricing_plan_id":"cebpf4jnsgd1na2vs0mg"},{"bike_id":"c7a5db20-82b4-4a82-9adc-d2a0af6738a0","system_id":"levelo_inurba_marseille","lat":43.33571,"lon":5.41029,"is_reserved":false,"is_disabled":false,"rental_uris":{"android":"levelo://app?vid=c7a5db20-82b4-4a82-9adc-d2a0af6738a0","ios":"levelo://app?vid=c7a5db20-82b4-4a82-9adc-d2a0af6738a0"},"vehicle_type_id":"4","last_reported":1729513109,"current_range_meters":32400,"station_id":"ce4bhqh2rcd13ifvqhmg","pricing_plan_id":"cebpf4jnsgd1na2vs0mg"},{"bike_id":"72055cea-5344-44da-ae71-b082aba431b2","system_id":"levelo_inurba_marseille","lat":43.25505,"lon":5.37648,"is_reserved":false,"is_disabled":false,"rental_uris":{"android":"levelo://app?vid=72055cea-5344-44da-ae71-b082aba431b2","ios":"levelo://app?vid=72055cea-5344-44da-ae71-b082aba431b2"},"vehicle_type_id":"4","last_reported":1729513109,"current_range_meters":36800,"station_id":"ce4bhh12rcd13ifvqff0","pricing_plan_id":"cebpf4jnsgd1na2vs0mg"},{"bike_id":"e8ab4606-1545-4f3e-a999-5a93cd30c0fa","system_id":"levelo_inurba_marseille","lat":43.25581,"lon":5.38236,"is_reserved":false,"is_disabled":false,"rental_uris":{"android":"levelo://app?vid=e8ab4606-1545-4f3e-a999-5a93cd30c0fa","ios":"levelo://app?vid=e8ab4606-1545-4f3e-a999-5a93cd30c0fa"},"vehicle_type_id":"4","last_reported":1729513109,"current_range_meters":36800,"station_id":"ce4bhih2rcd13ifvqfs0","pricing_plan_id":"cebpf4jnsgd1na2vs0mg"},{"bike_id":"df52afda-af48-4c2f-a6f3-4986f0415ca0","system_id":"levelo_inurba_marseille","lat":43.33603,"lon":5.41024,"is_reserved":false,"is_disabled":false,"rental_uris":{"android":"levelo://app?vid=df52afda-af48-4c2f-a6f3-4986f0415ca0","ios":"levelo://app?vid=df52afda-af48-4c2f-a6f3-4986f0415ca0"},"vehicle_type_id":"4","last_reported":1729513109,"current_range_meters":38000,"station_id":"ce4bhqh2rcd13ifvqhmg","pricing_plan_id":"cebpf4jnsgd1na2vs0mg"},{"bike_id":"1e023566-ec2c-4811-af67-2f46b68a3bde","system_id":"levelo_inurba_marseille","lat":43.30536,"lon":5.36708,"is_reserved":false,"is_disabled":false,"rental_uris":{"android":"levelo://app?vid=1e023566-ec2c-4811-af67-2f46b68a3bde","ios":"levelo://app?vid=1e023566-ec2c-4811-af67-2f46b68a3bde"},"vehicle_type_id":"4","last_reported":1729513109,"current_range_meters":18000,"station_id":"ce4bgrp2rcd13ifvqc9g","pricing_plan_id":"cebpf4jnsgd1na2vs0mg"},{"bike_id":"a5a50f9d-1068-41b3-8cac-c7ed7615da13","system_id":"levelo_inurba_marseille","lat":43.24547,"lon":5.39529,"is_reserved":false,"is_disabled":false,"rental_uris":{"android":"levelo://app?vid=a5a50f9d-1068-41b3-8cac-c7ed7615da13","ios":"levelo://app?vid=a5a50f9d-1068-41b3-8cac-c7ed7615da13"},"vehicle_type_id":"4","last_reported":1729513109,"current_range_meters":11200,"station_id":"ce4bhlp2rcd13ifvqgjg","pricing_plan_id":"cebpf4jnsgd1na2vs0mg"},{"bike_id":"e87aab69-03e4-4cc3-ba6a-19370211c115","system_id":"levelo_inurba_marseille","lat":43.3091,"lon":5.36833,"is_reserved":false,"is_disabled":false,"rental_uris":{"android":"levelo://app?vid=e87aab69-03e4-4cc3-ba6a-19370211c115","ios":"levelo://app?vid=e87aab69-03e4-4cc3-ba6a-19370211c115"},"vehicle_type_id":"4","last_reported":1729513109,"current_range_meters":38800,"station_id":"ce4bgn92rcd13ifvqbvg","pricing_plan_id":"cebpf4jnsgd1na2vs0mg"},{"bike_id":"a62668f4-a752-4196-ba84-f6c7062b8d1a","system_id":"levelo_inurba_marseille","lat":43.31249,"lon":5.40195,"is_reserved":false,"is_disabled":false,"rental_uris":{"android":"levelo://app?vid=a62668f4-a752-4196-ba84-f6c7062b8d1a","ios":"levelo://app?vid=a62668f4-a752-4196-ba84-f6c7062b8d1a"},"vehicle_type_id":"4","last_reported":1729513109,"current_range_meters":8800,"station_id":"ce4bh092rcd13ifvqd30","pricing_plan_id":"cebpf4jnsgd1na2vs0mg"},{"bike_id":"0a99f693-7a66-40dd-88e7-a9484af768de","system_id":"levelo_inurba_marseille","lat":43.2861,"lon":5.37063,"is_reserved":false,"is_disabled":false,"rental_uris":{"android":"levelo://app?vid=0a99f693-7a66-40dd-88e7-a9484af768de","ios":"levelo://app?vid=0a99f693-7a66-40dd-88e7-a9484af768de"},"vehicle_type_id":"4","last_reported":1729513109,"current_range_meters":25200,"station_id":"ce4bht12rcd13ifvqi60","pricing_plan_id":"cebpf4jnsgd1na2vs0mg"},{"bike_id":"cfe27155-f570-45b5-a4c6-0360b2e0f849","system_id":"levelo_inurba_marseille","lat":43.29886,"lon":5.38888,"is_reserved":false,"is_disabled":false,"rental_uris":{"android":"levelo://app?vid=cfe27155-f570-45b5-a4c6-0360b2e0f849","ios":"levelo://app?vid=cfe27155-f570-45b5-a4c6-0360b2e0f849"},"vehicle_type_id":"4","last_reported":1729513109,"current_range_meters":19600,"station_id":"ce4bh392rcd13ifvqdl0","pricing_plan_id":"cebpf4jnsgd1na2vs0mg"},{"bike_id":"87caba68-b316-4ad3-93ef-bf1945a3c9bd","system_id":"levelo_inurba_marseille","lat":43.289429,"lon":5.387301,"is_reserved":false,"is_disabled":false,"rental_uris":{"android":"levelo://app?vid=87caba68-b316-4ad3-93ef-bf1945a3c9bd","ios":"levelo://app?vid=87caba68-b316-4ad3-93ef-bf1945a3c9bd"},"vehicle_type_id":"4","last_reported":1729513109,"current_range_meters":16400,"station_id":"ce4bh4p2rcd13ifvqe0g","pricing_plan_id":"cebpf4jnsgd1na2vs0mg"},{"bike_id":"8d1f3607-5b33-48bc-8562-4ca9f6416f6c","system_id":"levelo_inurba_marseille","lat":43.34144,"lon":5.40903,"is_reserved":false,"is_disabled":false,"rental_uris":{"android":"levelo://app?vid=8d1f3607-5b33-48bc-8562-4ca9f6416f6c","ios":"levelo://app?vid=8d1f3607-5b33-48bc-8562-4ca9f6416f6c"},"vehicle_type_id":"4","last_reported":1729513109,"current_range_meters":38800,"station_id":"ce4bhqh2rcd13ifvqhlg","pricing_plan_id":"cebpf4jnsgd1na2vs0mg"},{"bike_id":"6fccb950-23b0-417a-9eb1-7ce0a21e2e54","system_id":"levelo_inurba_marseille","lat":43.29914,"lon":5.37466,"is_reserved":false,"is_disabled":false,"rental_uris":{"android":"levelo://app?vid=6fccb950-23b0-417a-9eb1-7ce0a21e2e54","ios":"levelo://app?vid=6fccb950-23b0-417a-9eb1-7ce0a21e2e54"},"vehicle_type_id":"4","last_reported":1729513109,"current_range_meters":28800,"station_id":"ce4bgjh2rcd13ifvqbg0","pricing_plan_id":"cebpf4jnsgd1na2vs0mg"},{"bike_id":"dbc51748-58a0-4267-87e1-18afbe6b98ee","system_id":"levelo_inurba_marseille","lat":43.26062,"lon":5.39394,"is_reserved":false,"is_disabled":false,"rental_uris":{"android":"levelo://app?vid=dbc51748-58a0-4267-87e1-18afbe6b98ee","ios":"levelo://app?vid=dbc51748-58a0-4267-87e1-18afbe6b98ee"},"vehicle_type_id":"4","last_reported":1729513109,"current_range_meters":30800,"station_id":"ce4bhh92rcd13ifvqfj0","pricing_plan_id":"cebpf4jnsgd1na2vs0mg"},{"bike_id":"c3c8db5b-e31c-477c-be9c-da02f0ac3a21","system_id":"levelo_inurba_marseille","lat":43.290802,"lon":5.381365,"is_reserved":false,"is_disabled":false,"rental_uris":{"android":"levelo://app?vid=c3c8db5b-e31c-477c-be9c-da02f0ac3a21","ios":"levelo://app?vid=c3c8db5b-e31c-477c-be9c-da02f0ac3a21"},"vehicle_type_id":"4","last_reported":1729513109,"current_range_meters":3600,"station_id":"ce4bh512rcd13ifvqe2g","pricing_plan_id":"cebpf4jnsgd1na2vs0mg"},{"bike_id":"33ab47a7-db9e-4de2-82f0-e23bf5e2233f","system_id":"levelo_inurba_marseille","lat":43.275606,"lon":5.384352,"is_reserved":false,"is_disabled":false,"rental_uris":{"android":"levelo://app?vid=33ab47a7-db9e-4de2-82f0-e23bf5e2233f","ios":"levelo://app?vid=33ab47a7-db9e-4de2-82f0-e23bf5e2233f"},"vehicle_type_id":"4","last_reported":1729513109,"current_range_meters":38000,"station_id":"ce4bhh92rcd13ifvqfi0","pricing_plan_id":"cebpf4jnsgd1na2vs0mg"},{"bike_id":"d3f1c3d6-9cb7-4aaf-984f-e7b905dfeb63","system_id":"levelo_inurba_marseille","lat":43.28107,"lon":5.37831,"is_reserved":false,"is_disabled":false,"rental_uris":{"android":"levelo://app?vid=d3f1c3d6-9cb7-4aaf-984f-e7b905dfeb63","ios":"levelo://app?vid=d3f1c3d6-9cb7-4aaf-984f-e7b905dfeb63"},"vehicle_type_id":"4","last_reported":1729513109,"current_range_meters":25200,"station_id":"ce4bha12rcd13ifvqee0","pricing_plan_id":"cebpf4jnsgd1na2vs0mg"},{"bike_id":"f507cd56-95de-4112-bac0-3688235425a1","system_id":"levelo_inurba_marseille","lat":43.2408,"lon":5.3775,"is_reserved":false,"is_disabled":false,"rental_uris":{"android":"levelo://app?vid=f507cd56-95de-4112-bac0-3688235425a1","ios":"levelo://app?vid=f507cd56-95de-4112-bac0-3688235425a1"},"vehicle_type_id":"4","last_reported":1729513109,"current_range_meters":4800,"station_id":"ce4bhnp2rcd13ifvqgvg","pricing_plan_id":"cebpf4jnsgd1na2vs0mg"},{"bike_id":"f3033d3e-ad5a-464e-bd95-7b2498180549","system_id":"levelo_inurba_marseille","lat":43.29554,"lon":5.42279,"is_reserved":false,"is_disabled":false,"rental_uris":{"android":"levelo://app?vid=f3033d3e-ad5a-464e-bd95-7b2498180549","ios":"levelo://app?vid=f3033d3e-ad5a-464e-bd95-7b2498180549"},"vehicle_type_id":"4","last_reported":1729513109,"current_range_meters":38800,"station_id":"ce4bhph2rcd13ifvqhdg","pricing_plan_id":"cebpf4jnsgd1na2vs0mg"},{"bike_id":"cdbff9fa-4177-464d-9848-095e9aa8f7c9","system_id":"levelo_inurba_marseille","lat":43.29372,"lon":5.37852,"is_reserved":false,"is_disabled":false,"rental_uris":{"android":"levelo://app?vid=cdbff9fa-4177-464d-9848-095e9aa8f7c9","ios":"levelo://app?vid=cdbff9fa-4177-464d-9848-095e9aa8f7c9"},"vehicle_type_id":"4","last_reported":1729513109,"current_range_meters":24000,"station_id":"ce4bgjh2rcd13ifvqbf0","pricing_plan_id":"cebpf4jnsgd1na2vs0mg"},