{"last_updated":1698257336,"ttl":30,"version":"2.2","data":{"bikes":[{"bike_id":"cb7576bb-0362-4fbf-baa4-dcb32e287db2","system_id":"levelo_inurba_marseille","lat":43.31314,"lon":5.3676,"is_reserved":false,"is_disabled":false,"rental_uris":{"android":"levelo://app?vid=cb7576bb-0362-4fbf-baa4-dcb32e287db2","ios":"levelo://app?vid=cb7576bb-0362-4fbf-baa4-dcb32e287db2"},"vehicle_type_id":"4","last_reported":1698257336,"current_range_meters":31200,"station_id":"","pricing_plan_id":"free"},{"bike_id":"a20483b7-65cc-4502-9b00-acf4fd022db2","system_id":"levelo_inurba_marseille","lat":43.31323,"lon":5.36767,"is_reserved":false,"is_disabled":false,"rental_uris":{"android":"levelo://app?vid=a20483b7-65cc-4502-9b00-acf4fd022db2","ios":"levelo://app?vid=a20483b7-65cc-4502-9b00-acf4fd022db2"},"vehicle_type_id":"4","last_reported":1698257336,"current_range_meters":28000,"station_id":"","pricing_plan_id":"free"},{"bike_id":"f5c58904-aeb7-4548-b4b5-9f5e83f269ce","system_id":"levelo_inurba_marseille","lat":43.309797,"lon":5.368093,"is_reserved":false,"is_disabled":false,"rental_uris":{"android":"levelo://app?vid=f5c58904-aeb7-4548-b4b5-9f5e83f269ce","ios":"levelo://app?vid=f5c58904-aeb7-4548-b4b5-9f5e83f269ce"},"vehicle_type_id":"4","last_reported":1698257336,"current_range_meters":2800,"station_id":"ce4bgn92rcd13ifvqbvg","pricing_plan_id":"free"},{"bike_id":"c5ef0ca8-27df-4976-a969-31b9ecb53e9b","system_id":"levelo_inurba_marseille","lat":43.31519,"lon":5.37175,"is_reserved":false,"is_disabled":false,"rental_uris":{"android":"levelo://app?vid=c5ef0ca8-27df-4976-a969-31b9ecb53e9b","ios":"levelo://app?vid=c5ef0ca8-27df-4976-a969-31b9ecb53e9b"},"vehicle_type_id":"4","last_reported":1698257336,"current_range_meters":0,"station_id":"","pricing_plan_id":"free"},{"bike_id":"dbbdea51-7e3d-4271-bd96-c3aabecbd7e2","system_id":"levelo_inurba_marseille","lat":43.315783,"lon":5.372523,"is_reserved":false,"is_disabled":false,"rental_uris":{"android":"levelo://app?vid=dbbdea51-7e3d-4271-bd96-c3aabecbd7e2","ios":"levelo://app?vid=dbbdea51-7e3d-4271-bd96-c3aabecbd7e2"},"vehicle_type_id":"4","last_reported":1698257336,"current_range_meters":18800,"station_id":"","pricing_plan_id":"free"},{"bike_id":"28d91daa-bf2a-466b-8cf6-56dbc3683808","system_id":"levelo_inurba_marseille","lat":43.317671,"lon":5.373112,"is_reserved":false,"is_disabled":false,"rental_uris":{"android":"levelo://app?vid=28d91daa-bf2a-466b-8cf6-56dbc3683808","ios":"levelo://app?vid=28d91daa-bf2a-466b-8cf6-56dbc3683808"},"vehicle_type_id":"4","last_reported":1698257336,"current_range_meters":31200,"station_id":"","pricing_plan_id":"free"},{"bike_id":"f252b071-dddd-4e5f-ad07-506846af6d1a","system_id":"levelo_inurba_marseille","lat":43.305714,"lon":5.365633,"is_reserved":false,"is_disabled":false,"rental_uris":{"android":"levelo://app?vid=f252b071-dddd-4e5f-ad07-506846af6d1a","ios":"levelo://app?vid=f252b071-dddd-4e5f-ad07-506846af6d1a"},"vehicle_type_id":"4","last_reported":1698257336,"current_range_meters":11200,"station_id":"ce4bgs12rcd13ifvqcag","pricing_plan_id":"free"},{"bike_id":"b89c20b0-7381-4936-8023-85c129dd1de6","system_id":"levelo_inurba_marseille","lat":43.305989,"lon":5.37225,"is_reserved":false,"is_disabled":false,"rental_uris":{"android":"levelo://app?vid=b89c20b0-7381-4936-8023-85c129dd1de6","ios":"levelo://app?vid=b89c20b0-7381-4936-8023-85c129dd1de6"},"vehicle_type_id":"4","last_reported":1698257336,"current_range_meters":9600,"station_id":"ce4bgqh2rcd13ifvqc4g","pricing_plan_id":"free"},{"bike_id":"dd6d4923-f6c8-45a7-82fa-7152ee1ff270","system_id":"levelo_inurba_marseille","lat":43.305989,"lon":5.37225,"is_reserved":false,"is_disabled":false,"rental_uris":{"android":"levelo://app?vid=dd6d4923-f6c8-45a7-82fa-7152ee1ff270","ios":"levelo://app?vid=dd6d4923-f6c8-45a7-82fa-7152ee1ff270"},"vehicle_type_id":"4","last_reported":1698257336,"current_range_meters":13200,"station_id":"ce4bgqh2rcd13ifvqc4g","pricing_plan_id":"free"},{"bike_id":"8f9d1517-ebb2-4a4d-86e7-da75029aa00e","system_id":"levelo_inurba_marseille","lat":43.311125,"lon":5.377624,"is_reserved":false,"is_disabled":false,"rental_uris":{"android":"levelo://app?vid=8f9d1517-ebb2-4a4d-86e7-da75029aa00e","ios":"levelo://app?vid=8f9d1517-ebb2-4a4d-86e7-da75029aa00e"},"vehicle_type_id":"4","last_reported":1698257336,"current_range_meters":28800,"station_id":"ce4bgt92rcd13ifvqcg0","pricing_plan_id":"free"},{"bike_id":"2fe6addf-3f28-4e18-9be7-8e324eee151f","system_id":"levelo_inurba_marseille","lat":43.30501,"lon":5.37088,"is_reserved":false,"is_disabled":false,"rental_uris":{"android":"levelo://app?vid=2fe6addf-3f28-4e18-9be7-8e324eee151f","ios":"levelo://app?vid=2fe6addf-3f28-4e18-9be7-8e324eee151f"},"vehicle_type_id":"4","last_reported":1698257336,"current_range_meters":13200,"station_id":"","pricing_plan_id":"free"},{"bike_id":"dd7b3b69-7420-44fd-9abc-c74213a6269c","system_id":"levelo_inurba_marseille","lat":43.307835,"lon":5.37643,"is_reserved":false,"is_disabled":false,"rental_uris":{"android":"levelo://app?vid=dd7b3b69-7420-44fd-9abc-c74213a6269c","ios":"levelo://app?vid=dd7b3b69-7420-44fd-9abc-c74213a6269c"},"vehicle_type_id":"4","last_reported":1698257336,"current_range_meters":1600,"station_id":"ce4bgv92rcd13ifvqcq0","pricing_plan_id":"free"},{"bike_id":"3cd152d1-004c-4987-921b-6e07a7a84573","system_id":"levelo_inurba_marseille","lat":43.317075,"lon":5.377367,"is_reserved":false,"is_disabled":false,"rental_uris":{"android":"levelo://app?vid=3cd152d1-004c-4987-921b-6e07a7a84573","ios":"levelo://app?vid=3cd152d1-004c-4987-921b-6e07a7a84573"},"vehicle_type_id":"4","last_reported":1698257336,"current_range_meters":26400,"station_id":"ce4bgth2rcd13ifvqch0","pricing_plan_id":"free"},{"bike_id":"1f236080-2dbe-436d-a3ef-e2d9e64c915a","system_id":"levelo_inurba_marseille","lat":43.317075,"lon":5.377367,"is_reserved":false,"is_disabled":false,"rental_uris":{"android":"levelo://app?vid=1f236080-2dbe-436d-a3ef-e2d9e64c915a","ios":"levelo://app?vid=1f236080-2dbe-436d-a3ef-e2d9e64c915a"},"vehicle_type_id":"4","last_reported":1698257336,"current_range_meters":14000,"station_id":"ce4bgth2rcd13ifvqch0","pricing_plan_id":"free"},{"bike_id":"1f6ece22-a3eb-4a17-b175-aa8c6da5d412","system_id":"levelo_inurba_marseille","lat":43.317075,"lon":5.377367,"is_reserved":false,"is_disabled":false,"rental_uris":{"android":"levelo://app?vid=1f6ece22-a3eb-4a17-b175-aa8c6da5d412","ios":"levelo://app?vid=1f6ece22-a3eb-4a17-b175-aa8c6da5d412"},"vehicle_type_id":"4","last_reported":1698257336,"current_range_meters":22800,"station_id":"ce4bgth2rcd13ifvqch0","pricing_plan_id":"free"},{"bike_id":"5c2b8f23-f2aa-4696-9697-f03dd2ede8ee","system_id":"levelo_inurba_marseille","lat":43.321828,"lon":5.375054,"is_reserved":false,"is_disabled":false,"rental_uris":{"android":"levelo://app?vid=5c2b8f23-f2aa-4696-9697-f03dd2ede8ee","ios":"levelo://app?vid=5c2b8f23-f2aa-4696-9697-f03dd2ede8ee"},"vehicle_type_id":"4","last_reported":1698257336,"current_range_meters":16000,"station_id":"","pricing_plan_id":"free"},{"bike_id":"706b2fed-62e0-4455-a378-70f46e94dc93","system_id":"levelo_inurba_marseille","lat":43.301939,"lon":5.366286,"is_reserved":false,"is_disabled":false,"rental_uris":{"android":"levelo://app?vid=706b2fed-62e0-4455-a378-70f46e94dc93","ios":"levelo://app?vid=706b2fed-62e0-4455-a378-70f46e94dc93"},"vehicle_type_id":"4","last_reported":1698257336,"current_range_meters":22400,"station_id":"ce4bgrh2rcd13ifvqc8g","pricing_plan_id":"free"},{"bike_id":"36bf9fec-b7f1-4031-943f-63213a355a3d","system_id":"levelo_inurba_marseille","lat":43.308,"lon":5.38158,"is_reserved":false,"is_disabled":false,"rental_uris":{"android":"levelo://app?vid=36bf9fec-b7f1-4031-943f-63213a355a3d","ios":"levelo://app?vid=36bf9fec-b7f1-4031-943f-63213a355a3d"},"vehicle_type_id":"4","last_reported":1698257336,"current_range_meters":7600,"station_id":"ce4bgt12rcd13ifvqce0","pricing_plan_id":"free"},{"bike_id":"178a8f0d-adc1-409a-808f-1b764b37db1d","system_id":"levelo_inurba_marseille","lat":43.30798,"lon":5.38162,"is_reserved":false,"is_disabled":false,"rental_uris":{"android":"levelo://app?vid=178a8f0d-adc1-409a-808f-1b764b37db1d","ios":"levelo://app?vid=178a8f0d-adc1-409a-808f-1b764b37db1d"},"vehicle_type_id":"4","last_reported":1698257336,"current_range_meters":0,"station_id":"ce4bgt12rcd13ifvqce0","pricing_plan_id":"free"},{"bike_id":"e6db9884-b50a-4fef-a866-32a59c14dbdc","system_id":"levelo_inurba_marseille","lat":43.307907,"lon":5.381607,"is_reserved":false,"is_disabled":false,"rental_uris":{"android":"levelo://app?vid=e6db9884-b50a-4fef-a866-32a59c14dbdc","ios":"levelo://app?vid=e6db9884-b50a-4fef-a866-32a59c14dbdc"},"vehicle_type_id":"4","last_reported":1698257336,"current_range_meters":0,"station_id":"ce4bgt12rcd13ifvqce0","pricing_plan_id":"free"},{"bike_id":"8cd5ede9-1940-46d0-97a5-78eb2273adf9","system_id":"levelo_inurba_marseille","lat":43.304606,"lon":5.379026,"is_reserved":false,"is_disabled":false,"rental_uris":{"android":"levelo://app?vid=8cd5ede9-1940-46d0-97a5-78eb2273adf9","ios":"levelo://app?vid=8cd5ede9-1940-46d0-97a5-78eb2273adf9"},"vehicle_type_id":"4","last_reported":1698257336,"current_range_meters":6000,"station_id":"ce4bgup2rcd13ifvqcn0","pricing_plan_id":"free"},{"bike_id":"1047bcc5-10ff-460b-bd6f-eac1d4a67db4","system_id":"levelo_inurba_marseille","lat":43.31745,"lon":5.382537,"is_reserved":false,"is_disabled":false,"rental_uris":{"android":"levelo://app?vid=1047bcc5-10ff-460b-bd6f-eac1d4a67db4","ios":"levelo://app?vid=1047bcc5-10ff-460b-bd6f-eac1d4a67db4"},"vehicle_type_id":"4","last_reported":1698257336,"current_range_meters":3600,"station_id":"","pricing_plan_id":"free"},{"bike_id":"73c6c664-2c4e-403f-b0c3-393f4315b035","system_id":"levelo_inurba_marseille","lat":43.319905,"lon":5.38119,"is_reserved":false,"is_disabled":false,"rental_uris":{"android":"levelo://app?vid=73c6c664-2c4e-403f-b0c3-393f4315b035","ios":"levelo://app?vid=73c6c664-2c4e-403f-b0c3-393f4315b035"},"vehicle_type_id":"4","last_reported":1698257336,"current_range_meters":26800,"station_id":"ce4bhr12rcd13ifvqhpg","pricing_plan_id":"free"},{"bike_id":"46e59620-997e-486c-a36f-24a6f0541ad5","system_id":"levelo_inurba_marseille","lat":43.319937,"lon":5.381563,"is_reserved":false,"is_disabled":false,"rental_uris":{"android":"levelo://app?vid=46e59620-997e-486c-a36f-24a6f0541ad5","ios":"levelo://app?vid=46e59620-997e-486c-a36f-24a6f0541ad5"},"vehicle_type_id":"4","last_reported":1698257336,"current_range_meters":13600,"station_id":"","pricing_plan_id":"free"},{"bike_id":"d34028e0-3792-4cc5-93dd-0a721f8927d4","system_id":"levelo_inurba_marseille","lat":43.31996,"lon":5.38161,"is_reserved":false,"is_disabled":false,"rental_uris":{"android":"levelo://app?vid=d34028e0-3792-4cc5-93dd-0a721f8927d4","ios":"levelo://app?vid=d34028e0-3792-4cc5-93dd-0a721f8927d4"},"vehicle_type_id":"4","last_reported":1698257336,"current_range_meters":19200,"station_id":"ce4bhr12rcd13ifvqhpg","pricing_plan_id":"free"},{"bike_id":"7cb2bbbb-6671-40e1-933c-e83eb70d5511","system_id":"levelo_inurba_marseille","lat":43.319935,"lon":5.381699,"is_reserved":false,"is_disabled":false,"rental_uris":{"android":"levelo://app?vid=7cb2bbbb-6671-40e1-933c-e83eb70d5511","ios":"levelo://app?vid=7cb2bbbb-6671-40e1-933c-e83eb70d5511"},"vehicle_type_id":"4","last_reported":1698257336,"current_range_meters":9600,"station_id":"ce4bhr12rcd13ifvqhpg","pricing_plan_id":"free"},{"bike_id":"7a1072aa-ddcf-4c04-b642-a23bf975fa1a","system_id":"levelo_inurba_marseille","lat":43.313571,"lon":5.384829,"is_reserved":false,"is_disabled":false,"rental_uris":{"android":"levelo://app?vid=7a1072aa-ddcf-4c04-b642-a23bf975fa1a","ios":"levelo://app?vid=7a1072aa-ddcf-4c04-b642-a23bf975fa1a"},"vehicle_type_id":"4","last_reported":1698257336,"current_range_meters":20000,"station_id":"ce4bgt92rcd13ifvqcf0","pricing_plan_id":"free"},{"bike_id":"c1097d85-60d1-4dd9-b866-af3b040ffa00","system_id":"levelo_inurba_marseille","lat":43.29941,"lon":5.36558,"is_reserved":false,"is_disabled":false,"rental_uris":{"android":"levelo://app?vid=c1097d85-60d1-4dd9-b866-af3b040ffa00","ios":"levelo://app?vid=c1097d85-60d1-4dd9-b866-af3b040ffa00"},"vehicle_type_id":"4","last_reported":1698257336,"current_range_meters":24800,"station_id":"ce4bgm92rcd13ifvqbr0","pricing_plan_id":"free"},{"bike_id":"1dcc81a0-fe2b-4334-affa-688ededcaaef","system_id":"levelo_inurba_marseille","lat":43.29939,"lon":5.36557,"is_reserved":false,"is_disabled":false,"rental_uris":{"android":"levelo://app?vid=1dcc81a0-fe2b-4334-affa-688ededcaaef","ios":"levelo://app?vid=1dcc81a0-fe2b-4334-affa-688ededcaaef"},"vehicle_type_id":"4","last_reported":1698257336,"current_range_meters":1200,"station_id":"ce4bgm92rcd13ifvqbr0","pricing_plan_id":"free"},{"bike_id":"7ebb999d-460c-42dc-8ee1-6b9037abe555","system_id":"levelo_inurba_marseille","lat":43.299724,"lon":5.371829,"is_reserved":false,"is_disabled":false,"rental_uris":{"android":"levelo://app?vid=7ebb999d-460c-42dc-8ee1-6b9037abe555","ios":"levelo://app?vid=7ebb999d-460c-42dc-8ee1-6b9037abe555"},"vehicle_type_id":"4","last_reported":1698257336,"current_range_meters":800,"station_id":"ce4bgr92rcd13ifvqc7g","pricing_plan_id":"free"},{"bike_id":"1d214144-2ed1-4fe9-a24a-4c784163c121","system_id":"levelo_inurba_marseille","lat":43.299724,"lon":5.371829,"is_reserved":false,"is_disabled":false,"rental_uris":{"android":"levelo://app?vid=1d214144-2ed1-4fe9-a24a-4c784163c121","ios":"levelo://app?vid=1d214144-2ed1-4fe9-a24a-4c784163c121"},"vehicle_type_id":"4","last_reported":1698257336,"current_range_meters":23600,"station_id":"ce4bgr92rcd13ifvqc7g","pricing_plan_id":"free"},{"bike_id":"97997ef7-b347-4148-ba57-9a15ecc4912d","system_id":"levelo_inurba_marseille","lat":43.320945,"lon":5.38306,"is_reserved":false,"is_disabled":false,"rental_uris":{"android":"levelo://app?vid=97997ef7-b347-4148-ba57-9a15ecc4912d","ios":"levelo://app?vid=97997ef7-b347-4148-ba57-9a15ecc4912d"},"vehicle_type_id":"4","last_reported":1698257336,"current_range_meters":4000,"station_id":"","pricing_plan_id":"free"},{"bike_id":"b9814ad6-2683-4579-8d06-5d035827bfe2","system_id":"levelo_inurba_marseille","lat":43.305364,"lon":5.384119,"is_reserved":false,"is_disabled":false,"rental_uris":{"android":"levelo://app?vid=b9814ad6-2683-4579-8d06-5d035827bfe2","ios":"levelo://app?vid=b9814ad6-2683-4579-8d06-5d035827bfe2"},"vehicle_type_id":"4","last_reported":1698257336,"current_range_meters":24800,"station_id":"ce4bgg92rcd13ifvqb30","pricing_plan_id":"free"},{"bike_id":"719bf4ac-c5a1-4b91-a1ef-b4fcacc48bb8","system_id":"levelo_inurba_marseille","lat":43.305364,"lon":5.384119,"is_reserved":false,"is_disabled":false,"rental_uris":{"android":"levelo://app?vid=719bf4ac-c5a1-4b91-a1ef-b4fcacc48bb8","ios":"levelo://app?vid=719bf4ac-c5a1-4b91-a1ef-b4fcacc48bb8"},"vehicle_type_id":"4","last_reported":1698257336,"current_range_meters":18400,"station_id":"ce4bgg92rcd13ifvqb30","pricing_plan_id":"free"},{"bike_id":"48d8deaa-d450-4d0a-9ac1-82309e452af7","system_id":"levelo_inurba_marseille","lat":43.298433,"lon":5.362774,"is_reserved":false,"is_disabled":false,"rental_uris":{"android":"levelo://app?vid=48d8deaa-d450-4d0a-9ac1-82309e452af7","ios":"levelo://app?vid=48d8deaa-d450-4d0a-9ac1-82309e452af7"},"vehicle_type_id":"4","last_reported":1698257336,"current_range_meters":19200,"station_id":"ce4bgpp2rcd13ifvqc3g","pricing_plan_id":"free"},{"bike_id":"570e7dd9-3e2e-4b11-a9fc-5afd5d1994f2","system_id":"levelo_inurba_marseille","lat":43.311722,"lon":5.387247,"is_reserved":false,"is_disabled":false,"rental_uris":{"android":"levelo://app?vid=570e7dd9-3e2e-4b11-a9fc-5afd5d1994f2","ios":"levelo://app?vid=570e7dd9-3e2e-4b11-a9fc-5afd5d1994f2"},"vehicle_type_id":"4","last_reported":1698257336,"current_range_meters":18000,"station_id":"ce4bgv12rcd13ifvqcp0","pricing_plan_id":"free"},{"bike_id":"62483365-1b6a-47c7-a837-dfcc3d9396dd","system_id":"levelo_inurba_marseille","lat":43.311722,"lon":5.387247,"is_reserved":false,"is_disabled":false,"rental_uris":{"android":"levelo://app?vid=62483365-1b6a-47c7-a837-dfcc3d9396dd","ios":"levelo://app?vid=62483365-1b6a-47c7-a837-dfcc3d9396dd"},"vehicle_type_id":"4","last_reported":1698257336,"current_range_meters":2800,"station_id":"ce4bgv12rcd13ifvqcp0","pricing_plan_id":"free"},{"bike_id":"cc87ec70-5a61-4201-b736-45d259fbebe0","system_id":"levelo_inurba_marseille","lat":43.311722,"lon":5.387247,"is_reserved":false,"is_disabled":false,"rental_uris":{"android":"levelo://app?vid=cc87ec70-5a61-4201-b736-45d259fbebe0","ios":"levelo://app?vid=cc87ec70-5a61-4201-b736-45d259fbebe0"},"vehicle_type_id":"4","last_reported":1698257336,"current_range_meters":1200,"station_id":"ce4bgv12rcd13ifvqcp0","pricing_plan_id":"free"},{"bike_id":"af205c2c-59a6-48c7-877b-73de56a4e0e9","system_id":"levelo_inurba_marseille","lat":43.299243,"lon":5.37481,"is_reserved":false,"is_disabled":false,"rental_uris":{"android":"levelo://app?vid=af205c2c-59a6-48c7-877b-73de56a4e0e9","ios":"levelo://app?vid=af205c2c-59a6-48c7-877b-73de56a4e0e9"},"vehicle_type_id":"4","last_reported":1698257336,"current_range_meters":1600,"station_id":"ce4bgjh2rcd13ifvqbg0","pricing_plan_id":"free"},{"bike_id":"15b345b7-2a43-4b60-ad2c-caa4f123791b","system_id":"levelo_inurba_marseille","lat":43.311722,"lon":5.387247,"is_reserved":false,"is_disabled":false,"rental_uris":{"android":"levelo://app?vid=15b345b7-2a43-4b60-ad2c-caa4f123791b","ios":"levelo://app?vid=15b345b7-2a43-4b60-ad2c-caa4f123791b"},"vehicle_type_id":"4","last_reported":1698257336,"current_range_meters":15200,"station_id":"ce4bgv12rcd13ifvqcp0","pricing_plan_id":"free"},{"bike_id":"858504dd-fa00-46ba-bb65-7e47e3029a75","system_id":"levelo_inurba_marseille","lat":43.311722,"lon":5.387247,"is_reserved":false,"is_disabled":false,"rental_uris":{"android":"levelo://app?vid=858504dd-fa00-46ba-bb65-7e47e3029a75","ios":"levelo://app?vid=858504dd-fa00-46ba-bb65-7e47e3029a75"},"vehicle_type_id":"4","last_reported":1698257336,"current_range_meters":17200,"station_id":"ce4bgv12rcd13ifvqcp0","pricing_plan_id":"free"},{"bike_id":"b782c109-ed90-4c2a-af4c-dfd3eb3cad69","system_id":"levelo_inurba_marseille","lat":43.311722,"lon":5.387247,"is_reserved":false,"is_disabled":false,"rental_uris":{"android":"levelo://app?vid=b782c109-ed90-4c2a-af4c-dfd3eb3cad69","ios":"levelo://app?vid=b782c109-ed90-4c2a-af4c-dfd3eb3cad69"},"vehicle_type_id":"4","last_reported":1698257336,"current_range_meters":26400,"station_id":"ce4bgv12rcd13ifvqcp0","pricing_plan_id":"free"},{"bike_id":"56806b08-2535-4602-8504-2e3c2a295098","system_id":"levelo_inurba_marseille","lat":43.311722,"lon":5.387247,"is_reserved":false,"is_disabled":false,"rental_uris":{"android":"levelo://app?vid=56806b08-2535-4602-8504-2e3c2a295098","ios":"levelo://app?vid=56806b08-2535-4602-8504-2e3c2a295098"},"vehicle_type_id":"4","last_reported":1698257336,"current_range_meters":24800,"station_id":"ce4bgv12rcd13ifvqcp0","pricing_plan_id":"free"},{"bike_id":"437f54a0-d978-434e-8041-b4df8b9d277a","system_id":"levelo_inurba_marseille","lat":43.297774,"lon":5.370875,"is_reserved":false,"is_disabled":false,"rental_uris":{"android":"levelo://app?vid=437f54a0-d978-434e-8041-b4df8b9d277a","ios":"levelo://app?vid=437f54a0-d978-434e-8041-b4df8b9d277a"},"vehicle_type_id":"4","last_reported":1698257336,"current_range_meters":8400,"station_id":"ce4bgop2rcd13ifvqc1g","pricing_plan_id":"free"},{"bike_id":"78eb290b-0483-4560-aa91-a84e83ee8d9b","system_id":"levelo_inurba_marseille","lat":43.32821,"lon":5.36688,"is_reserved":false,"is_disabled":false,"rental_uris":{"android":"levelo://app?vid=78eb290b-0483-4560-aa91-a84e83ee8d9b","ios":"levelo://app?vid=78eb290b-0483-4560-aa91-a84e83ee8d9b"},"vehicle_type_id":"4","last_reported":1698257336,"current_range_meters":0,"station_id":"ce4bhs92rcd13ifvqi0g","pricing_plan_id":"free"},{"bike_id":"2cb55403-67fb-4dc4-a23d-ed44a0a6b4f7","system_id":"levelo_inurba_marseille","lat":43.32827,"lon":5.36679,"is_reserved":false,"is_disabled":false,"rental_uris":{"android":"levelo://app?vid=2cb55403-67fb-4dc4-a23d-ed44a0a6b4f7","ios":"levelo://app?vid=2cb55403-67fb-4dc4-a23d-ed44a0a6b4f7"},"vehicle_type_id":"4","last_reported":1698257336,"current_range_meters":0,"station_id":"","pricing_plan_id":"free"},{"bike_id":"aa003920-bca1-4250-adfa-4b1d26543f01","system_id":"levelo_inurba_marseille","lat":43.32828,"lon":5.3669,"is_reserved":false,"is_disabled":false,"rental_uris":{"android":"levelo://app?vid=aa003920-bca1-4250-adfa-4b1d26543f01","ios":"levelo://app?vid=aa003920-bca1-4250-adfa-4b1d26543f01"},"vehicle_type_id":"4","last_reported":1698257336,"current_range_meters":13600,"station_id":"ce4bhs92rcd13ifvqi0g","pricing_plan_id":"free"},{"bike_id":"2bf09692-7151-4aba-9fa7-8ce1d6106004","system_id":"levelo_inurba_marseille","lat":43.328303,"lon":5.366873,"is_reserved":false,"is_disabled":false,"rental_uris":{"android":"levelo://app?vid=2bf09692-7151-4aba-9fa7-8ce1d6106004","ios":"levelo://app?vid=2bf09692-7151-4aba-9fa7-8ce1d6106004"},"vehicle_type_id":"4","last_reported":1698257336,"current_range_meters":23600,"station_id":"","pricing_plan_id":"free"},{"bike_id":"c4762908-53e5-440c-a4e7-102ec20885e0","system_id":"levelo_inurba_marseille","lat":43.297163,"lon":5.365866,"is_reserved":false,"is_disabled":false,"rental_uris":{"android":"levelo://app?vid=c4762908-53e5-440c-a4e7-102ec20885e0","ios":"levelo://app?vid=c4762908-53e5-440c-a4e7-102ec20885e0"},"vehicle_type_id":"4","last_reported":1698257336,"current_range_meters":27200,"station_id":"ce4bgn12rcd13ifvqbt0","pricing_plan_id":"free"},{"bike_id":"d47d7d3e-b4c1-44eb-a6ba-f360d4459c52","system_id":"levelo_inurba_marseille","lat":43.298965,"lon":5.37958,"is_reserved":false,"is_disabled":false,"rental_uris":{"android":"levelo://app?vid=d47d7d3e-b4c1-44eb-a6ba-f360d4459c52","ios":"levelo://app?vid=d47d7d3e-b4c1-44eb-a6ba-f360d4459c52"},"vehicle_type_id":"4","last_reported":1698257336,"current_range_meters":20400,"station_id":"","pricing_plan_id":"free"},{"bike_id":"4ea58b58-5a06-4fd9-8b18-4912a73bbb8a","system_id":"levelo_inurba_marseille","lat":43.309589,"lon":5.390258,"is_reserved":false,"is_disabled":false,"rental_uris":{"android":"levelo://app?vid=4ea58b58-5a06-4fd9-8b18-4912a73bbb8a","ios":"levelo://app?vid=4ea58b58-5a06-4fd9-8b18-4912a73bbb8a"},"vehicle_type_id":"4","last_reported":1698257336,"current_range_meters":22800,"station_id":"ce4bgup2rcd13ifvqco0","pricing_plan_id":"free"},{"bike_id":"39ed8ad1-077d-44ff-a16e-e08e2981e37c","system_id":"levelo_inurba_marseille","lat":43.29628,"lon":5.36339,"is_reserved":false,"is_disabled":false,"rental_uris":{"android":"levelo://app?vid=39ed8ad1-077d-44ff-a16e-e08e2981e37c","ios":"levelo://app?vid=39ed8ad1-077d-44ff-a16e-e08e2981e37c"},"vehicle_type_id":"4","last_reported":1698257336,"current_range_meters":10400,"station_id":"","pricing_plan_id":"free"},{"bike_id":"81e72559-a875-44a8-ac20-cb14be191031","system_id":"levelo_inurba_marseille","lat":43.29619,"lon":5.37151,"is_reserved":false,"is_disabled":false,"rental_uris":{"android":"levelo://app?vid=81e72559-a875-44a8-ac20-cb14be191031","ios":"levelo://app?vid=81e72559-a875-44a8-ac20-cb14be191031"},"vehicle_type_id":"4","last_reported":1698257336,"current_range_meters":0,"station_id":"ce4bgk12rcd13ifvqbj0","pricing_plan_id":"free"},{"bike_id":"2e344c12-2f28-4767-b7c2-dd009d9d814d","system_id":"levelo_inurba_marseille","lat":43.296131,"lon":5.370773,"is_reserved":false,"is_disabled":false,"rental_uris":{"android":"levelo://app?vid=2e344c12-2f28-4767-b7c2-dd009d9d814d","ios":"levelo://app?vid=2e344c12-2f28-4767-b7c2-dd009d9d814d"},"vehicle_type_id":"4","last_reported":1698257336,"current_range_meters":15200,"station_id":"ce4bgnh2rcd13ifvqc0g","pricing_plan_id":"free"},{"bike_id":"a108d5d7-ce43-4f70-b7c7-b747d3996f67","system_id":"levelo_inurba_marseille","lat":43.29573,"lon":5.367355,"is_reserved":false,"is_disabled":false,"rental_uris":{"android":"levelo://app?vid=a108d5d7-ce43-4f70-b7c7-b747d3996f67","ios":"levelo://app?vid=a108d5d7-ce43-4f70-b7c7-b747d3996f67"},"vehicle_type_id":"4","last_reported":1698257336,"current_range_meters":14000,"station_id":"ce4bgph2rcd13ifvqc2g","pricing_plan_id":"free"},{"bike_id":"f3d0381f-7a2d-409e-a12f-bd3d9095653d","system_id":"levelo_inurba_marseille","lat":43.329673,"lon":5.365468,"is_reserved":false,"is_disabled":false,"rental_uris":{"android":"levelo://app?vid=f3d0381f-7a2d-409e-a12f-bd3d9095653d","ios":"levelo://app?vid=f3d0381f-7a2d-409e-a12f-bd3d9095653d"},"vehicle_type_id":"4","last_reported":1698257336,"current_range_meters":16000,"station_id":"","pricing_plan_id":"free"},{"bike_id":"8793374e-ea9c-46d0-b834-42a4ae9bd026","system_id":"levelo_inurba_marseille","lat":43.317557,"lon":5.390173,"is_reserved":false,"is_disabled":false,"rental_uris":{"android":"levelo://app?vid=8793374e-ea9c-46d0-b834-42a4ae9bd026","ios":"levelo://app?vid=8793374e-ea9c-46d0-b834-42a4ae9bd026"},"vehicle_type_id":"4","last_reported":1698257336,"current_range_meters":15600,"station_id":"ce4bhqp2rcd13ifvqhng","pricing_plan_id":"free"},{"bike_id":"159e6baa-8d6a-4ee4-a4bb-ce23e14c0e46","system_id":"levelo_inurba_marseille","lat":43.29717,"lon":5.37685,"is_reserved":false,"is_disabled":false,"rental_uris":{"android":"levelo://app?vid=159e6baa-8d6a-4ee4-a4bb-ce23e14c0e46","ios":"levelo://app?vid=159e6baa-8d6a-4ee4-a4bb-ce23e14c0e46"},"vehicle_type_id":"4","last_reported":1698257336,"current_range_meters":0,"station_id":"ce4bgkh2rcd13ifvqbl0","pricing_plan_id":"free"},{"bike_id":"ee86b139-fb7d-4fac-aadd-8928909ce17b","system_id":"levelo_inurba_marseille","lat":43.299028,"lon":5.381509,"is_reserved":false,"is_disabled":false,"rental_uris":{"android":"levelo://app?vid=ee86b139-fb7d-4fac-aadd-8928909ce17b","ios":"levelo://app?vid=ee86b139-fb7d-4fac-aadd-8928909ce17b"},"vehicle_type_id":"4","last_reported":1698257336,"current_range_meters":12000,"station_id":"ce4bgj12rcd13ifvqbc0","pricing_plan_id":"free"},{"bike_id":"8c3279b7-ffc0-45ad-9643-d1afe3d589d1","system_id":"levelo_inurba_marseille","lat":43.299028,"lon":5.381509,"is_reserved":false,"is_disabled":false,"rental_uris":{"android":"levelo://app?vid=8c3279b7-ffc0-45ad-9643-d1afe3d589d1","ios":"levelo://app?vid=8c3279b7-ffc0-45ad-9643-d1afe3d589d1"},"vehicle_type_id":"4","last_reported":1698257336,"current_range_meters":10400,"station_id":"ce4bgj12rcd13ifvqbc0","pricing_plan_id":"free"},{"bike_id":"5d4210d0-993a-49ee-97f9-36f5e19f0d05","system_id":"levelo_inurba_marseille","lat":43.309589,"lon":5.390258,"is_reserved":false,"is_disabled":false,"rental_uris":{"android":"levelo://app?vid=5d4210d0-993a-49ee-97f9-36f5e19f0d05","ios":"levelo://app?vid=5d4210d0-993a-49ee-97f9-36f5e19f0d05"},"vehicle_type_id":"4","last_reported":1698257336,"current_range_meters":18400,"station_id":"ce4bgup2rcd13ifvqco0","pricing_plan_id":"free"},{"bike_id":"4fd05cee-456d-4ce1-923f-20c8a28c1c88","system_id":"levelo_inurba_marseille","lat":43.309589,"lon":5.390258,"is_reserved":false,"is_disabled":false,"rental_uris":{"android":"levelo://app?vid=4fd05cee-456d-4ce1-923f-20c8a28c1c88","ios":"levelo://app?vid=4fd05cee-456d-4ce1-923f-20c8a28c1c88"},"vehicle_type_id":"4","last_reported":1698257336,"current_range_meters":25600,"station_id":"ce4bgup2rcd13ifvqco0","pricing_plan_id":"free"},{"bike_id":"b65c435b-4eef-44f5-a914-0add1668cecb","system_id":"levelo_inurba_marseille","lat":43.309589,"lon":5.390258,"is_reserved":false,"is_disabled":false,"rental_uris":{"android":"levelo://app?vid=b65c435b-4eef-44f5-a914-0add1668cecb","ios":"levelo://app?vid=b65c435b-4eef-44f5-a914-0add1668cecb"},"vehicle_type_id":"4","last_reported":1698257336,"current_range_meters":31200,"station_id":"ce4bgup2rcd13ifvqco0","pricing_plan_id":"free"},{"bike_id":"2a55c872-64f0-4993-a34d-bdeb1cebee28","system_id":"levelo_inurba_marseille","lat":43.309589,"lon":5.390258,"is_reserved":false,"is_disabled":false,"rental_uris":{"android":"levelo://app?vid=2a55c872-64f0-4993-a34d-bdeb1cebee28","ios":"levelo://app?vid=2a55c872-64f0-4993-a34d-bdeb1cebee28"},"vehicle_type_id":"4","last_reported":1698257336,"current_range_meters":25600,"station_id":"ce4bgup2rcd13ifvqco0","pricing_plan_id":"free"},{"bike_id":"49e51d1d-1ac1-42a7-86ec-79777a3ed379","system_id":"levelo_inurba_marseille","lat":43.309589,"lon":5.390258,"is_reserved":false,"is_disabled":false,"rental_uris":{"android":"levelo://app?vid=49e51d1d-1ac1-42a7-86ec-79777a3ed379","ios":"levelo://app?vid=49e51d1d-1ac1-42a7-86ec-79777a3ed379"},"vehicle_type_id":"4","last_reported":1698257336,"current_range_meters":1200,"station_id":"ce4bgup2rcd13ifvqco0","pricing_plan_id":"free"},{"bike_id":"bff2ae92-bdd3-47fd-adbd-024f9ebf98f9","system_id":"levelo_inurba_marseille","lat":43.309589,"lon":5.390258,"is_reserved":false,"is_disabled":false,"rental_uris":{"android":"levelo://app?vid=bff2ae92-bdd3-47fd-adbd-024f9ebf98f9","ios":"levelo://app?vid=bff2ae92-bdd3-47fd-adbd-024f9ebf98f9"},"vehicle_type_id":"4","last_reported":1698257336,"current_range_meters":800,"station_id":"ce4bgup2rcd13ifvqco0","pricing_plan_id":"free"},{"bike_id":"2b74373d-d044-46d9-aba9-44ff4f326bc0","system_id":"levelo_inurba_marseille","lat":43.31753,"lon":5.39021,"is_reserved":false,"is_disabled":false,"rental_uris":{"android":"levelo://app?vid=2b74373d-d044-46d9-aba9-44ff4f326bc0","ios":"levelo://app?vid=2b74373d-d044-46d9-aba9-44ff4f326bc0"},"vehicle_type_id":"4","last_reported":1698257336,"current_range_meters":7200,"station_id":"ce4bhqp2rcd13ifvqhng","pricing_plan_id":"free"},{"bike_id":"a15a97de-2169-4304-b98b-2438cb883486","system_id":"levelo_inurba_marseille","lat":43.298037,"lon":5.381066,"is_reserved":false,"is_disabled":false,"rental_uris":{"android":"levelo://app?vid=a15a97de-2169-4304-b98b-2438cb883486","ios":"levelo://app?vid=a15a97de-2169-4304-b98b-2438cb883486"},"vehicle_type_id":"4","last_reported":1698257336,"current_range_meters":0,"station_id":"ce4bgip2rcd13ifvqbb0","pricing_plan_id":"free"},{"bike_id":"38b823ef-3e22-4418-a849-01e93e222387","system_id":"levelo_inurba_marseille","lat":43.304278,"lon":5.388868,"is_reserved":false,"is_disabled":false,"rental_uris":{"android":"levelo://app?vid=38b823ef-3e22-4418-a849-01e93e222387","ios":"levelo://app?vid=38b823ef-3e22-4418-a849-01e93e222387"},"vehicle_type_id":"4","last_reported":1698257336,"current_range_meters":2800,"station_id":"ce4bgk12rcd13ifvqbi0","pricing_plan_id":"free"},{"bike_id":"1f403ac8-cb3b-4a47-a193-6749028f3c82","system_id":"levelo_inurba_marseille","lat":43.304278,"lon":5.388868,"is_reserved":false,"is_disabled":false,"rental_uris":{"android":"levelo://app?vid=1f403ac8-cb3b-4a47-a193-6749028f3c82","ios":"levelo://app?vid=1f403ac8-cb3b-4a47-a193-6749028f3c82"},"vehicle_type_id":"4","last_reported":1698257336,"current_range_meters":20000,"station_id":"ce4bgk12rcd13ifvqbi0","pricing_plan_id":"free"},{"bike_id":"42a91148-76d2-4706-b81c-c2a53b745d21","system_id":"levelo_inurba_marseille","lat":43.304274,"lon":5.388873,"is_reserved":false,"is_disabled":false,"rental_uris":{"android":"levelo://app?vid=42a91148-76d2-4706-b81c-c2a53b745d21","ios":"levelo://app?vid=42a91148-76d2-4706-b81c-c2a53b745d21"},"vehicle_type_id":"4","last_reported":1698257336,"current_range_meters":30400,"station_id":"ce4bgk12rcd13ifvqbi0","pricing_plan_id":"free"},{"bike_id":"c028b5e7-5e97-47b7-9784-cec80198b48c","system_id":"levelo_inurba_marseille","lat":43.29979,"lon":5.38487,"is_reserved":false,"is_disabled":false,"rental_uris":{"android":"levelo://app?vid=c028b5e7-5e97-47b7-9784-cec80198b48c","ios":"levelo://app?vid=c028b5e7-5e97-47b7-9784-cec80198b48c"},"vehicle_type_id":"4","last_reported":1698257336,"current_range_meters":11200,"station_id":"ce4bgj92rcd13ifvqbd0","pricing_plan_id":"free"},{"bike_id":"7850b15e-beba-4764-ba5f-78c7e8743247","system_id":"levelo_inurba_marseille","lat":43.299717,"lon":5.384845,"is_reserved":false,"is_disabled":false,"rental_uris":{"android":"levelo://app?vid=7850b15e-beba-4764-ba5f-78c7e8743247","ios":"levelo://app?vid=7850b15e-beba-4764-ba5f-78c7e8743247"},"vehicle_type_id":"4","last_reported":1698257336,"current_range_meters":13600,"station_id":"ce4bgj92rcd13ifvqbd0","pricing_plan_id":"free"},{"bike_id":"50ba0a4e-dc52-4b36-bbea-ef74378b458b","system_id":"levelo_inurba_marseille","lat":43.29698,"lon":5.3812,"is_reserved":false,"is_disabled":false,"rental_uris":{"android":"levelo://app?vid=50ba0a4e-dc52-4b36-bbea-ef74378b458b","ios":"levelo://app?vid=50ba0a4e-dc52-4b36-bbea-ef74378b458b"},"vehicle_type_id":"4","last_reported":1698257336,"current_range_meters":5200,"station_id":"","pricing_plan_id":"free"},{"bike_id":"04f425c5-32a9-4e5a-b9d4-badd65ba6db0","system_id":"levelo_inurba_marseille","lat":43.299717,"lon":5.384845,"is_reserved":false,"is_disabled":false,"rental_uris":{"android":"levelo://app?vid=04f425c5-32a9-4e5a-b9d4-badd65ba6db0","ios":"levelo://app?vid=04f425c5-32a9-4e5a-b9d4-badd65ba6db0"},"vehicle_type_id":"4","last_reported":1698257336,"current_range_meters":4800,"station_id":"ce4bgj92rcd13ifvqbd0","pricing_plan_id":"free"},{"bike_id":"6b6ceb7e-3052-4745-b30b-47c38799903c","system_id":"levelo_inurba_marseille","lat":43.32367,"lon":5.388836,"is_reserved":false,"is_disabled":false,"rental_uris":{"android":"levelo://app?vid=6b6ceb7e-3052-4745-b30b-47c38799903c","ios":"levelo://app?vid=6b6ceb7e-3052-4745-b30b-47c38799903c"},"vehicle_type_id":"4","last_reported":1698257336,"current_range_meters":2000,"station_id":"ce4bhqp2rcd13ifvqhog","pricing_plan_id":"free"},{"bike_id":"b62e277f-91bf-4fc9-9a9b-745dcba18968","system_id":"levelo_inurba_marseille","lat":43.32367,"lon":5.388836,"is_reserved":false,"is_disabled":false,"rental_uris":{"android":"levelo://app?vid=b62e277f-91bf-4fc9-9a9b-745dcba18968","ios":"levelo://app?vid=b62e277f-91bf-4fc9-9a9b-745dcba18968"},"vehicle_type_id":"4","last_reported":1698257336,"current_range_meters":3600,"station_id":"ce4bhqp2rcd13ifvqhog","pricing_plan_id":"free"},{"bike_id":"12c3846f-ee79-4b33-8cb8-b0efd33f99b4","system_id":"levelo_inurba_marseille","lat":43.32367,"lon":5.388836,"is_reserved":false,"is_disabled":false,"rental_uris":{"android":"levelo://app?vid=12c3846f-ee79-4b33-8cb8-b0efd33f99b4","ios":"levelo://app?vid=12c3846f-ee79-4b33-8cb8-b0efd33f99b4"},"vehicle_type_id":"4","last_reported":1698257336,"current_range_meters":8400,"station_id":"ce4bhqp2rcd13ifvqhog","pricing_plan_id":"free"},{"bike_id":"56f25917-9d88-476d-a60d-dac2ff0f725d","system_id":"levelo_inurba_marseille","lat":43.323504,"lon":5.389344,"is_reserved":false,"is_disabled":false,"rental_uris":{"android":"levelo://app?vid=56f25917-9d88-476d-a60d-dac2ff0f725d","ios":"levelo://app?vid=56f25917-9d88-476d-a60d-dac2ff0f725d"},"vehicle_type_id":"4","last_reported":1698257336,"current_range_meters":1200,"station_id":"ce4bhqp2rcd13ifvqhog","pricing_plan_id":"free"},{"bike_id":"bb82c854-6356-48f0-bcf0-c0437b5cd142","system_id":"levelo_inurba_marseille","lat":43.30228,"lon":5.39033,"is_reserved":false,"is_disabled":false,"rental_uris":{"android":"levelo://app?vid=bb82c854-6356-48f0-bcf0-c0437b5cd142","ios":"levelo://app?vid=bb82c854-6356-48f0-bcf0-c0437b5cd142"},"vehicle_type_id":"4","last_reported":1698257336,"current_range_meters":30400,"station_id":"","pricing_plan_id":"free"},{"bike_id":"b6607501-ff87-42e0-b790-377a91e1f869","system_id":"levelo_inurba_marseille","lat":43.29276,"lon":5.36847,"is_reserved":false,"is_disabled":false,"rental_uris":{"android":"levelo://app?vid=b6607501-ff87-42e0-b790-377a91e1f869","ios":"levelo://app?vid=b6607501-ff87-42e0-b790-377a91e1f869"},"vehicle_type_id":"4","last_reported":1698257336,"current_range_meters":11600,"station_id":"ce4bhbp2rcd13ifvqesg","pricing_plan_id":"free"},{"bike_id":"bbab7e28-ee01-4080-b12e-dd8baccd43d0","system_id":"levelo_inurba_marseille","lat":43.32394,"lon":5.389747,"is_reserved":false,"is_disabled":false,"rental_uris":{"android":"levelo://app?vid=bbab7e28-ee01-4080-b12e-dd8baccd43d0","ios":"levelo://app?vid=bbab7e28-ee01-4080-b12e-dd8baccd43d0"},"vehicle_type_id":"4","last_reported":1698257336,"current_range_meters":20000,"station_id":"","pricing_plan_id":"free"},{"bike_id":"4c44e3f4-f2c7-4bd0-94b6-5dc9baf1e391","system_id":"levelo_inurba_marseille","lat":43.292929,"lon":5.371462,"is_reserved":false,"is_disabled":false,"rental_uris":{"android":"levelo://app?vid=4c44e3f4-f2c7-4bd0-94b6-5dc9baf1e391","ios":"levelo://app?vid=4c44e3f4-f2c7-4bd0-94b6-5dc9baf1e391"},"vehicle_type_id":"4","last_reported":1698257336,"current_range_meters":27200,"station_id":"ce4bgh92rcd13ifvqb40","pricing_plan_id":"free"},{"bike_id":"52b1a672-cd03-4927-a7b7-f95497fcfc85","system_id":"levelo_inurba_marseille","lat":43.293009,"lon":5.374584,"is_reserved":false,"is_disabled":false,"rental_uris":{"android":"levelo://app?vid=52b1a672-cd03-4927-a7b7-f95497fcfc85","ios":"levelo://app?vid=52b1a672-cd03-4927-a7b7-f95497fcfc85"},"vehicle_type_id":"4","last_reported":1698257336,"current_range_meters":0,"station_id":"ce4bgi12rcd13ifvqb70","pricing_plan_id":"free"},{"bike_id":"0f037537-0c80-4b21-810e-e7b12aec01df","system_id":"levelo_inurba_marseille","lat":43.302992,"lon":5.392136,"is_reserved":false,"is_disabled":false,"rental_uris":{"android":"levelo://app?vid=0f037537-0c80-4b21-810e-e7b12aec01df","ios":"levelo://app?vid=0f037537-0c80-4b21-810e-e7b12aec01df"},"vehicle_type_id":"4","last_reported":1698257336,"current_range_meters":11200,"station_id":"ce4bgkh2rcd13ifvqbk0","pricing_plan_id":"free"},{"bike_id":"9eea4c2d-703d-4851-84b9-e4ca6af1bc57","system_id":"levelo_inurba_marseille","lat":43.300852,"lon":5.390859,"is_reserved":false,"is_disabled":false,"rental_uris":{"android":"levelo://app?vid=9eea4c2d-703d-4851-84b9-e4ca6af1bc57","ios":"levelo://app?vid=9eea4c2d-703d-4851-84b9-e4ca6af1bc57"},"vehicle_type_id":"4","last_reported":1698257336,"current_range_meters":21600,"station_id":"ce4bh192rcd13ifvqdb0","pricing_plan_id":"free"},{"bike_id":"032ac3c2-2c58-4c1b-abe7-110e588f1953","system_id":"levelo_inurba_marseille","lat":43.30085,"lon":5.390856,"is_reserved":false,"is_disabled":false,"rental_uris":{"android":"levelo://app?vid=032ac3c2-2c58-4c1b-abe7-110e588f1953","ios":"levelo://app?vid=032ac3c2-2c58-4c1b-abe7-110e588f1953"},"vehicle_type_id":"4","last_reported":1698257336,"current_range_meters":1600,"station_id":"ce4bh192rcd13ifvqdb0","pricing_plan_id":"free"},{"bike_id":"cd82a7da-05cb-404f-9774-2fcc8c0384bc","system_id":"levelo_inurba_marseille","lat":43.30085,"lon":5.390856,"is_reserved":false,"is_disabled":false,"rental_uris":{"android":"levelo://app?vid=cd82a7da-05cb-404f-9774-2fcc8c0384bc","ios":"levelo://app?vid=cd82a7da-05cb-404f-9774-2fcc8c0384bc"},"vehicle_type_id":"4","last_reported":1698257336,"current_range_meters":22400,"station_id":"ce4bh192rcd13ifvqdb0","pricing_plan_id":"free"},{"bike_id":"abbe98f6-813d-4b81-a6fe-12b66c37e753","system_id":"levelo_inurba_marseille","lat":43.29276,"lon":5.376506,"is_reserved":false,"is_disabled":false,"rental_uris":{"android":"levelo://app?vid=abbe98f6-813d-4b81-a6fe-12b66c37e753","ios":"levelo://app?vid=abbe98f6-813d-4b81-a6fe-12b66c37e753"},"vehicle_type_id":"4","last_reported":1698257336,"current_range_meters":0,"station_id":"ce4bgi12rcd13ifvqb80","pricing_plan_id":"free"},{"bike_id":"1445a81a-3e46-4062-8515-2d4c81d02683","system_id":"levelo_inurba_marseille","lat":43.291675,"lon":5.371583,"is_reserved":false,"is_disabled":false,"rental_uris":{"android":"levelo://app?vid=1445a81a-3e46-4062-8515-2d4c81d02683","ios":"levelo://app?vid=1445a81a-3e46-4062-8515-2d4c81d02683"},"vehicle_type_id":"4","last_reported":1698257336,"current_range_meters":24000,"station_id":"ce4bha92rcd13ifvqeh0","pricing_plan_id":"free"},{"bike_id":"a80eef99-d379-4ca6-94ba-07a0f0a074cc","system_id":"levelo_inurba_marseille","lat":43.291671,"lon":5.371575,"is_reserved":false,"is_disabled":false,"rental_uris":{"android":"levelo://app?vid=a80eef99-d379-4ca6-94ba-07a0f0a074cc","ios":"levelo://app?vid=a80eef99-d379-4ca6-94ba-07a0f0a074cc"},"vehicle_type_id":"4","last_reported":1698257336,"current_range_meters":12000,"station_id":"ce4bha92rcd13ifvqeh0","pricing_plan_id":"free"},{"bike_id":"f43f5088-5c71-490e-9a9d-662a7404e486","system_id":"levelo_inurba_marseille","lat":43.309038,"lon":5.396546,"is_reserved":false,"is_disabled":false,"rental_uris":{"android":"levelo://app?vid=f43f5088-5c71-490e-9a9d-662a7404e486","ios":"levelo://app?vid=f43f5088-5c71-490e-9a9d-662a7404e486"},"vehicle_type_id":"4","last_reported":1698257336,"current_range_meters":28000,"station_id":"ce4bh012rcd13ifvqcv0","pricing_plan_id":"free"},{"bike_id":"d0c9042b-da2b-4b45-a531-d0cac7b9f634","system_id":"levelo_inurba_marseille","lat":43.313291,"lon":5.396838,"is_reserved":false,"is_disabled":false,"rental_uris":{"android":"levelo://app?vid=d0c9042b-da2b-4b45-a531-d0cac7b9f634","ios":"levelo://app?vid=d0c9042b-da2b-4b45-a531-d0cac7b9f634"},"vehicle_type_id":"4","last_reported":1698257336,"current_range_meters":15600,"station_id":"ce4bgvp2rcd13ifvqcu0","pricing_plan_id":"free"},{"bike_id":"b438b176-6294-4a67-880f-9ff62e67df6e","system_id":"levelo_inurba_marseille","lat":43.313291,"lon":5.396838,"is_reserved":false,"is_disabled":false,"rental_uris":{"android":"levelo://app?vid=b438b176-6294-4a67-880f-9ff62e67df6e","ios":"levelo://app?vid=b438b176-6294-4a67-880f-9ff62e67df6e"},"vehicle_type_id":"4","last_reported":1698257336,"current_range_meters":7200,"station_id":"ce4bgvp2rcd13ifvqcu0","pricing_plan_id":"free"},{"bike_id":"407c4a2d-5c42-4c61-bc3c-9bdaf35e99e4","system_id":"levelo_inurba_marseille","lat":43.313307,"lon":5.396923,"is_reserved":false,"is_disabled":false,"rental_uris":{"android":"levelo://app?vid=407c4a2d-5c42-4c61-bc3c-9bdaf35e99e4","ios":"levelo://app?vid=407c4a2d-5c42-4c61-bc3c-9bdaf35e99e4"},"vehicle_type_id":"4","last_reported":1698257336,"current_range_meters":12400,"station_id":"ce4bgih2rcd13ifvqba0","pricing_plan_id":"free"},{"bike_id":"65ce0417-34d1-4c1a-b95c-188874ee33b0","system_id":"levelo_inurba_marseille","lat":43.313291,"lon":5.396838,"is_reserved":false,"is_disabled":false,"rental_uris":{"android":"levelo://app?vid=65ce0417-34d1-4c1a-b95c-188874ee33b0","ios":"levelo://app?vid=65ce0417-34d1-4c1a-b95c-188874ee33b0"},"vehicle_type_id":"4","last_reported":1698257336,"current_range_meters":2400,"station_id":"ce4bgvp2rcd13ifvqcu0","pricing_plan_id":"free"},{"bike_id":"28cf4c43-e7e6-4711-b892-36ab63deaf4b","system_id":"levelo_inurba_marseille","lat":43.31328,"lon":5.39694,"is_reserved":false,"is_disabled":false,"rental_uris":{"android":"levelo://app?vid=28cf4c43-e7e6-4711-b892-36ab63deaf4b","ios":"levelo://app?vid=28cf4c43-e7e6-4711-b892-36ab63deaf4b"},"vehicle_type_id":"4","last_reported":1698257336,"current_range_meters":0,"station_id":"ce4bgvp2rcd13ifvqcu0","pricing_plan_id":"free"},{"bike_id":"e1112dcd-6c21-46aa-a334-d8e15d7344d3","system_id":"levelo_inurba_marseille","lat":43.31333,"lon":5.39694,"is_reserved":false,"is_disabled":false,"rental_uris":{"android":"levelo://app?vid=e1112dcd-6c21-46aa-a334-d8e15d7344d3","ios":"levelo://app?vid=e1112dcd-6c21-46aa-a334-d8e15d7344d3"},"vehicle_type_id":"4","last_reported":1698257336,"current_range_meters":6400,"station_id":"ce4bgvp2rcd13ifvqcu0","pricing_plan_id":"free"},{"bike_id":"73966358-a242-4124-8c76-1855faaeb319","system_id":"levelo_inurba_marseille","lat":43.313291,"lon":5.396838,"is_reserved":false,"is_disabled":false,"rental_uris":{"android":"levelo://app?vid=73966358-a242-4124-8c76-1855faaeb319","ios":"levelo://app?vid=73966358-a242-4124-8c76-1855faaeb319"},"vehicle_type_id":"4","last_reported":1698257336,"current_range_meters":800,"station_id":"ce4bgvp2rcd13ifvqcu0","pricing_plan_id":"free"},{"bike_id":"479dc7f6-f166-44b5-ac36-fb75d1b687a5","system_id":"levelo_inurba_marseille","lat":43.309038,"lon":5.396546,"is_reserved":false,"is_disabled":false,"rental_uris":{"android":"levelo://app?vid=479dc7f6-f166-44b5-ac36-fb75d1b687a5","ios":"levelo://app?vid=479dc7f6-f166-44b5-ac36-fb75d1b687a5"},"vehicle_type_id":"4","last_reported":1698257336,"current_range_meters":16400,"station_id":"ce4bh012rcd13ifvqcv0","pricing_plan_id":"free"},{"bike_id":"2b190bad-89ed-4a20-8a86-3d5766bf4a7d","system_id":"levelo_inurba_marseille","lat":43.313291,"lon":5.396838,"is_reserved":false,"is_disabled":false,"rental_uris":{"android":"levelo://app?vid=2b190bad-89ed-4a20-8a86-3d5766bf4a7d","ios":"levelo://app?vid=2b190bad-89ed-4a20-8a86-3d5766bf4a7d"},"vehicle_type_id":"4","last_reported":1698257336,"current_range_meters":11200,"station_id":"ce4bgvp2rcd13ifvqcu0","pricing_plan_id":"free"},{"bike_id":"313a4726-23b1-48ce-a631-3463fc532e03","system_id":"levelo_inurba_marseille","lat":43.29522,"lon":5.38544,"is_reserved":false,"is_disabled":false,"rental_uris":{"android":"levelo://app?vid=313a4726-23b1-48ce-a631-3463fc532e03","ios":"levelo://app?vid=313a4726-23b1-48ce-a631-3463fc532e03"},"vehicle_type_id":"4","last_reported":1698257336,"current_range_meters":12800,"station_id":"ce4bgih2rcd13ifvqba0","pricing_plan_id":"free"},{"bike_id":"56b4b239-4ad6-4e77-9515-1471d8013e9b","system_id":"levelo_inurba_marseille","lat":43.29529,"lon":5.385581,"is_reserved":false,"is_disabled":false,"rental_uris":{"android":"levelo://app?vid=56b4b239-4ad6-4e77-9515-1471d8013e9b","ios":"levelo://app?vid=56b4b239-4ad6-4e77-9515-1471d8013e9b"},"vehicle_type_id":"4","last_reported":1698257336,"current_range_meters":31600,"station_id":"ce4bgih2rcd13ifvqba0","pricing_plan_id":"free"},{"bike_id":"126d4670-e812-40c6-9f2a-535ee2ec9a6b","system_id":"levelo_inurba_marseille","lat":43.33219,"lon":5.38149,"is_reserved":false,"is_disabled":false,"rental_uris":{"android":"levelo://app?vid=126d4670-e812-40c6-9f2a-535ee2ec9a6b","ios":"levelo://app?vid=126d4670-e812-40c6-9f2a-535ee2ec9a6b"},"vehicle_type_id":"4","last_reported":1698257336,"current_range_meters":6400,"station_id":"","pricing_plan_id":"free"},{"bike_id":"1bd0d01b-9a19-4743-9e04-9974a2882d1d","system_id":"levelo_inurba_marseille","lat":43.302008,"lon":5.394694,"is_reserved":false,"is_disabled":false,"rental_uris":{"android":"levelo://app?vid=1bd0d01b-9a19-4743-9e04-9974a2882d1d","ios":"levelo://app?vid=1bd0d01b-9a19-4743-9e04-9974a2882d1d"},"vehicle_type_id":"4","last_reported":1698257336,"current_range_meters":26000,"station_id":"ce4bh0p2rcd13ifvqd70","pricing_plan_id":"free"},{"bike_id":"77ef66fa-1d50-42d8-a40d-5f12f055473c","system_id":"levelo_inurba_marseille","lat":43.302008,"lon":5.394694,"is_reserved":false,"is_disabled":false,"rental_uris":{"android":"levelo://app?vid=77ef66fa-1d50-42d8-a40d-5f12f055473c","ios":"levelo://app?vid=77ef66fa-1d50-42d8-a40d-5f12f055473c"},"vehicle_type_id":"4","last_reported":1698257336,"current_range_meters":12000,"station_id":"ce4bh0p2rcd13ifvqd70","pricing_plan_id":"free"},{"bike_id":"d445e7dc-8f39-4198-8d15-1838ad42556e","system_id":"levelo_inurba_marseille","lat":43.30213,"lon":5.39468,"is_reserved":false,"is_disabled":false,"rental_uris":{"android":"levelo://app?vid=d445e7dc-8f39-4198-8d15-1838ad42556e","ios":"levelo://app?vid=d445e7dc-8f39-4198-8d15-1838ad42556e"},"vehicle_type_id":"4","last_reported":1698257336,"current_range_meters":13600,"station_id":"ce4bh0p2rcd13ifvqd70","pricing_plan_id":"free"},{"bike_id":"7e922ce3-963d-4401-b580-d580d97bc16e","system_id":"levelo_inurba_marseille","lat":43.302008,"lon":5.394694,"is_reserved":false,"is_disabled":false,"rental_uris":{"android":"levelo://app?vid=7e922ce3-963d-4401-b580-d580d97bc16e","ios":"levelo://app?vid=7e922ce3-963d-4401-b580-d580d97bc16e"},"vehicle_type_id":"4","last_reported":1698257336,"current_range_meters":16000,"station_id":"ce4bh0p2rcd13ifvqd70","pricing_plan_id":"free"},{"bike_id":"3ba9337c-3a4c-4b79-bb22-9c08f678ee27","system_id":"levelo_inurba_marseille","lat":43.3339,"lon":5.37907,"is_reserved":false,"is_disabled":false,"rental_uris":{"android":"levelo://app?vid=3ba9337c-3a4c-4b79-bb22-9c08f678ee27","ios":"levelo://app?vid=3ba9337c-3a4c-4b79-bb22-9c08f678ee27"},"vehicle_type_id":"4","last_reported":1698257336,"current_range_meters":25600,"station_id":"","pricing_plan_id":"free"},{"bike_id":"d07b803e-3ae3-4bc0-ae1f-59d4294e12ba","system_id":"levelo_inurba_marseille","lat":43.290631,"lon":5.359244,"is_reserved":false,"is_disabled":false,"rental_uris":{"android":"levelo://app?vid=d07b803e-3ae3-4bc0-ae1f-59d4294e12ba","ios":"levelo://app?vid=d07b803e-3ae3-4bc0-ae1f-59d4294e12ba"},"vehicle_type_id":"4","last_reported":1698257336,"current_range_meters":0,"station_id":"ce4bha92rcd13ifvqeg0","pricing_plan_id":"free"},{"bike_id":"90b7b5b1-c119-4146-b4cc-da2f1fa344c3","system_id":"levelo_inurba_marseille","lat":43.294162,"lon":5.386292,"is_reserved":false,"is_disabled":false,"rental_uris":{"android":"levelo://app?vid=90b7b5b1-c119-4146-b4cc-da2f1fa344c3","ios":"levelo://app?vid=90b7b5b1-c119-4146-b4cc-da2f1fa344c3"},"vehicle_type_id":"4","last_reported":1698257336,"current_range_meters":4400,"station_id":"ce4bh2h2rcd13ifvqdh0","pricing_plan_id":"free"},{"bike_id":"789dadb2-ac3f-4b34-87e2-8503b350c982","system_id":"levelo_inurba_marseille","lat":43.290327,"lon":5.375711,"is_reserved":false,"is_disabled":false,"rental_uris":{"android":"levelo://app?vid=789dadb2-ac3f-4b34-87e2-8503b350c982","ios":"levelo://app?vid=789dadb2-ac3f-4b34-87e2-8503b350c982"},"vehicle_type_id":"4","last_reported":1698257336,"current_range_meters":28400,"station_id":"ce4bh692rcd13ifvqe90","pricing_plan_id":"free"},{"bike_id":"36105261-4eaf-4e42-8ff5-e9aa7b577acd","system_id":"levelo_inurba_marseille","lat":43.29418,"lon":5.38633,"is_reserved":false,"is_disabled":false,"rental_uris":{"android":"levelo://app?vid=36105261-4eaf-4e42-8ff5-e9aa7b577acd","ios":"levelo://app?vid=36105261-4eaf-4e42-8ff5-e9aa7b577acd"},"vehicle_type_id":"4","last_reported":1698257336,"current_range_meters":4800,"station_id":"ce4bh2h2rcd13ifvqdh0","pricing_plan_id":"free"},{"bike_id":"e298fe62-5aaf-48d7-b422-0c243334bf24","system_id":"levelo_inurba_marseille","lat":43.289184,"lon":5.366408,"is_reserved":false,"is_disabled":false,"rental_uris":{"android":"levelo://app?vid=e298fe62-5aaf-48d7-b422-0c243334bf24","ios":"levelo://app?vid=e298fe62-5aaf-48d7-b422-0c243334bf24"},"vehicle_type_id":"4","last_reported":1698257336,"current_range_meters":18000,"station_id":"ce4bhap2rcd13ifvqek0","pricing_plan_id":"free"},{"bike_id":"5880ccfd-fed2-4dd2-84b2-87ea2165a6fa","system_id":"levelo_inurba_marseille","lat":43.289184,"lon":5.366408,"is_reserved":false,"is_disabled":false,"rental_uris":{"android":"levelo://app?vid=5880ccfd-fed2-4dd2-84b2-87ea2165a6fa","ios":"levelo://app?vid=5880ccfd-fed2-4dd2-84b2-87ea2165a6fa"},"vehicle_type_id":"4","last_reported":1698257336,"current_range_meters":13200,"station_id":"ce4bhap2rcd13ifvqek0","pricing_plan_id":"free"},{"bike_id":"fe5efd16-c379-4903-8bf0-c368b271b5ba","system_id":"levelo_inurba_marseille","lat":43.289184,"lon":5.366408,"is_reserved":false,"is_disabled":false,"rental_uris":{"android":"levelo://app?vid=fe5efd16-c379-4903-8bf0-c368b271b5ba","ios":"levelo://app?vid=fe5efd16-c379-4903-8bf0-c368b271b5ba"},"vehicle_type_id":"4","last_reported":1698257336,"current_range_meters":0,"station_id":"ce4bhap2rcd13ifvqek0","pricing_plan_id":"free"},{"bike_id":"a08867c0-2da8-4688-af52-03d7441c9f0f","system_id":"levelo_inurba_marseille","lat":43.289468,"lon":5.363719,"is_reserved":false,"is_disabled":false,"rental_uris":{"android":"levelo://app?vid=a08867c0-2da8-4688-af52-03d7441c9f0f","ios":"levelo://app?vid=a08867c0-2da8-4688-af52-03d7441c9f0f"},"vehicle_type_id":"4","last_reported":1698257336,"current_range_meters":10400,"station_id":"ce4bhc92rcd13ifvqetg","pricing_plan_id":"free"},{"bike_id":"9074efd1-6773-4a8a-a7b3-583166cc6300","system_id":"levelo_inurba_marseille","lat":43.289468,"lon":5.363719,"is_reserved":false,"is_disabled":false,"rental_uris":{"android":"levelo://app?vid=9074efd1-6773-4a8a-a7b3-583166cc6300","ios":"levelo://app?vid=9074efd1-6773-4a8a-a7b3-583166cc6300"},"vehicle_type_id":"4","last_reported":1698257336,"current_range_meters":20800,"station_id":"ce4bhc92rcd13ifvqetg","pricing_plan_id":"free"},{"bike_id":"b21b783f-fd2f-4d59-b154-a7fb88977982","system_id":"levelo_inurba_marseille","lat":43.289468,"lon":5.363719,"is_reserved":false,"is_disabled":false,"rental_uris":{"android":"levelo://app?vid=b21b783f-fd2f-4d59-b154-a7fb88977982","ios":"levelo://app?vid=b21b783f-fd2f-4d59-b154-a7fb88977982"},"vehicle_type_id":"4","last_reported":1698257336,"current_range_meters":14800,"station_id":"ce4bhc92rcd13ifvqetg","pricing_plan_id":"free"},{"bike_id":"407c642f-b604-4f4d-ba1c-366273be4765","system_id":"levelo_inurba_marseille","lat":43.289468,"lon":5.363719,"is_reserved":false,"is_disabled":false,"rental_uris":{"android":"levelo://app?vid=407c642f-b604-4f4d-ba1c-366273be4765","ios":"levelo://app?vid=407c642f-b604-4f4d-ba1c-366273be4765"},"vehicle_type_id":"4","last_reported":1698257336,"current_range_meters":19600,"station_id":"ce4bhc92rcd13ifvqetg","pricing_plan_id":"free"},{"bike_id":"f2ee2ad9-7ea6-4af4-8d9e-49eb7ab687c6","system_id":"levelo_inurba_marseille","lat":43.289468,"lon":5.363719,"is_reserved":false,"is_disabled":false,"rental_uris":{"android":"levelo://app?vid=f2ee2ad9-7ea6-4af4-8d9e-49eb7ab687c6","ios":"levelo://app?vid=f2ee2ad9-7ea6-4af4-8d9e-49eb7ab687c6"},"vehicle_type_id":"4","last_reported":1698257336,"current_range_meters":12400,"station_id":"ce4bhc92rcd13ifvqetg","pricing_plan_id":"free"},{"bike_id":"55c3dcff-db6a-4580-aeee-aafe045ed588","system_id":"levelo_inurba_marseille","lat":43.292644,"lon":5.384257,"is_reserved":false,"is_disabled":false,"rental_uris":{"android":"levelo://app?vid=55c3dcff-db6a-4580-aeee-aafe045ed588","ios":"levelo://app?vid=55c3dcff-db6a-4580-aeee-aafe045ed588"},"vehicle_type_id":"4","last_reported":1698257336,"current_range_meters":4000,"station_id":"ce4bh692rcd13ifvqea0","pricing_plan_id":"free"},{"bike_id":"17d062c3-4fbd-48f6-ab16-eea3bc2d4e02","system_id":"levelo_inurba_marseille","lat":43.29268,"lon":5.3844,"is_reserved":false,"is_disabled":false,"rental_uris":{"android":"levelo://app?vid=17d062c3-4fbd-48f6-ab16-eea3bc2d4e02","ios":"levelo://app?vid=17d062c3-4fbd-48f6-ab16-eea3bc2d4e02"},"vehicle_type_id":"4","last_reported":1698257336,"current_range_meters":1200,"station_id":"ce4bh692rcd13ifvqea0","pricing_plan_id":"free"},{"bike_id":"d36853fb-5a36-4d77-85b0-f221893c5388","system_id":"levelo_inurba_marseille","lat":43.29266,"lon":5.38436,"is_reserved":false,"is_disabled":false,"rental_uris":{"android":"levelo://app?vid=d36853fb-5a36-4d77-85b0-f221893c5388","ios":"levelo://app?vid=d36853fb-5a36-4d77-85b0-f221893c5388"},"vehicle_type_id":"4","last_reported":1698257336,"current_range_meters":0,"station_id":"ce4bh692rcd13ifvqea0","pricing_plan_id":"free"},{"bike_id":"b80b0164-ae0d-42a1-9032-4e18bea364d7","system_id":"levelo_inurba_marseille","lat":43.304296,"lon":5.397513,"is_reserved":false,"is_disabled":false,"rental_uris":{"android":"levelo://app?vid=b80b0164-ae0d-42a1-9032-4e18bea364d7","ios":"levelo://app?vid=b80b0164-ae0d-42a1-9032-4e18bea364d7"},"vehicle_type_id":"4","last_reported":1698257336,"current_range_meters":6000,"station_id":"ce4bh092rcd13ifvqd20","pricing_plan_id":"free"},{"bike_id":"3a746b48-83a7-4333-a455-baea43792305","system_id":"levelo_inurba_marseille","lat":43.29263,"lon":5.38432,"is_reserved":false,"is_disabled":false,"rental_uris":{"android":"levelo://app?vid=3a746b48-83a7-4333-a455-baea43792305","ios":"levelo://app?vid=3a746b48-83a7-4333-a455-baea43792305"},"vehicle_type_id":"4","last_reported":1698257336,"current_range_meters":5600,"station_id":"ce4bh692rcd13ifvqea0","pricing_plan_id":"free"},{"bike_id":"8d6752f1-6858-4a0a-967e-acc523e3f5cc","system_id":"levelo_inurba_marseille","lat":43.29264,"lon":5.38436,"is_reserved":false,"is_disabled":false,"rental_uris":{"android":"levelo://app?vid=8d6752f1-6858-4a0a-967e-acc523e3f5cc","ios":"levelo://app?vid=8d6752f1-6858-4a0a-967e-acc523e3f5cc"},"vehicle_type_id":"4","last_reported":1698257336,"current_range_meters":11600,"station_id":"ce4bh692rcd13ifvqea0","pricing_plan_id":"free"},{"bike_id":"81729b5d-13d7-4c69-b4ac-b757421a0fbb","system_id":"levelo_inurba_marseille","lat":43.304274,"lon":5.397513,"is_reserved":false,"is_disabled":false,"rental_uris":{"android":"levelo://app?vid=81729b5d-13d7-4c69-b4ac-b757421a0fbb","ios":"levelo://app?vid=81729b5d-13d7-4c69-b4ac-b757421a0fbb"},"vehicle_type_id":"4","last_reported":1698257336,"current_range_meters":5600,"station_id":"ce4bh092rcd13ifvqd20","pricing_plan_id":"free"},{"bike_id":"8602286e-dcc0-400a-a125-9c066a4d6474","system_id":"levelo_inurba_marseille","lat":43.292644,"lon":5.384257,"is_reserved":false,"is_disabled":false,"rental_uris":{"android":"levelo://app?vid=8602286e-dcc0-400a-a125-9c066a4d6474","ios":"levelo://app?vid=8602286e-dcc0-400a-a125-9c066a4d6474"},"vehicle_type_id":"4","last_reported":1698257336,"current_range_meters":24000,"station_id":"ce4bh692rcd13ifvqea0","pricing_plan_id":"free"},{"bike_id":"00a7b980-21f5-4b85-920f-58f25dcb19ee","system_id":"levelo_inurba_marseille","lat":43.292657,"lon":5.384543,"is_reserved":false,"is_disabled":false,"rental_uris":{"android":"levelo://app?vid=00a7b980-21f5-4b85-920f-58f25dcb19ee","ios":"levelo://app?vid=00a7b980-21f5-4b85-920f-58f25dcb19ee"},"vehicle_type_id":"4","last_reported":1698257336,"current_range_meters":0,"station_id":"ce4bh692rcd13ifvqea0","pricing_plan_id":"free"},{"bike_id":"1f5ba7a6-1202-4d91-b6a1-ff6391cab196","system_id":"levelo_inurba_marseille","lat":43.290103,"lon":5.356114,"is_reserved":false,"is_disabled":false,"rental_uris":{"android":"levelo://app?vid=1f5ba7a6-1202-4d91-b6a1-ff6391cab196","ios":"levelo://app?vid=1f5ba7a6-1202-4d91-b6a1-ff6391cab196"},"vehicle_type_id":"4","last_reported":1698257336,"current_range_meters":20800,"station_id":"ce4bhb92rcd13ifvqen0","pricing_plan_id":"free"},{"bike_id":"9b5c6371-8e23-4d23-a9c1-d5c6f28924b5","system_id":"levelo_inurba_marseille","lat":43.330442,"lon":5.389148,"is_reserved":false,"is_disabled":false,"rental_uris":{"android":"levelo://app?vid=9b5c6371-8e23-4d23-a9c1-d5c6f28924b5","ios":"levelo://app?vid=9b5c6371-8e23-4d23-a9c1-d5c6f28924b5"},"vehicle_type_id":"4","last_reported":1698257336,"current_range_meters":6800,"station_id":"ce4bhr92rcd13ifvqhrg","pricing_plan_id":"free"},{"bike_id":"09f3b5bc-5a59-49ae-8378-af30dac36712","system_id":"levelo_inurba_marseille","lat":43.330442,"lon":5.389148,"is_reserved":false,"is_disabled":false,"rental_uris":{"android":"levelo://app?vid=09f3b5bc-5a59-49ae-8378-af30dac36712","ios":"levelo://app?vid=09f3b5bc-5a59-49ae-8378-af30dac36712"},"vehicle_type_id":"4","last_reported":1698257336,"current_range_meters":18400,"station_id":"ce4bhr92rcd13ifvqhrg","pricing_plan_id":"free"},{"bike_id":"ea76f2b3-fcc9-438f-ac4a-fbf9b3fbada6","system_id":"levelo_inurba_marseille","lat":43.290104,"lon":5.356111,"is_reserved":false,"is_disabled":false,"rental_uris":{"android":"levelo://app?vid=ea76f2b3-fcc9-438f-ac4a-fbf9b3fbada6","ios":"levelo://app?vid=ea76f2b3-fcc9-438f-ac4a-fbf9b3fbada6"},"vehicle_type_id":"4","last_reported":1698257336,"current_range_meters":14400,"station_id":"ce4bhb92rcd13ifvqen0","pricing_plan_id":"free"},{"bike_id":"08316269-2b87-440b-8405-775475611bab","system_id":"levelo_inurba_marseille","lat":43.29793,"lon":5.39336,"is_reserved":false,"is_disabled":false,"rental_uris":{"android":"levelo://app?vid=08316269-2b87-440b-8405-775475611bab","ios":"levelo://app?vid=08316269-2b87-440b-8405-775475611bab"},"vehicle_type_id":"4","last_reported":1698257336,"current_range_meters":10800,"station_id":"","pricing_plan_id":"free"},{"bike_id":"f626e914-e995-4d19-8cf3-3d7c9cb00e0a","system_id":"levelo_inurba_marseille","lat":43.295169,"lon":5.390426,"is_reserved":false,"is_disabled":false,"rental_uris":{"android":"levelo://app?vid=f626e914-e995-4d19-8cf3-3d7c9cb00e0a","ios":"levelo://app?vid=f626e914-e995-4d19-8cf3-3d7c9cb00e0a"},"vehicle_type_id":"4","last_reported":1698257336,"current_range_meters":17600,"station_id":"ce4bh3p2rcd13ifvqdp0","pricing_plan_id":"free"},{"bike_id":"46dc7910-13f9-4218-bd82-979895208dee","system_id":"levelo_inurba_marseille","lat":43.297815,"lon":5.393548,"is_reserved":false,"is_disabled":false,"rental_uris":{"android":"levelo://app?vid=46dc7910-13f9-4218-bd82-979895208dee","ios":"levelo://app?vid=46dc7910-13f9-4218-bd82-979895208dee"},"vehicle_type_id":"4","last_reported":1698257336,"current_range_meters":10400,"station_id":"chh1huq6cuj3fo74tm60","pricing_plan_id":"free"},{"bike_id":"ee43c00b-168f-436b-b29b-96b05a111501","system_id":"levelo_inurba_marseille","lat":43.297815,"lon":5.393548,"is_reserved":false,"is_disabled":false,"rental_uris":{"android":"levelo://app?vid=ee43c00b-168f-436b-b29b-96b05a111501","ios":"levelo://app?vid=ee43c00b-168f-436b-b29b-96b05a111501"},"vehicle_type_id":"4","last_reported":1698257336,"current_range_meters":13600,"station_id":"chh1huq6cuj3fo74tm60","pricing_plan_id":"free"},{"bike_id":"12d131ee-8cb0-4d58-a02e-65cefb76682a","system_id":"levelo_inurba_marseille","lat":43.295169,"lon":5.390426,"is_reserved":false,"is_disabled":false,"rental_uris":{"android":"levelo://app?vid=12d131ee-8cb0-4d58-a02e-65cefb76682a","ios":"levelo://app?vid=12d131ee-8cb0-4d58-a02e-65cefb76682a"},"vehicle_type_id":"4","last_reported":1698257336,"current_range_meters":15600,"station_id":"ce4bh3p2rcd13ifvqdp0","pricing_plan_id":"free"},{"bike_id":"d851fcba-1df6-49c1-8b71-5edf4949b44a","system_id":"levelo_inurba_marseille","lat":43.295169,"lon":5.390426,"is_reserved":false,"is_disabled":false,"rental_uris":{"android":"levelo://app?vid=d851fcba-1df6-49c1-8b71-5edf4949b44a","ios":"levelo://app?vid=d851fcba-1df6-49c1-8b71-5edf4949b44a"},"vehicle_type_id":"4","last_reported":1698257336,"current_range_meters":24400,"station_id":"ce4bh3p2rcd13ifvqdp0","pricing_plan_id":"free"},{"bike_id":"e35eee14-6baa-4ddd-bc82-a0f3a516b25c","system_id":"levelo_inurba_marseille","lat":43.295169,"lon":5.390426,"is_reserved":false,"is_disabled":false,"rental_uris":{"android":"levelo://app?vid=e35eee14-6baa-4ddd-bc82-a0f3a516b25c","ios":"levelo://app?vid=e35eee14-6baa-4ddd-bc82-a0f3a516b25c"},"vehicle_type_id":"4","last_reported":1698257336,"current_range_meters":28000,"station_id":"ce4bh3p2rcd13ifvqdp0","pricing_plan_id":"free"},{"bike_id":"ab51b868-9039-4f20-9410-ebbb073477ac","system_id":"levelo_inurba_marseille","lat":43.295169,"lon":5.390426,"is_reserved":false,"is_disabled":false,"rental_uris":{"android":"levelo://app?vid=ab51b868-9039-4f20-9410-ebbb073477ac","ios":"levelo://app?vid=ab51b868-9039-4f20-9410-ebbb073477ac"},"vehicle_type_id":"4","last_reported":1698257336,"current_range_meters":19200,"station_id":"ce4bh3p2rcd13ifvqdp0","pricing_plan_id":"free"},{"bike_id":"f31aa6b9-e246-4657-b48a-d38f51034a2f","system_id":"levelo_inurba_marseille","lat":43.295169,"lon":5.390426,"is_reserved":false,"is_disabled":false,"rental_uris":{"android":"levelo://app?vid=f31aa6b9-e246-4657-b48a-d38f51034a2f","ios":"levelo://app?vid=f31aa6b9-e246-4657-b48a-d38f51034a2f"},"vehicle_type_id":"4","last_reported":1698257336,"current_range_meters":12000,"station_id":"ce4bh3p2rcd13ifvqdp0","pricing_plan_id":"free"},{"bike_id":"889eecdb-8a38-4c74-a602-25c352cfc7be","system_id":"levelo_inurba_marseille","lat":43.308266,"lon":5.400354,"is_reserved":false,"is_disabled":false,"rental_uris":{"android":"levelo://app?vid=889eecdb-8a38-4c74-a602-25c352cfc7be","ios":"levelo://app?vid=889eecdb-8a38-4c74-a602-25c352cfc7be"},"vehicle_type_id":"4","last_reported":1698257336,"current_range_meters":6800,"station_id":"","pricing_plan_id":"free"},{"bike_id":"a108fd24-a7b8-420e-adf0-b85d400c052c","system_id":"levelo_inurba_marseille","lat":43.29027,"lon":5.38124,"is_reserved":false,"is_disabled":false,"rental_uris":{"android":"levelo://app?vid=a108fd24-a7b8-420e-adf0-b85d400c052c","ios":"levelo://app?vid=a108fd24-a7b8-420e-adf0-b85d400c052c"},"vehicle_type_id":"4","last_reported":1698257336,"current_range_meters":30000,"station_id":"ce4bh4p2rcd13ifvqe1g","pricing_plan_id":"free"},{"bike_id":"50dc823e-b891-42f3-bd58-e107efe32500","system_id":"levelo_inurba_marseille","lat":43.309371,"lon":5.401449,"is_reserved":false,"is_disabled":false,"rental_uris":{"android":"levelo://app?vid=50dc823e-b891-42f3-bd58-e107efe32500","ios":"levelo://app?vid=50dc823e-b891-42f3-bd58-e107efe32500"},"vehicle_type_id":"4","last_reported":1698257336,"current_range_meters":25600,"station_id":"ce4bgvp2rcd13ifvqct0","pricing_plan_id":"free"},{"bike_id":"09ae4e30-6faa-4ae8-ae8e-1bee55e46480","system_id":"levelo_inurba_marseille","lat":43.30933,"lon":5.40139,"is_reserved":false,"is_disabled":false,"rental_uris":{"android":"levelo://app?vid=09ae4e30-6faa-4ae8-ae8e-1bee55e46480","ios":"levelo://app?vid=09ae4e30-6faa-4ae8-ae8e-1bee55e46480"},"vehicle_type_id":"4","last_reported":1698257336,"current_range_meters":4400,"station_id":"ce4bgvp2rcd13ifvqct0","pricing_plan_id":"free"},{"bike_id":"acd784f2-6114-4b14-bd9f-46c1a42225d8","system_id":"levelo_inurba_marseille","lat":43.30938,"lon":5.4014,"is_reserved":false,"is_disabled":false,"rental_uris":{"android":"levelo://app?vid=acd784f2-6114-4b14-bd9f-46c1a42225d8","ios":"levelo://app?vid=acd784f2-6114-4b14-bd9f-46c1a42225d8"},"vehicle_type_id":"4","last_reported":1698257336,"current_range_meters":18400,"station_id":"ce4bgvp2rcd13ifvqct0","pricing_plan_id":"free"},{"bike_id":"e061c448-124e-4067-b786-259ad7d1914c","system_id":"levelo_inurba_marseille","lat":43.30927,"lon":5.40148,"is_reserved":false,"is_disabled":false,"rental_uris":{"android":"levelo://app?vid=e061c448-124e-4067-b786-259ad7d1914c","ios":"levelo://app?vid=e061c448-124e-4067-b786-259ad7d1914c"},"vehicle_type_id":"4","last_reported":1698257336,"current_range_meters":3600,"station_id":"ce4bgvp2rcd13ifvqct0","pricing_plan_id":"free"},{"bike_id":"5f976d03-cd24-411b-b6da-05a72ca86ca0","system_id":"levelo_inurba_marseille","lat":43.30923,"lon":5.40148,"is_reserved":false,"is_disabled":false,"rental_uris":{"android":"levelo://app?vid=5f976d03-cd24-411b-b6da-05a72ca86ca0","ios":"levelo://app?vid=5f976d03-cd24-411b-b6da-05a72ca86ca0"},"vehicle_type_id":"4","last_reported":1698257336,"current_range_meters":20800,"station_id":"ce4bgvp2rcd13ifvqct0","pricing_plan_id":"free"},{"bike_id":"dfc5ce82-1809-44a1-9157-83f39ffa4c6c","system_id":"levelo_inurba_marseille","lat":43.30919,"lon":5.40151,"is_reserved":false,"is_disabled":false,"rental_uris":{"android":"levelo://app?vid=dfc5ce82-1809-44a1-9157-83f39ffa4c6c","ios":"levelo://app?vid=dfc5ce82-1809-44a1-9157-83f39ffa4c6c"},"vehicle_type_id":"4","last_reported":1698257336,"current_range_meters":7200,"station_id":"ce4bgvp2rcd13ifvqct0","pricing_plan_id":"free"},{"bike_id":"b05c9310-6428-4ba2-b298-64f0bd0008f3","system_id":"levelo_inurba_marseille","lat":43.309371,"lon":5.401449,"is_reserved":false,"is_disabled":false,"rental_uris":{"android":"levelo://app?vid=b05c9310-6428-4ba2-b298-64f0bd0008f3","ios":"levelo://app?vid=b05c9310-6428-4ba2-b298-64f0bd0008f3"},"vehicle_type_id":"4","last_reported":1698257336,"current_range_meters":12400,"station_id":"ce4bgvp2rcd13ifvqct0","pricing_plan_id":"free"},{"bike_id":"34bef2bb-5c6d-4315-ba1e-eeb3de85ed61","system_id":"levelo_inurba_marseille","lat":43.306525,"lon":5.40103,"is_reserved":false,"is_disabled":false,"rental_uris":{"android":"levelo://app?vid=34bef2bb-5c6d-4315-ba1e-eeb3de85ed61","ios":"levelo://app?vid=34bef2bb-5c6d-4315-ba1e-eeb3de85ed61"},"vehicle_type_id":"4","last_reported":1698257336,"current_range_meters":1200,"station_id":"ce4bh112rcd13ifvqda0","pricing_plan_id":"free"},{"bike_id":"d48aa80e-202d-432f-a3be-cd35017d3b11","system_id":"levelo_inurba_marseille","lat":43.30641,"lon":5.40105,"is_reserved":false,"is_disabled":false,"rental_uris":{"android":"levelo://app?vid=d48aa80e-202d-432f-a3be-cd35017d3b11","ios":"levelo://app?vid=d48aa80e-202d-432f-a3be-cd35017d3b11"},"vehicle_type_id":"4","last_reported":1698257336,"current_range_meters":16400,"station_id":"ce4bh112rcd13ifvqda0","pricing_plan_id":"free"},{"bike_id":"fb171323-865c-47fd-8b7b-3d946bee2fb2","system_id":"levelo_inurba_marseille","lat":43.301117,"lon":5.398795,"is_reserved":false,"is_disabled":false,"rental_uris":{"android":"levelo://app?vid=fb171323-865c-47fd-8b7b-3d946bee2fb2","ios":"levelo://app?vid=fb171323-865c-47fd-8b7b-3d946bee2fb2"},"vehicle_type_id":"4","last_reported":1698257336,"current_range_meters":4000,"station_id":"ce4bh0h2rcd13ifvqd40","pricing_plan_id":"free"},{"bike_id":"519e35a0-7d1f-44a1-9fba-bce3388ec40f","system_id":"levelo_inurba_marseille","lat":43.301117,"lon":5.398795,"is_reserved":false,"is_disabled":false,"rental_uris":{"android":"levelo://app?vid=519e35a0-7d1f-44a1-9fba-bce3388ec40f","ios":"levelo://app?vid=519e35a0-7d1f-44a1-9fba-bce3388ec40f"},"vehicle_type_id":"4","last_reported":1698257336,"current_range_meters":3200,"station_id":"ce4bh0h2rcd13ifvqd40","pricing_plan_id":"free"},{"bike_id":"2f78ef54-518f-4d94-a8ec-8d87f437d7da","system_id":"levelo_inurba_marseille","lat":43.301117,"lon":5.398795,"is_reserved":false,"is_disabled":false,"rental_uris":{"android":"levelo://app?vid=2f78ef54-518f-4d94-a8ec-8d87f437d7da","ios":"levelo://app?vid=2f78ef54-518f-4d94-a8ec-8d87f437d7da"},"vehicle_type_id":"4","last_reported":1698257336,"current_range_meters":12000,"station_id":"ce4bh0h2rcd13ifvqd40","pricing_plan_id":"free"},{"bike_id":"33266c2f-ec4c-499d-a960-0f0aea022b74","system_id":"levelo_inurba_marseille","lat":43.30136,"lon":5.39872,"is_reserved":false,"is_disabled":false,"rental_uris":{"android":"levelo://app?vid=33266c2f-ec4c-499d-a960-0f0aea022b74","ios":"levelo://app?vid=33266c2f-ec4c-499d-a960-0f0aea022b74"},"vehicle_type_id":"4","last_reported":1698257336,"current_range_meters":0,"station_id":"ce4bh0h2rcd13ifvqd40","pricing_plan_id":"free"},{"bike_id":"7a323cbb-c8a0-4810-bc19-2d536e1d3c04","system_id":"levelo_inurba_marseille","lat":43.28727,"lon":5.36078,"is_reserved":false,"is_disabled":false,"rental_uris":{"android":"levelo://app?vid=7a323cbb-c8a0-4810-bc19-2d536e1d3c04","ios":"levelo://app?vid=7a323cbb-c8a0-4810-bc19-2d536e1d3c04"},"vehicle_type_id":"4","last_reported":1698257336,"current_range_meters":24400,"station_id":"cki0cbj6b192h4jlfktg","pricing_plan_id":"free"},{"bike_id":"4d780b75-9aca-4307-b912-b9e740a52059","system_id":"levelo_inurba_marseille","lat":43.28727,"lon":5.36078,"is_reserved":false,"is_disabled":false,"rental_uris":{"android":"levelo://app?vid=4d780b75-9aca-4307-b912-b9e740a52059","ios":"levelo://app?vid=4d780b75-9aca-4307-b912-b9e740a52059"},"vehicle_type_id":"4","last_reported":1698257336,"current_range_meters":17600,"station_id":"cki0cbj6b192h4jlfktg","pricing_plan_id":"free"},{"bike_id":"6d816816-5c5d-4527-8809-9b89c9b18015","system_id":"levelo_inurba_marseille","lat":43.286591,"lon":5.363346,"is_reserved":false,"is_disabled":false,"rental_uris":{"android":"levelo://app?vid=6d816816-5c5d-4527-8809-9b89c9b18015","ios":"levelo://app?vid=6d816816-5c5d-4527-8809-9b89c9b18015"},"vehicle_type_id":"4","last_reported":1698257336,"current_range_meters":24400,"station_id":"ce4bhah2rcd13ifvqej0","pricing_plan_id":"free"},{"bike_id":"19fd7766-2817-4de4-954f-25557e0f3aab","system_id":"levelo_inurba_marseille","lat":43.295196,"lon":5.39397,"is_reserved":false,"is_disabled":false,"rental_uris":{"android":"levelo://app?vid=19fd7766-2817-4de4-954f-25557e0f3aab","ios":"levelo://app?vid=19fd7766-2817-4de4-954f-25557e0f3aab"},"vehicle_type_id":"4","last_reported":1698257336,"current_range_meters":2400,"station_id":"ce4bh292rcd13ifvqdf0","pricing_plan_id":"free"},{"bike_id":"d805f97b-7ed9-43b4-940e-2d5d2fbb64e0","system_id":"levelo_inurba_marseille","lat":43.286961,"lon":5.373785,"is_reserved":false,"is_disabled":false,"rental_uris":{"android":"levelo://app?vid=d805f97b-7ed9-43b4-940e-2d5d2fbb64e0","ios":"levelo://app?vid=d805f97b-7ed9-43b4-940e-2d5d2fbb64e0"},"vehicle_type_id":"4","last_reported":1698257336,"current_range_meters":9200,"station_id":"ce4bh3p2rcd13ifvqdq0","pricing_plan_id":"free"},{"bike_id":"f49ddbf6-b9f2-4176-b1a5-267de3a7320e","system_id":"levelo_inurba_marseille","lat":43.28663,"lon":5.36352,"is_reserved":false,"is_disabled":false,"rental_uris":{"android":"levelo://app?vid=f49ddbf6-b9f2-4176-b1a5-267de3a7320e","ios":"levelo://app?vid=f49ddbf6-b9f2-4176-b1a5-267de3a7320e"},"vehicle_type_id":"4","last_reported":1698257336,"current_range_meters":23200,"station_id":"ce4bhah2rcd13ifvqej0","pricing_plan_id":"free"},{"bike_id":"c36dd051-cad3-4acf-bca6-5914239947b7","system_id":"levelo_inurba_marseille","lat":43.286591,"lon":5.363346,"is_reserved":false,"is_disabled":false,"rental_uris":{"android":"levelo://app?vid=c36dd051-cad3-4acf-bca6-5914239947b7","ios":"levelo://app?vid=c36dd051-cad3-4acf-bca6-5914239947b7"},"vehicle_type_id":"4","last_reported":1698257336,"current_range_meters":28800,"station_id":"ce4bhah2rcd13ifvqej0","pricing_plan_id":"free"},{"bike_id":"ecc6d933-3ed7-4728-a6bd-767b8dac5921","system_id":"levelo_inurba_marseille","lat":43.2866,"lon":5.36357,"is_reserved":false,"is_disabled":false,"rental_uris":{"android":"levelo://app?vid=ecc6d933-3ed7-4728-a6bd-767b8dac5921","ios":"levelo://app?vid=ecc6d933-3ed7-4728-a6bd-767b8dac5921"},"vehicle_type_id":"4","last_reported":1698257336,"current_range_meters":24400,"station_id":"ce4bhah2rcd13ifvqej0","pricing_plan_id":"free"},{"bike_id":"93f4c4a6-845f-4fdd-8604-4efa479f872e","system_id":"levelo_inurba_marseille","lat":43.286967,"lon":5.373877,"is_reserved":false,"is_disabled":false,"rental_uris":{"android":"levelo://app?vid=93f4c4a6-845f-4fdd-8604-4efa479f872e","ios":"levelo://app?vid=93f4c4a6-845f-4fdd-8604-4efa479f872e"},"vehicle_type_id":"4","last_reported":1698257336,"current_range_meters":26400,"station_id":"ce4bh3p2rcd13ifvqdq0","pricing_plan_id":"free"},{"bike_id":"f93aa65e-353d-4da8-a57b-b0c0882a969b","system_id":"levelo_inurba_marseille","lat":43.286961,"lon":5.373785,"is_reserved":false,"is_disabled":false,"rental_uris":{"android":"levelo://app?vid=f93aa65e-353d-4da8-a57b-b0c0882a969b","ios":"levelo://app?vid=f93aa65e-353d-4da8-a57b-b0c0882a969b"},"vehicle_type_id":"4","last_reported":1698257336,"current_range_meters":16800,"station_id":"ce4bh3p2rcd13ifvqdq0","pricing_plan_id":"free"},{"bike_id":"30a476a6-8925-4338-80b1-ad2f67c1aaa7","system_id":"levelo_inurba_marseille","lat":43.286591,"lon":5.363346,"is_reserved":false,"is_disabled":false,"rental_uris":{"android":"levelo://app?vid=30a476a6-8925-4338-80b1-ad2f67c1aaa7","ios":"levelo://app?vid=30a476a6-8925-4338-80b1-ad2f67c1aaa7"},"vehicle_type_id":"4","last_reported":1698257336,"current_range_meters":31200,"station_id":"ce4bhah2rcd13ifvqej0","pricing_plan_id":"free"},{"bike_id":"ffef3c1d-2192-49c5-bbd2-2cc602d3905f","system_id":"levelo_inurba_marseille","lat":43.286582,"lon":5.363547,"is_reserved":false,"is_disabled":false,"rental_uris":{"android":"levelo://app?vid=ffef3c1d-2192-49c5-bbd2-2cc602d3905f","ios":"levelo://app?vid=ffef3c1d-2192-49c5-bbd2-2cc602d3905f"},"vehicle_type_id":"4","last_reported":1698257336,"current_range_meters":25200,"station_id":"ce4bhah2rcd13ifvqej0","pricing_plan_id":"free"},{"bike_id":"3952e635-2195-40f6-8a09-820c3bef683a","system_id":"levelo_inurba_marseille","lat":43.286593,"lon":5.363346,"is_reserved":false,"is_disabled":false,"rental_uris":{"android":"levelo://app?vid=3952e635-2195-40f6-8a09-820c3bef683a","ios":"levelo://app?vid=3952e635-2195-40f6-8a09-820c3bef683a"},"vehicle_type_id":"4","last_reported":1698257336,"current_range_meters":29600,"station_id":"ce4bhah2rcd13ifvqej0","pricing_plan_id":"free"},{"bike_id":"341d1ea0-31cd-4019-ac30-8b07b2f4a2b4","system_id":"levelo_inurba_marseille","lat":43.298681,"lon":5.397225,"is_reserved":false,"is_disabled":false,"rental_uris":{"android":"levelo://app?vid=341d1ea0-31cd-4019-ac30-8b07b2f4a2b4","ios":"levelo://app?vid=341d1ea0-31cd-4019-ac30-8b07b2f4a2b4"},"vehicle_type_id":"4","last_reported":1698257336,"current_range_meters":800,"station_id":"ce4bh0h2rcd13ifvqd50","pricing_plan_id":"free"},{"bike_id":"63fdda5a-6cb6-40de-bbc1-125098377625","system_id":"levelo_inurba_marseille","lat":43.28693,"lon":5.37381,"is_reserved":false,"is_disabled":false,"rental_uris":{"android":"levelo://app?vid=63fdda5a-6cb6-40de-bbc1-125098377625","ios":"levelo://app?vid=63fdda5a-6cb6-40de-bbc1-125098377625"},"vehicle_type_id":"4","last_reported":1698257336,"current_range_meters":3600,"station_id":"ce4bh3p2rcd13ifvqdq0","pricing_plan_id":"free"},{"bike_id":"d9ca3536-9d4d-46eb-97fd-4d62249fde7c","system_id":"levelo_inurba_marseille","lat":43.286591,"lon":5.363346,"is_reserved":false,"is_disabled":false,"rental_uris":{"android":"levelo://app?vid=d9ca3536-9d4d-46eb-97fd-4d62249fde7c","ios":"levelo://app?vid=d9ca3536-9d4d-46eb-97fd-4d62249fde7c"},"vehicle_type_id":"4","last_reported":1698257336,"current_range_meters":4000,"station_id":"ce4bhah2rcd13ifvqej0","pricing_plan_id":"free"},{"bike_id":"9b463d85-47cb-4cda-8cbe-1ca2ad27dca2","system_id":"levelo_inurba_marseille","lat":43.28656,"lon":5.36349,"is_reserved":false,"is_disabled":false,"rental_uris":{"android":"levelo://app?vid=9b463d85-47cb-4cda-8cbe-1ca2ad27dca2","ios":"levelo://app?vid=9b463d85-47cb-4cda-8cbe-1ca2ad27dca2"},"vehicle_type_id":"4","last_reported":1698257336,"current_range_meters":25600,"station_id":"ce4bhah2rcd13ifvqej0","pricing_plan_id":"free"},{"bike_id":"5600c6b4-c727-4766-87a6-a9c7d5d24323","system_id":"levelo_inurba_marseille","lat":43.286961,"lon":5.373785,"is_reserved":false,"is_disabled":false,"rental_uris":{"android":"levelo://app?vid=5600c6b4-c727-4766-87a6-a9c7d5d24323","ios":"levelo://app?vid=5600c6b4-c727-4766-87a6-a9c7d5d24323"},"vehicle_type_id":"4","last_reported":1698257336,"current_range_meters":8400,"station_id":"ce4bh3p2rcd13ifvqdq0","pricing_plan_id":"free"},{"bike_id":"30a9f89a-de26-4b00-a2c6-a76fab019eb6","system_id":"levelo_inurba_marseille","lat":43.295196,"lon":5.39397,"is_reserved":false,"is_disabled":false,"rental_uris":{"android":"levelo://app?vid=30a9f89a-de26-4b00-a2c6-a76fab019eb6","ios":"levelo://app?vid=30a9f89a-de26-4b00-a2c6-a76fab019eb6"},"vehicle_type_id":"4","last_reported":1698257336,"current_range_meters":6400,"station_id":"ce4bh292rcd13ifvqdf0","pricing_plan_id":"free"},{"bike_id":"7889a249-7a62-4cdb-a576-3a01404b30c8","system_id":"levelo_inurba_marseille","lat":43.2901,"lon":5.38539,"is_reserved":false,"is_disabled":false,"rental_uris":{"android":"levelo://app?vid=7889a249-7a62-4cdb-a576-3a01404b30c8","ios":"levelo://app?vid=7889a249-7a62-4cdb-a576-3a01404b30c8"},"vehicle_type_id":"4","last_reported":1698257336,"current_range_meters":10000,"station_id":"","pricing_plan_id":"free"},{"bike_id":"6a8fa10c-7bd7-4f88-a48d-19b0a099b7a1","system_id":"levelo_inurba_marseille","lat":43.295194,"lon":5.39397,"is_reserved":false,"is_disabled":false,"rental_uris":{"android":"levelo://app?vid=6a8fa10c-7bd7-4f88-a48d-19b0a099b7a1","ios":"levelo://app?vid=6a8fa10c-7bd7-4f88-a48d-19b0a099b7a1"},"vehicle_type_id":"4","last_reported":1698257336,"current_range_meters":0,"station_id":"ce4bh292rcd13ifvqdf0","pricing_plan_id":"free"},{"bike_id":"3d9f0bed-a2ac-423b-a5c2-70f7718e0033","system_id":"levelo_inurba_marseille","lat":43.29046,"lon":5.38623,"is_reserved":false,"is_disabled":false,"rental_uris":{"android":"levelo://app?vid=3d9f0bed-a2ac-423b-a5c2-70f7718e0033","ios":"levelo://app?vid=3d9f0bed-a2ac-423b-a5c2-70f7718e0033"},"vehicle_type_id":"4","last_reported":1698257336,"current_range_meters":15600,"station_id":"ce4bh4p2rcd13ifvqe0g","pricing_plan_id":"free"},{"bike_id":"ceb5f9e3-e211-4802-a311-4c93b3effcdc","system_id":"levelo_inurba_marseille","lat":43.28652,"lon":5.36341,"is_reserved":false,"is_disabled":false,"rental_uris":{"android":"levelo://app?vid=ceb5f9e3-e211-4802-a311-4c93b3effcdc","ios":"levelo://app?vid=ceb5f9e3-e211-4802-a311-4c93b3effcdc"},"vehicle_type_id":"4","last_reported":1698257336,"current_range_meters":23600,"station_id":"ce4bhah2rcd13ifvqej0","pricing_plan_id":"free"},{"bike_id":"12357f24-d245-4a22-af48-6fd99e045404","system_id":"levelo_inurba_marseille","lat":43.286961,"lon":5.373785,"is_reserved":false,"is_disabled":false,"rental_uris":{"android":"levelo://app?vid=12357f24-d245-4a22-af48-6fd99e045404","ios":"levelo://app?vid=12357f24-d245-4a22-af48-6fd99e045404"},"vehicle_type_id":"4","last_reported":1698257336,"current_range_meters":1600,"station_id":"ce4bh3p2rcd13ifvqdq0","pricing_plan_id":"free"},{"bike_id":"0b9d9b25-3882-496b-a93a-b11d3c94ccbe","system_id":"levelo_inurba_marseille","lat":43.295194,"lon":5.39397,"is_reserved":false,"is_disabled":false,"rental_uris":{"android":"levelo://app?vid=0b9d9b25-3882-496b-a93a-b11d3c94ccbe","ios":"levelo://app?vid=0b9d9b25-3882-496b-a93a-b11d3c94ccbe"},"vehicle_type_id":"4","last_reported":1698257336,"current_range_meters":7600,"station_id":"ce4bh292rcd13ifvqdf0","pricing_plan_id":"free"},{"bike_id":"03425871-7106-4c1f-a630-04addf00d7b8","system_id":"levelo_inurba_marseille","lat":43.286961,"lon":5.373785,"is_reserved":false,"is_disabled":false,"rental_uris":{"android":"levelo://app?vid=03425871-7106-4c1f-a630-04addf00d7b8","ios":"levelo://app?vid=03425871-7106-4c1f-a630-04addf00d7b8"},"vehicle_type_id":"4","last_reported":1698257336,"current_range_meters":26400,"station_id":"ce4bh3p2rcd13ifvqdq0","pricing_plan_id":"free"},{"bike_id":"b993ffba-782f-40eb-8d7c-3fe2a3b1ab34","system_id":"levelo_inurba_marseille","lat":43.29034,"lon":5.38632,"is_reserved":false,"is_disabled":false,"rental_uris":{"android":"levelo://app?vid=b993ffba-782f-40eb-8d7c-3fe2a3b1ab34","ios":"levelo://app?vid=b993ffba-782f-40eb-8d7c-3fe2a3b1ab34"},"vehicle_type_id":"4","last_reported":1698257336,"current_range_meters":0,"station_id":"ce4bh4p2rcd13ifvqe0g","pricing_plan_id":"free"},{"bike_id":"6963fa20-7f04-4012-8ae1-e4a7209e1391","system_id":"levelo_inurba_marseille","lat":43.29031,"lon":5.38629,"is_reserved":false,"is_disabled":false,"rental_uris":{"android":"levelo://app?vid=6963fa20-7f04-4012-8ae1-e4a7209e1391","ios":"levelo://app?vid=6963fa20-7f04-4012-8ae1-e4a7209e1391"},"vehicle_type_id":"4","last_reported":1698257336,"current_range_meters":4800,"station_id":"ce4bh4p2rcd13ifvqe0g","pricing_plan_id":"free"},{"bike_id":"1d19e83d-52b0-41ac-8b4a-fdd4738d5b64","system_id":"levelo_inurba_marseille","lat":43.302576,"lon":5.400559,"is_reserved":false,"is_disabled":false,"rental_uris":{"android":"levelo://app?vid=1d19e83d-52b0-41ac-8b4a-fdd4738d5b64","ios":"levelo://app?vid=1d19e83d-52b0-41ac-8b4a-fdd4738d5b64"},"vehicle_type_id":"4","last_reported":1698257336,"current_range_meters":11600,"station_id":"","pricing_plan_id":"free"},{"bike_id":"709dccd6-575a-40ca-8990-af4f502c7676","system_id":"levelo_inurba_marseille","lat":43.2904,"lon":5.38655,"is_reserved":false,"is_disabled":false,"rental_uris":{"android":"levelo://app?vid=709dccd6-575a-40ca-8990-af4f502c7676","ios":"levelo://app?vid=709dccd6-575a-40ca-8990-af4f502c7676"},"vehicle_type_id":"4","last_reported":1698257336,"current_range_meters":17200,"station_id":"ce4bh4p2rcd13ifvqe0g","pricing_plan_id":"free"},{"bike_id":"df14529c-32da-47b1-b9f9-b5d4eddaddb2","system_id":"levelo_inurba_marseille","lat":43.29044,"lon":5.38665,"is_reserved":false,"is_disabled":false,"rental_uris":{"android":"levelo://app?vid=df14529c-32da-47b1-b9f9-b5d4eddaddb2","ios":"levelo://app?vid=df14529c-32da-47b1-b9f9-b5d4eddaddb2"},"vehicle_type_id":"4","last_reported":1698257336,"current_range_meters":22400,"station_id":"ce4bh4p2rcd13ifvqe0g","pricing_plan_id":"free"},{"bike_id":"ef319202-01bb-4cfb-a4bb-02063b2c842d","system_id":"levelo_inurba_marseille","lat":43.29038,"lon":5.38654,"is_reserved":false,"is_disabled":false,"rental_uris":{"android":"levelo://app?vid=ef319202-01bb-4cfb-a4bb-02063b2c842d","ios":"levelo://app?vid=ef319202-01bb-4cfb-a4bb-02063b2c842d"},"vehicle_type_id":"4","last_reported":1698257336,"current_range_meters":23600,"station_id":"ce4bh4p2rcd13ifvqe0g","pricing_plan_id":"free"},{"bike_id":"659b8a7e-3340-4395-b702-cac9fe185274","system_id":"levelo_inurba_marseille","lat":43.290337,"lon":5.3865,"is_reserved":false,"is_disabled":false,"rental_uris":{"android":"levelo://app?vid=659b8a7e-3340-4395-b702-cac9fe185274","ios":"levelo://app?vid=659b8a7e-3340-4395-b702-cac9fe185274"},"vehicle_type_id":"4","last_reported":1698257336,"current_range_meters":8000,"station_id":"ce4bh4p2rcd13ifvqe0g","pricing_plan_id":"free"},{"bike_id":"9814e9c9-7fe0-42d0-ba36-b29c325733cd","system_id":"levelo_inurba_marseille","lat":43.29026,"lon":5.38637,"is_reserved":false,"is_disabled":false,"rental_uris":{"android":"levelo://app?vid=9814e9c9-7fe0-42d0-ba36-b29c325733cd","ios":"levelo://app?vid=9814e9c9-7fe0-42d0-ba36-b29c325733cd"},"vehicle_type_id":"4","last_reported":1698257336,"current_range_meters":3600,"station_id":"ce4bh4p2rcd13ifvqe0g","pricing_plan_id":"free"},{"bike_id":"fb54b2f6-7113-4942-b504-f6879a20bcbf","system_id":"levelo_inurba_marseille","lat":43.29032,"lon":5.38655,"is_reserved":false,"is_disabled":false,"rental_uris":{"android":"levelo://app?vid=fb54b2f6-7113-4942-b504-f6879a20bcbf","ios":"levelo://app?vid=fb54b2f6-7113-4942-b504-f6879a20bcbf"},"vehicle_type_id":"4","last_reported":1698257336,"current_range_meters":16000,"station_id":"ce4bh4p2rcd13ifvqe0g","pricing_plan_id":"free"},{"bike_id":"f61ebd50-140d-4624-8703-81f5c576fea1","system_id":"levelo_inurba_marseille","lat":43.29029,"lon":5.38649,"is_reserved":false,"is_disabled":false,"rental_uris":{"android":"levelo://app?vid=f61ebd50-140d-4624-8703-81f5c576fea1","ios":"levelo://app?vid=f61ebd50-140d-4624-8703-81f5c576fea1"},"vehicle_type_id":"4","last_reported":1698257336,"current_range_meters":15600,"station_id":"ce4bh4p2rcd13ifvqe0g","pricing_plan_id":"free"},{"bike_id":"0d5577f3-87a6-45c2-95a3-a9225c605e2a","system_id":"levelo_inurba_marseille","lat":43.29028,"lon":5.38647,"is_reserved":false,"is_disabled":false,"rental_uris":{"android":"levelo://app?vid=0d5577f3-87a6-45c2-95a3-a9225c605e2a","ios":"levelo://app?vid=0d5577f3-87a6-45c2-95a3-a9225c605e2a"},"vehicle_type_id":"4","last_reported":1698257336,"current_range_meters":22400,"station_id":"ce4bh4p2rcd13ifvqe0g","pricing_plan_id":"free"},{"bike_id":"738bac65-d5a3-4b42-8072-72a442e59df0","system_id":"levelo_inurba_marseille","lat":43.28923,"lon":5.38399,"is_reserved":false,"is_disabled":false,"rental_uris":{"android":"levelo://app?vid=738bac65-d5a3-4b42-8072-72a442e59df0","ios":"levelo://app?vid=738bac65-d5a3-4b42-8072-72a442e59df0"},"vehicle_type_id":"4","last_reported":1698257336,"current_range_meters":21200,"station_id":"ce4bh612rcd13ifvqe6g","pricing_plan_id":"free"},{"bike_id":"5c80ce04-dfab-48f2-8d29-5797bd1ba3e5","system_id":"levelo_inurba_marseille","lat":43.29037,"lon":5.3867,"is_reserved":false,"is_disabled":false,"rental_uris":{"android":"levelo://app?vid=5c80ce04-dfab-48f2-8d29-5797bd1ba3e5","ios":"levelo://app?vid=5c80ce04-dfab-48f2-8d29-5797bd1ba3e5"},"vehicle_type_id":"4","last_reported":1698257336,"current_range_meters":9600,"station_id":"ce4bh4p2rcd13ifvqe0g","pricing_plan_id":"free"},{"bike_id":"507dffbc-7421-43a1-b1ca-4a3b03a93eca","system_id":"levelo_inurba_marseille","lat":43.302759,"lon":5.400793,"is_reserved":false,"is_disabled":false,"rental_uris":{"android":"levelo://app?vid=507dffbc-7421-43a1-b1ca-4a3b03a93eca","ios":"levelo://app?vid=507dffbc-7421-43a1-b1ca-4a3b03a93eca"},"vehicle_type_id":"4","last_reported":1698257336,"current_range_meters":13200,"station_id":"ce4bgvh2rcd13ifvqcs0","pricing_plan_id":"free"},{"bike_id":"b974a2df-5534-44ce-891d-b9943a8b879c","system_id":"levelo_inurba_marseille","lat":43.286039,"lon":5.370679,"is_reserved":false,"is_disabled":false,"rental_uris":{"android":"levelo://app?vid=b974a2df-5534-44ce-891d-b9943a8b879c","ios":"levelo://app?vid=b974a2df-5534-44ce-891d-b9943a8b879c"},"vehicle_type_id":"4","last_reported":1698257336,"current_range_meters":6800,"station_id":"ce4bht12rcd13ifvqi60","pricing_plan_id":"free"},{"bike_id":"2e1256c1-4c9c-4dfa-a863-85977d2c7d81","system_id":"levelo_inurba_marseille","lat":43.286039,"lon":5.370679,"is_reserved":false,"is_disabled":false,"rental_uris":{"android":"levelo://app?vid=2e1256c1-4c9c-4dfa-a863-85977d2c7d81","ios":"levelo://app?vid=2e1256c1-4c9c-4dfa-a863-85977d2c7d81"},"vehicle_type_id":"4","last_reported":1698257336,"current_range_meters":32000,"station_id":"ce4bht12rcd13ifvqi60","pricing_plan_id":"free"},{"bike_id":"4c81fbb4-f722-4ece-bc38-cb0126b89e1b","system_id":"levelo_inurba_marseille","lat":43.28614,"lon":5.37065,"is_reserved":false,"is_disabled":false,"rental_uris":{"android":"levelo://app?vid=4c81fbb4-f722-4ece-bc38-cb0126b89e1b","ios":"levelo://app?vid=4c81fbb4-f722-4ece-bc38-cb0126b89e1b"},"vehicle_type_id":"4","last_reported":1698257336,"current_range_meters":27600,"station_id":"ce4bht12rcd13ifvqi60","pricing_plan_id":"free"},{"bike_id":"64cabe74-7459-419a-b9fa-53d35f43f949","system_id":"levelo_inurba_marseille","lat":43.286039,"lon":5.370679,"is_reserved":false,"is_disabled":false,"rental_uris":{"android":"levelo://app?vid=64cabe74-7459-419a-b9fa-53d35f43f949","ios":"levelo://app?vid=64cabe74-7459-419a-b9fa-53d35f43f949"},"vehicle_type_id":"4","last_reported":1698257336,"current_range_meters":19600,"station_id":"ce4bht12rcd13ifvqi60","pricing_plan_id":"free"},{"bike_id":"7cb8547c-98fe-49d3-ab8d-4898249941c1","system_id":"levelo_inurba_marseille","lat":43.286039,"lon":5.370679,"is_reserved":false,"is_disabled":false,"rental_uris":{"android":"levelo://app?vid=7cb8547c-98fe-49d3-ab8d-4898249941c1","ios":"levelo://app?vid=7cb8547c-98fe-49d3-ab8d-4898249941c1"},"vehicle_type_id":"4","last_reported":1698257336,"current_range_meters":1600,"station_id":"ce4bht12rcd13ifvqi60","pricing_plan_id":"free"},{"bike_id":"1b1109cc-de8a-42d8-a26b-2acda52637c6","system_id":"levelo_inurba_marseille","lat":43.286039,"lon":5.370681,"is_reserved":false,"is_disabled":false,"rental_uris":{"android":"levelo://app?vid=1b1109cc-de8a-42d8-a26b-2acda52637c6","ios":"levelo://app?vid=1b1109cc-de8a-42d8-a26b-2acda52637c6"},"vehicle_type_id":"4","last_reported":1698257336,"current_range_meters":19600,"station_id":"ce4bht12rcd13ifvqi60","pricing_plan_id":"free"},{"bike_id":"1fbc6620-95a1-4f97-86f2-b984c084d2df","system_id":"levelo_inurba_marseille","lat":43.286039,"lon":5.370681,"is_reserved":false,"is_disabled":false,"rental_uris":{"android":"levelo://app?vid=1fbc6620-95a1-4f97-86f2-b984c084d2df","ios":"levelo://app?vid=1fbc6620-95a1-4f97-86f2-b984c084d2df"},"vehicle_type_id":"4","last_reported":1698257336,"current_range_meters":7600,"station_id":"ce4bht12rcd13ifvqi60","pricing_plan_id":"free"},{"bike_id":"f0c1e88a-b1de-4eed-a118-82c028b75228","system_id":"levelo_inurba_marseille","lat":43.28779,"lon":5.352424,"is_reserved":false,"is_disabled":false,"rental_uris":{"android":"levelo://app?vid=f0c1e88a-b1de-4eed-a118-82c028b75228","ios":"levelo://app?vid=f0c1e88a-b1de-4eed-a118-82c028b75228"},"vehicle_type_id":"4","last_reported":1698257336,"current_range_meters":4000,"station_id":"ce4bhch2rcd13ifvqeug","pricing_plan_id":"free"},{"bike_id":"c9703df4-1bc1-4105-b9ce-d086f319de9d","system_id":"levelo_inurba_marseille","lat":43.286039,"lon":5.370681,"is_reserved":false,"is_disabled":false,"rental_uris":{"android":"levelo://app?vid=c9703df4-1bc1-4105-b9ce-d086f319de9d","ios":"levelo://app?vid=c9703df4-1bc1-4105-b9ce-d086f319de9d"},"vehicle_type_id":"4","last_reported":1698257336,"current_range_meters":16800,"station_id":"ce4bht12rcd13ifvqi60","pricing_plan_id":"free"},{"bike_id":"bc368e20-93c0-495a-bb4f-cd8ed7ee7f0d","system_id":"levelo_inurba_marseille","lat":43.335307,"lon":5.388143,"is_reserved":false,"is_disabled":false,"rental_uris":{"android":"levelo://app?vid=bc368e20-93c0-495a-bb4f-cd8ed7ee7f0d","ios":"levelo://app?vid=bc368e20-93c0-495a-bb4f-cd8ed7ee7f0d"},"vehicle_type_id":"4","last_reported":1698257336,"current_range_meters":2400,"station_id":"","pricing_plan_id":"free"},{"bike_id":"6bd50877-f40a-47d4-93e1-8046f3028427","system_id":"levelo_inurba_marseille","lat":43.285397,"lon":5.369864,"is_reserved":false,"is_disabled":false,"rental_uris":{"android":"levelo://app?vid=6bd50877-f40a-47d4-93e1-8046f3028427","ios":"levelo://app?vid=6bd50877-f40a-47d4-93e1-8046f3028427"},"vehicle_type_id":"4","last_reported":1698257336,"current_range_meters":0,"station_id":"","pricing_plan_id":"free"},{"bike_id":"5308dd92-0eb4-4581-9e2b-19673ce4400f","system_id":"levelo_inurba_marseille","lat":43.316517,"lon":5.404375,"is_reserved":false,"is_disabled":false,"rental_uris":{"android":"levelo://app?vid=5308dd92-0eb4-4581-9e2b-19673ce4400f","ios":"levelo://app?vid=5308dd92-0eb4-4581-9e2b-19673ce4400f"},"vehicle_type_id":"4","last_reported":1698257336,"current_range_meters":0,"station_id":"ce4bh012rcd13ifvqd00","pricing_plan_id":"free"},{"bike_id":"ccde55db-d719-4cbc-8ccd-6a00e1f3adaf","system_id":"levelo_inurba_marseille","lat":43.29202,"lon":5.39319,"is_reserved":false,"is_disabled":false,"rental_uris":{"android":"levelo://app?vid=ccde55db-d719-4cbc-8ccd-6a00e1f3adaf","ios":"levelo://app?vid=ccde55db-d719-4cbc-8ccd-6a00e1f3adaf"},"vehicle_type_id":"4","last_reported":1698257336,"current_range_meters":0,"station_id":"ce4bh192rcd13ifvqdd0","pricing_plan_id":"free"},{"bike_id":"f6338b0c-fe67-4e56-b859-8f7a89e25e66","system_id":"levelo_inurba_marseille","lat":43.29197,"lon":5.39316,"is_reserved":false,"is_disabled":false,"rental_uris":{"android":"levelo://app?vid=f6338b0c-fe67-4e56-b859-8f7a89e25e66","ios":"levelo://app?vid=f6338b0c-fe67-4e56-b859-8f7a89e25e66"},"vehicle_type_id":"4","last_reported":1698257336,"current_range_meters":29200,"station_id":"ce4bh192rcd13ifvqdd0","pricing_plan_id":"free"},{"bike_id":"674aebee-3fd9-45df-8f04-cacc1737d16d","system_id":"levelo_inurba_marseille","lat":43.291994,"lon":5.392907,"is_reserved":false,"is_disabled":false,"rental_uris":{"android":"levelo://app?vid=674aebee-3fd9-45df-8f04-cacc1737d16d","ios":"levelo://app?vid=674aebee-3fd9-45df-8f04-cacc1737d16d"},"vehicle_type_id":"4","last_reported":1698257336,"current_range_meters":25600,"station_id":"ce4bh192rcd13ifvqdd0","pricing_plan_id":"free"},{"bike_id":"8f9f20e1-a059-45fc-b41a-4ec390453299","system_id":"levelo_inurba_marseille","lat":43.291994,"lon":5.392907,"is_reserved":false,"is_disabled":false,"rental_uris":{"android":"levelo://app?vid=8f9f20e1-a059-45fc-b41a-4ec390453299","ios":"levelo://app?vid=8f9f20e1-a059-45fc-b41a-4ec390453299"},"vehicle_type_id":"4","last_reported":1698257336,"current_range_meters":18400,"station_id":"ce4bh192rcd13ifvqdd0","pricing_plan_id":"free"},{"bike_id":"ef60ef99-d372-416f-8869-a1c405f8b941","system_id":"levelo_inurba_marseille","lat":43.29191,"lon":5.39319,"is_reserved":false,"is_disabled":false,"rental_uris":{"android":"levelo://app?vid=ef60ef99-d372-416f-8869-a1c405f8b941","ios":"levelo://app?vid=ef60ef99-d372-416f-8869-a1c405f8b941"},"vehicle_type_id":"4","last_reported":1698257336,"current_range_meters":0,"station_id":"ce4bh192rcd13ifvqdd0","pricing_plan_id":"free"},{"bike_id":"2280c64b-63ed-437f-8cb4-f201108b224b","system_id":"levelo_inurba_marseille","lat":43.30124,"lon":5.40278,"is_reserved":false,"is_disabled":false,"rental_uris":{"android":"levelo://app?vid=2280c64b-63ed-437f-8cb4-f201108b224b","ios":"levelo://app?vid=2280c64b-63ed-437f-8cb4-f201108b224b"},"vehicle_type_id":"4","last_reported":1698257336,"current_range_meters":2400,"station_id":"","pricing_plan_id":"free"},{"bike_id":"7708b30d-b9c4-40d1-ab03-f053cf4d9d46","system_id":"levelo_inurba_marseille","lat":43.28467,"lon":5.3589,"is_reserved":false,"is_disabled":false,"rental_uris":{"android":"levelo://app?vid=7708b30d-b9c4-40d1-ab03-f053cf4d9d46","ios":"levelo://app?vid=7708b30d-b9c4-40d1-ab03-f053cf4d9d46"},"vehicle_type_id":"4","last_reported":1698257336,"current_range_meters":17200,"station_id":"ce4bhah2rcd13ifvqei0","pricing_plan_id":"free"},{"bike_id":"e7ef0c8d-8237-4e4d-8531-4f1295d4d9bc","system_id":"levelo_inurba_marseille","lat":43.284534,"lon":5.358662,"is_reserved":false,"is_disabled":false,"rental_uris":{"android":"levelo://app?vid=e7ef0c8d-8237-4e4d-8531-4f1295d4d9bc","ios":"levelo://app?vid=e7ef0c8d-8237-4e4d-8531-4f1295d4d9bc"},"vehicle_type_id":"4","last_reported":1698257336,"current_range_meters":21600,"station_id":"ce4bhah2rcd13ifvqei0","pricing_plan_id":"free"},{"bike_id":"768c4ce5-37d2-43d7-b852-2e5647db15b2","system_id":"levelo_inurba_marseille","lat":43.284534,"lon":5.358662,"is_reserved":false,"is_disabled":false,"rental_uris":{"android":"levelo://app?vid=768c4ce5-37d2-43d7-b852-2e5647db15b2","ios":"levelo://app?vid=768c4ce5-37d2-43d7-b852-2e5647db15b2"},"vehicle_type_id":"4","last_reported":1698257336,"current_range_meters":1200,"station_id":"ce4bhah2rcd13ifvqei0","pricing_plan_id":"free"},{"bike_id":"caf0464f-9d6e-45a9-a74a-d115e682f7e6","system_id":"levelo_inurba_marseille","lat":43.284534,"lon":5.358662,"is_reserved":false,"is_disabled":false,"rental_uris":{"android":"levelo://app?vid=caf0464f-9d6e-45a9-a74a-d115e682f7e6","ios":"levelo://app?vid=caf0464f-9d6e-45a9-a74a-d115e682f7e6"},"vehicle_type_id":"4","last_reported":1698257336,"current_range_meters":31200,"station_id":"ce4bhah2rcd13ifvqei0","pricing_plan_id":"free"},{"bike_id":"addc8658-f1cf-4160-ad0e-ac9a4ccb051f","system_id":"levelo_inurba_marseille","lat":43.294314,"lon":5.397498,"is_reserved":false,"is_disabled":false,"rental_uris":{"android":"levelo://app?vid=addc8658-f1cf-4160-ad0e-ac9a4ccb051f","ios":"levelo://app?vid=addc8658-f1cf-4160-ad0e-ac9a4ccb051f"},"vehicle_type_id":"4","last_reported":1698257336,"current_range_meters":19200,"station_id":"ce4bh3h2rcd13ifvqdo0","pricing_plan_id":"free"},{"bike_id":"816125ba-3683-4bb1-ba15-b8ead4d0b107","system_id":"levelo_inurba_marseille","lat":43.294314,"lon":5.397498,"is_reserved":false,"is_disabled":false,"rental_uris":{"android":"levelo://app?vid=816125ba-3683-4bb1-ba15-b8ead4d0b107","ios":"levelo://app?vid=816125ba-3683-4bb1-ba15-b8ead4d0b107"},"vehicle_type_id":"4","last_reported":1698257336,"current_range_meters":10000,"station_id":"ce4bh3h2rcd13ifvqdo0","pricing_plan_id":"free"},{"bike_id":"1dca676d-f740-40ca-ac56-c3daa1fedc8b","system_id":"levelo_inurba_marseille","lat":43.286169,"lon":5.351108,"is_reserved":false,"is_disabled":false,"rental_uris":{"android":"levelo://app?vid=1dca676d-f740-40ca-ac56-c3daa1fedc8b","ios":"levelo://app?vid=1dca676d-f740-40ca-ac56-c3daa1fedc8b"},"vehicle_type_id":"4","last_reported":1698257336,"current_range_meters":25200,"station_id":"","pricing_plan_id":"free"},{"bike_id":"39aefb9e-d6e6-47ac-9e7b-3ebc2900fe47","system_id":"levelo_inurba_marseille","lat":43.28617,"lon":5.3511,"is_reserved":false,"is_disabled":false,"rental_uris":{"android":"levelo://app?vid=39aefb9e-d6e6-47ac-9e7b-3ebc2900fe47","ios":"levelo://app?vid=39aefb9e-d6e6-47ac-9e7b-3ebc2900fe47"},"vehicle_type_id":"4","last_reported":1698257336,"current_range_meters":10800,"station_id":"ce4bhch2rcd13ifvqeug","pricing_plan_id":"free"},{"bike_id":"79b15f48-4d6e-47c1-951c-a7f9580b5dfd","system_id":"levelo_inurba_marseille","lat":43.28616,"lon":5.35109,"is_reserved":false,"is_disabled":false,"rental_uris":{"android":"levelo://app?vid=79b15f48-4d6e-47c1-951c-a7f9580b5dfd","ios":"levelo://app?vid=79b15f48-4d6e-47c1-951c-a7f9580b5dfd"},"vehicle_type_id":"4","last_reported":1698257336,"current_range_meters":0,"station_id":"ce4bhch2rcd13ifvqeug","pricing_plan_id":"free"},{"bike_id":"ae2b166a-aaa4-4686-a054-e1f421dd5d07","system_id":"levelo_inurba_marseille","lat":43.28615,"lon":5.35106,"is_reserved":false,"is_disabled":false,"rental_uris":{"android":"levelo://app?vid=ae2b166a-aaa4-4686-a054-e1f421dd5d07","ios":"levelo://app?vid=ae2b166a-aaa4-4686-a054-e1f421dd5d07"},"vehicle_type_id":"4","last_reported":1698257336,"current_range_meters":11600,"station_id":"ce4bhch2rcd13ifvqeug","pricing_plan_id":"free"},{"bike_id":"4d9fef9f-68d5-4c8e-9878-fd92d42f639e","system_id":"levelo_inurba_marseille","lat":43.28614,"lon":5.35107,"is_reserved":false,"is_disabled":false,"rental_uris":{"android":"levelo://app?vid=4d9fef9f-68d5-4c8e-9878-fd92d42f639e","ios":"levelo://app?vid=4d9fef9f-68d5-4c8e-9878-fd92d42f639e"},"vehicle_type_id":"4","last_reported":1698257336,"current_range_meters":22400,"station_id":"ce4bhch2rcd13ifvqeug","pricing_plan_id":"free"},