{"last_updated":1701713382,"ttl":30,"version":"2.2","data":{"bikes":[{"bike_id":"29c293ce-a4c7-4abe-af96-41a2fd0c3ac3","system_id":"levelo_inurba_marseille","lat":43.312239,"lon":5.368562,"is_reserved":false,"is_disabled":false,"rental_uris":{"android":"levelo://app?vid=29c293ce-a4c7-4abe-af96-41a2fd0c3ac3","ios":"levelo://app?vid=29c293ce-a4c7-4abe-af96-41a2fd0c3ac3"},"vehicle_type_id":"4","last_reported":1701713382,"current_range_meters":15200,"station_id":"ce4bgl92rcd13ifvqbq0","pricing_plan_id":"free"},{"bike_id":"b8614dab-f931-452b-b51b-35660514ffb9","system_id":"levelo_inurba_marseille","lat":43.314811,"lon":5.373104,"is_reserved":false,"is_disabled":false,"rental_uris":{"android":"levelo://app?vid=b8614dab-f931-452b-b51b-35660514ffb9","ios":"levelo://app?vid=b8614dab-f931-452b-b51b-35660514ffb9"},"vehicle_type_id":"4","last_reported":1701713382,"current_range_meters":16000,"station_id":"ce4bgt12rcd13ifvqcd0","pricing_plan_id":"free"},{"bike_id":"ca13cb6b-cfaa-4150-98b7-259ba629aaf9","system_id":"levelo_inurba_marseille","lat":43.314811,"lon":5.373103,"is_reserved":false,"is_disabled":false,"rental_uris":{"android":"levelo://app?vid=ca13cb6b-cfaa-4150-98b7-259ba629aaf9","ios":"levelo://app?vid=ca13cb6b-cfaa-4150-98b7-259ba629aaf9"},"vehicle_type_id":"4","last_reported":1701713382,"current_range_meters":26400,"station_id":"ce4bgt12rcd13ifvqcd0","pricing_plan_id":"free"},{"bike_id":"0aac4d96-ad60-48ca-b0c6-f9c204ebf05f","system_id":"levelo_inurba_marseille","lat":43.30546,"lon":5.36546,"is_reserved":false,"is_disabled":false,"rental_uris":{"android":"levelo://app?vid=0aac4d96-ad60-48ca-b0c6-f9c204ebf05f","ios":"levelo://app?vid=0aac4d96-ad60-48ca-b0c6-f9c204ebf05f"},"vehicle_type_id":"4","last_reported":1701713382,"current_range_meters":0,"station_id":"ce4bgs12rcd13ifvqcag","pricing_plan_id":"free"},{"bike_id":"b717bc25-219e-4eb0-b46e-42b865d61135","system_id":"levelo_inurba_marseille","lat":43.305714,"lon":5.365633,"is_reserved":false,"is_disabled":false,"rental_uris":{"android":"levelo://app?vid=b717bc25-219e-4eb0-b46e-42b865d61135","ios":"levelo://app?vid=b717bc25-219e-4eb0-b46e-42b865d61135"},"vehicle_type_id":"4","last_reported":1701713382,"current_range_meters":9600,"station_id":"ce4bgs12rcd13ifvqcag","pricing_plan_id":"free"},{"bike_id":"5d597ddc-1808-4b9b-82bd-5e6a70aefaca","system_id":"levelo_inurba_marseille","lat":43.319433,"lon":5.372987,"is_reserved":false,"is_disabled":false,"rental_uris":{"android":"levelo://app?vid=5d597ddc-1808-4b9b-82bd-5e6a70aefaca","ios":"levelo://app?vid=5d597ddc-1808-4b9b-82bd-5e6a70aefaca"},"vehicle_type_id":"4","last_reported":1701713382,"current_range_meters":0,"station_id":"","pricing_plan_id":"free"},{"bike_id":"c0799d16-c8a8-4cee-9b0a-69ef1a765b40","system_id":"levelo_inurba_marseille","lat":43.308156,"lon":5.376729,"is_reserved":false,"is_disabled":false,"rental_uris":{"android":"levelo://app?vid=c0799d16-c8a8-4cee-9b0a-69ef1a765b40","ios":"levelo://app?vid=c0799d16-c8a8-4cee-9b0a-69ef1a765b40"},"vehicle_type_id":"4","last_reported":1701713382,"current_range_meters":28400,"station_id":"ce4bgv92rcd13ifvqcq0","pricing_plan_id":"free"},{"bike_id":"20d003a5-be2d-4238-ad61-cbb606c0696c","system_id":"levelo_inurba_marseille","lat":43.317075,"lon":5.377367,"is_reserved":false,"is_disabled":false,"rental_uris":{"android":"levelo://app?vid=20d003a5-be2d-4238-ad61-cbb606c0696c","ios":"levelo://app?vid=20d003a5-be2d-4238-ad61-cbb606c0696c"},"vehicle_type_id":"4","last_reported":1701713382,"current_range_meters":30000,"station_id":"ce4bgth2rcd13ifvqch0","pricing_plan_id":"free"},{"bike_id":"fb6fd937-527b-4585-9058-0dfdc6436ac8","system_id":"levelo_inurba_marseille","lat":43.31351,"lon":5.37909,"is_reserved":false,"is_disabled":false,"rental_uris":{"android":"levelo://app?vid=fb6fd937-527b-4585-9058-0dfdc6436ac8","ios":"levelo://app?vid=fb6fd937-527b-4585-9058-0dfdc6436ac8"},"vehicle_type_id":"4","last_reported":1701713382,"current_range_meters":13200,"station_id":"","pricing_plan_id":"free"},{"bike_id":"9bb70f87-1ef4-456e-af57-552ed12489c1","system_id":"levelo_inurba_marseille","lat":43.301939,"lon":5.366286,"is_reserved":false,"is_disabled":false,"rental_uris":{"android":"levelo://app?vid=9bb70f87-1ef4-456e-af57-552ed12489c1","ios":"levelo://app?vid=9bb70f87-1ef4-456e-af57-552ed12489c1"},"vehicle_type_id":"4","last_reported":1701713382,"current_range_meters":27200,"station_id":"ce4bgrh2rcd13ifvqc8g","pricing_plan_id":"free"},{"bike_id":"021f1503-81a5-4b27-aa72-bcfe0fd6c348","system_id":"levelo_inurba_marseille","lat":43.30802,"lon":5.38155,"is_reserved":false,"is_disabled":false,"rental_uris":{"android":"levelo://app?vid=021f1503-81a5-4b27-aa72-bcfe0fd6c348","ios":"levelo://app?vid=021f1503-81a5-4b27-aa72-bcfe0fd6c348"},"vehicle_type_id":"4","last_reported":1701713382,"current_range_meters":11200,"station_id":"ce4bgt12rcd13ifvqce0","pricing_plan_id":"free"},{"bike_id":"4ccc2e27-6265-490a-9033-b322b49b7bef","system_id":"levelo_inurba_marseille","lat":43.307946,"lon":5.381636,"is_reserved":false,"is_disabled":false,"rental_uris":{"android":"levelo://app?vid=4ccc2e27-6265-490a-9033-b322b49b7bef","ios":"levelo://app?vid=4ccc2e27-6265-490a-9033-b322b49b7bef"},"vehicle_type_id":"4","last_reported":1701713382,"current_range_meters":0,"station_id":"ce4bgt12rcd13ifvqce0","pricing_plan_id":"free"},{"bike_id":"a6308f2a-c874-4e05-825b-a5b7c92809b2","system_id":"levelo_inurba_marseille","lat":43.30799,"lon":5.38174,"is_reserved":false,"is_disabled":false,"rental_uris":{"android":"levelo://app?vid=a6308f2a-c874-4e05-825b-a5b7c92809b2","ios":"levelo://app?vid=a6308f2a-c874-4e05-825b-a5b7c92809b2"},"vehicle_type_id":"4","last_reported":1701713382,"current_range_meters":18000,"station_id":"ce4bgt12rcd13ifvqce0","pricing_plan_id":"free"},{"bike_id":"5243c65c-07c8-44f2-9194-23422de731b0","system_id":"levelo_inurba_marseille","lat":43.30804,"lon":5.38178,"is_reserved":false,"is_disabled":false,"rental_uris":{"android":"levelo://app?vid=5243c65c-07c8-44f2-9194-23422de731b0","ios":"levelo://app?vid=5243c65c-07c8-44f2-9194-23422de731b0"},"vehicle_type_id":"4","last_reported":1701713382,"current_range_meters":13600,"station_id":"ce4bgt12rcd13ifvqce0","pricing_plan_id":"free"},{"bike_id":"6040ac9a-cd3b-4d53-8520-9fa5b5b4cd6b","system_id":"levelo_inurba_marseille","lat":43.32475,"lon":5.3657,"is_reserved":false,"is_disabled":false,"rental_uris":{"android":"levelo://app?vid=6040ac9a-cd3b-4d53-8520-9fa5b5b4cd6b","ios":"levelo://app?vid=6040ac9a-cd3b-4d53-8520-9fa5b5b4cd6b"},"vehicle_type_id":"4","last_reported":1701713382,"current_range_meters":11200,"station_id":"ce4bhs12rcd13ifvqhvg","pricing_plan_id":"free"},{"bike_id":"02730385-29e4-40b8-ac4c-ff326b96dadd","system_id":"levelo_inurba_marseille","lat":43.3248,"lon":5.36564,"is_reserved":false,"is_disabled":false,"rental_uris":{"android":"levelo://app?vid=02730385-29e4-40b8-ac4c-ff326b96dadd","ios":"levelo://app?vid=02730385-29e4-40b8-ac4c-ff326b96dadd"},"vehicle_type_id":"4","last_reported":1701713382,"current_range_meters":18400,"station_id":"ce4bhs12rcd13ifvqhvg","pricing_plan_id":"free"},{"bike_id":"2275aca5-3158-4c2c-8022-ca5d2714bc86","system_id":"levelo_inurba_marseille","lat":43.319997,"lon":5.381594,"is_reserved":false,"is_disabled":false,"rental_uris":{"android":"levelo://app?vid=2275aca5-3158-4c2c-8022-ca5d2714bc86","ios":"levelo://app?vid=2275aca5-3158-4c2c-8022-ca5d2714bc86"},"vehicle_type_id":"4","last_reported":1701713382,"current_range_meters":6800,"station_id":"ce4bhr12rcd13ifvqhpg","pricing_plan_id":"free"},{"bike_id":"8d8fd694-12cc-47ae-9934-8f30c267a40b","system_id":"levelo_inurba_marseille","lat":43.313571,"lon":5.384829,"is_reserved":false,"is_disabled":false,"rental_uris":{"android":"levelo://app?vid=8d8fd694-12cc-47ae-9934-8f30c267a40b","ios":"levelo://app?vid=8d8fd694-12cc-47ae-9934-8f30c267a40b"},"vehicle_type_id":"4","last_reported":1701713382,"current_range_meters":0,"station_id":"ce4bgt92rcd13ifvqcf0","pricing_plan_id":"free"},{"bike_id":"3b806ed1-d6d5-4df9-8004-9bed2b199cee","system_id":"levelo_inurba_marseille","lat":43.313571,"lon":5.384829,"is_reserved":false,"is_disabled":false,"rental_uris":{"android":"levelo://app?vid=3b806ed1-d6d5-4df9-8004-9bed2b199cee","ios":"levelo://app?vid=3b806ed1-d6d5-4df9-8004-9bed2b199cee"},"vehicle_type_id":"4","last_reported":1701713382,"current_range_meters":24000,"station_id":"ce4bgt92rcd13ifvqcf0","pricing_plan_id":"free"},{"bike_id":"9fdb7f97-586d-42d2-befd-15216ba2e422","system_id":"levelo_inurba_marseille","lat":43.31183,"lon":5.38523,"is_reserved":false,"is_disabled":false,"rental_uris":{"android":"levelo://app?vid=9fdb7f97-586d-42d2-befd-15216ba2e422","ios":"levelo://app?vid=9fdb7f97-586d-42d2-befd-15216ba2e422"},"vehicle_type_id":"4","last_reported":1701713382,"current_range_meters":0,"station_id":"","pricing_plan_id":"free"},{"bike_id":"0b0c5b69-dc1e-4ed7-b603-0761d066c542","system_id":"levelo_inurba_marseille","lat":43.298433,"lon":5.362774,"is_reserved":false,"is_disabled":false,"rental_uris":{"android":"levelo://app?vid=0b0c5b69-dc1e-4ed7-b603-0761d066c542","ios":"levelo://app?vid=0b0c5b69-dc1e-4ed7-b603-0761d066c542"},"vehicle_type_id":"4","last_reported":1701713382,"current_range_meters":26400,"station_id":"ce4bgpp2rcd13ifvqc3g","pricing_plan_id":"free"},{"bike_id":"ec0934e8-60ff-4d3c-bdfb-e704ccd903ee","system_id":"levelo_inurba_marseille","lat":43.298433,"lon":5.362774,"is_reserved":false,"is_disabled":false,"rental_uris":{"android":"levelo://app?vid=ec0934e8-60ff-4d3c-bdfb-e704ccd903ee","ios":"levelo://app?vid=ec0934e8-60ff-4d3c-bdfb-e704ccd903ee"},"vehicle_type_id":"4","last_reported":1701713382,"current_range_meters":24800,"station_id":"ce4bgpp2rcd13ifvqc3g","pricing_plan_id":"free"},{"bike_id":"421cc4d7-04e6-43bc-8d6e-15195c6ed0aa","system_id":"levelo_inurba_marseille","lat":43.298433,"lon":5.362774,"is_reserved":false,"is_disabled":false,"rental_uris":{"android":"levelo://app?vid=421cc4d7-04e6-43bc-8d6e-15195c6ed0aa","ios":"levelo://app?vid=421cc4d7-04e6-43bc-8d6e-15195c6ed0aa"},"vehicle_type_id":"4","last_reported":1701713382,"current_range_meters":16800,"station_id":"ce4bgpp2rcd13ifvqc3g","pricing_plan_id":"free"},{"bike_id":"1ca71ceb-fc85-47b6-8930-e0f7cbe97484","system_id":"levelo_inurba_marseille","lat":43.311722,"lon":5.387247,"is_reserved":false,"is_disabled":false,"rental_uris":{"android":"levelo://app?vid=1ca71ceb-fc85-47b6-8930-e0f7cbe97484","ios":"levelo://app?vid=1ca71ceb-fc85-47b6-8930-e0f7cbe97484"},"vehicle_type_id":"4","last_reported":1701713382,"current_range_meters":16800,"station_id":"ce4bgv12rcd13ifvqcp0","pricing_plan_id":"free"},{"bike_id":"47321b85-2ddb-4fa3-8d13-00bea002eae7","system_id":"levelo_inurba_marseille","lat":43.322872,"lon":5.382756,"is_reserved":false,"is_disabled":false,"rental_uris":{"android":"levelo://app?vid=47321b85-2ddb-4fa3-8d13-00bea002eae7","ios":"levelo://app?vid=47321b85-2ddb-4fa3-8d13-00bea002eae7"},"vehicle_type_id":"4","last_reported":1701713382,"current_range_meters":28000,"station_id":"ce4bhr12rcd13ifvqhqg","pricing_plan_id":"free"},{"bike_id":"cb8f4c3a-456c-4d50-8ea3-298e057d608b","system_id":"levelo_inurba_marseille","lat":43.322872,"lon":5.382756,"is_reserved":false,"is_disabled":false,"rental_uris":{"android":"levelo://app?vid=cb8f4c3a-456c-4d50-8ea3-298e057d608b","ios":"levelo://app?vid=cb8f4c3a-456c-4d50-8ea3-298e057d608b"},"vehicle_type_id":"4","last_reported":1701713382,"current_range_meters":14000,"station_id":"ce4bhr12rcd13ifvqhqg","pricing_plan_id":"free"},{"bike_id":"c6ce3b8f-2076-4eb8-b7d5-d674dca50e8e","system_id":"levelo_inurba_marseille","lat":43.32825,"lon":5.36679,"is_reserved":false,"is_disabled":false,"rental_uris":{"android":"levelo://app?vid=c6ce3b8f-2076-4eb8-b7d5-d674dca50e8e","ios":"levelo://app?vid=c6ce3b8f-2076-4eb8-b7d5-d674dca50e8e"},"vehicle_type_id":"4","last_reported":1701713382,"current_range_meters":6000,"station_id":"ce4bhs92rcd13ifvqi0g","pricing_plan_id":"free"},{"bike_id":"0361d7ef-5513-401b-a621-ec179ebdcafe","system_id":"levelo_inurba_marseille","lat":43.298218,"lon":5.374416,"is_reserved":false,"is_disabled":false,"rental_uris":{"android":"levelo://app?vid=0361d7ef-5513-401b-a621-ec179ebdcafe","ios":"levelo://app?vid=0361d7ef-5513-401b-a621-ec179ebdcafe"},"vehicle_type_id":"4","last_reported":1701713382,"current_range_meters":20400,"station_id":"","pricing_plan_id":"free"},{"bike_id":"f8284d70-c5e7-490d-9c5a-74a62dd38512","system_id":"levelo_inurba_marseille","lat":43.32832,"lon":5.36676,"is_reserved":false,"is_disabled":false,"rental_uris":{"android":"levelo://app?vid=f8284d70-c5e7-490d-9c5a-74a62dd38512","ios":"levelo://app?vid=f8284d70-c5e7-490d-9c5a-74a62dd38512"},"vehicle_type_id":"4","last_reported":1701713382,"current_range_meters":12000,"station_id":"ce4bhs92rcd13ifvqi0g","pricing_plan_id":"free"},{"bike_id":"eaa0e7e7-2390-47fa-909b-7b240952cbef","system_id":"levelo_inurba_marseille","lat":43.316538,"lon":5.38954,"is_reserved":false,"is_disabled":false,"rental_uris":{"android":"levelo://app?vid=eaa0e7e7-2390-47fa-909b-7b240952cbef","ios":"levelo://app?vid=eaa0e7e7-2390-47fa-909b-7b240952cbef"},"vehicle_type_id":"4","last_reported":1701713382,"current_range_meters":16400,"station_id":"","pricing_plan_id":"free"},{"bike_id":"29c9547d-0464-4974-963c-5790551610b7","system_id":"levelo_inurba_marseille","lat":43.296131,"lon":5.370791,"is_reserved":false,"is_disabled":false,"rental_uris":{"android":"levelo://app?vid=29c9547d-0464-4974-963c-5790551610b7","ios":"levelo://app?vid=29c9547d-0464-4974-963c-5790551610b7"},"vehicle_type_id":"4","last_reported":1701713382,"current_range_meters":12800,"station_id":"ce4bgnh2rcd13ifvqc0g","pricing_plan_id":"free"},{"bike_id":"eb6e7f47-d703-40d3-b365-ef330215af35","system_id":"levelo_inurba_marseille","lat":43.29573,"lon":5.367355,"is_reserved":false,"is_disabled":false,"rental_uris":{"android":"levelo://app?vid=eb6e7f47-d703-40d3-b365-ef330215af35","ios":"levelo://app?vid=eb6e7f47-d703-40d3-b365-ef330215af35"},"vehicle_type_id":"4","last_reported":1701713382,"current_range_meters":28000,"station_id":"ce4bgph2rcd13ifvqc2g","pricing_plan_id":"free"},{"bike_id":"71448ccd-9d25-4704-b48a-d448c4dbcd14","system_id":"levelo_inurba_marseille","lat":43.29577,"lon":5.36742,"is_reserved":false,"is_disabled":false,"rental_uris":{"android":"levelo://app?vid=71448ccd-9d25-4704-b48a-d448c4dbcd14","ios":"levelo://app?vid=71448ccd-9d25-4704-b48a-d448c4dbcd14"},"vehicle_type_id":"4","last_reported":1701713382,"current_range_meters":8400,"station_id":"ce4bgph2rcd13ifvqc2g","pricing_plan_id":"free"},{"bike_id":"70c33660-bf74-403c-a0ae-384880103157","system_id":"levelo_inurba_marseille","lat":43.317557,"lon":5.390173,"is_reserved":false,"is_disabled":false,"rental_uris":{"android":"levelo://app?vid=70c33660-bf74-403c-a0ae-384880103157","ios":"levelo://app?vid=70c33660-bf74-403c-a0ae-384880103157"},"vehicle_type_id":"4","last_reported":1701713382,"current_range_meters":21600,"station_id":"ce4bhqp2rcd13ifvqhng","pricing_plan_id":"free"},{"bike_id":"2682baaf-298d-4ab7-88fc-731b2bc3d0f3","system_id":"levelo_inurba_marseille","lat":43.317557,"lon":5.390173,"is_reserved":false,"is_disabled":false,"rental_uris":{"android":"levelo://app?vid=2682baaf-298d-4ab7-88fc-731b2bc3d0f3","ios":"levelo://app?vid=2682baaf-298d-4ab7-88fc-731b2bc3d0f3"},"vehicle_type_id":"4","last_reported":1701713382,"current_range_meters":28000,"station_id":"ce4bhqp2rcd13ifvqhng","pricing_plan_id":"free"},{"bike_id":"ba56007f-9a72-4563-801c-1a936cc6bc3c","system_id":"levelo_inurba_marseille","lat":43.317557,"lon":5.390173,"is_reserved":false,"is_disabled":false,"rental_uris":{"android":"levelo://app?vid=ba56007f-9a72-4563-801c-1a936cc6bc3c","ios":"levelo://app?vid=ba56007f-9a72-4563-801c-1a936cc6bc3c"},"vehicle_type_id":"4","last_reported":1701713382,"current_range_meters":24400,"station_id":"ce4bhqp2rcd13ifvqhng","pricing_plan_id":"free"},{"bike_id":"c6c5acc0-3971-43b9-ba4d-33c881a5a76e","system_id":"levelo_inurba_marseille","lat":43.317557,"lon":5.390173,"is_reserved":false,"is_disabled":false,"rental_uris":{"android":"levelo://app?vid=c6c5acc0-3971-43b9-ba4d-33c881a5a76e","ios":"levelo://app?vid=c6c5acc0-3971-43b9-ba4d-33c881a5a76e"},"vehicle_type_id":"4","last_reported":1701713382,"current_range_meters":28800,"station_id":"ce4bhqp2rcd13ifvqhng","pricing_plan_id":"free"},{"bike_id":"cbdb1b26-1b7b-4316-9220-24d1960a98cf","system_id":"levelo_inurba_marseille","lat":43.317557,"lon":5.390173,"is_reserved":false,"is_disabled":false,"rental_uris":{"android":"levelo://app?vid=cbdb1b26-1b7b-4316-9220-24d1960a98cf","ios":"levelo://app?vid=cbdb1b26-1b7b-4316-9220-24d1960a98cf"},"vehicle_type_id":"4","last_reported":1701713382,"current_range_meters":31200,"station_id":"ce4bhqp2rcd13ifvqhng","pricing_plan_id":"free"},{"bike_id":"a71c79c9-2e02-4efa-8ab0-fbd47268f50a","system_id":"levelo_inurba_marseille","lat":43.31754,"lon":5.39028,"is_reserved":false,"is_disabled":false,"rental_uris":{"android":"levelo://app?vid=a71c79c9-2e02-4efa-8ab0-fbd47268f50a","ios":"levelo://app?vid=a71c79c9-2e02-4efa-8ab0-fbd47268f50a"},"vehicle_type_id":"4","last_reported":1701713382,"current_range_meters":18800,"station_id":"ce4bhqp2rcd13ifvqhng","pricing_plan_id":"free"},{"bike_id":"3cf503f8-ed65-4869-befa-7eb8bfbd0ca6","system_id":"levelo_inurba_marseille","lat":43.304278,"lon":5.388868,"is_reserved":false,"is_disabled":false,"rental_uris":{"android":"levelo://app?vid=3cf503f8-ed65-4869-befa-7eb8bfbd0ca6","ios":"levelo://app?vid=3cf503f8-ed65-4869-befa-7eb8bfbd0ca6"},"vehicle_type_id":"4","last_reported":1701713382,"current_range_meters":21200,"station_id":"ce4bgk12rcd13ifvqbi0","pricing_plan_id":"free"},{"bike_id":"16a3fc0d-6043-4626-96dc-addc8a538056","system_id":"levelo_inurba_marseille","lat":43.29601,"lon":5.381084,"is_reserved":false,"is_disabled":false,"rental_uris":{"android":"levelo://app?vid=16a3fc0d-6043-4626-96dc-addc8a538056","ios":"levelo://app?vid=16a3fc0d-6043-4626-96dc-addc8a538056"},"vehicle_type_id":"4","last_reported":1701713382,"current_range_meters":10400,"station_id":"ce4bgl12rcd13ifvqbo0","pricing_plan_id":"free"},{"bike_id":"3f2fcb75-7cde-4e53-8c88-f5813ba41b92","system_id":"levelo_inurba_marseille","lat":43.292311,"lon":5.360731,"is_reserved":false,"is_disabled":false,"rental_uris":{"android":"levelo://app?vid=3f2fcb75-7cde-4e53-8c88-f5813ba41b92","ios":"levelo://app?vid=3f2fcb75-7cde-4e53-8c88-f5813ba41b92"},"vehicle_type_id":"4","last_reported":1701713382,"current_range_meters":13200,"station_id":"ce4bhbh2rcd13ifvqeqg","pricing_plan_id":"free"},{"bike_id":"4bdfcc61-3427-4ab9-be8e-8def3742e90d","system_id":"levelo_inurba_marseille","lat":43.291994,"lon":5.357886,"is_reserved":false,"is_disabled":false,"rental_uris":{"android":"levelo://app?vid=4bdfcc61-3427-4ab9-be8e-8def3742e90d","ios":"levelo://app?vid=4bdfcc61-3427-4ab9-be8e-8def3742e90d"},"vehicle_type_id":"4","last_reported":1701713382,"current_range_meters":27200,"station_id":"ce4bhb12rcd13ifvqel0","pricing_plan_id":"free"},{"bike_id":"72ced8ef-1469-4551-a65f-8b9ffe4598ee","system_id":"levelo_inurba_marseille","lat":43.309038,"lon":5.396546,"is_reserved":false,"is_disabled":false,"rental_uris":{"android":"levelo://app?vid=72ced8ef-1469-4551-a65f-8b9ffe4598ee","ios":"levelo://app?vid=72ced8ef-1469-4551-a65f-8b9ffe4598ee"},"vehicle_type_id":"4","last_reported":1701713382,"current_range_meters":26800,"station_id":"ce4bh012rcd13ifvqcv0","pricing_plan_id":"free"},{"bike_id":"ecd82411-aab0-43e7-b02c-4e589a0fb909","system_id":"levelo_inurba_marseille","lat":43.309038,"lon":5.396546,"is_reserved":false,"is_disabled":false,"rental_uris":{"android":"levelo://app?vid=ecd82411-aab0-43e7-b02c-4e589a0fb909","ios":"levelo://app?vid=ecd82411-aab0-43e7-b02c-4e589a0fb909"},"vehicle_type_id":"4","last_reported":1701713382,"current_range_meters":4800,"station_id":"ce4bh012rcd13ifvqcv0","pricing_plan_id":"free"},{"bike_id":"38c7ebdf-551d-49a0-8540-b400edd29f5d","system_id":"levelo_inurba_marseille","lat":43.309038,"lon":5.396546,"is_reserved":false,"is_disabled":false,"rental_uris":{"android":"levelo://app?vid=38c7ebdf-551d-49a0-8540-b400edd29f5d","ios":"levelo://app?vid=38c7ebdf-551d-49a0-8540-b400edd29f5d"},"vehicle_type_id":"4","last_reported":1701713382,"current_range_meters":12800,"station_id":"ce4bh012rcd13ifvqcv0","pricing_plan_id":"free"},{"bike_id":"3c9310b7-b6f2-47db-b2c9-7a1dd42e043d","system_id":"levelo_inurba_marseille","lat":43.290631,"lon":5.359244,"is_reserved":false,"is_disabled":false,"rental_uris":{"android":"levelo://app?vid=3c9310b7-b6f2-47db-b2c9-7a1dd42e043d","ios":"levelo://app?vid=3c9310b7-b6f2-47db-b2c9-7a1dd42e043d"},"vehicle_type_id":"4","last_reported":1701713382,"current_range_meters":29600,"station_id":"ce4bha92rcd13ifvqeg0","pricing_plan_id":"free"},{"bike_id":"c912687a-3e7d-469d-aa63-662a8ada4d68","system_id":"levelo_inurba_marseille","lat":43.294162,"lon":5.386292,"is_reserved":false,"is_disabled":false,"rental_uris":{"android":"levelo://app?vid=c912687a-3e7d-469d-aa63-662a8ada4d68","ios":"levelo://app?vid=c912687a-3e7d-469d-aa63-662a8ada4d68"},"vehicle_type_id":"4","last_reported":1701713382,"current_range_meters":28800,"station_id":"ce4bh2h2rcd13ifvqdh0","pricing_plan_id":"free"},{"bike_id":"aadbe002-6705-4e8b-aaae-59ad38c628cf","system_id":"levelo_inurba_marseille","lat":43.28949,"lon":5.36446,"is_reserved":false,"is_disabled":false,"rental_uris":{"android":"levelo://app?vid=aadbe002-6705-4e8b-aaae-59ad38c628cf","ios":"levelo://app?vid=aadbe002-6705-4e8b-aaae-59ad38c628cf"},"vehicle_type_id":"4","last_reported":1701713382,"current_range_meters":22400,"station_id":"ce4bhc92rcd13ifvqetg","pricing_plan_id":"free"},{"bike_id":"c03c955e-3f9e-48d9-af72-b05a6bc2c275","system_id":"levelo_inurba_marseille","lat":43.289184,"lon":5.366408,"is_reserved":false,"is_disabled":false,"rental_uris":{"android":"levelo://app?vid=c03c955e-3f9e-48d9-af72-b05a6bc2c275","ios":"levelo://app?vid=c03c955e-3f9e-48d9-af72-b05a6bc2c275"},"vehicle_type_id":"4","last_reported":1701713382,"current_range_meters":8400,"station_id":"ce4bhap2rcd13ifvqek0","pricing_plan_id":"free"},{"bike_id":"e61fcd25-81d7-4943-ba73-c33aa29920a0","system_id":"levelo_inurba_marseille","lat":43.33042,"lon":5.3891,"is_reserved":false,"is_disabled":false,"rental_uris":{"android":"levelo://app?vid=e61fcd25-81d7-4943-ba73-c33aa29920a0","ios":"levelo://app?vid=e61fcd25-81d7-4943-ba73-c33aa29920a0"},"vehicle_type_id":"4","last_reported":1701713382,"current_range_meters":16400,"station_id":"ce4bhr92rcd13ifvqhrg","pricing_plan_id":"free"},{"bike_id":"cb242e7f-6fff-41b4-a45e-409ccacda126","system_id":"levelo_inurba_marseille","lat":43.290104,"lon":5.356111,"is_reserved":false,"is_disabled":false,"rental_uris":{"android":"levelo://app?vid=cb242e7f-6fff-41b4-a45e-409ccacda126","ios":"levelo://app?vid=cb242e7f-6fff-41b4-a45e-409ccacda126"},"vehicle_type_id":"4","last_reported":1701713382,"current_range_meters":26000,"station_id":"ce4bhb92rcd13ifvqen0","pricing_plan_id":"free"},{"bike_id":"abc4e9ed-ee3d-4e8e-a294-f9089d8a5d11","system_id":"levelo_inurba_marseille","lat":43.290995,"lon":5.381361,"is_reserved":false,"is_disabled":false,"rental_uris":{"android":"levelo://app?vid=abc4e9ed-ee3d-4e8e-a294-f9089d8a5d11","ios":"levelo://app?vid=abc4e9ed-ee3d-4e8e-a294-f9089d8a5d11"},"vehicle_type_id":"4","last_reported":1701713382,"current_range_meters":11600,"station_id":"ce4bh512rcd13ifvqe2g","pricing_plan_id":"free"},{"bike_id":"9221a737-948a-40db-af3e-0f9899aa7d1f","system_id":"levelo_inurba_marseille","lat":43.295169,"lon":5.390426,"is_reserved":false,"is_disabled":false,"rental_uris":{"android":"levelo://app?vid=9221a737-948a-40db-af3e-0f9899aa7d1f","ios":"levelo://app?vid=9221a737-948a-40db-af3e-0f9899aa7d1f"},"vehicle_type_id":"4","last_reported":1701713382,"current_range_meters":18400,"station_id":"ce4bh3p2rcd13ifvqdp0","pricing_plan_id":"free"},{"bike_id":"e47e00d4-99fe-452e-9a49-110c89d3597a","system_id":"levelo_inurba_marseille","lat":43.295169,"lon":5.390426,"is_reserved":false,"is_disabled":false,"rental_uris":{"android":"levelo://app?vid=e47e00d4-99fe-452e-9a49-110c89d3597a","ios":"levelo://app?vid=e47e00d4-99fe-452e-9a49-110c89d3597a"},"vehicle_type_id":"4","last_reported":1701713382,"current_range_meters":22400,"station_id":"ce4bh3p2rcd13ifvqdp0","pricing_plan_id":"free"},{"bike_id":"dde14e32-7317-4630-bdcd-e591ba48777c","system_id":"levelo_inurba_marseille","lat":43.28856,"lon":5.358371,"is_reserved":false,"is_disabled":false,"rental_uris":{"android":"levelo://app?vid=dde14e32-7317-4630-bdcd-e591ba48777c","ios":"levelo://app?vid=dde14e32-7317-4630-bdcd-e591ba48777c"},"vehicle_type_id":"4","last_reported":1701713382,"current_range_meters":24400,"station_id":"ce4bhb12rcd13ifvqem0","pricing_plan_id":"free"},{"bike_id":"b1da507f-59bc-4bfa-9de7-dd18b0d37739","system_id":"levelo_inurba_marseille","lat":43.3374,"lon":5.37444,"is_reserved":false,"is_disabled":false,"rental_uris":{"android":"levelo://app?vid=b1da507f-59bc-4bfa-9de7-dd18b0d37739","ios":"levelo://app?vid=b1da507f-59bc-4bfa-9de7-dd18b0d37739"},"vehicle_type_id":"4","last_reported":1701713382,"current_range_meters":31200,"station_id":"","pricing_plan_id":"free"},{"bike_id":"fae69cf1-9edd-4c31-aaec-ddcdd1a95f1b","system_id":"levelo_inurba_marseille","lat":43.30927,"lon":5.40141,"is_reserved":false,"is_disabled":false,"rental_uris":{"android":"levelo://app?vid=fae69cf1-9edd-4c31-aaec-ddcdd1a95f1b","ios":"levelo://app?vid=fae69cf1-9edd-4c31-aaec-ddcdd1a95f1b"},"vehicle_type_id":"4","last_reported":1701713382,"current_range_meters":23600,"station_id":"ce4bgvp2rcd13ifvqct0","pricing_plan_id":"free"},{"bike_id":"799c0d1d-4dbb-441f-8418-b8e953994f7d","system_id":"levelo_inurba_marseille","lat":43.312609,"lon":5.401662,"is_reserved":false,"is_disabled":false,"rental_uris":{"android":"levelo://app?vid=799c0d1d-4dbb-441f-8418-b8e953994f7d","ios":"levelo://app?vid=799c0d1d-4dbb-441f-8418-b8e953994f7d"},"vehicle_type_id":"4","last_reported":1701713382,"current_range_meters":25600,"station_id":"ce4bh092rcd13ifvqd30","pricing_plan_id":"free"},{"bike_id":"2fbea006-0d22-445c-bfc1-d379dcddc1c1","system_id":"levelo_inurba_marseille","lat":43.337607,"lon":5.374563,"is_reserved":false,"is_disabled":false,"rental_uris":{"android":"levelo://app?vid=2fbea006-0d22-445c-bfc1-d379dcddc1c1","ios":"levelo://app?vid=2fbea006-0d22-445c-bfc1-d379dcddc1c1"},"vehicle_type_id":"4","last_reported":1701713382,"current_range_meters":31200,"station_id":"","pricing_plan_id":"free"},{"bike_id":"dbeb873d-88dd-41cd-a629-67e3545fd36b","system_id":"levelo_inurba_marseille","lat":43.30653,"lon":5.40099,"is_reserved":false,"is_disabled":false,"rental_uris":{"android":"levelo://app?vid=dbeb873d-88dd-41cd-a629-67e3545fd36b","ios":"levelo://app?vid=dbeb873d-88dd-41cd-a629-67e3545fd36b"},"vehicle_type_id":"4","last_reported":1701713382,"current_range_meters":0,"station_id":"ce4bh112rcd13ifvqda0","pricing_plan_id":"free"},{"bike_id":"3a185b86-f571-4493-94a7-bdd3270efcc1","system_id":"levelo_inurba_marseille","lat":43.298681,"lon":5.397225,"is_reserved":false,"is_disabled":false,"rental_uris":{"android":"levelo://app?vid=3a185b86-f571-4493-94a7-bdd3270efcc1","ios":"levelo://app?vid=3a185b86-f571-4493-94a7-bdd3270efcc1"},"vehicle_type_id":"4","last_reported":1701713382,"current_range_meters":29600,"station_id":"ce4bh0h2rcd13ifvqd50","pricing_plan_id":"free"},{"bike_id":"11e58f71-d6dc-4c43-b781-07e35a1ab336","system_id":"levelo_inurba_marseille","lat":43.286961,"lon":5.373785,"is_reserved":false,"is_disabled":false,"rental_uris":{"android":"levelo://app?vid=11e58f71-d6dc-4c43-b781-07e35a1ab336","ios":"levelo://app?vid=11e58f71-d6dc-4c43-b781-07e35a1ab336"},"vehicle_type_id":"4","last_reported":1701713382,"current_range_meters":24800,"station_id":"ce4bh3p2rcd13ifvqdq0","pricing_plan_id":"free"},{"bike_id":"a601c19c-7e14-4a7f-9ff3-251a2960232f","system_id":"levelo_inurba_marseille","lat":43.298681,"lon":5.397225,"is_reserved":false,"is_disabled":false,"rental_uris":{"android":"levelo://app?vid=a601c19c-7e14-4a7f-9ff3-251a2960232f","ios":"levelo://app?vid=a601c19c-7e14-4a7f-9ff3-251a2960232f"},"vehicle_type_id":"4","last_reported":1701713382,"current_range_meters":4400,"station_id":"ce4bh0h2rcd13ifvqd50","pricing_plan_id":"free"},{"bike_id":"6a409e03-e675-49bd-8c3a-882393a4d576","system_id":"levelo_inurba_marseille","lat":43.286961,"lon":5.373785,"is_reserved":false,"is_disabled":false,"rental_uris":{"android":"levelo://app?vid=6a409e03-e675-49bd-8c3a-882393a4d576","ios":"levelo://app?vid=6a409e03-e675-49bd-8c3a-882393a4d576"},"vehicle_type_id":"4","last_reported":1701713382,"current_range_meters":10000,"station_id":"ce4bh3p2rcd13ifvqdq0","pricing_plan_id":"free"},{"bike_id":"e01035f1-b890-4169-9938-b021c978f8df","system_id":"levelo_inurba_marseille","lat":43.295196,"lon":5.39397,"is_reserved":false,"is_disabled":false,"rental_uris":{"android":"levelo://app?vid=e01035f1-b890-4169-9938-b021c978f8df","ios":"levelo://app?vid=e01035f1-b890-4169-9938-b021c978f8df"},"vehicle_type_id":"4","last_reported":1701713382,"current_range_meters":20000,"station_id":"ce4bh292rcd13ifvqdf0","pricing_plan_id":"free"},{"bike_id":"8a4153d5-d33a-4101-a29d-041ed5296634","system_id":"levelo_inurba_marseille","lat":43.286961,"lon":5.373785,"is_reserved":false,"is_disabled":false,"rental_uris":{"android":"levelo://app?vid=8a4153d5-d33a-4101-a29d-041ed5296634","ios":"levelo://app?vid=8a4153d5-d33a-4101-a29d-041ed5296634"},"vehicle_type_id":"4","last_reported":1701713382,"current_range_meters":28400,"station_id":"ce4bh3p2rcd13ifvqdq0","pricing_plan_id":"free"},{"bike_id":"e4869adb-b278-472d-a3e2-cb1f7cdc080f","system_id":"levelo_inurba_marseille","lat":43.290345,"lon":5.38646,"is_reserved":false,"is_disabled":false,"rental_uris":{"android":"levelo://app?vid=e4869adb-b278-472d-a3e2-cb1f7cdc080f","ios":"levelo://app?vid=e4869adb-b278-472d-a3e2-cb1f7cdc080f"},"vehicle_type_id":"4","last_reported":1701713382,"current_range_meters":2000,"station_id":"ce4bh4p2rcd13ifvqe0g","pricing_plan_id":"free"},{"bike_id":"47e4c15f-2708-478c-b85c-c11f029ac2b1","system_id":"levelo_inurba_marseille","lat":43.289307,"lon":5.38406,"is_reserved":false,"is_disabled":false,"rental_uris":{"android":"levelo://app?vid=47e4c15f-2708-478c-b85c-c11f029ac2b1","ios":"levelo://app?vid=47e4c15f-2708-478c-b85c-c11f029ac2b1"},"vehicle_type_id":"4","last_reported":1701713382,"current_range_meters":12800,"station_id":"ce4bh612rcd13ifvqe6g","pricing_plan_id":"free"},{"bike_id":"52a2e909-1e2b-4214-9c87-70b08da19726","system_id":"levelo_inurba_marseille","lat":43.29193,"lon":5.39326,"is_reserved":false,"is_disabled":false,"rental_uris":{"android":"levelo://app?vid=52a2e909-1e2b-4214-9c87-70b08da19726","ios":"levelo://app?vid=52a2e909-1e2b-4214-9c87-70b08da19726"},"vehicle_type_id":"4","last_reported":1701713382,"current_range_meters":18400,"station_id":"ce4bh192rcd13ifvqdd0","pricing_plan_id":"free"},{"bike_id":"cb44d5cb-05f1-4044-9cec-a2bd7ca862f4","system_id":"levelo_inurba_marseille","lat":43.29189,"lon":5.39322,"is_reserved":false,"is_disabled":false,"rental_uris":{"android":"levelo://app?vid=cb44d5cb-05f1-4044-9cec-a2bd7ca862f4","ios":"levelo://app?vid=cb44d5cb-05f1-4044-9cec-a2bd7ca862f4"},"vehicle_type_id":"4","last_reported":1701713382,"current_range_meters":0,"station_id":"ce4bh192rcd13ifvqdd0","pricing_plan_id":"free"},{"bike_id":"cffa22f3-f430-4bd4-a659-2363909827e5","system_id":"levelo_inurba_marseille","lat":43.28455,"lon":5.35911,"is_reserved":false,"is_disabled":false,"rental_uris":{"android":"levelo://app?vid=cffa22f3-f430-4bd4-a659-2363909827e5","ios":"levelo://app?vid=cffa22f3-f430-4bd4-a659-2363909827e5"},"vehicle_type_id":"4","last_reported":1701713382,"current_range_meters":31200,"station_id":"ce4bhah2rcd13ifvqei0","pricing_plan_id":"free"},{"bike_id":"e410a40c-05e0-42e1-990c-d4230c575e22","system_id":"levelo_inurba_marseille","lat":43.284562,"lon":5.358998,"is_reserved":false,"is_disabled":false,"rental_uris":{"android":"levelo://app?vid=e410a40c-05e0-42e1-990c-d4230c575e22","ios":"levelo://app?vid=e410a40c-05e0-42e1-990c-d4230c575e22"},"vehicle_type_id":"4","last_reported":1701713382,"current_range_meters":28400,"station_id":"ce4bhah2rcd13ifvqei0","pricing_plan_id":"free"},{"bike_id":"76604d8e-dae7-435b-9ec8-b1f853059ae9","system_id":"levelo_inurba_marseille","lat":43.28457,"lon":5.35891,"is_reserved":false,"is_disabled":false,"rental_uris":{"android":"levelo://app?vid=76604d8e-dae7-435b-9ec8-b1f853059ae9","ios":"levelo://app?vid=76604d8e-dae7-435b-9ec8-b1f853059ae9"},"vehicle_type_id":"4","last_reported":1701713382,"current_range_meters":29200,"station_id":"ce4bhah2rcd13ifvqei0","pricing_plan_id":"free"},{"bike_id":"894cd792-c2d0-4c32-9826-6cd4372d33d4","system_id":"levelo_inurba_marseille","lat":43.294314,"lon":5.397498,"is_reserved":false,"is_disabled":false,"rental_uris":{"android":"levelo://app?vid=894cd792-c2d0-4c32-9826-6cd4372d33d4","ios":"levelo://app?vid=894cd792-c2d0-4c32-9826-6cd4372d33d4"},"vehicle_type_id":"4","last_reported":1701713382,"current_range_meters":10000,"station_id":"ce4bh3h2rcd13ifvqdo0","pricing_plan_id":"free"},{"bike_id":"d8d94719-7a4d-48bb-a181-4caee99f9526","system_id":"levelo_inurba_marseille","lat":43.28455,"lon":5.35898,"is_reserved":false,"is_disabled":false,"rental_uris":{"android":"levelo://app?vid=d8d94719-7a4d-48bb-a181-4caee99f9526","ios":"levelo://app?vid=d8d94719-7a4d-48bb-a181-4caee99f9526"},"vehicle_type_id":"4","last_reported":1701713382,"current_range_meters":19200,"station_id":"ce4bhah2rcd13ifvqei0","pricing_plan_id":"free"},{"bike_id":"d51f0766-7fbf-4175-ad35-3cef124d662f","system_id":"levelo_inurba_marseille","lat":43.28455,"lon":5.35895,"is_reserved":false,"is_disabled":false,"rental_uris":{"android":"levelo://app?vid=d51f0766-7fbf-4175-ad35-3cef124d662f","ios":"levelo://app?vid=d51f0766-7fbf-4175-ad35-3cef124d662f"},"vehicle_type_id":"4","last_reported":1701713382,"current_range_meters":30800,"station_id":"ce4bhah2rcd13ifvqei0","pricing_plan_id":"free"},{"bike_id":"0262f1d7-4a61-453c-8505-5fa37bc3e4ae","system_id":"levelo_inurba_marseille","lat":43.284524,"lon":5.358954,"is_reserved":false,"is_disabled":false,"rental_uris":{"android":"levelo://app?vid=0262f1d7-4a61-453c-8505-5fa37bc3e4ae","ios":"levelo://app?vid=0262f1d7-4a61-453c-8505-5fa37bc3e4ae"},"vehicle_type_id":"4","last_reported":1701713382,"current_range_meters":28800,"station_id":"ce4bhah2rcd13ifvqei0","pricing_plan_id":"free"},{"bike_id":"2b2f9196-acf9-42ec-a840-0018142b82e5","system_id":"levelo_inurba_marseille","lat":43.28615,"lon":5.35107,"is_reserved":false,"is_disabled":false,"rental_uris":{"android":"levelo://app?vid=2b2f9196-acf9-42ec-a840-0018142b82e5","ios":"levelo://app?vid=2b2f9196-acf9-42ec-a840-0018142b82e5"},"vehicle_type_id":"4","last_reported":1701713382,"current_range_meters":19200,"station_id":"ce4bhch2rcd13ifvqeug","pricing_plan_id":"free"},{"bike_id":"169c6444-b60b-49f0-b7a2-c93e30dfdc65","system_id":"levelo_inurba_marseille","lat":43.28615,"lon":5.35105,"is_reserved":false,"is_disabled":false,"rental_uris":{"android":"levelo://app?vid=169c6444-b60b-49f0-b7a2-c93e30dfdc65","ios":"levelo://app?vid=169c6444-b60b-49f0-b7a2-c93e30dfdc65"},"vehicle_type_id":"4","last_reported":1701713382,"current_range_meters":20800,"station_id":"ce4bhch2rcd13ifvqeug","pricing_plan_id":"free"},{"bike_id":"8c9d1716-3fd0-4559-9e75-969d7b769d14","system_id":"levelo_inurba_marseille","lat":43.285856,"lon":5.350771,"is_reserved":false,"is_disabled":false,"rental_uris":{"android":"levelo://app?vid=8c9d1716-3fd0-4559-9e75-969d7b769d14","ios":"levelo://app?vid=8c9d1716-3fd0-4559-9e75-969d7b769d14"},"vehicle_type_id":"4","last_reported":1701713382,"current_range_meters":28400,"station_id":"ce4bhch2rcd13ifvqeug","pricing_plan_id":"free"},{"bike_id":"1dc738bf-0331-47e4-b128-8f9c5f19e554","system_id":"levelo_inurba_marseille","lat":43.283998,"lon":5.375062,"is_reserved":false,"is_disabled":false,"rental_uris":{"android":"levelo://app?vid=1dc738bf-0331-47e4-b128-8f9c5f19e554","ios":"levelo://app?vid=1dc738bf-0331-47e4-b128-8f9c5f19e554"},"vehicle_type_id":"4","last_reported":1701713382,"current_range_meters":14400,"station_id":"ce4bh412rcd13ifvqds0","pricing_plan_id":"free"},{"bike_id":"988e102d-bb1e-4a45-b559-d72bd97dc84e","system_id":"levelo_inurba_marseille","lat":43.283998,"lon":5.375062,"is_reserved":false,"is_disabled":false,"rental_uris":{"android":"levelo://app?vid=988e102d-bb1e-4a45-b559-d72bd97dc84e","ios":"levelo://app?vid=988e102d-bb1e-4a45-b559-d72bd97dc84e"},"vehicle_type_id":"4","last_reported":1701713382,"current_range_meters":28000,"station_id":"ce4bh412rcd13ifvqds0","pricing_plan_id":"free"},{"bike_id":"3aaa766c-12c1-4485-850d-b495677f1267","system_id":"levelo_inurba_marseille","lat":43.319179,"lon":5.407725,"is_reserved":false,"is_disabled":false,"rental_uris":{"android":"levelo://app?vid=3aaa766c-12c1-4485-850d-b495677f1267","ios":"levelo://app?vid=3aaa766c-12c1-4485-850d-b495677f1267"},"vehicle_type_id":"4","last_reported":1701713382,"current_range_meters":15200,"station_id":"ce4bhq12rcd13ifvqhig","pricing_plan_id":"free"},{"bike_id":"4b021143-be23-4d8d-ac72-086548831286","system_id":"levelo_inurba_marseille","lat":43.33717,"lon":5.391857,"is_reserved":false,"is_disabled":false,"rental_uris":{"android":"levelo://app?vid=4b021143-be23-4d8d-ac72-086548831286","ios":"levelo://app?vid=4b021143-be23-4d8d-ac72-086548831286"},"vehicle_type_id":"4","last_reported":1701713382,"current_range_meters":31200,"station_id":"ce4bhr92rcd13ifvqhsg","pricing_plan_id":"free"},{"bike_id":"23a6e18e-5ad6-40cf-b6fb-7a4b1a6034c9","system_id":"levelo_inurba_marseille","lat":43.337168,"lon":5.391825,"is_reserved":false,"is_disabled":false,"rental_uris":{"android":"levelo://app?vid=23a6e18e-5ad6-40cf-b6fb-7a4b1a6034c9","ios":"levelo://app?vid=23a6e18e-5ad6-40cf-b6fb-7a4b1a6034c9"},"vehicle_type_id":"4","last_reported":1701713382,"current_range_meters":28400,"station_id":"ce4bhr92rcd13ifvqhsg","pricing_plan_id":"free"},{"bike_id":"d9c34062-06f4-47d8-b2c6-b5c4ed46df2f","system_id":"levelo_inurba_marseille","lat":43.283502,"lon":5.386471,"is_reserved":false,"is_disabled":false,"rental_uris":{"android":"levelo://app?vid=d9c34062-06f4-47d8-b2c6-b5c4ed46df2f","ios":"levelo://app?vid=d9c34062-06f4-47d8-b2c6-b5c4ed46df2f"},"vehicle_type_id":"4","last_reported":1701713382,"current_range_meters":27200,"station_id":"ce4bh492rcd13ifvqdvg","pricing_plan_id":"free"},{"bike_id":"fb17d47e-3f8e-47e7-a8f8-5ac35613e1ae","system_id":"levelo_inurba_marseille","lat":43.28039,"lon":5.369297,"is_reserved":false,"is_disabled":false,"rental_uris":{"android":"levelo://app?vid=fb17d47e-3f8e-47e7-a8f8-5ac35613e1ae","ios":"levelo://app?vid=fb17d47e-3f8e-47e7-a8f8-5ac35613e1ae"},"vehicle_type_id":"4","last_reported":1701713382,"current_range_meters":24800,"station_id":"ce4bha12rcd13ifvqef0","pricing_plan_id":"free"},{"bike_id":"95f276d3-eef7-4fe3-b0a5-6c5ac309ccee","system_id":"levelo_inurba_marseille","lat":43.280424,"lon":5.369531,"is_reserved":false,"is_disabled":false,"rental_uris":{"android":"levelo://app?vid=95f276d3-eef7-4fe3-b0a5-6c5ac309ccee","ios":"levelo://app?vid=95f276d3-eef7-4fe3-b0a5-6c5ac309ccee"},"vehicle_type_id":"4","last_reported":1701713382,"current_range_meters":28800,"station_id":"ce4bha12rcd13ifvqef0","pricing_plan_id":"free"},{"bike_id":"052c7fc7-ace5-456c-a6c3-741f73450385","system_id":"levelo_inurba_marseille","lat":43.28039,"lon":5.369297,"is_reserved":false,"is_disabled":false,"rental_uris":{"android":"levelo://app?vid=052c7fc7-ace5-456c-a6c3-741f73450385","ios":"levelo://app?vid=052c7fc7-ace5-456c-a6c3-741f73450385"},"vehicle_type_id":"4","last_reported":1701713382,"current_range_meters":31600,"station_id":"ce4bha12rcd13ifvqef0","pricing_plan_id":"free"},{"bike_id":"dd3edbec-e53d-4db9-9a2b-757cc47bce65","system_id":"levelo_inurba_marseille","lat":43.28039,"lon":5.369297,"is_reserved":false,"is_disabled":false,"rental_uris":{"android":"levelo://app?vid=dd3edbec-e53d-4db9-9a2b-757cc47bce65","ios":"levelo://app?vid=dd3edbec-e53d-4db9-9a2b-757cc47bce65"},"vehicle_type_id":"4","last_reported":1701713382,"current_range_meters":27600,"station_id":"ce4bha12rcd13ifvqef0","pricing_plan_id":"free"},{"bike_id":"8bf9564f-62b1-426c-bced-de4c15a4c0ad","system_id":"levelo_inurba_marseille","lat":43.28039,"lon":5.369297,"is_reserved":false,"is_disabled":false,"rental_uris":{"android":"levelo://app?vid=8bf9564f-62b1-426c-bced-de4c15a4c0ad","ios":"levelo://app?vid=8bf9564f-62b1-426c-bced-de4c15a4c0ad"},"vehicle_type_id":"4","last_reported":1701713382,"current_range_meters":27600,"station_id":"ce4bha12rcd13ifvqef0","pricing_plan_id":"free"},{"bike_id":"378e06e1-57f0-47f1-a348-dd7d576fe732","system_id":"levelo_inurba_marseille","lat":43.280327,"lon":5.369489,"is_reserved":false,"is_disabled":false,"rental_uris":{"android":"levelo://app?vid=378e06e1-57f0-47f1-a348-dd7d576fe732","ios":"levelo://app?vid=378e06e1-57f0-47f1-a348-dd7d576fe732"},"vehicle_type_id":"4","last_reported":1701713382,"current_range_meters":31600,"station_id":"ce4bha12rcd13ifvqef0","pricing_plan_id":"free"},{"bike_id":"44cfc62b-232e-4d7d-aa55-798eaa87c981","system_id":"levelo_inurba_marseille","lat":43.281044,"lon":5.378308,"is_reserved":false,"is_disabled":false,"rental_uris":{"android":"levelo://app?vid=44cfc62b-232e-4d7d-aa55-798eaa87c981","ios":"levelo://app?vid=44cfc62b-232e-4d7d-aa55-798eaa87c981"},"vehicle_type_id":"4","last_reported":1701713382,"current_range_meters":0,"station_id":"ce4bha12rcd13ifvqee0","pricing_plan_id":"free"},{"bike_id":"789f3acf-8f66-423c-ac5e-48e11bae91cd","system_id":"levelo_inurba_marseille","lat":43.290412,"lon":5.399633,"is_reserved":false,"is_disabled":false,"rental_uris":{"android":"levelo://app?vid=789f3acf-8f66-423c-ac5e-48e11bae91cd","ios":"levelo://app?vid=789f3acf-8f66-423c-ac5e-48e11bae91cd"},"vehicle_type_id":"4","last_reported":1701713382,"current_range_meters":23200,"station_id":"ce4bh392rcd13ifvqdm0","pricing_plan_id":"free"},{"bike_id":"26d93fe7-da86-40ac-ba0d-3ae74186d6cc","system_id":"levelo_inurba_marseille","lat":43.281044,"lon":5.378308,"is_reserved":false,"is_disabled":false,"rental_uris":{"android":"levelo://app?vid=26d93fe7-da86-40ac-ba0d-3ae74186d6cc","ios":"levelo://app?vid=26d93fe7-da86-40ac-ba0d-3ae74186d6cc"},"vehicle_type_id":"4","last_reported":1701713382,"current_range_meters":800,"station_id":"ce4bha12rcd13ifvqee0","pricing_plan_id":"free"},{"bike_id":"dedf5e7d-1f3c-44a3-87c4-bc900e6b9cbb","system_id":"levelo_inurba_marseille","lat":43.29041,"lon":5.399634,"is_reserved":false,"is_disabled":false,"rental_uris":{"android":"levelo://app?vid=dedf5e7d-1f3c-44a3-87c4-bc900e6b9cbb","ios":"levelo://app?vid=dedf5e7d-1f3c-44a3-87c4-bc900e6b9cbb"},"vehicle_type_id":"4","last_reported":1701713382,"current_range_meters":12400,"station_id":"ce4bh392rcd13ifvqdm0","pricing_plan_id":"free"},{"bike_id":"86bf2a95-c203-46aa-ba5d-96cf822a7e99","system_id":"levelo_inurba_marseille","lat":43.281044,"lon":5.378308,"is_reserved":false,"is_disabled":false,"rental_uris":{"android":"levelo://app?vid=86bf2a95-c203-46aa-ba5d-96cf822a7e99","ios":"levelo://app?vid=86bf2a95-c203-46aa-ba5d-96cf822a7e99"},"vehicle_type_id":"4","last_reported":1701713382,"current_range_meters":19200,"station_id":"ce4bha12rcd13ifvqee0","pricing_plan_id":"free"},{"bike_id":"e3bd097c-06d9-4d0b-bf11-1d9787c8d3da","system_id":"levelo_inurba_marseille","lat":43.296263,"lon":5.40601,"is_reserved":false,"is_disabled":false,"rental_uris":{"android":"levelo://app?vid=e3bd097c-06d9-4d0b-bf11-1d9787c8d3da","ios":"levelo://app?vid=e3bd097c-06d9-4d0b-bf11-1d9787c8d3da"},"vehicle_type_id":"4","last_reported":1701713382,"current_range_meters":29200,"station_id":"ce4bh0h2rcd13ifvqd60","pricing_plan_id":"free"},{"bike_id":"4e7afd90-ab20-484a-a1b7-bd8bc183e150","system_id":"levelo_inurba_marseille","lat":43.284462,"lon":5.392121,"is_reserved":false,"is_disabled":false,"rental_uris":{"android":"levelo://app?vid=4e7afd90-ab20-484a-a1b7-bd8bc183e150","ios":"levelo://app?vid=4e7afd90-ab20-484a-a1b7-bd8bc183e150"},"vehicle_type_id":"4","last_reported":1701713382,"current_range_meters":12000,"station_id":"ce4bhoh2rcd13ifvqh5g","pricing_plan_id":"free"},{"bike_id":"f71c3e4b-56cc-4b56-8ba6-eea098969b60","system_id":"levelo_inurba_marseille","lat":43.326605,"lon":5.409903,"is_reserved":false,"is_disabled":false,"rental_uris":{"android":"levelo://app?vid=f71c3e4b-56cc-4b56-8ba6-eea098969b60","ios":"levelo://app?vid=f71c3e4b-56cc-4b56-8ba6-eea098969b60"},"vehicle_type_id":"4","last_reported":1701713382,"current_range_meters":26800,"station_id":"ce4bhpp2rcd13ifvqhgg","pricing_plan_id":"free"},{"bike_id":"6ae5f1fa-af6b-4767-9baa-929411e39175","system_id":"levelo_inurba_marseille","lat":43.304188,"lon":5.412904,"is_reserved":false,"is_disabled":false,"rental_uris":{"android":"levelo://app?vid=6ae5f1fa-af6b-4767-9baa-929411e39175","ios":"levelo://app?vid=6ae5f1fa-af6b-4767-9baa-929411e39175"},"vehicle_type_id":"4","last_reported":1701713382,"current_range_meters":16800,"station_id":"ce4bhop2rcd13ifvqh8g","pricing_plan_id":"free"},{"bike_id":"e1e838bf-a4f0-417e-a084-3e72625f2bf2","system_id":"levelo_inurba_marseille","lat":43.287154,"lon":5.399979,"is_reserved":false,"is_disabled":false,"rental_uris":{"android":"levelo://app?vid=e1e838bf-a4f0-417e-a084-3e72625f2bf2","ios":"levelo://app?vid=e1e838bf-a4f0-417e-a084-3e72625f2bf2"},"vehicle_type_id":"4","last_reported":1701713382,"current_range_meters":1200,"station_id":"ce4bho92rcd13ifvqh3g","pricing_plan_id":"free"},{"bike_id":"6b9c6ba8-2ef9-4667-82c6-f01fa505b862","system_id":"levelo_inurba_marseille","lat":43.279742,"lon":5.38744,"is_reserved":false,"is_disabled":false,"rental_uris":{"android":"levelo://app?vid=6b9c6ba8-2ef9-4667-82c6-f01fa505b862","ios":"levelo://app?vid=6b9c6ba8-2ef9-4667-82c6-f01fa505b862"},"vehicle_type_id":"4","last_reported":1701713382,"current_range_meters":23600,"station_id":"ce4bhg12rcd13ifvqf80","pricing_plan_id":"free"},{"bike_id":"e869fdb7-fba1-483e-b5f0-9d062b693382","system_id":"levelo_inurba_marseille","lat":43.292571,"lon":5.409107,"is_reserved":false,"is_disabled":false,"rental_uris":{"android":"levelo://app?vid=e869fdb7-fba1-483e-b5f0-9d062b693382","ios":"levelo://app?vid=e869fdb7-fba1-483e-b5f0-9d062b693382"},"vehicle_type_id":"4","last_reported":1701713382,"current_range_meters":22000,"station_id":"ce4bh192rcd13ifvqdc0","pricing_plan_id":"free"},{"bike_id":"feb86658-8169-48f1-bd96-fe35026e2ce1","system_id":"levelo_inurba_marseille","lat":43.292569,"lon":5.409107,"is_reserved":false,"is_disabled":false,"rental_uris":{"android":"levelo://app?vid=feb86658-8169-48f1-bd96-fe35026e2ce1","ios":"levelo://app?vid=feb86658-8169-48f1-bd96-fe35026e2ce1"},"vehicle_type_id":"4","last_reported":1701713382,"current_range_meters":13600,"station_id":"ce4bh192rcd13ifvqdc0","pricing_plan_id":"free"},{"bike_id":"953eb77f-f74c-42c5-af87-eaa4ac8057ba","system_id":"levelo_inurba_marseille","lat":43.292571,"lon":5.409107,"is_reserved":false,"is_disabled":false,"rental_uris":{"android":"levelo://app?vid=953eb77f-f74c-42c5-af87-eaa4ac8057ba","ios":"levelo://app?vid=953eb77f-f74c-42c5-af87-eaa4ac8057ba"},"vehicle_type_id":"4","last_reported":1701713382,"current_range_meters":9600,"station_id":"ce4bh192rcd13ifvqdc0","pricing_plan_id":"free"},{"bike_id":"2d7d3996-c453-41c8-a0c8-9201238474c6","system_id":"levelo_inurba_marseille","lat":43.29254,"lon":5.40919,"is_reserved":false,"is_disabled":false,"rental_uris":{"android":"levelo://app?vid=2d7d3996-c453-41c8-a0c8-9201238474c6","ios":"levelo://app?vid=2d7d3996-c453-41c8-a0c8-9201238474c6"},"vehicle_type_id":"4","last_reported":1701713382,"current_range_meters":28800,"station_id":"ce4bh192rcd13ifvqdc0","pricing_plan_id":"free"},{"bike_id":"8a201fba-d02b-432a-8379-061b3f59a47b","system_id":"levelo_inurba_marseille","lat":43.293755,"lon":5.412677,"is_reserved":false,"is_disabled":false,"rental_uris":{"android":"levelo://app?vid=8a201fba-d02b-432a-8379-061b3f59a47b","ios":"levelo://app?vid=8a201fba-d02b-432a-8379-061b3f59a47b"},"vehicle_type_id":"4","last_reported":1701713382,"current_range_meters":25200,"station_id":"","pricing_plan_id":"free"},{"bike_id":"41ba68de-9ca1-4bd4-a18f-bacd4b156f10","system_id":"levelo_inurba_marseille","lat":43.29374,"lon":5.41274,"is_reserved":false,"is_disabled":false,"rental_uris":{"android":"levelo://app?vid=41ba68de-9ca1-4bd4-a18f-bacd4b156f10","ios":"levelo://app?vid=41ba68de-9ca1-4bd4-a18f-bacd4b156f10"},"vehicle_type_id":"4","last_reported":1701713382,"current_range_meters":27200,"station_id":"","pricing_plan_id":"free"},{"bike_id":"3265701a-11e8-4470-a59e-8f840b41bf74","system_id":"levelo_inurba_marseille","lat":43.28071,"lon":5.39641,"is_reserved":false,"is_disabled":false,"rental_uris":{"android":"levelo://app?vid=3265701a-11e8-4470-a59e-8f840b41bf74","ios":"levelo://app?vid=3265701a-11e8-4470-a59e-8f840b41bf74"},"vehicle_type_id":"4","last_reported":1701713382,"current_range_meters":24800,"station_id":"ce4bho12rcd13ifvqh2g","pricing_plan_id":"free"},{"bike_id":"b98a3278-6f64-4547-8388-1b1bb279e2ef","system_id":"levelo_inurba_marseille","lat":43.303837,"lon":5.418724,"is_reserved":false,"is_disabled":false,"rental_uris":{"android":"levelo://app?vid=b98a3278-6f64-4547-8388-1b1bb279e2ef","ios":"levelo://app?vid=b98a3278-6f64-4547-8388-1b1bb279e2ef"},"vehicle_type_id":"4","last_reported":1701713382,"current_range_meters":17200,"station_id":"ce4bhop2rcd13ifvqh7g","pricing_plan_id":"free"},{"bike_id":"7d8bebbb-01c1-4bea-824e-f8a165665ea2","system_id":"levelo_inurba_marseille","lat":43.278399,"lon":5.392139,"is_reserved":false,"is_disabled":false,"rental_uris":{"android":"levelo://app?vid=7d8bebbb-01c1-4bea-824e-f8a165665ea2","ios":"levelo://app?vid=7d8bebbb-01c1-4bea-824e-f8a165665ea2"},"vehicle_type_id":"4","last_reported":1701713382,"current_range_meters":31200,"station_id":"ce4bhjp2rcd13ifvqga0","pricing_plan_id":"free"},{"bike_id":"95f35aca-dd2f-45d0-a949-56434db1bb28","system_id":"levelo_inurba_marseille","lat":43.278401,"lon":5.392152,"is_reserved":false,"is_disabled":false,"rental_uris":{"android":"levelo://app?vid=95f35aca-dd2f-45d0-a949-56434db1bb28","ios":"levelo://app?vid=95f35aca-dd2f-45d0-a949-56434db1bb28"},"vehicle_type_id":"4","last_reported":1701713382,"current_range_meters":2000,"station_id":"ce4bhjp2rcd13ifvqga0","pricing_plan_id":"free"},{"bike_id":"0281b212-223c-4831-9e75-12f75bdcd5e8","system_id":"levelo_inurba_marseille","lat":43.278401,"lon":5.392152,"is_reserved":false,"is_disabled":false,"rental_uris":{"android":"levelo://app?vid=0281b212-223c-4831-9e75-12f75bdcd5e8","ios":"levelo://app?vid=0281b212-223c-4831-9e75-12f75bdcd5e8"},"vehicle_type_id":"4","last_reported":1701713382,"current_range_meters":30400,"station_id":"ce4bhjp2rcd13ifvqga0","pricing_plan_id":"free"},{"bike_id":"fce20caf-6085-475b-a03f-5b6093a51fee","system_id":"levelo_inurba_marseille","lat":43.273613,"lon":5.362705,"is_reserved":false,"is_disabled":false,"rental_uris":{"android":"levelo://app?vid=fce20caf-6085-475b-a03f-5b6093a51fee","ios":"levelo://app?vid=fce20caf-6085-475b-a03f-5b6093a51fee"},"vehicle_type_id":"4","last_reported":1701713382,"current_range_meters":30000,"station_id":"ce4bhbh2rcd13ifvqeo0","pricing_plan_id":"free"},{"bike_id":"fda9e40b-e96c-4e66-a454-2245b873b970","system_id":"levelo_inurba_marseille","lat":43.273609,"lon":5.362708,"is_reserved":false,"is_disabled":false,"rental_uris":{"android":"levelo://app?vid=fda9e40b-e96c-4e66-a454-2245b873b970","ios":"levelo://app?vid=fda9e40b-e96c-4e66-a454-2245b873b970"},"vehicle_type_id":"4","last_reported":1701713382,"current_range_meters":30000,"station_id":"ce4bhbh2rcd13ifvqeo0","pricing_plan_id":"free"},{"bike_id":"3ea28be1-d23c-49b6-a64f-225039a206c7","system_id":"levelo_inurba_marseille","lat":43.273613,"lon":5.362705,"is_reserved":false,"is_disabled":false,"rental_uris":{"android":"levelo://app?vid=3ea28be1-d23c-49b6-a64f-225039a206c7","ios":"levelo://app?vid=3ea28be1-d23c-49b6-a64f-225039a206c7"},"vehicle_type_id":"4","last_reported":1701713382,"current_range_meters":31200,"station_id":"ce4bhbh2rcd13ifvqeo0","pricing_plan_id":"free"},{"bike_id":"3b8ec5c1-8a88-4ce0-8ae0-c202dec0b813","system_id":"levelo_inurba_marseille","lat":43.280037,"lon":5.400214,"is_reserved":false,"is_disabled":false,"rental_uris":{"android":"levelo://app?vid=3b8ec5c1-8a88-4ce0-8ae0-c202dec0b813","ios":"levelo://app?vid=3b8ec5c1-8a88-4ce0-8ae0-c202dec0b813"},"vehicle_type_id":"4","last_reported":1701713382,"current_range_meters":21600,"station_id":"ce4bho92rcd13ifvqh4g","pricing_plan_id":"free"},{"bike_id":"3a44682a-58ce-4b11-93fa-e13a92f3ab2d","system_id":"levelo_inurba_marseille","lat":43.279952,"lon":5.400085,"is_reserved":false,"is_disabled":false,"rental_uris":{"android":"levelo://app?vid=3a44682a-58ce-4b11-93fa-e13a92f3ab2d","ios":"levelo://app?vid=3a44682a-58ce-4b11-93fa-e13a92f3ab2d"},"vehicle_type_id":"4","last_reported":1701713382,"current_range_meters":22000,"station_id":"ce4bho92rcd13ifvqh4g","pricing_plan_id":"free"},{"bike_id":"0de7abf9-fe9c-4185-b4cb-ad9d6ce98399","system_id":"levelo_inurba_marseille","lat":43.279952,"lon":5.400085,"is_reserved":false,"is_disabled":false,"rental_uris":{"android":"levelo://app?vid=0de7abf9-fe9c-4185-b4cb-ad9d6ce98399","ios":"levelo://app?vid=0de7abf9-fe9c-4185-b4cb-ad9d6ce98399"},"vehicle_type_id":"4","last_reported":1701713382,"current_range_meters":30800,"station_id":"ce4bho92rcd13ifvqh4g","pricing_plan_id":"free"},{"bike_id":"a3aef011-b611-4e5e-bf0b-b705e09a22b1","system_id":"levelo_inurba_marseille","lat":43.317121,"lon":5.423936,"is_reserved":false,"is_disabled":false,"rental_uris":{"android":"levelo://app?vid=a3aef011-b611-4e5e-bf0b-b705e09a22b1","ios":"levelo://app?vid=a3aef011-b611-4e5e-bf0b-b705e09a22b1"},"vehicle_type_id":"4","last_reported":1701713382,"current_range_meters":24800,"station_id":"ce4bhp92rcd13ifvqhbg","pricing_plan_id":"free"},{"bike_id":"f0bd1aba-dcb7-4c9a-8e58-e0b7f2169c34","system_id":"levelo_inurba_marseille","lat":43.310785,"lon":5.424305,"is_reserved":false,"is_disabled":false,"rental_uris":{"android":"levelo://app?vid=f0bd1aba-dcb7-4c9a-8e58-e0b7f2169c34","ios":"levelo://app?vid=f0bd1aba-dcb7-4c9a-8e58-e0b7f2169c34"},"vehicle_type_id":"4","last_reported":1701713382,"current_range_meters":22000,"station_id":"ce4bhp92rcd13ifvqhag","pricing_plan_id":"free"},{"bike_id":"fb7b11b6-2e5c-4a6c-b668-e3de222703b6","system_id":"levelo_inurba_marseille","lat":43.310785,"lon":5.424305,"is_reserved":false,"is_disabled":false,"rental_uris":{"android":"levelo://app?vid=fb7b11b6-2e5c-4a6c-b668-e3de222703b6","ios":"levelo://app?vid=fb7b11b6-2e5c-4a6c-b668-e3de222703b6"},"vehicle_type_id":"4","last_reported":1701713382,"current_range_meters":10000,"station_id":"ce4bhp92rcd13ifvqhag","pricing_plan_id":"free"},{"bike_id":"910fd3aa-d2e0-4553-894a-6161d41c7fcd","system_id":"levelo_inurba_marseille","lat":43.27609,"lon":5.39475,"is_reserved":false,"is_disabled":false,"rental_uris":{"android":"levelo://app?vid=910fd3aa-d2e0-4553-894a-6161d41c7fcd","ios":"levelo://app?vid=910fd3aa-d2e0-4553-894a-6161d41c7fcd"},"vehicle_type_id":"4","last_reported":1701713382,"current_range_meters":10000,"station_id":"","pricing_plan_id":"free"},{"bike_id":"c1a8463e-c260-4636-ac5c-7776e75955fd","system_id":"levelo_inurba_marseille","lat":43.317121,"lon":5.423936,"is_reserved":false,"is_disabled":false,"rental_uris":{"android":"levelo://app?vid=c1a8463e-c260-4636-ac5c-7776e75955fd","ios":"levelo://app?vid=c1a8463e-c260-4636-ac5c-7776e75955fd"},"vehicle_type_id":"4","last_reported":1701713382,"current_range_meters":27200,"station_id":"ce4bhp92rcd13ifvqhbg","pricing_plan_id":"free"},{"bike_id":"cae32848-daaa-4ebf-8265-fce4e05e2551","system_id":"levelo_inurba_marseille","lat":43.304096,"lon":5.425385,"is_reserved":false,"is_disabled":false,"rental_uris":{"android":"levelo://app?vid=cae32848-daaa-4ebf-8265-fce4e05e2551","ios":"levelo://app?vid=cae32848-daaa-4ebf-8265-fce4e05e2551"},"vehicle_type_id":"4","last_reported":1701713382,"current_range_meters":16400,"station_id":"ce4bhoh2rcd13ifvqh6g","pricing_plan_id":"free"},{"bike_id":"52a79f78-3cb3-48e3-8341-7bb9ef6f5f28","system_id":"levelo_inurba_marseille","lat":43.295523,"lon":5.422926,"is_reserved":false,"is_disabled":false,"rental_uris":{"android":"levelo://app?vid=52a79f78-3cb3-48e3-8341-7bb9ef6f5f28","ios":"levelo://app?vid=52a79f78-3cb3-48e3-8341-7bb9ef6f5f28"},"vehicle_type_id":"4","last_reported":1701713382,"current_range_meters":27200,"station_id":"ce4bhph2rcd13ifvqhdg","pricing_plan_id":"free"},{"bike_id":"55c23f66-31a6-4882-8fa6-769301f13946","system_id":"levelo_inurba_marseille","lat":43.295523,"lon":5.422926,"is_reserved":false,"is_disabled":false,"rental_uris":{"android":"levelo://app?vid=55c23f66-31a6-4882-8fa6-769301f13946","ios":"levelo://app?vid=55c23f66-31a6-4882-8fa6-769301f13946"},"vehicle_type_id":"4","last_reported":1701713382,"current_range_meters":31200,"station_id":"ce4bhph2rcd13ifvqhdg","pricing_plan_id":"free"},{"bike_id":"57b996ff-5d77-4976-8fb3-2a535ff78af7","system_id":"levelo_inurba_marseille","lat":43.295511,"lon":5.422926,"is_reserved":false,"is_disabled":false,"rental_uris":{"android":"levelo://app?vid=57b996ff-5d77-4976-8fb3-2a535ff78af7","ios":"levelo://app?vid=57b996ff-5d77-4976-8fb3-2a535ff78af7"},"vehicle_type_id":"4","last_reported":1701713382,"current_range_meters":14800,"station_id":"ce4bhph2rcd13ifvqhdg","pricing_plan_id":"free"},{"bike_id":"90897e9f-40cf-4d76-9eb7-81b0e608b491","system_id":"levelo_inurba_marseille","lat":43.295511,"lon":5.422926,"is_reserved":false,"is_disabled":false,"rental_uris":{"android":"levelo://app?vid=90897e9f-40cf-4d76-9eb7-81b0e608b491","ios":"levelo://app?vid=90897e9f-40cf-4d76-9eb7-81b0e608b491"},"vehicle_type_id":"4","last_reported":1701713382,"current_range_meters":3600,"station_id":"ce4bhph2rcd13ifvqhdg","pricing_plan_id":"free"},{"bike_id":"bca95e98-6be9-461d-af9d-2f0d8f82e54d","system_id":"levelo_inurba_marseille","lat":43.272116,"lon":5.391747,"is_reserved":false,"is_disabled":false,"rental_uris":{"android":"levelo://app?vid=bca95e98-6be9-461d-af9d-2f0d8f82e54d","ios":"levelo://app?vid=bca95e98-6be9-461d-af9d-2f0d8f82e54d"},"vehicle_type_id":"4","last_reported":1701713382,"current_range_meters":12400,"station_id":"ce4bhhp2rcd13ifvqfm0","pricing_plan_id":"free"},{"bike_id":"4d227eb7-d36a-425e-8f14-420e16d126ca","system_id":"levelo_inurba_marseille","lat":43.272067,"lon":5.392618,"is_reserved":false,"is_disabled":false,"rental_uris":{"android":"levelo://app?vid=4d227eb7-d36a-425e-8f14-420e16d126ca","ios":"levelo://app?vid=4d227eb7-d36a-425e-8f14-420e16d126ca"},"vehicle_type_id":"4","last_reported":1701713382,"current_range_meters":25200,"station_id":"","pricing_plan_id":"free"},{"bike_id":"1c41617e-b5ff-4b9c-86ce-a988f3921642","system_id":"levelo_inurba_marseille","lat":43.278128,"lon":5.407195,"is_reserved":false,"is_disabled":false,"rental_uris":{"android":"levelo://app?vid=1c41617e-b5ff-4b9c-86ce-a988f3921642","ios":"levelo://app?vid=1c41617e-b5ff-4b9c-86ce-a988f3921642"},"vehicle_type_id":"4","last_reported":1701713382,"current_range_meters":21200,"station_id":"ce4bhnh2rcd13ifvqgtg","pricing_plan_id":"free"},{"bike_id":"a9b3236d-7277-490f-ac03-6038f514ca34","system_id":"levelo_inurba_marseille","lat":43.27937,"lon":5.41046,"is_reserved":false,"is_disabled":false,"rental_uris":{"android":"levelo://app?vid=a9b3236d-7277-490f-ac03-6038f514ca34","ios":"levelo://app?vid=a9b3236d-7277-490f-ac03-6038f514ca34"},"vehicle_type_id":"4","last_reported":1701713382,"current_range_meters":30800,"station_id":"ce4bhnp2rcd13ifvqh0g","pricing_plan_id":"free"},{"bike_id":"c77f6639-aead-4488-86ba-f23a174e0601","system_id":"levelo_inurba_marseille","lat":43.27944,"lon":5.41058,"is_reserved":false,"is_disabled":false,"rental_uris":{"android":"levelo://app?vid=c77f6639-aead-4488-86ba-f23a174e0601","ios":"levelo://app?vid=c77f6639-aead-4488-86ba-f23a174e0601"},"vehicle_type_id":"4","last_reported":1701713382,"current_range_meters":24400,"station_id":"ce4bhnp2rcd13ifvqh0g","pricing_plan_id":"free"},{"bike_id":"880c1f56-7e8a-40c9-aba8-b4f0b24c323b","system_id":"levelo_inurba_marseille","lat":43.26554,"lon":5.37288,"is_reserved":false,"is_disabled":false,"rental_uris":{"android":"levelo://app?vid=880c1f56-7e8a-40c9-aba8-b4f0b24c323b","ios":"levelo://app?vid=880c1f56-7e8a-40c9-aba8-b4f0b24c323b"},"vehicle_type_id":"4","last_reported":1701713382,"current_range_meters":22800,"station_id":"ce4bhg12rcd13ifvqf70","pricing_plan_id":"free"},{"bike_id":"7c059a5f-a04b-401f-a9db-20fc39852cdd","system_id":"levelo_inurba_marseille","lat":43.26554,"lon":5.37289,"is_reserved":false,"is_disabled":false,"rental_uris":{"android":"levelo://app?vid=7c059a5f-a04b-401f-a9db-20fc39852cdd","ios":"levelo://app?vid=7c059a5f-a04b-401f-a9db-20fc39852cdd"},"vehicle_type_id":"4","last_reported":1701713382,"current_range_meters":22400,"station_id":"ce4bhg12rcd13ifvqf70","pricing_plan_id":"free"},{"bike_id":"7e7580c9-f643-4a15-88ff-bcf5b00ab292","system_id":"levelo_inurba_marseille","lat":43.27996,"lon":5.416624,"is_reserved":false,"is_disabled":false,"rental_uris":{"android":"levelo://app?vid=7e7580c9-f643-4a15-88ff-bcf5b00ab292","ios":"levelo://app?vid=7e7580c9-f643-4a15-88ff-bcf5b00ab292"},"vehicle_type_id":"4","last_reported":1701713382,"current_range_meters":26800,"station_id":"ce4bho12rcd13ifvqh1g","pricing_plan_id":"free"},{"bike_id":"01831d81-4689-4133-adc9-858dff8e72f7","system_id":"levelo_inurba_marseille","lat":43.267966,"lon":5.393976,"is_reserved":false,"is_disabled":false,"rental_uris":{"android":"levelo://app?vid=01831d81-4689-4133-adc9-858dff8e72f7","ios":"levelo://app?vid=01831d81-4689-4133-adc9-858dff8e72f7"},"vehicle_type_id":"4","last_reported":1701713382,"current_range_meters":25200,"station_id":"ce4bhh12rcd13ifvqfg0","pricing_plan_id":"free"},{"bike_id":"b4eefbb9-19fb-4ef4-bb91-f959c5f9ae63","system_id":"levelo_inurba_marseille","lat":43.267966,"lon":5.393976,"is_reserved":false,"is_disabled":false,"rental_uris":{"android":"levelo://app?vid=b4eefbb9-19fb-4ef4-bb91-f959c5f9ae63","ios":"levelo://app?vid=b4eefbb9-19fb-4ef4-bb91-f959c5f9ae63"},"vehicle_type_id":"4","last_reported":1701713382,"current_range_meters":28800,"station_id":"ce4bhh12rcd13ifvqfg0","pricing_plan_id":"free"},{"bike_id":"b2084a7d-613c-4e29-ab0b-e517f237fb20","system_id":"levelo_inurba_marseille","lat":43.308051,"lon":5.43527,"is_reserved":false,"is_disabled":false,"rental_uris":{"android":"levelo://app?vid=b2084a7d-613c-4e29-ab0b-e517f237fb20","ios":"levelo://app?vid=b2084a7d-613c-4e29-ab0b-e517f237fb20"},"vehicle_type_id":"4","last_reported":1701713382,"current_range_meters":4800,"station_id":"ce4bhph2rcd13ifvqheg","pricing_plan_id":"free"},{"bike_id":"0c8dc983-97c9-4dda-83e3-1518d794e3c6","system_id":"levelo_inurba_marseille","lat":43.265571,"lon":5.390032,"is_reserved":false,"is_disabled":false,"rental_uris":{"android":"levelo://app?vid=0c8dc983-97c9-4dda-83e3-1518d794e3c6","ios":"levelo://app?vid=0c8dc983-97c9-4dda-83e3-1518d794e3c6"},"vehicle_type_id":"4","last_reported":1701713382,"current_range_meters":0,"station_id":"ce4bhe12rcd13ifvqf30","pricing_plan_id":"free"},{"bike_id":"14fb4553-50be-48e0-ba64-a24e74018994","system_id":"levelo_inurba_marseille","lat":43.26565,"lon":5.38998,"is_reserved":false,"is_disabled":false,"rental_uris":{"android":"levelo://app?vid=14fb4553-50be-48e0-ba64-a24e74018994","ios":"levelo://app?vid=14fb4553-50be-48e0-ba64-a24e74018994"},"vehicle_type_id":"4","last_reported":1701713382,"current_range_meters":18800,"station_id":"ce4bhe12rcd13ifvqf30","pricing_plan_id":"free"},{"bike_id":"fab6c48e-ae31-41e0-85c6-fbbe990396c1","system_id":"levelo_inurba_marseille","lat":43.265717,"lon":5.39041,"is_reserved":false,"is_disabled":false,"rental_uris":{"android":"levelo://app?vid=fab6c48e-ae31-41e0-85c6-fbbe990396c1","ios":"levelo://app?vid=fab6c48e-ae31-41e0-85c6-fbbe990396c1"},"vehicle_type_id":"4","last_reported":1701713382,"current_range_meters":10800,"station_id":"ce4bhe12rcd13ifvqf30","pricing_plan_id":"free"},{"bike_id":"b45c58ad-3a97-42d0-8505-0849f0a13bed","system_id":"levelo_inurba_marseille","lat":43.308051,"lon":5.43527,"is_reserved":false,"is_disabled":false,"rental_uris":{"android":"levelo://app?vid=b45c58ad-3a97-42d0-8505-0849f0a13bed","ios":"levelo://app?vid=b45c58ad-3a97-42d0-8505-0849f0a13bed"},"vehicle_type_id":"4","last_reported":1701713382,"current_range_meters":31200,"station_id":"ce4bhph2rcd13ifvqheg","pricing_plan_id":"free"},{"bike_id":"ea70d7d3-f542-4315-8f09-9724f64ba971","system_id":"levelo_inurba_marseille","lat":43.308051,"lon":5.43527,"is_reserved":false,"is_disabled":false,"rental_uris":{"android":"levelo://app?vid=ea70d7d3-f542-4315-8f09-9724f64ba971","ios":"levelo://app?vid=ea70d7d3-f542-4315-8f09-9724f64ba971"},"vehicle_type_id":"4","last_reported":1701713382,"current_range_meters":22800,"station_id":"ce4bhph2rcd13ifvqheg","pricing_plan_id":"free"},{"bike_id":"c603ebe0-7bba-4739-9538-1f0044e728ca","system_id":"levelo_inurba_marseille","lat":43.317104,"lon":5.436818,"is_reserved":false,"is_disabled":false,"rental_uris":{"android":"levelo://app?vid=c603ebe0-7bba-4739-9538-1f0044e728ca","ios":"levelo://app?vid=c603ebe0-7bba-4739-9538-1f0044e728ca"},"vehicle_type_id":"4","last_reported":1701713382,"current_range_meters":25600,"station_id":"ce4bhp92rcd13ifvqhcg","pricing_plan_id":"free"},{"bike_id":"9bb2ab38-b524-43ce-80c2-4441064383e4","system_id":"levelo_inurba_marseille","lat":43.271368,"lon":5.40928,"is_reserved":false,"is_disabled":false,"rental_uris":{"android":"levelo://app?vid=9bb2ab38-b524-43ce-80c2-4441064383e4","ios":"levelo://app?vid=9bb2ab38-b524-43ce-80c2-4441064383e4"},"vehicle_type_id":"4","last_reported":1701713382,"current_range_meters":30000,"station_id":"ce4bhl12rcd13ifvqgf0","pricing_plan_id":"free"},{"bike_id":"21696287-8bc6-493f-a856-ae98911f37d3","system_id":"levelo_inurba_marseille","lat":43.298768,"lon":5.43643,"is_reserved":false,"is_disabled":false,"rental_uris":{"android":"levelo://app?vid=21696287-8bc6-493f-a856-ae98911f37d3","ios":"levelo://app?vid=21696287-8bc6-493f-a856-ae98911f37d3"},"vehicle_type_id":"4","last_reported":1701713382,"current_range_meters":15200,"station_id":"ce4bhpp2rcd13ifvqhfg","pricing_plan_id":"free"},{"bike_id":"da78a8a1-d19c-4132-921c-417b3c7be467","system_id":"levelo_inurba_marseille","lat":43.258224,"lon":5.394369,"is_reserved":false,"is_disabled":false,"rental_uris":{"android":"levelo://app?vid=da78a8a1-d19c-4132-921c-417b3c7be467","ios":"levelo://app?vid=da78a8a1-d19c-4132-921c-417b3c7be467"},"vehicle_type_id":"4","last_reported":1701713382,"current_range_meters":21600,"station_id":"ce4bhip2rcd13ifvqft0","pricing_plan_id":"free"},{"bike_id":"1c42b312-22be-477f-880e-3f339eeabbeb","system_id":"levelo_inurba_marseille","lat":43.258224,"lon":5.394369,"is_reserved":false,"is_disabled":false,"rental_uris":{"android":"levelo://app?vid=1c42b312-22be-477f-880e-3f339eeabbeb","ios":"levelo://app?vid=1c42b312-22be-477f-880e-3f339eeabbeb"},"vehicle_type_id":"4","last_reported":1701713382,"current_range_meters":16000,"station_id":"ce4bhip2rcd13ifvqft0","pricing_plan_id":"free"},{"bike_id":"4ab1dbe6-7e83-4c4f-b243-a7ac1dbf2dec","system_id":"levelo_inurba_marseille","lat":43.258224,"lon":5.394369,"is_reserved":false,"is_disabled":false,"rental_uris":{"android":"levelo://app?vid=4ab1dbe6-7e83-4c4f-b243-a7ac1dbf2dec","ios":"levelo://app?vid=4ab1dbe6-7e83-4c4f-b243-a7ac1dbf2dec"},"vehicle_type_id":"4","last_reported":1701713382,"current_range_meters":15200,"station_id":"ce4bhip2rcd13ifvqft0","pricing_plan_id":"free"},{"bike_id":"9eba477a-9c61-486e-945c-8928076a7930","system_id":"levelo_inurba_marseille","lat":43.258224,"lon":5.394369,"is_reserved":false,"is_disabled":false,"rental_uris":{"android":"levelo://app?vid=9eba477a-9c61-486e-945c-8928076a7930","ios":"levelo://app?vid=9eba477a-9c61-486e-945c-8928076a7930"},"vehicle_type_id":"4","last_reported":1701713382,"current_range_meters":1200,"station_id":"ce4bhip2rcd13ifvqft0","pricing_plan_id":"free"},{"bike_id":"e72008a9-53a7-4941-a163-953a03680224","system_id":"levelo_inurba_marseille","lat":43.25501,"lon":5.37648,"is_reserved":false,"is_disabled":false,"rental_uris":{"android":"levelo://app?vid=e72008a9-53a7-4941-a163-953a03680224","ios":"levelo://app?vid=e72008a9-53a7-4941-a163-953a03680224"},"vehicle_type_id":"4","last_reported":1701713382,"current_range_meters":12400,"station_id":"ce4bhh12rcd13ifvqff0","pricing_plan_id":"free"},{"bike_id":"343abc3c-e02d-437e-b758-4b73aef440db","system_id":"levelo_inurba_marseille","lat":43.25501,"lon":5.3765,"is_reserved":false,"is_disabled":false,"rental_uris":{"android":"levelo://app?vid=343abc3c-e02d-437e-b758-4b73aef440db","ios":"levelo://app?vid=343abc3c-e02d-437e-b758-4b73aef440db"},"vehicle_type_id":"4","last_reported":1701713382,"current_range_meters":26000,"station_id":"ce4bhh12rcd13ifvqff0","pricing_plan_id":"free"},{"bike_id":"23e5ff1f-b20a-4b96-950d-fd6efb151d76","system_id":"levelo_inurba_marseille","lat":43.27071,"lon":5.42283,"is_reserved":false,"is_disabled":false,"rental_uris":{"android":"levelo://app?vid=23e5ff1f-b20a-4b96-950d-fd6efb151d76","ios":"levelo://app?vid=23e5ff1f-b20a-4b96-950d-fd6efb151d76"},"vehicle_type_id":"4","last_reported":1701713382,"current_range_meters":18000,"station_id":"ce4bhk92rcd13ifvqgb0","pricing_plan_id":"free"},{"bike_id":"f3f584f6-d1cf-42d5-930f-0d2ec3d902f5","system_id":"levelo_inurba_marseille","lat":43.270721,"lon":5.422764,"is_reserved":false,"is_disabled":false,"rental_uris":{"android":"levelo://app?vid=f3f584f6-d1cf-42d5-930f-0d2ec3d902f5","ios":"levelo://app?vid=f3f584f6-d1cf-42d5-930f-0d2ec3d902f5"},"vehicle_type_id":"4","last_reported":1701713382,"current_range_meters":13600,"station_id":"ce4bhk92rcd13ifvqgb0","pricing_plan_id":"free"},{"bike_id":"d042c477-043a-4299-969a-9242c77c5144","system_id":"levelo_inurba_marseille","lat":43.258658,"lon":5.398935,"is_reserved":false,"is_disabled":false,"rental_uris":{"android":"levelo://app?vid=d042c477-043a-4299-969a-9242c77c5144","ios":"levelo://app?vid=d042c477-043a-4299-969a-9242c77c5144"},"vehicle_type_id":"4","last_reported":1701713382,"current_range_meters":21200,"station_id":"ce4bhl92rcd13ifvqghg","pricing_plan_id":"free"},{"bike_id":"4fe3b2cd-5d12-41e4-bd4b-04f483ad2ab7","system_id":"levelo_inurba_marseille","lat":43.257079,"lon":5.411051,"is_reserved":false,"is_disabled":false,"rental_uris":{"android":"levelo://app?vid=4fe3b2cd-5d12-41e4-bd4b-04f483ad2ab7","ios":"levelo://app?vid=4fe3b2cd-5d12-41e4-bd4b-04f483ad2ab7"},"vehicle_type_id":"4","last_reported":1701713382,"current_range_meters":22800,"station_id":"ce4bhkp2rcd13ifvqgd0","pricing_plan_id":"free"},{"bike_id":"671c0caa-2cb5-41e5-a8a2-451357cf3150","system_id":"levelo_inurba_marseille","lat":43.250009,"lon":5.389195,"is_reserved":false,"is_disabled":false,"rental_uris":{"android":"levelo://app?vid=671c0caa-2cb5-41e5-a8a2-451357cf3150","ios":"levelo://app?vid=671c0caa-2cb5-41e5-a8a2-451357cf3150"},"vehicle_type_id":"4","last_reported":1701713382,"current_range_meters":14800,"station_id":"ce4bhgp2rcd13ifvqfd0","pricing_plan_id":"free"},{"bike_id":"7dd05989-ef5f-42cc-b43a-1657a9bdeb3c","system_id":"levelo_inurba_marseille","lat":43.250009,"lon":5.389195,"is_reserved":false,"is_disabled":false,"rental_uris":{"android":"levelo://app?vid=7dd05989-ef5f-42cc-b43a-1657a9bdeb3c","ios":"levelo://app?vid=7dd05989-ef5f-42cc-b43a-1657a9bdeb3c"},"vehicle_type_id":"4","last_reported":1701713382,"current_range_meters":14800,"station_id":"ce4bhgp2rcd13ifvqfd0","pricing_plan_id":"free"},{"bike_id":"99e591b6-df9f-4ad2-a427-31cb1a282eca","system_id":"levelo_inurba_marseille","lat":43.250009,"lon":5.389195,"is_reserved":false,"is_disabled":false,"rental_uris":{"android":"levelo://app?vid=99e591b6-df9f-4ad2-a427-31cb1a282eca","ios":"levelo://app?vid=99e591b6-df9f-4ad2-a427-31cb1a282eca"},"vehicle_type_id":"4","last_reported":1701713382,"current_range_meters":22800,"station_id":"ce4bhgp2rcd13ifvqfd0","pricing_plan_id":"free"},{"bike_id":"2be90d44-e6df-4c36-85bd-c3a41fdf7c1d","system_id":"levelo_inurba_marseille","lat":43.250966,"lon":5.395186,"is_reserved":false,"is_disabled":false,"rental_uris":{"android":"levelo://app?vid=2be90d44-e6df-4c36-85bd-c3a41fdf7c1d","ios":"levelo://app?vid=2be90d44-e6df-4c36-85bd-c3a41fdf7c1d"},"vehicle_type_id":"4","last_reported":1701713382,"current_range_meters":6000,"station_id":"ce4bhm12rcd13ifvqgkg","pricing_plan_id":"free"},{"bike_id":"b6668231-042b-43c9-b0e6-69a1895c3232","system_id":"levelo_inurba_marseille","lat":43.250966,"lon":5.395186,"is_reserved":false,"is_disabled":false,"rental_uris":{"android":"levelo://app?vid=b6668231-042b-43c9-b0e6-69a1895c3232","ios":"levelo://app?vid=b6668231-042b-43c9-b0e6-69a1895c3232"},"vehicle_type_id":"4","last_reported":1701713382,"current_range_meters":17200,"station_id":"ce4bhm12rcd13ifvqgkg","pricing_plan_id":"free"},{"bike_id":"11cd32e7-517b-49d8-95fd-bdc2fe3ba685","system_id":"levelo_inurba_marseille","lat":43.250966,"lon":5.395186,"is_reserved":false,"is_disabled":false,"rental_uris":{"android":"levelo://app?vid=11cd32e7-517b-49d8-95fd-bdc2fe3ba685","ios":"levelo://app?vid=11cd32e7-517b-49d8-95fd-bdc2fe3ba685"},"vehicle_type_id":"4","last_reported":1701713382,"current_range_meters":18400,"station_id":"ce4bhm12rcd13ifvqgkg","pricing_plan_id":"free"},{"bike_id":"3dafff01-c97b-4fa8-850b-8bf2c5286be8","system_id":"levelo_inurba_marseille","lat":43.24658,"lon":5.38168,"is_reserved":false,"is_disabled":false,"rental_uris":{"android":"levelo://app?vid=3dafff01-c97b-4fa8-850b-8bf2c5286be8","ios":"levelo://app?vid=3dafff01-c97b-4fa8-850b-8bf2c5286be8"},"vehicle_type_id":"4","last_reported":1701713382,"current_range_meters":27200,"station_id":"ce4bhih2rcd13ifvqfr0","pricing_plan_id":"free"},{"bike_id":"51d03926-6313-4d44-a27e-e7161accc90e","system_id":"levelo_inurba_marseille","lat":43.25102,"lon":5.403214,"is_reserved":false,"is_disabled":false,"rental_uris":{"android":"levelo://app?vid=51d03926-6313-4d44-a27e-e7161accc90e","ios":"levelo://app?vid=51d03926-6313-4d44-a27e-e7161accc90e"},"vehicle_type_id":"4","last_reported":1701713382,"current_range_meters":12000,"station_id":"ce4bhlh2rcd13ifvqgig","pricing_plan_id":"free"},{"bike_id":"c712a2b9-b1c7-48ca-a7b7-72d23ebbe56f","system_id":"levelo_inurba_marseille","lat":43.246461,"lon":5.389014,"is_reserved":false,"is_disabled":false,"rental_uris":{"android":"levelo://app?vid=c712a2b9-b1c7-48ca-a7b7-72d23ebbe56f","ios":"levelo://app?vid=c712a2b9-b1c7-48ca-a7b7-72d23ebbe56f"},"vehicle_type_id":"4","last_reported":1701713382,"current_range_meters":18400,"station_id":"ce4bhg12rcd13ifvqf60","pricing_plan_id":"free"},{"bike_id":"075c5af7-8a66-44a0-ae30-a6b648947e96","system_id":"levelo_inurba_marseille","lat":43.246461,"lon":5.389014,"is_reserved":false,"is_disabled":false,"rental_uris":{"android":"levelo://app?vid=075c5af7-8a66-44a0-ae30-a6b648947e96","ios":"levelo://app?vid=075c5af7-8a66-44a0-ae30-a6b648947e96"},"vehicle_type_id":"4","last_reported":1701713382,"current_range_meters":28400,"station_id":"ce4bhg12rcd13ifvqf60","pricing_plan_id":"free"},{"bike_id":"54429c43-5101-45b3-93b9-80a6001aeee1","system_id":"levelo_inurba_marseille","lat":43.246467,"lon":5.388984,"is_reserved":false,"is_disabled":false,"rental_uris":{"android":"levelo://app?vid=54429c43-5101-45b3-93b9-80a6001aeee1","ios":"levelo://app?vid=54429c43-5101-45b3-93b9-80a6001aeee1"},"vehicle_type_id":"4","last_reported":1701713382,"current_range_meters":15200,"station_id":"ce4bhg12rcd13ifvqf60","pricing_plan_id":"free"},{"bike_id":"a1c0e568-b494-4bf3-ae03-9682d2653665","system_id":"levelo_inurba_marseille","lat":43.246461,"lon":5.389014,"is_reserved":false,"is_disabled":false,"rental_uris":{"android":"levelo://app?vid=a1c0e568-b494-4bf3-ae03-9682d2653665","ios":"levelo://app?vid=a1c0e568-b494-4bf3-ae03-9682d2653665"},"vehicle_type_id":"4","last_reported":1701713382,"current_range_meters":14000,"station_id":"ce4bhg12rcd13ifvqf60","pricing_plan_id":"free"},{"bike_id":"4bec8eeb-1704-41cf-938f-02594591831a","system_id":"levelo_inurba_marseille","lat":43.243884,"lon":5.370736,"is_reserved":false,"is_disabled":false,"rental_uris":{"android":"levelo://app?vid=4bec8eeb-1704-41cf-938f-02594591831a","ios":"levelo://app?vid=4bec8eeb-1704-41cf-938f-02594591831a"},"vehicle_type_id":"4","last_reported":1701713382,"current_range_meters":28000,"station_id":"ce4bhhh2rcd13ifvqfk0","pricing_plan_id":"free"},{"bike_id":"fcd8c0a5-5097-4721-a438-d79dd41a1e0d","system_id":"levelo_inurba_marseille","lat":43.245581,"lon":5.395069,"is_reserved":false,"is_disabled":false,"rental_uris":{"android":"levelo://app?vid=fcd8c0a5-5097-4721-a438-d79dd41a1e0d","ios":"levelo://app?vid=fcd8c0a5-5097-4721-a438-d79dd41a1e0d"},"vehicle_type_id":"4","last_reported":1701713382,"current_range_meters":13200,"station_id":"ce4bhlp2rcd13ifvqgjg","pricing_plan_id":"free"},{"bike_id":"8af28d66-daba-47c3-af30-7e896a5300de","system_id":"levelo_inurba_marseille","lat":43.245581,"lon":5.395069,"is_reserved":false,"is_disabled":false,"rental_uris":{"android":"levelo://app?vid=8af28d66-daba-47c3-af30-7e896a5300de","ios":"levelo://app?vid=8af28d66-daba-47c3-af30-7e896a5300de"},"vehicle_type_id":"4","last_reported":1701713382,"current_range_meters":25600,"station_id":"ce4bhlp2rcd13ifvqgjg","pricing_plan_id":"free"},{"bike_id":"7ffa733d-3283-44cf-bc6c-8873f0729d27","system_id":"levelo_inurba_marseille","lat":43.240623,"lon":5.377642,"is_reserved":false,"is_disabled":false,"rental_uris":{"android":"levelo://app?vid=7ffa733d-3283-44cf-bc6c-8873f0729d27","ios":"levelo://app?vid=7ffa733d-3283-44cf-bc6c-8873f0729d27"},"vehicle_type_id":"4","last_reported":1701713382,"current_range_meters":25600,"station_id":"ce4bhnp2rcd13ifvqgvg","pricing_plan_id":"free"},{"bike_id":"6a2018e4-91f0-4e90-b1f4-4beb75966a37","system_id":"levelo_inurba_marseille","lat":43.239588,"lon":5.366238,"is_reserved":false,"is_disabled":false,"rental_uris":{"android":"levelo://app?vid=6a2018e4-91f0-4e90-b1f4-4beb75966a37","ios":"levelo://app?vid=6a2018e4-91f0-4e90-b1f4-4beb75966a37"},"vehicle_type_id":"4","last_reported":1701713382,"current_range_meters":23200,"station_id":"ce4bhi12rcd13ifvqfp0","pricing_plan_id":"free"},{"bike_id":"15ec8c74-bb7d-4bed-ae17-b97a26635983","system_id":"levelo_inurba_marseille","lat":43.239588,"lon":5.366238,"is_reserved":false,"is_disabled":false,"rental_uris":{"android":"levelo://app?vid=15ec8c74-bb7d-4bed-ae17-b97a26635983","ios":"levelo://app?vid=15ec8c74-bb7d-4bed-ae17-b97a26635983"},"vehicle_type_id":"4","last_reported":1701713382,"current_range_meters":31600,"station_id":"ce4bhi12rcd13ifvqfp0","pricing_plan_id":"free"},{"bike_id":"7f284465-fada-4bfe-83d9-86527b7b5358","system_id":"levelo_inurba_marseille","lat":43.239588,"lon":5.366238,"is_reserved":false,"is_disabled":false,"rental_uris":{"android":"levelo://app?vid=7f284465-fada-4bfe-83d9-86527b7b5358","ios":"levelo://app?vid=7f284465-fada-4bfe-83d9-86527b7b5358"},"vehicle_type_id":"4","last_reported":1701713382,"current_range_meters":31200,"station_id":"ce4bhi12rcd13ifvqfp0","pricing_plan_id":"free"},{"bike_id":"4ac1eab3-790b-4456-b191-7171bda91025","system_id":"levelo_inurba_marseille","lat":43.239588,"lon":5.366238,"is_reserved":false,"is_disabled":false,"rental_uris":{"android":"levelo://app?vid=4ac1eab3-790b-4456-b191-7171bda91025","ios":"levelo://app?vid=4ac1eab3-790b-4456-b191-7171bda91025"},"vehicle_type_id":"4","last_reported":1701713382,"current_range_meters":18800,"station_id":"ce4bhi12rcd13ifvqfp0","pricing_plan_id":"free"},{"bike_id":"f9923fe5-1463-429b-857e-5abea4729df2","system_id":"levelo_inurba_marseille","lat":43.239588,"lon":5.366238,"is_reserved":false,"is_disabled":false,"rental_uris":{"android":"levelo://app?vid=f9923fe5-1463-429b-857e-5abea4729df2","ios":"levelo://app?vid=f9923fe5-1463-429b-857e-5abea4729df2"},"vehicle_type_id":"4","last_reported":1701713382,"current_range_meters":4400,"station_id":"ce4bhi12rcd13ifvqfp0","pricing_plan_id":"free"},{"bike_id":"eb1d283c-e696-4afd-beba-5a6438129bb8","system_id":"levelo_inurba_marseille","lat":43.241782,"lon":5.397261,"is_reserved":false,"is_disabled":false,"rental_uris":{"android":"levelo://app?vid=eb1d283c-e696-4afd-beba-5a6438129bb8","ios":"levelo://app?vid=eb1d283c-e696-4afd-beba-5a6438129bb8"},"vehicle_type_id":"4","last_reported":1701713382,"current_range_meters":29600,"station_id":"ce4bhn12rcd13ifvqgpg","pricing_plan_id":"free"},{"bike_id":"90dc14d6-522b-45f1-b8fe-f87d269b5381","system_id":"levelo_inurba_marseille","lat":43.241782,"lon":5.397261,"is_reserved":false,"is_disabled":false,"rental_uris":{"android":"levelo://app?vid=90dc14d6-522b-45f1-b8fe-f87d269b5381","ios":"levelo://app?vid=90dc14d6-522b-45f1-b8fe-f87d269b5381"},"vehicle_type_id":"4","last_reported":1701713382,"current_range_meters":8400,"station_id":"ce4bhn12rcd13ifvqgpg","pricing_plan_id":"free"},{"bike_id":"d56a6e17-2997-421a-bc4f-117dc8258f86","system_id":"levelo_inurba_marseille","lat":43.241782,"lon":5.397261,"is_reserved":false,"is_disabled":false,"rental_uris":{"android":"levelo://app?vid=d56a6e17-2997-421a-bc4f-117dc8258f86","ios":"levelo://app?vid=d56a6e17-2997-421a-bc4f-117dc8258f86"},"vehicle_type_id":"4","last_reported":1701713382,"current_range_meters":31600,"station_id":"ce4bhn12rcd13ifvqgpg","pricing_plan_id":"free"},{"bike_id":"6041d620-664b-4836-b597-a0e62593a032","system_id":"levelo_inurba_marseille","lat":43.231923,"lon":5.355545,"is_reserved":false,"is_disabled":false,"rental_uris":{"android":"levelo://app?vid=6041d620-664b-4836-b597-a0e62593a032","ios":"levelo://app?vid=6041d620-664b-4836-b597-a0e62593a032"},"vehicle_type_id":"4","last_reported":1701713382,"current_range_meters":23600,"station_id":"ce4bhu92rcd13ifvqi70","pricing_plan_id":"free"},{"bike_id":"8756435f-ebd3-4df3-89fa-6a5a1e380d37","system_id":"levelo_inurba_marseille","lat":43.231919,"lon":5.355532,"is_reserved":false,"is_disabled":false,"rental_uris":{"android":"levelo://app?vid=8756435f-ebd3-4df3-89fa-6a5a1e380d37","ios":"levelo://app?vid=8756435f-ebd3-4df3-89fa-6a5a1e380d37"},"vehicle_type_id":"4","last_reported":1701713382,"current_range_meters":30400,"station_id":"ce4bhu92rcd13ifvqi70","pricing_plan_id":"free"},{"bike_id":"cf3102c4-88e0-4a41-86b7-69a76932d3e6","system_id":"levelo_inurba_marseille","lat":43.231923,"lon":5.355545,"is_reserved":false,"is_disabled":false,"rental_uris":{"android":"levelo://app?vid=cf3102c4-88e0-4a41-86b7-69a76932d3e6","ios":"levelo://app?vid=cf3102c4-88e0-4a41-86b7-69a76932d3e6"},"vehicle_type_id":"4","last_reported":1701713382,"current_range_meters":31200,"station_id":"ce4bhu92rcd13ifvqi70","pricing_plan_id":"free"},{"bike_id":"2b04708e-eed8-4471-916a-9fdeea01eec7","system_id":"levelo_inurba_marseille","lat":43.231923,"lon":5.355545,"is_reserved":false,"is_disabled":false,"rental_uris":{"android":"levelo://app?vid=2b04708e-eed8-4471-916a-9fdeea01eec7","ios":"levelo://app?vid=2b04708e-eed8-4471-916a-9fdeea01eec7"},"vehicle_type_id":"4","last_reported":1701713382,"current_range_meters":27200,"station_id":"ce4bhu92rcd13ifvqi70","pricing_plan_id":"free"},{"bike_id":"9e01ee59-41e6-425c-ae1f-3e33312fefcd","system_id":"levelo_inurba_marseille","lat":43.231923,"lon":5.355545,"is_reserved":false,"is_disabled":false,"rental_uris":{"android":"levelo://app?vid=9e01ee59-41e6-425c-ae1f-3e33312fefcd","ios":"levelo://app?vid=9e01ee59-41e6-425c-ae1f-3e33312fefcd"},"vehicle_type_id":"4","last_reported":1701713382,"current_range_meters":10800,"station_id":"ce4bhu92rcd13ifvqi70","pricing_plan_id":"free"},{"bike_id":"6bd9f065-50d9-4657-9ca0-a006f413d305","system_id":"levelo_inurba_marseille","lat":43.231794,"lon":5.400052,"is_reserved":false,"is_disabled":false,"rental_uris":{"android":"levelo://app?vid=6bd9f065-50d9-4657-9ca0-a006f413d305","ios":"levelo://app?vid=6bd9f065-50d9-4657-9ca0-a006f413d305"},"vehicle_type_id":"4","last_reported":1701713382,"current_range_meters":31200,"station_id":"ce4bhn12rcd13ifvqgqg","pricing_plan_id":"free"},{"bike_id":"ab5eae98-96ca-4718-91b7-353de917f40d","system_id":"levelo_inurba_marseille","lat":43.231897,"lon":5.399853,"is_reserved":false,"is_disabled":false,"rental_uris":{"android":"levelo://app?vid=ab5eae98-96ca-4718-91b7-353de917f40d","ios":"levelo://app?vid=ab5eae98-96ca-4718-91b7-353de917f40d"},"vehicle_type_id":"4","last_reported":1701713382,"current_range_meters":31200,"station_id":"ce4bhn12rcd13ifvqgqg","pricing_plan_id":"free"},{"bike_id":"e47e98e0-4256-4c41-ae86-e531a41b9213","system_id":"levelo_inurba_marseille","lat":43.231794,"lon":5.400052,"is_reserved":false,"is_disabled":false,"rental_uris":{"android":"levelo://app?vid=e47e98e0-4256-4c41-ae86-e531a41b9213","ios":"levelo://app?vid=e47e98e0-4256-4c41-ae86-e531a41b9213"},"vehicle_type_id":"4","last_reported":1701713382,"current_range_meters":31200,"station_id":"ce4bhn12rcd13ifvqgqg","pricing_plan_id":"free"},{"bike_id":"0cf73e26-cfe4-495a-8675-6603ab968aec","system_id":"levelo_inurba_marseille","lat":43.231794,"lon":5.400052,"is_reserved":false,"is_disabled":false,"rental_uris":{"android":"levelo://app?vid=0cf73e26-cfe4-495a-8675-6603ab968aec","ios":"levelo://app?vid=0cf73e26-cfe4-495a-8675-6603ab968aec"},"vehicle_type_id":"4","last_reported":1701713382,"current_range_meters":27200,"station_id":"ce4bhn12rcd13ifvqgqg","pricing_plan_id":"free"},{"bike_id":"5d9be6d5-2985-432d-ac4f-8e0798b2a0ac","system_id":"levelo_inurba_marseille","lat":43.231863,"lon":5.399825,"is_reserved":false,"is_disabled":false,"rental_uris":{"android":"levelo://app?vid=5d9be6d5-2985-432d-ac4f-8e0798b2a0ac","ios":"levelo://app?vid=5d9be6d5-2985-432d-ac4f-8e0798b2a0ac"},"vehicle_type_id":"4","last_reported":1701713382,"current_range_meters":31200,"station_id":"ce4bhn12rcd13ifvqgqg","pricing_plan_id":"free"},{"bike_id":"e44db449-6914-4cfb-bde0-4c3cbeca97c3","system_id":"levelo_inurba_marseille","lat":43.231794,"lon":5.400052,"is_reserved":false,"is_disabled":false,"rental_uris":{"android":"levelo://app?vid=e44db449-6914-4cfb-bde0-4c3cbeca97c3","ios":"levelo://app?vid=e44db449-6914-4cfb-bde0-4c3cbeca97c3"},"vehicle_type_id":"4","last_reported":1701713382,"current_range_meters":30000,"station_id":"ce4bhn12rcd13ifvqgqg","pricing_plan_id":"free"},{"bike_id":"22bd98e3-c33f-4c44-ae2b-f96729d36f4f","system_id":"levelo_inurba_marseille","lat":43.231793,"lon":5.400044,"is_reserved":false,"is_disabled":false,"rental_uris":{"android":"levelo://app?vid=22bd98e3-c33f-4c44-ae2b-f96729d36f4f","ios":"levelo://app?vid=22bd98e3-c33f-4c44-ae2b-f96729d36f4f"},"vehicle_type_id":"4","last_reported":1701713382,"current_range_meters":31200,"station_id":"ce4bhn12rcd13ifvqgqg","pricing_plan_id":"free"},{"bike_id":"88cf855f-bb31-40e0-8afc-686df3c193ab","system_id":"levelo_inurba_marseille","lat":43.231794,"lon":5.400052,"is_reserved":false,"is_disabled":false,"rental_uris":{"android":"levelo://app?vid=88cf855f-bb31-40e0-8afc-686df3c193ab","ios":"levelo://app?vid=88cf855f-bb31-40e0-8afc-686df3c193ab"},"vehicle_type_id":"4","last_reported":1701713382,"current_range_meters":28800,"station_id":"ce4bhn12rcd13ifvqgqg","pricing_plan_id":"free"},{"bike_id":"554e18bc-f6bd-448a-9d3a-a49810d0b6de","system_id":"levelo_inurba_marseille","lat":43.231794,"lon":5.400052,"is_reserved":false,"is_disabled":false,"rental_uris":{"android":"levelo://app?vid=554e18bc-f6bd-448a-9d3a-a49810d0b6de","ios":"levelo://app?vid=554e18bc-f6bd-448a-9d3a-a49810d0b6de"},"vehicle_type_id":"4","last_reported":1701713382,"current_range_meters":13200,"station_id":"ce4bhn12rcd13ifvqgqg","pricing_plan_id":"free"},{"bike_id":"77b1a551-da7f-429a-980e-bfc6767a5958","system_id":"levelo_inurba_marseille","lat":43.231794,"lon":5.400052,"is_reserved":false,"is_disabled":false,"rental_uris":{"android":"levelo://app?vid=77b1a551-da7f-429a-980e-bfc6767a5958","ios":"levelo://app?vid=77b1a551-da7f-429a-980e-bfc6767a5958"},"vehicle_type_id":"4","last_reported":1701713382,"current_range_meters":31200,"station_id":"ce4bhn12rcd13ifvqgqg","pricing_plan_id":"free"},{"bike_id":"8f0fb87f-53e2-432d-b05f-ab1e816b61dc","system_id":"levelo_inurba_marseille","lat":43.231794,"lon":5.400052,"is_reserved":false,"is_disabled":false,"rental_uris":{"android":"levelo://app?vid=8f0fb87f-53e2-432d-b05f-ab1e816b61dc","ios":"levelo://app?vid=8f0fb87f-53e2-432d-b05f-ab1e816b61dc"},"vehicle_type_id":"4","last_reported":1701713382,"current_range_meters":30800,"station_id":"ce4bhn12rcd13ifvqgqg","pricing_plan_id":"free"},{"bike_id":"d6f1b06d-6100-4b51-8fdd-b5dbe00f7ca7","system_id":"levelo_inurba_marseille","lat":43.231794,"lon":5.400052,"is_reserved":false,"is_disabled":false,"rental_uris":{"android":"levelo://app?vid=d6f1b06d-6100-4b51-8fdd-b5dbe00f7ca7","ios":"levelo://app?vid=d6f1b06d-6100-4b51-8fdd-b5dbe00f7ca7"},"vehicle_type_id":"4","last_reported":1701713382,"current_range_meters":12000,"station_id":"ce4bhn12rcd13ifvqgqg","pricing_plan_id":"free"},{"bike_id":"2e1f4911-ec15-4212-aa8f-8ade17ab151d","system_id":"levelo_inurba_marseille","lat":43.23156,"lon":5.4372,"is_reserved":false,"is_disabled":false,"rental_uris":{"android":"levelo://app?vid=2e1f4911-ec15-4212-aa8f-8ade17ab151d","ios":"levelo://app?vid=2e1f4911-ec15-4212-aa8f-8ade17ab151d"},"vehicle_type_id":"4","last_reported":1701713382,"current_range_meters":29200,"station_id":"ce4bhmp2rcd13ifvqgog","pricing_plan_id":"free"},{"bike_id":"818b7971-a62f-4d0c-b4d6-ebcff5688a44","system_id":"levelo_inurba_marseille","lat":43.231562,"lon":5.436933,"is_reserved":false,"is_disabled":false,"rental_uris":{"android":"levelo://app?vid=818b7971-a62f-4d0c-b4d6-ebcff5688a44","ios":"levelo://app?vid=818b7971-a62f-4d0c-b4d6-ebcff5688a44"},"vehicle_type_id":"4","last_reported":1701713382,"current_range_meters":27600,"station_id":"ce4bhmp2rcd13ifvqgog","pricing_plan_id":"free"},{"bike_id":"b718cec7-5e66-4216-830b-20c4cb80c1f6","system_id":"levelo_inurba_marseille","lat":43.231562,"lon":5.436933,"is_reserved":false,"is_disabled":false,"rental_uris":{"android":"levelo://app?vid=b718cec7-5e66-4216-830b-20c4cb80c1f6","ios":"levelo://app?vid=b718cec7-5e66-4216-830b-20c4cb80c1f6"},"vehicle_type_id":"4","last_reported":1701713382,"current_range_meters":29600,"station_id":"ce4bhmp2rcd13ifvqgog","pricing_plan_id":"free"},{"bike_id":"1470ce37-368f-45ab-b473-5fbe751d8010","system_id":"levelo_inurba_marseille","lat":43.231562,"lon":5.436933,"is_reserved":false,"is_disabled":false,"rental_uris":{"android":"levelo://app?vid=1470ce37-368f-45ab-b473-5fbe751d8010","ios":"levelo://app?vid=1470ce37-368f-45ab-b473-5fbe751d8010"},"vehicle_type_id":"4","last_reported":1701713382,"current_range_meters":30800,"station_id":"ce4bhmp2rcd13ifvqgog","pricing_plan_id":"free"},{"bike_id":"30690881-465e-4f4e-a81a-04a1a40e4341","system_id":"levelo_inurba_marseille","lat":43.231562,"lon":5.436933,"is_reserved":false,"is_disabled":false,"rental_uris":{"android":"levelo://app?vid=30690881-465e-4f4e-a81a-04a1a40e4341","ios":"levelo://app?vid=30690881-465e-4f4e-a81a-04a1a40e4341"},"vehicle_type_id":"4","last_reported":1701713382,"current_range_meters":17200,"station_id":"ce4bhmp2rcd13ifvqgog","pricing_plan_id":"free"},{"bike_id":"31d0811f-403f-42aa-9ea6-b138ed5aedee","system_id":"levelo_inurba_marseille","lat":43.231562,"lon":5.436933,"is_reserved":false,"is_disabled":false,"rental_uris":{"android":"levelo://app?vid=31d0811f-403f-42aa-9ea6-b138ed5aedee","ios":"levelo://app?vid=31d0811f-403f-42aa-9ea6-b138ed5aedee"},"vehicle_type_id":"4","last_reported":1701713382,"current_range_meters":31200,"station_id":"ce4bhmp2rcd13ifvqgog","pricing_plan_id":"free"}]}}