{"last_updated":1736359928,"ttl":60,"version":"2.2","data":{"bikes":[{"bike_id":"e53ee841-b694-4ec4-b3ba-f18d13a12fbf","system_id":"levelo_inurba_marseille","lat":43.3303,"lon":5.39036,"is_reserved":false,"is_disabled":false,"rental_uris":{"android":"levelo://app?vid=e53ee841-b694-4ec4-b3ba-f18d13a12fbf","ios":"levelo://app?vid=e53ee841-b694-4ec4-b3ba-f18d13a12fbf"},"vehicle_type_id":"4","last_reported":1736359928,"current_range_meters":19200,"station_id":"ce4bhr92rcd13ifvqhrg","pricing_plan_id":"cebpf4jnsgd1na2vs0mg"},{"bike_id":"9c74a64d-ea4f-4bd1-947d-3761b5df3ed0","system_id":"levelo_inurba_marseille","lat":43.3029,"lon":5.39222,"is_reserved":false,"is_disabled":true,"rental_uris":{"android":"levelo://app?vid=9c74a64d-ea4f-4bd1-947d-3761b5df3ed0","ios":"levelo://app?vid=9c74a64d-ea4f-4bd1-947d-3761b5df3ed0"},"vehicle_type_id":"4","last_reported":1736359928,"current_range_meters":1200,"station_id":"ce4bgkh2rcd13ifvqbk0","pricing_plan_id":"cebpf4jnsgd1na2vs0mg"},{"bike_id":"424b02a3-71fc-4629-934b-0ffcd9c06e9e","system_id":"levelo_inurba_marseille","lat":43.308889,"lon":5.39655,"is_reserved":false,"is_disabled":false,"rental_uris":{"android":"levelo://app?vid=424b02a3-71fc-4629-934b-0ffcd9c06e9e","ios":"levelo://app?vid=424b02a3-71fc-4629-934b-0ffcd9c06e9e"},"vehicle_type_id":"4","last_reported":1736359928,"current_range_meters":38400,"station_id":"ce4bh012rcd13ifvqcv0","pricing_plan_id":"cebpf4jnsgd1na2vs0mg"},{"bike_id":"079a2489-d193-414b-8b47-82e93bfb4b65","system_id":"levelo_inurba_marseille","lat":43.289,"lon":5.38,"is_reserved":false,"is_disabled":false,"rental_uris":{"android":"levelo://app?vid=079a2489-d193-414b-8b47-82e93bfb4b65","ios":"levelo://app?vid=079a2489-d193-414b-8b47-82e93bfb4b65"},"vehicle_type_id":"4","last_reported":1736359928,"current_range_meters":36800,"station_id":"","pricing_plan_id":"cebpf4jnsgd1na2vs0mg"},{"bike_id":"31010968-cae9-4e3c-9ab2-3cb8a752c00d","system_id":"levelo_inurba_marseille","lat":43.26571,"lon":5.39025,"is_reserved":false,"is_disabled":false,"rental_uris":{"android":"levelo://app?vid=31010968-cae9-4e3c-9ab2-3cb8a752c00d","ios":"levelo://app?vid=31010968-cae9-4e3c-9ab2-3cb8a752c00d"},"vehicle_type_id":"4","last_reported":1736359928,"current_range_meters":22400,"station_id":"ce4bhe12rcd13ifvqf30","pricing_plan_id":"cebpf4jnsgd1na2vs0mg"},{"bike_id":"ed23929f-3a01-4c0b-917c-a6ed0a05a09f","system_id":"levelo_inurba_marseille","lat":43.31225,"lon":5.3686,"is_reserved":false,"is_disabled":false,"rental_uris":{"android":"levelo://app?vid=ed23929f-3a01-4c0b-917c-a6ed0a05a09f","ios":"levelo://app?vid=ed23929f-3a01-4c0b-917c-a6ed0a05a09f"},"vehicle_type_id":"4","last_reported":1736359928,"current_range_meters":12000,"station_id":"ce4bgl92rcd13ifvqbq0","pricing_plan_id":"cebpf4jnsgd1na2vs0mg"},{"bike_id":"085817a1-cdb5-4514-937b-fb67ba5faa00","system_id":"levelo_inurba_marseille","lat":43.26356,"lon":5.39036,"is_reserved":false,"is_disabled":false,"rental_uris":{"android":"levelo://app?vid=085817a1-cdb5-4514-937b-fb67ba5faa00","ios":"levelo://app?vid=085817a1-cdb5-4514-937b-fb67ba5faa00"},"vehicle_type_id":"4","last_reported":1736359928,"current_range_meters":30400,"station_id":"ce4bhnp2rcd13ifvqgvg","pricing_plan_id":"cebpf4jnsgd1na2vs0mg"},{"bike_id":"e2499402-6304-4068-aed1-9f0828dbeafb","system_id":"levelo_inurba_marseille","lat":43.25494,"lon":5.37648,"is_reserved":false,"is_disabled":false,"rental_uris":{"android":"levelo://app?vid=e2499402-6304-4068-aed1-9f0828dbeafb","ios":"levelo://app?vid=e2499402-6304-4068-aed1-9f0828dbeafb"},"vehicle_type_id":"4","last_reported":1736359928,"current_range_meters":38000,"station_id":"ce4bhh12rcd13ifvqff0","pricing_plan_id":"cebpf4jnsgd1na2vs0mg"},{"bike_id":"4ddbf2c2-3ff2-4fdd-9b70-46919adfef3a","system_id":"levelo_inurba_marseille","lat":43.31172,"lon":5.3871,"is_reserved":false,"is_disabled":false,"rental_uris":{"android":"levelo://app?vid=4ddbf2c2-3ff2-4fdd-9b70-46919adfef3a","ios":"levelo://app?vid=4ddbf2c2-3ff2-4fdd-9b70-46919adfef3a"},"vehicle_type_id":"4","last_reported":1736359928,"current_range_meters":30400,"station_id":"ce4bgv12rcd13ifvqcp0","pricing_plan_id":"cebpf4jnsgd1na2vs0mg"},{"bike_id":"6a62e9a9-c697-40a0-99b0-3b7a870bce54","system_id":"levelo_inurba_marseille","lat":43.31754,"lon":5.39018,"is_reserved":false,"is_disabled":false,"rental_uris":{"android":"levelo://app?vid=6a62e9a9-c697-40a0-99b0-3b7a870bce54","ios":"levelo://app?vid=6a62e9a9-c697-40a0-99b0-3b7a870bce54"},"vehicle_type_id":"4","last_reported":1736359928,"current_range_meters":27200,"station_id":"ce4bhqp2rcd13ifvqhng","pricing_plan_id":"cebpf4jnsgd1na2vs0mg"},{"bike_id":"784c114c-6b4b-4d66-8437-8a364b7d7999","system_id":"levelo_inurba_marseille","lat":43.33723,"lon":5.39169,"is_reserved":false,"is_disabled":false,"rental_uris":{"android":"levelo://app?vid=784c114c-6b4b-4d66-8437-8a364b7d7999","ios":"levelo://app?vid=784c114c-6b4b-4d66-8437-8a364b7d7999"},"vehicle_type_id":"4","last_reported":1736359928,"current_range_meters":34800,"station_id":"ce4bhr92rcd13ifvqhsg","pricing_plan_id":"cebpf4jnsgd1na2vs0mg"},{"bike_id":"8bf38e2b-be42-4976-a0cd-2ce26692c4cb","system_id":"levelo_inurba_marseille","lat":43.30935,"lon":5.40141,"is_reserved":false,"is_disabled":false,"rental_uris":{"android":"levelo://app?vid=8bf38e2b-be42-4976-a0cd-2ce26692c4cb","ios":"levelo://app?vid=8bf38e2b-be42-4976-a0cd-2ce26692c4cb"},"vehicle_type_id":"4","last_reported":1736359928,"current_range_meters":36400,"station_id":"ce4bgvp2rcd13ifvqct0","pricing_plan_id":"cebpf4jnsgd1na2vs0mg"},{"bike_id":"07cbb3d5-fb85-4b00-bb5b-63d92c5d63f6","system_id":"levelo_inurba_marseille","lat":43.28691,"lon":5.39998,"is_reserved":false,"is_disabled":true,"rental_uris":{"android":"levelo://app?vid=07cbb3d5-fb85-4b00-bb5b-63d92c5d63f6","ios":"levelo://app?vid=07cbb3d5-fb85-4b00-bb5b-63d92c5d63f6"},"vehicle_type_id":"4","last_reported":1736359928,"current_range_meters":800,"station_id":"ce4bho92rcd13ifvqh3g","pricing_plan_id":"cebpf4jnsgd1na2vs0mg"},{"bike_id":"a153ac57-ef71-416b-87be-3dc0c90aa57b","system_id":"levelo_inurba_marseille","lat":43.2418,"lon":5.39722,"is_reserved":false,"is_disabled":false,"rental_uris":{"android":"levelo://app?vid=a153ac57-ef71-416b-87be-3dc0c90aa57b","ios":"levelo://app?vid=a153ac57-ef71-416b-87be-3dc0c90aa57b"},"vehicle_type_id":"4","last_reported":1736359928,"current_range_meters":4400,"station_id":"ce4bhn12rcd13ifvqgpg","pricing_plan_id":"cebpf4jnsgd1na2vs0mg"},{"bike_id":"2a250d61-8a11-4f0c-8194-7f90eada69de","system_id":"levelo_inurba_marseille","lat":43.31327,"lon":5.39695,"is_reserved":false,"is_disabled":false,"rental_uris":{"android":"levelo://app?vid=2a250d61-8a11-4f0c-8194-7f90eada69de","ios":"levelo://app?vid=2a250d61-8a11-4f0c-8194-7f90eada69de"},"vehicle_type_id":"4","last_reported":1736359928,"current_range_meters":27200,"station_id":"ce4bgvp2rcd13ifvqcu0","pricing_plan_id":"cebpf4jnsgd1na2vs0mg"},{"bike_id":"4b11dfbc-546f-4416-a43a-9a93996b73e8","system_id":"levelo_inurba_marseille","lat":43.30128,"lon":5.38779,"is_reserved":false,"is_disabled":false,"rental_uris":{"android":"levelo://app?vid=4b11dfbc-546f-4416-a43a-9a93996b73e8","ios":"levelo://app?vid=4b11dfbc-546f-4416-a43a-9a93996b73e8"},"vehicle_type_id":"4","last_reported":1736359928,"current_range_meters":22000,"station_id":"ce4bghh2rcd13ifvqb60","pricing_plan_id":"cebpf4jnsgd1na2vs0mg"},{"bike_id":"41fcc134-7f58-49f2-8e06-b4f28d80d904","system_id":"levelo_inurba_marseille","lat":43.29882,"lon":5.39741,"is_reserved":false,"is_disabled":false,"rental_uris":{"android":"levelo://app?vid=41fcc134-7f58-49f2-8e06-b4f28d80d904","ios":"levelo://app?vid=41fcc134-7f58-49f2-8e06-b4f28d80d904"},"vehicle_type_id":"4","last_reported":1736359928,"current_range_meters":24400,"station_id":"ce4bh0h2rcd13ifvqd50","pricing_plan_id":"cebpf4jnsgd1na2vs0mg"},{"bike_id":"f40a23e1-4db4-43c9-bf26-5d3436aadc87","system_id":"levelo_inurba_marseille","lat":43.283595,"lon":5.386365,"is_reserved":false,"is_disabled":true,"rental_uris":{"android":"levelo://app?vid=f40a23e1-4db4-43c9-bf26-5d3436aadc87","ios":"levelo://app?vid=f40a23e1-4db4-43c9-bf26-5d3436aadc87"},"vehicle_type_id":"4","last_reported":1736359928,"current_range_meters":36800,"station_id":"ce4bh492rcd13ifvqdvg","pricing_plan_id":"cebpf4jnsgd1na2vs0mg"},{"bike_id":"a8ce43be-4cc1-4b4c-a3a3-d5048bc9b7fa","system_id":"levelo_inurba_marseille","lat":43.33034,"lon":5.3903,"is_reserved":false,"is_disabled":false,"rental_uris":{"android":"levelo://app?vid=a8ce43be-4cc1-4b4c-a3a3-d5048bc9b7fa","ios":"levelo://app?vid=a8ce43be-4cc1-4b4c-a3a3-d5048bc9b7fa"},"vehicle_type_id":"4","last_reported":1736359928,"current_range_meters":36800,"station_id":"ce4bhr92rcd13ifvqhrg","pricing_plan_id":"cebpf4jnsgd1na2vs0mg"},{"bike_id":"73eb524f-2d58-4a00-9fa5-76f6077910dd","system_id":"levelo_inurba_marseille","lat":43.23195,"lon":5.39976,"is_reserved":false,"is_disabled":true,"rental_uris":{"android":"levelo://app?vid=73eb524f-2d58-4a00-9fa5-76f6077910dd","ios":"levelo://app?vid=73eb524f-2d58-4a00-9fa5-76f6077910dd"},"vehicle_type_id":"4","last_reported":1736359928,"current_range_meters":11600,"station_id":"ce4bhn12rcd13ifvqgqg","pricing_plan_id":"cebpf4jnsgd1na2vs0mg"},{"bike_id":"2199d219-e0ca-4b28-a772-ba63161f237a","system_id":"levelo_inurba_marseille","lat":43.32116,"lon":5.36788,"is_reserved":false,"is_disabled":false,"rental_uris":{"android":"levelo://app?vid=2199d219-e0ca-4b28-a772-ba63161f237a","ios":"levelo://app?vid=2199d219-e0ca-4b28-a772-ba63161f237a"},"vehicle_type_id":"4","last_reported":1736359928,"current_range_meters":17600,"station_id":"ce4bhrh2rcd13ifvqhug","pricing_plan_id":"cebpf4jnsgd1na2vs0mg"},{"bike_id":"af98da3b-a5f8-4f6c-93ae-5cdf75208084","system_id":"levelo_inurba_marseille","lat":43.29268,"lon":5.38443,"is_reserved":false,"is_disabled":false,"rental_uris":{"android":"levelo://app?vid=af98da3b-a5f8-4f6c-93ae-5cdf75208084","ios":"levelo://app?vid=af98da3b-a5f8-4f6c-93ae-5cdf75208084"},"vehicle_type_id":"4","last_reported":1736359928,"current_range_meters":30000,"station_id":"ce4bh692rcd13ifvqea0","pricing_plan_id":"cebpf4jnsgd1na2vs0mg"},{"bike_id":"6850f017-3593-4197-817c-eac779b4b2e1","system_id":"levelo_inurba_marseille","lat":43.29277,"lon":5.4011,"is_reserved":false,"is_disabled":true,"rental_uris":{"android":"levelo://app?vid=6850f017-3593-4197-817c-eac779b4b2e1","ios":"levelo://app?vid=6850f017-3593-4197-817c-eac779b4b2e1"},"vehicle_type_id":"4","last_reported":1736359928,"current_range_meters":1200,"station_id":"ce4bh312rcd13ifvqdk0","pricing_plan_id":"cebpf4jnsgd1na2vs0mg"},{"bike_id":"479503f2-a0f3-47e4-b5a8-b294b9601d8c","system_id":"levelo_inurba_marseille","lat":43.29536,"lon":5.39047,"is_reserved":false,"is_disabled":false,"rental_uris":{"android":"levelo://app?vid=479503f2-a0f3-47e4-b5a8-b294b9601d8c","ios":"levelo://app?vid=479503f2-a0f3-47e4-b5a8-b294b9601d8c"},"vehicle_type_id":"4","last_reported":1736359928,"current_range_meters":12000,"station_id":"ce4bh3p2rcd13ifvqdp0","pricing_plan_id":"cebpf4jnsgd1na2vs0mg"},{"bike_id":"2d648351-f34f-49f7-a31d-1dbaa2fc1ef9","system_id":"levelo_inurba_marseille","lat":43.30787,"lon":5.37653,"is_reserved":false,"is_disabled":false,"rental_uris":{"android":"levelo://app?vid=2d648351-f34f-49f7-a31d-1dbaa2fc1ef9","ios":"levelo://app?vid=2d648351-f34f-49f7-a31d-1dbaa2fc1ef9"},"vehicle_type_id":"4","last_reported":1736359928,"current_range_meters":6000,"station_id":"ce4bgv92rcd13ifvqcq0","pricing_plan_id":"cebpf4jnsgd1na2vs0mg"},{"bike_id":"bd7df7c3-f358-4c46-a7bb-7521e3a44888","system_id":"levelo_inurba_marseille","lat":43.28665,"lon":5.38673,"is_reserved":false,"is_disabled":false,"rental_uris":{"android":"levelo://app?vid=bd7df7c3-f358-4c46-a7bb-7521e3a44888","ios":"levelo://app?vid=bd7df7c3-f358-4c46-a7bb-7521e3a44888"},"vehicle_type_id":"4","last_reported":1736359928,"current_range_meters":28400,"station_id":"ce4bh492rcd13ifvqdug","pricing_plan_id":"cebpf4jnsgd1na2vs0mg"},{"bike_id":"e9811af6-2b58-44bf-8a8f-1cf010738c20","system_id":"levelo_inurba_marseille","lat":43.23183,"lon":5.39997,"is_reserved":false,"is_disabled":false,"rental_uris":{"android":"levelo://app?vid=e9811af6-2b58-44bf-8a8f-1cf010738c20","ios":"levelo://app?vid=e9811af6-2b58-44bf-8a8f-1cf010738c20"},"vehicle_type_id":"4","last_reported":1736359928,"current_range_meters":26800,"station_id":"ce4bhn12rcd13ifvqgqg","pricing_plan_id":"cebpf4jnsgd1na2vs0mg"},{"bike_id":"92b15878-90b2-470d-b1f5-05b4f85f4c59","system_id":"levelo_inurba_marseille","lat":43.30926,"lon":5.4014,"is_reserved":false,"is_disabled":false,"rental_uris":{"android":"levelo://app?vid=92b15878-90b2-470d-b1f5-05b4f85f4c59","ios":"levelo://app?vid=92b15878-90b2-470d-b1f5-05b4f85f4c59"},"vehicle_type_id":"4","last_reported":1736359928,"current_range_meters":17600,"station_id":"ce4bgvp2rcd13ifvqct0","pricing_plan_id":"cebpf4jnsgd1na2vs0mg"},{"bike_id":"e15dcd3b-eacc-4522-9907-a3d4d4f0f50b","system_id":"levelo_inurba_marseille","lat":43.29262,"lon":5.38434,"is_reserved":false,"is_disabled":false,"rental_uris":{"android":"levelo://app?vid=e15dcd3b-eacc-4522-9907-a3d4d4f0f50b","ios":"levelo://app?vid=e15dcd3b-eacc-4522-9907-a3d4d4f0f50b"},"vehicle_type_id":"4","last_reported":1736359928,"current_range_meters":27200,"station_id":"ce4bh692rcd13ifvqea0","pricing_plan_id":"cebpf4jnsgd1na2vs0mg"},{"bike_id":"5f01e351-0beb-4bec-99a6-8ccfaafab549","system_id":"levelo_inurba_marseille","lat":43.29018,"lon":5.38137,"is_reserved":false,"is_disabled":true,"rental_uris":{"android":"levelo://app?vid=5f01e351-0beb-4bec-99a6-8ccfaafab549","ios":"levelo://app?vid=5f01e351-0beb-4bec-99a6-8ccfaafab549"},"vehicle_type_id":"4","last_reported":1736359928,"current_range_meters":38800,"station_id":"ce4bh4p2rcd13ifvqe1g","pricing_plan_id":"cebpf4jnsgd1na2vs0mg"},{"bike_id":"3b88867c-5e35-4ef7-867f-839f13f1a559","system_id":"levelo_inurba_marseille","lat":43.28563,"lon":5.39499,"is_reserved":false,"is_disabled":false,"rental_uris":{"android":"levelo://app?vid=3b88867c-5e35-4ef7-867f-839f13f1a559","ios":"levelo://app?vid=3b88867c-5e35-4ef7-867f-839f13f1a559"},"vehicle_type_id":"4","last_reported":1736359928,"current_range_meters":30800,"station_id":"ce4bh292rcd13ifvqdg0","pricing_plan_id":"cebpf4jnsgd1na2vs0mg"},{"bike_id":"460f3f9a-f497-4764-9870-ab9defd7c878","system_id":"levelo_inurba_marseille","lat":43.28926,"lon":5.38399,"is_reserved":false,"is_disabled":false,"rental_uris":{"android":"levelo://app?vid=460f3f9a-f497-4764-9870-ab9defd7c878","ios":"levelo://app?vid=460f3f9a-f497-4764-9870-ab9defd7c878"},"vehicle_type_id":"4","last_reported":1736359928,"current_range_meters":38800,"station_id":"ce4bh612rcd13ifvqe6g","pricing_plan_id":"cebpf4jnsgd1na2vs0mg"},{"bike_id":"f45bc5a2-ac90-41b7-9352-e987f3a6a4fc","system_id":"levelo_inurba_marseille","lat":43.29287,"lon":5.36849,"is_reserved":false,"is_disabled":false,"rental_uris":{"android":"levelo://app?vid=f45bc5a2-ac90-41b7-9352-e987f3a6a4fc","ios":"levelo://app?vid=f45bc5a2-ac90-41b7-9352-e987f3a6a4fc"},"vehicle_type_id":"4","last_reported":1736359928,"current_range_meters":38400,"station_id":"ce4bhbp2rcd13ifvqesg","pricing_plan_id":"cebpf4jnsgd1na2vs0mg"},{"bike_id":"027fb515-cf5e-4431-9b8b-d23328baea59","system_id":"levelo_inurba_marseille","lat":43.23456,"lon":5.41176,"is_reserved":false,"is_disabled":false,"rental_uris":{"android":"levelo://app?vid=027fb515-cf5e-4431-9b8b-d23328baea59","ios":"levelo://app?vid=027fb515-cf5e-4431-9b8b-d23328baea59"},"vehicle_type_id":"4","last_reported":1736359928,"current_range_meters":18000,"station_id":"","pricing_plan_id":"cebpf4jnsgd1na2vs0mg"},{"bike_id":"df02e1b6-3a50-4ccf-933f-7b5e41abfc53","system_id":"levelo_inurba_marseille","lat":43.31326,"lon":5.39681,"is_reserved":false,"is_disabled":false,"rental_uris":{"android":"levelo://app?vid=df02e1b6-3a50-4ccf-933f-7b5e41abfc53","ios":"levelo://app?vid=df02e1b6-3a50-4ccf-933f-7b5e41abfc53"},"vehicle_type_id":"4","last_reported":1736359928,"current_range_meters":38800,"station_id":"ce4bgvp2rcd13ifvqcu0","pricing_plan_id":"cebpf4jnsgd1na2vs0mg"},{"bike_id":"e601d8b6-f206-400a-be15-a8cb866ef7c3","system_id":"levelo_inurba_marseille","lat":43.29384,"lon":5.37849,"is_reserved":false,"is_disabled":true,"rental_uris":{"android":"levelo://app?vid=e601d8b6-f206-400a-be15-a8cb866ef7c3","ios":"levelo://app?vid=e601d8b6-f206-400a-be15-a8cb866ef7c3"},"vehicle_type_id":"4","last_reported":1736359928,"current_range_meters":38800,"station_id":"ce4bgjh2rcd13ifvqbf0","pricing_plan_id":"cebpf4jnsgd1na2vs0mg"},{"bike_id":"be4c59f4-a498-44be-a430-245c96b05e75","system_id":"levelo_inurba_marseille","lat":43.32858,"lon":5.39164,"is_reserved":false,"is_disabled":false,"rental_uris":{"android":"levelo://app?vid=be4c59f4-a498-44be-a430-245c96b05e75","ios":"levelo://app?vid=be4c59f4-a498-44be-a430-245c96b05e75"},"vehicle_type_id":"4","last_reported":1736359928,"current_range_meters":15200,"station_id":"","pricing_plan_id":"cebpf4jnsgd1na2vs0mg"},{"bike_id":"feeeae9a-4bcc-477a-bc8c-e9391fa8aedd","system_id":"levelo_inurba_marseille","lat":43.29197,"lon":5.39317,"is_reserved":false,"is_disabled":true,"rental_uris":{"android":"levelo://app?vid=feeeae9a-4bcc-477a-bc8c-e9391fa8aedd","ios":"levelo://app?vid=feeeae9a-4bcc-477a-bc8c-e9391fa8aedd"},"vehicle_type_id":"4","last_reported":1736359928,"current_range_meters":2000,"station_id":"ce4bh192rcd13ifvqdd0","pricing_plan_id":"cebpf4jnsgd1na2vs0mg"},{"bike_id":"dbe4d7d2-95f9-4a28-b000-f9ac7c3f52eb","system_id":"levelo_inurba_marseille","lat":43.29201,"lon":5.39338,"is_reserved":false,"is_disabled":true,"rental_uris":{"android":"levelo://app?vid=dbe4d7d2-95f9-4a28-b000-f9ac7c3f52eb","ios":"levelo://app?vid=dbe4d7d2-95f9-4a28-b000-f9ac7c3f52eb"},"vehicle_type_id":"4","last_reported":1736359928,"current_range_meters":2800,"station_id":"ce4bh192rcd13ifvqdd0","pricing_plan_id":"cebpf4jnsgd1na2vs0mg"},{"bike_id":"8dbe984d-a495-4550-9f90-89df3bd24be5","system_id":"levelo_inurba_marseille","lat":43.32289,"lon":5.38277,"is_reserved":false,"is_disabled":false,"rental_uris":{"android":"levelo://app?vid=8dbe984d-a495-4550-9f90-89df3bd24be5","ios":"levelo://app?vid=8dbe984d-a495-4550-9f90-89df3bd24be5"},"vehicle_type_id":"4","last_reported":1736359928,"current_range_meters":29600,"station_id":"ce4bhr12rcd13ifvqhqg","pricing_plan_id":"cebpf4jnsgd1na2vs0mg"},{"bike_id":"b02ae6ee-06d8-4b9f-9872-c8fcf9b7576a","system_id":"levelo_inurba_marseille","lat":43.30561,"lon":5.36542,"is_reserved":false,"is_disabled":true,"rental_uris":{"android":"levelo://app?vid=b02ae6ee-06d8-4b9f-9872-c8fcf9b7576a","ios":"levelo://app?vid=b02ae6ee-06d8-4b9f-9872-c8fcf9b7576a"},"vehicle_type_id":"4","last_reported":1736359928,"current_range_meters":24400,"station_id":"ce4bgs12rcd13ifvqcag","pricing_plan_id":"cebpf4jnsgd1na2vs0mg"},{"bike_id":"75edeaed-15f8-4555-ba54-f2c4bc584cd1","system_id":"levelo_inurba_marseille","lat":43.28615,"lon":5.35108,"is_reserved":false,"is_disabled":true,"rental_uris":{"android":"levelo://app?vid=75edeaed-15f8-4555-ba54-f2c4bc584cd1","ios":"levelo://app?vid=75edeaed-15f8-4555-ba54-f2c4bc584cd1"},"vehicle_type_id":"4","last_reported":1736359928,"current_range_meters":1200,"station_id":"ce4bhch2rcd13ifvqeug","pricing_plan_id":"cebpf4jnsgd1na2vs0mg"},{"bike_id":"b018c945-be2e-4b45-94ea-30dd37c46510","system_id":"levelo_inurba_marseille","lat":43.25753,"lon":5.41055,"is_reserved":false,"is_disabled":false,"rental_uris":{"android":"levelo://app?vid=b018c945-be2e-4b45-94ea-30dd37c46510","ios":"levelo://app?vid=b018c945-be2e-4b45-94ea-30dd37c46510"},"vehicle_type_id":"4","last_reported":1736359928,"current_range_meters":39200,"station_id":"ce4bh512rcd13ifvqe2g","pricing_plan_id":"cebpf4jnsgd1na2vs0mg"},{"bike_id":"fe9e835c-dab3-42ed-ba59-f6c42ff0d0c1","system_id":"levelo_inurba_marseille","lat":43.31326,"lon":5.3969,"is_reserved":false,"is_disabled":false,"rental_uris":{"android":"levelo://app?vid=fe9e835c-dab3-42ed-ba59-f6c42ff0d0c1","ios":"levelo://app?vid=fe9e835c-dab3-42ed-ba59-f6c42ff0d0c1"},"vehicle_type_id":"4","last_reported":1736359928,"current_range_meters":7200,"station_id":"ce4bgvp2rcd13ifvqcu0","pricing_plan_id":"cebpf4jnsgd1na2vs0mg"},{"bike_id":"c156c884-b070-495f-8042-336e066b8d46","system_id":"levelo_inurba_marseille","lat":43.26801,"lon":5.40269,"is_reserved":false,"is_disabled":false,"rental_uris":{"android":"levelo://app?vid=c156c884-b070-495f-8042-336e066b8d46","ios":"levelo://app?vid=c156c884-b070-495f-8042-336e066b8d46"},"vehicle_type_id":"4","last_reported":1736359928,"current_range_meters":20400,"station_id":"ce501612rcd8frsf0b60","pricing_plan_id":"cebpf4jnsgd1na2vs0mg"},{"bike_id":"074ec71b-db7a-42b8-b6e3-01763868c0f5","system_id":"levelo_inurba_marseille","lat":43.2781,"lon":5.4071,"is_reserved":false,"is_disabled":false,"rental_uris":{"android":"levelo://app?vid=074ec71b-db7a-42b8-b6e3-01763868c0f5","ios":"levelo://app?vid=074ec71b-db7a-42b8-b6e3-01763868c0f5"},"vehicle_type_id":"4","last_reported":1736359928,"current_range_meters":30000,"station_id":"ce4bhnh2rcd13ifvqgtg","pricing_plan_id":"cebpf4jnsgd1na2vs0mg"},{"bike_id":"a395f299-2e3c-4b01-a2e9-246d0d347a00","system_id":"levelo_inurba_marseille","lat":43.29427,"lon":5.3862,"is_reserved":false,"is_disabled":false,"rental_uris":{"android":"levelo://app?vid=a395f299-2e3c-4b01-a2e9-246d0d347a00","ios":"levelo://app?vid=a395f299-2e3c-4b01-a2e9-246d0d347a00"},"vehicle_type_id":"4","last_reported":1736359928,"current_range_meters":19200,"station_id":"ce4bh2h2rcd13ifvqdh0","pricing_plan_id":"cebpf4jnsgd1na2vs0mg"},{"bike_id":"b9a758d4-4e11-4e40-878a-fb05953086c0","system_id":"levelo_inurba_marseille","lat":43.23958,"lon":5.36661,"is_reserved":false,"is_disabled":false,"rental_uris":{"android":"levelo://app?vid=b9a758d4-4e11-4e40-878a-fb05953086c0","ios":"levelo://app?vid=b9a758d4-4e11-4e40-878a-fb05953086c0"},"vehicle_type_id":"4","last_reported":1736359928,"current_range_meters":14800,"station_id":"ce4bhi12rcd13ifvqfp0","pricing_plan_id":"cebpf4jnsgd1na2vs0mg"},{"bike_id":"0232728a-d9a1-4869-9e1b-49aeacbf60d3","system_id":"levelo_inurba_marseille","lat":43.29877,"lon":5.38913,"is_reserved":false,"is_disabled":false,"rental_uris":{"android":"levelo://app?vid=0232728a-d9a1-4869-9e1b-49aeacbf60d3","ios":"levelo://app?vid=0232728a-d9a1-4869-9e1b-49aeacbf60d3"},"vehicle_type_id":"4","last_reported":1736359928,"current_range_meters":30800,"station_id":"ce4bh392rcd13ifvqdl0","pricing_plan_id":"cebpf4jnsgd1na2vs0mg"},{"bike_id":"74f2d628-450c-4ceb-af40-c0025325e507","system_id":"levelo_inurba_marseille","lat":43.29258,"lon":5.40904,"is_reserved":false,"is_disabled":false,"rental_uris":{"android":"levelo://app?vid=74f2d628-450c-4ceb-af40-c0025325e507","ios":"levelo://app?vid=74f2d628-450c-4ceb-af40-c0025325e507"},"vehicle_type_id":"4","last_reported":1736359928,"current_range_meters":4800,"station_id":"ce4bh192rcd13ifvqdc0","pricing_plan_id":"cebpf4jnsgd1na2vs0mg"},{"bike_id":"0bb18fce-6faa-40ab-8066-a4cf72d623a7","system_id":"levelo_inurba_marseille","lat":43.28695,"lon":5.37415,"is_reserved":false,"is_disabled":false,"rental_uris":{"android":"levelo://app?vid=0bb18fce-6faa-40ab-8066-a4cf72d623a7","ios":"levelo://app?vid=0bb18fce-6faa-40ab-8066-a4cf72d623a7"},"vehicle_type_id":"4","last_reported":1736359928,"current_range_meters":39200,"station_id":"ce4bh3p2rcd13ifvqdq0","pricing_plan_id":"cebpf4jnsgd1na2vs0mg"},{"bike_id":"76e10f59-9938-4eff-b8e2-2388523cdd7b","system_id":"levelo_inurba_marseille","lat":43.301697,"lon":5.365913,"is_reserved":false,"is_disabled":false,"rental_uris":{"android":"levelo://app?vid=76e10f59-9938-4eff-b8e2-2388523cdd7b","ios":"levelo://app?vid=76e10f59-9938-4eff-b8e2-2388523cdd7b"},"vehicle_type_id":"4","last_reported":1736359928,"current_range_meters":22400,"station_id":"ce4bhah2rcd13ifvqej0","pricing_plan_id":"cebpf4jnsgd1na2vs0mg"},{"bike_id":"83e7e804-2b99-4e06-93a6-e481d372b06c","system_id":"levelo_inurba_marseille","lat":43.27815,"lon":5.40699,"is_reserved":false,"is_disabled":false,"rental_uris":{"android":"levelo://app?vid=83e7e804-2b99-4e06-93a6-e481d372b06c","ios":"levelo://app?vid=83e7e804-2b99-4e06-93a6-e481d372b06c"},"vehicle_type_id":"4","last_reported":1736359928,"current_range_meters":30000,"station_id":"ce4bhnh2rcd13ifvqgtg","pricing_plan_id":"cebpf4jnsgd1na2vs0mg"},{"bike_id":"cc7ebf75-2609-40fd-9894-619c2829eee2","system_id":"levelo_inurba_marseille","lat":43.25721,"lon":5.41112,"is_reserved":false,"is_disabled":false,"rental_uris":{"android":"levelo://app?vid=cc7ebf75-2609-40fd-9894-619c2829eee2","ios":"levelo://app?vid=cc7ebf75-2609-40fd-9894-619c2829eee2"},"vehicle_type_id":"4","last_reported":1736359928,"current_range_meters":32000,"station_id":"ce4bhkp2rcd13ifvqgd0","pricing_plan_id":"cebpf4jnsgd1na2vs0mg"},{"bike_id":"4f3017af-2c7e-4b78-b10a-2f4a21b9af79","system_id":"levelo_inurba_marseille","lat":43.28103,"lon":5.37835,"is_reserved":false,"is_disabled":false,"rental_uris":{"android":"levelo://app?vid=4f3017af-2c7e-4b78-b10a-2f4a21b9af79","ios":"levelo://app?vid=4f3017af-2c7e-4b78-b10a-2f4a21b9af79"},"vehicle_type_id":"4","last_reported":1736359928,"current_range_meters":35600,"station_id":"ce4bha12rcd13ifvqee0","pricing_plan_id":"cebpf4jnsgd1na2vs0mg"},{"bike_id":"5ae03546-d65a-42a7-a262-47060e5e1da1","system_id":"levelo_inurba_marseille","lat":43.24177,"lon":5.39734,"is_reserved":false,"is_disabled":false,"rental_uris":{"android":"levelo://app?vid=5ae03546-d65a-42a7-a262-47060e5e1da1","ios":"levelo://app?vid=5ae03546-d65a-42a7-a262-47060e5e1da1"},"vehicle_type_id":"4","last_reported":1736359928,"current_range_meters":38800,"station_id":"ce4bhn12rcd13ifvqgpg","pricing_plan_id":"cebpf4jnsgd1na2vs0mg"},{"bike_id":"e0c5bcca-f38c-4415-8d3c-64dad8e411d9","system_id":"levelo_inurba_marseille","lat":43.27371,"lon":5.36257,"is_reserved":false,"is_disabled":false,"rental_uris":{"android":"levelo://app?vid=e0c5bcca-f38c-4415-8d3c-64dad8e411d9","ios":"levelo://app?vid=e0c5bcca-f38c-4415-8d3c-64dad8e411d9"},"vehicle_type_id":"4","last_reported":1736359928,"current_range_meters":38800,"station_id":"ce4bhbh2rcd13ifvqeo0","pricing_plan_id":"cebpf4jnsgd1na2vs0mg"},{"bike_id":"128e494f-c5f6-49d1-8da7-12ffc5ea9838","system_id":"levelo_inurba_marseille","lat":43.241652,"lon":5.363964,"is_reserved":false,"is_disabled":false,"rental_uris":{"android":"levelo://app?vid=128e494f-c5f6-49d1-8da7-12ffc5ea9838","ios":"levelo://app?vid=128e494f-c5f6-49d1-8da7-12ffc5ea9838"},"vehicle_type_id":"4","last_reported":1736359928,"current_range_meters":16400,"station_id":"cpo36qri1sfpv3e86is0","pricing_plan_id":"cebpf4jnsgd1na2vs0mg"},{"bike_id":"3ee56751-3590-45d0-93a9-68650d59e8b4","system_id":"levelo_inurba_marseille","lat":43.29373,"lon":5.37841,"is_reserved":false,"is_disabled":false,"rental_uris":{"android":"levelo://app?vid=3ee56751-3590-45d0-93a9-68650d59e8b4","ios":"levelo://app?vid=3ee56751-3590-45d0-93a9-68650d59e8b4"},"vehicle_type_id":"4","last_reported":1736359928,"current_range_meters":36800,"station_id":"ce4bgjh2rcd13ifvqbf0","pricing_plan_id":"cebpf4jnsgd1na2vs0mg"},{"bike_id":"9596f40c-d349-474b-913b-87702b074b3a","system_id":"levelo_inurba_marseille","lat":43.2794,"lon":5.41043,"is_reserved":false,"is_disabled":false,"rental_uris":{"android":"levelo://app?vid=9596f40c-d349-474b-913b-87702b074b3a","ios":"levelo://app?vid=9596f40c-d349-474b-913b-87702b074b3a"},"vehicle_type_id":"4","last_reported":1736359928,"current_range_meters":35600,"station_id":"ce4bhnp2rcd13ifvqh0g","pricing_plan_id":"cebpf4jnsgd1na2vs0mg"},{"bike_id":"d9cd4ada-6754-472b-9777-4a53b16f8275","system_id":"levelo_inurba_marseille","lat":43.29438,"lon":5.39743,"is_reserved":false,"is_disabled":false,"rental_uris":{"android":"levelo://app?vid=d9cd4ada-6754-472b-9777-4a53b16f8275","ios":"levelo://app?vid=d9cd4ada-6754-472b-9777-4a53b16f8275"},"vehicle_type_id":"4","last_reported":1736359928,"current_range_meters":9600,"station_id":"ce4bh3h2rcd13ifvqdo0","pricing_plan_id":"cebpf4jnsgd1na2vs0mg"},{"bike_id":"607f36c7-3f25-43a0-aea5-52069d6de697","system_id":"levelo_inurba_marseille","lat":43.28716,"lon":5.37382,"is_reserved":false,"is_disabled":false,"rental_uris":{"android":"levelo://app?vid=607f36c7-3f25-43a0-aea5-52069d6de697","ios":"levelo://app?vid=607f36c7-3f25-43a0-aea5-52069d6de697"},"vehicle_type_id":"4","last_reported":1736359928,"current_range_meters":28400,"station_id":"ce4bh3p2rcd13ifvqdq0","pricing_plan_id":"cebpf4jnsgd1na2vs0mg"},{"bike_id":"85c87ba8-94c5-495c-8f3f-e5c3bd4d700a","system_id":"levelo_inurba_marseille","lat":43.27819,"lon":5.40706,"is_reserved":false,"is_disabled":false,"rental_uris":{"android":"levelo://app?vid=85c87ba8-94c5-495c-8f3f-e5c3bd4d700a","ios":"levelo://app?vid=85c87ba8-94c5-495c-8f3f-e5c3bd4d700a"},"vehicle_type_id":"4","last_reported":1736359928,"current_range_meters":12400,"station_id":"ce4bhnh2rcd13ifvqgtg","pricing_plan_id":"cebpf4jnsgd1na2vs0mg"},{"bike_id":"9fd9a3de-90df-466c-8510-f29e450ec62b","system_id":"levelo_inurba_marseille","lat":43.3108,"lon":5.42433,"is_reserved":false,"is_disabled":true,"rental_uris":{"android":"levelo://app?vid=9fd9a3de-90df-466c-8510-f29e450ec62b","ios":"levelo://app?vid=9fd9a3de-90df-466c-8510-f29e450ec62b"},"vehicle_type_id":"4","last_reported":1736359928,"current_range_meters":17600,"station_id":"ce4bhp92rcd13ifvqhag","pricing_plan_id":"cebpf4jnsgd1na2vs0mg"},{"bike_id":"7e647b87-ee39-48c8-8a57-8ca415c7293d","system_id":"levelo_inurba_marseille","lat":43.23061,"lon":5.35486,"is_reserved":false,"is_disabled":false,"rental_uris":{"android":"levelo://app?vid=7e647b87-ee39-48c8-8a57-8ca415c7293d","ios":"levelo://app?vid=7e647b87-ee39-48c8-8a57-8ca415c7293d"},"vehicle_type_id":"4","last_reported":1736359928,"current_range_meters":36800,"station_id":"cpo3342slgdg3j2ifvpg","pricing_plan_id":"cebpf4jnsgd1na2vs0mg"},{"bike_id":"8c54b8d0-3b4a-4a1e-b50a-bc5d53d233f4","system_id":"levelo_inurba_marseille","lat":43.24386,"lon":5.37057,"is_reserved":false,"is_disabled":false,"rental_uris":{"android":"levelo://app?vid=8c54b8d0-3b4a-4a1e-b50a-bc5d53d233f4","ios":"levelo://app?vid=8c54b8d0-3b4a-4a1e-b50a-bc5d53d233f4"},"vehicle_type_id":"4","last_reported":1736359928,"current_range_meters":36000,"station_id":"ce4bhhh2rcd13ifvqfk0","pricing_plan_id":"cebpf4jnsgd1na2vs0mg"},{"bike_id":"58aed25b-7a2d-49e8-b7e1-4ec8b604656a","system_id":"levelo_inurba_marseille","lat":43.29255,"lon":5.40909,"is_reserved":false,"is_disabled":true,"rental_uris":{"android":"levelo://app?vid=58aed25b-7a2d-49e8-b7e1-4ec8b604656a","ios":"levelo://app?vid=58aed25b-7a2d-49e8-b7e1-4ec8b604656a"},"vehicle_type_id":"4","last_reported":1736359928,"current_range_meters":2000,"station_id":"","pricing_plan_id":"cebpf4jnsgd1na2vs0mg"},{"bike_id":"102cb488-e37e-4a25-ae00-7f174450be41","system_id":"levelo_inurba_marseille","lat":43.275617,"lon":5.384248,"is_reserved":false,"is_disabled":true,"rental_uris":{"android":"levelo://app?vid=102cb488-e37e-4a25-ae00-7f174450be41","ios":"levelo://app?vid=102cb488-e37e-4a25-ae00-7f174450be41"},"vehicle_type_id":"4","last_reported":1736359928,"current_range_meters":800,"station_id":"ce4bhh92rcd13ifvqfi0","pricing_plan_id":"cebpf4jnsgd1na2vs0mg"},{"bike_id":"4d4d57db-c776-4e84-a15c-21a6f8cd9184","system_id":"levelo_inurba_marseille","lat":43.28782,"lon":5.37385,"is_reserved":false,"is_disabled":false,"rental_uris":{"android":"levelo://app?vid=4d4d57db-c776-4e84-a15c-21a6f8cd9184","ios":"levelo://app?vid=4d4d57db-c776-4e84-a15c-21a6f8cd9184"},"vehicle_type_id":"4","last_reported":1736359928,"current_range_meters":31200,"station_id":"ce4bgj92rcd13ifvqbd0","pricing_plan_id":"cebpf4jnsgd1na2vs0mg"},{"bike_id":"8a03d0a3-42a9-4598-a8c4-76026601c9f4","system_id":"levelo_inurba_marseille","lat":43.29958,"lon":5.41315,"is_reserved":false,"is_disabled":false,"rental_uris":{"android":"levelo://app?vid=8a03d0a3-42a9-4598-a8c4-76026601c9f4","ios":"levelo://app?vid=8a03d0a3-42a9-4598-a8c4-76026601c9f4"},"vehicle_type_id":"4","last_reported":1736359928,"current_range_meters":7200,"station_id":"ce4bhp12rcd13ifvqh9g","pricing_plan_id":"cebpf4jnsgd1na2vs0mg"},{"bike_id":"47f78906-79ec-4312-b87c-b16484c68cff","system_id":"levelo_inurba_marseille","lat":43.28869,"lon":5.35848,"is_reserved":false,"is_disabled":false,"rental_uris":{"android":"levelo://app?vid=47f78906-79ec-4312-b87c-b16484c68cff","ios":"levelo://app?vid=47f78906-79ec-4312-b87c-b16484c68cff"},"vehicle_type_id":"4","last_reported":1736359928,"current_range_meters":5600,"station_id":"ce4bhb12rcd13ifvqem0","pricing_plan_id":"cebpf4jnsgd1na2vs0mg"},{"bike_id":"5bf66b52-ec20-4814-a3e4-515739a65233","system_id":"levelo_inurba_marseille","lat":43.32056,"lon":5.41531,"is_reserved":false,"is_disabled":false,"rental_uris":{"android":"levelo://app?vid=5bf66b52-ec20-4814-a3e4-515739a65233","ios":"levelo://app?vid=5bf66b52-ec20-4814-a3e4-515739a65233"},"vehicle_type_id":"4","last_reported":1736359928,"current_range_meters":18800,"station_id":"ce4bhq92rcd13ifvqhkg","pricing_plan_id":"cebpf4jnsgd1na2vs0mg"},{"bike_id":"c00adc61-52cb-4003-80be-896057156f78","system_id":"levelo_inurba_marseille","lat":43.25584,"lon":5.38231,"is_reserved":false,"is_disabled":false,"rental_uris":{"android":"levelo://app?vid=c00adc61-52cb-4003-80be-896057156f78","ios":"levelo://app?vid=c00adc61-52cb-4003-80be-896057156f78"},"vehicle_type_id":"4","last_reported":1736359928,"current_range_meters":34800,"station_id":"ce4bhih2rcd13ifvqfs0","pricing_plan_id":"cebpf4jnsgd1na2vs0mg"},{"bike_id":"cf6997b2-fb9d-4f6d-b710-75c059f81715","system_id":"levelo_inurba_marseille","lat":43.28567,"lon":5.39498,"is_reserved":false,"is_disabled":true,"rental_uris":{"android":"levelo://app?vid=cf6997b2-fb9d-4f6d-b710-75c059f81715","ios":"levelo://app?vid=cf6997b2-fb9d-4f6d-b710-75c059f81715"},"vehicle_type_id":"4","last_reported":1736359928,"current_range_meters":1600,"station_id":"ce4bh292rcd13ifvqdg0","pricing_plan_id":"cebpf4jnsgd1na2vs0mg"},{"bike_id":"15045433-b253-4123-b9cb-f1e8a36d65c7","system_id":"levelo_inurba_marseille","lat":43.28846,"lon":5.39317,"is_reserved":false,"is_disabled":false,"rental_uris":{"android":"levelo://app?vid=15045433-b253-4123-b9cb-f1e8a36d65c7","ios":"levelo://app?vid=15045433-b253-4123-b9cb-f1e8a36d65c7"},"vehicle_type_id":"4","last_reported":1736359928,"current_range_meters":30000,"station_id":"ce4bh2p2rcd13ifvqdi0","pricing_plan_id":"cebpf4jnsgd1na2vs0mg"},{"bike_id":"e39f6b1f-389e-44fc-b750-d548ad83bcc0","system_id":"levelo_inurba_marseille","lat":43.26819,"lon":5.4026,"is_reserved":false,"is_disabled":false,"rental_uris":{"android":"levelo://app?vid=e39f6b1f-389e-44fc-b750-d548ad83bcc0","ios":"levelo://app?vid=e39f6b1f-389e-44fc-b750-d548ad83bcc0"},"vehicle_type_id":"4","last_reported":1736359928,"current_range_meters":36000,"station_id":"ce501612rcd8frsf0b60","pricing_plan_id":"cebpf4jnsgd1na2vs0mg"},{"bike_id":"80716bfe-ce4c-458a-a817-cd7a4ffc01a2","system_id":"levelo_inurba_marseille","lat":43.31718,"lon":5.37776,"is_reserved":false,"is_disabled":false,"rental_uris":{"android":"levelo://app?vid=80716bfe-ce4c-458a-a817-cd7a4ffc01a2","ios":"levelo://app?vid=80716bfe-ce4c-458a-a817-cd7a4ffc01a2"},"vehicle_type_id":"4","last_reported":1736359928,"current_range_meters":38800,"station_id":"ce4bgth2rcd13ifvqch0","pricing_plan_id":"cebpf4jnsgd1na2vs0mg"},{"bike_id":"f6a799ec-f653-4e00-9baf-61c8c0ea4636","system_id":"levelo_inurba_marseille","lat":43.24803,"lon":5.37445,"is_reserved":false,"is_disabled":false,"rental_uris":{"android":"levelo://app?vid=f6a799ec-f653-4e00-9baf-61c8c0ea4636","ios":"levelo://app?vid=f6a799ec-f653-4e00-9baf-61c8c0ea4636"},"vehicle_type_id":"4","last_reported":1736359928,"current_range_meters":15200,"station_id":"ce4bhgh2rcd13ifvqfb0","pricing_plan_id":"cebpf4jnsgd1na2vs0mg"},{"bike_id":"89566023-26cd-4768-97ab-73ad8f57e8a0","system_id":"levelo_inurba_marseille","lat":43.31361,"lon":5.38497,"is_reserved":false,"is_disabled":false,"rental_uris":{"android":"levelo://app?vid=89566023-26cd-4768-97ab-73ad8f57e8a0","ios":"levelo://app?vid=89566023-26cd-4768-97ab-73ad8f57e8a0"},"vehicle_type_id":"4","last_reported":1736359928,"current_range_meters":22000,"station_id":"ce4bgt92rcd13ifvqcf0","pricing_plan_id":"cebpf4jnsgd1na2vs0mg"},{"bike_id":"a25a042a-81db-4cbc-a5db-e2bb8f63e60b","system_id":"levelo_inurba_marseille","lat":43.26556,"lon":5.39009,"is_reserved":false,"is_disabled":false,"rental_uris":{"android":"levelo://app?vid=a25a042a-81db-4cbc-a5db-e2bb8f63e60b","ios":"levelo://app?vid=a25a042a-81db-4cbc-a5db-e2bb8f63e60b"},"vehicle_type_id":"4","last_reported":1736359928,"current_range_meters":4000,"station_id":"ce4bhe12rcd13ifvqf30","pricing_plan_id":"cebpf4jnsgd1na2vs0mg"},{"bike_id":"39faa2fe-395f-49c9-9056-e37436793a85","system_id":"levelo_inurba_marseille","lat":43.303233,"lon":5.404489,"is_reserved":false,"is_disabled":true,"rental_uris":{"android":"levelo://app?vid=39faa2fe-395f-49c9-9056-e37436793a85","ios":"levelo://app?vid=39faa2fe-395f-49c9-9056-e37436793a85"},"vehicle_type_id":"4","last_reported":1736359928,"current_range_meters":31200,"station_id":"ce4bh012rcd13ifvqd10","pricing_plan_id":"cebpf4jnsgd1na2vs0mg"},{"bike_id":"07bd97cc-853a-4bfe-98ad-024815214ed8","system_id":"levelo_inurba_marseille","lat":43.28446,"lon":5.39207,"is_reserved":false,"is_disabled":false,"rental_uris":{"android":"levelo://app?vid=07bd97cc-853a-4bfe-98ad-024815214ed8","ios":"levelo://app?vid=07bd97cc-853a-4bfe-98ad-024815214ed8"},"vehicle_type_id":"4","last_reported":1736359928,"current_range_meters":25600,"station_id":"ce4bhoh2rcd13ifvqh5g","pricing_plan_id":"cebpf4jnsgd1na2vs0mg"},{"bike_id":"21fdd4e2-bbc1-43cb-86c0-97b28f9abeac","system_id":"levelo_inurba_marseille","lat":43.27822,"lon":5.4071,"is_reserved":false,"is_disabled":false,"rental_uris":{"android":"levelo://app?vid=21fdd4e2-bbc1-43cb-86c0-97b28f9abeac","ios":"levelo://app?vid=21fdd4e2-bbc1-43cb-86c0-97b28f9abeac"},"vehicle_type_id":"4","last_reported":1736359928,"current_range_meters":7200,"station_id":"ce4bhnh2rcd13ifvqgtg","pricing_plan_id":"cebpf4jnsgd1na2vs0mg"},{"bike_id":"23293f8e-88e6-49e7-bca5-3fb20b796513","system_id":"levelo_inurba_marseille","lat":43.28457,"lon":5.35888,"is_reserved":false,"is_disabled":false,"rental_uris":{"android":"levelo://app?vid=23293f8e-88e6-49e7-bca5-3fb20b796513","ios":"levelo://app?vid=23293f8e-88e6-49e7-bca5-3fb20b796513"},"vehicle_type_id":"4","last_reported":1736359928,"current_range_meters":34000,"station_id":"ce4bhah2rcd13ifvqei0","pricing_plan_id":"cebpf4jnsgd1na2vs0mg"},{"bike_id":"4057a6a5-62d0-4a8f-bb97-2a269af90373","system_id":"levelo_inurba_marseille","lat":43.25672,"lon":5.41144,"is_reserved":false,"is_disabled":true,"rental_uris":{"android":"levelo://app?vid=4057a6a5-62d0-4a8f-bb97-2a269af90373","ios":"levelo://app?vid=4057a6a5-62d0-4a8f-bb97-2a269af90373"},"vehicle_type_id":"4","last_reported":1736359928,"current_range_meters":0,"station_id":"","pricing_plan_id":"cebpf4jnsgd1na2vs0mg"},{"bike_id":"cf22e2d2-6404-4eeb-a3fd-f1f913ab2fca","system_id":"levelo_inurba_marseille","lat":43.26495,"lon":5.39537,"is_reserved":false,"is_disabled":true,"rental_uris":{"android":"levelo://app?vid=cf22e2d2-6404-4eeb-a3fd-f1f913ab2fca","ios":"levelo://app?vid=cf22e2d2-6404-4eeb-a3fd-f1f913ab2fca"},"vehicle_type_id":"4","last_reported":1736359928,"current_range_meters":1200,"station_id":"ce4bhi12rcd13ifvqfq0","pricing_plan_id":"cebpf4jnsgd1na2vs0mg"},{"bike_id":"4b1bcc07-82a7-477b-8def-610d4f653cb3","system_id":"levelo_inurba_marseille","lat":43.29027,"lon":5.38133,"is_reserved":false,"is_disabled":true,"rental_uris":{"android":"levelo://app?vid=4b1bcc07-82a7-477b-8def-610d4f653cb3","ios":"levelo://app?vid=4b1bcc07-82a7-477b-8def-610d4f653cb3"},"vehicle_type_id":"4","last_reported":1736359928,"current_range_meters":26800,"station_id":"ce4bh4p2rcd13ifvqe1g","pricing_plan_id":"cebpf4jnsgd1na2vs0mg"},{"bike_id":"b69e39e4-e108-465d-bddd-4ffc1dea8f10","system_id":"levelo_inurba_marseille","lat":43.25729,"lon":5.41105,"is_reserved":false,"is_disabled":false,"rental_uris":{"android":"levelo://app?vid=b69e39e4-e108-465d-bddd-4ffc1dea8f10","ios":"levelo://app?vid=b69e39e4-e108-465d-bddd-4ffc1dea8f10"},"vehicle_type_id":"4","last_reported":1736359928,"current_range_meters":38400,"station_id":"ce4bhkp2rcd13ifvqgd0","pricing_plan_id":"cebpf4jnsgd1na2vs0mg"},{"bike_id":"f2536309-8d2b-4ccd-86e1-4c168080c77c","system_id":"levelo_inurba_marseille","lat":43.23187,"lon":5.35542,"is_reserved":false,"is_disabled":false,"rental_uris":{"android":"levelo://app?vid=f2536309-8d2b-4ccd-86e1-4c168080c77c","ios":"levelo://app?vid=f2536309-8d2b-4ccd-86e1-4c168080c77c"},"vehicle_type_id":"4","last_reported":1736359928,"current_range_meters":9600,"station_id":"ce4bhu92rcd13ifvqi70","pricing_plan_id":"cebpf4jnsgd1na2vs0mg"},{"bike_id":"8bcf41b6-deb6-4885-bd8e-ef97fb3f3142","system_id":"levelo_inurba_marseille","lat":43.28581,"lon":5.39483,"is_reserved":false,"is_disabled":false,"rental_uris":{"android":"levelo://app?vid=8bcf41b6-deb6-4885-bd8e-ef97fb3f3142","ios":"levelo://app?vid=8bcf41b6-deb6-4885-bd8e-ef97fb3f3142"},"vehicle_type_id":"4","last_reported":1736359928,"current_range_meters":35200,"station_id":"ce4bh292rcd13ifvqdg0","pricing_plan_id":"cebpf4jnsgd1na2vs0mg"},{"bike_id":"4086c0ad-e3b4-4e78-bca2-f629224f45ae","system_id":"levelo_inurba_marseille","lat":43.30899,"lon":5.36845,"is_reserved":false,"is_disabled":true,"rental_uris":{"android":"levelo://app?vid=4086c0ad-e3b4-4e78-bca2-f629224f45ae","ios":"levelo://app?vid=4086c0ad-e3b4-4e78-bca2-f629224f45ae"},"vehicle_type_id":"4","last_reported":1736359928,"current_range_meters":800,"station_id":"ce4bgn92rcd13ifvqbvg","pricing_plan_id":"cebpf4jnsgd1na2vs0mg"},{"bike_id":"055d6aae-fa20-4c91-8a4d-f41b2d993088","system_id":"levelo_inurba_marseille","lat":43.29707,"lon":5.36589,"is_reserved":false,"is_disabled":false,"rental_uris":{"android":"levelo://app?vid=055d6aae-fa20-4c91-8a4d-f41b2d993088","ios":"levelo://app?vid=055d6aae-fa20-4c91-8a4d-f41b2d993088"},"vehicle_type_id":"4","last_reported":1736359928,"current_range_meters":24800,"station_id":"ce4bgn12rcd13ifvqbt0","pricing_plan_id":"cebpf4jnsgd1na2vs0mg"},{"bike_id":"b8b738cb-ef0c-4357-b3a7-9b64021e64ef","system_id":"levelo_inurba_marseille","lat":43.33022,"lon":5.39036,"is_reserved":false,"is_disabled":false,"rental_uris":{"android":"levelo://app?vid=b8b738cb-ef0c-4357-b3a7-9b64021e64ef","ios":"levelo://app?vid=b8b738cb-ef0c-4357-b3a7-9b64021e64ef"},"vehicle_type_id":"4","last_reported":1736359928,"current_range_meters":37600,"station_id":"ce4bhr92rcd13ifvqhrg","pricing_plan_id":"cebpf4jnsgd1na2vs0mg"},{"bike_id":"33830d3c-6fd3-48ef-991d-3b072b365c0b","system_id":"levelo_inurba_marseille","lat":43.31177,"lon":5.38695,"is_reserved":false,"is_disabled":false,"rental_uris":{"android":"levelo://app?vid=33830d3c-6fd3-48ef-991d-3b072b365c0b","ios":"levelo://app?vid=33830d3c-6fd3-48ef-991d-3b072b365c0b"},"vehicle_type_id":"4","last_reported":1736359928,"current_range_meters":38000,"station_id":"ce4bgv12rcd13ifvqcp0","pricing_plan_id":"cebpf4jnsgd1na2vs0mg"},{"bike_id":"bb636211-c010-46b6-b358-bf7db6dac6a4","system_id":"levelo_inurba_marseille","lat":43.29006,"lon":5.38141,"is_reserved":false,"is_disabled":true,"rental_uris":{"android":"levelo://app?vid=bb636211-c010-46b6-b358-bf7db6dac6a4","ios":"levelo://app?vid=bb636211-c010-46b6-b358-bf7db6dac6a4"},"vehicle_type_id":"4","last_reported":1736359928,"current_range_meters":38800,"station_id":"ce4bh4p2rcd13ifvqe1g","pricing_plan_id":"cebpf4jnsgd1na2vs0mg"},{"bike_id":"c1c85e08-d46b-4acc-8c0b-4216783e7468","system_id":"levelo_inurba_marseille","lat":43.26496,"lon":5.39542,"is_reserved":false,"is_disabled":false,"rental_uris":{"android":"levelo://app?vid=c1c85e08-d46b-4acc-8c0b-4216783e7468","ios":"levelo://app?vid=c1c85e08-d46b-4acc-8c0b-4216783e7468"},"vehicle_type_id":"4","last_reported":1736359928,"current_range_meters":24400,"station_id":"ce4bhi12rcd13ifvqfq0","pricing_plan_id":"cebpf4jnsgd1na2vs0mg"},{"bike_id":"f76caccf-de8b-4760-a4b0-3d1087b2d15c","system_id":"levelo_inurba_marseille","lat":43.27843,"lon":5.39192,"is_reserved":false,"is_disabled":false,"rental_uris":{"android":"levelo://app?vid=f76caccf-de8b-4760-a4b0-3d1087b2d15c","ios":"levelo://app?vid=f76caccf-de8b-4760-a4b0-3d1087b2d15c"},"vehicle_type_id":"4","last_reported":1736359928,"current_range_meters":38800,"station_id":"ce4bhjp2rcd13ifvqga0","pricing_plan_id":"cebpf4jnsgd1na2vs0mg"},{"bike_id":"c96b391a-db92-450f-a788-c47766c7d89c","system_id":"levelo_inurba_marseille","lat":43.23966,"lon":5.36629,"is_reserved":false,"is_disabled":false,"rental_uris":{"android":"levelo://app?vid=c96b391a-db92-450f-a788-c47766c7d89c","ios":"levelo://app?vid=c96b391a-db92-450f-a788-c47766c7d89c"},"vehicle_type_id":"4","last_reported":1736359928,"current_range_meters":25600,"station_id":"ce4bhi12rcd13ifvqfp0","pricing_plan_id":"cebpf4jnsgd1na2vs0mg"},{"bike_id":"a023b9e2-2413-4b3d-a218-b9727e7097b5","system_id":"levelo_inurba_marseille","lat":43.292991,"lon":5.374633,"is_reserved":false,"is_disabled":true,"rental_uris":{"android":"levelo://app?vid=a023b9e2-2413-4b3d-a218-b9727e7097b5","ios":"levelo://app?vid=a023b9e2-2413-4b3d-a218-b9727e7097b5"},"vehicle_type_id":"4","last_reported":1736359928,"current_range_meters":33200,"station_id":"ce4bgi12rcd13ifvqb70","pricing_plan_id":"cebpf4jnsgd1na2vs0mg"},{"bike_id":"b9d19b8c-88a0-4b24-a901-7eae74ced255","system_id":"levelo_inurba_marseille","lat":43.30434,"lon":5.38888,"is_reserved":false,"is_disabled":true,"rental_uris":{"android":"levelo://app?vid=b9d19b8c-88a0-4b24-a901-7eae74ced255","ios":"levelo://app?vid=b9d19b8c-88a0-4b24-a901-7eae74ced255"},"vehicle_type_id":"4","last_reported":1736359928,"current_range_meters":1200,"station_id":"ce4bgk12rcd13ifvqbi0","pricing_plan_id":"cebpf4jnsgd1na2vs0mg"},{"bike_id":"412c961b-9eee-480e-9da4-be4fd2e54380","system_id":"levelo_inurba_marseille","lat":43.29517,"lon":5.42238,"is_reserved":false,"is_disabled":false,"rental_uris":{"android":"levelo://app?vid=412c961b-9eee-480e-9da4-be4fd2e54380","ios":"levelo://app?vid=412c961b-9eee-480e-9da4-be4fd2e54380"},"vehicle_type_id":"4","last_reported":1736359928,"current_range_meters":38800,"station_id":"","pricing_plan_id":"cebpf4jnsgd1na2vs0mg"},{"bike_id":"14c3f856-f526-4bc5-9d1e-e5cc5e75b7b9","system_id":"levelo_inurba_marseille","lat":43.28153,"lon":5.42638,"is_reserved":false,"is_disabled":false,"rental_uris":{"android":"levelo://app?vid=14c3f856-f526-4bc5-9d1e-e5cc5e75b7b9","ios":"levelo://app?vid=14c3f856-f526-4bc5-9d1e-e5cc5e75b7b9"},"vehicle_type_id":"4","last_reported":1736359928,"current_range_meters":19600,"station_id":"ce4bhnh2rcd13ifvqgug","pricing_plan_id":"cebpf4jnsgd1na2vs0mg"},{"bike_id":"0738368e-bb66-45af-a35b-10f02dbbeef6","system_id":"levelo_inurba_marseille","lat":43.27825,"lon":5.40692,"is_reserved":false,"is_disabled":false,"rental_uris":{"android":"levelo://app?vid=0738368e-bb66-45af-a35b-10f02dbbeef6","ios":"levelo://app?vid=0738368e-bb66-45af-a35b-10f02dbbeef6"},"vehicle_type_id":"4","last_reported":1736359928,"current_range_meters":29600,"station_id":"ce4bhnh2rcd13ifvqgtg","pricing_plan_id":"cebpf4jnsgd1na2vs0mg"},{"bike_id":"4795cc5a-7058-456b-bbbb-cdaf0bc9586c","system_id":"levelo_inurba_marseille","lat":43.29983,"lon":5.38499,"is_reserved":false,"is_disabled":true,"rental_uris":{"android":"levelo://app?vid=4795cc5a-7058-456b-bbbb-cdaf0bc9586c","ios":"levelo://app?vid=4795cc5a-7058-456b-bbbb-cdaf0bc9586c"},"vehicle_type_id":"4","last_reported":1736359928,"current_range_meters":38800,"station_id":"ce4bgj92rcd13ifvqbd0","pricing_plan_id":"cebpf4jnsgd1na2vs0mg"},{"bike_id":"6d8c7c79-c50e-4e3c-9440-2cea6e296d1d","system_id":"levelo_inurba_marseille","lat":43.31403,"lon":5.38502,"is_reserved":false,"is_disabled":false,"rental_uris":{"android":"levelo://app?vid=6d8c7c79-c50e-4e3c-9440-2cea6e296d1d","ios":"levelo://app?vid=6d8c7c79-c50e-4e3c-9440-2cea6e296d1d"},"vehicle_type_id":"4","last_reported":1736359928,"current_range_meters":9200,"station_id":"","pricing_plan_id":"cebpf4jnsgd1na2vs0mg"},{"bike_id":"dc8d7f0f-af7e-4a05-91b0-02689ba2347a","system_id":"levelo_inurba_marseille","lat":43.24668,"lon":5.38162,"is_reserved":false,"is_disabled":false,"rental_uris":{"android":"levelo://app?vid=dc8d7f0f-af7e-4a05-91b0-02689ba2347a","ios":"levelo://app?vid=dc8d7f0f-af7e-4a05-91b0-02689ba2347a"},"vehicle_type_id":"4","last_reported":1736359928,"current_range_meters":24000,"station_id":"ce4bhih2rcd13ifvqfr0","pricing_plan_id":"cebpf4jnsgd1na2vs0mg"},{"bike_id":"2825a119-5b5a-4630-b83a-5a86bf58ccad","system_id":"levelo_inurba_marseille","lat":43.312848,"lon":5.373811,"is_reserved":false,"is_disabled":false,"rental_uris":{"android":"levelo://app?vid=2825a119-5b5a-4630-b83a-5a86bf58ccad","ios":"levelo://app?vid=2825a119-5b5a-4630-b83a-5a86bf58ccad"},"vehicle_type_id":"4","last_reported":1736359928,"current_range_meters":8800,"station_id":"","pricing_plan_id":"cebpf4jnsgd1na2vs0mg"},{"bike_id":"b90023b0-7488-401d-b7e9-7d42852f2c28","system_id":"levelo_inurba_marseille","lat":43.26511,"lon":5.39565,"is_reserved":false,"is_disabled":false,"rental_uris":{"android":"levelo://app?vid=b90023b0-7488-401d-b7e9-7d42852f2c28","ios":"levelo://app?vid=b90023b0-7488-401d-b7e9-7d42852f2c28"},"vehicle_type_id":"4","last_reported":1736359928,"current_range_meters":22000,"station_id":"ce4bhi12rcd13ifvqfq0","pricing_plan_id":"cebpf4jnsgd1na2vs0mg"},{"bike_id":"84e666da-67af-4688-95c7-a611aeedd4ee","system_id":"levelo_inurba_marseille","lat":43.31667,"lon":5.40697,"is_reserved":false,"is_disabled":false,"rental_uris":{"android":"levelo://app?vid=84e666da-67af-4688-95c7-a611aeedd4ee","ios":"levelo://app?vid=84e666da-67af-4688-95c7-a611aeedd4ee"},"vehicle_type_id":"4","last_reported":1736359928,"current_range_meters":32400,"station_id":"","pricing_plan_id":"cebpf4jnsgd1na2vs0mg"},{"bike_id":"30f32234-240e-4050-97b5-dbadfcd40374","system_id":"levelo_inurba_marseille","lat":43.29261,"lon":5.38435,"is_reserved":false,"is_disabled":false,"rental_uris":{"android":"levelo://app?vid=30f32234-240e-4050-97b5-dbadfcd40374","ios":"levelo://app?vid=30f32234-240e-4050-97b5-dbadfcd40374"},"vehicle_type_id":"4","last_reported":1736359928,"current_range_meters":33600,"station_id":"ce4bh692rcd13ifvqea0","pricing_plan_id":"cebpf4jnsgd1na2vs0mg"},{"bike_id":"5363319f-ba64-4a39-a872-a718cf1e01a0","system_id":"levelo_inurba_marseille","lat":43.24695,"lon":5.3813,"is_reserved":false,"is_disabled":false,"rental_uris":{"android":"levelo://app?vid=5363319f-ba64-4a39-a872-a718cf1e01a0","ios":"levelo://app?vid=5363319f-ba64-4a39-a872-a718cf1e01a0"},"vehicle_type_id":"4","last_reported":1736359928,"current_range_meters":19200,"station_id":"ce4bhih2rcd13ifvqfr0","pricing_plan_id":"cebpf4jnsgd1na2vs0mg"},{"bike_id":"76d6b641-82c9-46ab-b957-23f391121197","system_id":"levelo_inurba_marseille","lat":43.25866,"lon":5.39896,"is_reserved":false,"is_disabled":false,"rental_uris":{"android":"levelo://app?vid=76d6b641-82c9-46ab-b957-23f391121197","ios":"levelo://app?vid=76d6b641-82c9-46ab-b957-23f391121197"},"vehicle_type_id":"4","last_reported":1736359928,"current_range_meters":25200,"station_id":"ce4bhl92rcd13ifvqghg","pricing_plan_id":"cebpf4jnsgd1na2vs0mg"},{"bike_id":"7a0a8a69-615c-43f3-a001-073b74f4a57b","system_id":"levelo_inurba_marseille","lat":43.25586,"lon":5.38224,"is_reserved":false,"is_disabled":false,"rental_uris":{"android":"levelo://app?vid=7a0a8a69-615c-43f3-a001-073b74f4a57b","ios":"levelo://app?vid=7a0a8a69-615c-43f3-a001-073b74f4a57b"},"vehicle_type_id":"4","last_reported":1736359928,"current_range_meters":34000,"station_id":"ce4bhih2rcd13ifvqfs0","pricing_plan_id":"cebpf4jnsgd1na2vs0mg"},{"bike_id":"9fc299a4-7959-49e3-85f6-cec59a7d7af9","system_id":"levelo_inurba_marseille","lat":43.26936,"lon":5.38918,"is_reserved":false,"is_disabled":false,"rental_uris":{"android":"levelo://app?vid=9fc299a4-7959-49e3-85f6-cec59a7d7af9","ios":"levelo://app?vid=9fc299a4-7959-49e3-85f6-cec59a7d7af9"},"vehicle_type_id":"4","last_reported":1736359928,"current_range_meters":12000,"station_id":"ce4bhhh2rcd13ifvqfl0","pricing_plan_id":"cebpf4jnsgd1na2vs0mg"},{"bike_id":"d03baa4e-a1ff-4dbb-aa3a-8f7610789178","system_id":"levelo_inurba_marseille","lat":43.33723,"lon":5.39187,"is_reserved":false,"is_disabled":false,"rental_uris":{"android":"levelo://app?vid=d03baa4e-a1ff-4dbb-aa3a-8f7610789178","ios":"levelo://app?vid=d03baa4e-a1ff-4dbb-aa3a-8f7610789178"},"vehicle_type_id":"4","last_reported":1736359928,"current_range_meters":38800,"station_id":"ce4bhr92rcd13ifvqhsg","pricing_plan_id":"cebpf4jnsgd1na2vs0mg"},{"bike_id":"00e6d312-19a5-492d-8d87-c42fce3b3d98","system_id":"levelo_inurba_marseille","lat":43.29096,"lon":5.38127,"is_reserved":false,"is_disabled":false,"rental_uris":{"android":"levelo://app?vid=00e6d312-19a5-492d-8d87-c42fce3b3d98","ios":"levelo://app?vid=00e6d312-19a5-492d-8d87-c42fce3b3d98"},"vehicle_type_id":"4","last_reported":1736359928,"current_range_meters":32400,"station_id":"ce4bh512rcd13ifvqe2g","pricing_plan_id":"cebpf4jnsgd1na2vs0mg"},{"bike_id":"0a3d01c7-b1b6-4282-806b-4f33aa594a92","system_id":"levelo_inurba_marseille","lat":43.24388,"lon":5.37058,"is_reserved":false,"is_disabled":false,"rental_uris":{"android":"levelo://app?vid=0a3d01c7-b1b6-4282-806b-4f33aa594a92","ios":"levelo://app?vid=0a3d01c7-b1b6-4282-806b-4f33aa594a92"},"vehicle_type_id":"4","last_reported":1736359928,"current_range_meters":37600,"station_id":"ce4bhhh2rcd13ifvqfk0","pricing_plan_id":"cebpf4jnsgd1na2vs0mg"},{"bike_id":"c46908a5-8296-41ca-bb79-9a70f768795f","system_id":"levelo_inurba_marseille","lat":43.25588,"lon":5.38235,"is_reserved":false,"is_disabled":true,"rental_uris":{"android":"levelo://app?vid=c46908a5-8296-41ca-bb79-9a70f768795f","ios":"levelo://app?vid=c46908a5-8296-41ca-bb79-9a70f768795f"},"vehicle_type_id":"4","last_reported":1736359928,"current_range_meters":0,"station_id":"ce4bhih2rcd13ifvqfs0","pricing_plan_id":"cebpf4jnsgd1na2vs0mg"},{"bike_id":"6634f8bf-9d52-4118-86a1-d5dfb9f73ba8","system_id":"levelo_inurba_marseille","lat":43.28443,"lon":5.39189,"is_reserved":false,"is_disabled":false,"rental_uris":{"android":"levelo://app?vid=6634f8bf-9d52-4118-86a1-d5dfb9f73ba8","ios":"levelo://app?vid=6634f8bf-9d52-4118-86a1-d5dfb9f73ba8"},"vehicle_type_id":"4","last_reported":1736359928,"current_range_meters":4400,"station_id":"ce4bhoh2rcd13ifvqh5g","pricing_plan_id":"cebpf4jnsgd1na2vs0mg"},{"bike_id":"58a1ab09-3af8-49c4-988b-7342a3c81f56","system_id":"levelo_inurba_marseille","lat":43.25573,"lon":5.38249,"is_reserved":false,"is_disabled":false,"rental_uris":{"android":"levelo://app?vid=58a1ab09-3af8-49c4-988b-7342a3c81f56","ios":"levelo://app?vid=58a1ab09-3af8-49c4-988b-7342a3c81f56"},"vehicle_type_id":"4","last_reported":1736359928,"current_range_meters":6800,"station_id":"ce4bhih2rcd13ifvqfs0","pricing_plan_id":"cebpf4jnsgd1na2vs0mg"},{"bike_id":"fe57a9ab-ce8e-451d-a808-42c450b62cb1","system_id":"levelo_inurba_marseille","lat":43.28864,"lon":5.35858,"is_reserved":false,"is_disabled":false,"rental_uris":{"android":"levelo://app?vid=fe57a9ab-ce8e-451d-a808-42c450b62cb1","ios":"levelo://app?vid=fe57a9ab-ce8e-451d-a808-42c450b62cb1"},"vehicle_type_id":"4","last_reported":1736359928,"current_range_meters":10800,"station_id":"ce4bhb12rcd13ifvqem0","pricing_plan_id":"cebpf4jnsgd1na2vs0mg"},{"bike_id":"0fad4d20-ee89-422e-86cb-6cf04bca932f","system_id":"levelo_inurba_marseille","lat":43.2955,"lon":5.42294,"is_reserved":false,"is_disabled":false,"rental_uris":{"android":"levelo://app?vid=0fad4d20-ee89-422e-86cb-6cf04bca932f","ios":"levelo://app?vid=0fad4d20-ee89-422e-86cb-6cf04bca932f"},"vehicle_type_id":"4","last_reported":1736359928,"current_range_meters":7200,"station_id":"ce4bhph2rcd13ifvqhdg","pricing_plan_id":"cebpf4jnsgd1na2vs0mg"},{"bike_id":"c8620edc-4b1a-4a54-992f-df9b92a06d3c","system_id":"levelo_inurba_marseille","lat":43.29055,"lon":5.35899,"is_reserved":false,"is_disabled":false,"rental_uris":{"android":"levelo://app?vid=c8620edc-4b1a-4a54-992f-df9b92a06d3c","ios":"levelo://app?vid=c8620edc-4b1a-4a54-992f-df9b92a06d3c"},"vehicle_type_id":"4","last_reported":1736359928,"current_range_meters":32000,"station_id":"ce4bha92rcd13ifvqeg0","pricing_plan_id":"cebpf4jnsgd1na2vs0mg"},{"bike_id":"116bb4c1-3a22-4d49-b9c7-c27e8abe447c","system_id":"levelo_inurba_marseille","lat":43.31318,"lon":5.39677,"is_reserved":false,"is_disabled":false,"rental_uris":{"android":"levelo://app?vid=116bb4c1-3a22-4d49-b9c7-c27e8abe447c","ios":"levelo://app?vid=116bb4c1-3a22-4d49-b9c7-c27e8abe447c"},"vehicle_type_id":"4","last_reported":1736359928,"current_range_meters":37600,"station_id":"ce4bgvp2rcd13ifvqcu0","pricing_plan_id":"cebpf4jnsgd1na2vs0mg"},{"bike_id":"f3c0e1bd-6ad0-4c87-ab58-130315c69cf4","system_id":"levelo_inurba_marseille","lat":43.30086,"lon":5.39086,"is_reserved":false,"is_disabled":true,"rental_uris":{"android":"levelo://app?vid=f3c0e1bd-6ad0-4c87-ab58-130315c69cf4","ios":"levelo://app?vid=f3c0e1bd-6ad0-4c87-ab58-130315c69cf4"},"vehicle_type_id":"4","last_reported":1736359928,"current_range_meters":0,"station_id":"ce4bh192rcd13ifvqdb0","pricing_plan_id":"cebpf4jnsgd1na2vs0mg"},{"bike_id":"b753435e-f6bb-4c1f-9e42-1ce67c2a1696","system_id":"levelo_inurba_marseille","lat":43.27492,"lon":5.42438,"is_reserved":false,"is_disabled":true,"rental_uris":{"android":"levelo://app?vid=b753435e-f6bb-4c1f-9e42-1ce67c2a1696","ios":"levelo://app?vid=b753435e-f6bb-4c1f-9e42-1ce67c2a1696"},"vehicle_type_id":"4","last_reported":1736359928,"current_range_meters":0,"station_id":"ce4bhn92rcd13ifvqgrg","pricing_plan_id":"cebpf4jnsgd1na2vs0mg"},{"bike_id":"d52d6769-de0f-437b-a42f-1ec02faf8c7c","system_id":"levelo_inurba_marseille","lat":43.26783,"lon":5.3941,"is_reserved":false,"is_disabled":false,"rental_uris":{"android":"levelo://app?vid=d52d6769-de0f-437b-a42f-1ec02faf8c7c","ios":"levelo://app?vid=d52d6769-de0f-437b-a42f-1ec02faf8c7c"},"vehicle_type_id":"4","last_reported":1736359928,"current_range_meters":5600,"station_id":"ce4bhh12rcd13ifvqfg0","pricing_plan_id":"cebpf4jnsgd1na2vs0mg"},{"bike_id":"705157bd-db76-408e-8a69-66f12909cb65","system_id":"levelo_inurba_marseille","lat":43.26941,"lon":5.38891,"is_reserved":false,"is_disabled":false,"rental_uris":{"android":"levelo://app?vid=705157bd-db76-408e-8a69-66f12909cb65","ios":"levelo://app?vid=705157bd-db76-408e-8a69-66f12909cb65"},"vehicle_type_id":"4","last_reported":1736359928,"current_range_meters":39200,"station_id":"ce4bhhh2rcd13ifvqfl0","pricing_plan_id":"cebpf4jnsgd1na2vs0mg"},{"bike_id":"4af6de0f-587d-4093-ae94-183cc98b6410","system_id":"levelo_inurba_marseille","lat":43.30287,"lon":5.39191,"is_reserved":false,"is_disabled":false,"rental_uris":{"android":"levelo://app?vid=4af6de0f-587d-4093-ae94-183cc98b6410","ios":"levelo://app?vid=4af6de0f-587d-4093-ae94-183cc98b6410"},"vehicle_type_id":"4","last_reported":1736359928,"current_range_meters":38400,"station_id":"ce4bgkh2rcd13ifvqbk0","pricing_plan_id":"cebpf4jnsgd1na2vs0mg"},{"bike_id":"aa825829-cc1f-4b24-b1ac-ec4c8aae4943","system_id":"levelo_inurba_marseille","lat":43.31484,"lon":5.37309,"is_reserved":false,"is_disabled":false,"rental_uris":{"android":"levelo://app?vid=aa825829-cc1f-4b24-b1ac-ec4c8aae4943","ios":"levelo://app?vid=aa825829-cc1f-4b24-b1ac-ec4c8aae4943"},"vehicle_type_id":"4","last_reported":1736359928,"current_range_meters":16400,"station_id":"ce4bgt12rcd13ifvqcd0","pricing_plan_id":"cebpf4jnsgd1na2vs0mg"},{"bike_id":"3a09d0e8-6752-41d2-b81c-0611b0c0c7e2","system_id":"levelo_inurba_marseille","lat":43.30263,"lon":5.40101,"is_reserved":false,"is_disabled":false,"rental_uris":{"android":"levelo://app?vid=3a09d0e8-6752-41d2-b81c-0611b0c0c7e2","ios":"levelo://app?vid=3a09d0e8-6752-41d2-b81c-0611b0c0c7e2"},"vehicle_type_id":"4","last_reported":1736359928,"current_range_meters":39200,"station_id":"ce4bgvh2rcd13ifvqcs0","pricing_plan_id":"cebpf4jnsgd1na2vs0mg"},{"bike_id":"61f80575-9f0e-4647-b8bb-2460d9473614","system_id":"levelo_inurba_marseille","lat":43.27552,"lon":5.38428,"is_reserved":false,"is_disabled":true,"rental_uris":{"android":"levelo://app?vid=61f80575-9f0e-4647-b8bb-2460d9473614","ios":"levelo://app?vid=61f80575-9f0e-4647-b8bb-2460d9473614"},"vehicle_type_id":"4","last_reported":1736359928,"current_range_meters":0,"station_id":"ce4bhh92rcd13ifvqfi0","pricing_plan_id":"cebpf4jnsgd1na2vs0mg"},{"bike_id":"c73c3ce9-5801-4959-a66f-246400a76e69","system_id":"levelo_inurba_marseille","lat":43.30587,"lon":5.39358,"is_reserved":false,"is_disabled":false,"rental_uris":{"android":"levelo://app?vid=c73c3ce9-5801-4959-a66f-246400a76e69","ios":"levelo://app?vid=c73c3ce9-5801-4959-a66f-246400a76e69"},"vehicle_type_id":"4","last_reported":1736359928,"current_range_meters":12800,"station_id":"ce4bh0p2rcd13ifvqd80","pricing_plan_id":"cebpf4jnsgd1na2vs0mg"},{"bike_id":"37d8e1ef-d932-49d7-b893-49542cf44d13","system_id":"levelo_inurba_marseille","lat":43.32345,"lon":5.40629,"is_reserved":false,"is_disabled":true,"rental_uris":{"android":"levelo://app?vid=37d8e1ef-d932-49d7-b893-49542cf44d13","ios":"levelo://app?vid=37d8e1ef-d932-49d7-b893-49542cf44d13"},"vehicle_type_id":"4","last_reported":1736359928,"current_range_meters":0,"station_id":"ce4bhq92rcd13ifvqhjg","pricing_plan_id":"cebpf4jnsgd1na2vs0mg"},{"bike_id":"32a4fb87-34f7-41cc-a1bf-df05e6828b58","system_id":"levelo_inurba_marseille","lat":43.31338,"lon":5.39685,"is_reserved":false,"is_disabled":false,"rental_uris":{"android":"levelo://app?vid=32a4fb87-34f7-41cc-a1bf-df05e6828b58","ios":"levelo://app?vid=32a4fb87-34f7-41cc-a1bf-df05e6828b58"},"vehicle_type_id":"4","last_reported":1736359928,"current_range_meters":38800,"station_id":"ce4bgvp2rcd13ifvqcu0","pricing_plan_id":"cebpf4jnsgd1na2vs0mg"},{"bike_id":"65935265-d898-48bf-b588-e82fc5132e65","system_id":"levelo_inurba_marseille","lat":43.29229,"lon":5.36066,"is_reserved":false,"is_disabled":false,"rental_uris":{"android":"levelo://app?vid=65935265-d898-48bf-b588-e82fc5132e65","ios":"levelo://app?vid=65935265-d898-48bf-b588-e82fc5132e65"},"vehicle_type_id":"4","last_reported":1736359928,"current_range_meters":2800,"station_id":"ce4bhbh2rcd13ifvqeqg","pricing_plan_id":"cebpf4jnsgd1na2vs0mg"},{"bike_id":"379c63f3-e1a6-4cee-9ed7-17cf1edaef0c","system_id":"levelo_inurba_marseille","lat":43.27839,"lon":5.39212,"is_reserved":false,"is_disabled":false,"rental_uris":{"android":"levelo://app?vid=379c63f3-e1a6-4cee-9ed7-17cf1edaef0c","ios":"levelo://app?vid=379c63f3-e1a6-4cee-9ed7-17cf1edaef0c"},"vehicle_type_id":"4","last_reported":1736359928,"current_range_meters":25600,"station_id":"ce4bhjp2rcd13ifvqga0","pricing_plan_id":"cebpf4jnsgd1na2vs0mg"},{"bike_id":"38dfc8fb-ea1c-45fb-9111-06f55dd590b6","system_id":"levelo_inurba_marseille","lat":43.29057,"lon":5.38593,"is_reserved":false,"is_disabled":false,"rental_uris":{"android":"levelo://app?vid=38dfc8fb-ea1c-45fb-9111-06f55dd590b6","ios":"levelo://app?vid=38dfc8fb-ea1c-45fb-9111-06f55dd590b6"},"vehicle_type_id":"4","last_reported":1736359928,"current_range_meters":18000,"station_id":"ce4bh4p2rcd13ifvqe0g","pricing_plan_id":"cebpf4jnsgd1na2vs0mg"},{"bike_id":"63c817a8-7fe4-4bba-9c1c-70e578257f97","system_id":"levelo_inurba_marseille","lat":43.23965,"lon":5.36629,"is_reserved":false,"is_disabled":false,"rental_uris":{"android":"levelo://app?vid=63c817a8-7fe4-4bba-9c1c-70e578257f97","ios":"levelo://app?vid=63c817a8-7fe4-4bba-9c1c-70e578257f97"},"vehicle_type_id":"4","last_reported":1736359928,"current_range_meters":38800,"station_id":"ce4bhi12rcd13ifvqfp0","pricing_plan_id":"cebpf4jnsgd1na2vs0mg"},{"bike_id":"9b2f55e0-edd8-4d6c-b73b-00ee1872c633","system_id":"levelo_inurba_marseille","lat":43.33028,"lon":5.39029,"is_reserved":false,"is_disabled":false,"rental_uris":{"android":"levelo://app?vid=9b2f55e0-edd8-4d6c-b73b-00ee1872c633","ios":"levelo://app?vid=9b2f55e0-edd8-4d6c-b73b-00ee1872c633"},"vehicle_type_id":"4","last_reported":1736359928,"current_range_meters":12400,"station_id":"ce4bhr92rcd13ifvqhrg","pricing_plan_id":"cebpf4jnsgd1na2vs0mg"},{"bike_id":"a8b374a8-ee95-49ad-8531-6fca502881ee","system_id":"levelo_inurba_marseille","lat":43.27838,"lon":5.39212,"is_reserved":false,"is_disabled":false,"rental_uris":{"android":"levelo://app?vid=a8b374a8-ee95-49ad-8531-6fca502881ee","ios":"levelo://app?vid=a8b374a8-ee95-49ad-8531-6fca502881ee"},"vehicle_type_id":"4","last_reported":1736359928,"current_range_meters":32000,"station_id":"ce4bhjp2rcd13ifvqga0","pricing_plan_id":"cebpf4jnsgd1na2vs0mg"},{"bike_id":"85e1d40d-b0ef-4393-853f-a8c9145eb3f2","system_id":"levelo_inurba_marseille","lat":43.24178,"lon":5.3972,"is_reserved":false,"is_disabled":false,"rental_uris":{"android":"levelo://app?vid=85e1d40d-b0ef-4393-853f-a8c9145eb3f2","ios":"levelo://app?vid=85e1d40d-b0ef-4393-853f-a8c9145eb3f2"},"vehicle_type_id":"4","last_reported":1736359928,"current_range_meters":10800,"station_id":"ce4bhn12rcd13ifvqgpg","pricing_plan_id":"cebpf4jnsgd1na2vs0mg"},{"bike_id":"f75329b6-4f46-442b-b549-8294e03ab288","system_id":"levelo_inurba_marseille","lat":43.26192,"lon":5.37461,"is_reserved":false,"is_disabled":false,"rental_uris":{"android":"levelo://app?vid=f75329b6-4f46-442b-b549-8294e03ab288","ios":"levelo://app?vid=f75329b6-4f46-442b-b549-8294e03ab288"},"vehicle_type_id":"4","last_reported":1736359928,"current_range_meters":33600,"station_id":"ce4bhgp2rcd13ifvqfc0","pricing_plan_id":"cebpf4jnsgd1na2vs0mg"},{"bike_id":"62f17cb9-2c66-4cff-81db-916d063de829","system_id":"levelo_inurba_marseille","lat":43.33023,"lon":5.39021,"is_reserved":false,"is_disabled":false,"rental_uris":{"android":"levelo://app?vid=62f17cb9-2c66-4cff-81db-916d063de829","ios":"levelo://app?vid=62f17cb9-2c66-4cff-81db-916d063de829"},"vehicle_type_id":"4","last_reported":1736359928,"current_range_meters":38400,"station_id":"ce4bhr92rcd13ifvqhrg","pricing_plan_id":"cebpf4jnsgd1na2vs0mg"},{"bike_id":"c2d59fef-c2f0-4d55-a0d5-bca61136fc03","system_id":"levelo_inurba_marseille","lat":43.29878,"lon":5.39725,"is_reserved":false,"is_disabled":false,"rental_uris":{"android":"levelo://app?vid=c2d59fef-c2f0-4d55-a0d5-bca61136fc03","ios":"levelo://app?vid=c2d59fef-c2f0-4d55-a0d5-bca61136fc03"},"vehicle_type_id":"4","last_reported":1736359928,"current_range_meters":36400,"station_id":"ce4bh0h2rcd13ifvqd50","pricing_plan_id":"cebpf4jnsgd1na2vs0mg"},{"bike_id":"f162e091-eaf8-40f8-b4ce-6d0b5a00bdb2","system_id":"levelo_inurba_marseille","lat":43.28035,"lon":5.36938,"is_reserved":false,"is_disabled":false,"rental_uris":{"android":"levelo://app?vid=f162e091-eaf8-40f8-b4ce-6d0b5a00bdb2","ios":"levelo://app?vid=f162e091-eaf8-40f8-b4ce-6d0b5a00bdb2"},"vehicle_type_id":"4","last_reported":1736359928,"current_range_meters":33600,"station_id":"ce4bha12rcd13ifvqef0","pricing_plan_id":"cebpf4jnsgd1na2vs0mg"},{"bike_id":"e11e8f93-513f-46bb-8751-382c363b5515","system_id":"levelo_inurba_marseille","lat":43.28076,"lon":5.39661,"is_reserved":false,"is_disabled":false,"rental_uris":{"android":"levelo://app?vid=e11e8f93-513f-46bb-8751-382c363b5515","ios":"levelo://app?vid=e11e8f93-513f-46bb-8751-382c363b5515"},"vehicle_type_id":"4","last_reported":1736359928,"current_range_meters":8400,"station_id":"ce4bho12rcd13ifvqh2g","pricing_plan_id":"cebpf4jnsgd1na2vs0mg"},{"bike_id":"c24332a9-0468-4914-8e3e-448cea1e0446","system_id":"levelo_inurba_marseille","lat":43.31072,"lon":5.38361,"is_reserved":false,"is_disabled":false,"rental_uris":{"android":"levelo://app?vid=c24332a9-0468-4914-8e3e-448cea1e0446","ios":"levelo://app?vid=c24332a9-0468-4914-8e3e-448cea1e0446"},"vehicle_type_id":"4","last_reported":1736359928,"current_range_meters":12000,"station_id":"ce4bgv92rcd13ifvqcr0","pricing_plan_id":"cebpf4jnsgd1na2vs0mg"},{"bike_id":"00e5c0ed-60b8-4fdd-b037-1a8d33ffa26f","system_id":"levelo_inurba_marseille","lat":43.289673,"lon":5.378376,"is_reserved":false,"is_disabled":false,"rental_uris":{"android":"levelo://app?vid=00e5c0ed-60b8-4fdd-b037-1a8d33ffa26f","ios":"levelo://app?vid=00e5c0ed-60b8-4fdd-b037-1a8d33ffa26f"},"vehicle_type_id":"4","last_reported":1736359928,"current_range_meters":6800,"station_id":"ce4bh9p2rcd13ifvqed0","pricing_plan_id":"cebpf4jnsgd1na2vs0mg"},{"bike_id":"60ce1b70-e47d-4caf-abee-52e7d5bfe299","system_id":"levelo_inurba_marseille","lat":43.24645,"lon":5.38886,"is_reserved":false,"is_disabled":false,"rental_uris":{"android":"levelo://app?vid=60ce1b70-e47d-4caf-abee-52e7d5bfe299","ios":"levelo://app?vid=60ce1b70-e47d-4caf-abee-52e7d5bfe299"},"vehicle_type_id":"4","last_reported":1736359928,"current_range_meters":38800,"station_id":"ce4bhg12rcd13ifvqf60","pricing_plan_id":"cebpf4jnsgd1na2vs0mg"},{"bike_id":"a0feb08c-a410-4125-af4b-9131e6d1e494","system_id":"levelo_inurba_marseille","lat":43.270108,"lon":5.39775,"is_reserved":false,"is_disabled":false,"rental_uris":{"android":"levelo://app?vid=a0feb08c-a410-4125-af4b-9131e6d1e494","ios":"levelo://app?vid=a0feb08c-a410-4125-af4b-9131e6d1e494"},"vehicle_type_id":"4","last_reported":1736359928,"current_range_meters":8000,"station_id":"","pricing_plan_id":"cebpf4jnsgd1na2vs0mg"},{"bike_id":"dc78ef2f-dcd6-4418-ac57-73e030b9d4da","system_id":"levelo_inurba_marseille","lat":43.29265,"lon":5.3844,"is_reserved":false,"is_disabled":false,"rental_uris":{"android":"levelo://app?vid=dc78ef2f-dcd6-4418-ac57-73e030b9d4da","ios":"levelo://app?vid=dc78ef2f-dcd6-4418-ac57-73e030b9d4da"},"vehicle_type_id":"4","last_reported":1736359928,"current_range_meters":22400,"station_id":"ce4bh692rcd13ifvqea0","pricing_plan_id":"cebpf4jnsgd1na2vs0mg"},{"bike_id":"2ff8706d-52c6-4cba-98b4-c8e945f8cf78","system_id":"levelo_inurba_marseille","lat":43.29212,"lon":5.35791,"is_reserved":false,"is_disabled":false,"rental_uris":{"android":"levelo://app?vid=2ff8706d-52c6-4cba-98b4-c8e945f8cf78","ios":"levelo://app?vid=2ff8706d-52c6-4cba-98b4-c8e945f8cf78"},"vehicle_type_id":"4","last_reported":1736359928,"current_range_meters":39200,"station_id":"ce4bhb12rcd13ifvqel0","pricing_plan_id":"cebpf4jnsgd1na2vs0mg"},{"bike_id":"ba2a18e9-d2a5-4fc8-a4b6-3b6ef76241df","system_id":"levelo_inurba_marseille","lat":43.2558,"lon":5.38212,"is_reserved":false,"is_disabled":false,"rental_uris":{"android":"levelo://app?vid=ba2a18e9-d2a5-4fc8-a4b6-3b6ef76241df","ios":"levelo://app?vid=ba2a18e9-d2a5-4fc8-a4b6-3b6ef76241df"},"vehicle_type_id":"4","last_reported":1736359928,"current_range_meters":26000,"station_id":"ce4bhih2rcd13ifvqfs0","pricing_plan_id":"cebpf4jnsgd1na2vs0mg"},{"bike_id":"48ce03f6-f3a8-490e-8671-5ca1c760d650","system_id":"levelo_inurba_marseille","lat":43.28944,"lon":5.36627,"is_reserved":false,"is_disabled":true,"rental_uris":{"android":"levelo://app?vid=48ce03f6-f3a8-490e-8671-5ca1c760d650","ios":"levelo://app?vid=48ce03f6-f3a8-490e-8671-5ca1c760d650"},"vehicle_type_id":"4","last_reported":1736359928,"current_range_meters":38000,"station_id":"ce4bhap2rcd13ifvqek0","pricing_plan_id":"cebpf4jnsgd1na2vs0mg"},{"bike_id":"f457ed7f-1f7c-4b06-8ea6-5e976bf292b7","system_id":"levelo_inurba_marseille","lat":43.29024,"lon":5.3866,"is_reserved":false,"is_disabled":false,"rental_uris":{"android":"levelo://app?vid=f457ed7f-1f7c-4b06-8ea6-5e976bf292b7","ios":"levelo://app?vid=f457ed7f-1f7c-4b06-8ea6-5e976bf292b7"},"vehicle_type_id":"4","last_reported":1736359928,"current_range_meters":8800,"station_id":"ce4bh4p2rcd13ifvqe0g","pricing_plan_id":"cebpf4jnsgd1na2vs0mg"},{"bike_id":"2bbd2800-d772-4819-af00-67f15f06e698","system_id":"levelo_inurba_marseille","lat":43.30306,"lon":5.36896,"is_reserved":false,"is_disabled":false,"rental_uris":{"android":"levelo://app?vid=2bbd2800-d772-4819-af00-67f15f06e698","ios":"levelo://app?vid=2bbd2800-d772-4819-af00-67f15f06e698"},"vehicle_type_id":"4","last_reported":1736359928,"current_range_meters":15200,"station_id":"ce4bgqh2rcd13ifvqc5g","pricing_plan_id":"cebpf4jnsgd1na2vs0mg"},{"bike_id":"bc1ed953-d0cb-4df1-af15-ec6adc7d74cf","system_id":"levelo_inurba_marseille","lat":43.296712,"lon":5.377483,"is_reserved":false,"is_disabled":false,"rental_uris":{"android":"levelo://app?vid=bc1ed953-d0cb-4df1-af15-ec6adc7d74cf","ios":"levelo://app?vid=bc1ed953-d0cb-4df1-af15-ec6adc7d74cf"},"vehicle_type_id":"4","last_reported":1736359928,"current_range_meters":25600,"station_id":"ce4bgi92rcd13ifvqb90","pricing_plan_id":"cebpf4jnsgd1na2vs0mg"},{"bike_id":"6c9daffc-e174-4a9a-8b3e-30a6cf4027c8","system_id":"levelo_inurba_marseille","lat":43.3211,"lon":5.36767,"is_reserved":false,"is_disabled":false,"rental_uris":{"android":"levelo://app?vid=6c9daffc-e174-4a9a-8b3e-30a6cf4027c8","ios":"levelo://app?vid=6c9daffc-e174-4a9a-8b3e-30a6cf4027c8"},"vehicle_type_id":"4","last_reported":1736359928,"current_range_meters":19600,"station_id":"ce4bhrh2rcd13ifvqhug","pricing_plan_id":"cebpf4jnsgd1na2vs0mg"},{"bike_id":"93b7e7bc-917a-4253-af1e-71755c2c5a70","system_id":"levelo_inurba_marseille","lat":43.296048,"lon":5.377185,"is_reserved":false,"is_disabled":true,"rental_uris":{"android":"levelo://app?vid=93b7e7bc-917a-4253-af1e-71755c2c5a70","ios":"levelo://app?vid=93b7e7bc-917a-4253-af1e-71755c2c5a70"},"vehicle_type_id":"4","last_reported":1736359928,"current_range_meters":16000,"station_id":"ce4bgi92rcd13ifvqb90","pricing_plan_id":"cebpf4jnsgd1na2vs0mg"},{"bike_id":"954827f5-e934-476d-945d-d134338afa03","system_id":"levelo_inurba_marseille","lat":43.32368,"lon":5.38878,"is_reserved":false,"is_disabled":false,"rental_uris":{"android":"levelo://app?vid=954827f5-e934-476d-945d-d134338afa03","ios":"levelo://app?vid=954827f5-e934-476d-945d-d134338afa03"},"vehicle_type_id":"4","last_reported":1736359928,"current_range_meters":24000,"station_id":"ce4bhqp2rcd13ifvqhog","pricing_plan_id":"cebpf4jnsgd1na2vs0mg"},{"bike_id":"aa93e012-148e-4dfc-80c5-c18401d721dd","system_id":"levelo_inurba_marseille","lat":43.27936,"lon":5.38703,"is_reserved":false,"is_disabled":true,"rental_uris":{"android":"levelo://app?vid=aa93e012-148e-4dfc-80c5-c18401d721dd","ios":"levelo://app?vid=aa93e012-148e-4dfc-80c5-c18401d721dd"},"vehicle_type_id":"4","last_reported":1736359928,"current_range_meters":1200,"station_id":"","pricing_plan_id":"cebpf4jnsgd1na2vs0mg"},{"bike_id":"8f2510d8-cdd2-4a95-860b-c191894dc46d","system_id":"levelo_inurba_marseille","lat":43.29281,"lon":5.36843,"is_reserved":false,"is_disabled":false,"rental_uris":{"android":"levelo://app?vid=8f2510d8-cdd2-4a95-860b-c191894dc46d","ios":"levelo://app?vid=8f2510d8-cdd2-4a95-860b-c191894dc46d"},"vehicle_type_id":"4","last_reported":1736359928,"current_range_meters":22800,"station_id":"ce4bhbp2rcd13ifvqesg","pricing_plan_id":"cebpf4jnsgd1na2vs0mg"},{"bike_id":"49f71cfb-5f4f-4efd-8023-2c4eb676a391","system_id":"levelo_inurba_marseille","lat":43.2418,"lon":5.3638,"is_reserved":false,"is_disabled":false,"rental_uris":{"android":"levelo://app?vid=49f71cfb-5f4f-4efd-8023-2c4eb676a391","ios":"levelo://app?vid=49f71cfb-5f4f-4efd-8023-2c4eb676a391"},"vehicle_type_id":"4","last_reported":1736359928,"current_range_meters":36800,"station_id":"cpo36qri1sfpv3e86is0","pricing_plan_id":"cebpf4jnsgd1na2vs0mg"},{"bike_id":"546fbb96-800b-4f90-be23-b4f678471f8f","system_id":"levelo_inurba_marseille","lat":43.25575,"lon":5.38222,"is_reserved":false,"is_disabled":false,"rental_uris":{"android":"levelo://app?vid=546fbb96-800b-4f90-be23-b4f678471f8f","ios":"levelo://app?vid=546fbb96-800b-4f90-be23-b4f678471f8f"},"vehicle_type_id":"4","last_reported":1736359928,"current_range_meters":16000,"station_id":"ce4bhih2rcd13ifvqfs0","pricing_plan_id":"cebpf4jnsgd1na2vs0mg"},{"bike_id":"53495e74-7d11-45c9-b642-f1e889f1d6f1","system_id":"levelo_inurba_marseille","lat":43.28438,"lon":5.39179,"is_reserved":false,"is_disabled":false,"rental_uris":{"android":"levelo://app?vid=53495e74-7d11-45c9-b642-f1e889f1d6f1","ios":"levelo://app?vid=53495e74-7d11-45c9-b642-f1e889f1d6f1"},"vehicle_type_id":"4","last_reported":1736359928,"current_range_meters":35200,"station_id":"ce4bhoh2rcd13ifvqh5g","pricing_plan_id":"cebpf4jnsgd1na2vs0mg"},{"bike_id":"13017816-3ab0-484a-ae75-e5c49659e9ac","system_id":"levelo_inurba_marseille","lat":43.25094,"lon":5.39514,"is_reserved":false,"is_disabled":false,"rental_uris":{"android":"levelo://app?vid=13017816-3ab0-484a-ae75-e5c49659e9ac","ios":"levelo://app?vid=13017816-3ab0-484a-ae75-e5c49659e9ac"},"vehicle_type_id":"4","last_reported":1736359928,"current_range_meters":38800,"station_id":"ce4bhm12rcd13ifvqgkg","pricing_plan_id":"cebpf4jnsgd1na2vs0mg"},{"bike_id":"95d3448a-591f-493e-a463-7ae24e6b0478","system_id":"levelo_inurba_marseille","lat":43.30149,"lon":5.38789,"is_reserved":false,"is_disabled":true,"rental_uris":{"android":"levelo://app?vid=95d3448a-591f-493e-a463-7ae24e6b0478","ios":"levelo://app?vid=95d3448a-591f-493e-a463-7ae24e6b0478"},"vehicle_type_id":"4","last_reported":1736359928,"current_range_meters":18800,"station_id":"ce4bghh2rcd13ifvqb60","pricing_plan_id":"cebpf4jnsgd1na2vs0mg"},{"bike_id":"b1c05a28-e862-4024-a61b-ab8d551b8107","system_id":"levelo_inurba_marseille","lat":43.33026,"lon":5.39024,"is_reserved":false,"is_disabled":false,"rental_uris":{"android":"levelo://app?vid=b1c05a28-e862-4024-a61b-ab8d551b8107","ios":"levelo://app?vid=b1c05a28-e862-4024-a61b-ab8d551b8107"},"vehicle_type_id":"4","last_reported":1736359928,"current_range_meters":37600,"station_id":"ce4bhr92rcd13ifvqhrg","pricing_plan_id":"cebpf4jnsgd1na2vs0mg"},{"bike_id":"b743700a-ae91-4cc7-8a16-0e891534b405","system_id":"levelo_inurba_marseille","lat":43.28947,"lon":5.38386,"is_reserved":false,"is_disabled":false,"rental_uris":{"android":"levelo://app?vid=b743700a-ae91-4cc7-8a16-0e891534b405","ios":"levelo://app?vid=b743700a-ae91-4cc7-8a16-0e891534b405"},"vehicle_type_id":"4","last_reported":1736359928,"current_range_meters":38800,"station_id":"ce4bh612rcd13ifvqe6g","pricing_plan_id":"cebpf4jnsgd1na2vs0mg"},{"bike_id":"056e6a25-022b-4f1b-be62-fca4c87d1663","system_id":"levelo_inurba_marseille","lat":43.28456,"lon":5.35888,"is_reserved":false,"is_disabled":false,"rental_uris":{"android":"levelo://app?vid=056e6a25-022b-4f1b-be62-fca4c87d1663","ios":"levelo://app?vid=056e6a25-022b-4f1b-be62-fca4c87d1663"},"vehicle_type_id":"4","last_reported":1736359928,"current_range_meters":24800,"station_id":"ce4bhah2rcd13ifvqei0","pricing_plan_id":"cebpf4jnsgd1na2vs0mg"},{"bike_id":"c3fed3ff-6b92-4fcd-9518-3530a380cb58","system_id":"levelo_inurba_marseille","lat":43.2895,"lon":5.36414,"is_reserved":false,"is_disabled":true,"rental_uris":{"android":"levelo://app?vid=c3fed3ff-6b92-4fcd-9518-3530a380cb58","ios":"levelo://app?vid=c3fed3ff-6b92-4fcd-9518-3530a380cb58"},"vehicle_type_id":"4","last_reported":1736359928,"current_range_meters":38800,"station_id":"ce4bhc92rcd13ifvqetg","pricing_plan_id":"cebpf4jnsgd1na2vs0mg"},{"bike_id":"1e2223a2-c032-49e7-8dbf-982df86a0520","system_id":"levelo_inurba_marseille","lat":43.22933,"lon":5.35368,"is_reserved":false,"is_disabled":false,"rental_uris":{"android":"levelo://app?vid=1e2223a2-c032-49e7-8dbf-982df86a0520","ios":"levelo://app?vid=1e2223a2-c032-49e7-8dbf-982df86a0520"},"vehicle_type_id":"4","last_reported":1736359928,"current_range_meters":38800,"station_id":"cpo3532slgdg3j2ikp40","pricing_plan_id":"cebpf4jnsgd1na2vs0mg"},{"bike_id":"bdbddf08-610a-4730-9efc-7607f5b727ca","system_id":"levelo_inurba_marseille","lat":43.29607,"lon":5.36746,"is_reserved":false,"is_disabled":false,"rental_uris":{"android":"levelo://app?vid=bdbddf08-610a-4730-9efc-7607f5b727ca","ios":"levelo://app?vid=bdbddf08-610a-4730-9efc-7607f5b727ca"},"vehicle_type_id":"4","last_reported":1736359928,"current_range_meters":38800,"station_id":"ce4bgph2rcd13ifvqc2g","pricing_plan_id":"cebpf4jnsgd1na2vs0mg"},{"bike_id":"7d8b31a7-3d24-4815-814e-859f32f65153","system_id":"levelo_inurba_marseille","lat":43.2942,"lon":5.38625,"is_reserved":false,"is_disabled":false,"rental_uris":{"android":"levelo://app?vid=7d8b31a7-3d24-4815-814e-859f32f65153","ios":"levelo://app?vid=7d8b31a7-3d24-4815-814e-859f32f65153"},"vehicle_type_id":"4","last_reported":1736359928,"current_range_meters":38800,"station_id":"ce4bh2h2rcd13ifvqdh0","pricing_plan_id":"cebpf4jnsgd1na2vs0mg"},{"bike_id":"3aefb9c1-3e4a-487c-b413-b90ef97c7063","system_id":"levelo_inurba_marseille","lat":43.24081,"lon":5.37752,"is_reserved":false,"is_disabled":false,"rental_uris":{"android":"levelo://app?vid=3aefb9c1-3e4a-487c-b413-b90ef97c7063","ios":"levelo://app?vid=3aefb9c1-3e4a-487c-b413-b90ef97c7063"},"vehicle_type_id":"4","last_reported":1736359928,"current_range_meters":17600,"station_id":"ce4bhnp2rcd13ifvqgvg","pricing_plan_id":"cebpf4jnsgd1na2vs0mg"},{"bike_id":"be8a233f-ad85-41b2-af03-bfa1e3033438","system_id":"levelo_inurba_marseille","lat":43.23199,"lon":5.35529,"is_reserved":false,"is_disabled":false,"rental_uris":{"android":"levelo://app?vid=be8a233f-ad85-41b2-af03-bfa1e3033438","ios":"levelo://app?vid=be8a233f-ad85-41b2-af03-bfa1e3033438"},"vehicle_type_id":"4","last_reported":1736359928,"current_range_meters":30800,"station_id":"ce4bhu92rcd13ifvqi70","pricing_plan_id":"cebpf4jnsgd1na2vs0mg"},{"bike_id":"ceceaa4f-d742-436f-b59f-723e7cf8dd86","system_id":"levelo_inurba_marseille","lat":43.29597,"lon":5.38102,"is_reserved":false,"is_disabled":false,"rental_uris":{"android":"levelo://app?vid=ceceaa4f-d742-436f-b59f-723e7cf8dd86","ios":"levelo://app?vid=ceceaa4f-d742-436f-b59f-723e7cf8dd86"},"vehicle_type_id":"4","last_reported":1736359928,"current_range_meters":36800,"station_id":"ce4bgl12rcd13ifvqbo0","pricing_plan_id":"cebpf4jnsgd1na2vs0mg"},{"bike_id":"af67c0f8-e4fc-4215-a107-4346e12b2065","system_id":"levelo_inurba_marseille","lat":43.29434,"lon":5.39752,"is_reserved":false,"is_disabled":false,"rental_uris":{"android":"levelo://app?vid=af67c0f8-e4fc-4215-a107-4346e12b2065","ios":"levelo://app?vid=af67c0f8-e4fc-4215-a107-4346e12b2065"},"vehicle_type_id":"4","last_reported":1736359928,"current_range_meters":34000,"station_id":"ce4bh3h2rcd13ifvqdo0","pricing_plan_id":"cebpf4jnsgd1na2vs0mg"},{"bike_id":"25ee17bb-5e31-42c9-a39c-d14b4430971b","system_id":"levelo_inurba_marseille","lat":43.2953,"lon":5.39398,"is_reserved":false,"is_disabled":false,"rental_uris":{"android":"levelo://app?vid=25ee17bb-5e31-42c9-a39c-d14b4430971b","ios":"levelo://app?vid=25ee17bb-5e31-42c9-a39c-d14b4430971b"},"vehicle_type_id":"4","last_reported":1736359928,"current_range_meters":32800,"station_id":"ce4bh292rcd13ifvqdf0","pricing_plan_id":"cebpf4jnsgd1na2vs0mg"},{"bike_id":"e92013d7-e7fd-4a70-b5fb-40e0e2348217","system_id":"levelo_inurba_marseille","lat":43.29611,"lon":5.37731,"is_reserved":false,"is_disabled":true,"rental_uris":{"android":"levelo://app?vid=e92013d7-e7fd-4a70-b5fb-40e0e2348217","ios":"levelo://app?vid=e92013d7-e7fd-4a70-b5fb-40e0e2348217"},"vehicle_type_id":"4","last_reported":1736359928,"current_range_meters":37600,"station_id":"ce4bgi92rcd13ifvqb90","pricing_plan_id":"cebpf4jnsgd1na2vs0mg"},{"bike_id":"73a4e391-710f-48d2-a903-19a2a8689c73","system_id":"levelo_inurba_marseille","lat":43.28353,"lon":5.39837,"is_reserved":false,"is_disabled":false,"rental_uris":{"android":"levelo://app?vid=73a4e391-710f-48d2-a903-19a2a8689c73","ios":"levelo://app?vid=73a4e391-710f-48d2-a903-19a2a8689c73"},"vehicle_type_id":"4","last_reported":1736359928,"current_range_meters":29600,"station_id":"","pricing_plan_id":"cebpf4jnsgd1na2vs0mg"},{"bike_id":"b9a9b8fb-8b9f-40cf-8b00-0987c98996a4","system_id":"levelo_inurba_marseille","lat":43.28151,"lon":5.42646,"is_reserved":false,"is_disabled":false,"rental_uris":{"android":"levelo://app?vid=b9a9b8fb-8b9f-40cf-8b00-0987c98996a4","ios":"levelo://app?vid=b9a9b8fb-8b9f-40cf-8b00-0987c98996a4"},"vehicle_type_id":"4","last_reported":1736359928,"current_range_meters":7200,"station_id":"ce4bhnh2rcd13ifvqgug","pricing_plan_id":"cebpf4jnsgd1na2vs0mg"},{"bike_id":"0686a8cb-2b76-4424-87d1-4f58c91d61f2","system_id":"levelo_inurba_marseille","lat":43.25723,"lon":5.41107,"is_reserved":false,"is_disabled":false,"rental_uris":{"android":"levelo://app?vid=0686a8cb-2b76-4424-87d1-4f58c91d61f2","ios":"levelo://app?vid=0686a8cb-2b76-4424-87d1-4f58c91d61f2"},"vehicle_type_id":"4","last_reported":1736359928,"current_range_meters":38800,"station_id":"ce4bhkp2rcd13ifvqgd0","pricing_plan_id":"cebpf4jnsgd1na2vs0mg"},{"bike_id":"726b545e-c938-42bf-9f34-dddd663d761b","system_id":"levelo_inurba_marseille","lat":43.26193,"lon":5.37455,"is_reserved":false,"is_disabled":false,"rental_uris":{"android":"levelo://app?vid=726b545e-c938-42bf-9f34-dddd663d761b","ios":"levelo://app?vid=726b545e-c938-42bf-9f34-dddd663d761b"},"vehicle_type_id":"4","last_reported":1736359928,"current_range_meters":34000,"station_id":"ce4bhgp2rcd13ifvqfc0","pricing_plan_id":"cebpf4jnsgd1na2vs0mg"},{"bike_id":"1f13abda-0c2f-485b-b7d9-de8f3b464a21","system_id":"levelo_inurba_marseille","lat":43.29603,"lon":5.37691,"is_reserved":false,"is_disabled":true,"rental_uris":{"android":"levelo://app?vid=1f13abda-0c2f-485b-b7d9-de8f3b464a21","ios":"levelo://app?vid=1f13abda-0c2f-485b-b7d9-de8f3b464a21"},"vehicle_type_id":"4","last_reported":1736359928,"current_range_meters":37600,"station_id":"ce4bgi92rcd13ifvqb90","pricing_plan_id":"cebpf4jnsgd1na2vs0mg"},{"bike_id":"34cb8090-cfb8-4338-aee7-9c83eb7af208","system_id":"levelo_inurba_marseille","lat":43.31133,"lon":5.3781,"is_reserved":false,"is_disabled":false,"rental_uris":{"android":"levelo://app?vid=34cb8090-cfb8-4338-aee7-9c83eb7af208","ios":"levelo://app?vid=34cb8090-cfb8-4338-aee7-9c83eb7af208"},"vehicle_type_id":"4","last_reported":1736359928,"current_range_meters":29600,"station_id":"ce4bgt92rcd13ifvqcg0","pricing_plan_id":"cebpf4jnsgd1na2vs0mg"},{"bike_id":"ca5b73b8-bbae-4af5-a5a9-ad3889f9d436","system_id":"levelo_inurba_marseille","lat":43.27383,"lon":5.36262,"is_reserved":false,"is_disabled":false,"rental_uris":{"android":"levelo://app?vid=ca5b73b8-bbae-4af5-a5a9-ad3889f9d436","ios":"levelo://app?vid=ca5b73b8-bbae-4af5-a5a9-ad3889f9d436"},"vehicle_type_id":"4","last_reported":1736359928,"current_range_meters":38800,"station_id":"ce4bhbh2rcd13ifvqeo0","pricing_plan_id":"cebpf4jnsgd1na2vs0mg"},{"bike_id":"ad28bd53-1c8c-44ea-9a1c-1e5a5b2498fe","system_id":"levelo_inurba_marseille","lat":43.2418,"lon":5.36381,"is_reserved":false,"is_disabled":false,"rental_uris":{"android":"levelo://app?vid=ad28bd53-1c8c-44ea-9a1c-1e5a5b2498fe","ios":"levelo://app?vid=ad28bd53-1c8c-44ea-9a1c-1e5a5b2498fe"},"vehicle_type_id":"4","last_reported":1736359928,"current_range_meters":18000,"station_id":"cpo36qri1sfpv3e86is0","pricing_plan_id":"cebpf4jnsgd1na2vs0mg"},{"bike_id":"0f032c2e-c163-4b1c-a872-453a417529f1","system_id":"levelo_inurba_marseille","lat":43.31313,"lon":5.39707,"is_reserved":false,"is_disabled":false,"rental_uris":{"android":"levelo://app?vid=0f032c2e-c163-4b1c-a872-453a417529f1","ios":"levelo://app?vid=0f032c2e-c163-4b1c-a872-453a417529f1"},"vehicle_type_id":"4","last_reported":1736359928,"current_range_meters":27600,"station_id":"ce4bgvp2rcd13ifvqcu0","pricing_plan_id":"cebpf4jnsgd1na2vs0mg"},{"bike_id":"3511a459-bbe3-4438-825d-7b6c01f6cfb6","system_id":"levelo_inurba_marseille","lat":43.32009,"lon":5.38109,"is_reserved":false,"is_disabled":false,"rental_uris":{"android":"levelo://app?vid=3511a459-bbe3-4438-825d-7b6c01f6cfb6","ios":"levelo://app?vid=3511a459-bbe3-4438-825d-7b6c01f6cfb6"},"vehicle_type_id":"4","last_reported":1736359928,"current_range_meters":38800,"station_id":"ce4bhr12rcd13ifvqhpg","pricing_plan_id":"cebpf4jnsgd1na2vs0mg"},{"bike_id":"356c48a4-6ddc-4500-9195-7c23c6e800b2","system_id":"levelo_inurba_marseille","lat":43.29255,"lon":5.4091,"is_reserved":false,"is_disabled":false,"rental_uris":{"android":"levelo://app?vid=356c48a4-6ddc-4500-9195-7c23c6e800b2","ios":"levelo://app?vid=356c48a4-6ddc-4500-9195-7c23c6e800b2"},"vehicle_type_id":"4","last_reported":1736359928,"current_range_meters":36000,"station_id":"ce4bh192rcd13ifvqdc0","pricing_plan_id":"cebpf4jnsgd1na2vs0mg"},{"bike_id":"46afa4bc-c930-44a2-adc9-94c8f932b324","system_id":"levelo_inurba_marseille","lat":43.28701,"lon":5.36455,"is_reserved":false,"is_disabled":false,"rental_uris":{"android":"levelo://app?vid=46afa4bc-c930-44a2-adc9-94c8f932b324","ios":"levelo://app?vid=46afa4bc-c930-44a2-adc9-94c8f932b324"},"vehicle_type_id":"4","last_reported":1736359928,"current_range_meters":9200,"station_id":"","pricing_plan_id":"cebpf4jnsgd1na2vs0mg"},{"bike_id":"c8ebe7df-006f-4929-bdb9-97e0f784e301","system_id":"levelo_inurba_marseille","lat":43.29591,"lon":5.36744,"is_reserved":false,"is_disabled":false,"rental_uris":{"android":"levelo://app?vid=c8ebe7df-006f-4929-bdb9-97e0f784e301","ios":"levelo://app?vid=c8ebe7df-006f-4929-bdb9-97e0f784e301"},"vehicle_type_id":"4","last_reported":1736359928,"current_range_meters":38800,"station_id":"ce4bgph2rcd13ifvqc2g","pricing_plan_id":"cebpf4jnsgd1na2vs0mg"},{"bike_id":"50cd5673-6836-4309-a193-16e51cb2408d","system_id":"levelo_inurba_marseille","lat":43.26682,"lon":5.38273,"is_reserved":false,"is_disabled":false,"rental_uris":{"android":"levelo://app?vid=50cd5673-6836-4309-a193-16e51cb2408d","ios":"levelo://app?vid=50cd5673-6836-4309-a193-16e51cb2408d"},"vehicle_type_id":"4","last_reported":1736359928,"current_range_meters":38800,"station_id":"ce4bhg92rcd13ifvqf90","pricing_plan_id":"cebpf4jnsgd1na2vs0mg"},{"bike_id":"cecb496a-19a6-4ad5-b31b-eac3846b2c8c","system_id":"levelo_inurba_marseille","lat":43.293873,"lon":5.378613,"is_reserved":false,"is_disabled":true,"rental_uris":{"android":"levelo://app?vid=cecb496a-19a6-4ad5-b31b-eac3846b2c8c","ios":"levelo://app?vid=cecb496a-19a6-4ad5-b31b-eac3846b2c8c"},"vehicle_type_id":"4","last_reported":1736359928,"current_range_meters":1600,"station_id":"ce4bgjh2rcd13ifvqbf0","pricing_plan_id":"cebpf4jnsgd1na2vs0mg"},{"bike_id":"39e1c198-b490-4185-a6e1-98cf05681216","system_id":"levelo_inurba_marseille","lat":43.30263,"lon":5.40082,"is_reserved":false,"is_disabled":false,"rental_uris":{"android":"levelo://app?vid=39e1c198-b490-4185-a6e1-98cf05681216","ios":"levelo://app?vid=39e1c198-b490-4185-a6e1-98cf05681216"},"vehicle_type_id":"4","last_reported":1736359928,"current_range_meters":8800,"station_id":"ce4bgvh2rcd13ifvqcs0","pricing_plan_id":"cebpf4jnsgd1na2vs0mg"},{"bike_id":"047ad74f-42c1-486e-ac92-25deb9f4678e","system_id":"levelo_inurba_marseille","lat":43.29559,"lon":5.37518,"is_reserved":false,"is_disabled":false,"rental_uris":{"android":"levelo://app?vid=047ad74f-42c1-486e-ac92-25deb9f4678e","ios":"levelo://app?vid=047ad74f-42c1-486e-ac92-25deb9f4678e"},"vehicle_type_id":"4","last_reported":1736359928,"current_range_meters":37600,"station_id":"ce4bgh92rcd13ifvqb50","pricing_plan_id":"cebpf4jnsgd1na2vs0mg"},{"bike_id":"0721ceb1-00cd-4651-87a8-8d6efda64c13","system_id":"levelo_inurba_marseille","lat":43.29264,"lon":5.38433,"is_reserved":false,"is_disabled":false,"rental_uris":{"android":"levelo://app?vid=0721ceb1-00cd-4651-87a8-8d6efda64c13","ios":"levelo://app?vid=0721ceb1-00cd-4651-87a8-8d6efda64c13"},"vehicle_type_id":"4","last_reported":1736359928,"current_range_meters":25600,"station_id":"ce4bh692rcd13ifvqea0","pricing_plan_id":"cebpf4jnsgd1na2vs0mg"},{"bike_id":"47fce4f8-7718-407d-9dee-89ea3cf87e47","system_id":"levelo_inurba_marseille","lat":43.22945,"lon":5.35368,"is_reserved":false,"is_disabled":false,"rental_uris":{"android":"levelo://app?vid=47fce4f8-7718-407d-9dee-89ea3cf87e47","ios":"levelo://app?vid=47fce4f8-7718-407d-9dee-89ea3cf87e47"},"vehicle_type_id":"4","last_reported":1736359928,"current_range_meters":24400,"station_id":"cpo3532slgdg3j2ikp40","pricing_plan_id":"cebpf4jnsgd1na2vs0mg"},{"bike_id":"7602b9db-fede-47ee-bd0b-311a54641a45","system_id":"levelo_inurba_marseille","lat":43.31883,"lon":5.40737,"is_reserved":false,"is_disabled":false,"rental_uris":{"android":"levelo://app?vid=7602b9db-fede-47ee-bd0b-311a54641a45","ios":"levelo://app?vid=7602b9db-fede-47ee-bd0b-311a54641a45"},"vehicle_type_id":"4","last_reported":1736359928,"current_range_meters":9200,"station_id":"ce4bhq12rcd13ifvqhig","pricing_plan_id":"cebpf4jnsgd1na2vs0mg"},{"bike_id":"9b8394f4-8355-4766-83cc-d75e5933c4be","system_id":"levelo_inurba_marseille","lat":43.31764,"lon":5.3901,"is_reserved":false,"is_disabled":false,"rental_uris":{"android":"levelo://app?vid=9b8394f4-8355-4766-83cc-d75e5933c4be","ios":"levelo://app?vid=9b8394f4-8355-4766-83cc-d75e5933c4be"},"vehicle_type_id":"4","last_reported":1736359928,"current_range_meters":36000,"station_id":"ce4bhqp2rcd13ifvqhng","pricing_plan_id":"cebpf4jnsgd1na2vs0mg"},{"bike_id":"5bfb38b3-cd0f-45ad-8b08-72611f08ffdb","system_id":"levelo_inurba_marseille","lat":43.28585,"lon":5.39477,"is_reserved":false,"is_disabled":false,"rental_uris":{"android":"levelo://app?vid=5bfb38b3-cd0f-45ad-8b08-72611f08ffdb","ios":"levelo://app?vid=5bfb38b3-cd0f-45ad-8b08-72611f08ffdb"},"vehicle_type_id":"4","last_reported":1736359928,"current_range_meters":26800,"station_id":"ce4bh292rcd13ifvqdg0","pricing_plan_id":"cebpf4jnsgd1na2vs0mg"},{"bike_id":"a2817b70-bfde-4bf5-a010-ced9352c0bcb","system_id":"levelo_inurba_marseille","lat":43.29868,"lon":5.3891,"is_reserved":false,"is_disabled":false,"rental_uris":{"android":"levelo://app?vid=a2817b70-bfde-4bf5-a010-ced9352c0bcb","ios":"levelo://app?vid=a2817b70-bfde-4bf5-a010-ced9352c0bcb"},"vehicle_type_id":"4","last_reported":1736359928,"current_range_meters":14000,"station_id":"ce4bh392rcd13ifvqdl0","pricing_plan_id":"cebpf4jnsgd1na2vs0mg"},{"bike_id":"a412c127-42d2-426f-8887-6e6167d789f2","system_id":"levelo_inurba_marseille","lat":43.32105,"lon":5.36789,"is_reserved":false,"is_disabled":false,"rental_uris":{"android":"levelo://app?vid=a412c127-42d2-426f-8887-6e6167d789f2","ios":"levelo://app?vid=a412c127-42d2-426f-8887-6e6167d789f2"},"vehicle_type_id":"4","last_reported":1736359928,"current_range_meters":38000,"station_id":"ce4bhrh2rcd13ifvqhug","pricing_plan_id":"cebpf4jnsgd1na2vs0mg"},{"bike_id":"cc78b197-e610-4f2b-bdf1-319c1e4dda51","system_id":"levelo_inurba_marseille","lat":43.27813,"lon":5.40715,"is_reserved":false,"is_disabled":false,"rental_uris":{"android":"levelo://app?vid=cc78b197-e610-4f2b-bdf1-319c1e4dda51","ios":"levelo://app?vid=cc78b197-e610-4f2b-bdf1-319c1e4dda51"},"vehicle_type_id":"4","last_reported":1736359928,"current_range_meters":16800,"station_id":"ce4bhnh2rcd13ifvqgtg","pricing_plan_id":"cebpf4jnsgd1na2vs0mg"},{"bike_id":"cfdf3336-5e11-4f7d-9525-132a49b7c6ca","system_id":"levelo_inurba_marseille","lat":43.29281,"lon":5.36845,"is_reserved":false,"is_disabled":false,"rental_uris":{"android":"levelo://app?vid=cfdf3336-5e11-4f7d-9525-132a49b7c6ca","ios":"levelo://app?vid=cfdf3336-5e11-4f7d-9525-132a49b7c6ca"},"vehicle_type_id":"4","last_reported":1736359928,"current_range_meters":38000,"station_id":"ce4bhbp2rcd13ifvqesg","pricing_plan_id":"cebpf4jnsgd1na2vs0mg"},{"bike_id":"1ace9e65-a3fc-4489-a313-689327305bfa","system_id":"levelo_inurba_marseille","lat":43.29833,"lon":5.39308,"is_reserved":false,"is_disabled":false,"rental_uris":{"android":"levelo://app?vid=1ace9e65-a3fc-4489-a313-689327305bfa","ios":"levelo://app?vid=1ace9e65-a3fc-4489-a313-689327305bfa"},"vehicle_type_id":"4","last_reported":1736359928,"current_range_meters":38800,"station_id":"chh1huq6cuj3fo74tm60","pricing_plan_id":"cebpf4jnsgd1na2vs0mg"},{"bike_id":"38a4022a-4c7c-4cf8-8dc9-bceb5a15fb25","system_id":"levelo_inurba_marseille","lat":43.25869,"lon":5.39904,"is_reserved":false,"is_disabled":false,"rental_uris":{"android":"levelo://app?vid=38a4022a-4c7c-4cf8-8dc9-bceb5a15fb25","ios":"levelo://app?vid=38a4022a-4c7c-4cf8-8dc9-bceb5a15fb25"},"vehicle_type_id":"4","last_reported":1736359928,"current_range_meters":36400,"station_id":"ce4bhl92rcd13ifvqghg","pricing_plan_id":"cebpf4jnsgd1na2vs0mg"},{"bike_id":"45e9a91a-7194-4b6b-a3be-02ff96f96be8","system_id":"levelo_inurba_marseille","lat":43.28005,"lon":5.41662,"is_reserved":false,"is_disabled":true,"rental_uris":{"android":"levelo://app?vid=45e9a91a-7194-4b6b-a3be-02ff96f96be8","ios":"levelo://app?vid=45e9a91a-7194-4b6b-a3be-02ff96f96be8"},"vehicle_type_id":"4","last_reported":1736359928,"current_range_meters":0,"station_id":"ce4bho12rcd13ifvqh1g","pricing_plan_id":"cebpf4jnsgd1na2vs0mg"},{"bike_id":"40167485-8338-49d4-b65f-288a946b4e2e","system_id":"levelo_inurba_marseille","lat":43.26802,"lon":5.40271,"is_reserved":false,"is_disabled":false,"rental_uris":{"android":"levelo://app?vid=40167485-8338-49d4-b65f-288a946b4e2e","ios":"levelo://app?vid=40167485-8338-49d4-b65f-288a946b4e2e"},"vehicle_type_id":"4","last_reported":1736359928,"current_range_meters":36000,"station_id":"ce501612rcd8frsf0b60","pricing_plan_id":"cebpf4jnsgd1na2vs0mg"},{"bike_id":"7bc5649e-6bf9-44e0-81e0-4779df803f45","system_id":"levelo_inurba_marseille","lat":43.28153,"lon":5.42641,"is_reserved":false,"is_disabled":true,"rental_uris":{"android":"levelo://app?vid=7bc5649e-6bf9-44e0-81e0-4779df803f45","ios":"levelo://app?vid=7bc5649e-6bf9-44e0-81e0-4779df803f45"},"vehicle_type_id":"4","last_reported":1736359928,"current_range_meters":0,"station_id":"ce4bhnh2rcd13ifvqgug","pricing_plan_id":"cebpf4jnsgd1na2vs0mg"},{"bike_id":"589ff427-7f96-42f4-8329-98df85bb3cc4","system_id":"levelo_inurba_marseille","lat":43.33026,"lon":5.39043,"is_reserved":false,"is_disabled":false,"rental_uris":{"android":"levelo://app?vid=589ff427-7f96-42f4-8329-98df85bb3cc4","ios":"levelo://app?vid=589ff427-7f96-42f4-8329-98df85bb3cc4"},"vehicle_type_id":"4","last_reported":1736359928,"current_range_meters":38000,"station_id":"ce4bhr92rcd13ifvqhrg","pricing_plan_id":"cebpf4jnsgd1na2vs0mg"},{"bike_id":"8c1b41c2-4d79-4980-a6b8-335543e8ad72","system_id":"levelo_inurba_marseille","lat":43.25867,"lon":5.39902,"is_reserved":false,"is_disabled":false,"rental_uris":{"android":"levelo://app?vid=8c1b41c2-4d79-4980-a6b8-335543e8ad72","ios":"levelo://app?vid=8c1b41c2-4d79-4980-a6b8-335543e8ad72"},"vehicle_type_id":"4","last_reported":1736359928,"current_range_meters":36000,"station_id":"ce4bhl92rcd13ifvqghg","pricing_plan_id":"cebpf4jnsgd1na2vs0mg"},{"bike_id":"9c7f7f80-9510-44dc-8bb4-69f7ca981c85","system_id":"levelo_inurba_marseille","lat":43.31058,"lon":5.38363,"is_reserved":false,"is_disabled":false,"rental_uris":{"android":"levelo://app?vid=9c7f7f80-9510-44dc-8bb4-69f7ca981c85","ios":"levelo://app?vid=9c7f7f80-9510-44dc-8bb4-69f7ca981c85"},"vehicle_type_id":"4","last_reported":1736359928,"current_range_meters":30800,"station_id":"ce4bgv92rcd13ifvqcr0","pricing_plan_id":"cebpf4jnsgd1na2vs0mg"},{"bike_id":"af720f83-9bb6-4128-80e2-b556fc2473ce","system_id":"levelo_inurba_marseille","lat":43.27822,"lon":5.40695,"is_reserved":false,"is_disabled":false,"rental_uris":{"android":"levelo://app?vid=af720f83-9bb6-4128-80e2-b556fc2473ce","ios":"levelo://app?vid=af720f83-9bb6-4128-80e2-b556fc2473ce"},"vehicle_type_id":"4","last_reported":1736359928,"current_range_meters":36800,"station_id":"ce4bhnh2rcd13ifvqgtg","pricing_plan_id":"cebpf4jnsgd1na2vs0mg"},{"bike_id":"1ffbf279-ead8-43c7-ba0a-6760423a3d5f","system_id":"levelo_inurba_marseille","lat":43.30777,"lon":5.38244,"is_reserved":false,"is_disabled":false,"rental_uris":{"android":"levelo://app?vid=1ffbf279-ead8-43c7-ba0a-6760423a3d5f","ios":"levelo://app?vid=1ffbf279-ead8-43c7-ba0a-6760423a3d5f"},"vehicle_type_id":"4","last_reported":1736359928,"current_range_meters":11200,"station_id":"ce4bgt12rcd13ifvqce0","pricing_plan_id":"cebpf4jnsgd1na2vs0mg"},{"bike_id":"0ce73ae1-b154-43da-a4ed-8140bf82ff61","system_id":"levelo_inurba_marseille","lat":43.28616,"lon":5.35096,"is_reserved":false,"is_disabled":true,"rental_uris":{"android":"levelo://app?vid=0ce73ae1-b154-43da-a4ed-8140bf82ff61","ios":"levelo://app?vid=0ce73ae1-b154-43da-a4ed-8140bf82ff61"},"vehicle_type_id":"4","last_reported":1736359928,"current_range_meters":0,"station_id":"ce4bhch2rcd13ifvqeug","pricing_plan_id":"cebpf4jnsgd1na2vs0mg"},{"bike_id":"df3af073-1abd-4c3e-9f25-8c6374b07a92","system_id":"levelo_inurba_marseille","lat":43.26204,"lon":5.37456,"is_reserved":false,"is_disabled":false,"rental_uris":{"android":"levelo://app?vid=df3af073-1abd-4c3e-9f25-8c6374b07a92","ios":"levelo://app?vid=df3af073-1abd-4c3e-9f25-8c6374b07a92"},"vehicle_type_id":"4","last_reported":1736359928,"current_range_meters":28400,"station_id":"ce4bhgp2rcd13ifvqfc0","pricing_plan_id":"cebpf4jnsgd1na2vs0mg"},