{"last_updated":1741083064,"ttl":60,"version":"2.2","data":{"bikes":[{"bike_id":"79dc2886-9457-4956-a315-0a4ca48ce21a","system_id":"levelo_inurba_marseille","lat":43.31229,"lon":5.37987,"is_reserved":false,"is_disabled":true,"rental_uris":{"android":"levelo://app?vid=79dc2886-9457-4956-a315-0a4ca48ce21a","ios":"levelo://app?vid=79dc2886-9457-4956-a315-0a4ca48ce21a"},"vehicle_type_id":"4","last_reported":1741083064,"current_range_meters":0,"station_id":"","pricing_plan_id":"cebpf4jnsgd1na2vs0mg"},{"bike_id":"9eb3cb5d-d9f5-4491-98ca-3b6f02b67afa","system_id":"levelo_inurba_marseille","lat":43.21766,"lon":5.34639,"is_reserved":false,"is_disabled":true,"rental_uris":{"android":"levelo://app?vid=9eb3cb5d-d9f5-4491-98ca-3b6f02b67afa","ios":"levelo://app?vid=9eb3cb5d-d9f5-4491-98ca-3b6f02b67afa"},"vehicle_type_id":"4","last_reported":1741083064,"current_range_meters":0,"station_id":"","pricing_plan_id":"cebpf4jnsgd1na2vs0mg"},{"bike_id":"08b08870-68e4-4f81-948c-e23c63453d81","system_id":"levelo_inurba_marseille","lat":43.26219,"lon":5.40445,"is_reserved":false,"is_disabled":true,"rental_uris":{"android":"levelo://app?vid=08b08870-68e4-4f81-948c-e23c63453d81","ios":"levelo://app?vid=08b08870-68e4-4f81-948c-e23c63453d81"},"vehicle_type_id":"4","last_reported":1741083064,"current_range_meters":0,"station_id":"","pricing_plan_id":"cebpf4jnsgd1na2vs0mg"},{"bike_id":"5d8db3b4-3787-47fe-93e2-05b926d737c4","system_id":"levelo_inurba_marseille","lat":43.28775,"lon":5.384807,"is_reserved":false,"is_disabled":true,"rental_uris":{"android":"levelo://app?vid=5d8db3b4-3787-47fe-93e2-05b926d737c4","ios":"levelo://app?vid=5d8db3b4-3787-47fe-93e2-05b926d737c4"},"vehicle_type_id":"4","last_reported":1741083064,"current_range_meters":0,"station_id":"ce4bgt92rcd13ifvqcf0","pricing_plan_id":"cebpf4jnsgd1na2vs0mg"},{"bike_id":"9a0f2f6e-328f-4bfa-a44b-cf0692e675b4","system_id":"levelo_inurba_marseille","lat":43.24649,"lon":5.38895,"is_reserved":false,"is_disabled":true,"rental_uris":{"android":"levelo://app?vid=9a0f2f6e-328f-4bfa-a44b-cf0692e675b4","ios":"levelo://app?vid=9a0f2f6e-328f-4bfa-a44b-cf0692e675b4"},"vehicle_type_id":"4","last_reported":1741083064,"current_range_meters":0,"station_id":"ce4bhg12rcd13ifvqf60","pricing_plan_id":"cebpf4jnsgd1na2vs0mg"},{"bike_id":"e5256b4c-1189-450d-85dc-bf60b78adf5a","system_id":"levelo_inurba_marseille","lat":43.26548,"lon":5.37278,"is_reserved":false,"is_disabled":true,"rental_uris":{"android":"levelo://app?vid=e5256b4c-1189-450d-85dc-bf60b78adf5a","ios":"levelo://app?vid=e5256b4c-1189-450d-85dc-bf60b78adf5a"},"vehicle_type_id":"4","last_reported":1741083064,"current_range_meters":0,"station_id":"ce4bhg12rcd13ifvqf70","pricing_plan_id":"cebpf4jnsgd1na2vs0mg"},{"bike_id":"cbd0143f-6ee3-4255-b825-48be7729258e","system_id":"levelo_inurba_marseille","lat":43.26675,"lon":5.38263,"is_reserved":false,"is_disabled":true,"rental_uris":{"android":"levelo://app?vid=cbd0143f-6ee3-4255-b825-48be7729258e","ios":"levelo://app?vid=cbd0143f-6ee3-4255-b825-48be7729258e"},"vehicle_type_id":"4","last_reported":1741083064,"current_range_meters":0,"station_id":"ce4bhg92rcd13ifvqf90","pricing_plan_id":"cebpf4jnsgd1na2vs0mg"},{"bike_id":"f99e45d3-580e-4248-9d30-690b17e65759","system_id":"levelo_inurba_marseille","lat":43.26223,"lon":5.40454,"is_reserved":false,"is_disabled":true,"rental_uris":{"android":"levelo://app?vid=f99e45d3-580e-4248-9d30-690b17e65759","ios":"levelo://app?vid=f99e45d3-580e-4248-9d30-690b17e65759"},"vehicle_type_id":"4","last_reported":1741083064,"current_range_meters":0,"station_id":"ce4bhmh2rcd13ifvqgmg","pricing_plan_id":"cebpf4jnsgd1na2vs0mg"},{"bike_id":"083a6d84-a789-4232-b878-b3bb676e2939","system_id":"levelo_inurba_marseille","lat":43.241781,"lon":5.397218,"is_reserved":false,"is_disabled":true,"rental_uris":{"android":"levelo://app?vid=083a6d84-a789-4232-b878-b3bb676e2939","ios":"levelo://app?vid=083a6d84-a789-4232-b878-b3bb676e2939"},"vehicle_type_id":"4","last_reported":1741083064,"current_range_meters":0,"station_id":"ce4bhn12rcd13ifvqgpg","pricing_plan_id":"cebpf4jnsgd1na2vs0mg"},{"bike_id":"aa524952-a4da-4c0f-8220-db018d469bfd","system_id":"levelo_inurba_marseille","lat":43.31758,"lon":5.39011,"is_reserved":false,"is_disabled":true,"rental_uris":{"android":"levelo://app?vid=aa524952-a4da-4c0f-8220-db018d469bfd","ios":"levelo://app?vid=aa524952-a4da-4c0f-8220-db018d469bfd"},"vehicle_type_id":"4","last_reported":1741083064,"current_range_meters":0,"station_id":"ce4bhqp2rcd13ifvqhng","pricing_plan_id":"cebpf4jnsgd1na2vs0mg"},{"bike_id":"159f9310-8794-49fb-a220-8952622f65c5","system_id":"levelo_inurba_marseille","lat":43.31385,"lon":5.3669,"is_reserved":false,"is_disabled":true,"rental_uris":{"android":"levelo://app?vid=159f9310-8794-49fb-a220-8952622f65c5","ios":"levelo://app?vid=159f9310-8794-49fb-a220-8952622f65c5"},"vehicle_type_id":"4","last_reported":1741083064,"current_range_meters":400,"station_id":"","pricing_plan_id":"cebpf4jnsgd1na2vs0mg"},{"bike_id":"b2fe37ab-70bc-4c79-8dcd-a5166a30c759","system_id":"levelo_inurba_marseille","lat":43.29618,"lon":5.37725,"is_reserved":false,"is_disabled":true,"rental_uris":{"android":"levelo://app?vid=b2fe37ab-70bc-4c79-8dcd-a5166a30c759","ios":"levelo://app?vid=b2fe37ab-70bc-4c79-8dcd-a5166a30c759"},"vehicle_type_id":"4","last_reported":1741083064,"current_range_meters":400,"station_id":"ce4bgi92rcd13ifvqb90","pricing_plan_id":"cebpf4jnsgd1na2vs0mg"},{"bike_id":"bb74f9c9-ca6a-4820-8265-4c236c226639","system_id":"levelo_inurba_marseille","lat":43.25916,"lon":5.39871,"is_reserved":false,"is_disabled":true,"rental_uris":{"android":"levelo://app?vid=bb74f9c9-ca6a-4820-8265-4c236c226639","ios":"levelo://app?vid=bb74f9c9-ca6a-4820-8265-4c236c226639"},"vehicle_type_id":"4","last_reported":1741083064,"current_range_meters":400,"station_id":"ce4bhl92rcd13ifvqghg","pricing_plan_id":"cebpf4jnsgd1na2vs0mg"},{"bike_id":"f5c4edba-9351-45dd-95b4-c426f6de95f4","system_id":"levelo_inurba_marseille","lat":43.30943,"lon":5.39044,"is_reserved":false,"is_disabled":true,"rental_uris":{"android":"levelo://app?vid=f5c4edba-9351-45dd-95b4-c426f6de95f4","ios":"levelo://app?vid=f5c4edba-9351-45dd-95b4-c426f6de95f4"},"vehicle_type_id":"4","last_reported":1741083064,"current_range_meters":800,"station_id":"ce4bgup2rcd13ifvqco0","pricing_plan_id":"cebpf4jnsgd1na2vs0mg"},{"bike_id":"4a8267a4-0dd9-43c2-b4cb-5d6291a3df68","system_id":"levelo_inurba_marseille","lat":43.33002,"lon":5.39023,"is_reserved":false,"is_disabled":true,"rental_uris":{"android":"levelo://app?vid=4a8267a4-0dd9-43c2-b4cb-5d6291a3df68","ios":"levelo://app?vid=4a8267a4-0dd9-43c2-b4cb-5d6291a3df68"},"vehicle_type_id":"4","last_reported":1741083064,"current_range_meters":800,"station_id":"ce4bhr92rcd13ifvqhrg","pricing_plan_id":"cebpf4jnsgd1na2vs0mg"},{"bike_id":"89c7787f-4df9-4483-86ec-458b6b45921b","system_id":"levelo_inurba_marseille","lat":43.32488,"lon":5.36553,"is_reserved":false,"is_disabled":true,"rental_uris":{"android":"levelo://app?vid=89c7787f-4df9-4483-86ec-458b6b45921b","ios":"levelo://app?vid=89c7787f-4df9-4483-86ec-458b6b45921b"},"vehicle_type_id":"4","last_reported":1741083064,"current_range_meters":800,"station_id":"ce4bhs12rcd13ifvqhvg","pricing_plan_id":"cebpf4jnsgd1na2vs0mg"},{"bike_id":"131fcd9f-4360-420a-b67e-b961fd6e05ea","system_id":"levelo_inurba_marseille","lat":43.30526,"lon":5.3729,"is_reserved":false,"is_disabled":true,"rental_uris":{"android":"levelo://app?vid=131fcd9f-4360-420a-b67e-b961fd6e05ea","ios":"levelo://app?vid=131fcd9f-4360-420a-b67e-b961fd6e05ea"},"vehicle_type_id":"4","last_reported":1741083064,"current_range_meters":1200,"station_id":"","pricing_plan_id":"cebpf4jnsgd1na2vs0mg"},{"bike_id":"11bba966-8706-41dc-9e7d-ba6f1e98d1e0","system_id":"levelo_inurba_marseille","lat":43.29576,"lon":5.37506,"is_reserved":false,"is_disabled":true,"rental_uris":{"android":"levelo://app?vid=11bba966-8706-41dc-9e7d-ba6f1e98d1e0","ios":"levelo://app?vid=11bba966-8706-41dc-9e7d-ba6f1e98d1e0"},"vehicle_type_id":"4","last_reported":1741083064,"current_range_meters":1200,"station_id":"ce4bgh92rcd13ifvqb50","pricing_plan_id":"cebpf4jnsgd1na2vs0mg"},{"bike_id":"697fb895-2a17-482b-b895-a2c97ed78e73","system_id":"levelo_inurba_marseille","lat":43.30925,"lon":5.36823,"is_reserved":false,"is_disabled":true,"rental_uris":{"android":"levelo://app?vid=697fb895-2a17-482b-b895-a2c97ed78e73","ios":"levelo://app?vid=697fb895-2a17-482b-b895-a2c97ed78e73"},"vehicle_type_id":"4","last_reported":1741083064,"current_range_meters":2000,"station_id":"ce4bgn92rcd13ifvqbvg","pricing_plan_id":"cebpf4jnsgd1na2vs0mg"},{"bike_id":"37b9ef76-6552-4980-9870-f60f6671e101","system_id":"levelo_inurba_marseille","lat":43.2396,"lon":5.36628,"is_reserved":false,"is_disabled":true,"rental_uris":{"android":"levelo://app?vid=37b9ef76-6552-4980-9870-f60f6671e101","ios":"levelo://app?vid=37b9ef76-6552-4980-9870-f60f6671e101"},"vehicle_type_id":"4","last_reported":1741083064,"current_range_meters":2000,"station_id":"ce4bhi12rcd13ifvqfp0","pricing_plan_id":"cebpf4jnsgd1na2vs0mg"},{"bike_id":"43fc3799-af81-481c-9ed4-0b716916493d","system_id":"levelo_inurba_marseille","lat":43.33608,"lon":5.41037,"is_reserved":false,"is_disabled":true,"rental_uris":{"android":"levelo://app?vid=43fc3799-af81-481c-9ed4-0b716916493d","ios":"levelo://app?vid=43fc3799-af81-481c-9ed4-0b716916493d"},"vehicle_type_id":"4","last_reported":1741083064,"current_range_meters":2000,"station_id":"ce4bhqh2rcd13ifvqhmg","pricing_plan_id":"cebpf4jnsgd1na2vs0mg"},{"bike_id":"b4f3536c-bb11-4e20-900e-2d535e84ca8e","system_id":"levelo_inurba_marseille","lat":43.26214,"lon":5.37455,"is_reserved":false,"is_disabled":false,"rental_uris":{"android":"levelo://app?vid=b4f3536c-bb11-4e20-900e-2d535e84ca8e","ios":"levelo://app?vid=b4f3536c-bb11-4e20-900e-2d535e84ca8e"},"vehicle_type_id":"4","last_reported":1741083064,"current_range_meters":2800,"station_id":"ce4bhgp2rcd13ifvqfc0","pricing_plan_id":"cebpf4jnsgd1na2vs0mg"},{"bike_id":"bdc0d86b-158f-48b5-808d-0ee984ec4da8","system_id":"levelo_inurba_marseille","lat":43.24076,"lon":5.37757,"is_reserved":false,"is_disabled":false,"rental_uris":{"android":"levelo://app?vid=bdc0d86b-158f-48b5-808d-0ee984ec4da8","ios":"levelo://app?vid=bdc0d86b-158f-48b5-808d-0ee984ec4da8"},"vehicle_type_id":"4","last_reported":1741083064,"current_range_meters":2800,"station_id":"ce4bhnp2rcd13ifvqgvg","pricing_plan_id":"cebpf4jnsgd1na2vs0mg"},{"bike_id":"fd55ec61-ea03-4691-8f74-530e74ea7311","system_id":"levelo_inurba_marseille","lat":43.25,"lon":5.38897,"is_reserved":false,"is_disabled":false,"rental_uris":{"android":"levelo://app?vid=fd55ec61-ea03-4691-8f74-530e74ea7311","ios":"levelo://app?vid=fd55ec61-ea03-4691-8f74-530e74ea7311"},"vehicle_type_id":"4","last_reported":1741083064,"current_range_meters":3200,"station_id":"ce4bhgp2rcd13ifvqfd0","pricing_plan_id":"cebpf4jnsgd1na2vs0mg"},{"bike_id":"959b0f4f-1354-49f8-8fd4-68f8d93f25e1","system_id":"levelo_inurba_marseille","lat":43.31193,"lon":5.3678,"is_reserved":false,"is_disabled":false,"rental_uris":{"android":"levelo://app?vid=959b0f4f-1354-49f8-8fd4-68f8d93f25e1","ios":"levelo://app?vid=959b0f4f-1354-49f8-8fd4-68f8d93f25e1"},"vehicle_type_id":"4","last_reported":1741083064,"current_range_meters":3600,"station_id":"","pricing_plan_id":"cebpf4jnsgd1na2vs0mg"},{"bike_id":"415e4f81-45a1-4c5f-8015-46df32e81f0c","system_id":"levelo_inurba_marseille","lat":43.29708,"lon":5.37701,"is_reserved":false,"is_disabled":false,"rental_uris":{"android":"levelo://app?vid=415e4f81-45a1-4c5f-8015-46df32e81f0c","ios":"levelo://app?vid=415e4f81-45a1-4c5f-8015-46df32e81f0c"},"vehicle_type_id":"4","last_reported":1741083064,"current_range_meters":3600,"station_id":"ce4bgkh2rcd13ifvqbl0","pricing_plan_id":"cebpf4jnsgd1na2vs0mg"},{"bike_id":"f8fc398e-349a-4121-8b13-f0e73e82fbfd","system_id":"levelo_inurba_marseille","lat":43.23217,"lon":5.35536,"is_reserved":false,"is_disabled":false,"rental_uris":{"android":"levelo://app?vid=f8fc398e-349a-4121-8b13-f0e73e82fbfd","ios":"levelo://app?vid=f8fc398e-349a-4121-8b13-f0e73e82fbfd"},"vehicle_type_id":"4","last_reported":1741083064,"current_range_meters":3600,"station_id":"ce4bhu92rcd13ifvqi70","pricing_plan_id":"cebpf4jnsgd1na2vs0mg"},{"bike_id":"11413a7b-d136-4094-8b6c-54cd498d1d44","system_id":"levelo_inurba_marseille","lat":43.26062,"lon":5.39394,"is_reserved":false,"is_disabled":false,"rental_uris":{"android":"levelo://app?vid=11413a7b-d136-4094-8b6c-54cd498d1d44","ios":"levelo://app?vid=11413a7b-d136-4094-8b6c-54cd498d1d44"},"vehicle_type_id":"4","last_reported":1741083064,"current_range_meters":4000,"station_id":"ce4bhh92rcd13ifvqfj0","pricing_plan_id":"cebpf4jnsgd1na2vs0mg"},{"bike_id":"2f9e49ee-4ff7-44f7-9c11-156da7dcdd6c","system_id":"levelo_inurba_marseille","lat":43.31366,"lon":5.3671,"is_reserved":false,"is_disabled":false,"rental_uris":{"android":"levelo://app?vid=2f9e49ee-4ff7-44f7-9c11-156da7dcdd6c","ios":"levelo://app?vid=2f9e49ee-4ff7-44f7-9c11-156da7dcdd6c"},"vehicle_type_id":"4","last_reported":1741083064,"current_range_meters":4400,"station_id":"ce4bgr92rcd13ifvqc6g","pricing_plan_id":"cebpf4jnsgd1na2vs0mg"},{"bike_id":"ebc3fc1a-7030-4882-a262-77082338911c","system_id":"levelo_inurba_marseille","lat":43.23953,"lon":5.36629,"is_reserved":false,"is_disabled":false,"rental_uris":{"android":"levelo://app?vid=ebc3fc1a-7030-4882-a262-77082338911c","ios":"levelo://app?vid=ebc3fc1a-7030-4882-a262-77082338911c"},"vehicle_type_id":"4","last_reported":1741083064,"current_range_meters":4400,"station_id":"ce4bhi12rcd13ifvqfp0","pricing_plan_id":"cebpf4jnsgd1na2vs0mg"},{"bike_id":"022ada70-14aa-4352-9d0d-6b1502561eb8","system_id":"levelo_inurba_marseille","lat":43.31341,"lon":5.36719,"is_reserved":false,"is_disabled":false,"rental_uris":{"android":"levelo://app?vid=022ada70-14aa-4352-9d0d-6b1502561eb8","ios":"levelo://app?vid=022ada70-14aa-4352-9d0d-6b1502561eb8"},"vehicle_type_id":"4","last_reported":1741083064,"current_range_meters":4800,"station_id":"ce4bgr92rcd13ifvqc6g","pricing_plan_id":"cebpf4jnsgd1na2vs0mg"},{"bike_id":"8a4a20cb-b128-40fc-bb5e-61a4884911b4","system_id":"levelo_inurba_marseille","lat":43.29193,"lon":5.35803,"is_reserved":false,"is_disabled":false,"rental_uris":{"android":"levelo://app?vid=8a4a20cb-b128-40fc-bb5e-61a4884911b4","ios":"levelo://app?vid=8a4a20cb-b128-40fc-bb5e-61a4884911b4"},"vehicle_type_id":"4","last_reported":1741083064,"current_range_meters":4800,"station_id":"ce4bhb12rcd13ifvqel0","pricing_plan_id":"cebpf4jnsgd1na2vs0mg"},{"bike_id":"97a36015-2afb-4ca1-9fa9-f40fbe3dd7a7","system_id":"levelo_inurba_marseille","lat":43.24381,"lon":5.37057,"is_reserved":false,"is_disabled":false,"rental_uris":{"android":"levelo://app?vid=97a36015-2afb-4ca1-9fa9-f40fbe3dd7a7","ios":"levelo://app?vid=97a36015-2afb-4ca1-9fa9-f40fbe3dd7a7"},"vehicle_type_id":"4","last_reported":1741083064,"current_range_meters":4800,"station_id":"ce4bhhh2rcd13ifvqfk0","pricing_plan_id":"cebpf4jnsgd1na2vs0mg"},{"bike_id":"9db49163-1bcf-4cb4-975b-b1e9ddf4e6d9","system_id":"levelo_inurba_marseille","lat":43.2717,"lon":5.41029,"is_reserved":false,"is_disabled":false,"rental_uris":{"android":"levelo://app?vid=9db49163-1bcf-4cb4-975b-b1e9ddf4e6d9","ios":"levelo://app?vid=9db49163-1bcf-4cb4-975b-b1e9ddf4e6d9"},"vehicle_type_id":"4","last_reported":1741083064,"current_range_meters":4800,"station_id":"ce4bhl12rcd13ifvqgf0","pricing_plan_id":"cebpf4jnsgd1na2vs0mg"},{"bike_id":"339ea272-f25a-456c-877c-feadbff46552","system_id":"levelo_inurba_marseille","lat":43.27386,"lon":5.39373,"is_reserved":false,"is_disabled":false,"rental_uris":{"android":"levelo://app?vid=339ea272-f25a-456c-877c-feadbff46552","ios":"levelo://app?vid=339ea272-f25a-456c-877c-feadbff46552"},"vehicle_type_id":"4","last_reported":1741083064,"current_range_meters":5600,"station_id":"ce4bhdp2rcd13ifvqf20","pricing_plan_id":"cebpf4jnsgd1na2vs0mg"},{"bike_id":"b4881eb2-5326-4779-b955-e4fe653f1f9b","system_id":"levelo_inurba_marseille","lat":43.26675,"lon":5.38249,"is_reserved":false,"is_disabled":false,"rental_uris":{"android":"levelo://app?vid=b4881eb2-5326-4779-b955-e4fe653f1f9b","ios":"levelo://app?vid=b4881eb2-5326-4779-b955-e4fe653f1f9b"},"vehicle_type_id":"4","last_reported":1741083064,"current_range_meters":5600,"station_id":"ce4bhg92rcd13ifvqf90","pricing_plan_id":"cebpf4jnsgd1na2vs0mg"},{"bike_id":"df925d08-d02f-4568-b19b-35ac7aa87613","system_id":"levelo_inurba_marseille","lat":43.239572,"lon":5.366527,"is_reserved":false,"is_disabled":false,"rental_uris":{"android":"levelo://app?vid=df925d08-d02f-4568-b19b-35ac7aa87613","ios":"levelo://app?vid=df925d08-d02f-4568-b19b-35ac7aa87613"},"vehicle_type_id":"4","last_reported":1741083064,"current_range_meters":5600,"station_id":"ce4bhi12rcd13ifvqfp0","pricing_plan_id":"cebpf4jnsgd1na2vs0mg"},{"bike_id":"f381c9bd-14fa-41ab-b589-3ecebd6dfe48","system_id":"levelo_inurba_marseille","lat":43.3236,"lon":5.36722,"is_reserved":false,"is_disabled":false,"rental_uris":{"android":"levelo://app?vid=f381c9bd-14fa-41ab-b589-3ecebd6dfe48","ios":"levelo://app?vid=f381c9bd-14fa-41ab-b589-3ecebd6dfe48"},"vehicle_type_id":"4","last_reported":1741083064,"current_range_meters":5600,"station_id":"ce4bhsh2rcd13ifvqi2g","pricing_plan_id":"cebpf4jnsgd1na2vs0mg"},{"bike_id":"695aaaad-cdbd-4e20-83f0-9d55f9341e46","system_id":"levelo_inurba_marseille","lat":43.30537,"lon":5.36523,"is_reserved":false,"is_disabled":false,"rental_uris":{"android":"levelo://app?vid=695aaaad-cdbd-4e20-83f0-9d55f9341e46","ios":"levelo://app?vid=695aaaad-cdbd-4e20-83f0-9d55f9341e46"},"vehicle_type_id":"4","last_reported":1741083064,"current_range_meters":6000,"station_id":"ce4bgs12rcd13ifvqcag","pricing_plan_id":"cebpf4jnsgd1na2vs0mg"},{"bike_id":"76d154d9-de45-47c4-aa4e-ebc4dd631146","system_id":"levelo_inurba_marseille","lat":43.29251,"lon":5.3762,"is_reserved":false,"is_disabled":false,"rental_uris":{"android":"levelo://app?vid=76d154d9-de45-47c4-aa4e-ebc4dd631146","ios":"levelo://app?vid=76d154d9-de45-47c4-aa4e-ebc4dd631146"},"vehicle_type_id":"4","last_reported":1741083064,"current_range_meters":6400,"station_id":"ce4bgi12rcd13ifvqb80","pricing_plan_id":"cebpf4jnsgd1na2vs0mg"},{"bike_id":"d72d0ee2-a1af-4325-aefb-9a4543a5c459","system_id":"levelo_inurba_marseille","lat":43.30959,"lon":5.39038,"is_reserved":false,"is_disabled":false,"rental_uris":{"android":"levelo://app?vid=d72d0ee2-a1af-4325-aefb-9a4543a5c459","ios":"levelo://app?vid=d72d0ee2-a1af-4325-aefb-9a4543a5c459"},"vehicle_type_id":"4","last_reported":1741083064,"current_range_meters":6400,"station_id":"ce4bgup2rcd13ifvqco0","pricing_plan_id":"cebpf4jnsgd1na2vs0mg"},{"bike_id":"e06193dd-7938-46c3-a841-9a18b805f905","system_id":"levelo_inurba_marseille","lat":43.29279,"lon":5.36853,"is_reserved":false,"is_disabled":false,"rental_uris":{"android":"levelo://app?vid=e06193dd-7938-46c3-a841-9a18b805f905","ios":"levelo://app?vid=e06193dd-7938-46c3-a841-9a18b805f905"},"vehicle_type_id":"4","last_reported":1741083064,"current_range_meters":6400,"station_id":"ce4bhbp2rcd13ifvqesg","pricing_plan_id":"cebpf4jnsgd1na2vs0mg"},{"bike_id":"94a6a35b-8412-4d9f-8508-3782f328eeff","system_id":"levelo_inurba_marseille","lat":43.27065,"lon":5.42277,"is_reserved":false,"is_disabled":false,"rental_uris":{"android":"levelo://app?vid=94a6a35b-8412-4d9f-8508-3782f328eeff","ios":"levelo://app?vid=94a6a35b-8412-4d9f-8508-3782f328eeff"},"vehicle_type_id":"4","last_reported":1741083064,"current_range_meters":6400,"station_id":"ce4bhk92rcd13ifvqgb0","pricing_plan_id":"cebpf4jnsgd1na2vs0mg"},{"bike_id":"c6c8a855-ecf5-4557-a0c8-75d24b6a35cf","system_id":"levelo_inurba_marseille","lat":43.25108,"lon":5.40322,"is_reserved":false,"is_disabled":false,"rental_uris":{"android":"levelo://app?vid=c6c8a855-ecf5-4557-a0c8-75d24b6a35cf","ios":"levelo://app?vid=c6c8a855-ecf5-4557-a0c8-75d24b6a35cf"},"vehicle_type_id":"4","last_reported":1741083064,"current_range_meters":6400,"station_id":"ce4bhlh2rcd13ifvqgig","pricing_plan_id":"cebpf4jnsgd1na2vs0mg"},{"bike_id":"351a78a5-52e0-4fcc-968c-d2f55f5b2d81","system_id":"levelo_inurba_marseille","lat":43.25925,"lon":5.409,"is_reserved":false,"is_disabled":false,"rental_uris":{"android":"levelo://app?vid=351a78a5-52e0-4fcc-968c-d2f55f5b2d81","ios":"levelo://app?vid=351a78a5-52e0-4fcc-968c-d2f55f5b2d81"},"vehicle_type_id":"4","last_reported":1741083064,"current_range_meters":6400,"station_id":"ce4bhm92rcd13ifvqglg","pricing_plan_id":"cebpf4jnsgd1na2vs0mg"},{"bike_id":"40323d2b-7fa4-44fa-8afd-3105efa74518","system_id":"levelo_inurba_marseille","lat":43.24178,"lon":5.39777,"is_reserved":false,"is_disabled":false,"rental_uris":{"android":"levelo://app?vid=40323d2b-7fa4-44fa-8afd-3105efa74518","ios":"levelo://app?vid=40323d2b-7fa4-44fa-8afd-3105efa74518"},"vehicle_type_id":"4","last_reported":1741083064,"current_range_meters":6400,"station_id":"ce4bhn12rcd13ifvqgpg","pricing_plan_id":"cebpf4jnsgd1na2vs0mg"},{"bike_id":"f5824151-45a8-40ad-a0e6-e80ea5e5887d","system_id":"levelo_inurba_marseille","lat":43.30524,"lon":5.36524,"is_reserved":false,"is_disabled":false,"rental_uris":{"android":"levelo://app?vid=f5824151-45a8-40ad-a0e6-e80ea5e5887d","ios":"levelo://app?vid=f5824151-45a8-40ad-a0e6-e80ea5e5887d"},"vehicle_type_id":"4","last_reported":1741083064,"current_range_meters":6800,"station_id":"ce4bgs12rcd13ifvqcag","pricing_plan_id":"cebpf4jnsgd1na2vs0mg"},{"bike_id":"5c38698a-4358-411e-9fca-1af5ed216224","system_id":"levelo_inurba_marseille","lat":43.30476,"lon":5.37914,"is_reserved":false,"is_disabled":false,"rental_uris":{"android":"levelo://app?vid=5c38698a-4358-411e-9fca-1af5ed216224","ios":"levelo://app?vid=5c38698a-4358-411e-9fca-1af5ed216224"},"vehicle_type_id":"4","last_reported":1741083064,"current_range_meters":6800,"station_id":"ce4bgup2rcd13ifvqcn0","pricing_plan_id":"cebpf4jnsgd1na2vs0mg"},{"bike_id":"9b7c1c7b-1355-45e8-92d2-3eb4593c10b1","system_id":"levelo_inurba_marseille","lat":43.29004,"lon":5.35613,"is_reserved":false,"is_disabled":false,"rental_uris":{"android":"levelo://app?vid=9b7c1c7b-1355-45e8-92d2-3eb4593c10b1","ios":"levelo://app?vid=9b7c1c7b-1355-45e8-92d2-3eb4593c10b1"},"vehicle_type_id":"4","last_reported":1741083064,"current_range_meters":6800,"station_id":"ce4bhb92rcd13ifvqen0","pricing_plan_id":"cebpf4jnsgd1na2vs0mg"},{"bike_id":"69539ccb-ca63-4555-bd43-968ddad5c3c6","system_id":"levelo_inurba_marseille","lat":43.25022,"lon":5.38934,"is_reserved":false,"is_disabled":false,"rental_uris":{"android":"levelo://app?vid=69539ccb-ca63-4555-bd43-968ddad5c3c6","ios":"levelo://app?vid=69539ccb-ca63-4555-bd43-968ddad5c3c6"},"vehicle_type_id":"4","last_reported":1741083064,"current_range_meters":6800,"station_id":"ce4bhgp2rcd13ifvqfd0","pricing_plan_id":"cebpf4jnsgd1na2vs0mg"},{"bike_id":"7bea709c-85af-4216-a8e5-19de784dd721","system_id":"levelo_inurba_marseille","lat":43.27811,"lon":5.40724,"is_reserved":false,"is_disabled":false,"rental_uris":{"android":"levelo://app?vid=7bea709c-85af-4216-a8e5-19de784dd721","ios":"levelo://app?vid=7bea709c-85af-4216-a8e5-19de784dd721"},"vehicle_type_id":"4","last_reported":1741083064,"current_range_meters":6800,"station_id":"ce4bhnh2rcd13ifvqgtg","pricing_plan_id":"cebpf4jnsgd1na2vs0mg"},{"bike_id":"1c55a6c6-702a-485d-b26d-7769e12ec3a9","system_id":"levelo_inurba_marseille","lat":43.289675,"lon":5.378352,"is_reserved":false,"is_disabled":false,"rental_uris":{"android":"levelo://app?vid=1c55a6c6-702a-485d-b26d-7769e12ec3a9","ios":"levelo://app?vid=1c55a6c6-702a-485d-b26d-7769e12ec3a9"},"vehicle_type_id":"4","last_reported":1741083064,"current_range_meters":6800,"station_id":"ce4bhoh2rcd13ifvqh5g","pricing_plan_id":"cebpf4jnsgd1na2vs0mg"},{"bike_id":"04e50341-3bdc-48c5-8482-74448f4459c6","system_id":"levelo_inurba_marseille","lat":43.30494,"lon":5.37899,"is_reserved":false,"is_disabled":false,"rental_uris":{"android":"levelo://app?vid=04e50341-3bdc-48c5-8482-74448f4459c6","ios":"levelo://app?vid=04e50341-3bdc-48c5-8482-74448f4459c6"},"vehicle_type_id":"4","last_reported":1741083064,"current_range_meters":7200,"station_id":"ce4bgup2rcd13ifvqcn0","pricing_plan_id":"cebpf4jnsgd1na2vs0mg"},{"bike_id":"090476aa-712c-4191-be10-2119071f2ac3","system_id":"levelo_inurba_marseille","lat":43.29276,"lon":5.36842,"is_reserved":false,"is_disabled":false,"rental_uris":{"android":"levelo://app?vid=090476aa-712c-4191-be10-2119071f2ac3","ios":"levelo://app?vid=090476aa-712c-4191-be10-2119071f2ac3"},"vehicle_type_id":"4","last_reported":1741083064,"current_range_meters":7200,"station_id":"ce4bhbp2rcd13ifvqesg","pricing_plan_id":"cebpf4jnsgd1na2vs0mg"},{"bike_id":"26a88ac7-2408-425f-8602-072f2d050054","system_id":"levelo_inurba_marseille","lat":43.24803,"lon":5.37461,"is_reserved":false,"is_disabled":false,"rental_uris":{"android":"levelo://app?vid=26a88ac7-2408-425f-8602-072f2d050054","ios":"levelo://app?vid=26a88ac7-2408-425f-8602-072f2d050054"},"vehicle_type_id":"4","last_reported":1741083064,"current_range_meters":7200,"station_id":"ce4bhgh2rcd13ifvqfb0","pricing_plan_id":"cebpf4jnsgd1na2vs0mg"},{"bike_id":"9bfc54f5-128f-4a06-9a78-3f9fa545ef76","system_id":"levelo_inurba_marseille","lat":43.26787,"lon":5.39411,"is_reserved":false,"is_disabled":false,"rental_uris":{"android":"levelo://app?vid=9bfc54f5-128f-4a06-9a78-3f9fa545ef76","ios":"levelo://app?vid=9bfc54f5-128f-4a06-9a78-3f9fa545ef76"},"vehicle_type_id":"4","last_reported":1741083064,"current_range_meters":7200,"station_id":"ce4bhh12rcd13ifvqfg0","pricing_plan_id":"cebpf4jnsgd1na2vs0mg"},{"bike_id":"4e9114a6-9327-4619-b114-00e483817824","system_id":"levelo_inurba_marseille","lat":43.23965,"lon":5.36668,"is_reserved":false,"is_disabled":false,"rental_uris":{"android":"levelo://app?vid=4e9114a6-9327-4619-b114-00e483817824","ios":"levelo://app?vid=4e9114a6-9327-4619-b114-00e483817824"},"vehicle_type_id":"4","last_reported":1741083064,"current_range_meters":7200,"station_id":"ce4bhi12rcd13ifvqfp0","pricing_plan_id":"cebpf4jnsgd1na2vs0mg"},{"bike_id":"2153cca3-a190-4982-9370-a46f24ffe4b0","system_id":"levelo_inurba_marseille","lat":43.27055,"lon":5.40261,"is_reserved":false,"is_disabled":false,"rental_uris":{"android":"levelo://app?vid=2153cca3-a190-4982-9370-a46f24ffe4b0","ios":"levelo://app?vid=2153cca3-a190-4982-9370-a46f24ffe4b0"},"vehicle_type_id":"4","last_reported":1741083064,"current_range_meters":7200,"station_id":"ce4bhk92rcd13ifvqgc0","pricing_plan_id":"cebpf4jnsgd1na2vs0mg"},{"bike_id":"90a47c55-7d0c-4b6b-94e5-81e21155469e","system_id":"levelo_inurba_marseille","lat":43.23153,"lon":5.43708,"is_reserved":false,"is_disabled":false,"rental_uris":{"android":"levelo://app?vid=90a47c55-7d0c-4b6b-94e5-81e21155469e","ios":"levelo://app?vid=90a47c55-7d0c-4b6b-94e5-81e21155469e"},"vehicle_type_id":"4","last_reported":1741083064,"current_range_meters":7200,"station_id":"ce4bhmp2rcd13ifvqgog","pricing_plan_id":"cebpf4jnsgd1na2vs0mg"},{"bike_id":"04f94e51-a3fa-484a-889c-224ac7e5fccf","system_id":"levelo_inurba_marseille","lat":43.23179,"lon":5.39993,"is_reserved":false,"is_disabled":false,"rental_uris":{"android":"levelo://app?vid=04f94e51-a3fa-484a-889c-224ac7e5fccf","ios":"levelo://app?vid=04f94e51-a3fa-484a-889c-224ac7e5fccf"},"vehicle_type_id":"4","last_reported":1741083064,"current_range_meters":7200,"station_id":"ce4bhn12rcd13ifvqgqg","pricing_plan_id":"cebpf4jnsgd1na2vs0mg"},{"bike_id":"dd328e49-4345-4f25-8b36-884e658153f5","system_id":"levelo_inurba_marseille","lat":43.24082,"lon":5.37757,"is_reserved":false,"is_disabled":false,"rental_uris":{"android":"levelo://app?vid=dd328e49-4345-4f25-8b36-884e658153f5","ios":"levelo://app?vid=dd328e49-4345-4f25-8b36-884e658153f5"},"vehicle_type_id":"4","last_reported":1741083064,"current_range_meters":7200,"station_id":"ce4bhnp2rcd13ifvqgvg","pricing_plan_id":"cebpf4jnsgd1na2vs0mg"},{"bike_id":"a7f234ae-8634-41de-bd1b-f6a44332a1a1","system_id":"levelo_inurba_marseille","lat":43.30951,"lon":5.39036,"is_reserved":false,"is_disabled":false,"rental_uris":{"android":"levelo://app?vid=a7f234ae-8634-41de-bd1b-f6a44332a1a1","ios":"levelo://app?vid=a7f234ae-8634-41de-bd1b-f6a44332a1a1"},"vehicle_type_id":"4","last_reported":1741083064,"current_range_meters":8000,"station_id":"ce4bgup2rcd13ifvqco0","pricing_plan_id":"cebpf4jnsgd1na2vs0mg"},{"bike_id":"0305604b-c288-481e-91cf-60a0791f52ea","system_id":"levelo_inurba_marseille","lat":43.29253,"lon":5.409,"is_reserved":false,"is_disabled":false,"rental_uris":{"android":"levelo://app?vid=0305604b-c288-481e-91cf-60a0791f52ea","ios":"levelo://app?vid=0305604b-c288-481e-91cf-60a0791f52ea"},"vehicle_type_id":"4","last_reported":1741083064,"current_range_meters":8000,"station_id":"ce4bh192rcd13ifvqdc0","pricing_plan_id":"cebpf4jnsgd1na2vs0mg"},{"bike_id":"e599aac0-c825-4643-aeb1-c2d8b1ae00e8","system_id":"levelo_inurba_marseille","lat":43.24172,"lon":5.39729,"is_reserved":false,"is_disabled":false,"rental_uris":{"android":"levelo://app?vid=e599aac0-c825-4643-aeb1-c2d8b1ae00e8","ios":"levelo://app?vid=e599aac0-c825-4643-aeb1-c2d8b1ae00e8"},"vehicle_type_id":"4","last_reported":1741083064,"current_range_meters":8000,"station_id":"ce4bhn12rcd13ifvqgpg","pricing_plan_id":"cebpf4jnsgd1na2vs0mg"},{"bike_id":"d20d4ac0-3e72-4d7c-b740-440a0b15f885","system_id":"levelo_inurba_marseille","lat":43.24179,"lon":5.3973,"is_reserved":false,"is_disabled":false,"rental_uris":{"android":"levelo://app?vid=d20d4ac0-3e72-4d7c-b740-440a0b15f885","ios":"levelo://app?vid=d20d4ac0-3e72-4d7c-b740-440a0b15f885"},"vehicle_type_id":"4","last_reported":1741083064,"current_range_meters":8000,"station_id":"ce4bhn12rcd13ifvqgpg","pricing_plan_id":"cebpf4jnsgd1na2vs0mg"},{"bike_id":"26e5bc8f-7a9e-4fc7-bdd5-1733ec11e20f","system_id":"levelo_inurba_marseille","lat":43.24064,"lon":5.37766,"is_reserved":false,"is_disabled":false,"rental_uris":{"android":"levelo://app?vid=26e5bc8f-7a9e-4fc7-bdd5-1733ec11e20f","ios":"levelo://app?vid=26e5bc8f-7a9e-4fc7-bdd5-1733ec11e20f"},"vehicle_type_id":"4","last_reported":1741083064,"current_range_meters":8000,"station_id":"ce4bhnp2rcd13ifvqgvg","pricing_plan_id":"cebpf4jnsgd1na2vs0mg"},{"bike_id":"f89a2d92-5710-46e0-803c-10b75e36ea5f","system_id":"levelo_inurba_marseille","lat":43.3189,"lon":5.40746,"is_reserved":false,"is_disabled":false,"rental_uris":{"android":"levelo://app?vid=f89a2d92-5710-46e0-803c-10b75e36ea5f","ios":"levelo://app?vid=f89a2d92-5710-46e0-803c-10b75e36ea5f"},"vehicle_type_id":"4","last_reported":1741083064,"current_range_meters":8000,"station_id":"ce4bhq12rcd13ifvqhig","pricing_plan_id":"cebpf4jnsgd1na2vs0mg"},{"bike_id":"785f65cf-1424-422b-aa1e-c33d7d9ad805","system_id":"levelo_inurba_marseille","lat":43.33642,"lon":5.40992,"is_reserved":false,"is_disabled":false,"rental_uris":{"android":"levelo://app?vid=785f65cf-1424-422b-aa1e-c33d7d9ad805","ios":"levelo://app?vid=785f65cf-1424-422b-aa1e-c33d7d9ad805"},"vehicle_type_id":"4","last_reported":1741083064,"current_range_meters":8000,"station_id":"ce4bhqh2rcd13ifvqhmg","pricing_plan_id":"cebpf4jnsgd1na2vs0mg"},{"bike_id":"ce8ef3d2-07e3-4512-8813-bcde53a01429","system_id":"levelo_inurba_marseille","lat":43.24185,"lon":5.36397,"is_reserved":false,"is_disabled":false,"rental_uris":{"android":"levelo://app?vid=ce8ef3d2-07e3-4512-8813-bcde53a01429","ios":"levelo://app?vid=ce8ef3d2-07e3-4512-8813-bcde53a01429"},"vehicle_type_id":"4","last_reported":1741083064,"current_range_meters":8000,"station_id":"cpo36qri1sfpv3e86is0","pricing_plan_id":"cebpf4jnsgd1na2vs0mg"},{"bike_id":"71cd5d9d-c4a9-4d7f-b25c-bd7ceef0b27e","system_id":"levelo_inurba_marseille","lat":43.31251,"lon":5.37787,"is_reserved":false,"is_disabled":false,"rental_uris":{"android":"levelo://app?vid=71cd5d9d-c4a9-4d7f-b25c-bd7ceef0b27e","ios":"levelo://app?vid=71cd5d9d-c4a9-4d7f-b25c-bd7ceef0b27e"},"vehicle_type_id":"4","last_reported":1741083064,"current_range_meters":8400,"station_id":"","pricing_plan_id":"cebpf4jnsgd1na2vs0mg"},{"bike_id":"2a42e159-751a-43f0-bd09-668ad455b029","system_id":"levelo_inurba_marseille","lat":43.25935,"lon":5.40908,"is_reserved":false,"is_disabled":false,"rental_uris":{"android":"levelo://app?vid=2a42e159-751a-43f0-bd09-668ad455b029","ios":"levelo://app?vid=2a42e159-751a-43f0-bd09-668ad455b029"},"vehicle_type_id":"4","last_reported":1741083064,"current_range_meters":8400,"station_id":"ce4bhm92rcd13ifvqglg","pricing_plan_id":"cebpf4jnsgd1na2vs0mg"},{"bike_id":"8dfd7383-0547-4fa3-9e5f-ee6518b6bd4b","system_id":"levelo_inurba_marseille","lat":43.25928,"lon":5.40914,"is_reserved":false,"is_disabled":false,"rental_uris":{"android":"levelo://app?vid=8dfd7383-0547-4fa3-9e5f-ee6518b6bd4b","ios":"levelo://app?vid=8dfd7383-0547-4fa3-9e5f-ee6518b6bd4b"},"vehicle_type_id":"4","last_reported":1741083064,"current_range_meters":8400,"station_id":"ce4bhm92rcd13ifvqglg","pricing_plan_id":"cebpf4jnsgd1na2vs0mg"},{"bike_id":"75a3cad6-0a3c-46e8-88ae-4dbb4a7cefa2","system_id":"levelo_inurba_marseille","lat":43.23153,"lon":5.43714,"is_reserved":false,"is_disabled":false,"rental_uris":{"android":"levelo://app?vid=75a3cad6-0a3c-46e8-88ae-4dbb4a7cefa2","ios":"levelo://app?vid=75a3cad6-0a3c-46e8-88ae-4dbb4a7cefa2"},"vehicle_type_id":"4","last_reported":1741083064,"current_range_meters":8400,"station_id":"ce4bhmp2rcd13ifvqgog","pricing_plan_id":"cebpf4jnsgd1na2vs0mg"},{"bike_id":"2c2f9e56-3ae9-4cdc-ab26-00084f6dff63","system_id":"levelo_inurba_marseille","lat":43.23146,"lon":5.43711,"is_reserved":false,"is_disabled":false,"rental_uris":{"android":"levelo://app?vid=2c2f9e56-3ae9-4cdc-ab26-00084f6dff63","ios":"levelo://app?vid=2c2f9e56-3ae9-4cdc-ab26-00084f6dff63"},"vehicle_type_id":"4","last_reported":1741083064,"current_range_meters":8400,"station_id":"ce4bhmp2rcd13ifvqgog","pricing_plan_id":"cebpf4jnsgd1na2vs0mg"},{"bike_id":"69cd3787-0277-4a5c-be2d-c41c86958702","system_id":"levelo_inurba_marseille","lat":43.24211,"lon":5.39758,"is_reserved":false,"is_disabled":false,"rental_uris":{"android":"levelo://app?vid=69cd3787-0277-4a5c-be2d-c41c86958702","ios":"levelo://app?vid=69cd3787-0277-4a5c-be2d-c41c86958702"},"vehicle_type_id":"4","last_reported":1741083064,"current_range_meters":8400,"station_id":"ce4bhn12rcd13ifvqgpg","pricing_plan_id":"cebpf4jnsgd1na2vs0mg"},{"bike_id":"d993b1be-249c-4988-9f5f-8c390b9e7f9b","system_id":"levelo_inurba_marseille","lat":43.27487,"lon":5.42462,"is_reserved":false,"is_disabled":false,"rental_uris":{"android":"levelo://app?vid=d993b1be-249c-4988-9f5f-8c390b9e7f9b","ios":"levelo://app?vid=d993b1be-249c-4988-9f5f-8c390b9e7f9b"},"vehicle_type_id":"4","last_reported":1741083064,"current_range_meters":8400,"station_id":"ce4bhn92rcd13ifvqgrg","pricing_plan_id":"cebpf4jnsgd1na2vs0mg"},{"bike_id":"6061a373-2501-450f-ae0e-48b80429b9e9","system_id":"levelo_inurba_marseille","lat":43.27825,"lon":5.40715,"is_reserved":false,"is_disabled":false,"rental_uris":{"android":"levelo://app?vid=6061a373-2501-450f-ae0e-48b80429b9e9","ios":"levelo://app?vid=6061a373-2501-450f-ae0e-48b80429b9e9"},"vehicle_type_id":"4","last_reported":1741083064,"current_range_meters":8400,"station_id":"ce4bhnh2rcd13ifvqgtg","pricing_plan_id":"cebpf4jnsgd1na2vs0mg"},{"bike_id":"c19a15c9-dc92-4f76-999f-70a9a6709dca","system_id":"levelo_inurba_marseille","lat":43.24073,"lon":5.37766,"is_reserved":false,"is_disabled":false,"rental_uris":{"android":"levelo://app?vid=c19a15c9-dc92-4f76-999f-70a9a6709dca","ios":"levelo://app?vid=c19a15c9-dc92-4f76-999f-70a9a6709dca"},"vehicle_type_id":"4","last_reported":1741083064,"current_range_meters":8400,"station_id":"ce4bhnp2rcd13ifvqgvg","pricing_plan_id":"cebpf4jnsgd1na2vs0mg"},{"bike_id":"346e7e1e-f5ad-4199-8951-d75428932c29","system_id":"levelo_inurba_marseille","lat":43.32477,"lon":5.3657,"is_reserved":false,"is_disabled":false,"rental_uris":{"android":"levelo://app?vid=346e7e1e-f5ad-4199-8951-d75428932c29","ios":"levelo://app?vid=346e7e1e-f5ad-4199-8951-d75428932c29"},"vehicle_type_id":"4","last_reported":1741083064,"current_range_meters":8400,"station_id":"ce4bhs12rcd13ifvqhvg","pricing_plan_id":"cebpf4jnsgd1na2vs0mg"},{"bike_id":"64953142-7637-42b4-b0d1-c449e63f1db7","system_id":"levelo_inurba_marseille","lat":43.296272,"lon":5.360308,"is_reserved":false,"is_disabled":false,"rental_uris":{"android":"levelo://app?vid=64953142-7637-42b4-b0d1-c449e63f1db7","ios":"levelo://app?vid=64953142-7637-42b4-b0d1-c449e63f1db7"},"vehicle_type_id":"4","last_reported":1741083064,"current_range_meters":8800,"station_id":"","pricing_plan_id":"cebpf4jnsgd1na2vs0mg"},{"bike_id":"32039365-9da2-4297-ba07-b74f03c3001e","system_id":"levelo_inurba_marseille","lat":43.3139,"lon":5.36662,"is_reserved":false,"is_disabled":false,"rental_uris":{"android":"levelo://app?vid=32039365-9da2-4297-ba07-b74f03c3001e","ios":"levelo://app?vid=32039365-9da2-4297-ba07-b74f03c3001e"},"vehicle_type_id":"4","last_reported":1741083064,"current_range_meters":8800,"station_id":"","pricing_plan_id":"cebpf4jnsgd1na2vs0mg"},{"bike_id":"ab61a201-a961-4db1-b489-f5c24d6967ad","system_id":"levelo_inurba_marseille","lat":43.30212,"lon":5.39473,"is_reserved":false,"is_disabled":false,"rental_uris":{"android":"levelo://app?vid=ab61a201-a961-4db1-b489-f5c24d6967ad","ios":"levelo://app?vid=ab61a201-a961-4db1-b489-f5c24d6967ad"},"vehicle_type_id":"4","last_reported":1741083064,"current_range_meters":8800,"station_id":"ce4bh0p2rcd13ifvqd70","pricing_plan_id":"cebpf4jnsgd1na2vs0mg"},{"bike_id":"27208026-26e4-4f82-a8dd-e6771ba70688","system_id":"levelo_inurba_marseille","lat":43.28885,"lon":5.38421,"is_reserved":false,"is_disabled":false,"rental_uris":{"android":"levelo://app?vid=27208026-26e4-4f82-a8dd-e6771ba70688","ios":"levelo://app?vid=27208026-26e4-4f82-a8dd-e6771ba70688"},"vehicle_type_id":"4","last_reported":1741083064,"current_range_meters":8800,"station_id":"ce4bh612rcd13ifvqe6g","pricing_plan_id":"cebpf4jnsgd1na2vs0mg"},{"bike_id":"ac8ac687-e653-42aa-8411-0abcf7c52b23","system_id":"levelo_inurba_marseille","lat":43.2707,"lon":5.42278,"is_reserved":false,"is_disabled":false,"rental_uris":{"android":"levelo://app?vid=ac8ac687-e653-42aa-8411-0abcf7c52b23","ios":"levelo://app?vid=ac8ac687-e653-42aa-8411-0abcf7c52b23"},"vehicle_type_id":"4","last_reported":1741083064,"current_range_meters":8800,"station_id":"ce4bhk92rcd13ifvqgb0","pricing_plan_id":"cebpf4jnsgd1na2vs0mg"},{"bike_id":"b7c7fbe5-74d4-42ab-95bd-b1c1045fe811","system_id":"levelo_inurba_marseille","lat":43.23147,"lon":5.43706,"is_reserved":false,"is_disabled":false,"rental_uris":{"android":"levelo://app?vid=b7c7fbe5-74d4-42ab-95bd-b1c1045fe811","ios":"levelo://app?vid=b7c7fbe5-74d4-42ab-95bd-b1c1045fe811"},"vehicle_type_id":"4","last_reported":1741083064,"current_range_meters":8800,"station_id":"ce4bhmp2rcd13ifvqgog","pricing_plan_id":"cebpf4jnsgd1na2vs0mg"},{"bike_id":"caedf473-9313-4874-87c8-230b4a1efdb8","system_id":"levelo_inurba_marseille","lat":43.32472,"lon":5.36586,"is_reserved":false,"is_disabled":false,"rental_uris":{"android":"levelo://app?vid=caedf473-9313-4874-87c8-230b4a1efdb8","ios":"levelo://app?vid=caedf473-9313-4874-87c8-230b4a1efdb8"},"vehicle_type_id":"4","last_reported":1741083064,"current_range_meters":8800,"station_id":"ce4bhs12rcd13ifvqhvg","pricing_plan_id":"cebpf4jnsgd1na2vs0mg"},{"bike_id":"41ed89d3-77cd-4311-8513-748a0ca63c4f","system_id":"levelo_inurba_marseille","lat":43.21253,"lon":5.35334,"is_reserved":false,"is_disabled":false,"rental_uris":{"android":"levelo://app?vid=41ed89d3-77cd-4311-8513-748a0ca63c4f","ios":"levelo://app?vid=41ed89d3-77cd-4311-8513-748a0ca63c4f"},"vehicle_type_id":"4","last_reported":1741083064,"current_range_meters":9200,"station_id":"","pricing_plan_id":"cebpf4jnsgd1na2vs0mg"},{"bike_id":"23af2eaf-dffd-4b7e-b084-d19f8d8add1b","system_id":"levelo_inurba_marseille","lat":43.30108,"lon":5.39081,"is_reserved":false,"is_disabled":false,"rental_uris":{"android":"levelo://app?vid=23af2eaf-dffd-4b7e-b084-d19f8d8add1b","ios":"levelo://app?vid=23af2eaf-dffd-4b7e-b084-d19f8d8add1b"},"vehicle_type_id":"4","last_reported":1741083064,"current_range_meters":9200,"station_id":"ce4bh192rcd13ifvqdb0","pricing_plan_id":"cebpf4jnsgd1na2vs0mg"},{"bike_id":"9d42f60f-c26c-4a66-9f76-720948aec98b","system_id":"levelo_inurba_marseille","lat":43.33608,"lon":5.41039,"is_reserved":false,"is_disabled":false,"rental_uris":{"android":"levelo://app?vid=9d42f60f-c26c-4a66-9f76-720948aec98b","ios":"levelo://app?vid=9d42f60f-c26c-4a66-9f76-720948aec98b"},"vehicle_type_id":"4","last_reported":1741083064,"current_range_meters":9200,"station_id":"ce4bhqh2rcd13ifvqhmg","pricing_plan_id":"cebpf4jnsgd1na2vs0mg"},{"bike_id":"9de42f25-f760-4086-9a08-2934eee1b520","system_id":"levelo_inurba_marseille","lat":43.21253,"lon":5.35335,"is_reserved":false,"is_disabled":false,"rental_uris":{"android":"levelo://app?vid=9de42f25-f760-4086-9a08-2934eee1b520","ios":"levelo://app?vid=9de42f25-f760-4086-9a08-2934eee1b520"},"vehicle_type_id":"4","last_reported":1741083064,"current_range_meters":9600,"station_id":"","pricing_plan_id":"cebpf4jnsgd1na2vs0mg"},{"bike_id":"f77f6f36-a3e8-4eac-9705-d385924f98db","system_id":"levelo_inurba_marseille","lat":43.2992,"lon":5.37474,"is_reserved":false,"is_disabled":false,"rental_uris":{"android":"levelo://app?vid=f77f6f36-a3e8-4eac-9705-d385924f98db","ios":"levelo://app?vid=f77f6f36-a3e8-4eac-9705-d385924f98db"},"vehicle_type_id":"4","last_reported":1741083064,"current_range_meters":9600,"station_id":"ce4bgjh2rcd13ifvqbg0","pricing_plan_id":"cebpf4jnsgd1na2vs0mg"},{"bike_id":"70270aba-9e71-4bf3-a303-fd33e3b12ce5","system_id":"levelo_inurba_marseille","lat":43.30944,"lon":5.39064,"is_reserved":false,"is_disabled":false,"rental_uris":{"android":"levelo://app?vid=70270aba-9e71-4bf3-a303-fd33e3b12ce5","ios":"levelo://app?vid=70270aba-9e71-4bf3-a303-fd33e3b12ce5"},"vehicle_type_id":"4","last_reported":1741083064,"current_range_meters":9600,"station_id":"ce4bgup2rcd13ifvqco0","pricing_plan_id":"cebpf4jnsgd1na2vs0mg"},{"bike_id":"efa122e0-3c4c-4020-a428-5d30dc834af5","system_id":"levelo_inurba_marseille","lat":43.298846,"lon":5.389091,"is_reserved":false,"is_disabled":false,"rental_uris":{"android":"levelo://app?vid=efa122e0-3c4c-4020-a428-5d30dc834af5","ios":"levelo://app?vid=efa122e0-3c4c-4020-a428-5d30dc834af5"},"vehicle_type_id":"4","last_reported":1741083064,"current_range_meters":9600,"station_id":"ce4bhb92rcd13ifvqen0","pricing_plan_id":"cebpf4jnsgd1na2vs0mg"},{"bike_id":"84fec035-354a-4069-b529-dc72d687ef58","system_id":"levelo_inurba_marseille","lat":43.27571,"lon":5.38431,"is_reserved":false,"is_disabled":false,"rental_uris":{"android":"levelo://app?vid=84fec035-354a-4069-b529-dc72d687ef58","ios":"levelo://app?vid=84fec035-354a-4069-b529-dc72d687ef58"},"vehicle_type_id":"4","last_reported":1741083064,"current_range_meters":9600,"station_id":"ce4bhh92rcd13ifvqfi0","pricing_plan_id":"cebpf4jnsgd1na2vs0mg"},{"bike_id":"0124053e-4260-4b6f-bb1d-d9ff69be9812","system_id":"levelo_inurba_marseille","lat":43.23151,"lon":5.43684,"is_reserved":false,"is_disabled":false,"rental_uris":{"android":"levelo://app?vid=0124053e-4260-4b6f-bb1d-d9ff69be9812","ios":"levelo://app?vid=0124053e-4260-4b6f-bb1d-d9ff69be9812"},"vehicle_type_id":"4","last_reported":1741083064,"current_range_meters":9600,"station_id":"ce4bhmp2rcd13ifvqgog","pricing_plan_id":"cebpf4jnsgd1na2vs0mg"},{"bike_id":"da4ffd80-e947-49ea-9805-14352859f87c","system_id":"levelo_inurba_marseille","lat":43.24081,"lon":5.37748,"is_reserved":false,"is_disabled":false,"rental_uris":{"android":"levelo://app?vid=da4ffd80-e947-49ea-9805-14352859f87c","ios":"levelo://app?vid=da4ffd80-e947-49ea-9805-14352859f87c"},"vehicle_type_id":"4","last_reported":1741083064,"current_range_meters":9600,"station_id":"ce4bhnp2rcd13ifvqgvg","pricing_plan_id":"cebpf4jnsgd1na2vs0mg"},{"bike_id":"d9209cce-b798-443c-8925-393059b1ad00","system_id":"levelo_inurba_marseille","lat":43.3055,"lon":5.36698,"is_reserved":false,"is_disabled":false,"rental_uris":{"android":"levelo://app?vid=d9209cce-b798-443c-8925-393059b1ad00","ios":"levelo://app?vid=d9209cce-b798-443c-8925-393059b1ad00"},"vehicle_type_id":"4","last_reported":1741083064,"current_range_meters":10000,"station_id":"ce4bgrp2rcd13ifvqc9g","pricing_plan_id":"cebpf4jnsgd1na2vs0mg"},{"bike_id":"cb014a6b-6553-43cb-90ee-c6d22cf5883f","system_id":"levelo_inurba_marseille","lat":43.26065,"lon":5.39399,"is_reserved":false,"is_disabled":false,"rental_uris":{"android":"levelo://app?vid=cb014a6b-6553-43cb-90ee-c6d22cf5883f","ios":"levelo://app?vid=cb014a6b-6553-43cb-90ee-c6d22cf5883f"},"vehicle_type_id":"4","last_reported":1741083064,"current_range_meters":10000,"station_id":"ce4bhh92rcd13ifvqfj0","pricing_plan_id":"cebpf4jnsgd1na2vs0mg"},{"bike_id":"d9fdb3bb-a402-47b7-8596-8fa91513e3f2","system_id":"levelo_inurba_marseille","lat":43.23143,"lon":5.4371,"is_reserved":false,"is_disabled":false,"rental_uris":{"android":"levelo://app?vid=d9fdb3bb-a402-47b7-8596-8fa91513e3f2","ios":"levelo://app?vid=d9fdb3bb-a402-47b7-8596-8fa91513e3f2"},"vehicle_type_id":"4","last_reported":1741083064,"current_range_meters":10000,"station_id":"ce4bhmp2rcd13ifvqgog","pricing_plan_id":"cebpf4jnsgd1na2vs0mg"},{"bike_id":"7cd9901c-70ca-4048-9c3a-bcc77bae4a12","system_id":"levelo_inurba_marseille","lat":43.24064,"lon":5.37759,"is_reserved":false,"is_disabled":false,"rental_uris":{"android":"levelo://app?vid=7cd9901c-70ca-4048-9c3a-bcc77bae4a12","ios":"levelo://app?vid=7cd9901c-70ca-4048-9c3a-bcc77bae4a12"},"vehicle_type_id":"4","last_reported":1741083064,"current_range_meters":10000,"station_id":"ce4bhnp2rcd13ifvqgvg","pricing_plan_id":"cebpf4jnsgd1na2vs0mg"},{"bike_id":"b2c17c63-898b-4bf8-bd07-f7d1f9c58cb9","system_id":"levelo_inurba_marseille","lat":43.336022,"lon":5.410363,"is_reserved":false,"is_disabled":false,"rental_uris":{"android":"levelo://app?vid=b2c17c63-898b-4bf8-bd07-f7d1f9c58cb9","ios":"levelo://app?vid=b2c17c63-898b-4bf8-bd07-f7d1f9c58cb9"},"vehicle_type_id":"4","last_reported":1741083064,"current_range_meters":10000,"station_id":"ce4bhqh2rcd13ifvqhmg","pricing_plan_id":"cebpf4jnsgd1na2vs0mg"},{"bike_id":"78a14f46-f3f5-467f-a55d-acd7c597eda0","system_id":"levelo_inurba_marseille","lat":43.23176,"lon":5.3998,"is_reserved":false,"is_disabled":false,"rental_uris":{"android":"levelo://app?vid=78a14f46-f3f5-467f-a55d-acd7c597eda0","ios":"levelo://app?vid=78a14f46-f3f5-467f-a55d-acd7c597eda0"},"vehicle_type_id":"4","last_reported":1741083064,"current_range_meters":10800,"station_id":"","pricing_plan_id":"cebpf4jnsgd1na2vs0mg"},{"bike_id":"58564901-6ebd-44fb-b4a2-1f8345947b81","system_id":"levelo_inurba_marseille","lat":43.29927,"lon":5.37487,"is_reserved":false,"is_disabled":false,"rental_uris":{"android":"levelo://app?vid=58564901-6ebd-44fb-b4a2-1f8345947b81","ios":"levelo://app?vid=58564901-6ebd-44fb-b4a2-1f8345947b81"},"vehicle_type_id":"4","last_reported":1741083064,"current_range_meters":10800,"station_id":"ce4bgjh2rcd13ifvqbg0","pricing_plan_id":"cebpf4jnsgd1na2vs0mg"},{"bike_id":"e7ec1ac1-2323-47bd-a2b5-7cd3afb282cf","system_id":"levelo_inurba_marseille","lat":43.26566,"lon":5.37322,"is_reserved":false,"is_disabled":false,"rental_uris":{"android":"levelo://app?vid=e7ec1ac1-2323-47bd-a2b5-7cd3afb282cf","ios":"levelo://app?vid=e7ec1ac1-2323-47bd-a2b5-7cd3afb282cf"},"vehicle_type_id":"4","last_reported":1741083064,"current_range_meters":10800,"station_id":"ce4bhg12rcd13ifvqf70","pricing_plan_id":"cebpf4jnsgd1na2vs0mg"},{"bike_id":"6b57ed52-3602-4885-8b20-f12ad365023a","system_id":"levelo_inurba_marseille","lat":43.27961,"lon":5.38732,"is_reserved":false,"is_disabled":false,"rental_uris":{"android":"levelo://app?vid=6b57ed52-3602-4885-8b20-f12ad365023a","ios":"levelo://app?vid=6b57ed52-3602-4885-8b20-f12ad365023a"},"vehicle_type_id":"4","last_reported":1741083064,"current_range_meters":10800,"station_id":"ce4bhg12rcd13ifvqf80","pricing_plan_id":"cebpf4jnsgd1na2vs0mg"},{"bike_id":"081667fd-bc9c-4dca-b101-127de1184ba8","system_id":"levelo_inurba_marseille","lat":43.26927,"lon":5.38921,"is_reserved":false,"is_disabled":false,"rental_uris":{"android":"levelo://app?vid=081667fd-bc9c-4dca-b101-127de1184ba8","ios":"levelo://app?vid=081667fd-bc9c-4dca-b101-127de1184ba8"},"vehicle_type_id":"4","last_reported":1741083064,"current_range_meters":10800,"station_id":"ce4bhhh2rcd13ifvqfl0","pricing_plan_id":"cebpf4jnsgd1na2vs0mg"},{"bike_id":"962f2263-64da-4284-9fa1-a7a0879fd8e9","system_id":"levelo_inurba_marseille","lat":43.25921,"lon":5.40917,"is_reserved":false,"is_disabled":false,"rental_uris":{"android":"levelo://app?vid=962f2263-64da-4284-9fa1-a7a0879fd8e9","ios":"levelo://app?vid=962f2263-64da-4284-9fa1-a7a0879fd8e9"},"vehicle_type_id":"4","last_reported":1741083064,"current_range_meters":10800,"station_id":"ce4bhm92rcd13ifvqglg","pricing_plan_id":"cebpf4jnsgd1na2vs0mg"},{"bike_id":"47c1ff3e-1a87-4465-bfe8-f64745b19f8c","system_id":"levelo_inurba_marseille","lat":43.302955,"lon":5.392105,"is_reserved":false,"is_disabled":false,"rental_uris":{"android":"levelo://app?vid=47c1ff3e-1a87-4465-bfe8-f64745b19f8c","ios":"levelo://app?vid=47c1ff3e-1a87-4465-bfe8-f64745b19f8c"},"vehicle_type_id":"4","last_reported":1741083064,"current_range_meters":10800,"station_id":"ce4bhop2rcd13ifvqh8g","pricing_plan_id":"cebpf4jnsgd1na2vs0mg"},{"bike_id":"d397688b-ab73-448f-92b9-a2a9588b40a4","system_id":"levelo_inurba_marseille","lat":43.23983,"lon":5.39704,"is_reserved":false,"is_disabled":false,"rental_uris":{"android":"levelo://app?vid=d397688b-ab73-448f-92b9-a2a9588b40a4","ios":"levelo://app?vid=d397688b-ab73-448f-92b9-a2a9588b40a4"},"vehicle_type_id":"4","last_reported":1741083064,"current_range_meters":11200,"station_id":"","pricing_plan_id":"cebpf4jnsgd1na2vs0mg"},{"bike_id":"9b968628-87b3-407c-818a-bf2730491bf3","system_id":"levelo_inurba_marseille","lat":43.31314,"lon":5.3672,"is_reserved":false,"is_disabled":false,"rental_uris":{"android":"levelo://app?vid=9b968628-87b3-407c-818a-bf2730491bf3","ios":"levelo://app?vid=9b968628-87b3-407c-818a-bf2730491bf3"},"vehicle_type_id":"4","last_reported":1741083064,"current_range_meters":11200,"station_id":"ce4bgr92rcd13ifvqc6g","pricing_plan_id":"cebpf4jnsgd1na2vs0mg"},{"bike_id":"a4c3698b-40cd-4d33-a9d9-689474fbe572","system_id":"levelo_inurba_marseille","lat":43.30958,"lon":5.39041,"is_reserved":false,"is_disabled":false,"rental_uris":{"android":"levelo://app?vid=a4c3698b-40cd-4d33-a9d9-689474fbe572","ios":"levelo://app?vid=a4c3698b-40cd-4d33-a9d9-689474fbe572"},"vehicle_type_id":"4","last_reported":1741083064,"current_range_meters":11200,"station_id":"ce4bgup2rcd13ifvqco0","pricing_plan_id":"cebpf4jnsgd1na2vs0mg"},{"bike_id":"2f590d8d-afbb-4203-b726-f46fab1cd3bc","system_id":"levelo_inurba_marseille","lat":43.2903,"lon":5.38132,"is_reserved":false,"is_disabled":false,"rental_uris":{"android":"levelo://app?vid=2f590d8d-afbb-4203-b726-f46fab1cd3bc","ios":"levelo://app?vid=2f590d8d-afbb-4203-b726-f46fab1cd3bc"},"vehicle_type_id":"4","last_reported":1741083064,"current_range_meters":11200,"station_id":"ce4bh4p2rcd13ifvqe1g","pricing_plan_id":"cebpf4jnsgd1na2vs0mg"},{"bike_id":"3118a718-8a5b-4936-ba40-2066d7436676","system_id":"levelo_inurba_marseille","lat":43.26782,"lon":5.39426,"is_reserved":false,"is_disabled":false,"rental_uris":{"android":"levelo://app?vid=3118a718-8a5b-4936-ba40-2066d7436676","ios":"levelo://app?vid=3118a718-8a5b-4936-ba40-2066d7436676"},"vehicle_type_id":"4","last_reported":1741083064,"current_range_meters":11200,"station_id":"ce4bhh12rcd13ifvqfg0","pricing_plan_id":"cebpf4jnsgd1na2vs0mg"},{"bike_id":"34361887-fdf5-449f-9f03-1aece50c838f","system_id":"levelo_inurba_marseille","lat":43.27497,"lon":5.42451,"is_reserved":false,"is_disabled":false,"rental_uris":{"android":"levelo://app?vid=34361887-fdf5-449f-9f03-1aece50c838f","ios":"levelo://app?vid=34361887-fdf5-449f-9f03-1aece50c838f"},"vehicle_type_id":"4","last_reported":1741083064,"current_range_meters":11200,"station_id":"ce4bhn92rcd13ifvqgrg","pricing_plan_id":"cebpf4jnsgd1na2vs0mg"},{"bike_id":"954ac7a7-f4c4-46c6-834d-8c900b27d01f","system_id":"levelo_inurba_marseille","lat":43.27492,"lon":5.42475,"is_reserved":false,"is_disabled":false,"rental_uris":{"android":"levelo://app?vid=954ac7a7-f4c4-46c6-834d-8c900b27d01f","ios":"levelo://app?vid=954ac7a7-f4c4-46c6-834d-8c900b27d01f"},"vehicle_type_id":"4","last_reported":1741083064,"current_range_meters":11200,"station_id":"ce4bhn92rcd13ifvqgrg","pricing_plan_id":"cebpf4jnsgd1na2vs0mg"},{"bike_id":"44a7153b-0fd7-4509-836b-676bbf84fb06","system_id":"levelo_inurba_marseille","lat":43.23194,"lon":5.35565,"is_reserved":false,"is_disabled":false,"rental_uris":{"android":"levelo://app?vid=44a7153b-0fd7-4509-836b-676bbf84fb06","ios":"levelo://app?vid=44a7153b-0fd7-4509-836b-676bbf84fb06"},"vehicle_type_id":"4","last_reported":1741083064,"current_range_meters":11200,"station_id":"ce4bhu92rcd13ifvqi70","pricing_plan_id":"cebpf4jnsgd1na2vs0mg"},{"bike_id":"ee1d2ad1-36ca-49dd-a328-f2a9a9994ecb","system_id":"levelo_inurba_marseille","lat":43.31077,"lon":5.38149,"is_reserved":false,"is_disabled":false,"rental_uris":{"android":"levelo://app?vid=ee1d2ad1-36ca-49dd-a328-f2a9a9994ecb","ios":"levelo://app?vid=ee1d2ad1-36ca-49dd-a328-f2a9a9994ecb"},"vehicle_type_id":"4","last_reported":1741083064,"current_range_meters":11600,"station_id":"","pricing_plan_id":"cebpf4jnsgd1na2vs0mg"},{"bike_id":"fc890f05-5811-465b-af51-46eb46e95a90","system_id":"levelo_inurba_marseille","lat":43.25007,"lon":5.38909,"is_reserved":false,"is_disabled":false,"rental_uris":{"android":"levelo://app?vid=fc890f05-5811-465b-af51-46eb46e95a90","ios":"levelo://app?vid=fc890f05-5811-465b-af51-46eb46e95a90"},"vehicle_type_id":"4","last_reported":1741083064,"current_range_meters":11600,"station_id":"ce4bhgp2rcd13ifvqfd0","pricing_plan_id":"cebpf4jnsgd1na2vs0mg"},{"bike_id":"8c939673-acee-4493-a59f-9cec13cec966","system_id":"levelo_inurba_marseille","lat":43.24069,"lon":5.37765,"is_reserved":false,"is_disabled":false,"rental_uris":{"android":"levelo://app?vid=8c939673-acee-4493-a59f-9cec13cec966","ios":"levelo://app?vid=8c939673-acee-4493-a59f-9cec13cec966"},"vehicle_type_id":"4","last_reported":1741083064,"current_range_meters":11600,"station_id":"ce4bhnp2rcd13ifvqgvg","pricing_plan_id":"cebpf4jnsgd1na2vs0mg"},{"bike_id":"d443d9d1-8205-4ee6-b25d-859586eba0a3","system_id":"levelo_inurba_marseille","lat":43.28442,"lon":5.39202,"is_reserved":false,"is_disabled":false,"rental_uris":{"android":"levelo://app?vid=d443d9d1-8205-4ee6-b25d-859586eba0a3","ios":"levelo://app?vid=d443d9d1-8205-4ee6-b25d-859586eba0a3"},"vehicle_type_id":"4","last_reported":1741083064,"current_range_meters":11600,"station_id":"ce4bhoh2rcd13ifvqh5g","pricing_plan_id":"cebpf4jnsgd1na2vs0mg"},{"bike_id":"b656c8a0-ad11-4e82-9a70-402a1f892d91","system_id":"levelo_inurba_marseille","lat":43.30949,"lon":5.39028,"is_reserved":false,"is_disabled":false,"rental_uris":{"android":"levelo://app?vid=b656c8a0-ad11-4e82-9a70-402a1f892d91","ios":"levelo://app?vid=b656c8a0-ad11-4e82-9a70-402a1f892d91"},"vehicle_type_id":"4","last_reported":1741083064,"current_range_meters":12000,"station_id":"ce4bgup2rcd13ifvqco0","pricing_plan_id":"cebpf4jnsgd1na2vs0mg"},{"bike_id":"02bff527-d4a0-475c-9b2c-27076c547d1b","system_id":"levelo_inurba_marseille","lat":43.31327,"lon":5.39693,"is_reserved":false,"is_disabled":false,"rental_uris":{"android":"levelo://app?vid=02bff527-d4a0-475c-9b2c-27076c547d1b","ios":"levelo://app?vid=02bff527-d4a0-475c-9b2c-27076c547d1b"},"vehicle_type_id":"4","last_reported":1741083064,"current_range_meters":12000,"station_id":"ce4bgvp2rcd13ifvqcu0","pricing_plan_id":"cebpf4jnsgd1na2vs0mg"},{"bike_id":"dec90279-342f-4673-8128-46b7f2cdaef2","system_id":"levelo_inurba_marseille","lat":43.30651,"lon":5.4009,"is_reserved":false,"is_disabled":false,"rental_uris":{"android":"levelo://app?vid=dec90279-342f-4673-8128-46b7f2cdaef2","ios":"levelo://app?vid=dec90279-342f-4673-8128-46b7f2cdaef2"},"vehicle_type_id":"4","last_reported":1741083064,"current_range_meters":12000,"station_id":"ce4bh112rcd13ifvqda0","pricing_plan_id":"cebpf4jnsgd1na2vs0mg"},{"bike_id":"66230499-4dfa-466d-a8bb-168a32553d15","system_id":"levelo_inurba_marseille","lat":43.28488,"lon":5.38421,"is_reserved":false,"is_disabled":false,"rental_uris":{"android":"levelo://app?vid=66230499-4dfa-466d-a8bb-168a32553d15","ios":"levelo://app?vid=66230499-4dfa-466d-a8bb-168a32553d15"},"vehicle_type_id":"4","last_reported":1741083064,"current_range_meters":12000,"station_id":"ce4bh512rcd13ifvqe3g","pricing_plan_id":"cebpf4jnsgd1na2vs0mg"},{"bike_id":"ec29359a-3f14-413e-ae91-725fa47f9c92","system_id":"levelo_inurba_marseille","lat":43.24801,"lon":5.37457,"is_reserved":false,"is_disabled":false,"rental_uris":{"android":"levelo://app?vid=ec29359a-3f14-413e-ae91-725fa47f9c92","ios":"levelo://app?vid=ec29359a-3f14-413e-ae91-725fa47f9c92"},"vehicle_type_id":"4","last_reported":1741083064,"current_range_meters":12000,"station_id":"ce4bhgh2rcd13ifvqfb0","pricing_plan_id":"cebpf4jnsgd1na2vs0mg"},{"bike_id":"8d87db73-830b-4a1a-b357-2fa35f25b1f5","system_id":"levelo_inurba_marseille","lat":43.23154,"lon":5.43709,"is_reserved":false,"is_disabled":false,"rental_uris":{"android":"levelo://app?vid=8d87db73-830b-4a1a-b357-2fa35f25b1f5","ios":"levelo://app?vid=8d87db73-830b-4a1a-b357-2fa35f25b1f5"},"vehicle_type_id":"4","last_reported":1741083064,"current_range_meters":12000,"station_id":"ce4bhmp2rcd13ifvqgog","pricing_plan_id":"cebpf4jnsgd1na2vs0mg"},{"bike_id":"a9e4db3f-a424-4a70-bbb1-9ffa5bd94433","system_id":"levelo_inurba_marseille","lat":43.32373,"lon":5.38879,"is_reserved":false,"is_disabled":false,"rental_uris":{"android":"levelo://app?vid=a9e4db3f-a424-4a70-bbb1-9ffa5bd94433","ios":"levelo://app?vid=a9e4db3f-a424-4a70-bbb1-9ffa5bd94433"},"vehicle_type_id":"4","last_reported":1741083064,"current_range_meters":12000,"station_id":"ce4bhqp2rcd13ifvqhog","pricing_plan_id":"cebpf4jnsgd1na2vs0mg"},{"bike_id":"c5fbba8c-dc84-41e3-9894-2feb2910d143","system_id":"levelo_inurba_marseille","lat":43.29902,"lon":5.38126,"is_reserved":false,"is_disabled":false,"rental_uris":{"android":"levelo://app?vid=c5fbba8c-dc84-41e3-9894-2feb2910d143","ios":"levelo://app?vid=c5fbba8c-dc84-41e3-9894-2feb2910d143"},"vehicle_type_id":"4","last_reported":1741083064,"current_range_meters":12400,"station_id":"ce4bgj12rcd13ifvqbc0","pricing_plan_id":"cebpf4jnsgd1na2vs0mg"},{"bike_id":"bb49af78-83c2-438f-8c5a-ff90eef60b5d","system_id":"levelo_inurba_marseille","lat":43.30288,"lon":5.3691,"is_reserved":false,"is_disabled":false,"rental_uris":{"android":"levelo://app?vid=bb49af78-83c2-438f-8c5a-ff90eef60b5d","ios":"levelo://app?vid=bb49af78-83c2-438f-8c5a-ff90eef60b5d"},"vehicle_type_id":"4","last_reported":1741083064,"current_range_meters":12400,"station_id":"ce4bgqh2rcd13ifvqc5g","pricing_plan_id":"cebpf4jnsgd1na2vs0mg"},{"bike_id":"7d3f2414-6dcd-411f-b984-3693153b1895","system_id":"levelo_inurba_marseille","lat":43.3026,"lon":5.37727,"is_reserved":false,"is_disabled":false,"rental_uris":{"android":"levelo://app?vid=7d3f2414-6dcd-411f-b984-3693153b1895","ios":"levelo://app?vid=7d3f2414-6dcd-411f-b984-3693153b1895"},"vehicle_type_id":"4","last_reported":1741083064,"current_range_meters":12400,"station_id":"ce4bguh2rcd13ifvqcj0","pricing_plan_id":"cebpf4jnsgd1na2vs0mg"},{"bike_id":"3337f8d3-294f-4174-abe7-8175587d9446","system_id":"levelo_inurba_marseille","lat":43.27059,"lon":5.40255,"is_reserved":false,"is_disabled":false,"rental_uris":{"android":"levelo://app?vid=3337f8d3-294f-4174-abe7-8175587d9446","ios":"levelo://app?vid=3337f8d3-294f-4174-abe7-8175587d9446"},"vehicle_type_id":"4","last_reported":1741083064,"current_range_meters":12400,"station_id":"ce4bhk92rcd13ifvqgc0","pricing_plan_id":"cebpf4jnsgd1na2vs0mg"},{"bike_id":"89fcd520-bc63-4b61-a818-c2a6407f2608","system_id":"levelo_inurba_marseille","lat":43.24175,"lon":5.39725,"is_reserved":false,"is_disabled":false,"rental_uris":{"android":"levelo://app?vid=89fcd520-bc63-4b61-a818-c2a6407f2608","ios":"levelo://app?vid=89fcd520-bc63-4b61-a818-c2a6407f2608"},"vehicle_type_id":"4","last_reported":1741083064,"current_range_meters":12400,"station_id":"ce4bhn12rcd13ifvqgpg","pricing_plan_id":"cebpf4jnsgd1na2vs0mg"},{"bike_id":"9e4f53fe-e434-44c9-a146-29f149bf6c3f","system_id":"levelo_inurba_marseille","lat":43.24158,"lon":5.39722,"is_reserved":false,"is_disabled":false,"rental_uris":{"android":"levelo://app?vid=9e4f53fe-e434-44c9-a146-29f149bf6c3f","ios":"levelo://app?vid=9e4f53fe-e434-44c9-a146-29f149bf6c3f"},"vehicle_type_id":"4","last_reported":1741083064,"current_range_meters":12400,"station_id":"ce4bhn12rcd13ifvqgpg","pricing_plan_id":"cebpf4jnsgd1na2vs0mg"},{"bike_id":"4f6a53e2-adc0-4f21-a484-100d8eb7192f","system_id":"levelo_inurba_marseille","lat":43.27812,"lon":5.40724,"is_reserved":false,"is_disabled":false,"rental_uris":{"android":"levelo://app?vid=4f6a53e2-adc0-4f21-a484-100d8eb7192f","ios":"levelo://app?vid=4f6a53e2-adc0-4f21-a484-100d8eb7192f"},"vehicle_type_id":"4","last_reported":1741083064,"current_range_meters":12400,"station_id":"ce4bhnh2rcd13ifvqgtg","pricing_plan_id":"cebpf4jnsgd1na2vs0mg"},{"bike_id":"fe65d165-e4f8-45e4-b0cc-6ba4a385c0db","system_id":"levelo_inurba_marseille","lat":43.29263,"lon":5.37625,"is_reserved":false,"is_disabled":false,"rental_uris":{"android":"levelo://app?vid=fe65d165-e4f8-45e4-b0cc-6ba4a385c0db","ios":"levelo://app?vid=fe65d165-e4f8-45e4-b0cc-6ba4a385c0db"},"vehicle_type_id":"4","last_reported":1741083064,"current_range_meters":12800,"station_id":"ce4bgi12rcd13ifvqb80","pricing_plan_id":"cebpf4jnsgd1na2vs0mg"},{"bike_id":"88d28cca-016d-4c57-a524-5609ea844980","system_id":"levelo_inurba_marseille","lat":43.28108,"lon":5.37804,"is_reserved":false,"is_disabled":false,"rental_uris":{"android":"levelo://app?vid=88d28cca-016d-4c57-a524-5609ea844980","ios":"levelo://app?vid=88d28cca-016d-4c57-a524-5609ea844980"},"vehicle_type_id":"4","last_reported":1741083064,"current_range_meters":12800,"station_id":"ce4bha12rcd13ifvqee0","pricing_plan_id":"cebpf4jnsgd1na2vs0mg"},{"bike_id":"212be3cc-09ae-4063-9d09-83b8b6c708f5","system_id":"levelo_inurba_marseille","lat":43.27057,"lon":5.40264,"is_reserved":false,"is_disabled":false,"rental_uris":{"android":"levelo://app?vid=212be3cc-09ae-4063-9d09-83b8b6c708f5","ios":"levelo://app?vid=212be3cc-09ae-4063-9d09-83b8b6c708f5"},"vehicle_type_id":"4","last_reported":1741083064,"current_range_meters":12800,"station_id":"ce4bhk92rcd13ifvqgc0","pricing_plan_id":"cebpf4jnsgd1na2vs0mg"},{"bike_id":"18ffc8ee-572f-4f9f-aea0-f99d011c795b","system_id":"levelo_inurba_marseille","lat":43.27059,"lon":5.40257,"is_reserved":false,"is_disabled":false,"rental_uris":{"android":"levelo://app?vid=18ffc8ee-572f-4f9f-aea0-f99d011c795b","ios":"levelo://app?vid=18ffc8ee-572f-4f9f-aea0-f99d011c795b"},"vehicle_type_id":"4","last_reported":1741083064,"current_range_meters":12800,"station_id":"ce4bhk92rcd13ifvqgc0","pricing_plan_id":"cebpf4jnsgd1na2vs0mg"},{"bike_id":"87f9a04d-75da-4104-9109-fe85fb501e79","system_id":"levelo_inurba_marseille","lat":43.25105,"lon":5.40322,"is_reserved":false,"is_disabled":false,"rental_uris":{"android":"levelo://app?vid=87f9a04d-75da-4104-9109-fe85fb501e79","ios":"levelo://app?vid=87f9a04d-75da-4104-9109-fe85fb501e79"},"vehicle_type_id":"4","last_reported":1741083064,"current_range_meters":12800,"station_id":"ce4bhlh2rcd13ifvqgig","pricing_plan_id":"cebpf4jnsgd1na2vs0mg"},{"bike_id":"fef09e3e-7091-494b-aeed-7eaa59d5208f","system_id":"levelo_inurba_marseille","lat":43.27487,"lon":5.42475,"is_reserved":false,"is_disabled":false,"rental_uris":{"android":"levelo://app?vid=fef09e3e-7091-494b-aeed-7eaa59d5208f","ios":"levelo://app?vid=fef09e3e-7091-494b-aeed-7eaa59d5208f"},"vehicle_type_id":"4","last_reported":1741083064,"current_range_meters":12800,"station_id":"ce4bhn92rcd13ifvqgrg","pricing_plan_id":"cebpf4jnsgd1na2vs0mg"},{"bike_id":"12504efb-f647-4ad7-bd5d-415c885c147d","system_id":"levelo_inurba_marseille","lat":43.32481,"lon":5.36571,"is_reserved":false,"is_disabled":false,"rental_uris":{"android":"levelo://app?vid=12504efb-f647-4ad7-bd5d-415c885c147d","ios":"levelo://app?vid=12504efb-f647-4ad7-bd5d-415c885c147d"},"vehicle_type_id":"4","last_reported":1741083064,"current_range_meters":12800,"station_id":"ce4bhs12rcd13ifvqhvg","pricing_plan_id":"cebpf4jnsgd1na2vs0mg"},{"bike_id":"38f37a23-5169-4d18-ab25-4dff16ba5bae","system_id":"levelo_inurba_marseille","lat":43.28592,"lon":5.37086,"is_reserved":false,"is_disabled":false,"rental_uris":{"android":"levelo://app?vid=38f37a23-5169-4d18-ab25-4dff16ba5bae","ios":"levelo://app?vid=38f37a23-5169-4d18-ab25-4dff16ba5bae"},"vehicle_type_id":"4","last_reported":1741083064,"current_range_meters":12800,"station_id":"ce4bht12rcd13ifvqi60","pricing_plan_id":"cebpf4jnsgd1na2vs0mg"},{"bike_id":"7281e05b-fa7e-42ab-a278-2cc091e88397","system_id":"levelo_inurba_marseille","lat":43.29261,"lon":5.37612,"is_reserved":false,"is_disabled":false,"rental_uris":{"android":"levelo://app?vid=7281e05b-fa7e-42ab-a278-2cc091e88397","ios":"levelo://app?vid=7281e05b-fa7e-42ab-a278-2cc091e88397"},"vehicle_type_id":"4","last_reported":1741083064,"current_range_meters":13600,"station_id":"ce4bgi12rcd13ifvqb80","pricing_plan_id":"cebpf4jnsgd1na2vs0mg"},{"bike_id":"a3532a1c-67eb-4df4-89db-1242ede86b44","system_id":"levelo_inurba_marseille","lat":43.29543,"lon":5.37505,"is_reserved":false,"is_disabled":false,"rental_uris":{"android":"levelo://app?vid=a3532a1c-67eb-4df4-89db-1242ede86b44","ios":"levelo://app?vid=a3532a1c-67eb-4df4-89db-1242ede86b44"},"vehicle_type_id":"4","last_reported":1741083064,"current_range_meters":13600,"station_id":"ce4bgkp2rcd13ifvqbmg","pricing_plan_id":"cebpf4jnsgd1na2vs0mg"},{"bike_id":"16100b3b-0515-45f3-9a61-a1349c227e21","system_id":"levelo_inurba_marseille","lat":43.30772,"lon":5.37655,"is_reserved":false,"is_disabled":false,"rental_uris":{"android":"levelo://app?vid=16100b3b-0515-45f3-9a61-a1349c227e21","ios":"levelo://app?vid=16100b3b-0515-45f3-9a61-a1349c227e21"},"vehicle_type_id":"4","last_reported":1741083064,"current_range_meters":13600,"station_id":"ce4bgv92rcd13ifvqcq0","pricing_plan_id":"cebpf4jnsgd1na2vs0mg"},{"bike_id":"38c213ca-7011-45e2-a0c9-d0bad93225ae","system_id":"levelo_inurba_marseille","lat":43.24804,"lon":5.37461,"is_reserved":false,"is_disabled":false,"rental_uris":{"android":"levelo://app?vid=38c213ca-7011-45e2-a0c9-d0bad93225ae","ios":"levelo://app?vid=38c213ca-7011-45e2-a0c9-d0bad93225ae"},"vehicle_type_id":"4","last_reported":1741083064,"current_range_meters":13600,"station_id":"ce4bhgh2rcd13ifvqfb0","pricing_plan_id":"cebpf4jnsgd1na2vs0mg"},{"bike_id":"59946b39-969b-41e0-9f74-4fa902a55aef","system_id":"levelo_inurba_marseille","lat":43.25815,"lon":5.3942,"is_reserved":false,"is_disabled":false,"rental_uris":{"android":"levelo://app?vid=59946b39-969b-41e0-9f74-4fa902a55aef","ios":"levelo://app?vid=59946b39-969b-41e0-9f74-4fa902a55aef"},"vehicle_type_id":"4","last_reported":1741083064,"current_range_meters":13600,"station_id":"ce4bhip2rcd13ifvqft0","pricing_plan_id":"cebpf4jnsgd1na2vs0mg"},{"bike_id":"dac14b8b-d836-4a69-8e1d-80e9686effb5","system_id":"levelo_inurba_marseille","lat":43.23148,"lon":5.43717,"is_reserved":false,"is_disabled":false,"rental_uris":{"android":"levelo://app?vid=dac14b8b-d836-4a69-8e1d-80e9686effb5","ios":"levelo://app?vid=dac14b8b-d836-4a69-8e1d-80e9686effb5"},"vehicle_type_id":"4","last_reported":1741083064,"current_range_meters":13600,"station_id":"ce4bhmp2rcd13ifvqgog","pricing_plan_id":"cebpf4jnsgd1na2vs0mg"},{"bike_id":"fc9b972e-bfda-4635-87cf-6527eb166b64","system_id":"levelo_inurba_marseille","lat":43.27958,"lon":5.38735,"is_reserved":false,"is_disabled":false,"rental_uris":{"android":"levelo://app?vid=fc9b972e-bfda-4635-87cf-6527eb166b64","ios":"levelo://app?vid=fc9b972e-bfda-4635-87cf-6527eb166b64"},"vehicle_type_id":"4","last_reported":1741083064,"current_range_meters":14000,"station_id":"ce4bhg12rcd13ifvqf80","pricing_plan_id":"cebpf4jnsgd1na2vs0mg"},{"bike_id":"9ab0baf9-c2c7-4fa7-9b33-6ab5adc722c3","system_id":"levelo_inurba_marseille","lat":43.24798,"lon":5.37449,"is_reserved":false,"is_disabled":false,"rental_uris":{"android":"levelo://app?vid=9ab0baf9-c2c7-4fa7-9b33-6ab5adc722c3","ios":"levelo://app?vid=9ab0baf9-c2c7-4fa7-9b33-6ab5adc722c3"},"vehicle_type_id":"4","last_reported":1741083064,"current_range_meters":14000,"station_id":"ce4bhgh2rcd13ifvqfb0","pricing_plan_id":"cebpf4jnsgd1na2vs0mg"},{"bike_id":"a6799ae4-fed2-4ee8-a527-ef2daaf1494f","system_id":"levelo_inurba_marseille","lat":43.26943,"lon":5.3864,"is_reserved":false,"is_disabled":false,"rental_uris":{"android":"levelo://app?vid=a6799ae4-fed2-4ee8-a527-ef2daaf1494f","ios":"levelo://app?vid=a6799ae4-fed2-4ee8-a527-ef2daaf1494f"},"vehicle_type_id":"4","last_reported":1741083064,"current_range_meters":14000,"station_id":"ce4bhh92rcd13ifvqfh0","pricing_plan_id":"cebpf4jnsgd1na2vs0mg"},{"bike_id":"47fbd4c1-7387-47af-bf35-2f4ae942fbdb","system_id":"levelo_inurba_marseille","lat":43.25113,"lon":5.40319,"is_reserved":false,"is_disabled":false,"rental_uris":{"android":"levelo://app?vid=47fbd4c1-7387-47af-bf35-2f4ae942fbdb","ios":"levelo://app?vid=47fbd4c1-7387-47af-bf35-2f4ae942fbdb"},"vehicle_type_id":"4","last_reported":1741083064,"current_range_meters":14000,"station_id":"ce4bhlh2rcd13ifvqgig","pricing_plan_id":"cebpf4jnsgd1na2vs0mg"},{"bike_id":"331b5527-9b05-4a68-bd52-9102e57e4c8b","system_id":"levelo_inurba_marseille","lat":43.25936,"lon":5.409,"is_reserved":false,"is_disabled":false,"rental_uris":{"android":"levelo://app?vid=331b5527-9b05-4a68-bd52-9102e57e4c8b","ios":"levelo://app?vid=331b5527-9b05-4a68-bd52-9102e57e4c8b"},"vehicle_type_id":"4","last_reported":1741083064,"current_range_meters":14000,"station_id":"ce4bhm92rcd13ifvqglg","pricing_plan_id":"cebpf4jnsgd1na2vs0mg"},{"bike_id":"0c5a2253-b549-46d0-9927-d6fd0b4062c2","system_id":"levelo_inurba_marseille","lat":43.25924,"lon":5.40916,"is_reserved":false,"is_disabled":false,"rental_uris":{"android":"levelo://app?vid=0c5a2253-b549-46d0-9927-d6fd0b4062c2","ios":"levelo://app?vid=0c5a2253-b549-46d0-9927-d6fd0b4062c2"},"vehicle_type_id":"4","last_reported":1741083064,"current_range_meters":14000,"station_id":"ce4bhm92rcd13ifvqglg","pricing_plan_id":"cebpf4jnsgd1na2vs0mg"},{"bike_id":"29c5a535-224e-4e40-bada-aa34ce1fe3ef","system_id":"levelo_inurba_marseille","lat":43.30895,"lon":5.36851,"is_reserved":false,"is_disabled":false,"rental_uris":{"android":"levelo://app?vid=29c5a535-224e-4e40-bada-aa34ce1fe3ef","ios":"levelo://app?vid=29c5a535-224e-4e40-bada-aa34ce1fe3ef"},"vehicle_type_id":"4","last_reported":1741083064,"current_range_meters":14400,"station_id":"ce4bgn92rcd13ifvqbvg","pricing_plan_id":"cebpf4jnsgd1na2vs0mg"},{"bike_id":"2c5a92f4-a231-41f0-933a-ac5f26be730a","system_id":"levelo_inurba_marseille","lat":43.30135,"lon":5.37402,"is_reserved":false,"is_disabled":false,"rental_uris":{"android":"levelo://app?vid=2c5a92f4-a231-41f0-933a-ac5f26be730a","ios":"levelo://app?vid=2c5a92f4-a231-41f0-933a-ac5f26be730a"},"vehicle_type_id":"4","last_reported":1741083064,"current_range_meters":14400,"station_id":"ce4bgs92rcd13ifvqcc0","pricing_plan_id":"cebpf4jnsgd1na2vs0mg"},{"bike_id":"9f651c59-de0c-4e8e-b029-18038055807b","system_id":"levelo_inurba_marseille","lat":43.30957,"lon":5.39043,"is_reserved":false,"is_disabled":false,"rental_uris":{"android":"levelo://app?vid=9f651c59-de0c-4e8e-b029-18038055807b","ios":"levelo://app?vid=9f651c59-de0c-4e8e-b029-18038055807b"},"vehicle_type_id":"4","last_reported":1741083064,"current_range_meters":14400,"station_id":"ce4bgup2rcd13ifvqco0","pricing_plan_id":"cebpf4jnsgd1na2vs0mg"},{"bike_id":"69f1d854-fe58-43e1-96c7-9bfe722dfe7e","system_id":"levelo_inurba_marseille","lat":43.32538,"lon":5.41438,"is_reserved":false,"is_disabled":false,"rental_uris":{"android":"levelo://app?vid=69f1d854-fe58-43e1-96c7-9bfe722dfe7e","ios":"levelo://app?vid=69f1d854-fe58-43e1-96c7-9bfe722dfe7e"},"vehicle_type_id":"4","last_reported":1741083064,"current_range_meters":14400,"station_id":"ce4bhq12rcd13ifvqhhg","pricing_plan_id":"cebpf4jnsgd1na2vs0mg"},{"bike_id":"51f6f578-8898-487a-9da7-ff3d6d379d1b","system_id":"levelo_inurba_marseille","lat":43.32109,"lon":5.36766,"is_reserved":false,"is_disabled":false,"rental_uris":{"android":"levelo://app?vid=51f6f578-8898-487a-9da7-ff3d6d379d1b","ios":"levelo://app?vid=51f6f578-8898-487a-9da7-ff3d6d379d1b"},"vehicle_type_id":"4","last_reported":1741083064,"current_range_meters":14400,"station_id":"ce4bhrh2rcd13ifvqhug","pricing_plan_id":"cebpf4jnsgd1na2vs0mg"},{"bike_id":"7f7e1c62-8591-4bd5-b418-84accf5550de","system_id":"levelo_inurba_marseille","lat":43.29819,"lon":5.40275,"is_reserved":false,"is_disabled":false,"rental_uris":{"android":"levelo://app?vid=7f7e1c62-8591-4bd5-b418-84accf5550de","ios":"levelo://app?vid=7f7e1c62-8591-4bd5-b418-84accf5550de"},"vehicle_type_id":"4","last_reported":1741083064,"current_range_meters":14800,"station_id":"","pricing_plan_id":"cebpf4jnsgd1na2vs0mg"},{"bike_id":"740d3a13-f0aa-4567-9b9a-39b01015ada8","system_id":"levelo_inurba_marseille","lat":43.2657,"lon":5.39041,"is_reserved":false,"is_disabled":false,"rental_uris":{"android":"levelo://app?vid=740d3a13-f0aa-4567-9b9a-39b01015ada8","ios":"levelo://app?vid=740d3a13-f0aa-4567-9b9a-39b01015ada8"},"vehicle_type_id":"4","last_reported":1741083064,"current_range_meters":14800,"station_id":"ce4bhe12rcd13ifvqf30","pricing_plan_id":"cebpf4jnsgd1na2vs0mg"},{"bike_id":"d0886eb5-aa5c-4ae6-a9c9-2203a65b390a","system_id":"levelo_inurba_marseille","lat":43.26691,"lon":5.38253,"is_reserved":false,"is_disabled":false,"rental_uris":{"android":"levelo://app?vid=d0886eb5-aa5c-4ae6-a9c9-2203a65b390a","ios":"levelo://app?vid=d0886eb5-aa5c-4ae6-a9c9-2203a65b390a"},"vehicle_type_id":"4","last_reported":1741083064,"current_range_meters":14800,"station_id":"ce4bhg92rcd13ifvqf90","pricing_plan_id":"cebpf4jnsgd1na2vs0mg"},{"bike_id":"a2b9d686-216a-4f50-ae4b-e7710a444cd6","system_id":"levelo_inurba_marseille","lat":43.25009,"lon":5.38921,"is_reserved":false,"is_disabled":false,"rental_uris":{"android":"levelo://app?vid=a2b9d686-216a-4f50-ae4b-e7710a444cd6","ios":"levelo://app?vid=a2b9d686-216a-4f50-ae4b-e7710a444cd6"},"vehicle_type_id":"4","last_reported":1741083064,"current_range_meters":14800,"station_id":"ce4bhgp2rcd13ifvqfd0","pricing_plan_id":"cebpf4jnsgd1na2vs0mg"},{"bike_id":"6b6850c5-25a6-4add-8e7a-e449916d428d","system_id":"levelo_inurba_marseille","lat":43.24395,"lon":5.37044,"is_reserved":false,"is_disabled":false,"rental_uris":{"android":"levelo://app?vid=6b6850c5-25a6-4add-8e7a-e449916d428d","ios":"levelo://app?vid=6b6850c5-25a6-4add-8e7a-e449916d428d"},"vehicle_type_id":"4","last_reported":1741083064,"current_range_meters":14800,"station_id":"ce4bhhh2rcd13ifvqfk0","pricing_plan_id":"cebpf4jnsgd1na2vs0mg"},{"bike_id":"985d2fa7-01f5-44f0-8aae-9e1fc7712f86","system_id":"levelo_inurba_marseille","lat":43.29261,"lon":5.37616,"is_reserved":false,"is_disabled":false,"rental_uris":{"android":"levelo://app?vid=985d2fa7-01f5-44f0-8aae-9e1fc7712f86","ios":"levelo://app?vid=985d2fa7-01f5-44f0-8aae-9e1fc7712f86"},"vehicle_type_id":"4","last_reported":1741083064,"current_range_meters":15200,"station_id":"ce4bgi12rcd13ifvqb80","pricing_plan_id":"cebpf4jnsgd1na2vs0mg"},{"bike_id":"c028c6f7-84f3-430b-91ca-aee8e0e79653","system_id":"levelo_inurba_marseille","lat":43.30532,"lon":5.36709,"is_reserved":false,"is_disabled":false,"rental_uris":{"android":"levelo://app?vid=c028c6f7-84f3-430b-91ca-aee8e0e79653","ios":"levelo://app?vid=c028c6f7-84f3-430b-91ca-aee8e0e79653"},"vehicle_type_id":"4","last_reported":1741083064,"current_range_meters":15200,"station_id":"ce4bgrp2rcd13ifvqc9g","pricing_plan_id":"cebpf4jnsgd1na2vs0mg"},{"bike_id":"cdd6cdf0-4578-4c9f-906d-999c384a42a6","system_id":"levelo_inurba_marseille","lat":43.30945,"lon":5.39032,"is_reserved":false,"is_disabled":false,"rental_uris":{"android":"levelo://app?vid=cdd6cdf0-4578-4c9f-906d-999c384a42a6","ios":"levelo://app?vid=cdd6cdf0-4578-4c9f-906d-999c384a42a6"},"vehicle_type_id":"4","last_reported":1741083064,"current_range_meters":15200,"station_id":"ce4bgup2rcd13ifvqco0","pricing_plan_id":"cebpf4jnsgd1na2vs0mg"},{"bike_id":"0c1aaf25-1457-43aa-9db7-b0db56546c3d","system_id":"levelo_inurba_marseille","lat":43.30081,"lon":5.3908,"is_reserved":false,"is_disabled":false,"rental_uris":{"android":"levelo://app?vid=0c1aaf25-1457-43aa-9db7-b0db56546c3d","ios":"levelo://app?vid=0c1aaf25-1457-43aa-9db7-b0db56546c3d"},"vehicle_type_id":"4","last_reported":1741083064,"current_range_meters":15200,"station_id":"ce4bh192rcd13ifvqdb0","pricing_plan_id":"cebpf4jnsgd1na2vs0mg"},{"bike_id":"0f4688e8-5b7c-4755-aa8c-07276f193a8b","system_id":"levelo_inurba_marseille","lat":43.26947,"lon":5.38628,"is_reserved":false,"is_disabled":false,"rental_uris":{"android":"levelo://app?vid=0f4688e8-5b7c-4755-aa8c-07276f193a8b","ios":"levelo://app?vid=0f4688e8-5b7c-4755-aa8c-07276f193a8b"},"vehicle_type_id":"4","last_reported":1741083064,"current_range_meters":15200,"station_id":"ce4bhh92rcd13ifvqfh0","pricing_plan_id":"cebpf4jnsgd1na2vs0mg"},{"bike_id":"4d1a9542-e77a-4c30-9571-7fe2a9070866","system_id":"levelo_inurba_marseille","lat":43.26223,"lon":5.40457,"is_reserved":false,"is_disabled":false,"rental_uris":{"android":"levelo://app?vid=4d1a9542-e77a-4c30-9571-7fe2a9070866","ios":"levelo://app?vid=4d1a9542-e77a-4c30-9571-7fe2a9070866"},"vehicle_type_id":"4","last_reported":1741083064,"current_range_meters":15200,"station_id":"ce4bhmh2rcd13ifvqgmg","pricing_plan_id":"cebpf4jnsgd1na2vs0mg"},{"bike_id":"73c79102-b9af-4b09-9d57-a3c76bf14359","system_id":"levelo_inurba_marseille","lat":43.27499,"lon":5.4246,"is_reserved":false,"is_disabled":false,"rental_uris":{"android":"levelo://app?vid=73c79102-b9af-4b09-9d57-a3c76bf14359","ios":"levelo://app?vid=73c79102-b9af-4b09-9d57-a3c76bf14359"},"vehicle_type_id":"4","last_reported":1741083064,"current_range_meters":15200,"station_id":"ce4bhn92rcd13ifvqgrg","pricing_plan_id":"cebpf4jnsgd1na2vs0mg"},{"bike_id":"47ca7176-dcba-4b9e-8dbb-e2bb239319ab","system_id":"levelo_inurba_marseille","lat":43.31423,"lon":5.38591,"is_reserved":false,"is_disabled":false,"rental_uris":{"android":"levelo://app?vid=47ca7176-dcba-4b9e-8dbb-e2bb239319ab","ios":"levelo://app?vid=47ca7176-dcba-4b9e-8dbb-e2bb239319ab"},"vehicle_type_id":"4","last_reported":1741083064,"current_range_meters":16000,"station_id":"","pricing_plan_id":"cebpf4jnsgd1na2vs0mg"},{"bike_id":"da707074-3e3d-4beb-941b-e41df111c172","system_id":"levelo_inurba_marseille","lat":43.30535,"lon":5.36701,"is_reserved":false,"is_disabled":false,"rental_uris":{"android":"levelo://app?vid=da707074-3e3d-4beb-941b-e41df111c172","ios":"levelo://app?vid=da707074-3e3d-4beb-941b-e41df111c172"},"vehicle_type_id":"4","last_reported":1741083064,"current_range_meters":16000,"station_id":"ce4bgrp2rcd13ifvqc9g","pricing_plan_id":"cebpf4jnsgd1na2vs0mg"},{"bike_id":"e2561f86-c403-4b29-a057-bfc8bac05a51","system_id":"levelo_inurba_marseille","lat":43.30143,"lon":5.3739,"is_reserved":false,"is_disabled":false,"rental_uris":{"android":"levelo://app?vid=e2561f86-c403-4b29-a057-bfc8bac05a51","ios":"levelo://app?vid=e2561f86-c403-4b29-a057-bfc8bac05a51"},"vehicle_type_id":"4","last_reported":1741083064,"current_range_meters":16000,"station_id":"ce4bgs92rcd13ifvqcc0","pricing_plan_id":"cebpf4jnsgd1na2vs0mg"},{"bike_id":"4ead3cf7-030a-48ef-8e3f-f442056c69b3","system_id":"levelo_inurba_marseille","lat":43.30465,"lon":5.3791,"is_reserved":false,"is_disabled":false,"rental_uris":{"android":"levelo://app?vid=4ead3cf7-030a-48ef-8e3f-f442056c69b3","ios":"levelo://app?vid=4ead3cf7-030a-48ef-8e3f-f442056c69b3"},"vehicle_type_id":"4","last_reported":1741083064,"current_range_meters":16000,"station_id":"ce4bgup2rcd13ifvqcn0","pricing_plan_id":"cebpf4jnsgd1na2vs0mg"},{"bike_id":"8ef12c96-4a02-4ab6-af53-ca8fd7864c6a","system_id":"levelo_inurba_marseille","lat":43.30952,"lon":5.39039,"is_reserved":false,"is_disabled":false,"rental_uris":{"android":"levelo://app?vid=8ef12c96-4a02-4ab6-af53-ca8fd7864c6a","ios":"levelo://app?vid=8ef12c96-4a02-4ab6-af53-ca8fd7864c6a"},"vehicle_type_id":"4","last_reported":1741083064,"current_range_meters":16000,"station_id":"ce4bgup2rcd13ifvqco0","pricing_plan_id":"cebpf4jnsgd1na2vs0mg"},{"bike_id":"c9eb2b4c-65cf-4acb-b353-be61d1ae9d0e","system_id":"levelo_inurba_marseille","lat":43.24677,"lon":5.3816,"is_reserved":false,"is_disabled":false,"rental_uris":{"android":"levelo://app?vid=c9eb2b4c-65cf-4acb-b353-be61d1ae9d0e","ios":"levelo://app?vid=c9eb2b4c-65cf-4acb-b353-be61d1ae9d0e"},"vehicle_type_id":"4","last_reported":1741083064,"current_range_meters":16000,"station_id":"ce4bhih2rcd13ifvqfr0","pricing_plan_id":"cebpf4jnsgd1na2vs0mg"},{"bike_id":"15d1809a-97c8-428d-a2c6-9d8c5a972121","system_id":"levelo_inurba_marseille","lat":43.23152,"lon":5.43712,"is_reserved":false,"is_disabled":false,"rental_uris":{"android":"levelo://app?vid=15d1809a-97c8-428d-a2c6-9d8c5a972121","ios":"levelo://app?vid=15d1809a-97c8-428d-a2c6-9d8c5a972121"},"vehicle_type_id":"4","last_reported":1741083064,"current_range_meters":16000,"station_id":"ce4bhmp2rcd13ifvqgog","pricing_plan_id":"cebpf4jnsgd1na2vs0mg"},{"bike_id":"6d818697-4cb6-4240-b011-cdd0c799b755","system_id":"levelo_inurba_marseille","lat":43.2318,"lon":5.39978,"is_reserved":false,"is_disabled":false,"rental_uris":{"android":"levelo://app?vid=6d818697-4cb6-4240-b011-cdd0c799b755","ios":"levelo://app?vid=6d818697-4cb6-4240-b011-cdd0c799b755"},"vehicle_type_id":"4","last_reported":1741083064,"current_range_meters":16000,"station_id":"ce4bhn12rcd13ifvqgqg","pricing_plan_id":"cebpf4jnsgd1na2vs0mg"},{"bike_id":"516e3747-bfb9-471b-a526-f97449b9bc6e","system_id":"levelo_inurba_marseille","lat":43.32541,"lon":5.4145,"is_reserved":false,"is_disabled":false,"rental_uris":{"android":"levelo://app?vid=516e3747-bfb9-471b-a526-f97449b9bc6e","ios":"levelo://app?vid=516e3747-bfb9-471b-a526-f97449b9bc6e"},"vehicle_type_id":"4","last_reported":1741083064,"current_range_meters":16000,"station_id":"ce4bhq12rcd13ifvqhhg","pricing_plan_id":"cebpf4jnsgd1na2vs0mg"},{"bike_id":"4f22ed03-3f01-49f0-87ec-77cf8c324e7e","system_id":"levelo_inurba_marseille","lat":43.30955,"lon":5.38441,"is_reserved":false,"is_disabled":false,"rental_uris":{"android":"levelo://app?vid=4f22ed03-3f01-49f0-87ec-77cf8c324e7e","ios":"levelo://app?vid=4f22ed03-3f01-49f0-87ec-77cf8c324e7e"},"vehicle_type_id":"4","last_reported":1741083064,"current_range_meters":16400,"station_id":"","pricing_plan_id":"cebpf4jnsgd1na2vs0mg"},{"bike_id":"803c0489-f1ba-4e46-ae70-685ff7070b07","system_id":"levelo_inurba_marseille","lat":43.30544,"lon":5.36542,"is_reserved":false,"is_disabled":false,"rental_uris":{"android":"levelo://app?vid=803c0489-f1ba-4e46-ae70-685ff7070b07","ios":"levelo://app?vid=803c0489-f1ba-4e46-ae70-685ff7070b07"},"vehicle_type_id":"4","last_reported":1741083064,"current_range_meters":16400,"station_id":"ce4bgs12rcd13ifvqcag","pricing_plan_id":"cebpf4jnsgd1na2vs0mg"},{"bike_id":"1ee7f527-a6bd-471a-9fe4-de1fa75de70a","system_id":"levelo_inurba_marseille","lat":43.282384,"lon":5.379078,"is_reserved":false,"is_disabled":false,"rental_uris":{"android":"levelo://app?vid=1ee7f527-a6bd-471a-9fe4-de1fa75de70a","ios":"levelo://app?vid=1ee7f527-a6bd-471a-9fe4-de1fa75de70a"},"vehicle_type_id":"4","last_reported":1741083064,"current_range_meters":16400,"station_id":"ce4bha12rcd13ifvqee0","pricing_plan_id":"cebpf4jnsgd1na2vs0mg"},{"bike_id":"4a703efc-342e-4320-becc-031a90370148","system_id":"levelo_inurba_marseille","lat":43.29033,"lon":5.35919,"is_reserved":false,"is_disabled":false,"rental_uris":{"android":"levelo://app?vid=4a703efc-342e-4320-becc-031a90370148","ios":"levelo://app?vid=4a703efc-342e-4320-becc-031a90370148"},"vehicle_type_id":"4","last_reported":1741083064,"current_range_meters":16400,"station_id":"ce4bha92rcd13ifvqeg0","pricing_plan_id":"cebpf4jnsgd1na2vs0mg"},{"bike_id":"4707d30e-3909-46bd-9704-5a49cd6a4148","system_id":"levelo_inurba_marseille","lat":43.28267,"lon":5.35069,"is_reserved":false,"is_disabled":false,"rental_uris":{"android":"levelo://app?vid=4707d30e-3909-46bd-9704-5a49cd6a4148","ios":"levelo://app?vid=4707d30e-3909-46bd-9704-5a49cd6a4148"},"vehicle_type_id":"4","last_reported":1741083064,"current_range_meters":16400,"station_id":"ce4bhbp2rcd13ifvqerg","pricing_plan_id":"cebpf4jnsgd1na2vs0mg"},{"bike_id":"084a16ea-cba1-4699-9cdb-bee52bb96bbe","system_id":"levelo_inurba_marseille","lat":43.25805,"lon":5.3943,"is_reserved":false,"is_disabled":false,"rental_uris":{"android":"levelo://app?vid=084a16ea-cba1-4699-9cdb-bee52bb96bbe","ios":"levelo://app?vid=084a16ea-cba1-4699-9cdb-bee52bb96bbe"},"vehicle_type_id":"4","last_reported":1741083064,"current_range_meters":16400,"station_id":"ce4bhip2rcd13ifvqft0","pricing_plan_id":"cebpf4jnsgd1na2vs0mg"},{"bike_id":"4a131a6e-20ed-4f37-9325-fb0815961b00","system_id":"levelo_inurba_marseille","lat":43.23151,"lon":5.43728,"is_reserved":false,"is_disabled":false,"rental_uris":{"android":"levelo://app?vid=4a131a6e-20ed-4f37-9325-fb0815961b00","ios":"levelo://app?vid=4a131a6e-20ed-4f37-9325-fb0815961b00"},"vehicle_type_id":"4","last_reported":1741083064,"current_range_meters":16400,"station_id":"ce4bhmp2rcd13ifvqgog","pricing_plan_id":"cebpf4jnsgd1na2vs0mg"},{"bike_id":"698426ac-3fe7-41dd-a88b-a5bb98aebc76","system_id":"levelo_inurba_marseille","lat":43.2783,"lon":5.4076,"is_reserved":false,"is_disabled":false,"rental_uris":{"android":"levelo://app?vid=698426ac-3fe7-41dd-a88b-a5bb98aebc76","ios":"levelo://app?vid=698426ac-3fe7-41dd-a88b-a5bb98aebc76"},"vehicle_type_id":"4","last_reported":1741083064,"current_range_meters":16400,"station_id":"ce4bhnh2rcd13ifvqgtg","pricing_plan_id":"cebpf4jnsgd1na2vs0mg"},{"bike_id":"e96e0c5f-d0e5-478b-b4aa-43a39d7ff26e","system_id":"levelo_inurba_marseille","lat":43.32355,"lon":5.36766,"is_reserved":false,"is_disabled":false,"rental_uris":{"android":"levelo://app?vid=e96e0c5f-d0e5-478b-b4aa-43a39d7ff26e","ios":"levelo://app?vid=e96e0c5f-d0e5-478b-b4aa-43a39d7ff26e"},"vehicle_type_id":"4","last_reported":1741083064,"current_range_meters":16400,"station_id":"ce4bhsh2rcd13ifvqi2g","pricing_plan_id":"cebpf4jnsgd1na2vs0mg"},{"bike_id":"7cd5e07c-ad2a-4af8-99d9-77c41335ce79","system_id":"levelo_inurba_marseille","lat":43.24173,"lon":5.36401,"is_reserved":false,"is_disabled":false,"rental_uris":{"android":"levelo://app?vid=7cd5e07c-ad2a-4af8-99d9-77c41335ce79","ios":"levelo://app?vid=7cd5e07c-ad2a-4af8-99d9-77c41335ce79"},"vehicle_type_id":"4","last_reported":1741083064,"current_range_meters":16400,"station_id":"cpo36qri1sfpv3e86is0","pricing_plan_id":"cebpf4jnsgd1na2vs0mg"},{"bike_id":"88939f16-57da-4ab9-8864-5b37fc207193","system_id":"levelo_inurba_marseille","lat":43.29294,"lon":5.37456,"is_reserved":false,"is_disabled":false,"rental_uris":{"android":"levelo://app?vid=88939f16-57da-4ab9-8864-5b37fc207193","ios":"levelo://app?vid=88939f16-57da-4ab9-8864-5b37fc207193"},"vehicle_type_id":"4","last_reported":1741083064,"current_range_meters":16800,"station_id":"ce4bgi12rcd13ifvqb70","pricing_plan_id":"cebpf4jnsgd1na2vs0mg"},{"bike_id":"56f807c6-3a2a-48f0-b6b7-8d1081332169","system_id":"levelo_inurba_marseille","lat":43.3136,"lon":5.367,"is_reserved":false,"is_disabled":false,"rental_uris":{"android":"levelo://app?vid=56f807c6-3a2a-48f0-b6b7-8d1081332169","ios":"levelo://app?vid=56f807c6-3a2a-48f0-b6b7-8d1081332169"},"vehicle_type_id":"4","last_reported":1741083064,"current_range_meters":16800,"station_id":"ce4bgr92rcd13ifvqc6g","pricing_plan_id":"cebpf4jnsgd1na2vs0mg"},{"bike_id":"d0c1d623-11ab-4348-95de-20d490237449","system_id":"levelo_inurba_marseille","lat":43.3095,"lon":5.39039,"is_reserved":false,"is_disabled":false,"rental_uris":{"android":"levelo://app?vid=d0c1d623-11ab-4348-95de-20d490237449","ios":"levelo://app?vid=d0c1d623-11ab-4348-95de-20d490237449"},"vehicle_type_id":"4","last_reported":1741083064,"current_range_meters":16800,"station_id":"ce4bgup2rcd13ifvqco0","pricing_plan_id":"cebpf4jnsgd1na2vs0mg"},{"bike_id":"3eee0dc5-ae82-4a87-84bd-e56ec3329485","system_id":"levelo_inurba_marseille","lat":43.24642,"lon":5.38888,"is_reserved":false,"is_disabled":false,"rental_uris":{"android":"levelo://app?vid=3eee0dc5-ae82-4a87-84bd-e56ec3329485","ios":"levelo://app?vid=3eee0dc5-ae82-4a87-84bd-e56ec3329485"},"vehicle_type_id":"4","last_reported":1741083064,"current_range_meters":16800,"station_id":"ce4bhg12rcd13ifvqf60","pricing_plan_id":"cebpf4jnsgd1na2vs0mg"},{"bike_id":"7ad449bc-99c2-472f-b781-ad26766d1190","system_id":"levelo_inurba_marseille","lat":43.26066,"lon":5.39396,"is_reserved":false,"is_disabled":false,"rental_uris":{"android":"levelo://app?vid=7ad449bc-99c2-472f-b781-ad26766d1190","ios":"levelo://app?vid=7ad449bc-99c2-472f-b781-ad26766d1190"},"vehicle_type_id":"4","last_reported":1741083064,"current_range_meters":16800,"station_id":"ce4bhh92rcd13ifvqfj0","pricing_plan_id":"cebpf4jnsgd1na2vs0mg"},{"bike_id":"206e4439-efc0-4a3e-b983-1ff5b86d71fc","system_id":"levelo_inurba_marseille","lat":43.23138,"lon":5.43714,"is_reserved":false,"is_disabled":false,"rental_uris":{"android":"levelo://app?vid=206e4439-efc0-4a3e-b983-1ff5b86d71fc","ios":"levelo://app?vid=206e4439-efc0-4a3e-b983-1ff5b86d71fc"},"vehicle_type_id":"4","last_reported":1741083064,"current_range_meters":16800,"station_id":"ce4bhmp2rcd13ifvqgog","pricing_plan_id":"cebpf4jnsgd1na2vs0mg"},{"bike_id":"8b7b3e92-fc3d-4aa6-9b62-d67a99ca8207","system_id":"levelo_inurba_marseille","lat":43.27488,"lon":5.42464,"is_reserved":false,"is_disabled":false,"rental_uris":{"android":"levelo://app?vid=8b7b3e92-fc3d-4aa6-9b62-d67a99ca8207","ios":"levelo://app?vid=8b7b3e92-fc3d-4aa6-9b62-d67a99ca8207"},"vehicle_type_id":"4","last_reported":1741083064,"current_range_meters":16800,"station_id":"ce4bhn92rcd13ifvqgrg","pricing_plan_id":"cebpf4jnsgd1na2vs0mg"},{"bike_id":"a8207bee-615e-4c57-83d6-a457b5ec87a7","system_id":"levelo_inurba_marseille","lat":43.25938,"lon":5.40899,"is_reserved":false,"is_disabled":false,"rental_uris":{"android":"levelo://app?vid=a8207bee-615e-4c57-83d6-a457b5ec87a7","ios":"levelo://app?vid=a8207bee-615e-4c57-83d6-a457b5ec87a7"},"vehicle_type_id":"4","last_reported":1741083064,"current_range_meters":17200,"station_id":"ce4bhm92rcd13ifvqglg","pricing_plan_id":"cebpf4jnsgd1na2vs0mg"},{"bike_id":"9a6b1dcb-3594-4bb4-ab0b-6b30c24a905b","system_id":"levelo_inurba_marseille","lat":43.23146,"lon":5.43722,"is_reserved":false,"is_disabled":false,"rental_uris":{"android":"levelo://app?vid=9a6b1dcb-3594-4bb4-ab0b-6b30c24a905b","ios":"levelo://app?vid=9a6b1dcb-3594-4bb4-ab0b-6b30c24a905b"},"vehicle_type_id":"4","last_reported":1741083064,"current_range_meters":17200,"station_id":"ce4bhmp2rcd13ifvqgog","pricing_plan_id":"cebpf4jnsgd1na2vs0mg"},{"bike_id":"e82959da-7d85-4458-956f-cc110668b2b9","system_id":"levelo_inurba_marseille","lat":43.30791,"lon":5.43525,"is_reserved":false,"is_disabled":false,"rental_uris":{"android":"levelo://app?vid=e82959da-7d85-4458-956f-cc110668b2b9","ios":"levelo://app?vid=e82959da-7d85-4458-956f-cc110668b2b9"},"vehicle_type_id":"4","last_reported":1741083064,"current_range_meters":17200,"station_id":"ce4bhph2rcd13ifvqheg","pricing_plan_id":"cebpf4jnsgd1na2vs0mg"},{"bike_id":"ab86e22c-8104-41c3-9526-9072152357d1","system_id":"levelo_inurba_marseille","lat":43.32031,"lon":5.41539,"is_reserved":false,"is_disabled":false,"rental_uris":{"android":"levelo://app?vid=ab86e22c-8104-41c3-9526-9072152357d1","ios":"levelo://app?vid=ab86e22c-8104-41c3-9526-9072152357d1"},"vehicle_type_id":"4","last_reported":1741083064,"current_range_meters":17200,"station_id":"ce4bhq92rcd13ifvqhkg","pricing_plan_id":"cebpf4jnsgd1na2vs0mg"},{"bike_id":"bdd24298-7134-4d6c-89d2-95c4299d5167","system_id":"levelo_inurba_marseille","lat":43.30272,"lon":5.37704,"is_reserved":false,"is_disabled":false,"rental_uris":{"android":"levelo://app?vid=bdd24298-7134-4d6c-89d2-95c4299d5167","ios":"levelo://app?vid=bdd24298-7134-4d6c-89d2-95c4299d5167"},"vehicle_type_id":"4","last_reported":1741083064,"current_range_meters":17600,"station_id":"ce4bguh2rcd13ifvqcj0","pricing_plan_id":"cebpf4jnsgd1na2vs0mg"},{"bike_id":"2c19fd18-87d6-487c-8278-3cd0bca38ff8","system_id":"levelo_inurba_marseille","lat":43.286146,"lon":5.35102,"is_reserved":false,"is_disabled":false,"rental_uris":{"android":"levelo://app?vid=2c19fd18-87d6-487c-8278-3cd0bca38ff8","ios":"levelo://app?vid=2c19fd18-87d6-487c-8278-3cd0bca38ff8"},"vehicle_type_id":"4","last_reported":1741083064,"current_range_meters":17600,"station_id":"ce4bhah2rcd13ifvqei0","pricing_plan_id":"cebpf4jnsgd1na2vs0mg"},{"bike_id":"dba16a2e-c857-48ab-b8bd-74bac7f872b4","system_id":"levelo_inurba_marseille","lat":43.27202,"lon":5.39185,"is_reserved":false,"is_disabled":false,"rental_uris":{"android":"levelo://app?vid=dba16a2e-c857-48ab-b8bd-74bac7f872b4","ios":"levelo://app?vid=dba16a2e-c857-48ab-b8bd-74bac7f872b4"},"vehicle_type_id":"4","last_reported":1741083064,"current_range_meters":17600,"station_id":"ce4bhhp2rcd13ifvqfm0","pricing_plan_id":"cebpf4jnsgd1na2vs0mg"},{"bike_id":"7a2ae229-8b7b-48f3-b553-f1eef658eeb9","system_id":"levelo_inurba_marseille","lat":43.27201,"lon":5.39175,"is_reserved":false,"is_disabled":false,"rental_uris":{"android":"levelo://app?vid=7a2ae229-8b7b-48f3-b553-f1eef658eeb9","ios":"levelo://app?vid=7a2ae229-8b7b-48f3-b553-f1eef658eeb9"},"vehicle_type_id":"4","last_reported":1741083064,"current_range_meters":17600,"station_id":"ce4bhhp2rcd13ifvqfm0","pricing_plan_id":"cebpf4jnsgd1na2vs0mg"},{"bike_id":"94cfebf2-8cc6-4e26-88d0-adbf2991b502","system_id":"levelo_inurba_marseille","lat":43.24071,"lon":5.37761,"is_reserved":false,"is_disabled":false,"rental_uris":{"android":"levelo://app?vid=94cfebf2-8cc6-4e26-88d0-adbf2991b502","ios":"levelo://app?vid=94cfebf2-8cc6-4e26-88d0-adbf2991b502"},"vehicle_type_id":"4","last_reported":1741083064,"current_range_meters":17600,"station_id":"ce4bhnp2rcd13ifvqgvg","pricing_plan_id":"cebpf4jnsgd1na2vs0mg"},{"bike_id":"330426bc-0af9-4c3e-8e4c-6ec10833df11","system_id":"levelo_inurba_marseille","lat":43.298943,"lon":5.436697,"is_reserved":false,"is_disabled":false,"rental_uris":{"android":"levelo://app?vid=330426bc-0af9-4c3e-8e4c-6ec10833df11","ios":"levelo://app?vid=330426bc-0af9-4c3e-8e4c-6ec10833df11"},"vehicle_type_id":"4","last_reported":1741083064,"current_range_meters":17600,"station_id":"ce4bhpp2rcd13ifvqhfg","pricing_plan_id":"cebpf4jnsgd1na2vs0mg"},{"bike_id":"f78679b4-d978-4358-a0e6-2ee8838de974","system_id":"levelo_inurba_marseille","lat":43.33019,"lon":5.3904,"is_reserved":false,"is_disabled":false,"rental_uris":{"android":"levelo://app?vid=f78679b4-d978-4358-a0e6-2ee8838de974","ios":"levelo://app?vid=f78679b4-d978-4358-a0e6-2ee8838de974"},"vehicle_type_id":"4","last_reported":1741083064,"current_range_meters":17600,"station_id":"ce4bhr92rcd13ifvqhrg","pricing_plan_id":"cebpf4jnsgd1na2vs0mg"},{"bike_id":"41c82a3e-c7dc-4814-8af0-c1bb8d4e2f25","system_id":"levelo_inurba_marseille","lat":43.292209,"lon":5.361003,"is_reserved":false,"is_disabled":false,"rental_uris":{"android":"levelo://app?vid=41c82a3e-c7dc-4814-8af0-c1bb8d4e2f25","ios":"levelo://app?vid=41c82a3e-c7dc-4814-8af0-c1bb8d4e2f25"},"vehicle_type_id":"4","last_reported":1741083064,"current_range_meters":18000,"station_id":"","pricing_plan_id":"cebpf4jnsgd1na2vs0mg"},{"bike_id":"e7ebcd97-6515-4288-9510-0b33c2342ec3","system_id":"levelo_inurba_marseille","lat":43.309684,"lon":5.390164,"is_reserved":false,"is_disabled":false,"rental_uris":{"android":"levelo://app?vid=e7ebcd97-6515-4288-9510-0b33c2342ec3","ios":"levelo://app?vid=e7ebcd97-6515-4288-9510-0b33c2342ec3"},"vehicle_type_id":"4","last_reported":1741083064,"current_range_meters":18000,"station_id":"ce4bgup2rcd13ifvqco0","pricing_plan_id":"cebpf4jnsgd1na2vs0mg"},{"bike_id":"59913f31-a035-4f89-97de-5554ff6a5b2e","system_id":"levelo_inurba_marseille","lat":43.26682,"lon":5.38275,"is_reserved":false,"is_disabled":false,"rental_uris":{"android":"levelo://app?vid=59913f31-a035-4f89-97de-5554ff6a5b2e","ios":"levelo://app?vid=59913f31-a035-4f89-97de-5554ff6a5b2e"},"vehicle_type_id":"4","last_reported":1741083064,"current_range_meters":18000,"station_id":"ce4bhg92rcd13ifvqf90","pricing_plan_id":"cebpf4jnsgd1na2vs0mg"},{"bike_id":"cb043aa5-b12e-4484-aef6-71f3828425d0","system_id":"levelo_inurba_marseille","lat":43.27934,"lon":5.41045,"is_reserved":false,"is_disabled":false,"rental_uris":{"android":"levelo://app?vid=cb043aa5-b12e-4484-aef6-71f3828425d0","ios":"levelo://app?vid=cb043aa5-b12e-4484-aef6-71f3828425d0"},"vehicle_type_id":"4","last_reported":1741083064,"current_range_meters":18000,"station_id":"ce4bhnp2rcd13ifvqh0g","pricing_plan_id":"cebpf4jnsgd1na2vs0mg"},{"bike_id":"b08f1bf4-091b-4525-ada0-8af0fd8a35d5","system_id":"levelo_inurba_marseille","lat":43.29904,"lon":5.38151,"is_reserved":false,"is_disabled":false,"rental_uris":{"android":"levelo://app?vid=b08f1bf4-091b-4525-ada0-8af0fd8a35d5","ios":"levelo://app?vid=b08f1bf4-091b-4525-ada0-8af0fd8a35d5"},"vehicle_type_id":"4","last_reported":1741083064,"current_range_meters":18800,"station_id":"ce4bgj12rcd13ifvqbc0","pricing_plan_id":"cebpf4jnsgd1na2vs0mg"},{"bike_id":"699585bd-af7f-45af-945e-ceb77464b687","system_id":"levelo_inurba_marseille","lat":43.30546,"lon":5.36562,"is_reserved":false,"is_disabled":false,"rental_uris":{"android":"levelo://app?vid=699585bd-af7f-45af-945e-ceb77464b687","ios":"levelo://app?vid=699585bd-af7f-45af-945e-ceb77464b687"},"vehicle_type_id":"4","last_reported":1741083064,"current_range_meters":18800,"station_id":"ce4bgs12rcd13ifvqcag","pricing_plan_id":"cebpf4jnsgd1na2vs0mg"},{"bike_id":"371614c8-096e-40af-8df3-2daa948ef9e2","system_id":"levelo_inurba_marseille","lat":43.30948,"lon":5.39041,"is_reserved":false,"is_disabled":false,"rental_uris":{"android":"levelo://app?vid=371614c8-096e-40af-8df3-2daa948ef9e2","ios":"levelo://app?vid=371614c8-096e-40af-8df3-2daa948ef9e2"},"vehicle_type_id":"4","last_reported":1741083064,"current_range_meters":18800,"station_id":"ce4bgup2rcd13ifvqco0","pricing_plan_id":"cebpf4jnsgd1na2vs0mg"},{"bike_id":"72dd8cf9-93f3-47c4-9b3d-a73e1e9dfdcc","system_id":"levelo_inurba_marseille","lat":43.28456,"lon":5.35891,"is_reserved":false,"is_disabled":false,"rental_uris":{"android":"levelo://app?vid=72dd8cf9-93f3-47c4-9b3d-a73e1e9dfdcc","ios":"levelo://app?vid=72dd8cf9-93f3-47c4-9b3d-a73e1e9dfdcc"},"vehicle_type_id":"4","last_reported":1741083064,"current_range_meters":18800,"station_id":"ce4bhah2rcd13ifvqei0","pricing_plan_id":"cebpf4jnsgd1na2vs0mg"},{"bike_id":"a65938a1-8312-443d-8dc7-58a85c6ee2f5","system_id":"levelo_inurba_marseille","lat":43.284607,"lon":5.358785,"is_reserved":false,"is_disabled":false,"rental_uris":{"android":"levelo://app?vid=a65938a1-8312-443d-8dc7-58a85c6ee2f5","ios":"levelo://app?vid=a65938a1-8312-443d-8dc7-58a85c6ee2f5"},"vehicle_type_id":"4","last_reported":1741083064,"current_range_meters":18800,"station_id":"ce4bhah2rcd13ifvqei0","pricing_plan_id":"cebpf4jnsgd1na2vs0mg"},{"bike_id":"61e5782e-fd13-41e9-aa42-171413087bc4","system_id":"levelo_inurba_marseille","lat":43.29249,"lon":5.36063,"is_reserved":false,"is_disabled":false,"rental_uris":{"android":"levelo://app?vid=61e5782e-fd13-41e9-aa42-171413087bc4","ios":"levelo://app?vid=61e5782e-fd13-41e9-aa42-171413087bc4"},"vehicle_type_id":"4","last_reported":1741083064,"current_range_meters":18800,"station_id":"ce4bhbh2rcd13ifvqeqg","pricing_plan_id":"cebpf4jnsgd1na2vs0mg"},{"bike_id":"ceafbcb3-5253-467f-8d5b-15203ddf6911","system_id":"levelo_inurba_marseille","lat":43.26686,"lon":5.38261,"is_reserved":false,"is_disabled":false,"rental_uris":{"android":"levelo://app?vid=ceafbcb3-5253-467f-8d5b-15203ddf6911","ios":"levelo://app?vid=ceafbcb3-5253-467f-8d5b-15203ddf6911"},"vehicle_type_id":"4","last_reported":1741083064,"current_range_meters":18800,"station_id":"ce4bhg92rcd13ifvqf90","pricing_plan_id":"cebpf4jnsgd1na2vs0mg"},{"bike_id":"c12c25a3-f6e0-4737-bd92-1c1b4f2c9b26","system_id":"levelo_inurba_marseille","lat":43.24992,"lon":5.38951,"is_reserved":false,"is_disabled":false,"rental_uris":{"android":"levelo://app?vid=c12c25a3-f6e0-4737-bd92-1c1b4f2c9b26","ios":"levelo://app?vid=c12c25a3-f6e0-4737-bd92-1c1b4f2c9b26"},