{"last_updated":1740859739,"ttl":60,"version":"2.2","data":{"bikes":[{"bike_id":"7c42f1a6-ce55-47af-8ce7-9ec28bbe1b69","system_id":"levelo_inurba_marseille","lat":43.28967,"lon":5.37837,"is_reserved":false,"is_disabled":false,"rental_uris":{"android":"levelo://app?vid=7c42f1a6-ce55-47af-8ce7-9ec28bbe1b69","ios":"levelo://app?vid=7c42f1a6-ce55-47af-8ce7-9ec28bbe1b69"},"vehicle_type_id":"4","last_reported":1740859739,"current_range_meters":2800,"station_id":"ce4bh9p2rcd13ifvqed0","pricing_plan_id":"cebpf4jnsgd1na2vs0mg"},{"bike_id":"b04c65e5-66d7-4157-8f06-49b7a58abf34","system_id":"levelo_inurba_marseille","lat":43.25019,"lon":5.3896,"is_reserved":false,"is_disabled":false,"rental_uris":{"android":"levelo://app?vid=b04c65e5-66d7-4157-8f06-49b7a58abf34","ios":"levelo://app?vid=b04c65e5-66d7-4157-8f06-49b7a58abf34"},"vehicle_type_id":"4","last_reported":1740859739,"current_range_meters":3200,"station_id":"ce4bhgp2rcd13ifvqfd0","pricing_plan_id":"cebpf4jnsgd1na2vs0mg"},{"bike_id":"afb2d717-b0b2-4216-9315-9f047187da61","system_id":"levelo_inurba_marseille","lat":43.284607,"lon":5.358803,"is_reserved":false,"is_disabled":false,"rental_uris":{"android":"levelo://app?vid=afb2d717-b0b2-4216-9315-9f047187da61","ios":"levelo://app?vid=afb2d717-b0b2-4216-9315-9f047187da61"},"vehicle_type_id":"4","last_reported":1740859739,"current_range_meters":3200,"station_id":"ce4bhah2rcd13ifvqei0","pricing_plan_id":"cebpf4jnsgd1na2vs0mg"},{"bike_id":"998ff365-e5e6-4c18-8e2f-fe7e40b86134","system_id":"levelo_inurba_marseille","lat":43.32052,"lon":5.41532,"is_reserved":false,"is_disabled":false,"rental_uris":{"android":"levelo://app?vid=998ff365-e5e6-4c18-8e2f-fe7e40b86134","ios":"levelo://app?vid=998ff365-e5e6-4c18-8e2f-fe7e40b86134"},"vehicle_type_id":"4","last_reported":1740859739,"current_range_meters":3200,"station_id":"ce4bhq92rcd13ifvqhkg","pricing_plan_id":"cebpf4jnsgd1na2vs0mg"},{"bike_id":"f2fe61ab-366c-4abb-9dfa-a3afa1219e11","system_id":"levelo_inurba_marseille","lat":43.29413,"lon":5.38627,"is_reserved":false,"is_disabled":false,"rental_uris":{"android":"levelo://app?vid=f2fe61ab-366c-4abb-9dfa-a3afa1219e11","ios":"levelo://app?vid=f2fe61ab-366c-4abb-9dfa-a3afa1219e11"},"vehicle_type_id":"4","last_reported":1740859739,"current_range_meters":3600,"station_id":"ce4bh2h2rcd13ifvqdh0","pricing_plan_id":"cebpf4jnsgd1na2vs0mg"},{"bike_id":"510dc392-1a06-4284-b142-193be3fd0624","system_id":"levelo_inurba_marseille","lat":43.29314,"lon":5.37176,"is_reserved":false,"is_disabled":false,"rental_uris":{"android":"levelo://app?vid=510dc392-1a06-4284-b142-193be3fd0624","ios":"levelo://app?vid=510dc392-1a06-4284-b142-193be3fd0624"},"vehicle_type_id":"4","last_reported":1740859739,"current_range_meters":3600,"station_id":"ce4bgh92rcd13ifvqb40","pricing_plan_id":"cebpf4jnsgd1na2vs0mg"},{"bike_id":"6c3eacb5-4a05-4244-8c27-f6c24577221a","system_id":"levelo_inurba_marseille","lat":43.30539,"lon":5.3673,"is_reserved":false,"is_disabled":false,"rental_uris":{"android":"levelo://app?vid=6c3eacb5-4a05-4244-8c27-f6c24577221a","ios":"levelo://app?vid=6c3eacb5-4a05-4244-8c27-f6c24577221a"},"vehicle_type_id":"4","last_reported":1740859739,"current_range_meters":4000,"station_id":"ce4bgrp2rcd13ifvqc9g","pricing_plan_id":"cebpf4jnsgd1na2vs0mg"},{"bike_id":"49e0a034-277f-4658-83cf-83e39377ef50","system_id":"levelo_inurba_marseille","lat":43.29509,"lon":5.37941,"is_reserved":false,"is_disabled":false,"rental_uris":{"android":"levelo://app?vid=49e0a034-277f-4658-83cf-83e39377ef50","ios":"levelo://app?vid=49e0a034-277f-4658-83cf-83e39377ef50"},"vehicle_type_id":"4","last_reported":1740859739,"current_range_meters":4000,"station_id":"","pricing_plan_id":"cebpf4jnsgd1na2vs0mg"},{"bike_id":"202e3c4e-3fae-4e2f-adfc-68f5e86f2dd7","system_id":"levelo_inurba_marseille","lat":43.29611,"lon":5.38109,"is_reserved":false,"is_disabled":false,"rental_uris":{"android":"levelo://app?vid=202e3c4e-3fae-4e2f-adfc-68f5e86f2dd7","ios":"levelo://app?vid=202e3c4e-3fae-4e2f-adfc-68f5e86f2dd7"},"vehicle_type_id":"4","last_reported":1740859739,"current_range_meters":4400,"station_id":"ce4bgl12rcd13ifvqbo0","pricing_plan_id":"cebpf4jnsgd1na2vs0mg"},{"bike_id":"49ddb994-ddea-4fb8-b458-86b6a51e708b","system_id":"levelo_inurba_marseille","lat":43.29191,"lon":5.39318,"is_reserved":false,"is_disabled":false,"rental_uris":{"android":"levelo://app?vid=49ddb994-ddea-4fb8-b458-86b6a51e708b","ios":"levelo://app?vid=49ddb994-ddea-4fb8-b458-86b6a51e708b"},"vehicle_type_id":"4","last_reported":1740859739,"current_range_meters":4800,"station_id":"ce4bh192rcd13ifvqdd0","pricing_plan_id":"cebpf4jnsgd1na2vs0mg"},{"bike_id":"8feb1ea1-34fe-459d-a1cb-0836f242991b","system_id":"levelo_inurba_marseille","lat":43.24172,"lon":5.39672,"is_reserved":false,"is_disabled":false,"rental_uris":{"android":"levelo://app?vid=8feb1ea1-34fe-459d-a1cb-0836f242991b","ios":"levelo://app?vid=8feb1ea1-34fe-459d-a1cb-0836f242991b"},"vehicle_type_id":"4","last_reported":1740859739,"current_range_meters":4800,"station_id":"ce4bhn12rcd13ifvqgpg","pricing_plan_id":"cebpf4jnsgd1na2vs0mg"},{"bike_id":"bed4b083-1606-44bf-9af2-257efa1b1d7c","system_id":"levelo_inurba_marseille","lat":43.24143,"lon":5.36416,"is_reserved":false,"is_disabled":false,"rental_uris":{"android":"levelo://app?vid=bed4b083-1606-44bf-9af2-257efa1b1d7c","ios":"levelo://app?vid=bed4b083-1606-44bf-9af2-257efa1b1d7c"},"vehicle_type_id":"4","last_reported":1740859739,"current_range_meters":5600,"station_id":"cpo36qri1sfpv3e86is0","pricing_plan_id":"cebpf4jnsgd1na2vs0mg"},{"bike_id":"8acb03a0-8f96-418f-a122-e7f6a8483572","system_id":"levelo_inurba_marseille","lat":43.27914,"lon":5.39575,"is_reserved":false,"is_disabled":false,"rental_uris":{"android":"levelo://app?vid=8acb03a0-8f96-418f-a122-e7f6a8483572","ios":"levelo://app?vid=8acb03a0-8f96-418f-a122-e7f6a8483572"},"vehicle_type_id":"4","last_reported":1740859739,"current_range_meters":5600,"station_id":"ce4bhf92rcd13ifvqf40","pricing_plan_id":"cebpf4jnsgd1na2vs0mg"},{"bike_id":"a43bf156-de66-4712-9ff0-35da51ceca31","system_id":"levelo_inurba_marseille","lat":43.28941,"lon":5.39638,"is_reserved":false,"is_disabled":false,"rental_uris":{"android":"levelo://app?vid=a43bf156-de66-4712-9ff0-35da51ceca31","ios":"levelo://app?vid=a43bf156-de66-4712-9ff0-35da51ceca31"},"vehicle_type_id":"4","last_reported":1740859739,"current_range_meters":6000,"station_id":"ce4bh3h2rcd13ifvqdn0","pricing_plan_id":"cebpf4jnsgd1na2vs0mg"},{"bike_id":"34439f9a-c0cb-44fb-9d76-fd6e6b3cf7b4","system_id":"levelo_inurba_marseille","lat":43.29423,"lon":5.38613,"is_reserved":false,"is_disabled":false,"rental_uris":{"android":"levelo://app?vid=34439f9a-c0cb-44fb-9d76-fd6e6b3cf7b4","ios":"levelo://app?vid=34439f9a-c0cb-44fb-9d76-fd6e6b3cf7b4"},"vehicle_type_id":"4","last_reported":1740859739,"current_range_meters":6400,"station_id":"ce4bh2h2rcd13ifvqdh0","pricing_plan_id":"cebpf4jnsgd1na2vs0mg"},{"bike_id":"576bf4de-0033-46bf-9e74-74d91d945d5e","system_id":"levelo_inurba_marseille","lat":43.31219,"lon":5.36804,"is_reserved":false,"is_disabled":false,"rental_uris":{"android":"levelo://app?vid=576bf4de-0033-46bf-9e74-74d91d945d5e","ios":"levelo://app?vid=576bf4de-0033-46bf-9e74-74d91d945d5e"},"vehicle_type_id":"4","last_reported":1740859739,"current_range_meters":6400,"station_id":"ce4bgl92rcd13ifvqbq0","pricing_plan_id":"cebpf4jnsgd1na2vs0mg"},{"bike_id":"bf539502-6044-4aa2-acf9-ffbcdaefd787","system_id":"levelo_inurba_marseille","lat":43.27969,"lon":5.38756,"is_reserved":false,"is_disabled":false,"rental_uris":{"android":"levelo://app?vid=bf539502-6044-4aa2-acf9-ffbcdaefd787","ios":"levelo://app?vid=bf539502-6044-4aa2-acf9-ffbcdaefd787"},"vehicle_type_id":"4","last_reported":1740859739,"current_range_meters":6400,"station_id":"ce4bhg12rcd13ifvqf80","pricing_plan_id":"cebpf4jnsgd1na2vs0mg"},{"bike_id":"d36301ff-065c-4644-9520-d9e8e53fafb9","system_id":"levelo_inurba_marseille","lat":43.2721,"lon":5.39183,"is_reserved":false,"is_disabled":false,"rental_uris":{"android":"levelo://app?vid=d36301ff-065c-4644-9520-d9e8e53fafb9","ios":"levelo://app?vid=d36301ff-065c-4644-9520-d9e8e53fafb9"},"vehicle_type_id":"4","last_reported":1740859739,"current_range_meters":6400,"station_id":"ce4bhhp2rcd13ifvqfm0","pricing_plan_id":"cebpf4jnsgd1na2vs0mg"},{"bike_id":"17719f03-6aa6-4d30-9f96-b4a9f3830a5d","system_id":"levelo_inurba_marseille","lat":43.31891,"lon":5.40738,"is_reserved":false,"is_disabled":false,"rental_uris":{"android":"levelo://app?vid=17719f03-6aa6-4d30-9f96-b4a9f3830a5d","ios":"levelo://app?vid=17719f03-6aa6-4d30-9f96-b4a9f3830a5d"},"vehicle_type_id":"4","last_reported":1740859739,"current_range_meters":6400,"station_id":"ce4bhq12rcd13ifvqhig","pricing_plan_id":"cebpf4jnsgd1na2vs0mg"},{"bike_id":"8dbd79ab-8d7e-44ba-9f11-4afd7e562df1","system_id":"levelo_inurba_marseille","lat":43.250247,"lon":5.38916,"is_reserved":false,"is_disabled":false,"rental_uris":{"android":"levelo://app?vid=8dbd79ab-8d7e-44ba-9f11-4afd7e562df1","ios":"levelo://app?vid=8dbd79ab-8d7e-44ba-9f11-4afd7e562df1"},"vehicle_type_id":"4","last_reported":1740859739,"current_range_meters":6400,"station_id":"ce4bhgp2rcd13ifvqfd0","pricing_plan_id":"cebpf4jnsgd1na2vs0mg"},{"bike_id":"e8e574a6-d13a-4906-9b60-657faa08b971","system_id":"levelo_inurba_marseille","lat":43.26803,"lon":5.40261,"is_reserved":false,"is_disabled":false,"rental_uris":{"android":"levelo://app?vid=e8e574a6-d13a-4906-9b60-657faa08b971","ios":"levelo://app?vid=e8e574a6-d13a-4906-9b60-657faa08b971"},"vehicle_type_id":"4","last_reported":1740859739,"current_range_meters":6800,"station_id":"ce501612rcd8frsf0b60","pricing_plan_id":"cebpf4jnsgd1na2vs0mg"},{"bike_id":"be047da3-12fb-470e-9d78-68641c40dc2c","system_id":"levelo_inurba_marseille","lat":43.28682,"lon":5.40941,"is_reserved":false,"is_disabled":false,"rental_uris":{"android":"levelo://app?vid=be047da3-12fb-470e-9d78-68641c40dc2c","ios":"levelo://app?vid=be047da3-12fb-470e-9d78-68641c40dc2c"},"vehicle_type_id":"4","last_reported":1740859739,"current_range_meters":6800,"station_id":"","pricing_plan_id":"cebpf4jnsgd1na2vs0mg"},{"bike_id":"44253db3-626e-4059-82ed-a096ac51915b","system_id":"levelo_inurba_marseille","lat":43.28272,"lon":5.35084,"is_reserved":false,"is_disabled":false,"rental_uris":{"android":"levelo://app?vid=44253db3-626e-4059-82ed-a096ac51915b","ios":"levelo://app?vid=44253db3-626e-4059-82ed-a096ac51915b"},"vehicle_type_id":"4","last_reported":1740859739,"current_range_meters":7200,"station_id":"ce4bhbp2rcd13ifvqerg","pricing_plan_id":"cebpf4jnsgd1na2vs0mg"},{"bike_id":"a5fd71ea-4807-4e2d-a716-448c8cd70326","system_id":"levelo_inurba_marseille","lat":43.26546,"lon":5.373,"is_reserved":false,"is_disabled":false,"rental_uris":{"android":"levelo://app?vid=a5fd71ea-4807-4e2d-a716-448c8cd70326","ios":"levelo://app?vid=a5fd71ea-4807-4e2d-a716-448c8cd70326"},"vehicle_type_id":"4","last_reported":1740859739,"current_range_meters":7200,"station_id":"ce4bhg12rcd13ifvqf70","pricing_plan_id":"cebpf4jnsgd1na2vs0mg"},{"bike_id":"09fc9958-419a-4dcd-99aa-c4ba66e62ab9","system_id":"levelo_inurba_marseille","lat":43.28504,"lon":5.38567,"is_reserved":false,"is_disabled":false,"rental_uris":{"android":"levelo://app?vid=09fc9958-419a-4dcd-99aa-c4ba66e62ab9","ios":"levelo://app?vid=09fc9958-419a-4dcd-99aa-c4ba66e62ab9"},"vehicle_type_id":"4","last_reported":1740859739,"current_range_meters":7200,"station_id":"ce4bh8p2rcd13ifvqeb0","pricing_plan_id":"cebpf4jnsgd1na2vs0mg"},{"bike_id":"cbd3b7da-1333-4458-b6f2-7065ce830ca2","system_id":"levelo_inurba_marseille","lat":43.28077,"lon":5.39661,"is_reserved":false,"is_disabled":false,"rental_uris":{"android":"levelo://app?vid=cbd3b7da-1333-4458-b6f2-7065ce830ca2","ios":"levelo://app?vid=cbd3b7da-1333-4458-b6f2-7065ce830ca2"},"vehicle_type_id":"4","last_reported":1740859739,"current_range_meters":7200,"station_id":"ce4bho12rcd13ifvqh2g","pricing_plan_id":"cebpf4jnsgd1na2vs0mg"},{"bike_id":"4705d312-f56d-46d9-bbe9-2693493b5bb3","system_id":"levelo_inurba_marseille","lat":43.2439,"lon":5.3703,"is_reserved":false,"is_disabled":false,"rental_uris":{"android":"levelo://app?vid=4705d312-f56d-46d9-bbe9-2693493b5bb3","ios":"levelo://app?vid=4705d312-f56d-46d9-bbe9-2693493b5bb3"},"vehicle_type_id":"4","last_reported":1740859739,"current_range_meters":8000,"station_id":"ce4bhhh2rcd13ifvqfk0","pricing_plan_id":"cebpf4jnsgd1na2vs0mg"},{"bike_id":"31f382ad-72b5-4706-addc-cfadb2fc1c54","system_id":"levelo_inurba_marseille","lat":43.294233,"lon":5.386367,"is_reserved":false,"is_disabled":false,"rental_uris":{"android":"levelo://app?vid=31f382ad-72b5-4706-addc-cfadb2fc1c54","ios":"levelo://app?vid=31f382ad-72b5-4706-addc-cfadb2fc1c54"},"vehicle_type_id":"4","last_reported":1740859739,"current_range_meters":8000,"station_id":"ce4bh9p2rcd13ifvqed0","pricing_plan_id":"cebpf4jnsgd1na2vs0mg"},{"bike_id":"62b12a83-e85f-4351-a240-b88e48bc1e02","system_id":"levelo_inurba_marseille","lat":43.27814,"lon":5.40718,"is_reserved":false,"is_disabled":false,"rental_uris":{"android":"levelo://app?vid=62b12a83-e85f-4351-a240-b88e48bc1e02","ios":"levelo://app?vid=62b12a83-e85f-4351-a240-b88e48bc1e02"},"vehicle_type_id":"4","last_reported":1740859739,"current_range_meters":8000,"station_id":"ce4bhnh2rcd13ifvqgtg","pricing_plan_id":"cebpf4jnsgd1na2vs0mg"},{"bike_id":"49cf196d-46c2-4b6a-b1ce-adef85481502","system_id":"levelo_inurba_marseille","lat":43.24152,"lon":5.36386,"is_reserved":false,"is_disabled":false,"rental_uris":{"android":"levelo://app?vid=49cf196d-46c2-4b6a-b1ce-adef85481502","ios":"levelo://app?vid=49cf196d-46c2-4b6a-b1ce-adef85481502"},"vehicle_type_id":"4","last_reported":1740859739,"current_range_meters":8000,"station_id":"cpo36qri1sfpv3e86is0","pricing_plan_id":"cebpf4jnsgd1na2vs0mg"},{"bike_id":"f7888e25-446f-4da8-96e6-65d5daad9223","system_id":"levelo_inurba_marseille","lat":43.28404,"lon":5.34976,"is_reserved":false,"is_disabled":false,"rental_uris":{"android":"levelo://app?vid=f7888e25-446f-4da8-96e6-65d5daad9223","ios":"levelo://app?vid=f7888e25-446f-4da8-96e6-65d5daad9223"},"vehicle_type_id":"4","last_reported":1740859739,"current_range_meters":8000,"station_id":"ce4bhbh2rcd13ifvqepg","pricing_plan_id":"cebpf4jnsgd1na2vs0mg"},{"bike_id":"17ca1654-d306-4706-8755-51df68dfd4be","system_id":"levelo_inurba_marseille","lat":43.27904,"lon":5.38008,"is_reserved":false,"is_disabled":false,"rental_uris":{"android":"levelo://app?vid=17ca1654-d306-4706-8755-51df68dfd4be","ios":"levelo://app?vid=17ca1654-d306-4706-8755-51df68dfd4be"},"vehicle_type_id":"4","last_reported":1740859739,"current_range_meters":8000,"station_id":"ce4bhf92rcd13ifvqf50","pricing_plan_id":"cebpf4jnsgd1na2vs0mg"},{"bike_id":"b79c0ed9-d9eb-4849-9bdc-2483e1aeed10","system_id":"levelo_inurba_marseille","lat":43.27205,"lon":5.39195,"is_reserved":false,"is_disabled":false,"rental_uris":{"android":"levelo://app?vid=b79c0ed9-d9eb-4849-9bdc-2483e1aeed10","ios":"levelo://app?vid=b79c0ed9-d9eb-4849-9bdc-2483e1aeed10"},"vehicle_type_id":"4","last_reported":1740859739,"current_range_meters":8400,"station_id":"ce4bhhp2rcd13ifvqfm0","pricing_plan_id":"cebpf4jnsgd1na2vs0mg"},{"bike_id":"ba901c60-771b-4712-bf4d-891f1c787351","system_id":"levelo_inurba_marseille","lat":43.29798,"lon":5.38103,"is_reserved":false,"is_disabled":false,"rental_uris":{"android":"levelo://app?vid=ba901c60-771b-4712-bf4d-891f1c787351","ios":"levelo://app?vid=ba901c60-771b-4712-bf4d-891f1c787351"},"vehicle_type_id":"4","last_reported":1740859739,"current_range_meters":9600,"station_id":"ce4bgip2rcd13ifvqbb0","pricing_plan_id":"cebpf4jnsgd1na2vs0mg"},{"bike_id":"0613842b-00c5-4faa-b513-ba4efa2fe324","system_id":"levelo_inurba_marseille","lat":43.28477,"lon":5.38413,"is_reserved":false,"is_disabled":false,"rental_uris":{"android":"levelo://app?vid=0613842b-00c5-4faa-b513-ba4efa2fe324","ios":"levelo://app?vid=0613842b-00c5-4faa-b513-ba4efa2fe324"},"vehicle_type_id":"4","last_reported":1740859739,"current_range_meters":6800,"station_id":"ce4bh512rcd13ifvqe3g","pricing_plan_id":"cebpf4jnsgd1na2vs0mg"},{"bike_id":"364b209e-752e-45ea-b26c-06b2552c1833","system_id":"levelo_inurba_marseille","lat":43.2319,"lon":5.35546,"is_reserved":false,"is_disabled":false,"rental_uris":{"android":"levelo://app?vid=364b209e-752e-45ea-b26c-06b2552c1833","ios":"levelo://app?vid=364b209e-752e-45ea-b26c-06b2552c1833"},"vehicle_type_id":"4","last_reported":1740859739,"current_range_meters":8400,"station_id":"ce4bhu92rcd13ifvqi70","pricing_plan_id":"cebpf4jnsgd1na2vs0mg"},{"bike_id":"be3846e6-ef46-489f-9e18-fa8a2d8c6be3","system_id":"levelo_inurba_marseille","lat":43.27953,"lon":5.41037,"is_reserved":false,"is_disabled":false,"rental_uris":{"android":"levelo://app?vid=be3846e6-ef46-489f-9e18-fa8a2d8c6be3","ios":"levelo://app?vid=be3846e6-ef46-489f-9e18-fa8a2d8c6be3"},"vehicle_type_id":"4","last_reported":1740859739,"current_range_meters":8400,"station_id":"ce4bhnp2rcd13ifvqh0g","pricing_plan_id":"cebpf4jnsgd1na2vs0mg"},{"bike_id":"49e9cdc7-76a5-4b66-ae2d-61c73beb73a8","system_id":"levelo_inurba_marseille","lat":43.24165,"lon":5.36408,"is_reserved":false,"is_disabled":false,"rental_uris":{"android":"levelo://app?vid=49e9cdc7-76a5-4b66-ae2d-61c73beb73a8","ios":"levelo://app?vid=49e9cdc7-76a5-4b66-ae2d-61c73beb73a8"},"vehicle_type_id":"4","last_reported":1740859739,"current_range_meters":8400,"station_id":"cpo36qri1sfpv3e86is0","pricing_plan_id":"cebpf4jnsgd1na2vs0mg"},{"bike_id":"593edb3c-7add-4a3d-9dbe-95cef549de0d","system_id":"levelo_inurba_marseille","lat":43.23078,"lon":5.3548,"is_reserved":false,"is_disabled":false,"rental_uris":{"android":"levelo://app?vid=593edb3c-7add-4a3d-9dbe-95cef549de0d","ios":"levelo://app?vid=593edb3c-7add-4a3d-9dbe-95cef549de0d"},"vehicle_type_id":"4","last_reported":1740859739,"current_range_meters":8400,"station_id":"cpo3342slgdg3j2ifvpg","pricing_plan_id":"cebpf4jnsgd1na2vs0mg"},{"bike_id":"59aefcfd-cb49-414f-a2b4-58f76bb5ab27","system_id":"levelo_inurba_marseille","lat":43.30372,"lon":5.42871,"is_reserved":false,"is_disabled":false,"rental_uris":{"android":"levelo://app?vid=59aefcfd-cb49-414f-a2b4-58f76bb5ab27","ios":"levelo://app?vid=59aefcfd-cb49-414f-a2b4-58f76bb5ab27"},"vehicle_type_id":"4","last_reported":1740859739,"current_range_meters":8800,"station_id":"","pricing_plan_id":"cebpf4jnsgd1na2vs0mg"},{"bike_id":"03a302fb-b187-4fdc-b649-695431f73b06","system_id":"levelo_inurba_marseille","lat":43.26487,"lon":5.39556,"is_reserved":false,"is_disabled":false,"rental_uris":{"android":"levelo://app?vid=03a302fb-b187-4fdc-b649-695431f73b06","ios":"levelo://app?vid=03a302fb-b187-4fdc-b649-695431f73b06"},"vehicle_type_id":"4","last_reported":1740859739,"current_range_meters":8800,"station_id":"ce4bhi12rcd13ifvqfq0","pricing_plan_id":"cebpf4jnsgd1na2vs0mg"},{"bike_id":"f052d075-2a0e-4b8f-958c-02f7f19c7afd","system_id":"levelo_inurba_marseille","lat":43.29416,"lon":5.38622,"is_reserved":false,"is_disabled":false,"rental_uris":{"android":"levelo://app?vid=f052d075-2a0e-4b8f-958c-02f7f19c7afd","ios":"levelo://app?vid=f052d075-2a0e-4b8f-958c-02f7f19c7afd"},"vehicle_type_id":"4","last_reported":1740859739,"current_range_meters":8800,"station_id":"ce4bh2h2rcd13ifvqdh0","pricing_plan_id":"cebpf4jnsgd1na2vs0mg"},{"bike_id":"bddf37d4-a2ae-4c74-bcad-602e7e9ee614","system_id":"levelo_inurba_marseille","lat":43.24631,"lon":5.38232,"is_reserved":false,"is_disabled":false,"rental_uris":{"android":"levelo://app?vid=bddf37d4-a2ae-4c74-bcad-602e7e9ee614","ios":"levelo://app?vid=bddf37d4-a2ae-4c74-bcad-602e7e9ee614"},"vehicle_type_id":"4","last_reported":1740859739,"current_range_meters":8800,"station_id":"ce4bhih2rcd13ifvqfr0","pricing_plan_id":"cebpf4jnsgd1na2vs0mg"},{"bike_id":"37f1ab27-dd59-4f4d-9440-0c162d015c13","system_id":"levelo_inurba_marseille","lat":43.33012,"lon":5.39057,"is_reserved":false,"is_disabled":false,"rental_uris":{"android":"levelo://app?vid=37f1ab27-dd59-4f4d-9440-0c162d015c13","ios":"levelo://app?vid=37f1ab27-dd59-4f4d-9440-0c162d015c13"},"vehicle_type_id":"4","last_reported":1740859739,"current_range_meters":8800,"station_id":"ce4bhr92rcd13ifvqhrg","pricing_plan_id":"cebpf4jnsgd1na2vs0mg"},{"bike_id":"9b596371-d612-49f2-b81f-de4bef0d4e5a","system_id":"levelo_inurba_marseille","lat":43.2413,"lon":5.36528,"is_reserved":false,"is_disabled":false,"rental_uris":{"android":"levelo://app?vid=9b596371-d612-49f2-b81f-de4bef0d4e5a","ios":"levelo://app?vid=9b596371-d612-49f2-b81f-de4bef0d4e5a"},"vehicle_type_id":"4","last_reported":1740859739,"current_range_meters":8800,"station_id":"cpo36qri1sfpv3e86is0","pricing_plan_id":"cebpf4jnsgd1na2vs0mg"},{"bike_id":"21eb704d-0d59-430c-ac00-3e753c001e9e","system_id":"levelo_inurba_marseille","lat":43.27815,"lon":5.40725,"is_reserved":false,"is_disabled":false,"rental_uris":{"android":"levelo://app?vid=21eb704d-0d59-430c-ac00-3e753c001e9e","ios":"levelo://app?vid=21eb704d-0d59-430c-ac00-3e753c001e9e"},"vehicle_type_id":"4","last_reported":1740859739,"current_range_meters":8800,"station_id":"ce4bhnh2rcd13ifvqgtg","pricing_plan_id":"cebpf4jnsgd1na2vs0mg"},{"bike_id":"88274dcd-e7c9-4a7a-9f67-839b1841ad84","system_id":"levelo_inurba_marseille","lat":43.27207,"lon":5.39185,"is_reserved":false,"is_disabled":false,"rental_uris":{"android":"levelo://app?vid=88274dcd-e7c9-4a7a-9f67-839b1841ad84","ios":"levelo://app?vid=88274dcd-e7c9-4a7a-9f67-839b1841ad84"},"vehicle_type_id":"4","last_reported":1740859739,"current_range_meters":8800,"station_id":"ce4bhhp2rcd13ifvqfm0","pricing_plan_id":"cebpf4jnsgd1na2vs0mg"},{"bike_id":"2da985e1-32e2-4a7c-a138-93823327040c","system_id":"levelo_inurba_marseille","lat":43.31329,"lon":5.39691,"is_reserved":false,"is_disabled":false,"rental_uris":{"android":"levelo://app?vid=2da985e1-32e2-4a7c-a138-93823327040c","ios":"levelo://app?vid=2da985e1-32e2-4a7c-a138-93823327040c"},"vehicle_type_id":"4","last_reported":1740859739,"current_range_meters":8800,"station_id":"ce4bgvp2rcd13ifvqcu0","pricing_plan_id":"cebpf4jnsgd1na2vs0mg"},{"bike_id":"985eb8ad-cf0b-483c-83ba-7bf0b29f6f00","system_id":"levelo_inurba_marseille","lat":43.29518,"lon":5.39407,"is_reserved":false,"is_disabled":false,"rental_uris":{"android":"levelo://app?vid=985eb8ad-cf0b-483c-83ba-7bf0b29f6f00","ios":"levelo://app?vid=985eb8ad-cf0b-483c-83ba-7bf0b29f6f00"},"vehicle_type_id":"4","last_reported":1740859739,"current_range_meters":8400,"station_id":"ce4bh292rcd13ifvqdf0","pricing_plan_id":"cebpf4jnsgd1na2vs0mg"},{"bike_id":"48b99982-0af0-4535-926e-bd5b708812d5","system_id":"levelo_inurba_marseille","lat":43.27946,"lon":5.41062,"is_reserved":false,"is_disabled":false,"rental_uris":{"android":"levelo://app?vid=48b99982-0af0-4535-926e-bd5b708812d5","ios":"levelo://app?vid=48b99982-0af0-4535-926e-bd5b708812d5"},"vehicle_type_id":"4","last_reported":1740859739,"current_range_meters":9200,"station_id":"ce4bhnp2rcd13ifvqh0g","pricing_plan_id":"cebpf4jnsgd1na2vs0mg"},{"bike_id":"03a21d1c-b84b-414f-a2dd-d400086a40f9","system_id":"levelo_inurba_marseille","lat":43.27947,"lon":5.41045,"is_reserved":false,"is_disabled":false,"rental_uris":{"android":"levelo://app?vid=03a21d1c-b84b-414f-a2dd-d400086a40f9","ios":"levelo://app?vid=03a21d1c-b84b-414f-a2dd-d400086a40f9"},"vehicle_type_id":"4","last_reported":1740859739,"current_range_meters":9200,"station_id":"ce4bhnp2rcd13ifvqh0g","pricing_plan_id":"cebpf4jnsgd1na2vs0mg"},{"bike_id":"ce5b717b-8065-41cb-ac73-ea554cd5c020","system_id":"levelo_inurba_marseille","lat":43.26565,"lon":5.39002,"is_reserved":false,"is_disabled":false,"rental_uris":{"android":"levelo://app?vid=ce5b717b-8065-41cb-ac73-ea554cd5c020","ios":"levelo://app?vid=ce5b717b-8065-41cb-ac73-ea554cd5c020"},"vehicle_type_id":"4","last_reported":1740859739,"current_range_meters":9200,"station_id":"ce4bhe12rcd13ifvqf30","pricing_plan_id":"cebpf4jnsgd1na2vs0mg"},{"bike_id":"11eeaa41-65fd-4096-aabf-ea952f76267a","system_id":"levelo_inurba_marseille","lat":43.34159,"lon":5.40914,"is_reserved":false,"is_disabled":false,"rental_uris":{"android":"levelo://app?vid=11eeaa41-65fd-4096-aabf-ea952f76267a","ios":"levelo://app?vid=11eeaa41-65fd-4096-aabf-ea952f76267a"},"vehicle_type_id":"4","last_reported":1740859739,"current_range_meters":9200,"station_id":"ce4bhqh2rcd13ifvqhlg","pricing_plan_id":"cebpf4jnsgd1na2vs0mg"},{"bike_id":"c65e2549-0bd4-4200-87e8-04da94f3c3c4","system_id":"levelo_inurba_marseille","lat":43.28414,"lon":5.34992,"is_reserved":false,"is_disabled":false,"rental_uris":{"android":"levelo://app?vid=c65e2549-0bd4-4200-87e8-04da94f3c3c4","ios":"levelo://app?vid=c65e2549-0bd4-4200-87e8-04da94f3c3c4"},"vehicle_type_id":"4","last_reported":1740859739,"current_range_meters":9600,"station_id":"ce4bhbh2rcd13ifvqepg","pricing_plan_id":"cebpf4jnsgd1na2vs0mg"},{"bike_id":"53ebed9a-fd1a-4d94-96e3-0c8bc5887ace","system_id":"levelo_inurba_marseille","lat":43.31393,"lon":5.39404,"is_reserved":false,"is_disabled":false,"rental_uris":{"android":"levelo://app?vid=53ebed9a-fd1a-4d94-96e3-0c8bc5887ace","ios":"levelo://app?vid=53ebed9a-fd1a-4d94-96e3-0c8bc5887ace"},"vehicle_type_id":"4","last_reported":1740859739,"current_range_meters":9600,"station_id":"","pricing_plan_id":"cebpf4jnsgd1na2vs0mg"},{"bike_id":"ed29e4b5-d1aa-4ba3-82b0-486ca0687c61","system_id":"levelo_inurba_marseille","lat":43.2838,"lon":5.38656,"is_reserved":false,"is_disabled":false,"rental_uris":{"android":"levelo://app?vid=ed29e4b5-d1aa-4ba3-82b0-486ca0687c61","ios":"levelo://app?vid=ed29e4b5-d1aa-4ba3-82b0-486ca0687c61"},"vehicle_type_id":"4","last_reported":1740859739,"current_range_meters":9600,"station_id":"ce4bh492rcd13ifvqdvg","pricing_plan_id":"cebpf4jnsgd1na2vs0mg"},{"bike_id":"4bd4b995-1984-49fc-b229-218c3bec2a20","system_id":"levelo_inurba_marseille","lat":43.28414,"lon":5.34997,"is_reserved":false,"is_disabled":false,"rental_uris":{"android":"levelo://app?vid=4bd4b995-1984-49fc-b229-218c3bec2a20","ios":"levelo://app?vid=4bd4b995-1984-49fc-b229-218c3bec2a20"},"vehicle_type_id":"4","last_reported":1740859739,"current_range_meters":9600,"station_id":"ce4bhbh2rcd13ifvqepg","pricing_plan_id":"cebpf4jnsgd1na2vs0mg"},{"bike_id":"68fe3e03-e289-4b20-90e8-16c9ff429710","system_id":"levelo_inurba_marseille","lat":43.29285,"lon":5.36807,"is_reserved":false,"is_disabled":false,"rental_uris":{"android":"levelo://app?vid=68fe3e03-e289-4b20-90e8-16c9ff429710","ios":"levelo://app?vid=68fe3e03-e289-4b20-90e8-16c9ff429710"},"vehicle_type_id":"4","last_reported":1740859739,"current_range_meters":9600,"station_id":"ce4bhbp2rcd13ifvqesg","pricing_plan_id":"cebpf4jnsgd1na2vs0mg"},{"bike_id":"b777b4cf-3a59-4bd6-bbe8-877c47f15172","system_id":"levelo_inurba_marseille","lat":43.29264,"lon":5.36848,"is_reserved":false,"is_disabled":false,"rental_uris":{"android":"levelo://app?vid=b777b4cf-3a59-4bd6-bbe8-877c47f15172","ios":"levelo://app?vid=b777b4cf-3a59-4bd6-bbe8-877c47f15172"},"vehicle_type_id":"4","last_reported":1740859739,"current_range_meters":9600,"station_id":"ce4bhbp2rcd13ifvqesg","pricing_plan_id":"cebpf4jnsgd1na2vs0mg"},{"bike_id":"c1680bf3-a159-40f5-a36a-7ae00f9bf0fb","system_id":"levelo_inurba_marseille","lat":43.29416,"lon":5.38627,"is_reserved":false,"is_disabled":false,"rental_uris":{"android":"levelo://app?vid=c1680bf3-a159-40f5-a36a-7ae00f9bf0fb","ios":"levelo://app?vid=c1680bf3-a159-40f5-a36a-7ae00f9bf0fb"},"vehicle_type_id":"4","last_reported":1740859739,"current_range_meters":9600,"station_id":"ce4bh2h2rcd13ifvqdh0","pricing_plan_id":"cebpf4jnsgd1na2vs0mg"},{"bike_id":"06e089c6-2855-489a-9834-e2200e4fc831","system_id":"levelo_inurba_marseille","lat":43.27944,"lon":5.41066,"is_reserved":false,"is_disabled":false,"rental_uris":{"android":"levelo://app?vid=06e089c6-2855-489a-9834-e2200e4fc831","ios":"levelo://app?vid=06e089c6-2855-489a-9834-e2200e4fc831"},"vehicle_type_id":"4","last_reported":1740859739,"current_range_meters":10000,"station_id":"ce4bhnp2rcd13ifvqh0g","pricing_plan_id":"cebpf4jnsgd1na2vs0mg"},{"bike_id":"8652a5ef-ad2e-47c4-af54-8fda6555b2b5","system_id":"levelo_inurba_marseille","lat":43.31143,"lon":5.39824,"is_reserved":false,"is_disabled":false,"rental_uris":{"android":"levelo://app?vid=8652a5ef-ad2e-47c4-af54-8fda6555b2b5","ios":"levelo://app?vid=8652a5ef-ad2e-47c4-af54-8fda6555b2b5"},"vehicle_type_id":"4","last_reported":1740859739,"current_range_meters":10000,"station_id":"","pricing_plan_id":"cebpf4jnsgd1na2vs0mg"},{"bike_id":"331d8231-4ea9-4594-bb6b-337f1c1933fc","system_id":"levelo_inurba_marseille","lat":43.28981,"lon":5.37848,"is_reserved":false,"is_disabled":false,"rental_uris":{"android":"levelo://app?vid=331d8231-4ea9-4594-bb6b-337f1c1933fc","ios":"levelo://app?vid=331d8231-4ea9-4594-bb6b-337f1c1933fc"},"vehicle_type_id":"4","last_reported":1740859739,"current_range_meters":10000,"station_id":"ce4bh9p2rcd13ifvqed0","pricing_plan_id":"cebpf4jnsgd1na2vs0mg"},{"bike_id":"f480da84-1887-4ade-84fb-1c0d19a4cdd8","system_id":"levelo_inurba_marseille","lat":43.32375,"lon":5.38842,"is_reserved":false,"is_disabled":false,"rental_uris":{"android":"levelo://app?vid=f480da84-1887-4ade-84fb-1c0d19a4cdd8","ios":"levelo://app?vid=f480da84-1887-4ade-84fb-1c0d19a4cdd8"},"vehicle_type_id":"4","last_reported":1740859739,"current_range_meters":10000,"station_id":"ce4bhqp2rcd13ifvqhog","pricing_plan_id":"cebpf4jnsgd1na2vs0mg"},{"bike_id":"fd4ceb47-7745-40bf-b9f8-cbc3ab65ca1f","system_id":"levelo_inurba_marseille","lat":43.23175,"lon":5.40012,"is_reserved":false,"is_disabled":false,"rental_uris":{"android":"levelo://app?vid=fd4ceb47-7745-40bf-b9f8-cbc3ab65ca1f","ios":"levelo://app?vid=fd4ceb47-7745-40bf-b9f8-cbc3ab65ca1f"},"vehicle_type_id":"4","last_reported":1740859739,"current_range_meters":10000,"station_id":"ce4bhn12rcd13ifvqgqg","pricing_plan_id":"cebpf4jnsgd1na2vs0mg"},{"bike_id":"161d70e9-e213-4bf5-bde1-9c3d7296d89c","system_id":"levelo_inurba_marseille","lat":43.27838,"lon":5.392,"is_reserved":false,"is_disabled":false,"rental_uris":{"android":"levelo://app?vid=161d70e9-e213-4bf5-bde1-9c3d7296d89c","ios":"levelo://app?vid=161d70e9-e213-4bf5-bde1-9c3d7296d89c"},"vehicle_type_id":"4","last_reported":1740859739,"current_range_meters":10000,"station_id":"ce4bhjp2rcd13ifvqga0","pricing_plan_id":"cebpf4jnsgd1na2vs0mg"},{"bike_id":"bfe90d01-8d25-4290-b14f-36012afdda4e","system_id":"levelo_inurba_marseille","lat":43.29981,"lon":5.38523,"is_reserved":false,"is_disabled":false,"rental_uris":{"android":"levelo://app?vid=bfe90d01-8d25-4290-b14f-36012afdda4e","ios":"levelo://app?vid=bfe90d01-8d25-4290-b14f-36012afdda4e"},"vehicle_type_id":"4","last_reported":1740859739,"current_range_meters":9600,"station_id":"ce4bgj92rcd13ifvqbd0","pricing_plan_id":"cebpf4jnsgd1na2vs0mg"},{"bike_id":"06b48c7b-b23c-4a46-b007-dd3e94572a2a","system_id":"levelo_inurba_marseille","lat":43.30312,"lon":5.36924,"is_reserved":false,"is_disabled":false,"rental_uris":{"android":"levelo://app?vid=06b48c7b-b23c-4a46-b007-dd3e94572a2a","ios":"levelo://app?vid=06b48c7b-b23c-4a46-b007-dd3e94572a2a"},"vehicle_type_id":"4","last_reported":1740859739,"current_range_meters":10000,"station_id":"ce4bgqh2rcd13ifvqc5g","pricing_plan_id":"cebpf4jnsgd1na2vs0mg"},{"bike_id":"875e0e4e-acc7-4916-a21e-8a4a106acaf9","system_id":"levelo_inurba_marseille","lat":43.31261,"lon":5.40169,"is_reserved":false,"is_disabled":true,"rental_uris":{"android":"levelo://app?vid=875e0e4e-acc7-4916-a21e-8a4a106acaf9","ios":"levelo://app?vid=875e0e4e-acc7-4916-a21e-8a4a106acaf9"},"vehicle_type_id":"4","last_reported":1740859739,"current_range_meters":10000,"station_id":"ce4bh092rcd13ifvqd30","pricing_plan_id":"cebpf4jnsgd1na2vs0mg"},{"bike_id":"8b1b8bd8-51ac-4d3f-92f3-58695230689e","system_id":"levelo_inurba_marseille","lat":43.28262,"lon":5.35068,"is_reserved":false,"is_disabled":false,"rental_uris":{"android":"levelo://app?vid=8b1b8bd8-51ac-4d3f-92f3-58695230689e","ios":"levelo://app?vid=8b1b8bd8-51ac-4d3f-92f3-58695230689e"},"vehicle_type_id":"4","last_reported":1740859739,"current_range_meters":10000,"station_id":"ce4bhbp2rcd13ifvqerg","pricing_plan_id":"cebpf4jnsgd1na2vs0mg"},{"bike_id":"d8fe0be3-35ed-45a4-b438-c25530bcccfc","system_id":"levelo_inurba_marseille","lat":43.2904,"lon":5.3864,"is_reserved":false,"is_disabled":false,"rental_uris":{"android":"levelo://app?vid=d8fe0be3-35ed-45a4-b438-c25530bcccfc","ios":"levelo://app?vid=d8fe0be3-35ed-45a4-b438-c25530bcccfc"},"vehicle_type_id":"4","last_reported":1740859739,"current_range_meters":10000,"station_id":"ce4bh4p2rcd13ifvqe0g","pricing_plan_id":"cebpf4jnsgd1na2vs0mg"},{"bike_id":"c49a9e1b-1df2-4fca-ac4f-18e785fbb1db","system_id":"levelo_inurba_marseille","lat":43.29416,"lon":5.38625,"is_reserved":false,"is_disabled":false,"rental_uris":{"android":"levelo://app?vid=c49a9e1b-1df2-4fca-ac4f-18e785fbb1db","ios":"levelo://app?vid=c49a9e1b-1df2-4fca-ac4f-18e785fbb1db"},"vehicle_type_id":"4","last_reported":1740859739,"current_range_meters":10000,"station_id":"ce4bh2h2rcd13ifvqdh0","pricing_plan_id":"cebpf4jnsgd1na2vs0mg"},{"bike_id":"7f7c455d-31c3-4413-8821-eca6cd5cb252","system_id":"levelo_inurba_marseille","lat":43.27815,"lon":5.4072,"is_reserved":false,"is_disabled":false,"rental_uris":{"android":"levelo://app?vid=7f7c455d-31c3-4413-8821-eca6cd5cb252","ios":"levelo://app?vid=7f7c455d-31c3-4413-8821-eca6cd5cb252"},"vehicle_type_id":"4","last_reported":1740859739,"current_range_meters":10000,"station_id":"ce4bhnh2rcd13ifvqgtg","pricing_plan_id":"cebpf4jnsgd1na2vs0mg"},{"bike_id":"3ead5065-cf4c-4f74-96d5-3582e9a69925","system_id":"levelo_inurba_marseille","lat":43.29276,"lon":5.3685,"is_reserved":false,"is_disabled":false,"rental_uris":{"android":"levelo://app?vid=3ead5065-cf4c-4f74-96d5-3582e9a69925","ios":"levelo://app?vid=3ead5065-cf4c-4f74-96d5-3582e9a69925"},"vehicle_type_id":"4","last_reported":1740859739,"current_range_meters":10800,"station_id":"ce4bhbp2rcd13ifvqesg","pricing_plan_id":"cebpf4jnsgd1na2vs0mg"},{"bike_id":"ddf90109-4572-4b1a-a4f2-eae9f9d34937","system_id":"levelo_inurba_marseille","lat":43.24401,"lon":5.37036,"is_reserved":false,"is_disabled":false,"rental_uris":{"android":"levelo://app?vid=ddf90109-4572-4b1a-a4f2-eae9f9d34937","ios":"levelo://app?vid=ddf90109-4572-4b1a-a4f2-eae9f9d34937"},"vehicle_type_id":"4","last_reported":1740859739,"current_range_meters":10800,"station_id":"ce4bhhh2rcd13ifvqfk0","pricing_plan_id":"cebpf4jnsgd1na2vs0mg"},{"bike_id":"3298d640-a866-40fd-ae33-0cd65ccd33ee","system_id":"levelo_inurba_marseille","lat":43.29527,"lon":5.38537,"is_reserved":false,"is_disabled":false,"rental_uris":{"android":"levelo://app?vid=3298d640-a866-40fd-ae33-0cd65ccd33ee","ios":"levelo://app?vid=3298d640-a866-40fd-ae33-0cd65ccd33ee"},"vehicle_type_id":"4","last_reported":1740859739,"current_range_meters":10800,"station_id":"ce4bgih2rcd13ifvqba0","pricing_plan_id":"cebpf4jnsgd1na2vs0mg"},{"bike_id":"c2ab15d3-a7ae-4e1f-9a13-24b8c5e92320","system_id":"levelo_inurba_marseille","lat":43.29544,"lon":5.38547,"is_reserved":false,"is_disabled":false,"rental_uris":{"android":"levelo://app?vid=c2ab15d3-a7ae-4e1f-9a13-24b8c5e92320","ios":"levelo://app?vid=c2ab15d3-a7ae-4e1f-9a13-24b8c5e92320"},"vehicle_type_id":"4","last_reported":1740859739,"current_range_meters":10800,"station_id":"ce4bgih2rcd13ifvqba0","pricing_plan_id":"cebpf4jnsgd1na2vs0mg"},{"bike_id":"4df11988-4f91-471f-93f7-5709d818f530","system_id":"levelo_inurba_marseille","lat":43.292768,"lon":5.368345,"is_reserved":false,"is_disabled":false,"rental_uris":{"android":"levelo://app?vid=4df11988-4f91-471f-93f7-5709d818f530","ios":"levelo://app?vid=4df11988-4f91-471f-93f7-5709d818f530"},"vehicle_type_id":"4","last_reported":1740859739,"current_range_meters":10800,"station_id":"ce4bhbp2rcd13ifvqesg","pricing_plan_id":"cebpf4jnsgd1na2vs0mg"},{"bike_id":"2667b23c-67ae-471f-a157-93cd2283f666","system_id":"levelo_inurba_marseille","lat":43.29623,"lon":5.38085,"is_reserved":false,"is_disabled":false,"rental_uris":{"android":"levelo://app?vid=2667b23c-67ae-471f-a157-93cd2283f666","ios":"levelo://app?vid=2667b23c-67ae-471f-a157-93cd2283f666"},"vehicle_type_id":"4","last_reported":1740859739,"current_range_meters":10800,"station_id":"ce4bgl12rcd13ifvqbo0","pricing_plan_id":"cebpf4jnsgd1na2vs0mg"},{"bike_id":"2742beb1-22dc-4927-b00f-d397cf50bf7a","system_id":"levelo_inurba_marseille","lat":43.29607,"lon":5.38098,"is_reserved":false,"is_disabled":false,"rental_uris":{"android":"levelo://app?vid=2742beb1-22dc-4927-b00f-d397cf50bf7a","ios":"levelo://app?vid=2742beb1-22dc-4927-b00f-d397cf50bf7a"},"vehicle_type_id":"4","last_reported":1740859739,"current_range_meters":10800,"station_id":"ce4bgl12rcd13ifvqbo0","pricing_plan_id":"cebpf4jnsgd1na2vs0mg"},{"bike_id":"0693b9d6-4a9d-4e38-bfa2-80f934bcc2e3","system_id":"levelo_inurba_marseille","lat":43.24159,"lon":5.36381,"is_reserved":false,"is_disabled":false,"rental_uris":{"android":"levelo://app?vid=0693b9d6-4a9d-4e38-bfa2-80f934bcc2e3","ios":"levelo://app?vid=0693b9d6-4a9d-4e38-bfa2-80f934bcc2e3"},"vehicle_type_id":"4","last_reported":1740859739,"current_range_meters":11200,"station_id":"cpo36qri1sfpv3e86is0","pricing_plan_id":"cebpf4jnsgd1na2vs0mg"},{"bike_id":"5d581bbf-c03d-40c4-8c08-d40ad9eeaa19","system_id":"levelo_inurba_marseille","lat":43.29111,"lon":5.42683,"is_reserved":false,"is_disabled":false,"rental_uris":{"android":"levelo://app?vid=5d581bbf-c03d-40c4-8c08-d40ad9eeaa19","ios":"levelo://app?vid=5d581bbf-c03d-40c4-8c08-d40ad9eeaa19"},"vehicle_type_id":"4","last_reported":1740859739,"current_range_meters":11200,"station_id":"","pricing_plan_id":"cebpf4jnsgd1na2vs0mg"},{"bike_id":"60d93683-8b60-4b78-a2d2-4b09c58ff8d7","system_id":"levelo_inurba_marseille","lat":43.25862,"lon":5.39904,"is_reserved":false,"is_disabled":false,"rental_uris":{"android":"levelo://app?vid=60d93683-8b60-4b78-a2d2-4b09c58ff8d7","ios":"levelo://app?vid=60d93683-8b60-4b78-a2d2-4b09c58ff8d7"},"vehicle_type_id":"4","last_reported":1740859739,"current_range_meters":11200,"station_id":"ce4bhl92rcd13ifvqghg","pricing_plan_id":"cebpf4jnsgd1na2vs0mg"},{"bike_id":"c7a66b5d-2fa3-4b79-b04f-7141790bc8f6","system_id":"levelo_inurba_marseille","lat":43.27619,"lon":5.36117,"is_reserved":false,"is_disabled":false,"rental_uris":{"android":"levelo://app?vid=c7a66b5d-2fa3-4b79-b04f-7141790bc8f6","ios":"levelo://app?vid=c7a66b5d-2fa3-4b79-b04f-7141790bc8f6"},"vehicle_type_id":"4","last_reported":1740859739,"current_range_meters":11200,"station_id":"ce4bgj92rcd13ifvqbe0","pricing_plan_id":"cebpf4jnsgd1na2vs0mg"},{"bike_id":"8040b270-2d88-48d7-bff4-c53dcb8e32e3","system_id":"levelo_inurba_marseille","lat":43.29941,"lon":5.36524,"is_reserved":false,"is_disabled":false,"rental_uris":{"android":"levelo://app?vid=8040b270-2d88-48d7-bff4-c53dcb8e32e3","ios":"levelo://app?vid=8040b270-2d88-48d7-bff4-c53dcb8e32e3"},"vehicle_type_id":"4","last_reported":1740859739,"current_range_meters":11200,"station_id":"ce4bgm92rcd13ifvqbr0","pricing_plan_id":"cebpf4jnsgd1na2vs0mg"},{"bike_id":"34dff025-e9dc-446f-828b-1c1aeb6138cd","system_id":"levelo_inurba_marseille","lat":43.26934,"lon":5.40254,"is_reserved":false,"is_disabled":false,"rental_uris":{"android":"levelo://app?vid=34dff025-e9dc-446f-828b-1c1aeb6138cd","ios":"levelo://app?vid=34dff025-e9dc-446f-828b-1c1aeb6138cd"},"vehicle_type_id":"4","last_reported":1740859739,"current_range_meters":11600,"station_id":"cjm6bp8fraef2m0cb0m0","pricing_plan_id":"cebpf4jnsgd1na2vs0mg"},{"bike_id":"e3ea0c82-575d-4f15-b57c-6eebd57f815a","system_id":"levelo_inurba_marseille","lat":43.27301,"lon":5.39129,"is_reserved":false,"is_disabled":true,"rental_uris":{"android":"levelo://app?vid=e3ea0c82-575d-4f15-b57c-6eebd57f815a","ios":"levelo://app?vid=e3ea0c82-575d-4f15-b57c-6eebd57f815a"},"vehicle_type_id":"4","last_reported":1740859739,"current_range_meters":11600,"station_id":"ce4bhgp2rcd13ifvqfe0","pricing_plan_id":"cebpf4jnsgd1na2vs0mg"},{"bike_id":"8180e023-b3d1-4bf5-874d-4a6f178d2fe3","system_id":"levelo_inurba_marseille","lat":43.32048,"lon":5.41587,"is_reserved":false,"is_disabled":false,"rental_uris":{"android":"levelo://app?vid=8180e023-b3d1-4bf5-874d-4a6f178d2fe3","ios":"levelo://app?vid=8180e023-b3d1-4bf5-874d-4a6f178d2fe3"},"vehicle_type_id":"4","last_reported":1740859739,"current_range_meters":11600,"station_id":"ce4bhq92rcd13ifvqhkg","pricing_plan_id":"cebpf4jnsgd1na2vs0mg"},{"bike_id":"1697087c-3a15-4d2b-8fbc-57126afe45c3","system_id":"levelo_inurba_marseille","lat":43.23256,"lon":5.4362,"is_reserved":false,"is_disabled":false,"rental_uris":{"android":"levelo://app?vid=1697087c-3a15-4d2b-8fbc-57126afe45c3","ios":"levelo://app?vid=1697087c-3a15-4d2b-8fbc-57126afe45c3"},"vehicle_type_id":"4","last_reported":1740859739,"current_range_meters":12000,"station_id":"ce4bhmp2rcd13ifvqgog","pricing_plan_id":"cebpf4jnsgd1na2vs0mg"},{"bike_id":"364da244-0443-4187-a98a-bc7b7ca7b9dc","system_id":"levelo_inurba_marseille","lat":43.29555,"lon":5.42289,"is_reserved":false,"is_disabled":false,"rental_uris":{"android":"levelo://app?vid=364da244-0443-4187-a98a-bc7b7ca7b9dc","ios":"levelo://app?vid=364da244-0443-4187-a98a-bc7b7ca7b9dc"},"vehicle_type_id":"4","last_reported":1740859739,"current_range_meters":12000,"station_id":"ce4bhph2rcd13ifvqhdg","pricing_plan_id":"cebpf4jnsgd1na2vs0mg"},{"bike_id":"98d30ac8-3bd7-4aef-a008-2521b117e221","system_id":"levelo_inurba_marseille","lat":43.26559,"lon":5.39031,"is_reserved":false,"is_disabled":false,"rental_uris":{"android":"levelo://app?vid=98d30ac8-3bd7-4aef-a008-2521b117e221","ios":"levelo://app?vid=98d30ac8-3bd7-4aef-a008-2521b117e221"},"vehicle_type_id":"4","last_reported":1740859739,"current_range_meters":12000,"station_id":"ce4bhe12rcd13ifvqf30","pricing_plan_id":"cebpf4jnsgd1na2vs0mg"},{"bike_id":"63c397fe-d712-409b-ba49-04542c9b3bbe","system_id":"levelo_inurba_marseille","lat":43.29532,"lon":5.38523,"is_reserved":false,"is_disabled":false,"rental_uris":{"android":"levelo://app?vid=63c397fe-d712-409b-ba49-04542c9b3bbe","ios":"levelo://app?vid=63c397fe-d712-409b-ba49-04542c9b3bbe"},"vehicle_type_id":"4","last_reported":1740859739,"current_range_meters":12000,"station_id":"ce4bgih2rcd13ifvqba0","pricing_plan_id":"cebpf4jnsgd1na2vs0mg"},{"bike_id":"3d326c83-df55-456d-a39d-f1c118f8a994","system_id":"levelo_inurba_marseille","lat":43.3026,"lon":5.40082,"is_reserved":false,"is_disabled":true,"rental_uris":{"android":"levelo://app?vid=3d326c83-df55-456d-a39d-f1c118f8a994","ios":"levelo://app?vid=3d326c83-df55-456d-a39d-f1c118f8a994"},"vehicle_type_id":"4","last_reported":1740859739,"current_range_meters":12000,"station_id":"ce4bgvh2rcd13ifvqcs0","pricing_plan_id":"cebpf4jnsgd1na2vs0mg"},{"bike_id":"25849228-5142-47e6-bf07-5540e818763d","system_id":"levelo_inurba_marseille","lat":43.26218,"lon":5.37436,"is_reserved":false,"is_disabled":false,"rental_uris":{"android":"levelo://app?vid=25849228-5142-47e6-bf07-5540e818763d","ios":"levelo://app?vid=25849228-5142-47e6-bf07-5540e818763d"},"vehicle_type_id":"4","last_reported":1740859739,"current_range_meters":12400,"station_id":"ce4bhgp2rcd13ifvqfc0","pricing_plan_id":"cebpf4jnsgd1na2vs0mg"},{"bike_id":"fb18759c-f3ca-4612-8704-baf08a44bab2","system_id":"levelo_inurba_marseille","lat":43.28417,"lon":5.35003,"is_reserved":false,"is_disabled":false,"rental_uris":{"android":"levelo://app?vid=fb18759c-f3ca-4612-8704-baf08a44bab2","ios":"levelo://app?vid=fb18759c-f3ca-4612-8704-baf08a44bab2"},"vehicle_type_id":"4","last_reported":1740859739,"current_range_meters":12400,"station_id":"ce4bhbh2rcd13ifvqepg","pricing_plan_id":"cebpf4jnsgd1na2vs0mg"},{"bike_id":"e0a413a7-bc6b-4647-8e86-c0926ac098ec","system_id":"levelo_inurba_marseille","lat":43.29273,"lon":5.36847,"is_reserved":false,"is_disabled":false,"rental_uris":{"android":"levelo://app?vid=e0a413a7-bc6b-4647-8e86-c0926ac098ec","ios":"levelo://app?vid=e0a413a7-bc6b-4647-8e86-c0926ac098ec"},"vehicle_type_id":"4","last_reported":1740859739,"current_range_meters":12400,"station_id":"ce4bhbp2rcd13ifvqesg","pricing_plan_id":"cebpf4jnsgd1na2vs0mg"},{"bike_id":"5ef334e4-8397-4ddf-be37-0375619fbdfa","system_id":"levelo_inurba_marseille","lat":43.28993,"lon":5.37831,"is_reserved":false,"is_disabled":false,"rental_uris":{"android":"levelo://app?vid=5ef334e4-8397-4ddf-be37-0375619fbdfa","ios":"levelo://app?vid=5ef334e4-8397-4ddf-be37-0375619fbdfa"},"vehicle_type_id":"4","last_reported":1740859739,"current_range_meters":12400,"station_id":"ce4bh9p2rcd13ifvqed0","pricing_plan_id":"cebpf4jnsgd1na2vs0mg"},{"bike_id":"5d7c7708-0760-4884-8883-b9dd9eef0e36","system_id":"levelo_inurba_marseille","lat":43.29795,"lon":5.38093,"is_reserved":false,"is_disabled":false,"rental_uris":{"android":"levelo://app?vid=5d7c7708-0760-4884-8883-b9dd9eef0e36","ios":"levelo://app?vid=5d7c7708-0760-4884-8883-b9dd9eef0e36"},"vehicle_type_id":"4","last_reported":1740859739,"current_range_meters":12800,"station_id":"ce4bgip2rcd13ifvqbb0","pricing_plan_id":"cebpf4jnsgd1na2vs0mg"},{"bike_id":"4be7107a-e40e-49fb-94ff-1f0cc576b224","system_id":"levelo_inurba_marseille","lat":43.28973,"lon":5.37832,"is_reserved":false,"is_disabled":false,"rental_uris":{"android":"levelo://app?vid=4be7107a-e40e-49fb-94ff-1f0cc576b224","ios":"levelo://app?vid=4be7107a-e40e-49fb-94ff-1f0cc576b224"},"vehicle_type_id":"4","last_reported":1740859739,"current_range_meters":12800,"station_id":"ce4bh9p2rcd13ifvqed0","pricing_plan_id":"cebpf4jnsgd1na2vs0mg"},{"bike_id":"8235333d-301f-40af-bcff-249a4ee0b3a0","system_id":"levelo_inurba_marseille","lat":43.29631,"lon":5.38101,"is_reserved":false,"is_disabled":false,"rental_uris":{"android":"levelo://app?vid=8235333d-301f-40af-bcff-249a4ee0b3a0","ios":"levelo://app?vid=8235333d-301f-40af-bcff-249a4ee0b3a0"},"vehicle_type_id":"4","last_reported":1740859739,"current_range_meters":12800,"station_id":"ce4bgl12rcd13ifvqbo0","pricing_plan_id":"cebpf4jnsgd1na2vs0mg"},{"bike_id":"c9301c3b-fd1b-4b7e-bc90-409db5395271","system_id":"levelo_inurba_marseille","lat":43.30796,"lon":5.38175,"is_reserved":false,"is_disabled":false,"rental_uris":{"android":"levelo://app?vid=c9301c3b-fd1b-4b7e-bc90-409db5395271","ios":"levelo://app?vid=c9301c3b-fd1b-4b7e-bc90-409db5395271"},"vehicle_type_id":"4","last_reported":1740859739,"current_range_meters":10800,"station_id":"ce4bgt12rcd13ifvqce0","pricing_plan_id":"cebpf4jnsgd1na2vs0mg"},{"bike_id":"f711a177-8c95-4e96-bcaf-e6e0dc33f59e","system_id":"levelo_inurba_marseille","lat":43.24391,"lon":5.37051,"is_reserved":false,"is_disabled":false,"rental_uris":{"android":"levelo://app?vid=f711a177-8c95-4e96-bcaf-e6e0dc33f59e","ios":"levelo://app?vid=f711a177-8c95-4e96-bcaf-e6e0dc33f59e"},"vehicle_type_id":"4","last_reported":1740859739,"current_range_meters":13600,"station_id":"ce4bhhh2rcd13ifvqfk0","pricing_plan_id":"cebpf4jnsgd1na2vs0mg"},{"bike_id":"08ebd52f-11a8-4e83-a5ba-f85a9ce8ef41","system_id":"levelo_inurba_marseille","lat":43.29547,"lon":5.38544,"is_reserved":false,"is_disabled":false,"rental_uris":{"android":"levelo://app?vid=08ebd52f-11a8-4e83-a5ba-f85a9ce8ef41","ios":"levelo://app?vid=08ebd52f-11a8-4e83-a5ba-f85a9ce8ef41"},"vehicle_type_id":"4","last_reported":1740859739,"current_range_meters":13600,"station_id":"ce4bgih2rcd13ifvqba0","pricing_plan_id":"cebpf4jnsgd1na2vs0mg"},{"bike_id":"3f5697b9-4add-4531-ae0d-ef285d6d2520","system_id":"levelo_inurba_marseille","lat":43.29274,"lon":5.36849,"is_reserved":false,"is_disabled":false,"rental_uris":{"android":"levelo://app?vid=3f5697b9-4add-4531-ae0d-ef285d6d2520","ios":"levelo://app?vid=3f5697b9-4add-4531-ae0d-ef285d6d2520"},"vehicle_type_id":"4","last_reported":1740859739,"current_range_meters":13600,"station_id":"ce4bhbp2rcd13ifvqesg","pricing_plan_id":"cebpf4jnsgd1na2vs0mg"},{"bike_id":"218457ac-5064-4483-b256-7af7da02f0cd","system_id":"levelo_inurba_marseille","lat":43.2797,"lon":5.38707,"is_reserved":false,"is_disabled":true,"rental_uris":{"android":"levelo://app?vid=218457ac-5064-4483-b256-7af7da02f0cd","ios":"levelo://app?vid=218457ac-5064-4483-b256-7af7da02f0cd"},"vehicle_type_id":"4","last_reported":1740859739,"current_range_meters":14000,"station_id":"ce4bhg12rcd13ifvqf80","pricing_plan_id":"cebpf4jnsgd1na2vs0mg"},{"bike_id":"27d57ba8-cb2b-4da3-bcfc-1efd3956d0fa","system_id":"levelo_inurba_marseille","lat":43.29557,"lon":5.42292,"is_reserved":false,"is_disabled":false,"rental_uris":{"android":"levelo://app?vid=27d57ba8-cb2b-4da3-bcfc-1efd3956d0fa","ios":"levelo://app?vid=27d57ba8-cb2b-4da3-bcfc-1efd3956d0fa"},"vehicle_type_id":"4","last_reported":1740859739,"current_range_meters":14400,"station_id":"ce4bhph2rcd13ifvqhdg","pricing_plan_id":"cebpf4jnsgd1na2vs0mg"},{"bike_id":"1ea7a632-51c6-4bad-bf6d-ba2c50a0cffe","system_id":"levelo_inurba_marseille","lat":43.29309,"lon":5.37164,"is_reserved":false,"is_disabled":false,"rental_uris":{"android":"levelo://app?vid=1ea7a632-51c6-4bad-bf6d-ba2c50a0cffe","ios":"levelo://app?vid=1ea7a632-51c6-4bad-bf6d-ba2c50a0cffe"},"vehicle_type_id":"4","last_reported":1740859739,"current_range_meters":14400,"station_id":"ce4bgh92rcd13ifvqb40","pricing_plan_id":"cebpf4jnsgd1na2vs0mg"},{"bike_id":"8d00842f-efad-41dd-bf0b-221436aa8a27","system_id":"levelo_inurba_marseille","lat":43.27986,"lon":5.38777,"is_reserved":false,"is_disabled":false,"rental_uris":{"android":"levelo://app?vid=8d00842f-efad-41dd-bf0b-221436aa8a27","ios":"levelo://app?vid=8d00842f-efad-41dd-bf0b-221436aa8a27"},"vehicle_type_id":"4","last_reported":1740859739,"current_range_meters":14800,"station_id":"ce4bhg12rcd13ifvqf80","pricing_plan_id":"cebpf4jnsgd1na2vs0mg"},{"bike_id":"f1317508-b318-42b3-b6cc-485d3729a439","system_id":"levelo_inurba_marseille","lat":43.26236,"lon":5.37958,"is_reserved":false,"is_disabled":false,"rental_uris":{"android":"levelo://app?vid=f1317508-b318-42b3-b6cc-485d3729a439","ios":"levelo://app?vid=f1317508-b318-42b3-b6cc-485d3729a439"},"vehicle_type_id":"4","last_reported":1740859739,"current_range_meters":14800,"station_id":"ce4bhjp2rcd13ifvqg90","pricing_plan_id":"cebpf4jnsgd1na2vs0mg"},{"bike_id":"20d46fcb-4529-4896-b225-392c7b6d1f52","system_id":"levelo_inurba_marseille","lat":43.29211,"lon":5.39323,"is_reserved":false,"is_disabled":true,"rental_uris":{"android":"levelo://app?vid=20d46fcb-4529-4896-b225-392c7b6d1f52","ios":"levelo://app?vid=20d46fcb-4529-4896-b225-392c7b6d1f52"},"vehicle_type_id":"4","last_reported":1740859739,"current_range_meters":14800,"station_id":"ce4bh192rcd13ifvqdd0","pricing_plan_id":"cebpf4jnsgd1na2vs0mg"},{"bike_id":"ed8bb562-d048-4d97-a62c-052cc210d3b2","system_id":"levelo_inurba_marseille","lat":43.31718,"lon":5.43674,"is_reserved":false,"is_disabled":false,"rental_uris":{"android":"levelo://app?vid=ed8bb562-d048-4d97-a62c-052cc210d3b2","ios":"levelo://app?vid=ed8bb562-d048-4d97-a62c-052cc210d3b2"},"vehicle_type_id":"4","last_reported":1740859739,"current_range_meters":15200,"station_id":"ce4bhp92rcd13ifvqhcg","pricing_plan_id":"cebpf4jnsgd1na2vs0mg"},{"bike_id":"abdce9a5-165a-430d-93c6-b1980bc72eea","system_id":"levelo_inurba_marseille","lat":43.31298,"lon":5.39638,"is_reserved":false,"is_disabled":false,"rental_uris":{"android":"levelo://app?vid=abdce9a5-165a-430d-93c6-b1980bc72eea","ios":"levelo://app?vid=abdce9a5-165a-430d-93c6-b1980bc72eea"},"vehicle_type_id":"4","last_reported":1740859739,"current_range_meters":15200,"station_id":"","pricing_plan_id":"cebpf4jnsgd1na2vs0mg"},{"bike_id":"e4aac1b1-835a-4679-bef8-2d57e180562a","system_id":"levelo_inurba_marseille","lat":43.26783,"lon":5.3947,"is_reserved":false,"is_disabled":false,"rental_uris":{"android":"levelo://app?vid=e4aac1b1-835a-4679-bef8-2d57e180562a","ios":"levelo://app?vid=e4aac1b1-835a-4679-bef8-2d57e180562a"},"vehicle_type_id":"4","last_reported":1740859739,"current_range_meters":15200,"station_id":"ce4bhh12rcd13ifvqfg0","pricing_plan_id":"cebpf4jnsgd1na2vs0mg"},{"bike_id":"28094c26-ebf7-4f10-9752-a86036fd897f","system_id":"levelo_inurba_marseille","lat":43.28422,"lon":5.3498,"is_reserved":false,"is_disabled":false,"rental_uris":{"android":"levelo://app?vid=28094c26-ebf7-4f10-9752-a86036fd897f","ios":"levelo://app?vid=28094c26-ebf7-4f10-9752-a86036fd897f"},"vehicle_type_id":"4","last_reported":1740859739,"current_range_meters":16000,"station_id":"ce4bhbh2rcd13ifvqepg","pricing_plan_id":"cebpf4jnsgd1na2vs0mg"},{"bike_id":"e366ff0a-1a5f-4d9f-a15a-daf3f5071e59","system_id":"levelo_inurba_marseille","lat":43.29267,"lon":5.38428,"is_reserved":false,"is_disabled":false,"rental_uris":{"android":"levelo://app?vid=e366ff0a-1a5f-4d9f-a15a-daf3f5071e59","ios":"levelo://app?vid=e366ff0a-1a5f-4d9f-a15a-daf3f5071e59"},"vehicle_type_id":"4","last_reported":1740859739,"current_range_meters":16000,"station_id":"ce4bh692rcd13ifvqea0","pricing_plan_id":"cebpf4jnsgd1na2vs0mg"},{"bike_id":"f3ad00dc-3847-4960-884e-4246f65fa3c4","system_id":"levelo_inurba_marseille","lat":43.23184,"lon":5.3999,"is_reserved":false,"is_disabled":false,"rental_uris":{"android":"levelo://app?vid=f3ad00dc-3847-4960-884e-4246f65fa3c4","ios":"levelo://app?vid=f3ad00dc-3847-4960-884e-4246f65fa3c4"},"vehicle_type_id":"4","last_reported":1740859739,"current_range_meters":16000,"station_id":"ce4bhn12rcd13ifvqgqg","pricing_plan_id":"cebpf4jnsgd1na2vs0mg"},{"bike_id":"1ff34d4d-5de2-4d1c-a6dc-bf8261c720e1","system_id":"levelo_inurba_marseille","lat":43.27919,"lon":5.3958,"is_reserved":false,"is_disabled":false,"rental_uris":{"android":"levelo://app?vid=1ff34d4d-5de2-4d1c-a6dc-bf8261c720e1","ios":"levelo://app?vid=1ff34d4d-5de2-4d1c-a6dc-bf8261c720e1"},"vehicle_type_id":"4","last_reported":1740859739,"current_range_meters":16000,"station_id":"ce4bhf92rcd13ifvqf40","pricing_plan_id":"cebpf4jnsgd1na2vs0mg"},{"bike_id":"671ccf8a-3e46-43c4-bd76-4373d8752478","system_id":"levelo_inurba_marseille","lat":43.29259,"lon":5.3844,"is_reserved":false,"is_disabled":false,"rental_uris":{"android":"levelo://app?vid=671ccf8a-3e46-43c4-bd76-4373d8752478","ios":"levelo://app?vid=671ccf8a-3e46-43c4-bd76-4373d8752478"},"vehicle_type_id":"4","last_reported":1740859739,"current_range_meters":16000,"station_id":"ce4bh692rcd13ifvqea0","pricing_plan_id":"cebpf4jnsgd1na2vs0mg"},{"bike_id":"01af45f0-40f6-4dbb-8674-926a2ca03f64","system_id":"levelo_inurba_marseille","lat":43.29031,"lon":5.37564,"is_reserved":false,"is_disabled":false,"rental_uris":{"android":"levelo://app?vid=01af45f0-40f6-4dbb-8674-926a2ca03f64","ios":"levelo://app?vid=01af45f0-40f6-4dbb-8674-926a2ca03f64"},"vehicle_type_id":"4","last_reported":1740859739,"current_range_meters":16000,"station_id":"ce4bh692rcd13ifvqe90","pricing_plan_id":"cebpf4jnsgd1na2vs0mg"},{"bike_id":"37771bb5-5806-495b-b348-d35f9fb63211","system_id":"levelo_inurba_marseille","lat":43.28369,"lon":5.38648,"is_reserved":false,"is_disabled":false,"rental_uris":{"android":"levelo://app?vid=37771bb5-5806-495b-b348-d35f9fb63211","ios":"levelo://app?vid=37771bb5-5806-495b-b348-d35f9fb63211"},"vehicle_type_id":"4","last_reported":1740859739,"current_range_meters":16000,"station_id":"ce4bh492rcd13ifvqdvg","pricing_plan_id":"cebpf4jnsgd1na2vs0mg"},{"bike_id":"3c9c65ff-a2a8-4c52-a6f4-62bcc77556ef","system_id":"levelo_inurba_marseille","lat":43.24155,"lon":5.36406,"is_reserved":false,"is_disabled":false,"rental_uris":{"android":"levelo://app?vid=3c9c65ff-a2a8-4c52-a6f4-62bcc77556ef","ios":"levelo://app?vid=3c9c65ff-a2a8-4c52-a6f4-62bcc77556ef"},"vehicle_type_id":"4","last_reported":1740859739,"current_range_meters":16000,"station_id":"cpo36qri1sfpv3e86is0","pricing_plan_id":"cebpf4jnsgd1na2vs0mg"},{"bike_id":"c272f144-1302-4356-8d7d-046dcce3b360","system_id":"levelo_inurba_marseille","lat":43.26211,"lon":5.37928,"is_reserved":false,"is_disabled":false,"rental_uris":{"android":"levelo://app?vid=c272f144-1302-4356-8d7d-046dcce3b360","ios":"levelo://app?vid=c272f144-1302-4356-8d7d-046dcce3b360"},"vehicle_type_id":"4","last_reported":1740859739,"current_range_meters":16000,"station_id":"ce4bhjp2rcd13ifvqg90","pricing_plan_id":"cebpf4jnsgd1na2vs0mg"},{"bike_id":"e2b1a97c-05f9-4994-8c76-5c4c26614832","system_id":"levelo_inurba_marseille","lat":43.26567,"lon":5.372872,"is_reserved":false,"is_disabled":false,"rental_uris":{"android":"levelo://app?vid=e2b1a97c-05f9-4994-8c76-5c4c26614832","ios":"levelo://app?vid=e2b1a97c-05f9-4994-8c76-5c4c26614832"},"vehicle_type_id":"4","last_reported":1740859739,"current_range_meters":16400,"station_id":"ce4bhg12rcd13ifvqf70","pricing_plan_id":"cebpf4jnsgd1na2vs0mg"},{"bike_id":"e03517ba-1a18-49bb-84b4-fddfeeba135b","system_id":"levelo_inurba_marseille","lat":43.23189,"lon":5.39987,"is_reserved":false,"is_disabled":false,"rental_uris":{"android":"levelo://app?vid=e03517ba-1a18-49bb-84b4-fddfeeba135b","ios":"levelo://app?vid=e03517ba-1a18-49bb-84b4-fddfeeba135b"},"vehicle_type_id":"4","last_reported":1740859739,"current_range_meters":16400,"station_id":"ce4bhn12rcd13ifvqgqg","pricing_plan_id":"cebpf4jnsgd1na2vs0mg"},{"bike_id":"0f794452-7e52-4d38-810f-4ed16beb1ddb","system_id":"levelo_inurba_marseille","lat":43.29423,"lon":5.38639,"is_reserved":false,"is_disabled":false,"rental_uris":{"android":"levelo://app?vid=0f794452-7e52-4d38-810f-4ed16beb1ddb","ios":"levelo://app?vid=0f794452-7e52-4d38-810f-4ed16beb1ddb"},"vehicle_type_id":"4","last_reported":1740859739,"current_range_meters":16400,"station_id":"ce4bh2h2rcd13ifvqdh0","pricing_plan_id":"cebpf4jnsgd1na2vs0mg"},{"bike_id":"953cc1e5-7e17-4c1d-b0f2-bff801d3a91c","system_id":"levelo_inurba_marseille","lat":43.29256,"lon":5.38444,"is_reserved":false,"is_disabled":true,"rental_uris":{"android":"levelo://app?vid=953cc1e5-7e17-4c1d-b0f2-bff801d3a91c","ios":"levelo://app?vid=953cc1e5-7e17-4c1d-b0f2-bff801d3a91c"},"vehicle_type_id":"4","last_reported":1740859739,"current_range_meters":16400,"station_id":"ce4bh692rcd13ifvqea0","pricing_plan_id":"cebpf4jnsgd1na2vs0mg"},{"bike_id":"9e5520b4-bf3a-4c93-8806-f068ef30cd9f","system_id":"levelo_inurba_marseille","lat":43.27397,"lon":5.36242,"is_reserved":false,"is_disabled":false,"rental_uris":{"android":"levelo://app?vid=9e5520b4-bf3a-4c93-8806-f068ef30cd9f","ios":"levelo://app?vid=9e5520b4-bf3a-4c93-8806-f068ef30cd9f"},"vehicle_type_id":"4","last_reported":1740859739,"current_range_meters":16400,"station_id":"ce4bhbh2rcd13ifvqeo0","pricing_plan_id":"cebpf4jnsgd1na2vs0mg"},{"bike_id":"562b3747-ab90-4fc7-864a-9df54c9c616c","system_id":"levelo_inurba_marseille","lat":43.29251,"lon":5.38437,"is_reserved":false,"is_disabled":false,"rental_uris":{"android":"levelo://app?vid=562b3747-ab90-4fc7-864a-9df54c9c616c","ios":"levelo://app?vid=562b3747-ab90-4fc7-864a-9df54c9c616c"},"vehicle_type_id":"4","last_reported":1740859739,"current_range_meters":16400,"station_id":"ce4bh692rcd13ifvqea0","pricing_plan_id":"cebpf4jnsgd1na2vs0mg"},{"bike_id":"49645587-4897-47af-80cb-ea0df5af90cc","system_id":"levelo_inurba_marseille","lat":43.26206,"lon":5.37445,"is_reserved":false,"is_disabled":false,"rental_uris":{"android":"levelo://app?vid=49645587-4897-47af-80cb-ea0df5af90cc","ios":"levelo://app?vid=49645587-4897-47af-80cb-ea0df5af90cc"},"vehicle_type_id":"4","last_reported":1740859739,"current_range_meters":16400,"station_id":"ce4bhgp2rcd13ifvqfc0","pricing_plan_id":"cebpf4jnsgd1na2vs0mg"},{"bike_id":"1a19f09d-0b6a-4b64-9d93-aa6bb1c37f46","system_id":"levelo_inurba_marseille","lat":43.29606,"lon":5.38109,"is_reserved":false,"is_disabled":false,"rental_uris":{"android":"levelo://app?vid=1a19f09d-0b6a-4b64-9d93-aa6bb1c37f46","ios":"levelo://app?vid=1a19f09d-0b6a-4b64-9d93-aa6bb1c37f46"},"vehicle_type_id":"4","last_reported":1740859739,"current_range_meters":16400,"station_id":"ce4bgl12rcd13ifvqbo0","pricing_plan_id":"cebpf4jnsgd1na2vs0mg"},{"bike_id":"3d3e1218-9db2-47a8-a44c-42be77ca5680","system_id":"levelo_inurba_marseille","lat":43.29297,"lon":5.36856,"is_reserved":false,"is_disabled":false,"rental_uris":{"android":"levelo://app?vid=3d3e1218-9db2-47a8-a44c-42be77ca5680","ios":"levelo://app?vid=3d3e1218-9db2-47a8-a44c-42be77ca5680"},"vehicle_type_id":"4","last_reported":1740859739,"current_range_meters":16400,"station_id":"ce4bhbp2rcd13ifvqesg","pricing_plan_id":"cebpf4jnsgd1na2vs0mg"},{"bike_id":"76d58a2e-82e7-4e1d-a98f-c6152e9b38bc","system_id":"levelo_inurba_marseille","lat":43.2731,"lon":5.39114,"is_reserved":false,"is_disabled":false,"rental_uris":{"android":"levelo://app?vid=76d58a2e-82e7-4e1d-a98f-c6152e9b38bc","ios":"levelo://app?vid=76d58a2e-82e7-4e1d-a98f-c6152e9b38bc"},"vehicle_type_id":"4","last_reported":1740859739,"current_range_meters":16400,"station_id":"ce4bhgp2rcd13ifvqfe0","pricing_plan_id":"cebpf4jnsgd1na2vs0mg"},{"bike_id":"905eedcf-e019-4fba-9805-54fac3cf5bf4","system_id":"levelo_inurba_marseille","lat":43.30612,"lon":5.37231,"is_reserved":false,"is_disabled":false,"rental_uris":{"android":"levelo://app?vid=905eedcf-e019-4fba-9805-54fac3cf5bf4","ios":"levelo://app?vid=905eedcf-e019-4fba-9805-54fac3cf5bf4"},"vehicle_type_id":"4","last_reported":1740859739,"current_range_meters":16400,"station_id":"ce4bgqh2rcd13ifvqc4g","pricing_plan_id":"cebpf4jnsgd1na2vs0mg"},{"bike_id":"10780afe-557c-4a5f-85c4-d922746e7ab7","system_id":"levelo_inurba_marseille","lat":43.2862,"lon":5.38491,"is_reserved":false,"is_disabled":false,"rental_uris":{"android":"levelo://app?vid=10780afe-557c-4a5f-85c4-d922746e7ab7","ios":"levelo://app?vid=10780afe-557c-4a5f-85c4-d922746e7ab7"},"vehicle_type_id":"4","last_reported":1740859739,"current_range_meters":16400,"station_id":"ce4bh512rcd13ifvqe3g","pricing_plan_id":"cebpf4jnsgd1na2vs0mg"},{"bike_id":"7f4e5cc7-d5fd-4b1f-9ab6-e7a4f2ee0305","system_id":"levelo_inurba_marseille","lat":43.31227,"lon":5.36846,"is_reserved":false,"is_disabled":false,"rental_uris":{"android":"levelo://app?vid=7f4e5cc7-d5fd-4b1f-9ab6-e7a4f2ee0305","ios":"levelo://app?vid=7f4e5cc7-d5fd-4b1f-9ab6-e7a4f2ee0305"},"vehicle_type_id":"4","last_reported":1740859739,"current_range_meters":16000,"station_id":"ce4bgl92rcd13ifvqbq0","pricing_plan_id":"cebpf4jnsgd1na2vs0mg"},{"bike_id":"d31a0a79-58a9-42aa-9796-fdd3c868284a","system_id":"levelo_inurba_marseille","lat":43.2957,"lon":5.39962,"is_reserved":false,"is_disabled":false,"rental_uris":{"android":"levelo://app?vid=d31a0a79-58a9-42aa-9796-fdd3c868284a","ios":"levelo://app?vid=d31a0a79-58a9-42aa-9796-fdd3c868284a"},"vehicle_type_id":"4","last_reported":1740859739,"current_range_meters":16800,"station_id":"ce4bh312rcd13ifvqdj0","pricing_plan_id":"cebpf4jnsgd1na2vs0mg"},{"bike_id":"f8774b53-6aad-4c74-8fcb-de09dc38caee","system_id":"levelo_inurba_marseille","lat":43.27382,"lon":5.36227,"is_reserved":false,"is_disabled":true,"rental_uris":{"android":"levelo://app?vid=f8774b53-6aad-4c74-8fcb-de09dc38caee","ios":"levelo://app?vid=f8774b53-6aad-4c74-8fcb-de09dc38caee"},"vehicle_type_id":"4","last_reported":1740859739,"current_range_meters":16800,"station_id":"ce4bhbh2rcd13ifvqeo0","pricing_plan_id":"cebpf4jnsgd1na2vs0mg"},{"bike_id":"91470621-d7b5-4632-8189-89cd0fb32d4a","system_id":"levelo_inurba_marseille","lat":43.29268,"lon":5.36836,"is_reserved":false,"is_disabled":false,"rental_uris":{"android":"levelo://app?vid=91470621-d7b5-4632-8189-89cd0fb32d4a","ios":"levelo://app?vid=91470621-d7b5-4632-8189-89cd0fb32d4a"},"vehicle_type_id":"4","last_reported":1740859739,"current_range_meters":16800,"station_id":"ce4bhbp2rcd13ifvqesg","pricing_plan_id":"cebpf4jnsgd1na2vs0mg"},{"bike_id":"c55a2b5f-0954-4e06-bb68-763b7bf2d253","system_id":"levelo_inurba_marseille","lat":43.31364,"lon":5.36719,"is_reserved":false,"is_disabled":false,"rental_uris":{"android":"levelo://app?vid=c55a2b5f-0954-4e06-bb68-763b7bf2d253","ios":"levelo://app?vid=c55a2b5f-0954-4e06-bb68-763b7bf2d253"},"vehicle_type_id":"4","last_reported":1740859739,"current_range_meters":16800,"station_id":"ce4bgr92rcd13ifvqc6g","pricing_plan_id":"cebpf4jnsgd1na2vs0mg"},{"bike_id":"620a5eb3-daee-44ad-a3ba-f984dc8c768a","system_id":"levelo_inurba_marseille","lat":43.30184,"lon":5.36624,"is_reserved":false,"is_disabled":true,"rental_uris":{"android":"levelo://app?vid=620a5eb3-daee-44ad-a3ba-f984dc8c768a","ios":"levelo://app?vid=620a5eb3-daee-44ad-a3ba-f984dc8c768a"},"vehicle_type_id":"4","last_reported":1740859739,"current_range_meters":16800,"station_id":"ce4bgrh2rcd13ifvqc8g","pricing_plan_id":"cebpf4jnsgd1na2vs0mg"},{"bike_id":"1b2a055e-ea37-482f-853e-c714e4fa336c","system_id":"levelo_inurba_marseille","lat":43.28084,"lon":5.39657,"is_reserved":false,"is_disabled":false,"rental_uris":{"android":"levelo://app?vid=1b2a055e-ea37-482f-853e-c714e4fa336c","ios":"levelo://app?vid=1b2a055e-ea37-482f-853e-c714e4fa336c"},"vehicle_type_id":"4","last_reported":1740859739,"current_range_meters":16800,"station_id":"ce4bho12rcd13ifvqh2g","pricing_plan_id":"cebpf4jnsgd1na2vs0mg"},{"bike_id":"f13d8a3c-6790-4e4a-8b85-f14df523a4eb","system_id":"levelo_inurba_marseille","lat":43.26216,"lon":5.37441,"is_reserved":false,"is_disabled":false,"rental_uris":{"android":"levelo://app?vid=f13d8a3c-6790-4e4a-8b85-f14df523a4eb","ios":"levelo://app?vid=f13d8a3c-6790-4e4a-8b85-f14df523a4eb"},"vehicle_type_id":"4","last_reported":1740859739,"current_range_meters":16800,"station_id":"ce4bhgp2rcd13ifvqfc0","pricing_plan_id":"cebpf4jnsgd1na2vs0mg"},{"bike_id":"d0338d15-401f-4f02-ad15-e1eebf71fa48","system_id":"levelo_inurba_marseille","lat":43.29615,"lon":5.38093,"is_reserved":false,"is_disabled":false,"rental_uris":{"android":"levelo://app?vid=d0338d15-401f-4f02-ad15-e1eebf71fa48","ios":"levelo://app?vid=d0338d15-401f-4f02-ad15-e1eebf71fa48"},"vehicle_type_id":"4","last_reported":1740859739,"current_range_meters":16800,"station_id":"ce4bgl12rcd13ifvqbo0","pricing_plan_id":"cebpf4jnsgd1na2vs0mg"},{"bike_id":"57cd94f2-e7d7-48fa-948e-308f17077047","system_id":"levelo_inurba_marseille","lat":43.29088,"lon":5.38146,"is_reserved":false,"is_disabled":false,"rental_uris":{"android":"levelo://app?vid=57cd94f2-e7d7-48fa-948e-308f17077047","ios":"levelo://app?vid=57cd94f2-e7d7-48fa-948e-308f17077047"},"vehicle_type_id":"4","last_reported":1740859739,"current_range_meters":16800,"station_id":"ce4bh512rcd13ifvqe2g","pricing_plan_id":"cebpf4jnsgd1na2vs0mg"},{"bike_id":"8c528749-43df-40d6-b9b4-e80d7e8bda23","system_id":"levelo_inurba_marseille","lat":43.26544,"lon":5.37284,"is_reserved":false,"is_disabled":false,"rental_uris":{"android":"levelo://app?vid=8c528749-43df-40d6-b9b4-e80d7e8bda23","ios":"levelo://app?vid=8c528749-43df-40d6-b9b4-e80d7e8bda23"},"vehicle_type_id":"4","last_reported":1740859739,"current_range_meters":16800,"station_id":"ce4bhg12rcd13ifvqf70","pricing_plan_id":"cebpf4jnsgd1na2vs0mg"},{"bike_id":"848e1728-4a39-474c-b550-8bc497cd3e33","system_id":"levelo_inurba_marseille","lat":43.32374,"lon":5.36771,"is_reserved":false,"is_disabled":false,"rental_uris":{"android":"levelo://app?vid=848e1728-4a39-474c-b550-8bc497cd3e33","ios":"levelo://app?vid=848e1728-4a39-474c-b550-8bc497cd3e33"},"vehicle_type_id":"4","last_reported":1740859739,"current_range_meters":16800,"station_id":"ce4bhsh2rcd13ifvqi2g","pricing_plan_id":"cebpf4jnsgd1na2vs0mg"},{"bike_id":"85c5b6aa-63dc-4dc7-9cb4-78ad33ccbb03","system_id":"levelo_inurba_marseille","lat":43.27619,"lon":5.3611,"is_reserved":false,"is_disabled":false,"rental_uris":{"android":"levelo://app?vid=85c5b6aa-63dc-4dc7-9cb4-78ad33ccbb03","ios":"levelo://app?vid=85c5b6aa-63dc-4dc7-9cb4-78ad33ccbb03"},"vehicle_type_id":"4","last_reported":1740859739,"current_range_meters":16400,"station_id":"ce4bgj92rcd13ifvqbe0","pricing_plan_id":"cebpf4jnsgd1na2vs0mg"},{"bike_id":"f98026c2-e65c-44cb-b3af-65406baebd2b","system_id":"levelo_inurba_marseille","lat":43.29613,"lon":5.3771,"is_reserved":false,"is_disabled":false,"rental_uris":{"android":"levelo://app?vid=f98026c2-e65c-44cb-b3af-65406baebd2b","ios":"levelo://app?vid=f98026c2-e65c-44cb-b3af-65406baebd2b"},"vehicle_type_id":"4","last_reported":1740859739,"current_range_meters":12800,"station_id":"ce4bgi92rcd13ifvqb90","pricing_plan_id":"cebpf4jnsgd1na2vs0mg"},{"bike_id":"72ba6f11-2d73-4bf6-ad2e-897ff5173b6b","system_id":"levelo_inurba_marseille","lat":43.29911,"lon":5.37481,"is_reserved":false,"is_disabled":false,"rental_uris":{"android":"levelo://app?vid=72ba6f11-2d73-4bf6-ad2e-897ff5173b6b","ios":"levelo://app?vid=72ba6f11-2d73-4bf6-ad2e-897ff5173b6b"},"vehicle_type_id":"4","last_reported":1740859739,"current_range_meters":17200,"station_id":"ce4bgjh2rcd13ifvqbg0","pricing_plan_id":"cebpf4jnsgd1na2vs0mg"},{"bike_id":"68dc1ac9-85a9-4c82-8df1-ffd45ed84f89","system_id":"levelo_inurba_marseille","lat":43.29537,"lon":5.38547,"is_reserved":false,"is_disabled":false,"rental_uris":{"android":"levelo://app?vid=68dc1ac9-85a9-4c82-8df1-ffd45ed84f89","ios":"levelo://app?vid=68dc1ac9-85a9-4c82-8df1-ffd45ed84f89"},"vehicle_type_id":"4","last_reported":1740859739,"current_range_meters":17200,"station_id":"ce4bgih2rcd13ifvqba0","pricing_plan_id":"cebpf4jnsgd1na2vs0mg"},{"bike_id":"64dd29c1-88ad-4f99-a2a8-30704271a60f","system_id":"levelo_inurba_marseille","lat":43.29024,"lon":5.35948,"is_reserved":false,"is_disabled":false,"rental_uris":{"android":"levelo://app?vid=64dd29c1-88ad-4f99-a2a8-30704271a60f","ios":"levelo://app?vid=64dd29c1-88ad-4f99-a2a8-30704271a60f"},"vehicle_type_id":"4","last_reported":1740859739,"current_range_meters":19200,"station_id":"ce4bha92rcd13ifvqeg0","pricing_plan_id":"cebpf4jnsgd1na2vs0mg"},{"bike_id":"048ed5c8-0402-4cc6-b32c-bc70026d156b","system_id":"levelo_inurba_marseille","lat":43.29274,"lon":5.36824,"is_reserved":false,"is_disabled":false,"rental_uris":{"android":"levelo://app?vid=048ed5c8-0402-4cc6-b32c-bc70026d156b","ios":"levelo://app?vid=048ed5c8-0402-4cc6-b32c-bc70026d156b"},"vehicle_type_id":"4","last_reported":1740859739,"current_range_meters":17200,"station_id":"ce4bhbp2rcd13ifvqesg","pricing_plan_id":"cebpf4jnsgd1na2vs0mg"},{"bike_id":"21143421-e031-48ef-bff0-1a8573f443b0","system_id":"levelo_inurba_marseille","lat":43.31228,"lon":5.36848,"is_reserved":false,"is_disabled":false,"rental_uris":{"android":"levelo://app?vid=21143421-e031-48ef-bff0-1a8573f443b0","ios":"levelo://app?vid=21143421-e031-48ef-bff0-1a8573f443b0"},"vehicle_type_id":"4","last_reported":1740859739,"current_range_meters":17200,"station_id":"ce4bgl92rcd13ifvqbq0","pricing_plan_id":"cebpf4jnsgd1na2vs0mg"},{"bike_id":"3bb48d94-69f2-4b15-9958-39561b9ba24e","system_id":"levelo_inurba_marseille","lat":43.30901,"lon":5.36853,"is_reserved":false,"is_disabled":false,"rental_uris":{"android":"levelo://app?vid=3bb48d94-69f2-4b15-9958-39561b9ba24e","ios":"levelo://app?vid=3bb48d94-69f2-4b15-9958-39561b9ba24e"},"vehicle_type_id":"4","last_reported":1740859739,"current_range_meters":17600,"station_id":"ce4bgn92rcd13ifvqbvg","pricing_plan_id":"cebpf4jnsgd1na2vs0mg"},{"bike_id":"ac179dc8-c007-4192-8231-1712dffa8b94","system_id":"levelo_inurba_marseille","lat":43.29321,"lon":5.37158,"is_reserved":false,"is_disabled":false,"rental_uris":{"android":"levelo://app?vid=ac179dc8-c007-4192-8231-1712dffa8b94","ios":"levelo://app?vid=ac179dc8-c007-4192-8231-1712dffa8b94"},"vehicle_type_id":"4","last_reported":1740859739,"current_range_meters":17600,"station_id":"ce4bgh92rcd13ifvqb40","pricing_plan_id":"cebpf4jnsgd1na2vs0mg"},{"bike_id":"96090500-e92b-4618-a8ce-3e71815df01c","system_id":"levelo_inurba_marseille","lat":43.310621,"lon":5.382481,"is_reserved":false,"is_disabled":false,"rental_uris":{"android":"levelo://app?vid=96090500-e92b-4618-a8ce-3e71815df01c","ios":"levelo://app?vid=96090500-e92b-4618-a8ce-3e71815df01c"},"vehicle_type_id":"4","last_reported":1740859739,"current_range_meters":17600,"station_id":"","pricing_plan_id":"cebpf4jnsgd1na2vs0mg"},{"bike_id":"4574d4c9-63f4-4000-9ac7-c1db590aaec7","system_id":"levelo_inurba_marseille","lat":43.29262,"lon":5.38435,"is_reserved":false,"is_disabled":false,"rental_uris":{"android":"levelo://app?vid=4574d4c9-63f4-4000-9ac7-c1db590aaec7","ios":"levelo://app?vid=4574d4c9-63f4-4000-9ac7-c1db590aaec7"},"vehicle_type_id":"4","last_reported":1740859739,"current_range_meters":17600,"station_id":"ce4bh692rcd13ifvqea0","pricing_plan_id":"cebpf4jnsgd1na2vs0mg"},{"bike_id":"d582d420-ad76-4943-9aaa-ec3ad66c7cfa","system_id":"levelo_inurba_marseille","lat":43.24105,"lon":5.37766,"is_reserved":false,"is_disabled":false,"rental_uris":{"android":"levelo://app?vid=d582d420-ad76-4943-9aaa-ec3ad66c7cfa","ios":"levelo://app?vid=d582d420-ad76-4943-9aaa-ec3ad66c7cfa"},"vehicle_type_id":"4","last_reported":1740859739,"current_range_meters":17600,"station_id":"ce4bhnp2rcd13ifvqgvg","pricing_plan_id":"cebpf4jnsgd1na2vs0mg"},{"bike_id":"b13b5400-9a8e-4793-8c6e-16abefe2c447","system_id":"levelo_inurba_marseille","lat":43.30138,"lon":5.37425,"is_reserved":false,"is_disabled":false,"rental_uris":{"android":"levelo://app?vid=b13b5400-9a8e-4793-8c6e-16abefe2c447","ios":"levelo://app?vid=b13b5400-9a8e-4793-8c6e-16abefe2c447"},"vehicle_type_id":"4","last_reported":1740859739,"current_range_meters":17600,"station_id":"ce4bgs92rcd13ifvqcc0","pricing_plan_id":"cebpf4jnsgd1na2vs0mg"},{"bike_id":"cf03d938-85b5-4e82-bd24-cbd5f9120c54","system_id":"levelo_inurba_marseille","lat":43.31324,"lon":5.39699,"is_reserved":false,"is_disabled":false,"rental_uris":{"android":"levelo://app?vid=cf03d938-85b5-4e82-bd24-cbd5f9120c54","ios":"levelo://app?vid=cf03d938-85b5-4e82-bd24-cbd5f9120c54"},"vehicle_type_id":"4","last_reported":1740859739,"current_range_meters":18000,"station_id":"ce4bgvp2rcd13ifvqcu0","pricing_plan_id":"cebpf4jnsgd1na2vs0mg"},{"bike_id":"e29ec3ad-0568-49ab-8b14-3ee4a0985259","system_id":"levelo_inurba_marseille","lat":43.29184,"lon":5.37143,"is_reserved":false,"is_disabled":false,"rental_uris":{"android":"levelo://app?vid=e29ec3ad-0568-49ab-8b14-3ee4a0985259","ios":"levelo://app?vid=e29ec3ad-0568-49ab-8b14-3ee4a0985259"},"vehicle_type_id":"4","last_reported":1740859739,"current_range_meters":17200,"station_id":"ce4bha92rcd13ifvqeh0","pricing_plan_id":"cebpf4jnsgd1na2vs0mg"},{"bike_id":"606bdd66-5162-4f4c-bf53-fba710dcc40d","system_id":"levelo_inurba_marseille","lat":43.2442,"lon":5.3707,"is_reserved":false,"is_disabled":true,"rental_uris":{"android":"levelo://app?vid=606bdd66-5162-4f4c-bf53-fba710dcc40d","ios":"levelo://app?vid=606bdd66-5162-4f4c-bf53-fba710dcc40d"},"vehicle_type_id":"4","last_reported":1740859739,"current_range_meters":18000,"station_id":"ce4bhhh2rcd13ifvqfk0","pricing_plan_id":"cebpf4jnsgd1na2vs0mg"},{"bike_id":"11abb566-dc32-4172-b11c-277edbab7a4e","system_id":"levelo_inurba_marseille","lat":43.22747,"lon":5.41627,"is_reserved":false,"is_disabled":false,"rental_uris":{"android":"levelo://app?vid=11abb566-dc32-4172-b11c-277edbab7a4e","ios":"levelo://app?vid=11abb566-dc32-4172-b11c-277edbab7a4e"},"vehicle_type_id":"4","last_reported":1740859739,"current_range_meters":18000,"station_id":"","pricing_plan_id":"cebpf4jnsgd1na2vs0mg"},{"bike_id":"0ef53640-d017-41fd-9253-5a11c3b9ca62","system_id":"levelo_inurba_marseille","lat":43.28482,"lon":5.38429,"is_reserved":false,"is_disabled":false,"rental_uris":{"android":"levelo://app?vid=0ef53640-d017-41fd-9253-5a11c3b9ca62","ios":"levelo://app?vid=0ef53640-d017-41fd-9253-5a11c3b9ca62"},"vehicle_type_id":"4","last_reported":1740859739,"current_range_meters":18000,"station_id":"ce4bh512rcd13ifvqe3g","pricing_plan_id":"cebpf4jnsgd1na2vs0mg"},{"bike_id":"fa9d4a65-1d05-4c70-99dd-f8a4ca6d683d","system_id":"levelo_inurba_marseille","lat":43.29254,"lon":5.38444,"is_reserved":false,"is_disabled":false,"rental_uris":{"android":"levelo://app?vid=fa9d4a65-1d05-4c70-99dd-f8a4ca6d683d","ios":"levelo://app?vid=fa9d4a65-1d05-4c70-99dd-f8a4ca6d683d"},"vehicle_type_id":"4","last_reported":1740859739,"current_range_meters":18000,"station_id":"ce4bh692rcd13ifvqea0","pricing_plan_id":"cebpf4jnsgd1na2vs0mg"},{"bike_id":"3f805b64-99bd-48dc-8704-2cf25577d792","system_id":"levelo_inurba_marseille","lat":43.29421,"lon":5.38626,"is_reserved":false,"is_disabled":false,"rental_uris":{"android":"levelo://app?vid=3f805b64-99bd-48dc-8704-2cf25577d792","ios":"levelo://app?vid=3f805b64-99bd-48dc-8704-2cf25577d792"},"vehicle_type_id":"4","last_reported":1740859739,"current_range_meters":18800,"station_id":"ce4bh2h2rcd13ifvqdh0","pricing_plan_id":"cebpf4jnsgd1na2vs0mg"},{"bike_id":"c5b35fc3-133b-4fcd-9bc1-000b1b46221f","system_id":"levelo_inurba_marseille","lat":43.24163,"lon":5.364,"is_reserved":false,"is_disabled":false,"rental_uris":{"android":"levelo://app?vid=c5b35fc3-133b-4fcd-9bc1-000b1b46221f","ios":"levelo://app?vid=c5b35fc3-133b-4fcd-9bc1-000b1b46221f"},"vehicle_type_id":"4","last_reported":1740859739,"current_range_meters":18800,"station_id":"cpo36qri1sfpv3e86is0","pricing_plan_id":"cebpf4jnsgd1na2vs0mg"},{"bike_id":"18ed809a-93be-4ceb-a90d-b4661309b51d","system_id":"levelo_inurba_marseille","lat":43.30949,"lon":5.37436,"is_reserved":false,"is_disabled":false,"rental_uris":{"android":"levelo://app?vid=18ed809a-93be-4ceb-a90d-b4661309b51d","ios":"levelo://app?vid=18ed809a-93be-4ceb-a90d-b4661309b51d"},"vehicle_type_id":"4","last_reported":1740859739,"current_range_meters":18800,"station_id":"","pricing_plan_id":"cebpf4jnsgd1na2vs0mg"},{"bike_id":"eeccb966-c311-4f8e-93fc-1ad90d28c9ff","system_id":"levelo_inurba_marseille","lat":43.29527,"lon":5.39408,"is_reserved":false,"is_disabled":false,"rental_uris":{"android":"levelo://app?vid=eeccb966-c311-4f8e-93fc-1ad90d28c9ff","ios":"levelo://app?vid=eeccb966-c311-4f8e-93fc-1ad90d28c9ff"},"vehicle_type_id":"4","last_reported":1740859739,"current_range_meters":18800,"station_id":"ce4bh292rcd13ifvqdf0","pricing_plan_id":"cebpf4jnsgd1na2vs0mg"},{"bike_id":"4594b23e-a491-4f11-8eba-ddc83ba41801","system_id":"levelo_inurba_marseille","lat":43.29532,"lon":5.39031,"is_reserved":false,"is_disabled":false,"rental_uris":{"android":"levelo://app?vid=4594b23e-a491-4f11-8eba-ddc83ba41801","ios":"levelo://app?vid=4594b23e-a491-4f11-8eba-ddc83ba41801"},"vehicle_type_id":"4","last_reported":1740859739,"current_range_meters":17600,"station_id":"ce4bh3p2rcd13ifvqdp0","pricing_plan_id":"cebpf4jnsgd1na2vs0mg"},{"bike_id":"d66b749a-0808-469e-b143-0787b08d816b","system_id":"levelo_inurba_marseille","lat":43.262123,"lon":5.37444,"is_reserved":false,"is_disabled":false,"rental_uris":{"android":"levelo://app?vid=d66b749a-0808-469e-b143-0787b08d816b","ios":"levelo://app?vid=d66b749a-0808-469e-b143-0787b08d816b"},"vehicle_type_id":"4","last_reported":1740859739,"current_range_meters":18800,"station_id":"ce4bhgp2rcd13ifvqfc0","pricing_plan_id":"cebpf4jnsgd1na2vs0mg"},{"bike_id":"35de5d9e-453d-4b6e-a49a-d72de279088a","system_id":"levelo_inurba_marseille","lat":43.26184,"lon":5.37474,"is_reserved":false,"is_disabled":false,"rental_uris":{"android":"levelo://app?vid=35de5d9e-453d-4b6e-a49a-d72de279088a","ios":"levelo://app?vid=35de5d9e-453d-4b6e-a49a-d72de279088a"},"vehicle_type_id":"4","last_reported":1740859739,"current_range_meters":18800,"station_id":"ce4bhgp2rcd13ifvqfc0","pricing_plan_id":"cebpf4jnsgd1na2vs0mg"},{"bike_id":"d0a0d08e-79c4-4ebf-b1c4-1349b845fa37","system_id":"levelo_inurba_marseille","lat":43.30922,"lon":5.36866,"is_reserved":false,"is_disabled":false,"rental_uris":{"android":"levelo://app?vid=d0a0d08e-79c4-4ebf-b1c4-1349b845fa37","ios":"levelo://app?vid=d0a0d08e-79c4-4ebf-b1c4-1349b845fa37"},"vehicle_type_id":"4","last_reported":1740859739,"current_range_meters":18800,"station_id":"ce4bgn92rcd13ifvqbvg","pricing_plan_id":"cebpf4jnsgd1na2vs0mg"},{"bike_id":"3bde88fa-0ee2-44f6-85a7-4a9a2f73597c","system_id":"levelo_inurba_marseille","lat":43.27815,"lon":5.40731,"is_reserved":false,"is_disabled":false,"rental_uris":{"android":"levelo://app?vid=3bde88fa-0ee2-44f6-85a7-4a9a2f73597c","ios":"levelo://app?vid=3bde88fa-0ee2-44f6-85a7-4a9a2f73597c"},"vehicle_type_id":"4","last_reported":1740859739,"current_range_meters":18800,"station_id":"ce4bhnh2rcd13ifvqgtg","pricing_plan_id":"cebpf4jnsgd1na2vs0mg"},{"bike_id":"219c3b0b-00a7-466e-b12d-57038ccef4f4","system_id":"levelo_inurba_marseille","lat":43.26206,"lon":5.3745,"is_reserved":false,"is_disabled":false,"rental_uris":{"android":"levelo://app?vid=219c3b0b-00a7-466e-b12d-57038ccef4f4","ios":"levelo://app?vid=219c3b0b-00a7-466e-b12d-57038ccef4f4"},"vehicle_type_id":"4","last_reported":1740859739,"current_range_meters":18800,"station_id":"ce4bhgp2rcd13ifvqfc0","pricing_plan_id":"cebpf4jnsgd1na2vs0mg"},{"bike_id":"649829b2-c1cd-427e-8261-58cadc14e1d8","system_id":"levelo_inurba_marseille","lat":43.27376,"lon":5.36252,"is_reserved":false,"is_disabled":false,"rental_uris":{"android":"levelo://app?vid=649829b2-c1cd-427e-8261-58cadc14e1d8","ios":"levelo://app?vid=649829b2-c1cd-427e-8261-58cadc14e1d8"},"vehicle_type_id":"4","last_reported":1740859739,"current_range_meters":18800,"station_id":"ce4bhbh2rcd13ifvqeo0","pricing_plan_id":"cebpf4jnsgd1na2vs0mg"},{"bike_id":"cc836fe0-3cfd-4fe9-beb4-1fec15d76872","system_id":"levelo_inurba_marseille","lat":43.3043,"lon":5.3733,"is_reserved":false,"is_disabled":false,"rental_uris":{"android":"levelo://app?vid=cc836fe0-3cfd-4fe9-beb4-1fec15d76872","ios":"levelo://app?vid=cc836fe0-3cfd-4fe9-beb4-1fec15d76872"},"vehicle_type_id":"4","last_reported":1740859739,"current_range_meters":18800,"station_id":"","pricing_plan_id":"cebpf4jnsgd1na2vs0mg"},{"bike_id":"303c2b96-5131-48b9-8dd0-e5a82865f4bc","system_id":"levelo_inurba_marseille","lat":43.2861,"lon":5.35102,"is_reserved":false,"is_disabled":false,"rental_uris":{"android":"levelo://app?vid=303c2b96-5131-48b9-8dd0-e5a82865f4bc","ios":"levelo://app?vid=303c2b96-5131-48b9-8dd0-e5a82865f4bc"},"vehicle_type_id":"4","last_reported":1740859739,"current_range_meters":19200,"station_id":"ce4bhch2rcd13ifvqeug","pricing_plan_id":"cebpf4jnsgd1na2vs0mg"},{"bike_id":"59d7a272-679b-4e64-9999-2c649294dd61","system_id":"levelo_inurba_marseille","lat":43.27074,"lon":5.4227,"is_reserved":false,"is_disabled":false,"rental_uris":{"android":"levelo://app?vid=59d7a272-679b-4e64-9999-2c649294dd61","ios":"levelo://app?vid=59d7a272-679b-4e64-9999-2c649294dd61"},"vehicle_type_id":"4","last_reported":1740859739,"current_range_meters":19200,"station_id":"ce4bhk92rcd13ifvqgb0","pricing_plan_id":"cebpf4jnsgd1na2vs0mg"},{"bike_id":"5e814625-ea8c-4d84-b949-f4ebde66e9eb","system_id":"levelo_inurba_marseille","lat":43.29536,"lon":5.3854,"is_reserved":false,"is_disabled":false,"rental_uris":{"android":"levelo://app?vid=5e814625-ea8c-4d84-b949-f4ebde66e9eb","ios":"levelo://app?vid=5e814625-ea8c-4d84-b949-f4ebde66e9eb"},"vehicle_type_id":"4","last_reported":1740859739,"current_range_meters":19200,"station_id":"ce4bgih2rcd13ifvqba0","pricing_plan_id":"cebpf4jnsgd1na2vs0mg"},{"bike_id":"cc9351c4-7429-4314-a267-2e490567aafb","system_id":"levelo_inurba_marseille","lat":43.29317,"lon":5.37178,"is_reserved":false,"is_disabled":false,"rental_uris":{"android":"levelo://app?vid=cc9351c4-7429-4314-a267-2e490567aafb","ios":"levelo://app?vid=cc9351c4-7429-4314-a267-2e490567aafb"},"vehicle_type_id":"4","last_reported":1740859739,"current_range_meters":19200,"station_id":"ce4bgh92rcd13ifvqb40","pricing_plan_id":"cebpf4jnsgd1na2vs0mg"},{"bike_id":"3cf39e80-44f4-48a5-b674-da9fd0e1b66d","system_id":"levelo_inurba_marseille","lat":43.29591,"lon":5.37477,"is_reserved":false,"is_disabled":false,"rental_uris":{"android":"levelo://app?vid=3cf39e80-44f4-48a5-b674-da9fd0e1b66d","ios":"levelo://app?vid=3cf39e80-44f4-48a5-b674-da9fd0e1b66d"},"vehicle_type_id":"4","last_reported":1740859739,"current_range_meters":19200,"station_id":"ce4bgh92rcd13ifvqb50","pricing_plan_id":"cebpf4jnsgd1na2vs0mg"},{"bike_id":"d29e82e5-442b-4177-903e-3742ab7d0a8c","system_id":"levelo_inurba_marseille","lat":43.30027,"lon":5.37435,"is_reserved":false,"is_disabled":false,"rental_uris":{"android":"levelo://app?vid=d29e82e5-442b-4177-903e-3742ab7d0a8c","ios":"levelo://app?vid=d29e82e5-442b-4177-903e-3742ab7d0a8c"},"vehicle_type_id":"4","last_reported":1740859739,"current_range_meters":19200,"station_id":"","pricing_plan_id":"cebpf4jnsgd1na2vs0mg"},{"bike_id":"b863bc21-ecc3-4be8-b58d-8f3ecf2d3213","system_id":"levelo_inurba_marseille","lat":43.29451,"lon":5.39777,"is_reserved":false,"is_disabled":true,"rental_uris":{"android":"levelo://app?vid=b863bc21-ecc3-4be8-b58d-8f3ecf2d3213","ios":"levelo://app?vid=b863bc21-ecc3-4be8-b58d-8f3ecf2d3213"},"vehicle_type_id":"4","last_reported":1740859739,"current_range_meters":19200,"station_id":"ce4bh3h2rcd13ifvqdo0","pricing_plan_id":"cebpf4jnsgd1na2vs0mg"},{"bike_id":"c8aa2c53-795a-4a12-830b-17795b22d3f0","system_id":"levelo_inurba_marseille","lat":43.29804,"lon":5.38069,"is_reserved":false,"is_disabled":true,"rental_uris":{"android":"levelo://app?vid=c8aa2c53-795a-4a12-830b-17795b22d3f0","ios":"levelo://app?vid=c8aa2c53-795a-4a12-830b-17795b22d3f0"},"vehicle_type_id":"4","last_reported":1740859739,"current_range_meters":19200,"station_id":"ce4bgip2rcd13ifvqbb0","pricing_plan_id":"cebpf4jnsgd1na2vs0mg"},{"bike_id":"5003655e-b0a0-47bb-bca9-5f59f0bfd6fa","system_id":"levelo_inurba_marseille","lat":43.29268,"lon":5.36844,"is_reserved":false,"is_disabled":false,"rental_uris":{"android":"levelo://app?vid=5003655e-b0a0-47bb-bca9-5f59f0bfd6fa","ios":"levelo://app?vid=5003655e-b0a0-47bb-bca9-5f59f0bfd6fa"},"vehicle_type_id":"4","last_reported":1740859739,"current_range_meters":19600,"station_id":"ce4bhbp2rcd13ifvqesg","pricing_plan_id":"cebpf4jnsgd1na2vs0mg"},{"bike_id":"0b85d778-5f42-41f6-99e6-93c2062ce94d","system_id":"levelo_inurba_marseille","lat":43.31751,"lon":5.43699,"is_reserved":false,"is_disabled":false,"rental_uris":{"android":"levelo://app?vid=0b85d778-5f42-41f6-99e6-93c2062ce94d","ios":"levelo://app?vid=0b85d778-5f42-41f6-99e6-93c2062ce94d"},"vehicle_type_id":"4","last_reported":1740859739,"current_range_meters":19600,"station_id":"ce4bhp92rcd13ifvqhcg","pricing_plan_id":"cebpf4jnsgd1na2vs0mg"},{"bike_id":"528abe8d-c7d9-4e16-96c8-22e9bee35503","system_id":"levelo_inurba_marseille","lat":43.30611,"lon":5.37229,"is_reserved":false,"is_disabled":false,"rental_uris":{"android":"levelo://app?vid=528abe8d-c7d9-4e16-96c8-22e9bee35503","ios":"levelo://app?vid=528abe8d-c7d9-4e16-96c8-22e9bee35503"},"vehicle_type_id":"4","last_reported":1740859739,"current_range_meters":19600,"station_id":"ce4bgqh2rcd13ifvqc4g","pricing_plan_id":"cebpf4jnsgd1na2vs0mg"},{"bike_id":"476112c9-3c40-48ac-9bab-1099ff64d6be","system_id":"levelo_inurba_marseille","lat":43.30158,"lon":5.38087,"is_reserved":false,"is_disabled":false,"rental_uris":{"android":"levelo://app?vid=476112c9-3c40-48ac-9bab-1099ff64d6be","ios":"levelo://app?vid=476112c9-3c40-48ac-9bab-1099ff64d6be"},"vehicle_type_id":"4","last_reported":1740859739,"current_range_meters":19600,"station_id":"ce4bgjp2rcd13ifvqbh0","pricing_plan_id":"cebpf4jnsgd1na2vs0mg"},{"bike_id":"670122a3-157a-4ef1-82d1-a5574649dac0","system_id":"levelo_inurba_marseille","lat":43.23951,"lon":5.36645,"is_reserved":false,"is_disabled":false,"rental_uris":{"android":"levelo://app?vid=670122a3-157a-4ef1-82d1-a5574649dac0","ios":"levelo://app?vid=670122a3-157a-4ef1-82d1-a5574649dac0"},"vehicle_type_id":"4","last_reported":1740859739,"current_range_meters":19600,"station_id":"ce4bhi12rcd13ifvqfp0","pricing_plan_id":"cebpf4jnsgd1na2vs0mg"},{"bike_id":"982a6c2e-2f14-45e6-81c3-569abb57b097","system_id":"levelo_inurba_marseille","lat":43.23063,"lon":5.35498,"is_reserved":false,"is_disabled":false,"rental_uris":{"android":"levelo://app?vid=982a6c2e-2f14-45e6-81c3-569abb57b097","ios":"levelo://app?vid=982a6c2e-2f14-45e6-81c3-569abb57b097"},"vehicle_type_id":"4","last_reported":1740859739,"current_range_meters":19600,"station_id":"cpo3342slgdg3j2ifvpg","pricing_plan_id":"cebpf4jnsgd1na2vs0mg"},{"bike_id":"32a83324-ace6-4d4b-833d-739c4097e38d","system_id":"levelo_inurba_marseille","lat":43.2924,"lon":5.38457,"is_reserved":false,"is_disabled":false,"rental_uris":{"android":"levelo://app?vid=32a83324-ace6-4d4b-833d-739c4097e38d","ios":"levelo://app?vid=32a83324-ace6-4d4b-833d-739c4097e38d"},"vehicle_type_id":"4","last_reported":1740859739,"current_range_meters":19600,"station_id":"ce4bh692rcd13ifvqea0","pricing_plan_id":"cebpf4jnsgd1na2vs0mg"},{"bike_id":"46b42730-9dd3-44c5-91a9-d6d931f385c3","system_id":"levelo_inurba_marseille","lat":43.25499,"lon":5.37649,"is_reserved":false,"is_disabled":false,"rental_uris":{"android":"levelo://app?vid=46b42730-9dd3-44c5-91a9-d6d931f385c3","ios":"levelo://app?vid=46b42730-9dd3-44c5-91a9-d6d931f385c3"},"vehicle_type_id":"4","last_reported":1740859739,"current_range_meters":20000,"station_id":"ce4bhh12rcd13ifvqff0","pricing_plan_id":"cebpf4jnsgd1na2vs0mg"},{"bike_id":"266c76e0-bc5a-49d2-9d26-bcf5a3d9e8bd","system_id":"levelo_inurba_marseille","lat":43.30892,"lon":5.36859,"is_reserved":false,"is_disabled":false,"rental_uris":{"android":"levelo://app?vid=266c76e0-bc5a-49d2-9d26-bcf5a3d9e8bd","ios":"levelo://app?vid=266c76e0-bc5a-49d2-9d26-bcf5a3d9e8bd"},"vehicle_type_id":"4","last_reported":1740859739,"current_range_meters":20000,"station_id":"ce4bgn92rcd13ifvqbvg","pricing_plan_id":"cebpf4jnsgd1na2vs0mg"},{"bike_id":"025c5853-ccc2-4830-96db-13ec34f83af7","system_id":"levelo_inurba_marseille","lat":43.27813,"lon":5.40726,"is_reserved":false,"is_disabled":false,"rental_uris":{"android":"levelo://app?vid=025c5853-ccc2-4830-96db-13ec34f83af7","ios":"levelo://app?vid=025c5853-ccc2-4830-96db-13ec34f83af7"},"vehicle_type_id":"4","last_reported":1740859739,"current_range_meters":20000,"station_id":"ce4bhnh2rcd13ifvqgtg","pricing_plan_id":"cebpf4jnsgd1na2vs0mg"},{"bike_id":"e1ca5680-f829-4f7f-8ad0-c95921ad1f3b","system_id":"levelo_inurba_marseille","lat":43.27834,"lon":5.39206,"is_reserved":false,"is_disabled":false,"rental_uris":{"android":"levelo://app?vid=e1ca5680-f829-4f7f-8ad0-c95921ad1f3b","ios":"levelo://app?vid=e1ca5680-f829-4f7f-8ad0-c95921ad1f3b"},"vehicle_type_id":"4","last_reported":1740859739,"current_range_meters":20400,"station_id":"ce4bhjp2rcd13ifvqga0","pricing_plan_id":"cebpf4jnsgd1na2vs0mg"},{"bike_id":"f21584a5-773e-421b-9bc8-969611952e29","system_id":"levelo_inurba_marseille","lat":43.23154,"lon":5.4371,"is_reserved":false,"is_disabled":false,"rental_uris":{"android":"levelo://app?vid=f21584a5-773e-421b-9bc8-969611952e29","ios":"levelo://app?vid=f21584a5-773e-421b-9bc8-969611952e29"},"vehicle_type_id":"4","last_reported":1740859739,"current_range_meters":20000,"station_id":"ce4bhmp2rcd13ifvqgog","pricing_plan_id":"cebpf4jnsgd1na2vs0mg"},{"bike_id":"ab771a5e-1f93-41b8-9ddd-e44ebc847f5b","system_id":"levelo_inurba_marseille","lat":43.29276,"lon":5.36841,"is_reserved":false,"is_disabled":false,"rental_uris":{"android":"levelo://app?vid=ab771a5e-1f93-41b8-9ddd-e44ebc847f5b","ios":"levelo://app?vid=ab771a5e-1f93-41b8-9ddd-e44ebc847f5b"},"vehicle_type_id":"4","last_reported":1740859739,"current_range_meters":20400,"station_id":"ce4bhbp2rcd13ifvqesg","pricing_plan_id":"cebpf4jnsgd1na2vs0mg"},{"bike_id":"ed3fdd04-4f01-4dec-bae0-dc817c8e7da9","system_id":"levelo_inurba_marseille","lat":43.30601,"lon":5.37241,"is_reserved":false,"is_disabled":false,"rental_uris":{"android":"levelo://app?vid=ed3fdd04-4f01-4dec-bae0-dc817c8e7da9","ios":"levelo://app?vid=ed3fdd04-4f01-4dec-bae0-dc817c8e7da9"},"vehicle_type_id":"4","last_reported":1740859739,"current_range_meters":20400,"station_id":"ce4bgqh2rcd13ifvqc4g","pricing_plan_id":"cebpf4jnsgd1na2vs0mg"},{"bike_id":"b807de75-33b5-46fe-919d-20eed079785e","system_id":"levelo_inurba_marseille","lat":43.27961,"lon":5.38653,"is_reserved":false,"is_disabled":false,"rental_uris":{"android":"levelo://app?vid=b807de75-33b5-46fe-919d-20eed079785e","ios":"levelo://app?vid=b807de75-33b5-46fe-919d-20eed079785e"},"vehicle_type_id":"4","last_reported":1740859739,"current_range_meters":20400,"station_id":"ce4bhg12rcd13ifvqf80","pricing_plan_id":"cebpf4jnsgd1na2vs0mg"},{"bike_id":"417fbd7d-d6d8-4c3a-98dd-ce0156edb9f1","system_id":"levelo_inurba_marseille","lat":43.28419,"lon":5.35001,"is_reserved":false,"is_disabled":false,"rental_uris":{"android":"levelo://app?vid=417fbd7d-d6d8-4c3a-98dd-ce0156edb9f1","ios":"levelo://app?vid=417fbd7d-d6d8-4c3a-98dd-ce0156edb9f1"},"vehicle_type_id":"4","last_reported":1740859739,"current_range_meters":20400,"station_id":"ce4bhbh2rcd13ifvqepg","pricing_plan_id":"cebpf4jnsgd1na2vs0mg"},{"bike_id":"0aeba2b7-fd38-48de-924a-f6ad59a1def8","system_id":"levelo_inurba_marseille","lat":43.29369,"lon":5.37823,"is_reserved":false,"is_disabled":false,"rental_uris":{"android":"levelo://app?vid=0aeba2b7-fd38-48de-924a-f6ad59a1def8","ios":"levelo://app?vid=0aeba2b7-fd38-48de-924a-f6ad59a1def8"},"vehicle_type_id":"4","last_reported":1740859739,"current_range_meters":21600,"station_id":"ce4bgjh2rcd13ifvqbf0","pricing_plan_id":"cebpf4jnsgd1na2vs0mg"},{"bike_id":"ddaa139e-263a-4265-849c-be73a90181ac","system_id":"levelo_inurba_marseille","lat":43.29746,"lon":5.37667,"is_reserved":false,"is_disabled":false,"rental_uris":{"android":"levelo://app?vid=ddaa139e-263a-4265-849c-be73a90181ac","ios":"levelo://app?vid=ddaa139e-263a-4265-849c-be73a90181ac"},"vehicle_type_id":"4","last_reported":1740859739,"current_range_meters":20400,"station_id":"ce4bgkh2rcd13ifvqbl0","pricing_plan_id":"cebpf4jnsgd1na2vs0mg"},{"bike_id":"453068aa-c17d-43bf-9cdd-03e2ddd93a1e","system_id":"levelo_inurba_marseille","lat":43.30892,"lon":5.36862,"is_reserved":false,"is_disabled":false,"rental_uris":{"android":"levelo://app?vid=453068aa-c17d-43bf-9cdd-03e2ddd93a1e","ios":"levelo://app?vid=453068aa-c17d-43bf-9cdd-03e2ddd93a1e"},"vehicle_type_id":"4","last_reported":1740859739,"current_range_meters":20800,"station_id":"ce4bgn92rcd13ifvqbvg","pricing_plan_id":"cebpf4jnsgd1na2vs0mg"},{"bike_id":"23418860-f591-46dc-a2d5-0cc5111bf86a","system_id":"levelo_inurba_marseille","lat":43.26176,"lon":5.42069,"is_reserved":false,"is_disabled":false,"rental_uris":{"android":"levelo://app?vid=23418860-f591-46dc-a2d5-0cc5111bf86a","ios":"levelo://app?vid=23418860-f591-46dc-a2d5-0cc5111bf86a"},"vehicle_type_id":"4","last_reported":1740859739,"current_range_meters":20800,"station_id":"","pricing_plan_id":"cebpf4jnsgd1na2vs0mg"},{"bike_id":"61c68cd9-471f-4dd0-8b78-b9c4d990406a","system_id":"levelo_inurba_marseille","lat":43.28373,"lon":5.38624,"is_reserved":false,"is_disabled":false,"rental_uris":{"android":"levelo://app?vid=61c68cd9-471f-4dd0-8b78-b9c4d990406a","ios":"levelo://app?vid=61c68cd9-471f-4dd0-8b78-b9c4d990406a"},"vehicle_type_id":"4","last_reported":1740859739,"current_range_meters":20400,"station_id":"ce4bh492rcd13ifvqdvg","pricing_plan_id":"cebpf4jnsgd1na2vs0mg"},{"bike_id":"ad3f9331-e2cd-4bf0-845a-bfb8a08a858f","system_id":"levelo_inurba_marseille","lat":43.30165,"lon":5.39768,"is_reserved":false,"is_disabled":false,"rental_uris":{"android":"levelo://app?vid=ad3f9331-e2cd-4bf0-845a-bfb8a08a858f","ios":"levelo://app?vid=ad3f9331-e2cd-4bf0-845a-bfb8a08a858f"},"vehicle_type_id":"4","last_reported":1740859739,"current_range_meters":20800,"station_id":"","pricing_plan_id":"cebpf4jnsgd1na2vs0mg"},{"bike_id":"347575be-15c5-4525-8915-10119f7bc2fd","system_id":"levelo_inurba_marseille","lat":43.29248,"lon":5.38449,"is_reserved":false,"is_disabled":false,"rental_uris":{"android":"levelo://app?vid=347575be-15c5-4525-8915-10119f7bc2fd","ios":"levelo://app?vid=347575be-15c5-4525-8915-10119f7bc2fd"},"vehicle_type_id":"4","last_reported":1740859739,"current_range_meters":20800,"station_id":"ce4bh692rcd13ifvqea0","pricing_plan_id":"cebpf4jnsgd1na2vs0mg"},{"bike_id":"b6d72229-34df-42f0-a1f9-8bd8853fad55","system_id":"levelo_inurba_marseille","lat":43.29319,"lon":5.37139,"is_reserved":false,"is_disabled":false,"rental_uris":{"android":"levelo://app?vid=b6d72229-34df-42f0-a1f9-8bd8853fad55","ios":"levelo://app?vid=b6d72229-34df-42f0-a1f9-8bd8853fad55"},"vehicle_type_id":"4","last_reported":1740859739,"current_range_meters":21600,"station_id":"ce4bgh92rcd13ifvqb40","pricing_plan_id":"cebpf4jnsgd1na2vs0mg"},{"bike_id":"7677f52e-c269-4ae6-9a4d-a36f51bf4aea","system_id":"levelo_inurba_marseille","lat":43.27965,"lon":5.38712,"is_reserved":false,"is_disabled":false,"rental_uris":{"android":"levelo://app?vid=7677f52e-c269-4ae6-9a4d-a36f51bf4aea","ios":"levelo://app?vid=7677f52e-c269-4ae6-9a4d-a36f51bf4aea"},"vehicle_type_id":"4","last_reported":1740859739,"current_range_meters":21600,"station_id":"ce4bhg12rcd13ifvqf80","pricing_plan_id":"cebpf4jnsgd1na2vs0mg"},{"bike_id":"5c77a4f4-86ba-47eb-8b9f-590795348b82","system_id":"levelo_inurba_marseille","lat":43.29263,"lon":5.38445,"is_reserved":false,"is_disabled":false,"rental_uris":{"android":"levelo://app?vid=5c77a4f4-86ba-47eb-8b9f-590795348b82","ios":"levelo://app?vid=5c77a4f4-86ba-47eb-8b9f-590795348b82"},"vehicle_type_id":"4","last_reported":1740859739,"current_range_meters":21600,"station_id":"ce4bh692rcd13ifvqea0","pricing_plan_id":"cebpf4jnsgd1na2vs0mg"},{"bike_id":"8d9c8e90-bf71-485e-8a01-338c250418a1","system_id":"levelo_inurba_marseille","lat":43.2952,"lon":5.37506,"is_reserved":false,"is_disabled":false,"rental_uris":{"android":"levelo://app?vid=8d9c8e90-bf71-485e-8a01-338c250418a1","ios":"levelo://app?vid=8d9c8e90-bf71-485e-8a01-338c250418a1"},"vehicle_type_id":"4","last_reported":1740859739,"current_range_meters":20800,"station_id":"ce4bh192rcd13ifvqdb0","pricing_plan_id":"cebpf4jnsgd1na2vs0mg"},{"bike_id":"8c418afa-4a43-45d0-83c2-1c17c420fa81","system_id":"levelo_inurba_marseille","lat":43.26191,"lon":5.3745,"is_reserved":false,"is_disabled":false,"rental_uris":{"android":"levelo://app?vid=8c418afa-4a43-45d0-83c2-1c17c420fa81","ios":"levelo://app?vid=8c418afa-4a43-45d0-83c2-1c17c420fa81"},"vehicle_type_id":"4","last_reported":1740859739,"current_range_meters":21600,"station_id":"ce4bhgp2rcd13ifvqfc0","pricing_plan_id":"cebpf4jnsgd1na2vs0mg"},{"bike_id":"7d87d289-844d-47b0-888f-4a2cf5b717ef","system_id":"levelo_inurba_marseille","lat":43.29521,"lon":5.39396,"is_reserved":false,"is_disabled":false,"rental_uris":{"android":"levelo://app?vid=7d87d289-844d-47b0-888f-4a2cf5b717ef","ios":"levelo://app?vid=7d87d289-844d-47b0-888f-4a2cf5b717ef"},"vehicle_type_id":"4","last_reported":1740859739,"current_range_meters":21600,"station_id":"ce4bh292rcd13ifvqdf0","pricing_plan_id":"cebpf4jnsgd1na2vs0mg"},{"bike_id":"c3fd6d6d-11a6-4224-9984-aa1136aaa9d4","system_id":"levelo_inurba_marseille","lat":43.29428,"lon":5.38626,"is_reserved":false,"is_disabled":false,"rental_uris":{"android":"levelo://app?vid=c3fd6d6d-11a6-4224-9984-aa1136aaa9d4","ios":"levelo://app?vid=c3fd6d6d-11a6-4224-9984-aa1136aaa9d4"},"vehicle_type_id":"4","last_reported":1740859739,"current_range_meters":21600,"station_id":"","pricing_plan_id":"cebpf4jnsgd1na2vs0mg"},{"bike_id":"4e186009-d517-4928-b5f7-9c6188957187","system_id":"levelo_inurba_marseille","lat":43.27814,"lon":5.40714,"is_reserved":false,"is_disabled":false,"rental_uris":{"android":"levelo://app?vid=4e186009-d517-4928-b5f7-9c6188957187","ios":"levelo://app?vid=4e186009-d517-4928-b5f7-9c6188957187"},"vehicle_type_id":"4","last_reported":1740859739,"current_range_meters":21600,"station_id":"ce4bhnh2rcd13ifvqgtg","pricing_plan_id":"cebpf4jnsgd1na2vs0mg"},{"bike_id":"0e3d6344-9280-4f09-a75e-f5589d2b3da2","system_id":"levelo_inurba_marseille","lat":43.33018,"lon":5.39064,"is_reserved":false,"is_disabled":false,"rental_uris":{"android":"levelo://app?vid=0e3d6344-9280-4f09-a75e-f5589d2b3da2","ios":"levelo://app?vid=0e3d6344-9280-4f09-a75e-f5589d2b3da2"},"vehicle_type_id":"4","last_reported":1740859739,"current_range_meters":21600,"station_id":"ce4bhr92rcd13ifvqhrg","pricing_plan_id":"cebpf4jnsgd1na2vs0mg"},{"bike_id":"c2e172f5-fffd-4e63-aca5-6e0885fb3c61","system_id":"levelo_inurba_marseille","lat":43.292762,"lon":5.368497,"is_reserved":false,"is_disabled":false,"rental_uris":{"android":"levelo://app?vid=c2e172f5-fffd-4e63-aca5-6e0885fb3c61","ios":"levelo://app?vid=c2e172f5-fffd-4e63-aca5-6e0885fb3c61"},"vehicle_type_id":"4","last_reported":1740859739,"current_range_meters":21600,"station_id":"ce4bhbp2rcd13ifvqesg","pricing_plan_id":"cebpf4jnsgd1na2vs0mg"},{"bike_id":"07aae58d-61ac-4d9c-b908-07c2589fd401","system_id":"levelo_inurba_marseille","lat":43.26206,"lon":5.37428,"is_reserved":false,"is_disabled":false,"rental_uris":{"android":"levelo://app?vid=07aae58d-61ac-4d9c-b908-07c2589fd401","ios":"levelo://app?vid=07aae58d-61ac-4d9c-b908-07c2589fd401"},"vehicle_type_id":"4","last_reported":1740859739,"current_range_meters":22000,"station_id":"ce4bhgp2rcd13ifvqfc0","pricing_plan_id":"cebpf4jnsgd1na2vs0mg"},