{"last_updated":1760987337,"ttl":60,"version":"2.2","data":{"bikes":[{"bike_id":"8b084a66-9a4a-4354-b113-8572c97691f5","system_id":"levelo_inurba_marseille","lat":43.26191,"lon":5.37449,"is_reserved":false,"is_disabled":false,"rental_uris":{"android":"levelo://app?vid=8b084a66-9a4a-4354-b113-8572c97691f5","ios":"levelo://app?vid=8b084a66-9a4a-4354-b113-8572c97691f5"},"vehicle_type_id":"4","last_reported":1760987337,"current_range_meters":2800,"station_id":"ce4bhgp2rcd13ifvqfc0","pricing_plan_id":"cebpf4jnsgd1na2vs0mg"},{"bike_id":"7c353a0e-bf55-49fc-a608-269db5cc097b","system_id":"levelo_inurba_marseille","lat":43.2816,"lon":5.42635,"is_reserved":false,"is_disabled":false,"rental_uris":{"android":"levelo://app?vid=7c353a0e-bf55-49fc-a608-269db5cc097b","ios":"levelo://app?vid=7c353a0e-bf55-49fc-a608-269db5cc097b"},"vehicle_type_id":"4","last_reported":1760987337,"current_range_meters":2800,"station_id":"ce4bhnh2rcd13ifvqgug","pricing_plan_id":"cebpf4jnsgd1na2vs0mg"},{"bike_id":"341025ca-ef2d-442d-80ac-78ca83dc4a7c","system_id":"levelo_inurba_marseille","lat":43.29916,"lon":5.36954,"is_reserved":false,"is_disabled":false,"rental_uris":{"android":"levelo://app?vid=341025ca-ef2d-442d-80ac-78ca83dc4a7c","ios":"levelo://app?vid=341025ca-ef2d-442d-80ac-78ca83dc4a7c"},"vehicle_type_id":"4","last_reported":1760987337,"current_range_meters":2800,"station_id":"","pricing_plan_id":"cebpf4jnsgd1na2vs0mg"},{"bike_id":"0a414463-fe1a-4833-8a11-178a3c2c879a","system_id":"levelo_inurba_marseille","lat":43.29852,"lon":5.37897,"is_reserved":false,"is_disabled":false,"rental_uris":{"android":"levelo://app?vid=0a414463-fe1a-4833-8a11-178a3c2c879a","ios":"levelo://app?vid=0a414463-fe1a-4833-8a11-178a3c2c879a"},"vehicle_type_id":"4","last_reported":1760987337,"current_range_meters":3200,"station_id":"","pricing_plan_id":"cebpf4jnsgd1na2vs0mg"},{"bike_id":"c2c5e0a3-31d9-4a13-9891-4117859ee8f4","system_id":"levelo_inurba_marseille","lat":43.240753,"lon":5.377534,"is_reserved":false,"is_disabled":false,"rental_uris":{"android":"levelo://app?vid=c2c5e0a3-31d9-4a13-9891-4117859ee8f4","ios":"levelo://app?vid=c2c5e0a3-31d9-4a13-9891-4117859ee8f4"},"vehicle_type_id":"4","last_reported":1760987337,"current_range_meters":3200,"station_id":"ce4bhnp2rcd13ifvqgvg","pricing_plan_id":"cebpf4jnsgd1na2vs0mg"},{"bike_id":"707530db-5a21-4cac-a781-746c21df6831","system_id":"levelo_inurba_marseille","lat":43.281498,"lon":5.426436,"is_reserved":false,"is_disabled":false,"rental_uris":{"android":"levelo://app?vid=707530db-5a21-4cac-a781-746c21df6831","ios":"levelo://app?vid=707530db-5a21-4cac-a781-746c21df6831"},"vehicle_type_id":"4","last_reported":1760987337,"current_range_meters":3200,"station_id":"ce4bhnh2rcd13ifvqgug","pricing_plan_id":"cebpf4jnsgd1na2vs0mg"},{"bike_id":"ee05ab4b-b72f-453e-8914-a9150b6d1bdd","system_id":"levelo_inurba_marseille","lat":43.28612,"lon":5.35105,"is_reserved":false,"is_disabled":false,"rental_uris":{"android":"levelo://app?vid=ee05ab4b-b72f-453e-8914-a9150b6d1bdd","ios":"levelo://app?vid=ee05ab4b-b72f-453e-8914-a9150b6d1bdd"},"vehicle_type_id":"4","last_reported":1760987337,"current_range_meters":3600,"station_id":"","pricing_plan_id":"cebpf4jnsgd1na2vs0mg"},{"bike_id":"3170a251-d687-456b-9940-32507cf0a3e8","system_id":"levelo_inurba_marseille","lat":43.2962,"lon":5.3771,"is_reserved":false,"is_disabled":true,"rental_uris":{"android":"levelo://app?vid=3170a251-d687-456b-9940-32507cf0a3e8","ios":"levelo://app?vid=3170a251-d687-456b-9940-32507cf0a3e8"},"vehicle_type_id":"4","last_reported":1760987337,"current_range_meters":4000,"station_id":"ce4bgi92rcd13ifvqb90","pricing_plan_id":"cebpf4jnsgd1na2vs0mg"},{"bike_id":"7600c36e-981d-4bd5-ade3-67c3e36f524b","system_id":"levelo_inurba_marseille","lat":43.3043,"lon":5.38895,"is_reserved":false,"is_disabled":true,"rental_uris":{"android":"levelo://app?vid=7600c36e-981d-4bd5-ade3-67c3e36f524b","ios":"levelo://app?vid=7600c36e-981d-4bd5-ade3-67c3e36f524b"},"vehicle_type_id":"4","last_reported":1760987337,"current_range_meters":4000,"station_id":"ce4bgk12rcd13ifvqbi0","pricing_plan_id":"cebpf4jnsgd1na2vs0mg"},{"bike_id":"a2b277a2-af39-49d0-adc4-81584d408093","system_id":"levelo_inurba_marseille","lat":43.26952,"lon":5.40252,"is_reserved":false,"is_disabled":false,"rental_uris":{"android":"levelo://app?vid=a2b277a2-af39-49d0-adc4-81584d408093","ios":"levelo://app?vid=a2b277a2-af39-49d0-adc4-81584d408093"},"vehicle_type_id":"4","last_reported":1760987337,"current_range_meters":4000,"station_id":"cjm6bp8fraef2m0cb0m0","pricing_plan_id":"cebpf4jnsgd1na2vs0mg"},{"bike_id":"e8b45772-2fe8-472e-ae6b-3ab8873288b4","system_id":"levelo_inurba_marseille","lat":43.28645,"lon":5.36369,"is_reserved":false,"is_disabled":false,"rental_uris":{"android":"levelo://app?vid=e8b45772-2fe8-472e-ae6b-3ab8873288b4","ios":"levelo://app?vid=e8b45772-2fe8-472e-ae6b-3ab8873288b4"},"vehicle_type_id":"4","last_reported":1760987337,"current_range_meters":4000,"station_id":"ce4bhah2rcd13ifvqej0","pricing_plan_id":"cebpf4jnsgd1na2vs0mg"},{"bike_id":"9b12efb8-4745-48c9-b6b8-0c8b6b7dbcf5","system_id":"levelo_inurba_marseille","lat":43.30879,"lon":5.37867,"is_reserved":false,"is_disabled":false,"rental_uris":{"android":"levelo://app?vid=9b12efb8-4745-48c9-b6b8-0c8b6b7dbcf5","ios":"levelo://app?vid=9b12efb8-4745-48c9-b6b8-0c8b6b7dbcf5"},"vehicle_type_id":"4","last_reported":1760987337,"current_range_meters":4000,"station_id":"","pricing_plan_id":"cebpf4jnsgd1na2vs0mg"},{"bike_id":"8feef79d-4f13-4c36-b7d2-a03bb0f2d3b5","system_id":"levelo_inurba_marseille","lat":43.27986,"lon":5.41657,"is_reserved":false,"is_disabled":false,"rental_uris":{"android":"levelo://app?vid=8feef79d-4f13-4c36-b7d2-a03bb0f2d3b5","ios":"levelo://app?vid=8feef79d-4f13-4c36-b7d2-a03bb0f2d3b5"},"vehicle_type_id":"4","last_reported":1760987337,"current_range_meters":4400,"station_id":"ce4bho12rcd13ifvqh1g","pricing_plan_id":"cebpf4jnsgd1na2vs0mg"},{"bike_id":"ac6d2c4d-74a8-443d-a9f9-0d9807feacda","system_id":"levelo_inurba_marseille","lat":43.33772,"lon":5.37469,"is_reserved":false,"is_disabled":false,"rental_uris":{"android":"levelo://app?vid=ac6d2c4d-74a8-443d-a9f9-0d9807feacda","ios":"levelo://app?vid=ac6d2c4d-74a8-443d-a9f9-0d9807feacda"},"vehicle_type_id":"4","last_reported":1760987337,"current_range_meters":4800,"station_id":"","pricing_plan_id":"cebpf4jnsgd1na2vs0mg"},{"bike_id":"e978660f-731d-4a95-8df5-e0a54d8fe8be","system_id":"levelo_inurba_marseille","lat":43.21226,"lon":5.35044,"is_reserved":false,"is_disabled":false,"rental_uris":{"android":"levelo://app?vid=e978660f-731d-4a95-8df5-e0a54d8fe8be","ios":"levelo://app?vid=e978660f-731d-4a95-8df5-e0a54d8fe8be"},"vehicle_type_id":"4","last_reported":1760987337,"current_range_meters":4800,"station_id":"","pricing_plan_id":"cebpf4jnsgd1na2vs0mg"},{"bike_id":"9542d5f9-754f-498a-a1b9-ffb3781d931b","system_id":"levelo_inurba_marseille","lat":43.281504,"lon":5.426433,"is_reserved":false,"is_disabled":false,"rental_uris":{"android":"levelo://app?vid=9542d5f9-754f-498a-a1b9-ffb3781d931b","ios":"levelo://app?vid=9542d5f9-754f-498a-a1b9-ffb3781d931b"},"vehicle_type_id":"4","last_reported":1760987337,"current_range_meters":4800,"station_id":"ce4bhnh2rcd13ifvqgug","pricing_plan_id":"cebpf4jnsgd1na2vs0mg"},{"bike_id":"c039ff92-de5c-45c0-8fd5-a7ac16a7354c","system_id":"levelo_inurba_marseille","lat":43.287083,"lon":5.399943,"is_reserved":false,"is_disabled":false,"rental_uris":{"android":"levelo://app?vid=c039ff92-de5c-45c0-8fd5-a7ac16a7354c","ios":"levelo://app?vid=c039ff92-de5c-45c0-8fd5-a7ac16a7354c"},"vehicle_type_id":"4","last_reported":1760987337,"current_range_meters":4800,"station_id":"ce4bho92rcd13ifvqh3g","pricing_plan_id":"cebpf4jnsgd1na2vs0mg"},{"bike_id":"ac09a6c7-1ac2-431c-ae53-46c283287c42","system_id":"levelo_inurba_marseille","lat":43.2481,"lon":5.37452,"is_reserved":false,"is_disabled":false,"rental_uris":{"android":"levelo://app?vid=ac09a6c7-1ac2-431c-ae53-46c283287c42","ios":"levelo://app?vid=ac09a6c7-1ac2-431c-ae53-46c283287c42"},"vehicle_type_id":"4","last_reported":1760987337,"current_range_meters":5600,"station_id":"ce4bhgh2rcd13ifvqfb0","pricing_plan_id":"cebpf4jnsgd1na2vs0mg"},{"bike_id":"365b1110-8604-4b2d-ad9b-3263b8a258f2","system_id":"levelo_inurba_marseille","lat":43.28655,"lon":5.3634,"is_reserved":false,"is_disabled":false,"rental_uris":{"android":"levelo://app?vid=365b1110-8604-4b2d-ad9b-3263b8a258f2","ios":"levelo://app?vid=365b1110-8604-4b2d-ad9b-3263b8a258f2"},"vehicle_type_id":"4","last_reported":1760987337,"current_range_meters":5600,"station_id":"ce4bhah2rcd13ifvqej0","pricing_plan_id":"cebpf4jnsgd1na2vs0mg"},{"bike_id":"ed376a7d-3184-4e9e-95bb-98d150ea03eb","system_id":"levelo_inurba_marseille","lat":43.28474,"lon":5.3588,"is_reserved":false,"is_disabled":false,"rental_uris":{"android":"levelo://app?vid=ed376a7d-3184-4e9e-95bb-98d150ea03eb","ios":"levelo://app?vid=ed376a7d-3184-4e9e-95bb-98d150ea03eb"},"vehicle_type_id":"4","last_reported":1760987337,"current_range_meters":5600,"station_id":"ce4bhah2rcd13ifvqei0","pricing_plan_id":"cebpf4jnsgd1na2vs0mg"},{"bike_id":"3582cc1c-e51a-4ec7-bbb0-a023087778b8","system_id":"levelo_inurba_marseille","lat":43.305911,"lon":5.39942,"is_reserved":false,"is_disabled":false,"rental_uris":{"android":"levelo://app?vid=3582cc1c-e51a-4ec7-bbb0-a023087778b8","ios":"levelo://app?vid=3582cc1c-e51a-4ec7-bbb0-a023087778b8"},"vehicle_type_id":"4","last_reported":1760987337,"current_range_meters":5600,"station_id":"ce4bh092rcd13ifvqd20","pricing_plan_id":"cebpf4jnsgd1na2vs0mg"},{"bike_id":"6338758a-026e-4498-9ad9-6950b1f4a0c5","system_id":"levelo_inurba_marseille","lat":43.25502,"lon":5.3765,"is_reserved":false,"is_disabled":false,"rental_uris":{"android":"levelo://app?vid=6338758a-026e-4498-9ad9-6950b1f4a0c5","ios":"levelo://app?vid=6338758a-026e-4498-9ad9-6950b1f4a0c5"},"vehicle_type_id":"4","last_reported":1760987337,"current_range_meters":5600,"station_id":"ce4bhh12rcd13ifvqff0","pricing_plan_id":"cebpf4jnsgd1na2vs0mg"},{"bike_id":"a463e313-a49e-4913-86e0-55372fde2260","system_id":"levelo_inurba_marseille","lat":43.33245,"lon":5.44188,"is_reserved":false,"is_disabled":true,"rental_uris":{"android":"levelo://app?vid=a463e313-a49e-4913-86e0-55372fde2260","ios":"levelo://app?vid=a463e313-a49e-4913-86e0-55372fde2260"},"vehicle_type_id":"4","last_reported":1760987337,"current_range_meters":6000,"station_id":"","pricing_plan_id":"cebpf4jnsgd1na2vs0mg"},{"bike_id":"20cba117-cd1f-43cd-9ec4-b4079c6102b8","system_id":"levelo_inurba_marseille","lat":43.2466,"lon":5.38889,"is_reserved":false,"is_disabled":false,"rental_uris":{"android":"levelo://app?vid=20cba117-cd1f-43cd-9ec4-b4079c6102b8","ios":"levelo://app?vid=20cba117-cd1f-43cd-9ec4-b4079c6102b8"},"vehicle_type_id":"4","last_reported":1760987337,"current_range_meters":6000,"station_id":"ce4bhg12rcd13ifvqf60","pricing_plan_id":"cebpf4jnsgd1na2vs0mg"},{"bike_id":"720543e7-6938-413e-9c6c-10f7542a8213","system_id":"levelo_inurba_marseille","lat":43.2953,"lon":5.38542,"is_reserved":false,"is_disabled":false,"rental_uris":{"android":"levelo://app?vid=720543e7-6938-413e-9c6c-10f7542a8213","ios":"levelo://app?vid=720543e7-6938-413e-9c6c-10f7542a8213"},"vehicle_type_id":"4","last_reported":1760987337,"current_range_meters":6000,"station_id":"ce4bgih2rcd13ifvqba0","pricing_plan_id":"cebpf4jnsgd1na2vs0mg"},{"bike_id":"b3ef2420-d2fb-4db7-b30c-518d72aea008","system_id":"levelo_inurba_marseille","lat":43.27824,"lon":5.39217,"is_reserved":false,"is_disabled":false,"rental_uris":{"android":"levelo://app?vid=b3ef2420-d2fb-4db7-b30c-518d72aea008","ios":"levelo://app?vid=b3ef2420-d2fb-4db7-b30c-518d72aea008"},"vehicle_type_id":"4","last_reported":1760987337,"current_range_meters":6400,"station_id":"ce4bhjp2rcd13ifvqga0","pricing_plan_id":"cebpf4jnsgd1na2vs0mg"},{"bike_id":"b9ec5c2f-cb81-4fd4-bf9a-20716dc32120","system_id":"levelo_inurba_marseille","lat":43.29866,"lon":5.39734,"is_reserved":false,"is_disabled":false,"rental_uris":{"android":"levelo://app?vid=b9ec5c2f-cb81-4fd4-bf9a-20716dc32120","ios":"levelo://app?vid=b9ec5c2f-cb81-4fd4-bf9a-20716dc32120"},"vehicle_type_id":"4","last_reported":1760987337,"current_range_meters":6400,"station_id":"ce4bh0h2rcd13ifvqd50","pricing_plan_id":"cebpf4jnsgd1na2vs0mg"},{"bike_id":"200b4708-5b01-4425-b02a-e1ecccef9ba2","system_id":"levelo_inurba_marseille","lat":43.21753,"lon":5.34596,"is_reserved":false,"is_disabled":false,"rental_uris":{"android":"levelo://app?vid=200b4708-5b01-4425-b02a-e1ecccef9ba2","ios":"levelo://app?vid=200b4708-5b01-4425-b02a-e1ecccef9ba2"},"vehicle_type_id":"4","last_reported":1760987337,"current_range_meters":6400,"station_id":"st_cvj6r9ubvosntc0bgbag","pricing_plan_id":"cebpf4jnsgd1na2vs0mg"},{"bike_id":"034fbb94-ca63-4ae1-953a-290f27388b11","system_id":"levelo_inurba_marseille","lat":43.29911,"lon":5.37475,"is_reserved":false,"is_disabled":false,"rental_uris":{"android":"levelo://app?vid=034fbb94-ca63-4ae1-953a-290f27388b11","ios":"levelo://app?vid=034fbb94-ca63-4ae1-953a-290f27388b11"},"vehicle_type_id":"4","last_reported":1760987337,"current_range_meters":6400,"station_id":"ce4bgjh2rcd13ifvqbg0","pricing_plan_id":"cebpf4jnsgd1na2vs0mg"},{"bike_id":"634b1cc2-9ee2-4f45-9c1b-7a6cd0bdc0f4","system_id":"levelo_inurba_marseille","lat":43.245468,"lon":5.395205,"is_reserved":false,"is_disabled":false,"rental_uris":{"android":"levelo://app?vid=634b1cc2-9ee2-4f45-9c1b-7a6cd0bdc0f4","ios":"levelo://app?vid=634b1cc2-9ee2-4f45-9c1b-7a6cd0bdc0f4"},"vehicle_type_id":"4","last_reported":1760987337,"current_range_meters":6400,"station_id":"ce4bhlp2rcd13ifvqgjg","pricing_plan_id":"cebpf4jnsgd1na2vs0mg"},{"bike_id":"0fe5f988-499b-40e5-a930-cd6431a1b2ca","system_id":"levelo_inurba_marseille","lat":43.283448,"lon":5.398193,"is_reserved":false,"is_disabled":false,"rental_uris":{"android":"levelo://app?vid=0fe5f988-499b-40e5-a930-cd6431a1b2ca","ios":"levelo://app?vid=0fe5f988-499b-40e5-a930-cd6431a1b2ca"},"vehicle_type_id":"4","last_reported":1760987337,"current_range_meters":6400,"station_id":"","pricing_plan_id":"cebpf4jnsgd1na2vs0mg"},{"bike_id":"1fd8a0b1-1876-42c1-99d8-b14ce793589f","system_id":"levelo_inurba_marseille","lat":43.28933,"lon":5.39626,"is_reserved":false,"is_disabled":false,"rental_uris":{"android":"levelo://app?vid=1fd8a0b1-1876-42c1-99d8-b14ce793589f","ios":"levelo://app?vid=1fd8a0b1-1876-42c1-99d8-b14ce793589f"},"vehicle_type_id":"4","last_reported":1760987337,"current_range_meters":6400,"station_id":"ce4bh3h2rcd13ifvqdn0","pricing_plan_id":"cebpf4jnsgd1na2vs0mg"},{"bike_id":"b9f4c452-f1a0-4b31-854c-2325a5b73556","system_id":"levelo_inurba_marseille","lat":43.21464,"lon":5.34319,"is_reserved":false,"is_disabled":false,"rental_uris":{"android":"levelo://app?vid=b9f4c452-f1a0-4b31-854c-2325a5b73556","ios":"levelo://app?vid=b9f4c452-f1a0-4b31-854c-2325a5b73556"},"vehicle_type_id":"4","last_reported":1760987337,"current_range_meters":6400,"station_id":"","pricing_plan_id":"cebpf4jnsgd1na2vs0mg"},{"bike_id":"49b9bfee-0058-428f-851b-c317f7fd50a9","system_id":"levelo_inurba_marseille","lat":43.24808,"lon":5.37454,"is_reserved":false,"is_disabled":false,"rental_uris":{"android":"levelo://app?vid=49b9bfee-0058-428f-851b-c317f7fd50a9","ios":"levelo://app?vid=49b9bfee-0058-428f-851b-c317f7fd50a9"},"vehicle_type_id":"4","last_reported":1760987337,"current_range_meters":6800,"station_id":"ce4bhgh2rcd13ifvqfb0","pricing_plan_id":"cebpf4jnsgd1na2vs0mg"},{"bike_id":"57ee3bcc-0a2f-48e0-802f-172b4a52e6f4","system_id":"levelo_inurba_marseille","lat":43.29532,"lon":5.3854,"is_reserved":false,"is_disabled":false,"rental_uris":{"android":"levelo://app?vid=57ee3bcc-0a2f-48e0-802f-172b4a52e6f4","ios":"levelo://app?vid=57ee3bcc-0a2f-48e0-802f-172b4a52e6f4"},"vehicle_type_id":"4","last_reported":1760987337,"current_range_meters":6800,"station_id":"ce4bgih2rcd13ifvqba0","pricing_plan_id":"cebpf4jnsgd1na2vs0mg"},{"bike_id":"c3110eb6-c949-42bd-8854-0c286606b112","system_id":"levelo_inurba_marseille","lat":43.28851,"lon":5.39301,"is_reserved":false,"is_disabled":false,"rental_uris":{"android":"levelo://app?vid=c3110eb6-c949-42bd-8854-0c286606b112","ios":"levelo://app?vid=c3110eb6-c949-42bd-8854-0c286606b112"},"vehicle_type_id":"4","last_reported":1760987337,"current_range_meters":6800,"station_id":"ce4bh2p2rcd13ifvqdi0","pricing_plan_id":"cebpf4jnsgd1na2vs0mg"},{"bike_id":"bb4f3402-dc5e-445a-bd66-3836c615fa81","system_id":"levelo_inurba_marseille","lat":43.26497,"lon":5.39545,"is_reserved":false,"is_disabled":false,"rental_uris":{"android":"levelo://app?vid=bb4f3402-dc5e-445a-bd66-3836c615fa81","ios":"levelo://app?vid=bb4f3402-dc5e-445a-bd66-3836c615fa81"},"vehicle_type_id":"4","last_reported":1760987337,"current_range_meters":6800,"station_id":"ce4bhi12rcd13ifvqfq0","pricing_plan_id":"cebpf4jnsgd1na2vs0mg"},{"bike_id":"f08ce4d4-6b61-4dc2-aeb3-647e5900e7fb","system_id":"levelo_inurba_marseille","lat":43.24675,"lon":5.38163,"is_reserved":false,"is_disabled":false,"rental_uris":{"android":"levelo://app?vid=f08ce4d4-6b61-4dc2-aeb3-647e5900e7fb","ios":"levelo://app?vid=f08ce4d4-6b61-4dc2-aeb3-647e5900e7fb"},"vehicle_type_id":"4","last_reported":1760987337,"current_range_meters":6800,"station_id":"ce4bhih2rcd13ifvqfr0","pricing_plan_id":"cebpf4jnsgd1na2vs0mg"},{"bike_id":"f5466da9-1b56-4d48-b1dd-381004aa498b","system_id":"levelo_inurba_marseille","lat":43.265672,"lon":5.389997,"is_reserved":false,"is_disabled":false,"rental_uris":{"android":"levelo://app?vid=f5466da9-1b56-4d48-b1dd-381004aa498b","ios":"levelo://app?vid=f5466da9-1b56-4d48-b1dd-381004aa498b"},"vehicle_type_id":"4","last_reported":1760987337,"current_range_meters":6800,"station_id":"ce4bhe12rcd13ifvqf30","pricing_plan_id":"cebpf4jnsgd1na2vs0mg"},{"bike_id":"9dd1d8fe-c2a8-4a70-a175-61f5f9fe7fd2","system_id":"levelo_inurba_marseille","lat":43.315501,"lon":5.390252,"is_reserved":false,"is_disabled":false,"rental_uris":{"android":"levelo://app?vid=9dd1d8fe-c2a8-4a70-a175-61f5f9fe7fd2","ios":"levelo://app?vid=9dd1d8fe-c2a8-4a70-a175-61f5f9fe7fd2"},"vehicle_type_id":"4","last_reported":1760987337,"current_range_meters":7200,"station_id":"","pricing_plan_id":"cebpf4jnsgd1na2vs0mg"},{"bike_id":"8cd818e3-a9e2-4f48-92b2-26306f507696","system_id":"levelo_inurba_marseille","lat":43.31349,"lon":5.37913,"is_reserved":false,"is_disabled":false,"rental_uris":{"android":"levelo://app?vid=8cd818e3-a9e2-4f48-92b2-26306f507696","ios":"levelo://app?vid=8cd818e3-a9e2-4f48-92b2-26306f507696"},"vehicle_type_id":"4","last_reported":1760987337,"current_range_meters":7200,"station_id":"","pricing_plan_id":"cebpf4jnsgd1na2vs0mg"},{"bike_id":"75fe3c2c-92f1-4d8e-8330-4d49ac28cdfd","system_id":"levelo_inurba_marseille","lat":43.24553,"lon":5.39534,"is_reserved":false,"is_disabled":false,"rental_uris":{"android":"levelo://app?vid=75fe3c2c-92f1-4d8e-8330-4d49ac28cdfd","ios":"levelo://app?vid=75fe3c2c-92f1-4d8e-8330-4d49ac28cdfd"},"vehicle_type_id":"4","last_reported":1760987337,"current_range_meters":7200,"station_id":"ce4bhlp2rcd13ifvqgjg","pricing_plan_id":"cebpf4jnsgd1na2vs0mg"},{"bike_id":"88be6551-626c-458d-afa7-44432675e27a","system_id":"levelo_inurba_marseille","lat":43.2558,"lon":5.38241,"is_reserved":false,"is_disabled":false,"rental_uris":{"android":"levelo://app?vid=88be6551-626c-458d-afa7-44432675e27a","ios":"levelo://app?vid=88be6551-626c-458d-afa7-44432675e27a"},"vehicle_type_id":"4","last_reported":1760987337,"current_range_meters":8000,"station_id":"ce4bhih2rcd13ifvqfs0","pricing_plan_id":"cebpf4jnsgd1na2vs0mg"},{"bike_id":"6413d188-fb6a-4f99-86b0-f386a40239c9","system_id":"levelo_inurba_marseille","lat":43.28226,"lon":5.39078,"is_reserved":false,"is_disabled":false,"rental_uris":{"android":"levelo://app?vid=6413d188-fb6a-4f99-86b0-f386a40239c9","ios":"levelo://app?vid=6413d188-fb6a-4f99-86b0-f386a40239c9"},"vehicle_type_id":"4","last_reported":1760987337,"current_range_meters":8000,"station_id":"ce4bhn92rcd13ifvqgsg","pricing_plan_id":"cebpf4jnsgd1na2vs0mg"},{"bike_id":"0a950a0d-01ce-40b2-be0e-ad7894fd72f2","system_id":"levelo_inurba_marseille","lat":43.3207,"lon":5.36775,"is_reserved":false,"is_disabled":true,"rental_uris":{"android":"levelo://app?vid=0a950a0d-01ce-40b2-be0e-ad7894fd72f2","ios":"levelo://app?vid=0a950a0d-01ce-40b2-be0e-ad7894fd72f2"},"vehicle_type_id":"4","last_reported":1760987337,"current_range_meters":8000,"station_id":"ce4bhrh2rcd13ifvqhug","pricing_plan_id":"cebpf4jnsgd1na2vs0mg"},{"bike_id":"86ce52f8-f590-4694-90e1-216ddc477b29","system_id":"levelo_inurba_marseille","lat":43.30968,"lon":5.3812,"is_reserved":false,"is_disabled":false,"rental_uris":{"android":"levelo://app?vid=86ce52f8-f590-4694-90e1-216ddc477b29","ios":"levelo://app?vid=86ce52f8-f590-4694-90e1-216ddc477b29"},"vehicle_type_id":"4","last_reported":1760987337,"current_range_meters":8000,"station_id":"","pricing_plan_id":"cebpf4jnsgd1na2vs0mg"},{"bike_id":"2bbea2ae-db23-4efb-bdd8-574197db4826","system_id":"levelo_inurba_marseille","lat":43.30139,"lon":5.39852,"is_reserved":false,"is_disabled":false,"rental_uris":{"android":"levelo://app?vid=2bbea2ae-db23-4efb-bdd8-574197db4826","ios":"levelo://app?vid=2bbea2ae-db23-4efb-bdd8-574197db4826"},"vehicle_type_id":"4","last_reported":1760987337,"current_range_meters":8000,"station_id":"ce4bh0h2rcd13ifvqd40","pricing_plan_id":"cebpf4jnsgd1na2vs0mg"},{"bike_id":"63af7f75-ae37-4bd3-9613-127db36eb0c3","system_id":"levelo_inurba_marseille","lat":43.28864,"lon":5.42523,"is_reserved":false,"is_disabled":false,"rental_uris":{"android":"levelo://app?vid=63af7f75-ae37-4bd3-9613-127db36eb0c3","ios":"levelo://app?vid=63af7f75-ae37-4bd3-9613-127db36eb0c3"},"vehicle_type_id":"4","last_reported":1760987337,"current_range_meters":8000,"station_id":"st_d3b462108ojc7389ooeg","pricing_plan_id":"cebpf4jnsgd1na2vs0mg"},{"bike_id":"7ee1207e-6eef-4cca-98b0-903997d04c67","system_id":"levelo_inurba_marseille","lat":43.246872,"lon":5.3892,"is_reserved":false,"is_disabled":false,"rental_uris":{"android":"levelo://app?vid=7ee1207e-6eef-4cca-98b0-903997d04c67","ios":"levelo://app?vid=7ee1207e-6eef-4cca-98b0-903997d04c67"},"vehicle_type_id":"4","last_reported":1760987337,"current_range_meters":8000,"station_id":"ce4bhg12rcd13ifvqf60","pricing_plan_id":"cebpf4jnsgd1na2vs0mg"},{"bike_id":"2c59cc86-a348-4735-8f6f-75bf0e4aac2c","system_id":"levelo_inurba_marseille","lat":43.33148,"lon":5.39064,"is_reserved":false,"is_disabled":false,"rental_uris":{"android":"levelo://app?vid=2c59cc86-a348-4735-8f6f-75bf0e4aac2c","ios":"levelo://app?vid=2c59cc86-a348-4735-8f6f-75bf0e4aac2c"},"vehicle_type_id":"4","last_reported":1760987337,"current_range_meters":8000,"station_id":"","pricing_plan_id":"cebpf4jnsgd1na2vs0mg"},{"bike_id":"676d88a8-f06e-4192-886d-e52926318b91","system_id":"levelo_inurba_marseille","lat":43.211987,"lon":5.350736,"is_reserved":false,"is_disabled":false,"rental_uris":{"android":"levelo://app?vid=676d88a8-f06e-4192-886d-e52926318b91","ios":"levelo://app?vid=676d88a8-f06e-4192-886d-e52926318b91"},"vehicle_type_id":"4","last_reported":1760987337,"current_range_meters":8400,"station_id":"st_cvj6sg6p6f1abm77japg","pricing_plan_id":"cebpf4jnsgd1na2vs0mg"},{"bike_id":"7fd36eea-805d-4dce-89b5-46f277eaf158","system_id":"levelo_inurba_marseille","lat":43.305097,"lon":5.366695,"is_reserved":false,"is_disabled":false,"rental_uris":{"android":"levelo://app?vid=7fd36eea-805d-4dce-89b5-46f277eaf158","ios":"levelo://app?vid=7fd36eea-805d-4dce-89b5-46f277eaf158"},"vehicle_type_id":"4","last_reported":1760987337,"current_range_meters":8400,"station_id":"","pricing_plan_id":"cebpf4jnsgd1na2vs0mg"},{"bike_id":"679c3c1f-72e8-4456-b0d9-4c2ad9c70dd9","system_id":"levelo_inurba_marseille","lat":43.21314,"lon":5.34987,"is_reserved":false,"is_disabled":false,"rental_uris":{"android":"levelo://app?vid=679c3c1f-72e8-4456-b0d9-4c2ad9c70dd9","ios":"levelo://app?vid=679c3c1f-72e8-4456-b0d9-4c2ad9c70dd9"},"vehicle_type_id":"4","last_reported":1760987337,"current_range_meters":8400,"station_id":"","pricing_plan_id":"cebpf4jnsgd1na2vs0mg"},{"bike_id":"af35879d-4b9c-47a6-b266-ac0c1d9e1da6","system_id":"levelo_inurba_marseille","lat":43.24746,"lon":5.40063,"is_reserved":false,"is_disabled":false,"rental_uris":{"android":"levelo://app?vid=af35879d-4b9c-47a6-b266-ac0c1d9e1da6","ios":"levelo://app?vid=af35879d-4b9c-47a6-b266-ac0c1d9e1da6"},"vehicle_type_id":"4","last_reported":1760987337,"current_range_meters":8400,"station_id":"","pricing_plan_id":"cebpf4jnsgd1na2vs0mg"},{"bike_id":"47cd5fdf-8db3-4993-8f46-2de3dce8da6b","system_id":"levelo_inurba_marseille","lat":43.29545,"lon":5.38533,"is_reserved":false,"is_disabled":false,"rental_uris":{"android":"levelo://app?vid=47cd5fdf-8db3-4993-8f46-2de3dce8da6b","ios":"levelo://app?vid=47cd5fdf-8db3-4993-8f46-2de3dce8da6b"},"vehicle_type_id":"4","last_reported":1760987337,"current_range_meters":8400,"station_id":"ce4bgih2rcd13ifvqba0","pricing_plan_id":"cebpf4jnsgd1na2vs0mg"},{"bike_id":"b6c96865-3542-4e09-a1b0-283e97502d96","system_id":"levelo_inurba_marseille","lat":43.293039,"lon":5.374623,"is_reserved":false,"is_disabled":false,"rental_uris":{"android":"levelo://app?vid=b6c96865-3542-4e09-a1b0-283e97502d96","ios":"levelo://app?vid=b6c96865-3542-4e09-a1b0-283e97502d96"},"vehicle_type_id":"4","last_reported":1760987337,"current_range_meters":8400,"station_id":"ce4bgh92rcd13ifvqb50","pricing_plan_id":"cebpf4jnsgd1na2vs0mg"},{"bike_id":"2f76a027-a317-4fc7-bb85-0458b02c7e3e","system_id":"levelo_inurba_marseille","lat":43.28925,"lon":5.38385,"is_reserved":false,"is_disabled":false,"rental_uris":{"android":"levelo://app?vid=2f76a027-a317-4fc7-bb85-0458b02c7e3e","ios":"levelo://app?vid=2f76a027-a317-4fc7-bb85-0458b02c7e3e"},"vehicle_type_id":"4","last_reported":1760987337,"current_range_meters":8400,"station_id":"ce4bh612rcd13ifvqe6g","pricing_plan_id":"cebpf4jnsgd1na2vs0mg"},{"bike_id":"06763d6d-60fd-4139-ac5a-e925ed6df649","system_id":"levelo_inurba_marseille","lat":43.23777,"lon":5.3663,"is_reserved":false,"is_disabled":false,"rental_uris":{"android":"levelo://app?vid=06763d6d-60fd-4139-ac5a-e925ed6df649","ios":"levelo://app?vid=06763d6d-60fd-4139-ac5a-e925ed6df649"},"vehicle_type_id":"4","last_reported":1760987337,"current_range_meters":8800,"station_id":"st_d3nk18o9ro0c73en2l3g","pricing_plan_id":"cebpf4jnsgd1na2vs0mg"},{"bike_id":"7a8ac50b-c3a4-490a-8f96-9c005f89ed5d","system_id":"levelo_inurba_marseille","lat":43.26521,"lon":5.39049,"is_reserved":false,"is_disabled":false,"rental_uris":{"android":"levelo://app?vid=7a8ac50b-c3a4-490a-8f96-9c005f89ed5d","ios":"levelo://app?vid=7a8ac50b-c3a4-490a-8f96-9c005f89ed5d"},"vehicle_type_id":"4","last_reported":1760987337,"current_range_meters":8800,"station_id":"","pricing_plan_id":"cebpf4jnsgd1na2vs0mg"},{"bike_id":"e015a312-f4e2-4fa5-962c-4dc7593461dd","system_id":"levelo_inurba_marseille","lat":43.27377,"lon":5.36251,"is_reserved":false,"is_disabled":false,"rental_uris":{"android":"levelo://app?vid=e015a312-f4e2-4fa5-962c-4dc7593461dd","ios":"levelo://app?vid=e015a312-f4e2-4fa5-962c-4dc7593461dd"},"vehicle_type_id":"4","last_reported":1760987337,"current_range_meters":8800,"station_id":"","pricing_plan_id":"cebpf4jnsgd1na2vs0mg"},{"bike_id":"e03a1f0a-1b40-4314-b623-8ce4575c53bf","system_id":"levelo_inurba_marseille","lat":43.29185,"lon":5.39326,"is_reserved":false,"is_disabled":false,"rental_uris":{"android":"levelo://app?vid=e03a1f0a-1b40-4314-b623-8ce4575c53bf","ios":"levelo://app?vid=e03a1f0a-1b40-4314-b623-8ce4575c53bf"},"vehicle_type_id":"4","last_reported":1760987337,"current_range_meters":8800,"station_id":"ce4bh192rcd13ifvqdd0","pricing_plan_id":"cebpf4jnsgd1na2vs0mg"},{"bike_id":"1bbe26d8-8684-4cca-a360-e578db77edb2","system_id":"levelo_inurba_marseille","lat":43.27835,"lon":5.40704,"is_reserved":false,"is_disabled":false,"rental_uris":{"android":"levelo://app?vid=1bbe26d8-8684-4cca-a360-e578db77edb2","ios":"levelo://app?vid=1bbe26d8-8684-4cca-a360-e578db77edb2"},"vehicle_type_id":"4","last_reported":1760987337,"current_range_meters":8800,"station_id":"ce4bhnh2rcd13ifvqgtg","pricing_plan_id":"cebpf4jnsgd1na2vs0mg"},{"bike_id":"8f9bf87c-d002-4c92-b22a-9a73f817682c","system_id":"levelo_inurba_marseille","lat":43.25106,"lon":5.39582,"is_reserved":false,"is_disabled":false,"rental_uris":{"android":"levelo://app?vid=8f9bf87c-d002-4c92-b22a-9a73f817682c","ios":"levelo://app?vid=8f9bf87c-d002-4c92-b22a-9a73f817682c"},"vehicle_type_id":"4","last_reported":1760987337,"current_range_meters":8800,"station_id":"ce4bhm12rcd13ifvqgkg","pricing_plan_id":"cebpf4jnsgd1na2vs0mg"},{"bike_id":"900966fe-8fc5-48de-9a46-815d81133245","system_id":"levelo_inurba_marseille","lat":43.30184,"lon":5.36622,"is_reserved":false,"is_disabled":false,"rental_uris":{"android":"levelo://app?vid=900966fe-8fc5-48de-9a46-815d81133245","ios":"levelo://app?vid=900966fe-8fc5-48de-9a46-815d81133245"},"vehicle_type_id":"4","last_reported":1760987337,"current_range_meters":8800,"station_id":"ce4bgrh2rcd13ifvqc8g","pricing_plan_id":"cebpf4jnsgd1na2vs0mg"},{"bike_id":"45514b45-96aa-42bc-9794-7fcf36f41ec5","system_id":"levelo_inurba_marseille","lat":43.278106,"lon":5.407144,"is_reserved":false,"is_disabled":false,"rental_uris":{"android":"levelo://app?vid=45514b45-96aa-42bc-9794-7fcf36f41ec5","ios":"levelo://app?vid=45514b45-96aa-42bc-9794-7fcf36f41ec5"},"vehicle_type_id":"4","last_reported":1760987337,"current_range_meters":8800,"station_id":"ce4bhnh2rcd13ifvqgtg","pricing_plan_id":"cebpf4jnsgd1na2vs0mg"},{"bike_id":"0f787efd-37ca-4060-a03d-15d3c3ce389f","system_id":"levelo_inurba_marseille","lat":43.30025,"lon":5.37344,"is_reserved":false,"is_disabled":false,"rental_uris":{"android":"levelo://app?vid=0f787efd-37ca-4060-a03d-15d3c3ce389f","ios":"levelo://app?vid=0f787efd-37ca-4060-a03d-15d3c3ce389f"},"vehicle_type_id":"4","last_reported":1760987337,"current_range_meters":8800,"station_id":"","pricing_plan_id":"cebpf4jnsgd1na2vs0mg"},{"bike_id":"245a030c-0c43-41f8-a4cc-088d55252b06","system_id":"levelo_inurba_marseille","lat":43.24475,"lon":5.36927,"is_reserved":false,"is_disabled":false,"rental_uris":{"android":"levelo://app?vid=245a030c-0c43-41f8-a4cc-088d55252b06","ios":"levelo://app?vid=245a030c-0c43-41f8-a4cc-088d55252b06"},"vehicle_type_id":"4","last_reported":1760987337,"current_range_meters":9200,"station_id":"","pricing_plan_id":"cebpf4jnsgd1na2vs0mg"},{"bike_id":"4bbd6801-e86f-4670-a08c-5a08e1dabb92","system_id":"levelo_inurba_marseille","lat":43.29219,"lon":5.38082,"is_reserved":false,"is_disabled":false,"rental_uris":{"android":"levelo://app?vid=4bbd6801-e86f-4670-a08c-5a08e1dabb92","ios":"levelo://app?vid=4bbd6801-e86f-4670-a08c-5a08e1dabb92"},"vehicle_type_id":"4","last_reported":1760987337,"current_range_meters":9200,"station_id":"","pricing_plan_id":"cebpf4jnsgd1na2vs0mg"},{"bike_id":"9652283e-21f4-4490-ac9e-ffa9429f0005","system_id":"levelo_inurba_marseille","lat":43.29061,"lon":5.40494,"is_reserved":false,"is_disabled":false,"rental_uris":{"android":"levelo://app?vid=9652283e-21f4-4490-ac9e-ffa9429f0005","ios":"levelo://app?vid=9652283e-21f4-4490-ac9e-ffa9429f0005"},"vehicle_type_id":"4","last_reported":1760987337,"current_range_meters":9200,"station_id":"","pricing_plan_id":"cebpf4jnsgd1na2vs0mg"},{"bike_id":"e7461d30-e397-4db3-9ae6-773f70dcb2e1","system_id":"levelo_inurba_marseille","lat":43.29583,"lon":5.38107,"is_reserved":false,"is_disabled":false,"rental_uris":{"android":"levelo://app?vid=e7461d30-e397-4db3-9ae6-773f70dcb2e1","ios":"levelo://app?vid=e7461d30-e397-4db3-9ae6-773f70dcb2e1"},"vehicle_type_id":"4","last_reported":1760987337,"current_range_meters":9200,"station_id":"ce4bgl12rcd13ifvqbo0","pricing_plan_id":"cebpf4jnsgd1na2vs0mg"},{"bike_id":"a7f997d3-a4f9-4f30-bdce-2ddde27a7b05","system_id":"levelo_inurba_marseille","lat":43.28166,"lon":5.37693,"is_reserved":false,"is_disabled":false,"rental_uris":{"android":"levelo://app?vid=a7f997d3-a4f9-4f30-bdce-2ddde27a7b05","ios":"levelo://app?vid=a7f997d3-a4f9-4f30-bdce-2ddde27a7b05"},"vehicle_type_id":"4","last_reported":1760987337,"current_range_meters":9200,"station_id":"","pricing_plan_id":"cebpf4jnsgd1na2vs0mg"},{"bike_id":"a3523f1c-b504-4b98-8a56-465d595bbf98","system_id":"levelo_inurba_marseille","lat":43.29601,"lon":5.38103,"is_reserved":false,"is_disabled":false,"rental_uris":{"android":"levelo://app?vid=a3523f1c-b504-4b98-8a56-465d595bbf98","ios":"levelo://app?vid=a3523f1c-b504-4b98-8a56-465d595bbf98"},"vehicle_type_id":"4","last_reported":1760987337,"current_range_meters":9200,"station_id":"ce4bgl12rcd13ifvqbo0","pricing_plan_id":"cebpf4jnsgd1na2vs0mg"},{"bike_id":"226d8ad2-b1af-40bd-9c83-c98e95e888e3","system_id":"levelo_inurba_marseille","lat":43.284862,"lon":5.390844,"is_reserved":false,"is_disabled":false,"rental_uris":{"android":"levelo://app?vid=226d8ad2-b1af-40bd-9c83-c98e95e888e3","ios":"levelo://app?vid=226d8ad2-b1af-40bd-9c83-c98e95e888e3"},"vehicle_type_id":"4","last_reported":1760987337,"current_range_meters":9200,"station_id":"ce4bhoh2rcd13ifvqh5g","pricing_plan_id":"cebpf4jnsgd1na2vs0mg"},{"bike_id":"2d3f4f4c-b18e-44e1-9a10-49c64cdf49d7","system_id":"levelo_inurba_marseille","lat":43.28706,"lon":5.37928,"is_reserved":false,"is_disabled":false,"rental_uris":{"android":"levelo://app?vid=2d3f4f4c-b18e-44e1-9a10-49c64cdf49d7","ios":"levelo://app?vid=2d3f4f4c-b18e-44e1-9a10-49c64cdf49d7"},"vehicle_type_id":"4","last_reported":1760987337,"current_range_meters":9200,"station_id":"ce4bh9p2rcd13ifvqec0","pricing_plan_id":"cebpf4jnsgd1na2vs0mg"},{"bike_id":"246c1afc-dd8d-4b2e-a7b4-c9bd56433639","system_id":"levelo_inurba_marseille","lat":43.29036,"lon":5.38648,"is_reserved":false,"is_disabled":false,"rental_uris":{"android":"levelo://app?vid=246c1afc-dd8d-4b2e-a7b4-c9bd56433639","ios":"levelo://app?vid=246c1afc-dd8d-4b2e-a7b4-c9bd56433639"},"vehicle_type_id":"4","last_reported":1760987337,"current_range_meters":9600,"station_id":"ce4bh4p2rcd13ifvqe0g","pricing_plan_id":"cebpf4jnsgd1na2vs0mg"},{"bike_id":"c19289aa-c358-437c-b7b2-ed4e4efe66f9","system_id":"levelo_inurba_marseille","lat":43.30072,"lon":5.38689,"is_reserved":false,"is_disabled":false,"rental_uris":{"android":"levelo://app?vid=c19289aa-c358-437c-b7b2-ed4e4efe66f9","ios":"levelo://app?vid=c19289aa-c358-437c-b7b2-ed4e4efe66f9"},"vehicle_type_id":"4","last_reported":1760987337,"current_range_meters":9600,"station_id":"","pricing_plan_id":"cebpf4jnsgd1na2vs0mg"},{"bike_id":"4ba5b914-1809-481a-8c9c-15233dc9fe26","system_id":"levelo_inurba_marseille","lat":43.29028,"lon":5.38643,"is_reserved":false,"is_disabled":false,"rental_uris":{"android":"levelo://app?vid=4ba5b914-1809-481a-8c9c-15233dc9fe26","ios":"levelo://app?vid=4ba5b914-1809-481a-8c9c-15233dc9fe26"},"vehicle_type_id":"4","last_reported":1760987337,"current_range_meters":9600,"station_id":"ce4bh4p2rcd13ifvqe0g","pricing_plan_id":"cebpf4jnsgd1na2vs0mg"},{"bike_id":"2a1423ee-4967-4331-8ca0-01782d5085c5","system_id":"levelo_inurba_marseille","lat":43.24072,"lon":5.37762,"is_reserved":false,"is_disabled":false,"rental_uris":{"android":"levelo://app?vid=2a1423ee-4967-4331-8ca0-01782d5085c5","ios":"levelo://app?vid=2a1423ee-4967-4331-8ca0-01782d5085c5"},"vehicle_type_id":"4","last_reported":1760987337,"current_range_meters":9600,"station_id":"ce4bhnp2rcd13ifvqgvg","pricing_plan_id":"cebpf4jnsgd1na2vs0mg"},{"bike_id":"9d6ffc22-83bf-4103-bbc2-4cc19efe231b","system_id":"levelo_inurba_marseille","lat":43.279996,"lon":5.416641,"is_reserved":false,"is_disabled":false,"rental_uris":{"android":"levelo://app?vid=9d6ffc22-83bf-4103-bbc2-4cc19efe231b","ios":"levelo://app?vid=9d6ffc22-83bf-4103-bbc2-4cc19efe231b"},"vehicle_type_id":"4","last_reported":1760987337,"current_range_meters":9600,"station_id":"ce4bho12rcd13ifvqh1g","pricing_plan_id":"cebpf4jnsgd1na2vs0mg"},{"bike_id":"59aed43f-13a8-4014-b2c4-38bf40a4080c","system_id":"levelo_inurba_marseille","lat":43.26809,"lon":5.40265,"is_reserved":false,"is_disabled":true,"rental_uris":{"android":"levelo://app?vid=59aed43f-13a8-4014-b2c4-38bf40a4080c","ios":"levelo://app?vid=59aed43f-13a8-4014-b2c4-38bf40a4080c"},"vehicle_type_id":"4","last_reported":1760987337,"current_range_meters":10000,"station_id":"ce501612rcd8frsf0b60","pricing_plan_id":"cebpf4jnsgd1na2vs0mg"},{"bike_id":"b795dcee-745f-4569-9cc0-ecc3631ffb10","system_id":"levelo_inurba_marseille","lat":43.3015,"lon":5.37232,"is_reserved":false,"is_disabled":false,"rental_uris":{"android":"levelo://app?vid=b795dcee-745f-4569-9cc0-ecc3631ffb10","ios":"levelo://app?vid=b795dcee-745f-4569-9cc0-ecc3631ffb10"},"vehicle_type_id":"4","last_reported":1760987337,"current_range_meters":10000,"station_id":"","pricing_plan_id":"cebpf4jnsgd1na2vs0mg"},{"bike_id":"b64f5a90-0c5f-4ae5-b1e4-8d412cb049d3","system_id":"levelo_inurba_marseille","lat":43.273566,"lon":5.415072,"is_reserved":false,"is_disabled":false,"rental_uris":{"android":"levelo://app?vid=b64f5a90-0c5f-4ae5-b1e4-8d412cb049d3","ios":"levelo://app?vid=b64f5a90-0c5f-4ae5-b1e4-8d412cb049d3"},"vehicle_type_id":"4","last_reported":1760987337,"current_range_meters":10000,"station_id":"","pricing_plan_id":"cebpf4jnsgd1na2vs0mg"},{"bike_id":"3bfe7250-8d79-4f02-905c-485ecfd76c82","system_id":"levelo_inurba_marseille","lat":43.27827,"lon":5.39205,"is_reserved":false,"is_disabled":false,"rental_uris":{"android":"levelo://app?vid=3bfe7250-8d79-4f02-905c-485ecfd76c82","ios":"levelo://app?vid=3bfe7250-8d79-4f02-905c-485ecfd76c82"},"vehicle_type_id":"4","last_reported":1760987337,"current_range_meters":10000,"station_id":"ce4bhjp2rcd13ifvqga0","pricing_plan_id":"cebpf4jnsgd1na2vs0mg"},{"bike_id":"8f5b4e3f-d0c8-438b-955e-3fd6c08bc9d3","system_id":"levelo_inurba_marseille","lat":43.24159,"lon":5.36402,"is_reserved":false,"is_disabled":false,"rental_uris":{"android":"levelo://app?vid=8f5b4e3f-d0c8-438b-955e-3fd6c08bc9d3","ios":"levelo://app?vid=8f5b4e3f-d0c8-438b-955e-3fd6c08bc9d3"},"vehicle_type_id":"4","last_reported":1760987337,"current_range_meters":10000,"station_id":"cpo36qri1sfpv3e86is0","pricing_plan_id":"cebpf4jnsgd1na2vs0mg"},{"bike_id":"e4bc47b9-1bcc-454b-8e8f-6aca87bbce9a","system_id":"levelo_inurba_marseille","lat":43.29966,"lon":5.38495,"is_reserved":false,"is_disabled":false,"rental_uris":{"android":"levelo://app?vid=e4bc47b9-1bcc-454b-8e8f-6aca87bbce9a","ios":"levelo://app?vid=e4bc47b9-1bcc-454b-8e8f-6aca87bbce9a"},"vehicle_type_id":"4","last_reported":1760987337,"current_range_meters":10000,"station_id":"ce4bgj92rcd13ifvqbd0","pricing_plan_id":"cebpf4jnsgd1na2vs0mg"},{"bike_id":"1b7fbba9-edc4-4526-ad57-b6fe3ba4bf93","system_id":"levelo_inurba_marseille","lat":43.21754,"lon":5.34595,"is_reserved":false,"is_disabled":false,"rental_uris":{"android":"levelo://app?vid=1b7fbba9-edc4-4526-ad57-b6fe3ba4bf93","ios":"levelo://app?vid=1b7fbba9-edc4-4526-ad57-b6fe3ba4bf93"},"vehicle_type_id":"4","last_reported":1760987337,"current_range_meters":10000,"station_id":"st_cvj6r9ubvosntc0bgbag","pricing_plan_id":"cebpf4jnsgd1na2vs0mg"},{"bike_id":"e5d8558e-18e8-468d-8aae-b3eec4dcaf7e","system_id":"levelo_inurba_marseille","lat":43.25119,"lon":5.40319,"is_reserved":false,"is_disabled":false,"rental_uris":{"android":"levelo://app?vid=e5d8558e-18e8-468d-8aae-b3eec4dcaf7e","ios":"levelo://app?vid=e5d8558e-18e8-468d-8aae-b3eec4dcaf7e"},"vehicle_type_id":"4","last_reported":1760987337,"current_range_meters":10000,"station_id":"ce4bhlh2rcd13ifvqgig","pricing_plan_id":"cebpf4jnsgd1na2vs0mg"},{"bike_id":"793bd619-12af-4bc1-a674-b70d86b415bd","system_id":"levelo_inurba_marseille","lat":43.3315,"lon":5.39138,"is_reserved":false,"is_disabled":false,"rental_uris":{"android":"levelo://app?vid=793bd619-12af-4bc1-a674-b70d86b415bd","ios":"levelo://app?vid=793bd619-12af-4bc1-a674-b70d86b415bd"},"vehicle_type_id":"4","last_reported":1760987337,"current_range_meters":10000,"station_id":"","pricing_plan_id":"cebpf4jnsgd1na2vs0mg"},{"bike_id":"da22a6bb-ece8-4168-87fa-39fdca8adc0a","system_id":"levelo_inurba_marseille","lat":43.248064,"lon":5.374574,"is_reserved":false,"is_disabled":false,"rental_uris":{"android":"levelo://app?vid=da22a6bb-ece8-4168-87fa-39fdca8adc0a","ios":"levelo://app?vid=da22a6bb-ece8-4168-87fa-39fdca8adc0a"},"vehicle_type_id":"4","last_reported":1760987337,"current_range_meters":10000,"station_id":"ce4bhgh2rcd13ifvqfb0","pricing_plan_id":"cebpf4jnsgd1na2vs0mg"},{"bike_id":"441b23e6-0664-4956-9526-02e94720e317","system_id":"levelo_inurba_marseille","lat":43.28443,"lon":5.35887,"is_reserved":false,"is_disabled":false,"rental_uris":{"android":"levelo://app?vid=441b23e6-0664-4956-9526-02e94720e317","ios":"levelo://app?vid=441b23e6-0664-4956-9526-02e94720e317"},"vehicle_type_id":"4","last_reported":1760987337,"current_range_meters":10800,"station_id":"ce4bhah2rcd13ifvqei0","pricing_plan_id":"cebpf4jnsgd1na2vs0mg"},{"bike_id":"78fe83c7-5376-41e5-afa1-483e220954a6","system_id":"levelo_inurba_marseille","lat":43.2917,"lon":5.37083,"is_reserved":false,"is_disabled":false,"rental_uris":{"android":"levelo://app?vid=78fe83c7-5376-41e5-afa1-483e220954a6","ios":"levelo://app?vid=78fe83c7-5376-41e5-afa1-483e220954a6"},"vehicle_type_id":"4","last_reported":1760987337,"current_range_meters":10800,"station_id":"","pricing_plan_id":"cebpf4jnsgd1na2vs0mg"},{"bike_id":"2010d1c0-54eb-4cf9-b5e7-d1f1f50ca71a","system_id":"levelo_inurba_marseille","lat":43.25354,"lon":5.42166,"is_reserved":false,"is_disabled":false,"rental_uris":{"android":"levelo://app?vid=2010d1c0-54eb-4cf9-b5e7-d1f1f50ca71a","ios":"levelo://app?vid=2010d1c0-54eb-4cf9-b5e7-d1f1f50ca71a"},"vehicle_type_id":"4","last_reported":1760987337,"current_range_meters":10800,"station_id":"st_d2m65c5bi1j21697t3ng","pricing_plan_id":"cebpf4jnsgd1na2vs0mg"},{"bike_id":"eb2eb166-cb21-4013-8608-ef9a5b0596e0","system_id":"levelo_inurba_marseille","lat":43.27943,"lon":5.410473,"is_reserved":false,"is_disabled":false,"rental_uris":{"android":"levelo://app?vid=eb2eb166-cb21-4013-8608-ef9a5b0596e0","ios":"levelo://app?vid=eb2eb166-cb21-4013-8608-ef9a5b0596e0"},"vehicle_type_id":"4","last_reported":1760987337,"current_range_meters":10800,"station_id":"ce4bhnp2rcd13ifvqh0g","pricing_plan_id":"cebpf4jnsgd1na2vs0mg"},{"bike_id":"9d449aff-01f0-4b92-9983-749d954577ea","system_id":"levelo_inurba_marseille","lat":43.2724,"lon":5.40068,"is_reserved":false,"is_disabled":false,"rental_uris":{"android":"levelo://app?vid=9d449aff-01f0-4b92-9983-749d954577ea","ios":"levelo://app?vid=9d449aff-01f0-4b92-9983-749d954577ea"},"vehicle_type_id":"4","last_reported":1760987337,"current_range_meters":10800,"station_id":"","pricing_plan_id":"cebpf4jnsgd1na2vs0mg"},{"bike_id":"d6318f9e-0184-4ff6-931a-ee0c5a28c2b7","system_id":"levelo_inurba_marseille","lat":43.23191,"lon":5.3556,"is_reserved":false,"is_disabled":false,"rental_uris":{"android":"levelo://app?vid=d6318f9e-0184-4ff6-931a-ee0c5a28c2b7","ios":"levelo://app?vid=d6318f9e-0184-4ff6-931a-ee0c5a28c2b7"},"vehicle_type_id":"4","last_reported":1760987337,"current_range_meters":10800,"station_id":"ce4bhu92rcd13ifvqi70","pricing_plan_id":"cebpf4jnsgd1na2vs0mg"},{"bike_id":"599c01b3-22df-4a9a-9d4e-358da650153e","system_id":"levelo_inurba_marseille","lat":43.337444,"lon":5.374475,"is_reserved":false,"is_disabled":false,"rental_uris":{"android":"levelo://app?vid=599c01b3-22df-4a9a-9d4e-358da650153e","ios":"levelo://app?vid=599c01b3-22df-4a9a-9d4e-358da650153e"},"vehicle_type_id":"4","last_reported":1760987337,"current_range_meters":10800,"station_id":"","pricing_plan_id":"cebpf4jnsgd1na2vs0mg"},{"bike_id":"a5b44219-5a95-4869-995b-1f0c21452087","system_id":"levelo_inurba_marseille","lat":43.2906,"lon":5.37574,"is_reserved":false,"is_disabled":false,"rental_uris":{"android":"levelo://app?vid=a5b44219-5a95-4869-995b-1f0c21452087","ios":"levelo://app?vid=a5b44219-5a95-4869-995b-1f0c21452087"},"vehicle_type_id":"4","last_reported":1760987337,"current_range_meters":10800,"station_id":"ce4bh692rcd13ifvqe90","pricing_plan_id":"cebpf4jnsgd1na2vs0mg"},{"bike_id":"dde75b88-ae6b-435b-a57e-449367fe22d5","system_id":"levelo_inurba_marseille","lat":43.24686,"lon":5.3817,"is_reserved":false,"is_disabled":true,"rental_uris":{"android":"levelo://app?vid=dde75b88-ae6b-435b-a57e-449367fe22d5","ios":"levelo://app?vid=dde75b88-ae6b-435b-a57e-449367fe22d5"},"vehicle_type_id":"4","last_reported":1760987337,"current_range_meters":10800,"station_id":"ce4bhih2rcd13ifvqfr0","pricing_plan_id":"cebpf4jnsgd1na2vs0mg"},{"bike_id":"c530e950-50a8-4b2f-81e6-a5f7e6f752e8","system_id":"levelo_inurba_marseille","lat":43.33759,"lon":5.37473,"is_reserved":false,"is_disabled":false,"rental_uris":{"android":"levelo://app?vid=c530e950-50a8-4b2f-81e6-a5f7e6f752e8","ios":"levelo://app?vid=c530e950-50a8-4b2f-81e6-a5f7e6f752e8"},"vehicle_type_id":"4","last_reported":1760987337,"current_range_meters":11200,"station_id":"","pricing_plan_id":"cebpf4jnsgd1na2vs0mg"},{"bike_id":"5b9d0a61-a699-4cb6-b15f-262a007856cf","system_id":"levelo_inurba_marseille","lat":43.288751,"lon":5.359089,"is_reserved":false,"is_disabled":false,"rental_uris":{"android":"levelo://app?vid=5b9d0a61-a699-4cb6-b15f-262a007856cf","ios":"levelo://app?vid=5b9d0a61-a699-4cb6-b15f-262a007856cf"},"vehicle_type_id":"4","last_reported":1760987337,"current_range_meters":11200,"station_id":"ce4bhb12rcd13ifvqem0","pricing_plan_id":"cebpf4jnsgd1na2vs0mg"},{"bike_id":"f1fd161b-9c9a-4738-b8e9-0c3bae1b6a0e","system_id":"levelo_inurba_marseille","lat":43.29034,"lon":5.38627,"is_reserved":false,"is_disabled":false,"rental_uris":{"android":"levelo://app?vid=f1fd161b-9c9a-4738-b8e9-0c3bae1b6a0e","ios":"levelo://app?vid=f1fd161b-9c9a-4738-b8e9-0c3bae1b6a0e"},"vehicle_type_id":"4","last_reported":1760987337,"current_range_meters":11200,"station_id":"ce4bh4p2rcd13ifvqe0g","pricing_plan_id":"cebpf4jnsgd1na2vs0mg"},{"bike_id":"0cf9e023-a78d-4456-b64b-861008e04aad","system_id":"levelo_inurba_marseille","lat":43.305998,"lon":5.404676,"is_reserved":false,"is_disabled":false,"rental_uris":{"android":"levelo://app?vid=0cf9e023-a78d-4456-b64b-861008e04aad","ios":"levelo://app?vid=0cf9e023-a78d-4456-b64b-861008e04aad"},"vehicle_type_id":"4","last_reported":1760987337,"current_range_meters":11200,"station_id":"","pricing_plan_id":"cebpf4jnsgd1na2vs0mg"},{"bike_id":"54057153-4965-4899-97ec-9dc0f12a4016","system_id":"levelo_inurba_marseille","lat":43.28149,"lon":5.42635,"is_reserved":false,"is_disabled":false,"rental_uris":{"android":"levelo://app?vid=54057153-4965-4899-97ec-9dc0f12a4016","ios":"levelo://app?vid=54057153-4965-4899-97ec-9dc0f12a4016"},"vehicle_type_id":"4","last_reported":1760987337,"current_range_meters":11200,"station_id":"ce4bhnh2rcd13ifvqgug","pricing_plan_id":"cebpf4jnsgd1na2vs0mg"},{"bike_id":"d349b13d-e28d-429e-9e53-ad0fbda32d36","system_id":"levelo_inurba_marseille","lat":43.290061,"lon":5.356072,"is_reserved":false,"is_disabled":false,"rental_uris":{"android":"levelo://app?vid=d349b13d-e28d-429e-9e53-ad0fbda32d36","ios":"levelo://app?vid=d349b13d-e28d-429e-9e53-ad0fbda32d36"},"vehicle_type_id":"4","last_reported":1760987337,"current_range_meters":11200,"station_id":"ce4bhb92rcd13ifvqen0","pricing_plan_id":"cebpf4jnsgd1na2vs0mg"},{"bike_id":"95f9c216-93d7-405f-a2e1-9f9ee9024d5d","system_id":"levelo_inurba_marseille","lat":43.24179,"lon":5.39719,"is_reserved":false,"is_disabled":false,"rental_uris":{"android":"levelo://app?vid=95f9c216-93d7-405f-a2e1-9f9ee9024d5d","ios":"levelo://app?vid=95f9c216-93d7-405f-a2e1-9f9ee9024d5d"},"vehicle_type_id":"4","last_reported":1760987337,"current_range_meters":11600,"station_id":"ce4bhn12rcd13ifvqgpg","pricing_plan_id":"cebpf4jnsgd1na2vs0mg"},{"bike_id":"15420d38-a7a6-4ef1-a6fb-d9427abf4333","system_id":"levelo_inurba_marseille","lat":43.30482,"lon":5.40078,"is_reserved":false,"is_disabled":false,"rental_uris":{"android":"levelo://app?vid=15420d38-a7a6-4ef1-a6fb-d9427abf4333","ios":"levelo://app?vid=15420d38-a7a6-4ef1-a6fb-d9427abf4333"},"vehicle_type_id":"4","last_reported":1760987337,"current_range_meters":11600,"station_id":"","pricing_plan_id":"cebpf4jnsgd1na2vs0mg"},{"bike_id":"b84f5d5c-4af3-41b9-bd23-a606402416d4","system_id":"levelo_inurba_marseille","lat":43.32041,"lon":5.41543,"is_reserved":false,"is_disabled":false,"rental_uris":{"android":"levelo://app?vid=b84f5d5c-4af3-41b9-bd23-a606402416d4","ios":"levelo://app?vid=b84f5d5c-4af3-41b9-bd23-a606402416d4"},"vehicle_type_id":"4","last_reported":1760987337,"current_range_meters":11600,"station_id":"","pricing_plan_id":"cebpf4jnsgd1na2vs0mg"},{"bike_id":"35d8b230-e487-439a-9c56-35e9d4b94c5e","system_id":"levelo_inurba_marseille","lat":43.24385,"lon":5.37055,"is_reserved":false,"is_disabled":false,"rental_uris":{"android":"levelo://app?vid=35d8b230-e487-439a-9c56-35e9d4b94c5e","ios":"levelo://app?vid=35d8b230-e487-439a-9c56-35e9d4b94c5e"},"vehicle_type_id":"4","last_reported":1760987337,"current_range_meters":11600,"station_id":"ce4bhhh2rcd13ifvqfk0","pricing_plan_id":"cebpf4jnsgd1na2vs0mg"},{"bike_id":"faa3e668-6719-4125-8206-72a0a37494c0","system_id":"levelo_inurba_marseille","lat":43.26902,"lon":5.40155,"is_reserved":false,"is_disabled":true,"rental_uris":{"android":"levelo://app?vid=faa3e668-6719-4125-8206-72a0a37494c0","ios":"levelo://app?vid=faa3e668-6719-4125-8206-72a0a37494c0"},"vehicle_type_id":"4","last_reported":1760987337,"current_range_meters":11600,"station_id":"","pricing_plan_id":"cebpf4jnsgd1na2vs0mg"},{"bike_id":"8c2b079a-bae4-4f2e-b3c8-e46f90b10d4b","system_id":"levelo_inurba_marseille","lat":43.26497,"lon":5.39563,"is_reserved":false,"is_disabled":false,"rental_uris":{"android":"levelo://app?vid=8c2b079a-bae4-4f2e-b3c8-e46f90b10d4b","ios":"levelo://app?vid=8c2b079a-bae4-4f2e-b3c8-e46f90b10d4b"},"vehicle_type_id":"4","last_reported":1760987337,"current_range_meters":11600,"station_id":"ce4bhi12rcd13ifvqfq0","pricing_plan_id":"cebpf4jnsgd1na2vs0mg"},{"bike_id":"4515bc92-7735-427c-a2ae-8d3771aa37a9","system_id":"levelo_inurba_marseille","lat":43.23187,"lon":5.39992,"is_reserved":false,"is_disabled":false,"rental_uris":{"android":"levelo://app?vid=4515bc92-7735-427c-a2ae-8d3771aa37a9","ios":"levelo://app?vid=4515bc92-7735-427c-a2ae-8d3771aa37a9"},"vehicle_type_id":"4","last_reported":1760987337,"current_range_meters":12000,"station_id":"ce4bhn12rcd13ifvqgqg","pricing_plan_id":"cebpf4jnsgd1na2vs0mg"},{"bike_id":"3cbb0706-a5db-4392-8d23-c1d91599db83","system_id":"levelo_inurba_marseille","lat":43.27085,"lon":5.40243,"is_reserved":false,"is_disabled":false,"rental_uris":{"android":"levelo://app?vid=3cbb0706-a5db-4392-8d23-c1d91599db83","ios":"levelo://app?vid=3cbb0706-a5db-4392-8d23-c1d91599db83"},"vehicle_type_id":"4","last_reported":1760987337,"current_range_meters":12000,"station_id":"ce4bhk92rcd13ifvqgc0","pricing_plan_id":"cebpf4jnsgd1na2vs0mg"},{"bike_id":"6e8ed827-a6f7-46f1-ad28-2f0468b71691","system_id":"levelo_inurba_marseille","lat":43.32098,"lon":5.36773,"is_reserved":false,"is_disabled":true,"rental_uris":{"android":"levelo://app?vid=6e8ed827-a6f7-46f1-ad28-2f0468b71691","ios":"levelo://app?vid=6e8ed827-a6f7-46f1-ad28-2f0468b71691"},"vehicle_type_id":"4","last_reported":1760987337,"current_range_meters":12000,"station_id":"ce4bhrh2rcd13ifvqhug","pricing_plan_id":"cebpf4jnsgd1na2vs0mg"},{"bike_id":"8f64d89a-f39c-4694-a714-8b55e9562bbe","system_id":"levelo_inurba_marseille","lat":43.29538,"lon":5.38548,"is_reserved":false,"is_disabled":false,"rental_uris":{"android":"levelo://app?vid=8f64d89a-f39c-4694-a714-8b55e9562bbe","ios":"levelo://app?vid=8f64d89a-f39c-4694-a714-8b55e9562bbe"},"vehicle_type_id":"4","last_reported":1760987337,"current_range_meters":12000,"station_id":"ce4bgih2rcd13ifvqba0","pricing_plan_id":"cebpf4jnsgd1na2vs0mg"},{"bike_id":"c38d4779-18e1-43c4-a71d-5d81c3a33a62","system_id":"levelo_inurba_marseille","lat":43.29795,"lon":5.38113,"is_reserved":false,"is_disabled":true,"rental_uris":{"android":"levelo://app?vid=c38d4779-18e1-43c4-a71d-5d81c3a33a62","ios":"levelo://app?vid=c38d4779-18e1-43c4-a71d-5d81c3a33a62"},"vehicle_type_id":"4","last_reported":1760987337,"current_range_meters":12000,"station_id":"ce4bgip2rcd13ifvqbb0","pricing_plan_id":"cebpf4jnsgd1na2vs0mg"},{"bike_id":"7735b6f1-abf0-4c1c-93a3-aaf3aa4358c4","system_id":"levelo_inurba_marseille","lat":43.2586,"lon":5.38886,"is_reserved":false,"is_disabled":false,"rental_uris":{"android":"levelo://app?vid=7735b6f1-abf0-4c1c-93a3-aaf3aa4358c4","ios":"levelo://app?vid=7735b6f1-abf0-4c1c-93a3-aaf3aa4358c4"},"vehicle_type_id":"4","last_reported":1760987337,"current_range_meters":12000,"station_id":"","pricing_plan_id":"cebpf4jnsgd1na2vs0mg"},{"bike_id":"4a4c8b1a-d6a6-4a18-a07a-4320640afc31","system_id":"levelo_inurba_marseille","lat":43.258867,"lon":5.398887,"is_reserved":false,"is_disabled":false,"rental_uris":{"android":"levelo://app?vid=4a4c8b1a-d6a6-4a18-a07a-4320640afc31","ios":"levelo://app?vid=4a4c8b1a-d6a6-4a18-a07a-4320640afc31"},"vehicle_type_id":"4","last_reported":1760987337,"current_range_meters":12000,"station_id":"ce4bhl92rcd13ifvqghg","pricing_plan_id":"cebpf4jnsgd1na2vs0mg"},{"bike_id":"be23f4f6-1977-402d-96f0-5e1359023b4a","system_id":"levelo_inurba_marseille","lat":43.24984,"lon":5.40507,"is_reserved":false,"is_disabled":false,"rental_uris":{"android":"levelo://app?vid=be23f4f6-1977-402d-96f0-5e1359023b4a","ios":"levelo://app?vid=be23f4f6-1977-402d-96f0-5e1359023b4a"},"vehicle_type_id":"4","last_reported":1760987337,"current_range_meters":12000,"station_id":"st_d2ngiaodas8pm72gd1h0","pricing_plan_id":"cebpf4jnsgd1na2vs0mg"},{"bike_id":"06c84d1b-6e81-4ab2-ab43-e166647822bc","system_id":"levelo_inurba_marseille","lat":43.28933,"lon":5.36841,"is_reserved":false,"is_disabled":false,"rental_uris":{"android":"levelo://app?vid=06c84d1b-6e81-4ab2-ab43-e166647822bc","ios":"levelo://app?vid=06c84d1b-6e81-4ab2-ab43-e166647822bc"},"vehicle_type_id":"4","last_reported":1760987337,"current_range_meters":12400,"station_id":"","pricing_plan_id":"cebpf4jnsgd1na2vs0mg"},{"bike_id":"e07032c4-2ca7-41ad-abb7-5032471f26f4","system_id":"levelo_inurba_marseille","lat":43.2872,"lon":5.37933,"is_reserved":false,"is_disabled":false,"rental_uris":{"android":"levelo://app?vid=e07032c4-2ca7-41ad-abb7-5032471f26f4","ios":"levelo://app?vid=e07032c4-2ca7-41ad-abb7-5032471f26f4"},"vehicle_type_id":"4","last_reported":1760987337,"current_range_meters":12400,"station_id":"ce4bh9p2rcd13ifvqec0","pricing_plan_id":"cebpf4jnsgd1na2vs0mg"},{"bike_id":"1f938c25-3575-48d0-b8ad-b59e21319611","system_id":"levelo_inurba_marseille","lat":43.28721,"lon":5.37932,"is_reserved":false,"is_disabled":false,"rental_uris":{"android":"levelo://app?vid=1f938c25-3575-48d0-b8ad-b59e21319611","ios":"levelo://app?vid=1f938c25-3575-48d0-b8ad-b59e21319611"},"vehicle_type_id":"4","last_reported":1760987337,"current_range_meters":12400,"station_id":"ce4bh9p2rcd13ifvqec0","pricing_plan_id":"cebpf4jnsgd1na2vs0mg"},{"bike_id":"e917c6fa-cf51-46bb-9636-c9e80079121a","system_id":"levelo_inurba_marseille","lat":43.2987,"lon":5.39751,"is_reserved":false,"is_disabled":false,"rental_uris":{"android":"levelo://app?vid=e917c6fa-cf51-46bb-9636-c9e80079121a","ios":"levelo://app?vid=e917c6fa-cf51-46bb-9636-c9e80079121a"},"vehicle_type_id":"4","last_reported":1760987337,"current_range_meters":12400,"station_id":"ce4bh0h2rcd13ifvqd50","pricing_plan_id":"cebpf4jnsgd1na2vs0mg"},{"bike_id":"50256437-f563-4e18-83ab-119789c51b86","system_id":"levelo_inurba_marseille","lat":43.316518,"lon":5.37604,"is_reserved":false,"is_disabled":false,"rental_uris":{"android":"levelo://app?vid=50256437-f563-4e18-83ab-119789c51b86","ios":"levelo://app?vid=50256437-f563-4e18-83ab-119789c51b86"},"vehicle_type_id":"4","last_reported":1760987337,"current_range_meters":12800,"station_id":"","pricing_plan_id":"cebpf4jnsgd1na2vs0mg"},{"bike_id":"b482863e-8fac-4f14-b634-8c89c7059a9b","system_id":"levelo_inurba_marseille","lat":43.302515,"lon":5.390742,"is_reserved":false,"is_disabled":false,"rental_uris":{"android":"levelo://app?vid=b482863e-8fac-4f14-b634-8c89c7059a9b","ios":"levelo://app?vid=b482863e-8fac-4f14-b634-8c89c7059a9b"},"vehicle_type_id":"4","last_reported":1760987337,"current_range_meters":12800,"station_id":"ce4bgt92rcd13ifvqcf0","pricing_plan_id":"cebpf4jnsgd1na2vs0mg"},{"bike_id":"31cb3d2f-4cef-467b-b224-dc631a06dab6","system_id":"levelo_inurba_marseille","lat":43.298678,"lon":5.397271,"is_reserved":false,"is_disabled":false,"rental_uris":{"android":"levelo://app?vid=31cb3d2f-4cef-467b-b224-dc631a06dab6","ios":"levelo://app?vid=31cb3d2f-4cef-467b-b224-dc631a06dab6"},"vehicle_type_id":"4","last_reported":1760987337,"current_range_meters":12800,"station_id":"ce4bh0h2rcd13ifvqd50","pricing_plan_id":"cebpf4jnsgd1na2vs0mg"},{"bike_id":"e37a777e-9148-46f9-8d59-5124cfb27c0d","system_id":"levelo_inurba_marseille","lat":43.33028,"lon":5.3905,"is_reserved":false,"is_disabled":false,"rental_uris":{"android":"levelo://app?vid=e37a777e-9148-46f9-8d59-5124cfb27c0d","ios":"levelo://app?vid=e37a777e-9148-46f9-8d59-5124cfb27c0d"},"vehicle_type_id":"4","last_reported":1760987337,"current_range_meters":12800,"station_id":"ce4bhr92rcd13ifvqhrg","pricing_plan_id":"cebpf4jnsgd1na2vs0mg"},{"bike_id":"550dfb23-52ed-428c-8bc0-d9a17b6a332c","system_id":"levelo_inurba_marseille","lat":43.31325,"lon":5.39691,"is_reserved":false,"is_disabled":false,"rental_uris":{"android":"levelo://app?vid=550dfb23-52ed-428c-8bc0-d9a17b6a332c","ios":"levelo://app?vid=550dfb23-52ed-428c-8bc0-d9a17b6a332c"},"vehicle_type_id":"4","last_reported":1760987337,"current_range_meters":12800,"station_id":"ce4bgvp2rcd13ifvqcu0","pricing_plan_id":"cebpf4jnsgd1na2vs0mg"},{"bike_id":"88ddf386-2a2b-4fc9-8a56-77c231ac45ee","system_id":"levelo_inurba_marseille","lat":43.28155,"lon":5.42646,"is_reserved":false,"is_disabled":false,"rental_uris":{"android":"levelo://app?vid=88ddf386-2a2b-4fc9-8a56-77c231ac45ee","ios":"levelo://app?vid=88ddf386-2a2b-4fc9-8a56-77c231ac45ee"},"vehicle_type_id":"4","last_reported":1760987337,"current_range_meters":12800,"station_id":"ce4bhnh2rcd13ifvqgug","pricing_plan_id":"cebpf4jnsgd1na2vs0mg"},{"bike_id":"19e12642-bec1-4542-be51-03af5f7687f4","system_id":"levelo_inurba_marseille","lat":43.265686,"lon":5.403209,"is_reserved":false,"is_disabled":false,"rental_uris":{"android":"levelo://app?vid=19e12642-bec1-4542-be51-03af5f7687f4","ios":"levelo://app?vid=19e12642-bec1-4542-be51-03af5f7687f4"},"vehicle_type_id":"4","last_reported":1760987337,"current_range_meters":12800,"station_id":"ce4bhmp2rcd13ifvqgng","pricing_plan_id":"cebpf4jnsgd1na2vs0mg"},{"bike_id":"2ab235ce-ce1c-4e5a-b8f7-e903ac97becc","system_id":"levelo_inurba_marseille","lat":43.33475,"lon":5.39998,"is_reserved":false,"is_disabled":false,"rental_uris":{"android":"levelo://app?vid=2ab235ce-ce1c-4e5a-b8f7-e903ac97becc","ios":"levelo://app?vid=2ab235ce-ce1c-4e5a-b8f7-e903ac97becc"},"vehicle_type_id":"4","last_reported":1760987337,"current_range_meters":12800,"station_id":"","pricing_plan_id":"cebpf4jnsgd1na2vs0mg"},{"bike_id":"6ba32b9b-93cd-4708-ba5f-455be10072de","system_id":"levelo_inurba_marseille","lat":43.29039,"lon":5.3996,"is_reserved":false,"is_disabled":false,"rental_uris":{"android":"levelo://app?vid=6ba32b9b-93cd-4708-ba5f-455be10072de","ios":"levelo://app?vid=6ba32b9b-93cd-4708-ba5f-455be10072de"},"vehicle_type_id":"4","last_reported":1760987337,"current_range_meters":13600,"station_id":"ce4bh392rcd13ifvqdm0","pricing_plan_id":"cebpf4jnsgd1na2vs0mg"},{"bike_id":"83f32b9b-e29f-475f-9e01-cb4c09cdec9a","system_id":"levelo_inurba_marseille","lat":43.320899,"lon":5.371053,"is_reserved":false,"is_disabled":false,"rental_uris":{"android":"levelo://app?vid=83f32b9b-e29f-475f-9e01-cb4c09cdec9a","ios":"levelo://app?vid=83f32b9b-e29f-475f-9e01-cb4c09cdec9a"},"vehicle_type_id":"4","last_reported":1760987337,"current_range_meters":13600,"station_id":"ce4bhsh2rcd13ifvqi2g","pricing_plan_id":"cebpf4jnsgd1na2vs0mg"},{"bike_id":"cdde1352-b22f-4078-81a2-9f84c2b613b7","system_id":"levelo_inurba_marseille","lat":43.292585,"lon":5.384392,"is_reserved":false,"is_disabled":false,"rental_uris":{"android":"levelo://app?vid=cdde1352-b22f-4078-81a2-9f84c2b613b7","ios":"levelo://app?vid=cdde1352-b22f-4078-81a2-9f84c2b613b7"},"vehicle_type_id":"4","last_reported":1760987337,"current_range_meters":13600,"station_id":"ce4bh692rcd13ifvqea0","pricing_plan_id":"cebpf4jnsgd1na2vs0mg"},{"bike_id":"44def8bb-fc22-46bb-a308-b8e670ec5dfd","system_id":"levelo_inurba_marseille","lat":43.30131,"lon":5.37428,"is_reserved":false,"is_disabled":true,"rental_uris":{"android":"levelo://app?vid=44def8bb-fc22-46bb-a308-b8e670ec5dfd","ios":"levelo://app?vid=44def8bb-fc22-46bb-a308-b8e670ec5dfd"},"vehicle_type_id":"4","last_reported":1760987337,"current_range_meters":13600,"station_id":"ce4bgs92rcd13ifvqcc0","pricing_plan_id":"cebpf4jnsgd1na2vs0mg"},{"bike_id":"32dbdba0-e039-4c71-9c95-70d7b309a29d","system_id":"levelo_inurba_marseille","lat":43.28214,"lon":5.3499,"is_reserved":false,"is_disabled":false,"rental_uris":{"android":"levelo://app?vid=32dbdba0-e039-4c71-9c95-70d7b309a29d","ios":"levelo://app?vid=32dbdba0-e039-4c71-9c95-70d7b309a29d"},"vehicle_type_id":"4","last_reported":1760987337,"current_range_meters":13600,"station_id":"","pricing_plan_id":"cebpf4jnsgd1na2vs0mg"},{"bike_id":"533b116b-392e-4946-b51d-0049629c430d","system_id":"levelo_inurba_marseille","lat":43.27899,"lon":5.38007,"is_reserved":false,"is_disabled":false,"rental_uris":{"android":"levelo://app?vid=533b116b-392e-4946-b51d-0049629c430d","ios":"levelo://app?vid=533b116b-392e-4946-b51d-0049629c430d"},"vehicle_type_id":"4","last_reported":1760987337,"current_range_meters":13600,"station_id":"ce4bhf92rcd13ifvqf50","pricing_plan_id":"cebpf4jnsgd1na2vs0mg"},{"bike_id":"5a35347d-1dbb-434c-8651-0148cd77cd1e","system_id":"levelo_inurba_marseille","lat":43.3175,"lon":5.38585,"is_reserved":false,"is_disabled":false,"rental_uris":{"android":"levelo://app?vid=5a35347d-1dbb-434c-8651-0148cd77cd1e","ios":"levelo://app?vid=5a35347d-1dbb-434c-8651-0148cd77cd1e"},"vehicle_type_id":"4","last_reported":1760987337,"current_range_meters":13600,"station_id":"","pricing_plan_id":"cebpf4jnsgd1na2vs0mg"},{"bike_id":"3de69836-7189-4c18-ab56-0a315ba8a252","system_id":"levelo_inurba_marseille","lat":43.29967,"lon":5.38493,"is_reserved":false,"is_disabled":false,"rental_uris":{"android":"levelo://app?vid=3de69836-7189-4c18-ab56-0a315ba8a252","ios":"levelo://app?vid=3de69836-7189-4c18-ab56-0a315ba8a252"},"vehicle_type_id":"4","last_reported":1760987337,"current_range_meters":14000,"station_id":"ce4bgj92rcd13ifvqbd0","pricing_plan_id":"cebpf4jnsgd1na2vs0mg"},{"bike_id":"4c2a6311-9a2e-4164-a09e-c77e1de07883","system_id":"levelo_inurba_marseille","lat":43.30197,"lon":5.36623,"is_reserved":false,"is_disabled":false,"rental_uris":{"android":"levelo://app?vid=4c2a6311-9a2e-4164-a09e-c77e1de07883","ios":"levelo://app?vid=4c2a6311-9a2e-4164-a09e-c77e1de07883"},"vehicle_type_id":"4","last_reported":1760987337,"current_range_meters":14000,"station_id":"ce4bgrh2rcd13ifvqc8g","pricing_plan_id":"cebpf4jnsgd1na2vs0mg"},{"bike_id":"4ae89454-599c-44b5-a190-1c925f0e1486","system_id":"levelo_inurba_marseille","lat":43.29919,"lon":5.39755,"is_reserved":false,"is_disabled":false,"rental_uris":{"android":"levelo://app?vid=4ae89454-599c-44b5-a190-1c925f0e1486","ios":"levelo://app?vid=4ae89454-599c-44b5-a190-1c925f0e1486"},"vehicle_type_id":"4","last_reported":1760987337,"current_range_meters":14000,"station_id":"","pricing_plan_id":"cebpf4jnsgd1na2vs0mg"},{"bike_id":"af2b1227-7d32-4713-bc16-dd0378a8632d","system_id":"levelo_inurba_marseille","lat":43.30413,"lon":5.39761,"is_reserved":false,"is_disabled":false,"rental_uris":{"android":"levelo://app?vid=af2b1227-7d32-4713-bc16-dd0378a8632d","ios":"levelo://app?vid=af2b1227-7d32-4713-bc16-dd0378a8632d"},"vehicle_type_id":"4","last_reported":1760987337,"current_range_meters":14000,"station_id":"ce4bh092rcd13ifvqd20","pricing_plan_id":"cebpf4jnsgd1na2vs0mg"},{"bike_id":"aff26c85-5d18-4d6c-aefe-ab50409dc055","system_id":"levelo_inurba_marseille","lat":43.288617,"lon":5.425257,"is_reserved":false,"is_disabled":false,"rental_uris":{"android":"levelo://app?vid=aff26c85-5d18-4d6c-aefe-ab50409dc055","ios":"levelo://app?vid=aff26c85-5d18-4d6c-aefe-ab50409dc055"},"vehicle_type_id":"4","last_reported":1760987337,"current_range_meters":14000,"station_id":"st_d3b462108ojc7389ooeg","pricing_plan_id":"cebpf4jnsgd1na2vs0mg"},{"bike_id":"fefc0cbf-878f-4b7e-bc59-a72ad466ef0b","system_id":"levelo_inurba_marseille","lat":43.28076,"lon":5.39658,"is_reserved":false,"is_disabled":false,"rental_uris":{"android":"levelo://app?vid=fefc0cbf-878f-4b7e-bc59-a72ad466ef0b","ios":"levelo://app?vid=fefc0cbf-878f-4b7e-bc59-a72ad466ef0b"},"vehicle_type_id":"4","last_reported":1760987337,"current_range_meters":14000,"station_id":"ce4bho12rcd13ifvqh2g","pricing_plan_id":"cebpf4jnsgd1na2vs0mg"},{"bike_id":"ea6f0fe7-a336-4ef0-a24e-71dbf5d49189","system_id":"levelo_inurba_marseille","lat":43.29814,"lon":5.44072,"is_reserved":false,"is_disabled":false,"rental_uris":{"android":"levelo://app?vid=ea6f0fe7-a336-4ef0-a24e-71dbf5d49189","ios":"levelo://app?vid=ea6f0fe7-a336-4ef0-a24e-71dbf5d49189"},"vehicle_type_id":"4","last_reported":1760987337,"current_range_meters":14000,"station_id":"st_d3jp68qikq2c7381ktn0","pricing_plan_id":"cebpf4jnsgd1na2vs0mg"},{"bike_id":"241f4278-8126-4dad-bdde-bbda289230ee","system_id":"levelo_inurba_marseille","lat":43.32008,"lon":5.3815,"is_reserved":false,"is_disabled":false,"rental_uris":{"android":"levelo://app?vid=241f4278-8126-4dad-bdde-bbda289230ee","ios":"levelo://app?vid=241f4278-8126-4dad-bdde-bbda289230ee"},"vehicle_type_id":"4","last_reported":1760987337,"current_range_meters":14000,"station_id":"ce4bhr12rcd13ifvqhpg","pricing_plan_id":"cebpf4jnsgd1na2vs0mg"},{"bike_id":"9d3ae994-9f8f-4684-818a-9e47b87560ff","system_id":"levelo_inurba_marseille","lat":43.25729,"lon":5.41096,"is_reserved":false,"is_disabled":false,"rental_uris":{"android":"levelo://app?vid=9d3ae994-9f8f-4684-818a-9e47b87560ff","ios":"levelo://app?vid=9d3ae994-9f8f-4684-818a-9e47b87560ff"},"vehicle_type_id":"4","last_reported":1760987337,"current_range_meters":14400,"station_id":"ce4bhkp2rcd13ifvqgd0","pricing_plan_id":"cebpf4jnsgd1na2vs0mg"},{"bike_id":"d024a5dc-047d-4c62-9be8-05dec29917f1","system_id":"levelo_inurba_marseille","lat":43.28474,"lon":5.38426,"is_reserved":false,"is_disabled":true,"rental_uris":{"android":"levelo://app?vid=d024a5dc-047d-4c62-9be8-05dec29917f1","ios":"levelo://app?vid=d024a5dc-047d-4c62-9be8-05dec29917f1"},"vehicle_type_id":"4","last_reported":1760987337,"current_range_meters":14400,"station_id":"ce4bh512rcd13ifvqe3g","pricing_plan_id":"cebpf4jnsgd1na2vs0mg"},{"bike_id":"9953bb32-6d68-488a-9e42-24a31e2ab81f","system_id":"levelo_inurba_marseille","lat":43.31525,"lon":5.38034,"is_reserved":false,"is_disabled":false,"rental_uris":{"android":"levelo://app?vid=9953bb32-6d68-488a-9e42-24a31e2ab81f","ios":"levelo://app?vid=9953bb32-6d68-488a-9e42-24a31e2ab81f"},"vehicle_type_id":"4","last_reported":1760987337,"current_range_meters":14400,"station_id":"ce4bhsp2rcd13ifvqi50","pricing_plan_id":"cebpf4jnsgd1na2vs0mg"},{"bike_id":"acb34a40-49e6-435c-a002-157138cb75f1","system_id":"levelo_inurba_marseille","lat":43.284618,"lon":5.358847,"is_reserved":false,"is_disabled":false,"rental_uris":{"android":"levelo://app?vid=acb34a40-49e6-435c-a002-157138cb75f1","ios":"levelo://app?vid=acb34a40-49e6-435c-a002-157138cb75f1"},"vehicle_type_id":"4","last_reported":1760987337,"current_range_meters":14400,"station_id":"ce4bhah2rcd13ifvqei0","pricing_plan_id":"cebpf4jnsgd1na2vs0mg"},{"bike_id":"dae391f6-6574-40bd-943d-bd507e686bf2","system_id":"levelo_inurba_marseille","lat":43.28719,"lon":5.36087,"is_reserved":false,"is_disabled":false,"rental_uris":{"android":"levelo://app?vid=dae391f6-6574-40bd-943d-bd507e686bf2","ios":"levelo://app?vid=dae391f6-6574-40bd-943d-bd507e686bf2"},"vehicle_type_id":"4","last_reported":1760987337,"current_range_meters":14400,"station_id":"cki0cbj6b192h4jlfktg","pricing_plan_id":"cebpf4jnsgd1na2vs0mg"},{"bike_id":"399abe66-33e0-40ab-98f5-97949072c0ca","system_id":"levelo_inurba_marseille","lat":43.3107,"lon":5.38355,"is_reserved":false,"is_disabled":false,"rental_uris":{"android":"levelo://app?vid=399abe66-33e0-40ab-98f5-97949072c0ca","ios":"levelo://app?vid=399abe66-33e0-40ab-98f5-97949072c0ca"},"vehicle_type_id":"4","last_reported":1760987337,"current_range_meters":14400,"station_id":"ce4bgv92rcd13ifvqcr0","pricing_plan_id":"cebpf4jnsgd1na2vs0mg"},{"bike_id":"5f1015a4-e527-423a-8450-0f79576a99ad","system_id":"levelo_inurba_marseille","lat":43.3034,"lon":5.43619,"is_reserved":false,"is_disabled":false,"rental_uris":{"android":"levelo://app?vid=5f1015a4-e527-423a-8450-0f79576a99ad","ios":"levelo://app?vid=5f1015a4-e527-423a-8450-0f79576a99ad"},"vehicle_type_id":"4","last_reported":1760987337,"current_range_meters":14400,"station_id":"","pricing_plan_id":"cebpf4jnsgd1na2vs0mg"},{"bike_id":"b872ca5c-9447-4837-bafd-237f850871c5","system_id":"levelo_inurba_marseille","lat":43.31114,"lon":5.37767,"is_reserved":false,"is_disabled":false,"rental_uris":{"android":"levelo://app?vid=b872ca5c-9447-4837-bafd-237f850871c5","ios":"levelo://app?vid=b872ca5c-9447-4837-bafd-237f850871c5"},"vehicle_type_id":"4","last_reported":1760987337,"current_range_meters":14400,"station_id":"ce4bgt92rcd13ifvqcg0","pricing_plan_id":"cebpf4jnsgd1na2vs0mg"},{"bike_id":"9a19f707-bd43-46b7-a4c2-5241abce31c1","system_id":"levelo_inurba_marseille","lat":43.26796,"lon":5.4028,"is_reserved":false,"is_disabled":false,"rental_uris":{"android":"levelo://app?vid=9a19f707-bd43-46b7-a4c2-5241abce31c1","ios":"levelo://app?vid=9a19f707-bd43-46b7-a4c2-5241abce31c1"},"vehicle_type_id":"4","last_reported":1760987337,"current_range_meters":14400,"station_id":"ce501612rcd8frsf0b60","pricing_plan_id":"cebpf4jnsgd1na2vs0mg"},{"bike_id":"a27423e0-ceb0-4a8f-86e7-7b89077ab2b5","system_id":"levelo_inurba_marseille","lat":43.28172,"lon":5.36119,"is_reserved":false,"is_disabled":false,"rental_uris":{"android":"levelo://app?vid=a27423e0-ceb0-4a8f-86e7-7b89077ab2b5","ios":"levelo://app?vid=a27423e0-ceb0-4a8f-86e7-7b89077ab2b5"},"vehicle_type_id":"4","last_reported":1760987337,"current_range_meters":14800,"station_id":"","pricing_plan_id":"cebpf4jnsgd1na2vs0mg"},{"bike_id":"a7ba6a6a-8dda-4e76-8a63-3f1cbbb0d6aa","system_id":"levelo_inurba_marseille","lat":43.34133,"lon":5.40907,"is_reserved":false,"is_disabled":false,"rental_uris":{"android":"levelo://app?vid=a7ba6a6a-8dda-4e76-8a63-3f1cbbb0d6aa","ios":"levelo://app?vid=a7ba6a6a-8dda-4e76-8a63-3f1cbbb0d6aa"},"vehicle_type_id":"4","last_reported":1760987337,"current_range_meters":14800,"station_id":"ce4bhqh2rcd13ifvqhlg","pricing_plan_id":"cebpf4jnsgd1na2vs0mg"},{"bike_id":"0556e768-f024-45b5-af11-e15f24f3c5b3","system_id":"levelo_inurba_marseille","lat":43.2958,"lon":5.39944,"is_reserved":false,"is_disabled":true,"rental_uris":{"android":"levelo://app?vid=0556e768-f024-45b5-af11-e15f24f3c5b3","ios":"levelo://app?vid=0556e768-f024-45b5-af11-e15f24f3c5b3"},"vehicle_type_id":"4","last_reported":1760987337,"current_range_meters":14800,"station_id":"ce4bh312rcd13ifvqdj0","pricing_plan_id":"cebpf4jnsgd1na2vs0mg"},{"bike_id":"4916f3b7-3e4e-44c2-a9e9-1007c17d7311","system_id":"levelo_inurba_marseille","lat":43.27356,"lon":5.39883,"is_reserved":false,"is_disabled":false,"rental_uris":{"android":"levelo://app?vid=4916f3b7-3e4e-44c2-a9e9-1007c17d7311","ios":"levelo://app?vid=4916f3b7-3e4e-44c2-a9e9-1007c17d7311"},"vehicle_type_id":"4","last_reported":1760987337,"current_range_meters":14800,"station_id":"","pricing_plan_id":"cebpf4jnsgd1na2vs0mg"},{"bike_id":"2e67643b-d341-4102-ab0e-b8ecc435eb92","system_id":"levelo_inurba_marseille","lat":43.31491,"lon":5.38737,"is_reserved":false,"is_disabled":false,"rental_uris":{"android":"levelo://app?vid=2e67643b-d341-4102-ab0e-b8ecc435eb92","ios":"levelo://app?vid=2e67643b-d341-4102-ab0e-b8ecc435eb92"},"vehicle_type_id":"4","last_reported":1760987337,"current_range_meters":14800,"station_id":"","pricing_plan_id":"cebpf4jnsgd1na2vs0mg"},{"bike_id":"516c1e56-708f-4b58-bc5d-f987985e5695","system_id":"levelo_inurba_marseille","lat":43.23186,"lon":5.39991,"is_reserved":false,"is_disabled":false,"rental_uris":{"android":"levelo://app?vid=516c1e56-708f-4b58-bc5d-f987985e5695","ios":"levelo://app?vid=516c1e56-708f-4b58-bc5d-f987985e5695"},"vehicle_type_id":"4","last_reported":1760987337,"current_range_meters":15200,"station_id":"ce4bhn12rcd13ifvqgqg","pricing_plan_id":"cebpf4jnsgd1na2vs0mg"},{"bike_id":"b4dd57b5-fcf3-46d4-8f00-44cd689898c9","system_id":"levelo_inurba_marseille","lat":43.25335,"lon":5.42152,"is_reserved":false,"is_disabled":false,"rental_uris":{"android":"levelo://app?vid=b4dd57b5-fcf3-46d4-8f00-44cd689898c9","ios":"levelo://app?vid=b4dd57b5-fcf3-46d4-8f00-44cd689898c9"},"vehicle_type_id":"4","last_reported":1760987337,"current_range_meters":15200,"station_id":"st_d2m65c5bi1j21697t3ng","pricing_plan_id":"cebpf4jnsgd1na2vs0mg"},{"bike_id":"1c3a62d6-9dc5-4b1d-b145-ff75c0ccb3b4","system_id":"levelo_inurba_marseille","lat":43.2827,"lon":5.35058,"is_reserved":false,"is_disabled":false,"rental_uris":{"android":"levelo://app?vid=1c3a62d6-9dc5-4b1d-b145-ff75c0ccb3b4","ios":"levelo://app?vid=1c3a62d6-9dc5-4b1d-b145-ff75c0ccb3b4"},"vehicle_type_id":"4","last_reported":1760987337,"current_range_meters":15200,"station_id":"","pricing_plan_id":"cebpf4jnsgd1na2vs0mg"},{"bike_id":"3967407f-5500-4884-9148-83d6891a6adf","system_id":"levelo_inurba_marseille","lat":43.26684,"lon":5.38267,"is_reserved":false,"is_disabled":false,"rental_uris":{"android":"levelo://app?vid=3967407f-5500-4884-9148-83d6891a6adf","ios":"levelo://app?vid=3967407f-5500-4884-9148-83d6891a6adf"},"vehicle_type_id":"4","last_reported":1760987337,"current_range_meters":15200,"station_id":"ce4bhg92rcd13ifvqf90","pricing_plan_id":"cebpf4jnsgd1na2vs0mg"},{"bike_id":"179fb403-ec16-4961-837e-8d1dbed8d3e3","system_id":"levelo_inurba_marseille","lat":43.31483,"lon":5.37302,"is_reserved":false,"is_disabled":false,"rental_uris":{"android":"levelo://app?vid=179fb403-ec16-4961-837e-8d1dbed8d3e3","ios":"levelo://app?vid=179fb403-ec16-4961-837e-8d1dbed8d3e3"},"vehicle_type_id":"4","last_reported":1760987337,"current_range_meters":15200,"station_id":"ce4bgt12rcd13ifvqcd0","pricing_plan_id":"cebpf4jnsgd1na2vs0mg"},{"bike_id":"da376556-bd9f-4228-9030-d75c58a59f1d","system_id":"levelo_inurba_marseille","lat":43.30648,"lon":5.40097,"is_reserved":false,"is_disabled":false,"rental_uris":{"android":"levelo://app?vid=da376556-bd9f-4228-9030-d75c58a59f1d","ios":"levelo://app?vid=da376556-bd9f-4228-9030-d75c58a59f1d"},"vehicle_type_id":"4","last_reported":1760987337,"current_range_meters":15200,"station_id":"ce4bh112rcd13ifvqda0","pricing_plan_id":"cebpf4jnsgd1na2vs0mg"},{"bike_id":"f7bc1b94-a8e8-42b5-9694-5993a69ba238","system_id":"levelo_inurba_marseille","lat":43.25109,"lon":5.40328,"is_reserved":false,"is_disabled":true,"rental_uris":{"android":"levelo://app?vid=f7bc1b94-a8e8-42b5-9694-5993a69ba238","ios":"levelo://app?vid=f7bc1b94-a8e8-42b5-9694-5993a69ba238"},"vehicle_type_id":"4","last_reported":1760987337,"current_range_meters":15200,"station_id":"ce4bhlh2rcd13ifvqgig","pricing_plan_id":"cebpf4jnsgd1na2vs0mg"},{"bike_id":"d17bbc97-87c0-46fa-a1cd-24ce41252973","system_id":"levelo_inurba_marseille","lat":43.306424,"lon":5.400967,"is_reserved":false,"is_disabled":false,"rental_uris":{"android":"levelo://app?vid=d17bbc97-87c0-46fa-a1cd-24ce41252973","ios":"levelo://app?vid=d17bbc97-87c0-46fa-a1cd-24ce41252973"},"vehicle_type_id":"4","last_reported":1760987337,"current_range_meters":15200,"station_id":"ce4bh112rcd13ifvqda0","pricing_plan_id":"cebpf4jnsgd1na2vs0mg"},{"bike_id":"b14fa3f8-aae1-46e3-b682-dad93ba86e32","system_id":"levelo_inurba_marseille","lat":43.251,"lon":5.39519,"is_reserved":false,"is_disabled":false,"rental_uris":{"android":"levelo://app?vid=b14fa3f8-aae1-46e3-b682-dad93ba86e32","ios":"levelo://app?vid=b14fa3f8-aae1-46e3-b682-dad93ba86e32"},"vehicle_type_id":"4","last_reported":1760987337,"current_range_meters":16000,"station_id":"ce4bhm12rcd13ifvqgkg","pricing_plan_id":"cebpf4jnsgd1na2vs0mg"},{"bike_id":"d950ada0-7546-479b-b1de-6e0c92ac2fca","system_id":"levelo_inurba_marseille","lat":43.2903,"lon":5.38632,"is_reserved":false,"is_disabled":true,"rental_uris":{"android":"levelo://app?vid=d950ada0-7546-479b-b1de-6e0c92ac2fca","ios":"levelo://app?vid=d950ada0-7546-479b-b1de-6e0c92ac2fca"},"vehicle_type_id":"4","last_reported":1760987337,"current_range_meters":16000,"station_id":"ce4bh4p2rcd13ifvqe0g","pricing_plan_id":"cebpf4jnsgd1na2vs0mg"},{"bike_id":"e0d0383d-d02d-4c1c-99c3-af99f2d807d2","system_id":"levelo_inurba_marseille","lat":43.28275,"lon":5.35066,"is_reserved":false,"is_disabled":false,"rental_uris":{"android":"levelo://app?vid=e0d0383d-d02d-4c1c-99c3-af99f2d807d2","ios":"levelo://app?vid=e0d0383d-d02d-4c1c-99c3-af99f2d807d2"},"vehicle_type_id":"4","last_reported":1760987337,"current_range_meters":16000,"station_id":"ce4bhbp2rcd13ifvqerg","pricing_plan_id":"cebpf4jnsgd1na2vs0mg"},{"bike_id":"2f09c9be-359a-414b-9339-b6dbcd93427c","system_id":"levelo_inurba_marseille","lat":43.29577,"lon":5.38105,"is_reserved":false,"is_disabled":true,"rental_uris":{"android":"levelo://app?vid=2f09c9be-359a-414b-9339-b6dbcd93427c","ios":"levelo://app?vid=2f09c9be-359a-414b-9339-b6dbcd93427c"},"vehicle_type_id":"4","last_reported":1760987337,"current_range_meters":16000,"station_id":"ce4bgl12rcd13ifvqbo0","pricing_plan_id":"cebpf4jnsgd1na2vs0mg"},{"bike_id":"1d998c11-23a7-4a77-9b46-99c9f483b6e4","system_id":"levelo_inurba_marseille","lat":43.24954,"lon":5.40483,"is_reserved":false,"is_disabled":false,"rental_uris":{"android":"levelo://app?vid=1d998c11-23a7-4a77-9b46-99c9f483b6e4","ios":"levelo://app?vid=1d998c11-23a7-4a77-9b46-99c9f483b6e4"},"vehicle_type_id":"4","last_reported":1760987337,"current_range_meters":16000,"station_id":"st_d2ngiaodas8pm72gd1h0","pricing_plan_id":"cebpf4jnsgd1na2vs0mg"},{"bike_id":"b63f4144-84f6-4ba1-b6df-f6ebabe9ef26","system_id":"levelo_inurba_marseille","lat":43.27933,"lon":5.40428,"is_reserved":false,"is_disabled":false,"rental_uris":{"android":"levelo://app?vid=b63f4144-84f6-4ba1-b6df-f6ebabe9ef26","ios":"levelo://app?vid=b63f4144-84f6-4ba1-b6df-f6ebabe9ef26"},"vehicle_type_id":"4","last_reported":1760987337,"current_range_meters":16000,"station_id":"","pricing_plan_id":"cebpf4jnsgd1na2vs0mg"},{"bike_id":"0db9ab5d-e4b9-4e8d-8841-4099a10de2ae","system_id":"levelo_inurba_marseille","lat":43.28483,"lon":5.48401,"is_reserved":false,"is_disabled":false,"rental_uris":{"android":"levelo://app?vid=0db9ab5d-e4b9-4e8d-8841-4099a10de2ae","ios":"levelo://app?vid=0db9ab5d-e4b9-4e8d-8841-4099a10de2ae"},"vehicle_type_id":"4","last_reported":1760987337,"current_range_meters":16400,"station_id":"st_d3jp68qikq2c7381ktn0","pricing_plan_id":"cebpf4jnsgd1na2vs0mg"},{"bike_id":"20d9d3c4-a46a-4dac-bafb-410f46cebfba","system_id":"levelo_inurba_marseille","lat":43.25835,"lon":5.39343,"is_reserved":false,"is_disabled":false,"rental_uris":{"android":"levelo://app?vid=20d9d3c4-a46a-4dac-bafb-410f46cebfba","ios":"levelo://app?vid=20d9d3c4-a46a-4dac-bafb-410f46cebfba"},"vehicle_type_id":"4","last_reported":1760987337,"current_range_meters":16400,"station_id":"","pricing_plan_id":"cebpf4jnsgd1na2vs0mg"},{"bike_id":"f083bdc0-1ed6-46ee-8b5c-ed8a371b8abc","system_id":"levelo_inurba_marseille","lat":43.292679,"lon":5.368292,"is_reserved":false,"is_disabled":false,"rental_uris":{"android":"levelo://app?vid=f083bdc0-1ed6-46ee-8b5c-ed8a371b8abc","ios":"levelo://app?vid=f083bdc0-1ed6-46ee-8b5c-ed8a371b8abc"},"vehicle_type_id":"4","last_reported":1760987337,"current_range_meters":16400,"station_id":"ce4bhbp2rcd13ifvqesg","pricing_plan_id":"cebpf4jnsgd1na2vs0mg"},{"bike_id":"3a4efd59-50e5-4db4-8e56-66748a18687a","system_id":"levelo_inurba_marseille","lat":43.295265,"lon":5.385424,"is_reserved":false,"is_disabled":false,"rental_uris":{"android":"levelo://app?vid=3a4efd59-50e5-4db4-8e56-66748a18687a","ios":"levelo://app?vid=3a4efd59-50e5-4db4-8e56-66748a18687a"},"vehicle_type_id":"4","last_reported":1760987337,"current_range_meters":16400,"station_id":"ce4bgih2rcd13ifvqba0","pricing_plan_id":"cebpf4jnsgd1na2vs0mg"},{"bike_id":"3500c908-297e-4054-9aba-70ee2962e831","system_id":"levelo_inurba_marseille","lat":43.31755,"lon":5.39019,"is_reserved":false,"is_disabled":false,"rental_uris":{"android":"levelo://app?vid=3500c908-297e-4054-9aba-70ee2962e831","ios":"levelo://app?vid=3500c908-297e-4054-9aba-70ee2962e831"},"vehicle_type_id":"4","last_reported":1760987337,"current_range_meters":16400,"station_id":"ce4bhqp2rcd13ifvqhng","pricing_plan_id":"cebpf4jnsgd1na2vs0mg"},{"bike_id":"cbcc8c54-163b-49c2-b3b5-9e2e162f6735","system_id":"levelo_inurba_marseille","lat":43.295213,"lon":5.394035,"is_reserved":false,"is_disabled":false,"rental_uris":{"android":"levelo://app?vid=cbcc8c54-163b-49c2-b3b5-9e2e162f6735","ios":"levelo://app?vid=cbcc8c54-163b-49c2-b3b5-9e2e162f6735"},"vehicle_type_id":"4","last_reported":1760987337,"current_range_meters":16400,"station_id":"","pricing_plan_id":"cebpf4jnsgd1na2vs0mg"},{"bike_id":"737796b0-9eed-4879-8123-81b53466978c","system_id":"levelo_inurba_marseille","lat":43.27988,"lon":5.41655,"is_reserved":false,"is_disabled":false,"rental_uris":{"android":"levelo://app?vid=737796b0-9eed-4879-8123-81b53466978c","ios":"levelo://app?vid=737796b0-9eed-4879-8123-81b53466978c"},"vehicle_type_id":"4","last_reported":1760987337,"current_range_meters":16400,"station_id":"ce4bho12rcd13ifvqh1g","pricing_plan_id":"cebpf4jnsgd1na2vs0mg"},{"bike_id":"ee541b89-16c0-411b-94f7-b1b83718973b","system_id":"levelo_inurba_marseille","lat":43.27997,"lon":5.41662,"is_reserved":false,"is_disabled":false,"rental_uris":{"android":"levelo://app?vid=ee541b89-16c0-411b-94f7-b1b83718973b","ios":"levelo://app?vid=ee541b89-16c0-411b-94f7-b1b83718973b"},"vehicle_type_id":"4","last_reported":1760987337,"current_range_meters":16400,"station_id":"ce4bho12rcd13ifvqh1g","pricing_plan_id":"cebpf4jnsgd1na2vs0mg"},{"bike_id":"d8ce8491-25e7-4f84-8373-cc25897ada4d","system_id":"levelo_inurba_marseille","lat":43.22559,"lon":5.41634,"is_reserved":false,"is_disabled":false,"rental_uris":{"android":"levelo://app?vid=d8ce8491-25e7-4f84-8373-cc25897ada4d","ios":"levelo://app?vid=d8ce8491-25e7-4f84-8373-cc25897ada4d"},"vehicle_type_id":"4","last_reported":1760987337,"current_range_meters":16400,"station_id":"st_d2o4gvlbi1j2169b742g","pricing_plan_id":"cebpf4jnsgd1na2vs0mg"},{"bike_id":"40617a59-a4c2-4066-ac53-b4f37168ac6f","system_id":"levelo_inurba_marseille","lat":43.337736,"lon":5.374688,"is_reserved":false,"is_disabled":false,"rental_uris":{"android":"levelo://app?vid=40617a59-a4c2-4066-ac53-b4f37168ac6f","ios":"levelo://app?vid=40617a59-a4c2-4066-ac53-b4f37168ac6f"},"vehicle_type_id":"4","last_reported":1760987337,"current_range_meters":16400,"station_id":"","pricing_plan_id":"cebpf4jnsgd1na2vs0mg"},{"bike_id":"d002287b-50e8-45d0-a495-c8386fa9adc9","system_id":"levelo_inurba_marseille","lat":43.32651,"lon":5.40995,"is_reserved":false,"is_disabled":false,"rental_uris":{"android":"levelo://app?vid=d002287b-50e8-45d0-a495-c8386fa9adc9","ios":"levelo://app?vid=d002287b-50e8-45d0-a495-c8386fa9adc9"},"vehicle_type_id":"4","last_reported":1760987337,"current_range_meters":16400,"station_id":"ce4bhpp2rcd13ifvqhgg","pricing_plan_id":"cebpf4jnsgd1na2vs0mg"},{"bike_id":"4f7223aa-3d2c-4d8f-acef-441d222a7392","system_id":"levelo_inurba_marseille","lat":43.28001,"lon":5.40011,"is_reserved":false,"is_disabled":false,"rental_uris":{"android":"levelo://app?vid=4f7223aa-3d2c-4d8f-acef-441d222a7392","ios":"levelo://app?vid=4f7223aa-3d2c-4d8f-acef-441d222a7392"},"vehicle_type_id":"4","last_reported":1760987337,"current_range_meters":16400,"station_id":"ce4bho92rcd13ifvqh4g","pricing_plan_id":"cebpf4jnsgd1na2vs0mg"},{"bike_id":"06c03a3b-37c6-499a-8107-e4910efb4f14","system_id":"levelo_inurba_marseille","lat":43.23781,"lon":5.36632,"is_reserved":false,"is_disabled":false,"rental_uris":{"android":"levelo://app?vid=06c03a3b-37c6-499a-8107-e4910efb4f14","ios":"levelo://app?vid=06c03a3b-37c6-499a-8107-e4910efb4f14"},"vehicle_type_id":"4","last_reported":1760987337,"current_range_meters":16400,"station_id":"st_d3nk18o9ro0c73en2l3g","pricing_plan_id":"cebpf4jnsgd1na2vs0mg"},{"bike_id":"f8de620a-e1d5-41c8-ab7c-bc44d275d403","system_id":"levelo_inurba_marseille","lat":43.3042,"lon":5.38891,"is_reserved":false,"is_disabled":false,"rental_uris":{"android":"levelo://app?vid=f8de620a-e1d5-41c8-ab7c-bc44d275d403","ios":"levelo://app?vid=f8de620a-e1d5-41c8-ab7c-bc44d275d403"},"vehicle_type_id":"4","last_reported":1760987337,"current_range_meters":16800,"station_id":"ce4bgk12rcd13ifvqbi0","pricing_plan_id":"cebpf4jnsgd1na2vs0mg"},{"bike_id":"ecc71f2f-a8c8-48f2-a3d5-7917b274cd85","system_id":"levelo_inurba_marseille","lat":43.28286,"lon":5.39648,"is_reserved":false,"is_disabled":false,"rental_uris":{"android":"levelo://app?vid=ecc71f2f-a8c8-48f2-a3d5-7917b274cd85","ios":"levelo://app?vid=ecc71f2f-a8c8-48f2-a3d5-7917b274cd85"},"vehicle_type_id":"4","last_reported":1760987337,"current_range_meters":16800,"station_id":"","pricing_plan_id":"cebpf4jnsgd1na2vs0mg"},{"bike_id":"e1f4e2e7-e979-4bb5-8ac3-370c17ac4622","system_id":"levelo_inurba_marseille","lat":43.28857,"lon":5.4251,"is_reserved":false,"is_disabled":false,"rental_uris":{"android":"levelo://app?vid=e1f4e2e7-e979-4bb5-8ac3-370c17ac4622","ios":"levelo://app?vid=e1f4e2e7-e979-4bb5-8ac3-370c17ac4622"},"vehicle_type_id":"4","last_reported":1760987337,"current_range_meters":16800,"station_id":"st_d3b462108ojc7389ooeg","pricing_plan_id":"cebpf4jnsgd1na2vs0mg"},{"bike_id":"5ffc841b-57b4-486c-b04c-40b145c83ce9","system_id":"levelo_inurba_marseille","lat":43.24662,"lon":5.38162,"is_reserved":false,"is_disabled":false,"rental_uris":{"android":"levelo://app?vid=5ffc841b-57b4-486c-b04c-40b145c83ce9","ios":"levelo://app?vid=5ffc841b-57b4-486c-b04c-40b145c83ce9"},"vehicle_type_id":"4","last_reported":1760987337,"current_range_meters":16800,"station_id":"ce4bhih2rcd13ifvqfr0","pricing_plan_id":"cebpf4jnsgd1na2vs0mg"},{"bike_id":"12c7b0d2-ddbf-431c-8610-ad9ab6df2f6a","system_id":"levelo_inurba_marseille","lat":43.32106,"lon":5.36772,"is_reserved":false,"is_disabled":false,"rental_uris":{"android":"levelo://app?vid=12c7b0d2-ddbf-431c-8610-ad9ab6df2f6a","ios":"levelo://app?vid=12c7b0d2-ddbf-431c-8610-ad9ab6df2f6a"},"vehicle_type_id":"4","last_reported":1760987337,"current_range_meters":16800,"station_id":"ce4bhrh2rcd13ifvqhug","pricing_plan_id":"cebpf4jnsgd1na2vs0mg"},{"bike_id":"e3f546e7-0d53-4f39-a2ad-de471057ddd2","system_id":"levelo_inurba_marseille","lat":43.2866,"lon":5.36343,"is_reserved":false,"is_disabled":false,"rental_uris":{"android":"levelo://app?vid=e3f546e7-0d53-4f39-a2ad-de471057ddd2","ios":"levelo://app?vid=e3f546e7-0d53-4f39-a2ad-de471057ddd2"},"vehicle_type_id":"4","last_reported":1760987337,"current_range_meters":16800,"station_id":"ce4bhah2rcd13ifvqej0","pricing_plan_id":"cebpf4jnsgd1na2vs0mg"},{"bike_id":"bd07bb0a-7914-4975-b9b3-a3b2eaf40169","system_id":"levelo_inurba_marseille","lat":43.317,"lon":5.37734,"is_reserved":false,"is_disabled":true,"rental_uris":{"android":"levelo://app?vid=bd07bb0a-7914-4975-b9b3-a3b2eaf40169","ios":"levelo://app?vid=bd07bb0a-7914-4975-b9b3-a3b2eaf40169"},"vehicle_type_id":"4","last_reported":1760987337,"current_range_meters":16800,"station_id":"ce4bgth2rcd13ifvqch0","pricing_plan_id":"cebpf4jnsgd1na2vs0mg"},{"bike_id":"e7611cfa-682f-4ccd-96c5-464cc6f40597","system_id":"levelo_inurba_marseille","lat":43.22547,"lon":5.41611,"is_reserved":false,"is_disabled":false,"rental_uris":{"android":"levelo://app?vid=e7611cfa-682f-4ccd-96c5-464cc6f40597","ios":"levelo://app?vid=e7611cfa-682f-4ccd-96c5-464cc6f40597"},"vehicle_type_id":"4","last_reported":1760987337,"current_range_meters":16800,"station_id":"st_d2o4gvlbi1j2169b742g","pricing_plan_id":"cebpf4jnsgd1na2vs0mg"},{"bike_id":"26a47936-248a-4509-9172-73bff6c9fadc","system_id":"levelo_inurba_marseille","lat":43.309998,"lon":5.389321,"is_reserved":false,"is_disabled":false,"rental_uris":{"android":"levelo://app?vid=26a47936-248a-4509-9172-73bff6c9fadc","ios":"levelo://app?vid=26a47936-248a-4509-9172-73bff6c9fadc"},"vehicle_type_id":"4","last_reported":1760987337,"current_range_meters":17200,"station_id":"ce4bgup2rcd13ifvqco0","pricing_plan_id":"cebpf4jnsgd1na2vs0mg"},{"bike_id":"e1216ea9-9258-4a77-b50c-2d9f2759f715","system_id":"levelo_inurba_marseille","lat":43.28156,"lon":5.42633,"is_reserved":false,"is_disabled":false,"rental_uris":{"android":"levelo://app?vid=e1216ea9-9258-4a77-b50c-2d9f2759f715","ios":"levelo://app?vid=e1216ea9-9258-4a77-b50c-2d9f2759f715"},"vehicle_type_id":"4","last_reported":1760987337,"current_range_meters":17200,"station_id":"ce4bhnh2rcd13ifvqgug","pricing_plan_id":"cebpf4jnsgd1na2vs0mg"},{"bike_id":"2a47929d-e4df-41ea-aa34-2e3ce005d3e1","system_id":"levelo_inurba_marseille","lat":43.25331,"lon":5.42147,"is_reserved":false,"is_disabled":false,"rental_uris":{"android":"levelo://app?vid=2a47929d-e4df-41ea-aa34-2e3ce005d3e1","ios":"levelo://app?vid=2a47929d-e4df-41ea-aa34-2e3ce005d3e1"},"vehicle_type_id":"4","last_reported":1760987337,"current_range_meters":17200,"station_id":"st_d2m65c5bi1j21697t3ng","pricing_plan_id":"cebpf4jnsgd1na2vs0mg"},{"bike_id":"fa344610-9bdf-47a1-9d9d-a659d006d2c1","system_id":"levelo_inurba_marseille","lat":43.27604,"lon":5.36116,"is_reserved":false,"is_disabled":true,"rental_uris":{"android":"levelo://app?vid=fa344610-9bdf-47a1-9d9d-a659d006d2c1","ios":"levelo://app?vid=fa344610-9bdf-47a1-9d9d-a659d006d2c1"},"vehicle_type_id":"4","last_reported":1760987337,"current_range_meters":17200,"station_id":"ce4bgj92rcd13ifvqbe0","pricing_plan_id":"cebpf4jnsgd1na2vs0mg"},{"bike_id":"9685b534-3028-459a-908a-5c3c4b067a77","system_id":"levelo_inurba_marseille","lat":43.2795,"lon":5.38741,"is_reserved":false,"is_disabled":false,"rental_uris":{"android":"levelo://app?vid=9685b534-3028-459a-908a-5c3c4b067a77","ios":"levelo://app?vid=9685b534-3028-459a-908a-5c3c4b067a77"},"vehicle_type_id":"4","last_reported":1760987337,"current_range_meters":17200,"station_id":"ce4bhg12rcd13ifvqf80","pricing_plan_id":"cebpf4jnsgd1na2vs0mg"},{"bike_id":"06fc769c-d36f-4497-b3f2-8de1c6d85ea4","system_id":"levelo_inurba_marseille","lat":43.295311,"lon":5.385465,"is_reserved":false,"is_disabled":false,"rental_uris":{"android":"levelo://app?vid=06fc769c-d36f-4497-b3f2-8de1c6d85ea4","ios":"levelo://app?vid=06fc769c-d36f-4497-b3f2-8de1c6d85ea4"},"vehicle_type_id":"4","last_reported":1760987337,"current_range_meters":17200,"station_id":"ce4bgih2rcd13ifvqba0","pricing_plan_id":"cebpf4jnsgd1na2vs0mg"},{"bike_id":"9c882443-49a2-480d-8caf-b6fafbd1ba97","system_id":"levelo_inurba_marseille","lat":43.2754,"lon":5.42768,"is_reserved":false,"is_disabled":false,"rental_uris":{"android":"levelo://app?vid=9c882443-49a2-480d-8caf-b6fafbd1ba97","ios":"levelo://app?vid=9c882443-49a2-480d-8caf-b6fafbd1ba97"},"vehicle_type_id":"4","last_reported":1760987337,"current_range_meters":17200,"station_id":"","pricing_plan_id":"cebpf4jnsgd1na2vs0mg"},{"bike_id":"ce69e107-4ef6-4548-bfa3-e635d4dff83e","system_id":"levelo_inurba_marseille","lat":43.28097,"lon":5.37839,"is_reserved":false,"is_disabled":false,"rental_uris":{"android":"levelo://app?vid=ce69e107-4ef6-4548-bfa3-e635d4dff83e","ios":"levelo://app?vid=ce69e107-4ef6-4548-bfa3-e635d4dff83e"},"vehicle_type_id":"4","last_reported":1760987337,"current_range_meters":17200,"station_id":"ce4bha12rcd13ifvqee0","pricing_plan_id":"cebpf4jnsgd1na2vs0mg"},{"bike_id":"24cbe971-4c73-45dd-87c3-7ef8b952a24d","system_id":"levelo_inurba_marseille","lat":43.24548,"lon":5.39527,"is_reserved":false,"is_disabled":false,"rental_uris":{"android":"levelo://app?vid=24cbe971-4c73-45dd-87c3-7ef8b952a24d","ios":"levelo://app?vid=24cbe971-4c73-45dd-87c3-7ef8b952a24d"},"vehicle_type_id":"4","last_reported":1760987337,"current_range_meters":17200,"station_id":"ce4bhlp2rcd13ifvqgjg","pricing_plan_id":"cebpf4jnsgd1na2vs0mg"},{"bike_id":"77434eef-942d-45ae-b433-77c1e7d412dc","system_id":"levelo_inurba_marseille","lat":43.30033,"lon":5.40395,"is_reserved":false,"is_disabled":false,"rental_uris":{"android":"levelo://app?vid=77434eef-942d-45ae-b433-77c1e7d412dc","ios":"levelo://app?vid=77434eef-942d-45ae-b433-77c1e7d412dc"},"vehicle_type_id":"4","last_reported":1760987337,"current_range_meters":17200,"station_id":"","pricing_plan_id":"cebpf4jnsgd1na2vs0mg"},{"bike_id":"50227033-b2a0-40b8-93ef-16d57df43834","system_id":"levelo_inurba_marseille","lat":43.31988,"lon":5.38163,"is_reserved":false,"is_disabled":false,"rental_uris":{"android":"levelo://app?vid=50227033-b2a0-40b8-93ef-16d57df43834","ios":"levelo://app?vid=50227033-b2a0-40b8-93ef-16d57df43834"},"vehicle_type_id":"4","last_reported":1760987337,"current_range_meters":17200,"station_id":"ce4bhr12rcd13ifvqhpg","pricing_plan_id":"cebpf4jnsgd1na2vs0mg"},{"bike_id":"71b258a5-ce06-4544-8667-4ab25befb04a","system_id":"levelo_inurba_marseille","lat":43.24668,"lon":5.38146,"is_reserved":false,"is_disabled":false,"rental_uris":{"android":"levelo://app?vid=71b258a5-ce06-4544-8667-4ab25befb04a","ios":"levelo://app?vid=71b258a5-ce06-4544-8667-4ab25befb04a"},"vehicle_type_id":"4","last_reported":1760987337,"current_range_meters":17600,"station_id":"ce4bhih2rcd13ifvqfr0","pricing_plan_id":"cebpf4jnsgd1na2vs0mg"},{"bike_id":"0902f8f5-2693-425a-bff3-5d901bf02c48","system_id":"levelo_inurba_marseille","lat":43.23964,"lon":5.36637,"is_reserved":false,"is_disabled":false,"rental_uris":{"android":"levelo://app?vid=0902f8f5-2693-425a-bff3-5d901bf02c48","ios":"levelo://app?vid=0902f8f5-2693-425a-bff3-5d901bf02c48"},"vehicle_type_id":"4","last_reported":1760987337,"current_range_meters":17600,"station_id":"ce4bhi12rcd13ifvqfp0","pricing_plan_id":"cebpf4jnsgd1na2vs0mg"},{"bike_id":"8fb692f4-0aed-49cc-8723-a59420d78bf1","system_id":"levelo_inurba_marseille","lat":43.25088,"lon":5.39517,"is_reserved":false,"is_disabled":false,"rental_uris":{"android":"levelo://app?vid=8fb692f4-0aed-49cc-8723-a59420d78bf1","ios":"levelo://app?vid=8fb692f4-0aed-49cc-8723-a59420d78bf1"},"vehicle_type_id":"4","last_reported":1760987337,"current_range_meters":17600,"station_id":"ce4bhm12rcd13ifvqgkg","pricing_plan_id":"cebpf4jnsgd1na2vs0mg"},{"bike_id":"6eedd8e4-c918-4b0f-b7d9-492bb45d7c1a","system_id":"levelo_inurba_marseille","lat":43.31274,"lon":5.40166,"is_reserved":false,"is_disabled":false,"rental_uris":{"android":"levelo://app?vid=6eedd8e4-c918-4b0f-b7d9-492bb45d7c1a","ios":"levelo://app?vid=6eedd8e4-c918-4b0f-b7d9-492bb45d7c1a"},"vehicle_type_id":"4","last_reported":1760987337,"current_range_meters":17600,"station_id":"ce4bh092rcd13ifvqd30","pricing_plan_id":"cebpf4jnsgd1na2vs0mg"},{"bike_id":"2de33150-4d82-4955-8fc3-7cb2d5909441","system_id":"levelo_inurba_marseille","lat":43.2804,"lon":5.36942,"is_reserved":false,"is_disabled":false,"rental_uris":{"android":"levelo://app?vid=2de33150-4d82-4955-8fc3-7cb2d5909441","ios":"levelo://app?vid=2de33150-4d82-4955-8fc3-7cb2d5909441"},"vehicle_type_id":"4","last_reported":1760987337,"current_range_meters":17600,"station_id":"ce4bha12rcd13ifvqef0","pricing_plan_id":"cebpf4jnsgd1na2vs0mg"},{"bike_id":"1a363257-6960-40c3-b98f-57aad6679084","system_id":"levelo_inurba_marseille","lat":43.29214,"lon":5.39325,"is_reserved":false,"is_disabled":false,"rental_uris":{"android":"levelo://app?vid=1a363257-6960-40c3-b98f-57aad6679084","ios":"levelo://app?vid=1a363257-6960-40c3-b98f-57aad6679084"},"vehicle_type_id":"4","last_reported":1760987337,"current_range_meters":17600,"station_id":"ce4bh192rcd13ifvqdd0","pricing_plan_id":"cebpf4jnsgd1na2vs0mg"},{"bike_id":"02be1eb4-e96e-4b52-bee4-2b440854ec16","system_id":"levelo_inurba_marseille","lat":43.27922,"lon":5.39577,"is_reserved":false,"is_disabled":false,"rental_uris":{"android":"levelo://app?vid=02be1eb4-e96e-4b52-bee4-2b440854ec16","ios":"levelo://app?vid=02be1eb4-e96e-4b52-bee4-2b440854ec16"},"vehicle_type_id":"4","last_reported":1760987337,"current_range_meters":17600,"station_id":"ce4bhf92rcd13ifvqf40","pricing_plan_id":"cebpf4jnsgd1na2vs0mg"},{"bike_id":"e87beb78-4b85-4665-97c6-18b2c40f207c","system_id":"levelo_inurba_marseille","lat":43.27491,"lon":5.42449,"is_reserved":false,"is_disabled":false,"rental_uris":{"android":"levelo://app?vid=e87beb78-4b85-4665-97c6-18b2c40f207c","ios":"levelo://app?vid=e87beb78-4b85-4665-97c6-18b2c40f207c"},"vehicle_type_id":"4","last_reported":1760987337,"current_range_meters":17600,"station_id":"ce4bhn92rcd13ifvqgrg","pricing_plan_id":"cebpf4jnsgd1na2vs0mg"},{"bike_id":"c9c1af49-9e6d-4de6-adde-aea85d12b1bb","system_id":"levelo_inurba_marseille","lat":43.32566,"lon":5.42421,"is_reserved":false,"is_disabled":false,"rental_uris":{"android":"levelo://app?vid=c9c1af49-9e6d-4de6-adde-aea85d12b1bb","ios":"levelo://app?vid=c9c1af49-9e6d-4de6-adde-aea85d12b1bb"},"vehicle_type_id":"4","last_reported":1760987337,"current_range_meters":17600,"station_id":"","pricing_plan_id":"cebpf4jnsgd1na2vs0mg"},{"bike_id":"fecf653e-223b-4394-a7ea-de2ae7d6b3db","system_id":"levelo_inurba_marseille","lat":43.28659,"lon":5.3635,"is_reserved":false,"is_disabled":false,"rental_uris":{"android":"levelo://app?vid=fecf653e-223b-4394-a7ea-de2ae7d6b3db","ios":"levelo://app?vid=fecf653e-223b-4394-a7ea-de2ae7d6b3db"},"vehicle_type_id":"4","last_reported":1760987337,"current_range_meters":17600,"station_id":"ce4bhah2rcd13ifvqej0","pricing_plan_id":"cebpf4jnsgd1na2vs0mg"},{"bike_id":"1de6ebd8-d371-4192-8a8a-740773cc8f40","system_id":"levelo_inurba_marseille","lat":43.28647,"lon":5.38548,"is_reserved":false,"is_disabled":false,"rental_uris":{"android":"levelo://app?vid=1de6ebd8-d371-4192-8a8a-740773cc8f40","ios":"levelo://app?vid=1de6ebd8-d371-4192-8a8a-740773cc8f40"},"vehicle_type_id":"4","last_reported":1760987337,"current_range_meters":18000,"station_id":"","pricing_plan_id":"cebpf4jnsgd1na2vs0mg"},{"bike_id":"326efe0c-d68a-41d8-9299-2582ccef39c8","system_id":"levelo_inurba_marseille","lat":43.2987,"lon":5.39745,"is_reserved":false,"is_disabled":false,"rental_uris":{"android":"levelo://app?vid=326efe0c-d68a-41d8-9299-2582ccef39c8","ios":"levelo://app?vid=326efe0c-d68a-41d8-9299-2582ccef39c8"},"vehicle_type_id":"4","last_reported":1760987337,"current_range_meters":18000,"station_id":"ce4bh0h2rcd13ifvqd50","pricing_plan_id":"cebpf4jnsgd1na2vs0mg"},{"bike_id":"393cb4aa-a852-46d8-91f6-053fce75cf93","system_id":"levelo_inurba_marseille","lat":43.27485,"lon":5.42459,"is_reserved":false,"is_disabled":true,"rental_uris":{"android":"levelo://app?vid=393cb4aa-a852-46d8-91f6-053fce75cf93","ios":"levelo://app?vid=393cb4aa-a852-46d8-91f6-053fce75cf93"},"vehicle_type_id":"4","last_reported":1760987337,"current_range_meters":18000,"station_id":"ce4bhn92rcd13ifvqgrg","pricing_plan_id":"cebpf4jnsgd1na2vs0mg"},{"bike_id":"d21d91e8-7a75-4548-82c3-1b3109a71ef6","system_id":"levelo_inurba_marseille","lat":43.33166,"lon":5.35511,"is_reserved":false,"is_disabled":false,"rental_uris":{"android":"levelo://app?vid=d21d91e8-7a75-4548-82c3-1b3109a71ef6","ios":"levelo://app?vid=d21d91e8-7a75-4548-82c3-1b3109a71ef6"},"vehicle_type_id":"4","last_reported":1760987337,"current_range_meters":18000,"station_id":"","pricing_plan_id":"cebpf4jnsgd1na2vs0mg"},{"bike_id":"5128c0fe-4dbd-436c-953e-b5f17c8ff496","system_id":"levelo_inurba_marseille","lat":43.244,"lon":5.37058,"is_reserved":false,"is_disabled":true,"rental_uris":{"android":"levelo://app?vid=5128c0fe-4dbd-436c-953e-b5f17c8ff496","ios":"levelo://app?vid=5128c0fe-4dbd-436c-953e-b5f17c8ff496"},"vehicle_type_id":"4","last_reported":1760987337,"current_range_meters":18000,"station_id":"ce4bhhh2rcd13ifvqfk0","pricing_plan_id":"cebpf4jnsgd1na2vs0mg"},{"bike_id":"f1b8e04f-457e-461e-a0a7-0d512845fe50","system_id":"levelo_inurba_marseille","lat":43.34085,"lon":5.40405,"is_reserved":false,"is_disabled":false,"rental_uris":{"android":"levelo://app?vid=f1b8e04f-457e-461e-a0a7-0d512845fe50","ios":"levelo://app?vid=f1b8e04f-457e-461e-a0a7-0d512845fe50"},"vehicle_type_id":"4","last_reported":1760987337,"current_range_meters":18000,"station_id":"","pricing_plan_id":"cebpf4jnsgd1na2vs0mg"},