{"last_updated":1713200794,"ttl":30,"version":"2.2","data":{"bikes":[{"bike_id":"5774845b-c74a-4ded-b07a-4cca30c14a9a","system_id":"levelo_inurba_marseille","lat":43.309076,"lon":5.368465,"is_reserved":false,"is_disabled":false,"rental_uris":{"android":"levelo://app?vid=5774845b-c74a-4ded-b07a-4cca30c14a9a","ios":"levelo://app?vid=5774845b-c74a-4ded-b07a-4cca30c14a9a"},"vehicle_type_id":"4","last_reported":1713200794,"current_range_meters":2400,"station_id":"ce4bgn92rcd13ifvqbvg","pricing_plan_id":"cebpf4jnsgd1na2vs0mg"},{"bike_id":"6e1c13f5-20a4-4fc2-8504-e0a7bebf6aba","system_id":"levelo_inurba_marseille","lat":43.314811,"lon":5.373104,"is_reserved":false,"is_disabled":false,"rental_uris":{"android":"levelo://app?vid=6e1c13f5-20a4-4fc2-8504-e0a7bebf6aba","ios":"levelo://app?vid=6e1c13f5-20a4-4fc2-8504-e0a7bebf6aba"},"vehicle_type_id":"4","last_reported":1713200794,"current_range_meters":4000,"station_id":"ce4bgt12rcd13ifvqcd0","pricing_plan_id":"cebpf4jnsgd1na2vs0mg"},{"bike_id":"2dbaf57b-3d1f-46c6-92cd-85f8cbf25bbd","system_id":"levelo_inurba_marseille","lat":43.314811,"lon":5.373103,"is_reserved":false,"is_disabled":false,"rental_uris":{"android":"levelo://app?vid=2dbaf57b-3d1f-46c6-92cd-85f8cbf25bbd","ios":"levelo://app?vid=2dbaf57b-3d1f-46c6-92cd-85f8cbf25bbd"},"vehicle_type_id":"4","last_reported":1713200794,"current_range_meters":9600,"station_id":"ce4bgt12rcd13ifvqcd0","pricing_plan_id":"cebpf4jnsgd1na2vs0mg"},{"bike_id":"6a9d36f4-5bd4-4cf7-9fdf-61410dfa49d6","system_id":"levelo_inurba_marseille","lat":43.315293,"lon":5.380349,"is_reserved":false,"is_disabled":false,"rental_uris":{"android":"levelo://app?vid=6a9d36f4-5bd4-4cf7-9fdf-61410dfa49d6","ios":"levelo://app?vid=6a9d36f4-5bd4-4cf7-9fdf-61410dfa49d6"},"vehicle_type_id":"4","last_reported":1713200794,"current_range_meters":6000,"station_id":"ce4bhsp2rcd13ifvqi50","pricing_plan_id":"cebpf4jnsgd1na2vs0mg"},{"bike_id":"566ce73c-4b54-45a5-ab33-50d576be5f7c","system_id":"levelo_inurba_marseille","lat":43.30537,"lon":5.367345,"is_reserved":false,"is_disabled":false,"rental_uris":{"android":"levelo://app?vid=566ce73c-4b54-45a5-ab33-50d576be5f7c","ios":"levelo://app?vid=566ce73c-4b54-45a5-ab33-50d576be5f7c"},"vehicle_type_id":"4","last_reported":1713200794,"current_range_meters":0,"station_id":"ce4bgrp2rcd13ifvqc9g","pricing_plan_id":"cebpf4jnsgd1na2vs0mg"},{"bike_id":"dfcbcd85-81f1-47e8-b940-f76b938d6d20","system_id":"levelo_inurba_marseille","lat":43.30554,"lon":5.36704,"is_reserved":false,"is_disabled":false,"rental_uris":{"android":"levelo://app?vid=dfcbcd85-81f1-47e8-b940-f76b938d6d20","ios":"levelo://app?vid=dfcbcd85-81f1-47e8-b940-f76b938d6d20"},"vehicle_type_id":"4","last_reported":1713200794,"current_range_meters":0,"station_id":"ce4bgrp2rcd13ifvqc9g","pricing_plan_id":"cebpf4jnsgd1na2vs0mg"},{"bike_id":"db1a23c8-b1c2-4dca-9619-bf9b999924dd","system_id":"levelo_inurba_marseille","lat":43.305706,"lon":5.365654,"is_reserved":false,"is_disabled":false,"rental_uris":{"android":"levelo://app?vid=db1a23c8-b1c2-4dca-9619-bf9b999924dd","ios":"levelo://app?vid=db1a23c8-b1c2-4dca-9619-bf9b999924dd"},"vehicle_type_id":"4","last_reported":1713200794,"current_range_meters":0,"station_id":"ce4bgs12rcd13ifvqcag","pricing_plan_id":"cebpf4jnsgd1na2vs0mg"},{"bike_id":"e5837103-4d5b-4fcd-8014-70ea6e1aa46f","system_id":"levelo_inurba_marseille","lat":43.299222,"lon":5.365554,"is_reserved":false,"is_disabled":false,"rental_uris":{"android":"levelo://app?vid=e5837103-4d5b-4fcd-8014-70ea6e1aa46f","ios":"levelo://app?vid=e5837103-4d5b-4fcd-8014-70ea6e1aa46f"},"vehicle_type_id":"4","last_reported":1713200794,"current_range_meters":0,"station_id":"ce4bgm92rcd13ifvqbr0","pricing_plan_id":"cebpf4jnsgd1na2vs0mg"},{"bike_id":"9c9ed053-16c3-4424-8636-710a21a2fbc8","system_id":"levelo_inurba_marseille","lat":43.306116,"lon":5.372164,"is_reserved":false,"is_disabled":false,"rental_uris":{"android":"levelo://app?vid=9c9ed053-16c3-4424-8636-710a21a2fbc8","ios":"levelo://app?vid=9c9ed053-16c3-4424-8636-710a21a2fbc8"},"vehicle_type_id":"4","last_reported":1713200794,"current_range_meters":2000,"station_id":"ce4bgqh2rcd13ifvqc4g","pricing_plan_id":"cebpf4jnsgd1na2vs0mg"},{"bike_id":"69fdbb61-a453-4047-9aad-85811db0522e","system_id":"levelo_inurba_marseille","lat":43.305989,"lon":5.37225,"is_reserved":false,"is_disabled":false,"rental_uris":{"android":"levelo://app?vid=69fdbb61-a453-4047-9aad-85811db0522e","ios":"levelo://app?vid=69fdbb61-a453-4047-9aad-85811db0522e"},"vehicle_type_id":"4","last_reported":1713200794,"current_range_meters":0,"station_id":"ce4bgqh2rcd13ifvqc4g","pricing_plan_id":"cebpf4jnsgd1na2vs0mg"},{"bike_id":"6b76725c-f4eb-433d-b0e9-a3db7cb44497","system_id":"levelo_inurba_marseille","lat":43.311125,"lon":5.377624,"is_reserved":false,"is_disabled":false,"rental_uris":{"android":"levelo://app?vid=6b76725c-f4eb-433d-b0e9-a3db7cb44497","ios":"levelo://app?vid=6b76725c-f4eb-433d-b0e9-a3db7cb44497"},"vehicle_type_id":"4","last_reported":1713200794,"current_range_meters":6400,"station_id":"ce4bgt92rcd13ifvqcg0","pricing_plan_id":"cebpf4jnsgd1na2vs0mg"},{"bike_id":"e3151335-a62c-4a77-ac37-b2eda60b0bb6","system_id":"levelo_inurba_marseille","lat":43.311131,"lon":5.377651,"is_reserved":false,"is_disabled":false,"rental_uris":{"android":"levelo://app?vid=e3151335-a62c-4a77-ac37-b2eda60b0bb6","ios":"levelo://app?vid=e3151335-a62c-4a77-ac37-b2eda60b0bb6"},"vehicle_type_id":"4","last_reported":1713200794,"current_range_meters":18000,"station_id":"ce4bgt92rcd13ifvqcg0","pricing_plan_id":"cebpf4jnsgd1na2vs0mg"},{"bike_id":"34be15a2-7720-4b21-9fcc-19a2bd4e8dcf","system_id":"levelo_inurba_marseille","lat":43.307878,"lon":5.37652,"is_reserved":false,"is_disabled":false,"rental_uris":{"android":"levelo://app?vid=34be15a2-7720-4b21-9fcc-19a2bd4e8dcf","ios":"levelo://app?vid=34be15a2-7720-4b21-9fcc-19a2bd4e8dcf"},"vehicle_type_id":"4","last_reported":1713200794,"current_range_meters":12400,"station_id":"ce4bgv92rcd13ifvqcq0","pricing_plan_id":"cebpf4jnsgd1na2vs0mg"},{"bike_id":"b5bb3a04-66ff-4d18-999b-1d948cf03ef4","system_id":"levelo_inurba_marseille","lat":43.317075,"lon":5.377367,"is_reserved":false,"is_disabled":false,"rental_uris":{"android":"levelo://app?vid=b5bb3a04-66ff-4d18-999b-1d948cf03ef4","ios":"levelo://app?vid=b5bb3a04-66ff-4d18-999b-1d948cf03ef4"},"vehicle_type_id":"4","last_reported":1713200794,"current_range_meters":4000,"station_id":"ce4bgth2rcd13ifvqch0","pricing_plan_id":"cebpf4jnsgd1na2vs0mg"},{"bike_id":"01d8d732-b95a-4022-aa02-9beba29077b0","system_id":"levelo_inurba_marseille","lat":43.317075,"lon":5.377367,"is_reserved":false,"is_disabled":false,"rental_uris":{"android":"levelo://app?vid=01d8d732-b95a-4022-aa02-9beba29077b0","ios":"levelo://app?vid=01d8d732-b95a-4022-aa02-9beba29077b0"},"vehicle_type_id":"4","last_reported":1713200794,"current_range_meters":6800,"station_id":"ce4bgth2rcd13ifvqch0","pricing_plan_id":"cebpf4jnsgd1na2vs0mg"},{"bike_id":"ef430d45-28bc-40cf-a43f-a2d54aeffab7","system_id":"levelo_inurba_marseille","lat":43.317075,"lon":5.377367,"is_reserved":false,"is_disabled":false,"rental_uris":{"android":"levelo://app?vid=ef430d45-28bc-40cf-a43f-a2d54aeffab7","ios":"levelo://app?vid=ef430d45-28bc-40cf-a43f-a2d54aeffab7"},"vehicle_type_id":"4","last_reported":1713200794,"current_range_meters":4400,"station_id":"ce4bgth2rcd13ifvqch0","pricing_plan_id":"cebpf4jnsgd1na2vs0mg"},{"bike_id":"a81f520d-58c2-437b-8f67-5117d3ecd32b","system_id":"levelo_inurba_marseille","lat":43.31005,"lon":5.38016,"is_reserved":false,"is_disabled":false,"rental_uris":{"android":"levelo://app?vid=a81f520d-58c2-437b-8f67-5117d3ecd32b","ios":"levelo://app?vid=a81f520d-58c2-437b-8f67-5117d3ecd32b"},"vehicle_type_id":"4","last_reported":1713200794,"current_range_meters":400,"station_id":"ce4bgv92rcd13ifvqcr0","pricing_plan_id":"cebpf4jnsgd1na2vs0mg"},{"bike_id":"3d698e7d-edd9-4a0f-960b-4500c0546a47","system_id":"levelo_inurba_marseille","lat":43.315293,"lon":5.380349,"is_reserved":false,"is_disabled":false,"rental_uris":{"android":"levelo://app?vid=3d698e7d-edd9-4a0f-960b-4500c0546a47","ios":"levelo://app?vid=3d698e7d-edd9-4a0f-960b-4500c0546a47"},"vehicle_type_id":"4","last_reported":1713200794,"current_range_meters":20400,"station_id":"ce4bhsp2rcd13ifvqi50","pricing_plan_id":"cebpf4jnsgd1na2vs0mg"},{"bike_id":"a8ee5f63-5861-4d05-b05f-db8e8d958f7a","system_id":"levelo_inurba_marseille","lat":43.315289,"lon":5.380349,"is_reserved":false,"is_disabled":false,"rental_uris":{"android":"levelo://app?vid=a8ee5f63-5861-4d05-b05f-db8e8d958f7a","ios":"levelo://app?vid=a8ee5f63-5861-4d05-b05f-db8e8d958f7a"},"vehicle_type_id":"4","last_reported":1713200794,"current_range_meters":4400,"station_id":"ce4bhsp2rcd13ifvqi50","pricing_plan_id":"cebpf4jnsgd1na2vs0mg"},{"bike_id":"96124cb2-356a-45fd-9cda-f6155e8ca01f","system_id":"levelo_inurba_marseille","lat":43.30808,"lon":5.38166,"is_reserved":false,"is_disabled":false,"rental_uris":{"android":"levelo://app?vid=96124cb2-356a-45fd-9cda-f6155e8ca01f","ios":"levelo://app?vid=96124cb2-356a-45fd-9cda-f6155e8ca01f"},"vehicle_type_id":"4","last_reported":1713200794,"current_range_meters":0,"station_id":"ce4bgt12rcd13ifvqce0","pricing_plan_id":"cebpf4jnsgd1na2vs0mg"},{"bike_id":"24ac1610-5bf7-4d41-b544-b08ac21d48ea","system_id":"levelo_inurba_marseille","lat":43.282744,"lon":5.350533,"is_reserved":false,"is_disabled":false,"rental_uris":{"android":"levelo://app?vid=24ac1610-5bf7-4d41-b544-b08ac21d48ea","ios":"levelo://app?vid=24ac1610-5bf7-4d41-b544-b08ac21d48ea"},"vehicle_type_id":"4","last_reported":1713200794,"current_range_meters":4400,"station_id":"ce4bhbp2rcd13ifvqerg","pricing_plan_id":"cebpf4jnsgd1na2vs0mg"},{"bike_id":"ae1cd694-1d8c-4a03-9444-3d7f1e723fd8","system_id":"levelo_inurba_marseille","lat":43.324771,"lon":5.36557,"is_reserved":false,"is_disabled":false,"rental_uris":{"android":"levelo://app?vid=ae1cd694-1d8c-4a03-9444-3d7f1e723fd8","ios":"levelo://app?vid=ae1cd694-1d8c-4a03-9444-3d7f1e723fd8"},"vehicle_type_id":"4","last_reported":1713200794,"current_range_meters":12000,"station_id":"ce4bhs12rcd13ifvqhvg","pricing_plan_id":"cebpf4jnsgd1na2vs0mg"},{"bike_id":"50dc5783-03bc-4351-873a-4db9f8b5417b","system_id":"levelo_inurba_marseille","lat":43.324771,"lon":5.36557,"is_reserved":false,"is_disabled":false,"rental_uris":{"android":"levelo://app?vid=50dc5783-03bc-4351-873a-4db9f8b5417b","ios":"levelo://app?vid=50dc5783-03bc-4351-873a-4db9f8b5417b"},"vehicle_type_id":"4","last_reported":1713200794,"current_range_meters":0,"station_id":"ce4bhs12rcd13ifvqhvg","pricing_plan_id":"cebpf4jnsgd1na2vs0mg"},{"bike_id":"29c3efd6-e3a9-4fa6-96a4-d057b8b0168a","system_id":"levelo_inurba_marseille","lat":43.31068,"lon":5.3835,"is_reserved":false,"is_disabled":false,"rental_uris":{"android":"levelo://app?vid=29c3efd6-e3a9-4fa6-96a4-d057b8b0168a","ios":"levelo://app?vid=29c3efd6-e3a9-4fa6-96a4-d057b8b0168a"},"vehicle_type_id":"4","last_reported":1713200794,"current_range_meters":0,"station_id":"ce4bgv92rcd13ifvqcr0","pricing_plan_id":"cebpf4jnsgd1na2vs0mg"},{"bike_id":"4b60f9ef-ea5d-46cd-9895-c76ddde103e7","system_id":"levelo_inurba_marseille","lat":43.310746,"lon":5.383571,"is_reserved":false,"is_disabled":false,"rental_uris":{"android":"levelo://app?vid=4b60f9ef-ea5d-46cd-9895-c76ddde103e7","ios":"levelo://app?vid=4b60f9ef-ea5d-46cd-9895-c76ddde103e7"},"vehicle_type_id":"4","last_reported":1713200794,"current_range_meters":0,"station_id":"ce4bgv92rcd13ifvqcr0","pricing_plan_id":"cebpf4jnsgd1na2vs0mg"},{"bike_id":"18608ca9-e9b8-4bb7-b6c0-ed59c41119ce","system_id":"levelo_inurba_marseille","lat":43.298433,"lon":5.362774,"is_reserved":false,"is_disabled":false,"rental_uris":{"android":"levelo://app?vid=18608ca9-e9b8-4bb7-b6c0-ed59c41119ce","ios":"levelo://app?vid=18608ca9-e9b8-4bb7-b6c0-ed59c41119ce"},"vehicle_type_id":"4","last_reported":1713200794,"current_range_meters":15200,"station_id":"ce4bgpp2rcd13ifvqc3g","pricing_plan_id":"cebpf4jnsgd1na2vs0mg"},{"bike_id":"0eb27a59-ae72-4ece-856d-7b71857423c5","system_id":"levelo_inurba_marseille","lat":43.310804,"lon":5.38359,"is_reserved":false,"is_disabled":false,"rental_uris":{"android":"levelo://app?vid=0eb27a59-ae72-4ece-856d-7b71857423c5","ios":"levelo://app?vid=0eb27a59-ae72-4ece-856d-7b71857423c5"},"vehicle_type_id":"4","last_reported":1713200794,"current_range_meters":0,"station_id":"ce4bgv92rcd13ifvqcr0","pricing_plan_id":"cebpf4jnsgd1na2vs0mg"},{"bike_id":"805dcae7-0d34-4ba5-bf3b-cdb069e3fbc8","system_id":"levelo_inurba_marseille","lat":43.310804,"lon":5.38359,"is_reserved":false,"is_disabled":false,"rental_uris":{"android":"levelo://app?vid=805dcae7-0d34-4ba5-bf3b-cdb069e3fbc8","ios":"levelo://app?vid=805dcae7-0d34-4ba5-bf3b-cdb069e3fbc8"},"vehicle_type_id":"4","last_reported":1713200794,"current_range_meters":13600,"station_id":"ce4bgv92rcd13ifvqcr0","pricing_plan_id":"cebpf4jnsgd1na2vs0mg"},{"bike_id":"0d10eb1b-6f20-4fc9-891a-de16986f1a33","system_id":"levelo_inurba_marseille","lat":43.310804,"lon":5.38359,"is_reserved":false,"is_disabled":false,"rental_uris":{"android":"levelo://app?vid=0d10eb1b-6f20-4fc9-891a-de16986f1a33","ios":"levelo://app?vid=0d10eb1b-6f20-4fc9-891a-de16986f1a33"},"vehicle_type_id":"4","last_reported":1713200794,"current_range_meters":30000,"station_id":"ce4bgv92rcd13ifvqcr0","pricing_plan_id":"cebpf4jnsgd1na2vs0mg"},{"bike_id":"4421b832-e644-46ca-8a3a-47d02e562c17","system_id":"levelo_inurba_marseille","lat":43.30143,"lon":5.37413,"is_reserved":false,"is_disabled":false,"rental_uris":{"android":"levelo://app?vid=4421b832-e644-46ca-8a3a-47d02e562c17","ios":"levelo://app?vid=4421b832-e644-46ca-8a3a-47d02e562c17"},"vehicle_type_id":"4","last_reported":1713200794,"current_range_meters":8800,"station_id":"ce4bgs92rcd13ifvqcc0","pricing_plan_id":"cebpf4jnsgd1na2vs0mg"},{"bike_id":"9ec4616c-37b8-40fb-bd58-07d1211193f0","system_id":"levelo_inurba_marseille","lat":43.314582,"lon":5.384216,"is_reserved":false,"is_disabled":false,"rental_uris":{"android":"levelo://app?vid=9ec4616c-37b8-40fb-bd58-07d1211193f0","ios":"levelo://app?vid=9ec4616c-37b8-40fb-bd58-07d1211193f0"},"vehicle_type_id":"4","last_reported":1713200794,"current_range_meters":0,"station_id":"","pricing_plan_id":"cebpf4jnsgd1na2vs0mg"},{"bike_id":"daa0325e-f213-47ea-b397-49e30d2b9c1d","system_id":"levelo_inurba_marseille","lat":43.31997,"lon":5.38141,"is_reserved":false,"is_disabled":false,"rental_uris":{"android":"levelo://app?vid=daa0325e-f213-47ea-b397-49e30d2b9c1d","ios":"levelo://app?vid=daa0325e-f213-47ea-b397-49e30d2b9c1d"},"vehicle_type_id":"4","last_reported":1713200794,"current_range_meters":0,"station_id":"ce4bhr12rcd13ifvqhpg","pricing_plan_id":"cebpf4jnsgd1na2vs0mg"},{"bike_id":"b0b0397d-d18e-4ca1-b8cb-90aa92f7aa5c","system_id":"levelo_inurba_marseille","lat":43.319935,"lon":5.381699,"is_reserved":false,"is_disabled":false,"rental_uris":{"android":"levelo://app?vid=b0b0397d-d18e-4ca1-b8cb-90aa92f7aa5c","ios":"levelo://app?vid=b0b0397d-d18e-4ca1-b8cb-90aa92f7aa5c"},"vehicle_type_id":"4","last_reported":1713200794,"current_range_meters":26400,"station_id":"ce4bhr12rcd13ifvqhpg","pricing_plan_id":"cebpf4jnsgd1na2vs0mg"},{"bike_id":"83eb63e5-319d-49d8-99fb-9f00bec5ed55","system_id":"levelo_inurba_marseille","lat":43.31995,"lon":5.38165,"is_reserved":false,"is_disabled":false,"rental_uris":{"android":"levelo://app?vid=83eb63e5-319d-49d8-99fb-9f00bec5ed55","ios":"levelo://app?vid=83eb63e5-319d-49d8-99fb-9f00bec5ed55"},"vehicle_type_id":"4","last_reported":1713200794,"current_range_meters":13600,"station_id":"ce4bhr12rcd13ifvqhpg","pricing_plan_id":"cebpf4jnsgd1na2vs0mg"},{"bike_id":"bca2d5a2-5926-4b91-85f4-67182746abac","system_id":"levelo_inurba_marseille","lat":43.31354,"lon":5.38482,"is_reserved":false,"is_disabled":false,"rental_uris":{"android":"levelo://app?vid=bca2d5a2-5926-4b91-85f4-67182746abac","ios":"levelo://app?vid=bca2d5a2-5926-4b91-85f4-67182746abac"},"vehicle_type_id":"4","last_reported":1713200794,"current_range_meters":31200,"station_id":"ce4bgt92rcd13ifvqcf0","pricing_plan_id":"cebpf4jnsgd1na2vs0mg"},{"bike_id":"d454a361-5334-4b47-b65b-f3b59a2d2b2c","system_id":"levelo_inurba_marseille","lat":43.284219,"lon":5.3497,"is_reserved":false,"is_disabled":false,"rental_uris":{"android":"levelo://app?vid=d454a361-5334-4b47-b65b-f3b59a2d2b2c","ios":"levelo://app?vid=d454a361-5334-4b47-b65b-f3b59a2d2b2c"},"vehicle_type_id":"4","last_reported":1713200794,"current_range_meters":16800,"station_id":"ce4bhbh2rcd13ifvqepg","pricing_plan_id":"cebpf4jnsgd1na2vs0mg"},{"bike_id":"9daee2d4-19df-4f78-927e-1850e029b55d","system_id":"levelo_inurba_marseille","lat":43.313571,"lon":5.384829,"is_reserved":false,"is_disabled":false,"rental_uris":{"android":"levelo://app?vid=9daee2d4-19df-4f78-927e-1850e029b55d","ios":"levelo://app?vid=9daee2d4-19df-4f78-927e-1850e029b55d"},"vehicle_type_id":"4","last_reported":1713200794,"current_range_meters":11600,"station_id":"ce4bgt92rcd13ifvqcf0","pricing_plan_id":"cebpf4jnsgd1na2vs0mg"},{"bike_id":"4d42865f-1fa7-45f3-a978-364399402989","system_id":"levelo_inurba_marseille","lat":43.313606,"lon":5.38489,"is_reserved":false,"is_disabled":false,"rental_uris":{"android":"levelo://app?vid=4d42865f-1fa7-45f3-a978-364399402989","ios":"levelo://app?vid=4d42865f-1fa7-45f3-a978-364399402989"},"vehicle_type_id":"4","last_reported":1713200794,"current_range_meters":29200,"station_id":"ce4bgt92rcd13ifvqcf0","pricing_plan_id":"cebpf4jnsgd1na2vs0mg"},{"bike_id":"7ce6dcb6-da60-44d2-afc3-00559541fd7e","system_id":"levelo_inurba_marseille","lat":43.313635,"lon":5.384898,"is_reserved":false,"is_disabled":false,"rental_uris":{"android":"levelo://app?vid=7ce6dcb6-da60-44d2-afc3-00559541fd7e","ios":"levelo://app?vid=7ce6dcb6-da60-44d2-afc3-00559541fd7e"},"vehicle_type_id":"4","last_reported":1713200794,"current_range_meters":0,"station_id":"ce4bgt92rcd13ifvqcf0","pricing_plan_id":"cebpf4jnsgd1na2vs0mg"},{"bike_id":"26237e02-ecab-4b4b-bc24-03809f316507","system_id":"levelo_inurba_marseille","lat":43.313571,"lon":5.384829,"is_reserved":false,"is_disabled":false,"rental_uris":{"android":"levelo://app?vid=26237e02-ecab-4b4b-bc24-03809f316507","ios":"levelo://app?vid=26237e02-ecab-4b4b-bc24-03809f316507"},"vehicle_type_id":"4","last_reported":1713200794,"current_range_meters":0,"station_id":"ce4bgt92rcd13ifvqcf0","pricing_plan_id":"cebpf4jnsgd1na2vs0mg"},{"bike_id":"4776135a-d919-4e0d-bcc0-4785e4a0ca56","system_id":"levelo_inurba_marseille","lat":43.313571,"lon":5.384829,"is_reserved":false,"is_disabled":false,"rental_uris":{"android":"levelo://app?vid=4776135a-d919-4e0d-bcc0-4785e4a0ca56","ios":"levelo://app?vid=4776135a-d919-4e0d-bcc0-4785e4a0ca56"},"vehicle_type_id":"4","last_reported":1713200794,"current_range_meters":4800,"station_id":"ce4bgt92rcd13ifvqcf0","pricing_plan_id":"cebpf4jnsgd1na2vs0mg"},{"bike_id":"2c331106-fa75-4bbb-8f11-f9bfdf01ad23","system_id":"levelo_inurba_marseille","lat":43.313704,"lon":5.384913,"is_reserved":false,"is_disabled":false,"rental_uris":{"android":"levelo://app?vid=2c331106-fa75-4bbb-8f11-f9bfdf01ad23","ios":"levelo://app?vid=2c331106-fa75-4bbb-8f11-f9bfdf01ad23"},"vehicle_type_id":"4","last_reported":1713200794,"current_range_meters":24000,"station_id":"ce4bgt92rcd13ifvqcf0","pricing_plan_id":"cebpf4jnsgd1na2vs0mg"},{"bike_id":"54e9ec60-678d-410c-9b56-2fc6b28b566b","system_id":"levelo_inurba_marseille","lat":43.313571,"lon":5.384829,"is_reserved":false,"is_disabled":false,"rental_uris":{"android":"levelo://app?vid=54e9ec60-678d-410c-9b56-2fc6b28b566b","ios":"levelo://app?vid=54e9ec60-678d-410c-9b56-2fc6b28b566b"},"vehicle_type_id":"4","last_reported":1713200794,"current_range_meters":20000,"station_id":"ce4bgt92rcd13ifvqcf0","pricing_plan_id":"cebpf4jnsgd1na2vs0mg"},{"bike_id":"56248aa7-746a-4024-a764-1425fa5aff30","system_id":"levelo_inurba_marseille","lat":43.31371,"lon":5.38494,"is_reserved":false,"is_disabled":false,"rental_uris":{"android":"levelo://app?vid=56248aa7-746a-4024-a764-1425fa5aff30","ios":"levelo://app?vid=56248aa7-746a-4024-a764-1425fa5aff30"},"vehicle_type_id":"4","last_reported":1713200794,"current_range_meters":400,"station_id":"ce4bgt92rcd13ifvqcf0","pricing_plan_id":"cebpf4jnsgd1na2vs0mg"},{"bike_id":"8fbdf501-b7c0-4556-95fd-f207bd93c07f","system_id":"levelo_inurba_marseille","lat":43.31364,"lon":5.38496,"is_reserved":false,"is_disabled":false,"rental_uris":{"android":"levelo://app?vid=8fbdf501-b7c0-4556-95fd-f207bd93c07f","ios":"levelo://app?vid=8fbdf501-b7c0-4556-95fd-f207bd93c07f"},"vehicle_type_id":"4","last_reported":1713200794,"current_range_meters":10000,"station_id":"ce4bgt92rcd13ifvqcf0","pricing_plan_id":"cebpf4jnsgd1na2vs0mg"},{"bike_id":"4faa42d4-c89f-4291-8f38-9378ebd97398","system_id":"levelo_inurba_marseille","lat":43.31366,"lon":5.38498,"is_reserved":false,"is_disabled":false,"rental_uris":{"android":"levelo://app?vid=4faa42d4-c89f-4291-8f38-9378ebd97398","ios":"levelo://app?vid=4faa42d4-c89f-4291-8f38-9378ebd97398"},"vehicle_type_id":"4","last_reported":1713200794,"current_range_meters":18000,"station_id":"ce4bgt92rcd13ifvqcf0","pricing_plan_id":"cebpf4jnsgd1na2vs0mg"},{"bike_id":"21f7fc59-5415-4c10-949f-3e0126ac414f","system_id":"levelo_inurba_marseille","lat":43.31369,"lon":5.38513,"is_reserved":false,"is_disabled":false,"rental_uris":{"android":"levelo://app?vid=21f7fc59-5415-4c10-949f-3e0126ac414f","ios":"levelo://app?vid=21f7fc59-5415-4c10-949f-3e0126ac414f"},"vehicle_type_id":"4","last_reported":1713200794,"current_range_meters":22800,"station_id":"ce4bgt92rcd13ifvqcf0","pricing_plan_id":"cebpf4jnsgd1na2vs0mg"},{"bike_id":"ad379142-8f6f-4259-9936-250eb7e0f902","system_id":"levelo_inurba_marseille","lat":43.29936,"lon":5.36543,"is_reserved":false,"is_disabled":false,"rental_uris":{"android":"levelo://app?vid=ad379142-8f6f-4259-9936-250eb7e0f902","ios":"levelo://app?vid=ad379142-8f6f-4259-9936-250eb7e0f902"},"vehicle_type_id":"4","last_reported":1713200794,"current_range_meters":0,"station_id":"ce4bgm92rcd13ifvqbr0","pricing_plan_id":"cebpf4jnsgd1na2vs0mg"},{"bike_id":"8b807ad5-5f74-428e-bd1b-3f401fc5b607","system_id":"levelo_inurba_marseille","lat":43.311722,"lon":5.387247,"is_reserved":false,"is_disabled":false,"rental_uris":{"android":"levelo://app?vid=8b807ad5-5f74-428e-bd1b-3f401fc5b607","ios":"levelo://app?vid=8b807ad5-5f74-428e-bd1b-3f401fc5b607"},"vehicle_type_id":"4","last_reported":1713200794,"current_range_meters":24800,"station_id":"ce4bgv12rcd13ifvqcp0","pricing_plan_id":"cebpf4jnsgd1na2vs0mg"},{"bike_id":"6d1102aa-2119-4219-9011-b339ef35917c","system_id":"levelo_inurba_marseille","lat":43.298433,"lon":5.362774,"is_reserved":false,"is_disabled":false,"rental_uris":{"android":"levelo://app?vid=6d1102aa-2119-4219-9011-b339ef35917c","ios":"levelo://app?vid=6d1102aa-2119-4219-9011-b339ef35917c"},"vehicle_type_id":"4","last_reported":1713200794,"current_range_meters":7600,"station_id":"ce4bgpp2rcd13ifvqc3g","pricing_plan_id":"cebpf4jnsgd1na2vs0mg"},{"bike_id":"01bae698-300d-4737-9087-1caf76c709ff","system_id":"levelo_inurba_marseille","lat":43.29936,"lon":5.37483,"is_reserved":false,"is_disabled":false,"rental_uris":{"android":"levelo://app?vid=01bae698-300d-4737-9087-1caf76c709ff","ios":"levelo://app?vid=01bae698-300d-4737-9087-1caf76c709ff"},"vehicle_type_id":"4","last_reported":1713200794,"current_range_meters":6400,"station_id":"","pricing_plan_id":"cebpf4jnsgd1na2vs0mg"},{"bike_id":"bd715671-5f78-429c-b273-ad2e4379c0fa","system_id":"levelo_inurba_marseille","lat":43.298433,"lon":5.362774,"is_reserved":false,"is_disabled":false,"rental_uris":{"android":"levelo://app?vid=bd715671-5f78-429c-b273-ad2e4379c0fa","ios":"levelo://app?vid=bd715671-5f78-429c-b273-ad2e4379c0fa"},"vehicle_type_id":"4","last_reported":1713200794,"current_range_meters":5200,"station_id":"ce4bgpp2rcd13ifvqc3g","pricing_plan_id":"cebpf4jnsgd1na2vs0mg"},{"bike_id":"53f369c5-aa68-45c5-ae29-063a2c424909","system_id":"levelo_inurba_marseille","lat":43.298433,"lon":5.362774,"is_reserved":false,"is_disabled":false,"rental_uris":{"android":"levelo://app?vid=53f369c5-aa68-45c5-ae29-063a2c424909","ios":"levelo://app?vid=53f369c5-aa68-45c5-ae29-063a2c424909"},"vehicle_type_id":"4","last_reported":1713200794,"current_range_meters":6000,"station_id":"ce4bgpp2rcd13ifvqc3g","pricing_plan_id":"cebpf4jnsgd1na2vs0mg"},{"bike_id":"26d1a564-a37c-4d48-95bb-01e051329819","system_id":"levelo_inurba_marseille","lat":43.3119,"lon":5.38709,"is_reserved":false,"is_disabled":false,"rental_uris":{"android":"levelo://app?vid=26d1a564-a37c-4d48-95bb-01e051329819","ios":"levelo://app?vid=26d1a564-a37c-4d48-95bb-01e051329819"},"vehicle_type_id":"4","last_reported":1713200794,"current_range_meters":0,"station_id":"ce4bgv12rcd13ifvqcp0","pricing_plan_id":"cebpf4jnsgd1na2vs0mg"},{"bike_id":"4a9a818c-4cf9-4fc9-91b9-b029b1f03e81","system_id":"levelo_inurba_marseille","lat":43.311722,"lon":5.387247,"is_reserved":false,"is_disabled":false,"rental_uris":{"android":"levelo://app?vid=4a9a818c-4cf9-4fc9-91b9-b029b1f03e81","ios":"levelo://app?vid=4a9a818c-4cf9-4fc9-91b9-b029b1f03e81"},"vehicle_type_id":"4","last_reported":1713200794,"current_range_meters":22800,"station_id":"ce4bgv12rcd13ifvqcp0","pricing_plan_id":"cebpf4jnsgd1na2vs0mg"},{"bike_id":"b7627cd9-3531-482f-9ed5-712caaba5258","system_id":"levelo_inurba_marseille","lat":43.311722,"lon":5.387247,"is_reserved":false,"is_disabled":false,"rental_uris":{"android":"levelo://app?vid=b7627cd9-3531-482f-9ed5-712caaba5258","ios":"levelo://app?vid=b7627cd9-3531-482f-9ed5-712caaba5258"},"vehicle_type_id":"4","last_reported":1713200794,"current_range_meters":18000,"station_id":"ce4bgv12rcd13ifvqcp0","pricing_plan_id":"cebpf4jnsgd1na2vs0mg"},{"bike_id":"78532d35-c2ee-4777-a839-0df1b0ca6758","system_id":"levelo_inurba_marseille","lat":43.311722,"lon":5.387247,"is_reserved":false,"is_disabled":false,"rental_uris":{"android":"levelo://app?vid=78532d35-c2ee-4777-a839-0df1b0ca6758","ios":"levelo://app?vid=78532d35-c2ee-4777-a839-0df1b0ca6758"},"vehicle_type_id":"4","last_reported":1713200794,"current_range_meters":12800,"station_id":"ce4bgv12rcd13ifvqcp0","pricing_plan_id":"cebpf4jnsgd1na2vs0mg"},{"bike_id":"eba2208f-c0bc-4326-a3c3-cb2961f4e881","system_id":"levelo_inurba_marseille","lat":43.297794,"lon":5.370888,"is_reserved":false,"is_disabled":false,"rental_uris":{"android":"levelo://app?vid=eba2208f-c0bc-4326-a3c3-cb2961f4e881","ios":"levelo://app?vid=eba2208f-c0bc-4326-a3c3-cb2961f4e881"},"vehicle_type_id":"4","last_reported":1713200794,"current_range_meters":11200,"station_id":"ce4bgop2rcd13ifvqc1g","pricing_plan_id":"cebpf4jnsgd1na2vs0mg"},{"bike_id":"41e1b8b9-67c7-4b5f-a151-7002a2364962","system_id":"levelo_inurba_marseille","lat":43.322872,"lon":5.382756,"is_reserved":false,"is_disabled":false,"rental_uris":{"android":"levelo://app?vid=41e1b8b9-67c7-4b5f-a151-7002a2364962","ios":"levelo://app?vid=41e1b8b9-67c7-4b5f-a151-7002a2364962"},"vehicle_type_id":"4","last_reported":1713200794,"current_range_meters":13200,"station_id":"ce4bhr12rcd13ifvqhqg","pricing_plan_id":"cebpf4jnsgd1na2vs0mg"},{"bike_id":"3d5abd0e-d112-44eb-99a1-a3b282fc0903","system_id":"levelo_inurba_marseille","lat":43.297881,"lon":5.371078,"is_reserved":false,"is_disabled":false,"rental_uris":{"android":"levelo://app?vid=3d5abd0e-d112-44eb-99a1-a3b282fc0903","ios":"levelo://app?vid=3d5abd0e-d112-44eb-99a1-a3b282fc0903"},"vehicle_type_id":"4","last_reported":1713200794,"current_range_meters":0,"station_id":"ce4bgop2rcd13ifvqc1g","pricing_plan_id":"cebpf4jnsgd1na2vs0mg"},{"bike_id":"de060c0f-9a3a-4402-8a5e-9e4dfeee0c18","system_id":"levelo_inurba_marseille","lat":43.322872,"lon":5.382756,"is_reserved":false,"is_disabled":false,"rental_uris":{"android":"levelo://app?vid=de060c0f-9a3a-4402-8a5e-9e4dfeee0c18","ios":"levelo://app?vid=de060c0f-9a3a-4402-8a5e-9e4dfeee0c18"},"vehicle_type_id":"4","last_reported":1713200794,"current_range_meters":27200,"station_id":"ce4bhr12rcd13ifvqhqg","pricing_plan_id":"cebpf4jnsgd1na2vs0mg"},{"bike_id":"ae3a652d-3dc5-4fef-a4b1-13e0d267e2e9","system_id":"levelo_inurba_marseille","lat":43.297163,"lon":5.365866,"is_reserved":false,"is_disabled":false,"rental_uris":{"android":"levelo://app?vid=ae3a652d-3dc5-4fef-a4b1-13e0d267e2e9","ios":"levelo://app?vid=ae3a652d-3dc5-4fef-a4b1-13e0d267e2e9"},"vehicle_type_id":"4","last_reported":1713200794,"current_range_meters":4000,"station_id":"ce4bgn12rcd13ifvqbt0","pricing_plan_id":"cebpf4jnsgd1na2vs0mg"},{"bike_id":"4928ea04-be81-421e-befd-d8b01935b5ae","system_id":"levelo_inurba_marseille","lat":43.2968,"lon":5.37291,"is_reserved":false,"is_disabled":false,"rental_uris":{"android":"levelo://app?vid=4928ea04-be81-421e-befd-d8b01935b5ae","ios":"levelo://app?vid=4928ea04-be81-421e-befd-d8b01935b5ae"},"vehicle_type_id":"4","last_reported":1713200794,"current_range_meters":1600,"station_id":"ce4bgk12rcd13ifvqbj0","pricing_plan_id":"cebpf4jnsgd1na2vs0mg"},{"bike_id":"42db2559-be21-42c9-b6d3-d284c8a6fa7e","system_id":"levelo_inurba_marseille","lat":43.29629,"lon":5.3715,"is_reserved":false,"is_disabled":false,"rental_uris":{"android":"levelo://app?vid=42db2559-be21-42c9-b6d3-d284c8a6fa7e","ios":"levelo://app?vid=42db2559-be21-42c9-b6d3-d284c8a6fa7e"},"vehicle_type_id":"4","last_reported":1713200794,"current_range_meters":0,"station_id":"ce4bgnh2rcd13ifvqc0g","pricing_plan_id":"cebpf4jnsgd1na2vs0mg"},{"bike_id":"a619696c-6fb5-437d-9108-dd4f943c8d44","system_id":"levelo_inurba_marseille","lat":43.29573,"lon":5.367355,"is_reserved":false,"is_disabled":false,"rental_uris":{"android":"levelo://app?vid=a619696c-6fb5-437d-9108-dd4f943c8d44","ios":"levelo://app?vid=a619696c-6fb5-437d-9108-dd4f943c8d44"},"vehicle_type_id":"4","last_reported":1713200794,"current_range_meters":0,"station_id":"ce4bgph2rcd13ifvqc2g","pricing_plan_id":"cebpf4jnsgd1na2vs0mg"},{"bike_id":"ebcf41cb-5816-4fce-8b37-8339f1c4b10f","system_id":"levelo_inurba_marseille","lat":43.29573,"lon":5.367355,"is_reserved":false,"is_disabled":false,"rental_uris":{"android":"levelo://app?vid=ebcf41cb-5816-4fce-8b37-8339f1c4b10f","ios":"levelo://app?vid=ebcf41cb-5816-4fce-8b37-8339f1c4b10f"},"vehicle_type_id":"4","last_reported":1713200794,"current_range_meters":16000,"station_id":"ce4bgph2rcd13ifvqc2g","pricing_plan_id":"cebpf4jnsgd1na2vs0mg"},{"bike_id":"86a342f4-1e52-4987-9bb6-173bdecbd09f","system_id":"levelo_inurba_marseille","lat":43.29573,"lon":5.367355,"is_reserved":false,"is_disabled":false,"rental_uris":{"android":"levelo://app?vid=86a342f4-1e52-4987-9bb6-173bdecbd09f","ios":"levelo://app?vid=86a342f4-1e52-4987-9bb6-173bdecbd09f"},"vehicle_type_id":"4","last_reported":1713200794,"current_range_meters":0,"station_id":"ce4bgph2rcd13ifvqc2g","pricing_plan_id":"cebpf4jnsgd1na2vs0mg"},{"bike_id":"e8f2969e-1597-458b-a5cf-7457ee1f4dd0","system_id":"levelo_inurba_marseille","lat":43.31645,"lon":5.38976,"is_reserved":false,"is_disabled":false,"rental_uris":{"android":"levelo://app?vid=e8f2969e-1597-458b-a5cf-7457ee1f4dd0","ios":"levelo://app?vid=e8f2969e-1597-458b-a5cf-7457ee1f4dd0"},"vehicle_type_id":"4","last_reported":1713200794,"current_range_meters":0,"station_id":"","pricing_plan_id":"cebpf4jnsgd1na2vs0mg"},{"bike_id":"72ac5bb0-78e7-43f8-a290-ceccee0b607c","system_id":"levelo_inurba_marseille","lat":43.297217,"lon":5.376828,"is_reserved":false,"is_disabled":false,"rental_uris":{"android":"levelo://app?vid=72ac5bb0-78e7-43f8-a290-ceccee0b607c","ios":"levelo://app?vid=72ac5bb0-78e7-43f8-a290-ceccee0b607c"},"vehicle_type_id":"4","last_reported":1713200794,"current_range_meters":3600,"station_id":"ce4bgkh2rcd13ifvqbl0","pricing_plan_id":"cebpf4jnsgd1na2vs0mg"},{"bike_id":"ed99cd76-14e1-4dba-95f7-5cc30c08d6bb","system_id":"levelo_inurba_marseille","lat":43.299028,"lon":5.381509,"is_reserved":false,"is_disabled":false,"rental_uris":{"android":"levelo://app?vid=ed99cd76-14e1-4dba-95f7-5cc30c08d6bb","ios":"levelo://app?vid=ed99cd76-14e1-4dba-95f7-5cc30c08d6bb"},"vehicle_type_id":"4","last_reported":1713200794,"current_range_meters":12800,"station_id":"ce4bgj12rcd13ifvqbc0","pricing_plan_id":"cebpf4jnsgd1na2vs0mg"},{"bike_id":"f35e6a88-cee0-4a1d-ba1c-3ea56369917f","system_id":"levelo_inurba_marseille","lat":43.299028,"lon":5.381509,"is_reserved":false,"is_disabled":false,"rental_uris":{"android":"levelo://app?vid=f35e6a88-cee0-4a1d-ba1c-3ea56369917f","ios":"levelo://app?vid=f35e6a88-cee0-4a1d-ba1c-3ea56369917f"},"vehicle_type_id":"4","last_reported":1713200794,"current_range_meters":8800,"station_id":"ce4bgj12rcd13ifvqbc0","pricing_plan_id":"cebpf4jnsgd1na2vs0mg"},{"bike_id":"7e870ccd-29a5-4842-9cb8-5e86d41c02e3","system_id":"levelo_inurba_marseille","lat":43.309544,"lon":5.390214,"is_reserved":false,"is_disabled":false,"rental_uris":{"android":"levelo://app?vid=7e870ccd-29a5-4842-9cb8-5e86d41c02e3","ios":"levelo://app?vid=7e870ccd-29a5-4842-9cb8-5e86d41c02e3"},"vehicle_type_id":"4","last_reported":1713200794,"current_range_meters":0,"station_id":"ce4bgup2rcd13ifvqco0","pricing_plan_id":"cebpf4jnsgd1na2vs0mg"},{"bike_id":"b6b4c947-1bda-4de4-9df1-137f712ed154","system_id":"levelo_inurba_marseille","lat":43.317628,"lon":5.390079,"is_reserved":false,"is_disabled":false,"rental_uris":{"android":"levelo://app?vid=b6b4c947-1bda-4de4-9df1-137f712ed154","ios":"levelo://app?vid=b6b4c947-1bda-4de4-9df1-137f712ed154"},"vehicle_type_id":"4","last_reported":1713200794,"current_range_meters":2400,"station_id":"ce4bhqp2rcd13ifvqhng","pricing_plan_id":"cebpf4jnsgd1na2vs0mg"},{"bike_id":"fa384617-2fe2-4e2f-b891-1261ce974011","system_id":"levelo_inurba_marseille","lat":43.317524,"lon":5.390158,"is_reserved":false,"is_disabled":false,"rental_uris":{"android":"levelo://app?vid=fa384617-2fe2-4e2f-b891-1261ce974011","ios":"levelo://app?vid=fa384617-2fe2-4e2f-b891-1261ce974011"},"vehicle_type_id":"4","last_reported":1713200794,"current_range_meters":0,"station_id":"ce4bhqp2rcd13ifvqhng","pricing_plan_id":"cebpf4jnsgd1na2vs0mg"},{"bike_id":"7e7a04de-96dc-4956-8284-ccd7551528c8","system_id":"levelo_inurba_marseille","lat":43.298037,"lon":5.381066,"is_reserved":false,"is_disabled":false,"rental_uris":{"android":"levelo://app?vid=7e7a04de-96dc-4956-8284-ccd7551528c8","ios":"levelo://app?vid=7e7a04de-96dc-4956-8284-ccd7551528c8"},"vehicle_type_id":"4","last_reported":1713200794,"current_range_meters":0,"station_id":"ce4bgip2rcd13ifvqbb0","pricing_plan_id":"cebpf4jnsgd1na2vs0mg"},{"bike_id":"be606c48-d0f2-474c-b081-833e2a5df2b2","system_id":"levelo_inurba_marseille","lat":43.302008,"lon":5.394694,"is_reserved":false,"is_disabled":false,"rental_uris":{"android":"levelo://app?vid=be606c48-d0f2-474c-b081-833e2a5df2b2","ios":"levelo://app?vid=be606c48-d0f2-474c-b081-833e2a5df2b2"},"vehicle_type_id":"4","last_reported":1713200794,"current_range_meters":16400,"station_id":"ce4bh0p2rcd13ifvqd70","pricing_plan_id":"cebpf4jnsgd1na2vs0mg"},{"bike_id":"68412034-3cb9-4f1c-a07d-7870210dcfa1","system_id":"levelo_inurba_marseille","lat":43.314811,"lon":5.373104,"is_reserved":false,"is_disabled":false,"rental_uris":{"android":"levelo://app?vid=68412034-3cb9-4f1c-a07d-7870210dcfa1","ios":"levelo://app?vid=68412034-3cb9-4f1c-a07d-7870210dcfa1"},"vehicle_type_id":"4","last_reported":1713200794,"current_range_meters":10000,"station_id":"ce4bgt12rcd13ifvqcd0","pricing_plan_id":"cebpf4jnsgd1na2vs0mg"},{"bike_id":"a46d2c38-7479-415f-8386-316253db4189","system_id":"levelo_inurba_marseille","lat":43.2979,"lon":5.38091,"is_reserved":false,"is_disabled":false,"rental_uris":{"android":"levelo://app?vid=a46d2c38-7479-415f-8386-316253db4189","ios":"levelo://app?vid=a46d2c38-7479-415f-8386-316253db4189"},"vehicle_type_id":"4","last_reported":1713200794,"current_range_meters":8800,"station_id":"ce4bhih2rcd13ifvqfs0","pricing_plan_id":"cebpf4jnsgd1na2vs0mg"},{"bike_id":"f449eae0-8fde-4f7f-9b2a-e072a9f12382","system_id":"levelo_inurba_marseille","lat":43.29529,"lon":5.385581,"is_reserved":false,"is_disabled":false,"rental_uris":{"android":"levelo://app?vid=f449eae0-8fde-4f7f-9b2a-e072a9f12382","ios":"levelo://app?vid=f449eae0-8fde-4f7f-9b2a-e072a9f12382"},"vehicle_type_id":"4","last_reported":1713200794,"current_range_meters":2000,"station_id":"ce4bgih2rcd13ifvqba0","pricing_plan_id":"cebpf4jnsgd1na2vs0mg"},{"bike_id":"f91b7d12-118a-43a9-b9ff-4ef8d5da05b0","system_id":"levelo_inurba_marseille","lat":43.29788,"lon":5.380912,"is_reserved":false,"is_disabled":false,"rental_uris":{"android":"levelo://app?vid=f91b7d12-118a-43a9-b9ff-4ef8d5da05b0","ios":"levelo://app?vid=f91b7d12-118a-43a9-b9ff-4ef8d5da05b0"},"vehicle_type_id":"4","last_reported":1713200794,"current_range_meters":0,"station_id":"ce4bgip2rcd13ifvqbb0","pricing_plan_id":"cebpf4jnsgd1na2vs0mg"},{"bike_id":"1b3a7018-e8c3-4586-81d4-059abad3f4a0","system_id":"levelo_inurba_marseille","lat":43.292644,"lon":5.384257,"is_reserved":false,"is_disabled":false,"rental_uris":{"android":"levelo://app?vid=1b3a7018-e8c3-4586-81d4-059abad3f4a0","ios":"levelo://app?vid=1b3a7018-e8c3-4586-81d4-059abad3f4a0"},"vehicle_type_id":"4","last_reported":1713200794,"current_range_meters":2800,"station_id":"ce4bh692rcd13ifvqea0","pricing_plan_id":"cebpf4jnsgd1na2vs0mg"},{"bike_id":"97c251ab-0eec-4c26-9a0f-83121ce3c066","system_id":"levelo_inurba_marseille","lat":43.304289,"lon":5.388893,"is_reserved":false,"is_disabled":false,"rental_uris":{"android":"levelo://app?vid=97c251ab-0eec-4c26-9a0f-83121ce3c066","ios":"levelo://app?vid=97c251ab-0eec-4c26-9a0f-83121ce3c066"},"vehicle_type_id":"4","last_reported":1713200794,"current_range_meters":0,"station_id":"ce4bgk12rcd13ifvqbi0","pricing_plan_id":"cebpf4jnsgd1na2vs0mg"},{"bike_id":"4406bcdb-c9f2-49b6-8c82-98512d7c8b15","system_id":"levelo_inurba_marseille","lat":43.298037,"lon":5.381066,"is_reserved":false,"is_disabled":false,"rental_uris":{"android":"levelo://app?vid=4406bcdb-c9f2-49b6-8c82-98512d7c8b15","ios":"levelo://app?vid=4406bcdb-c9f2-49b6-8c82-98512d7c8b15"},"vehicle_type_id":"4","last_reported":1713200794,"current_range_meters":3200,"station_id":"ce4bgip2rcd13ifvqbb0","pricing_plan_id":"cebpf4jnsgd1na2vs0mg"},{"bike_id":"8cd28dee-8017-4a21-87c5-599c775c0a54","system_id":"levelo_inurba_marseille","lat":43.29785,"lon":5.38107,"is_reserved":false,"is_disabled":false,"rental_uris":{"android":"levelo://app?vid=8cd28dee-8017-4a21-87c5-599c775c0a54","ios":"levelo://app?vid=8cd28dee-8017-4a21-87c5-599c775c0a54"},"vehicle_type_id":"4","last_reported":1713200794,"current_range_meters":0,"station_id":"ce4bgip2rcd13ifvqbb0","pricing_plan_id":"cebpf4jnsgd1na2vs0mg"},{"bike_id":"91c3be59-06a5-4c1f-b05b-e4c9a76b131e","system_id":"levelo_inurba_marseille","lat":43.296277,"lon":5.377108,"is_reserved":false,"is_disabled":false,"rental_uris":{"android":"levelo://app?vid=91c3be59-06a5-4c1f-b05b-e4c9a76b131e","ios":"levelo://app?vid=91c3be59-06a5-4c1f-b05b-e4c9a76b131e"},"vehicle_type_id":"4","last_reported":1713200794,"current_range_meters":1200,"station_id":"ce4bgi92rcd13ifvqb90","pricing_plan_id":"cebpf4jnsgd1na2vs0mg"},{"bike_id":"4f17cde1-8f28-4839-82d1-34b924f5e3b5","system_id":"levelo_inurba_marseille","lat":43.290104,"lon":5.356111,"is_reserved":false,"is_disabled":false,"rental_uris":{"android":"levelo://app?vid=4f17cde1-8f28-4839-82d1-34b924f5e3b5","ios":"levelo://app?vid=4f17cde1-8f28-4839-82d1-34b924f5e3b5"},"vehicle_type_id":"4","last_reported":1713200794,"current_range_meters":6400,"station_id":"ce4bhb92rcd13ifvqen0","pricing_plan_id":"cebpf4jnsgd1na2vs0mg"},{"bike_id":"58096138-81ed-4444-9095-1aafb6a5a1c7","system_id":"levelo_inurba_marseille","lat":43.29536,"lon":5.37503,"is_reserved":false,"is_disabled":false,"rental_uris":{"android":"levelo://app?vid=58096138-81ed-4444-9095-1aafb6a5a1c7","ios":"levelo://app?vid=58096138-81ed-4444-9095-1aafb6a5a1c7"},"vehicle_type_id":"4","last_reported":1713200794,"current_range_meters":0,"station_id":"ce4bgkp2rcd13ifvqbmg","pricing_plan_id":"cebpf4jnsgd1na2vs0mg"},{"bike_id":"11aff402-d6a9-4e1a-bac0-f9e340d3a9f7","system_id":"levelo_inurba_marseille","lat":43.299707,"lon":5.384859,"is_reserved":false,"is_disabled":false,"rental_uris":{"android":"levelo://app?vid=11aff402-d6a9-4e1a-bac0-f9e340d3a9f7","ios":"levelo://app?vid=11aff402-d6a9-4e1a-bac0-f9e340d3a9f7"},"vehicle_type_id":"4","last_reported":1713200794,"current_range_meters":0,"station_id":"ce4bgj92rcd13ifvqbd0","pricing_plan_id":"cebpf4jnsgd1na2vs0mg"},{"bike_id":"0c0d4426-9256-4e86-9216-fa32a7215d51","system_id":"levelo_inurba_marseille","lat":43.29976,"lon":5.38482,"is_reserved":false,"is_disabled":false,"rental_uris":{"android":"levelo://app?vid=0c0d4426-9256-4e86-9216-fa32a7215d51","ios":"levelo://app?vid=0c0d4426-9256-4e86-9216-fa32a7215d51"},"vehicle_type_id":"4","last_reported":1713200794,"current_range_meters":0,"station_id":"ce4bgj92rcd13ifvqbd0","pricing_plan_id":"cebpf4jnsgd1na2vs0mg"},{"bike_id":"9056d4ef-5771-4704-8374-57222d28d7b5","system_id":"levelo_inurba_marseille","lat":43.295169,"lon":5.390426,"is_reserved":false,"is_disabled":false,"rental_uris":{"android":"levelo://app?vid=9056d4ef-5771-4704-8374-57222d28d7b5","ios":"levelo://app?vid=9056d4ef-5771-4704-8374-57222d28d7b5"},"vehicle_type_id":"4","last_reported":1713200794,"current_range_meters":10400,"station_id":"ce4bh3p2rcd13ifvqdp0","pricing_plan_id":"cebpf4jnsgd1na2vs0mg"},{"bike_id":"84c92fb5-c9f3-4543-9f42-a59d774e5cc2","system_id":"levelo_inurba_marseille","lat":43.29983,"lon":5.38508,"is_reserved":false,"is_disabled":false,"rental_uris":{"android":"levelo://app?vid=84c92fb5-c9f3-4543-9f42-a59d774e5cc2","ios":"levelo://app?vid=84c92fb5-c9f3-4543-9f42-a59d774e5cc2"},"vehicle_type_id":"4","last_reported":1713200794,"current_range_meters":4800,"station_id":"ce4bgvh2rcd13ifvqcs0","pricing_plan_id":"cebpf4jnsgd1na2vs0mg"},{"bike_id":"dcb63481-7f09-4669-ae74-f0349fb1d1c3","system_id":"levelo_inurba_marseille","lat":43.299717,"lon":5.384845,"is_reserved":false,"is_disabled":false,"rental_uris":{"android":"levelo://app?vid=dcb63481-7f09-4669-ae74-f0349fb1d1c3","ios":"levelo://app?vid=dcb63481-7f09-4669-ae74-f0349fb1d1c3"},"vehicle_type_id":"4","last_reported":1713200794,"current_range_meters":30000,"station_id":"ce4bgj92rcd13ifvqbd0","pricing_plan_id":"cebpf4jnsgd1na2vs0mg"},{"bike_id":"d5246843-cdb5-43f3-b215-b981ad372a26","system_id":"levelo_inurba_marseille","lat":43.29529,"lon":5.385581,"is_reserved":false,"is_disabled":false,"rental_uris":{"android":"levelo://app?vid=d5246843-cdb5-43f3-b215-b981ad372a26","ios":"levelo://app?vid=d5246843-cdb5-43f3-b215-b981ad372a26"},"vehicle_type_id":"4","last_reported":1713200794,"current_range_meters":11600,"station_id":"ce4bgih2rcd13ifvqba0","pricing_plan_id":"cebpf4jnsgd1na2vs0mg"},{"bike_id":"38118902-c27f-4cd5-a2ef-d77a2a31bc5d","system_id":"levelo_inurba_marseille","lat":43.323703,"lon":5.38881,"is_reserved":false,"is_disabled":false,"rental_uris":{"android":"levelo://app?vid=38118902-c27f-4cd5-a2ef-d77a2a31bc5d","ios":"levelo://app?vid=38118902-c27f-4cd5-a2ef-d77a2a31bc5d"},"vehicle_type_id":"4","last_reported":1713200794,"current_range_meters":0,"station_id":"ce4bhqp2rcd13ifvqhng","pricing_plan_id":"cebpf4jnsgd1na2vs0mg"},{"bike_id":"4a662abd-1cff-4c94-882d-aded3b304e17","system_id":"levelo_inurba_marseille","lat":43.322872,"lon":5.382756,"is_reserved":false,"is_disabled":false,"rental_uris":{"android":"levelo://app?vid=4a662abd-1cff-4c94-882d-aded3b304e17","ios":"levelo://app?vid=4a662abd-1cff-4c94-882d-aded3b304e17"},"vehicle_type_id":"4","last_reported":1713200794,"current_range_meters":1200,"station_id":"ce4bhr12rcd13ifvqhqg","pricing_plan_id":"cebpf4jnsgd1na2vs0mg"},{"bike_id":"b748d78e-2ed6-43f5-893b-a0a8a25e22cc","system_id":"levelo_inurba_marseille","lat":43.29601,"lon":5.381084,"is_reserved":false,"is_disabled":false,"rental_uris":{"android":"levelo://app?vid=b748d78e-2ed6-43f5-893b-a0a8a25e22cc","ios":"levelo://app?vid=b748d78e-2ed6-43f5-893b-a0a8a25e22cc"},"vehicle_type_id":"4","last_reported":1713200794,"current_range_meters":4400,"station_id":"ce4bgl12rcd13ifvqbo0","pricing_plan_id":"cebpf4jnsgd1na2vs0mg"},{"bike_id":"3131bcb5-d0bc-44a8-9538-ac16e863def7","system_id":"levelo_inurba_marseille","lat":43.293259,"lon":5.371586,"is_reserved":false,"is_disabled":false,"rental_uris":{"android":"levelo://app?vid=3131bcb5-d0bc-44a8-9538-ac16e863def7","ios":"levelo://app?vid=3131bcb5-d0bc-44a8-9538-ac16e863def7"},"vehicle_type_id":"4","last_reported":1713200794,"current_range_meters":0,"station_id":"ce4bgh92rcd13ifvqb40","pricing_plan_id":"cebpf4jnsgd1na2vs0mg"},{"bike_id":"15d3ebd5-554a-40ee-8ce7-428ac7e90e86","system_id":"levelo_inurba_marseille","lat":43.292749,"lon":5.368398,"is_reserved":false,"is_disabled":false,"rental_uris":{"android":"levelo://app?vid=15d3ebd5-554a-40ee-8ce7-428ac7e90e86","ios":"levelo://app?vid=15d3ebd5-554a-40ee-8ce7-428ac7e90e86"},"vehicle_type_id":"4","last_reported":1713200794,"current_range_meters":0,"station_id":"ce4bhbp2rcd13ifvqesg","pricing_plan_id":"cebpf4jnsgd1na2vs0mg"},{"bike_id":"77025efd-1ff5-43b5-9226-610238e9d124","system_id":"levelo_inurba_marseille","lat":43.29296,"lon":5.37449,"is_reserved":false,"is_disabled":false,"rental_uris":{"android":"levelo://app?vid=77025efd-1ff5-43b5-9226-610238e9d124","ios":"levelo://app?vid=77025efd-1ff5-43b5-9226-610238e9d124"},"vehicle_type_id":"4","last_reported":1713200794,"current_range_meters":0,"station_id":"ce4bgi12rcd13ifvqb70","pricing_plan_id":"cebpf4jnsgd1na2vs0mg"},{"bike_id":"7871060d-fe48-4c5d-90dc-247aca90dcd9","system_id":"levelo_inurba_marseille","lat":43.303002,"lon":5.392142,"is_reserved":false,"is_disabled":false,"rental_uris":{"android":"levelo://app?vid=7871060d-fe48-4c5d-90dc-247aca90dcd9","ios":"levelo://app?vid=7871060d-fe48-4c5d-90dc-247aca90dcd9"},"vehicle_type_id":"4","last_reported":1713200794,"current_range_meters":5600,"station_id":"ce4bgkh2rcd13ifvqbk0","pricing_plan_id":"cebpf4jnsgd1na2vs0mg"},{"bike_id":"e2e70460-0aa8-4511-b4e8-940256b66d54","system_id":"levelo_inurba_marseille","lat":43.302992,"lon":5.392136,"is_reserved":false,"is_disabled":false,"rental_uris":{"android":"levelo://app?vid=e2e70460-0aa8-4511-b4e8-940256b66d54","ios":"levelo://app?vid=e2e70460-0aa8-4511-b4e8-940256b66d54"},"vehicle_type_id":"4","last_reported":1713200794,"current_range_meters":18800,"station_id":"ce4bgkh2rcd13ifvqbk0","pricing_plan_id":"cebpf4jnsgd1na2vs0mg"},{"bike_id":"482d3b80-f9fc-49f3-8f0e-a0f5d9491aaa","system_id":"levelo_inurba_marseille","lat":43.2936,"lon":5.37835,"is_reserved":false,"is_disabled":false,"rental_uris":{"android":"levelo://app?vid=482d3b80-f9fc-49f3-8f0e-a0f5d9491aaa","ios":"levelo://app?vid=482d3b80-f9fc-49f3-8f0e-a0f5d9491aaa"},"vehicle_type_id":"4","last_reported":1713200794,"current_range_meters":0,"station_id":"ce4bgjh2rcd13ifvqbf0","pricing_plan_id":"cebpf4jnsgd1na2vs0mg"},{"bike_id":"8d5a5136-a29d-4e35-8567-65cb2d788224","system_id":"levelo_inurba_marseille","lat":43.292311,"lon":5.360731,"is_reserved":false,"is_disabled":false,"rental_uris":{"android":"levelo://app?vid=8d5a5136-a29d-4e35-8567-65cb2d788224","ios":"levelo://app?vid=8d5a5136-a29d-4e35-8567-65cb2d788224"},"vehicle_type_id":"4","last_reported":1713200794,"current_range_meters":3600,"station_id":"ce4bhbh2rcd13ifvqeqg","pricing_plan_id":"cebpf4jnsgd1na2vs0mg"},{"bike_id":"c336c202-e5f0-4c1c-a31b-222643b5c50c","system_id":"levelo_inurba_marseille","lat":43.292311,"lon":5.360731,"is_reserved":false,"is_disabled":false,"rental_uris":{"android":"levelo://app?vid=c336c202-e5f0-4c1c-a31b-222643b5c50c","ios":"levelo://app?vid=c336c202-e5f0-4c1c-a31b-222643b5c50c"},"vehicle_type_id":"4","last_reported":1713200794,"current_range_meters":0,"station_id":"ce4bhbh2rcd13ifvqeqg","pricing_plan_id":"cebpf4jnsgd1na2vs0mg"},{"bike_id":"5e04408f-f267-47c6-8f4f-7b7c56c7a0ee","system_id":"levelo_inurba_marseille","lat":43.292311,"lon":5.360731,"is_reserved":false,"is_disabled":false,"rental_uris":{"android":"levelo://app?vid=5e04408f-f267-47c6-8f4f-7b7c56c7a0ee","ios":"levelo://app?vid=5e04408f-f267-47c6-8f4f-7b7c56c7a0ee"},"vehicle_type_id":"4","last_reported":1713200794,"current_range_meters":15600,"station_id":"ce4bhbh2rcd13ifvqeqg","pricing_plan_id":"cebpf4jnsgd1na2vs0mg"},{"bike_id":"434b4cbd-f25c-4675-a9a1-67f80a013da7","system_id":"levelo_inurba_marseille","lat":43.29227,"lon":5.36056,"is_reserved":false,"is_disabled":false,"rental_uris":{"android":"levelo://app?vid=434b4cbd-f25c-4675-a9a1-67f80a013da7","ios":"levelo://app?vid=434b4cbd-f25c-4675-a9a1-67f80a013da7"},"vehicle_type_id":"4","last_reported":1713200794,"current_range_meters":18400,"station_id":"ce4bhbh2rcd13ifvqeqg","pricing_plan_id":"cebpf4jnsgd1na2vs0mg"},{"bike_id":"a489cc0c-3159-4d1b-bfbc-b0ccd463d738","system_id":"levelo_inurba_marseille","lat":43.29222,"lon":5.36056,"is_reserved":false,"is_disabled":false,"rental_uris":{"android":"levelo://app?vid=a489cc0c-3159-4d1b-bfbc-b0ccd463d738","ios":"levelo://app?vid=a489cc0c-3159-4d1b-bfbc-b0ccd463d738"},"vehicle_type_id":"4","last_reported":1713200794,"current_range_meters":0,"station_id":"ce4bhbh2rcd13ifvqeqg","pricing_plan_id":"cebpf4jnsgd1na2vs0mg"},{"bike_id":"eb6cb7ab-2c84-41c1-8aa3-c745eff57f0d","system_id":"levelo_inurba_marseille","lat":43.298764,"lon":5.388973,"is_reserved":false,"is_disabled":false,"rental_uris":{"android":"levelo://app?vid=eb6cb7ab-2c84-41c1-8aa3-c745eff57f0d","ios":"levelo://app?vid=eb6cb7ab-2c84-41c1-8aa3-c745eff57f0d"},"vehicle_type_id":"4","last_reported":1713200794,"current_range_meters":3600,"station_id":"ce4bh392rcd13ifvqdl0","pricing_plan_id":"cebpf4jnsgd1na2vs0mg"},{"bike_id":"c48d2a4a-a165-4cbf-b91a-5c509d09d2e2","system_id":"levelo_inurba_marseille","lat":43.291675,"lon":5.371583,"is_reserved":false,"is_disabled":false,"rental_uris":{"android":"levelo://app?vid=c48d2a4a-a165-4cbf-b91a-5c509d09d2e2","ios":"levelo://app?vid=c48d2a4a-a165-4cbf-b91a-5c509d09d2e2"},"vehicle_type_id":"4","last_reported":1713200794,"current_range_meters":800,"station_id":"ce4bha92rcd13ifvqeh0","pricing_plan_id":"cebpf4jnsgd1na2vs0mg"},{"bike_id":"2d1b3331-30da-434a-883f-6422fb67ef89","system_id":"levelo_inurba_marseille","lat":43.298764,"lon":5.388973,"is_reserved":false,"is_disabled":false,"rental_uris":{"android":"levelo://app?vid=2d1b3331-30da-434a-883f-6422fb67ef89","ios":"levelo://app?vid=2d1b3331-30da-434a-883f-6422fb67ef89"},"vehicle_type_id":"4","last_reported":1713200794,"current_range_meters":8800,"station_id":"ce4bh392rcd13ifvqdl0","pricing_plan_id":"cebpf4jnsgd1na2vs0mg"},{"bike_id":"a9e3061b-3f00-48e9-acac-247bed144c70","system_id":"levelo_inurba_marseille","lat":43.291675,"lon":5.371583,"is_reserved":false,"is_disabled":false,"rental_uris":{"android":"levelo://app?vid=a9e3061b-3f00-48e9-acac-247bed144c70","ios":"levelo://app?vid=a9e3061b-3f00-48e9-acac-247bed144c70"},"vehicle_type_id":"4","last_reported":1713200794,"current_range_meters":8000,"station_id":"ce4bha92rcd13ifvqeh0","pricing_plan_id":"cebpf4jnsgd1na2vs0mg"},{"bike_id":"b07e2364-0e71-4214-abb3-d4e8a86c8e73","system_id":"levelo_inurba_marseille","lat":43.292005,"lon":5.357875,"is_reserved":false,"is_disabled":false,"rental_uris":{"android":"levelo://app?vid=b07e2364-0e71-4214-abb3-d4e8a86c8e73","ios":"levelo://app?vid=b07e2364-0e71-4214-abb3-d4e8a86c8e73"},"vehicle_type_id":"4","last_reported":1713200794,"current_range_meters":2400,"station_id":"ce4bhb12rcd13ifvqel0","pricing_plan_id":"cebpf4jnsgd1na2vs0mg"},{"bike_id":"2a7432f9-1f9c-4e1b-8bf9-59fe6b82ed90","system_id":"levelo_inurba_marseille","lat":43.291994,"lon":5.357886,"is_reserved":false,"is_disabled":false,"rental_uris":{"android":"levelo://app?vid=2a7432f9-1f9c-4e1b-8bf9-59fe6b82ed90","ios":"levelo://app?vid=2a7432f9-1f9c-4e1b-8bf9-59fe6b82ed90"},"vehicle_type_id":"4","last_reported":1713200794,"current_range_meters":0,"station_id":"ce4bhb12rcd13ifvqel0","pricing_plan_id":"cebpf4jnsgd1na2vs0mg"},{"bike_id":"dd94a0e0-cacb-45e5-a2af-1bafb2306dc8","system_id":"levelo_inurba_marseille","lat":43.30895,"lon":5.39636,"is_reserved":false,"is_disabled":false,"rental_uris":{"android":"levelo://app?vid=dd94a0e0-cacb-45e5-a2af-1bafb2306dc8","ios":"levelo://app?vid=dd94a0e0-cacb-45e5-a2af-1bafb2306dc8"},"vehicle_type_id":"4","last_reported":1713200794,"current_range_meters":4800,"station_id":"ce4bh012rcd13ifvqcv0","pricing_plan_id":"cebpf4jnsgd1na2vs0mg"},{"bike_id":"44e6e44d-667e-4962-9c74-384af616c67b","system_id":"levelo_inurba_marseille","lat":43.313291,"lon":5.396838,"is_reserved":false,"is_disabled":false,"rental_uris":{"android":"levelo://app?vid=44e6e44d-667e-4962-9c74-384af616c67b","ios":"levelo://app?vid=44e6e44d-667e-4962-9c74-384af616c67b"},"vehicle_type_id":"4","last_reported":1713200794,"current_range_meters":7200,"station_id":"ce4bgvp2rcd13ifvqcu0","pricing_plan_id":"cebpf4jnsgd1na2vs0mg"},{"bike_id":"45c2e592-c614-4201-98b1-2891427301c0","system_id":"levelo_inurba_marseille","lat":43.292005,"lon":5.357875,"is_reserved":false,"is_disabled":false,"rental_uris":{"android":"levelo://app?vid=45c2e592-c614-4201-98b1-2891427301c0","ios":"levelo://app?vid=45c2e592-c614-4201-98b1-2891427301c0"},"vehicle_type_id":"4","last_reported":1713200794,"current_range_meters":0,"station_id":"ce4bhb12rcd13ifvqel0","pricing_plan_id":"cebpf4jnsgd1na2vs0mg"},{"bike_id":"8cc7721e-a262-481e-9f84-efd5747e7f77","system_id":"levelo_inurba_marseille","lat":43.29529,"lon":5.385581,"is_reserved":false,"is_disabled":false,"rental_uris":{"android":"levelo://app?vid=8cc7721e-a262-481e-9f84-efd5747e7f77","ios":"levelo://app?vid=8cc7721e-a262-481e-9f84-efd5747e7f77"},"vehicle_type_id":"4","last_reported":1713200794,"current_range_meters":10800,"station_id":"ce4bgih2rcd13ifvqba0","pricing_plan_id":"cebpf4jnsgd1na2vs0mg"},{"bike_id":"c0e3fb2b-31ea-4caf-88c5-9b88c8bad601","system_id":"levelo_inurba_marseille","lat":43.29529,"lon":5.385581,"is_reserved":false,"is_disabled":false,"rental_uris":{"android":"levelo://app?vid=c0e3fb2b-31ea-4caf-88c5-9b88c8bad601","ios":"levelo://app?vid=c0e3fb2b-31ea-4caf-88c5-9b88c8bad601"},"vehicle_type_id":"4","last_reported":1713200794,"current_range_meters":3600,"station_id":"ce4bgih2rcd13ifvqba0","pricing_plan_id":"cebpf4jnsgd1na2vs0mg"},{"bike_id":"ccc9ef4f-959a-43b2-87f8-8c2e2b09b7c3","system_id":"levelo_inurba_marseille","lat":43.29529,"lon":5.385581,"is_reserved":false,"is_disabled":false,"rental_uris":{"android":"levelo://app?vid=ccc9ef4f-959a-43b2-87f8-8c2e2b09b7c3","ios":"levelo://app?vid=ccc9ef4f-959a-43b2-87f8-8c2e2b09b7c3"},"vehicle_type_id":"4","last_reported":1713200794,"current_range_meters":2400,"station_id":"ce4bgih2rcd13ifvqba0","pricing_plan_id":"cebpf4jnsgd1na2vs0mg"},{"bike_id":"d74d8c4b-c8b8-4225-9c25-b6024050eaa5","system_id":"levelo_inurba_marseille","lat":43.29538,"lon":5.38548,"is_reserved":false,"is_disabled":false,"rental_uris":{"android":"levelo://app?vid=d74d8c4b-c8b8-4225-9c25-b6024050eaa5","ios":"levelo://app?vid=d74d8c4b-c8b8-4225-9c25-b6024050eaa5"},"vehicle_type_id":"4","last_reported":1713200794,"current_range_meters":15600,"station_id":"ce4bgih2rcd13ifvqba0","pricing_plan_id":"cebpf4jnsgd1na2vs0mg"},{"bike_id":"c80dd5b0-999b-4441-847e-6e7d2115e78e","system_id":"levelo_inurba_marseille","lat":43.29529,"lon":5.385581,"is_reserved":false,"is_disabled":false,"rental_uris":{"android":"levelo://app?vid=c80dd5b0-999b-4441-847e-6e7d2115e78e","ios":"levelo://app?vid=c80dd5b0-999b-4441-847e-6e7d2115e78e"},"vehicle_type_id":"4","last_reported":1713200794,"current_range_meters":6800,"station_id":"ce4bgih2rcd13ifvqba0","pricing_plan_id":"cebpf4jnsgd1na2vs0mg"},{"bike_id":"8af897b7-5f83-4a7a-a148-86a5b562539d","system_id":"levelo_inurba_marseille","lat":43.29536,"lon":5.3855,"is_reserved":false,"is_disabled":false,"rental_uris":{"android":"levelo://app?vid=8af897b7-5f83-4a7a-a148-86a5b562539d","ios":"levelo://app?vid=8af897b7-5f83-4a7a-a148-86a5b562539d"},"vehicle_type_id":"4","last_reported":1713200794,"current_range_meters":9600,"station_id":"ce4bgih2rcd13ifvqba0","pricing_plan_id":"cebpf4jnsgd1na2vs0mg"},{"bike_id":"248bebfc-2041-4c0c-8b2b-ea775db2da52","system_id":"levelo_inurba_marseille","lat":43.29537,"lon":5.38553,"is_reserved":false,"is_disabled":false,"rental_uris":{"android":"levelo://app?vid=248bebfc-2041-4c0c-8b2b-ea775db2da52","ios":"levelo://app?vid=248bebfc-2041-4c0c-8b2b-ea775db2da52"},"vehicle_type_id":"4","last_reported":1713200794,"current_range_meters":13200,"station_id":"ce4bgih2rcd13ifvqba0","pricing_plan_id":"cebpf4jnsgd1na2vs0mg"},{"bike_id":"fb6ea1b1-badc-4a09-9454-bfbeb8f0b0a9","system_id":"levelo_inurba_marseille","lat":43.290779,"lon":5.371482,"is_reserved":false,"is_disabled":false,"rental_uris":{"android":"levelo://app?vid=fb6ea1b1-badc-4a09-9454-bfbeb8f0b0a9","ios":"levelo://app?vid=fb6ea1b1-badc-4a09-9454-bfbeb8f0b0a9"},"vehicle_type_id":"4","last_reported":1713200794,"current_range_meters":16800,"station_id":"ce4bh5p2rcd13ifvqe4g","pricing_plan_id":"cebpf4jnsgd1na2vs0mg"},{"bike_id":"2cabc384-0c87-4989-8b3c-5e7800617720","system_id":"levelo_inurba_marseille","lat":43.290779,"lon":5.371482,"is_reserved":false,"is_disabled":false,"rental_uris":{"android":"levelo://app?vid=2cabc384-0c87-4989-8b3c-5e7800617720","ios":"levelo://app?vid=2cabc384-0c87-4989-8b3c-5e7800617720"},"vehicle_type_id":"4","last_reported":1713200794,"current_range_meters":6800,"station_id":"ce4bh5p2rcd13ifvqe4g","pricing_plan_id":"cebpf4jnsgd1na2vs0mg"},{"bike_id":"adaddc0f-e46b-4675-b6ee-aa4bb186dd20","system_id":"levelo_inurba_marseille","lat":43.319179,"lon":5.407725,"is_reserved":false,"is_disabled":false,"rental_uris":{"android":"levelo://app?vid=adaddc0f-e46b-4675-b6ee-aa4bb186dd20","ios":"levelo://app?vid=adaddc0f-e46b-4675-b6ee-aa4bb186dd20"},"vehicle_type_id":"4","last_reported":1713200794,"current_range_meters":23200,"station_id":"ce4bhq12rcd13ifvqhig","pricing_plan_id":"cebpf4jnsgd1na2vs0mg"},{"bike_id":"43937f44-2114-4f25-a279-cb810b408ebd","system_id":"levelo_inurba_marseille","lat":43.30209,"lon":5.394391,"is_reserved":false,"is_disabled":false,"rental_uris":{"android":"levelo://app?vid=43937f44-2114-4f25-a279-cb810b408ebd","ios":"levelo://app?vid=43937f44-2114-4f25-a279-cb810b408ebd"},"vehicle_type_id":"4","last_reported":1713200794,"current_range_meters":11600,"station_id":"ce4bh692rcd13ifvqea0","pricing_plan_id":"cebpf4jnsgd1na2vs0mg"},{"bike_id":"e71fcf11-96e3-4e36-8ec9-600d994307a0","system_id":"levelo_inurba_marseille","lat":43.302008,"lon":5.394694,"is_reserved":false,"is_disabled":false,"rental_uris":{"android":"levelo://app?vid=e71fcf11-96e3-4e36-8ec9-600d994307a0","ios":"levelo://app?vid=e71fcf11-96e3-4e36-8ec9-600d994307a0"},"vehicle_type_id":"4","last_reported":1713200794,"current_range_meters":8400,"station_id":"ce4bh0p2rcd13ifvqd70","pricing_plan_id":"cebpf4jnsgd1na2vs0mg"},{"bike_id":"9c210747-56eb-4fe8-8517-f6c10f49fdd0","system_id":"levelo_inurba_marseille","lat":43.294153,"lon":5.386305,"is_reserved":false,"is_disabled":false,"rental_uris":{"android":"levelo://app?vid=9c210747-56eb-4fe8-8517-f6c10f49fdd0","ios":"levelo://app?vid=9c210747-56eb-4fe8-8517-f6c10f49fdd0"},"vehicle_type_id":"4","last_reported":1713200794,"current_range_meters":24800,"station_id":"ce4bh2h2rcd13ifvqdh0","pricing_plan_id":"cebpf4jnsgd1na2vs0mg"},{"bike_id":"1eafc89a-5060-4c9a-8eb4-f0c1029442e5","system_id":"levelo_inurba_marseille","lat":43.302008,"lon":5.394694,"is_reserved":false,"is_disabled":false,"rental_uris":{"android":"levelo://app?vid=1eafc89a-5060-4c9a-8eb4-f0c1029442e5","ios":"levelo://app?vid=1eafc89a-5060-4c9a-8eb4-f0c1029442e5"},"vehicle_type_id":"4","last_reported":1713200794,"current_range_meters":25200,"station_id":"ce4bh0p2rcd13ifvqd70","pricing_plan_id":"cebpf4jnsgd1na2vs0mg"},{"bike_id":"4580ac4f-8794-4969-841a-72a57a8bf1c0","system_id":"levelo_inurba_marseille","lat":43.3021,"lon":5.394637,"is_reserved":false,"is_disabled":false,"rental_uris":{"android":"levelo://app?vid=4580ac4f-8794-4969-841a-72a57a8bf1c0","ios":"levelo://app?vid=4580ac4f-8794-4969-841a-72a57a8bf1c0"},"vehicle_type_id":"4","last_reported":1713200794,"current_range_meters":0,"station_id":"ce4bh0p2rcd13ifvqd70","pricing_plan_id":"cebpf4jnsgd1na2vs0mg"},{"bike_id":"f889ae3f-c94c-463a-b81a-9362d8c6f034","system_id":"levelo_inurba_marseille","lat":43.30217,"lon":5.39478,"is_reserved":false,"is_disabled":false,"rental_uris":{"android":"levelo://app?vid=f889ae3f-c94c-463a-b81a-9362d8c6f034","ios":"levelo://app?vid=f889ae3f-c94c-463a-b81a-9362d8c6f034"},"vehicle_type_id":"4","last_reported":1713200794,"current_range_meters":9200,"station_id":"ce4bh0p2rcd13ifvqd70","pricing_plan_id":"cebpf4jnsgd1na2vs0mg"},{"bike_id":"a38fbdf2-3e0c-4082-ac00-065e290dd6b3","system_id":"levelo_inurba_marseille","lat":43.294153,"lon":5.386305,"is_reserved":false,"is_disabled":false,"rental_uris":{"android":"levelo://app?vid=a38fbdf2-3e0c-4082-ac00-065e290dd6b3","ios":"levelo://app?vid=a38fbdf2-3e0c-4082-ac00-065e290dd6b3"},"vehicle_type_id":"4","last_reported":1713200794,"current_range_meters":2000,"station_id":"ce4bh2h2rcd13ifvqdh0","pricing_plan_id":"cebpf4jnsgd1na2vs0mg"},{"bike_id":"a47ea7c9-9ff4-445e-b953-6c0a1ba7d0e3","system_id":"levelo_inurba_marseille","lat":43.290624,"lon":5.359245,"is_reserved":false,"is_disabled":false,"rental_uris":{"android":"levelo://app?vid=a47ea7c9-9ff4-445e-b953-6c0a1ba7d0e3","ios":"levelo://app?vid=a47ea7c9-9ff4-445e-b953-6c0a1ba7d0e3"},"vehicle_type_id":"4","last_reported":1713200794,"current_range_meters":1600,"station_id":"ce4bha92rcd13ifvqeg0","pricing_plan_id":"cebpf4jnsgd1na2vs0mg"},{"bike_id":"6648aa15-456a-4afb-993f-2cb840d841a6","system_id":"levelo_inurba_marseille","lat":43.290624,"lon":5.359245,"is_reserved":false,"is_disabled":false,"rental_uris":{"android":"levelo://app?vid=6648aa15-456a-4afb-993f-2cb840d841a6","ios":"levelo://app?vid=6648aa15-456a-4afb-993f-2cb840d841a6"},"vehicle_type_id":"4","last_reported":1713200794,"current_range_meters":0,"station_id":"ce4bha92rcd13ifvqeg0","pricing_plan_id":"cebpf4jnsgd1na2vs0mg"},{"bike_id":"242b1546-5a59-43bd-b9c3-ea7a7cf60880","system_id":"levelo_inurba_marseille","lat":43.290624,"lon":5.359245,"is_reserved":false,"is_disabled":false,"rental_uris":{"android":"levelo://app?vid=242b1546-5a59-43bd-b9c3-ea7a7cf60880","ios":"levelo://app?vid=242b1546-5a59-43bd-b9c3-ea7a7cf60880"},"vehicle_type_id":"4","last_reported":1713200794,"current_range_meters":28800,"station_id":"ce4bha92rcd13ifvqeg0","pricing_plan_id":"cebpf4jnsgd1na2vs0mg"},{"bike_id":"ed1c5c34-d55d-498f-8902-36c742c1321a","system_id":"levelo_inurba_marseille","lat":43.294153,"lon":5.386305,"is_reserved":false,"is_disabled":false,"rental_uris":{"android":"levelo://app?vid=ed1c5c34-d55d-498f-8902-36c742c1321a","ios":"levelo://app?vid=ed1c5c34-d55d-498f-8902-36c742c1321a"},"vehicle_type_id":"4","last_reported":1713200794,"current_range_meters":22400,"station_id":"ce4bh2h2rcd13ifvqdh0","pricing_plan_id":"cebpf4jnsgd1na2vs0mg"},{"bike_id":"ccde0965-5785-4260-9100-fc68ae45ec15","system_id":"levelo_inurba_marseille","lat":43.294162,"lon":5.386292,"is_reserved":false,"is_disabled":false,"rental_uris":{"android":"levelo://app?vid=ccde0965-5785-4260-9100-fc68ae45ec15","ios":"levelo://app?vid=ccde0965-5785-4260-9100-fc68ae45ec15"},"vehicle_type_id":"4","last_reported":1713200794,"current_range_meters":22000,"station_id":"ce4bh2h2rcd13ifvqdh0","pricing_plan_id":"cebpf4jnsgd1na2vs0mg"},{"bike_id":"0acff438-7b45-4c8a-8543-79e9a3d71473","system_id":"levelo_inurba_marseille","lat":43.294153,"lon":5.386305,"is_reserved":false,"is_disabled":false,"rental_uris":{"android":"levelo://app?vid=0acff438-7b45-4c8a-8543-79e9a3d71473","ios":"levelo://app?vid=0acff438-7b45-4c8a-8543-79e9a3d71473"},"vehicle_type_id":"4","last_reported":1713200794,"current_range_meters":12800,"station_id":"ce4bh2h2rcd13ifvqdh0","pricing_plan_id":"cebpf4jnsgd1na2vs0mg"},{"bike_id":"b39103da-abc5-4341-8d08-1b0c7a8ba881","system_id":"levelo_inurba_marseille","lat":43.294162,"lon":5.386292,"is_reserved":false,"is_disabled":false,"rental_uris":{"android":"levelo://app?vid=b39103da-abc5-4341-8d08-1b0c7a8ba881","ios":"levelo://app?vid=b39103da-abc5-4341-8d08-1b0c7a8ba881"},"vehicle_type_id":"4","last_reported":1713200794,"current_range_meters":9600,"station_id":"ce4bh2h2rcd13ifvqdh0","pricing_plan_id":"cebpf4jnsgd1na2vs0mg"},{"bike_id":"b53b9774-b2a2-49a6-a952-2369809a2e67","system_id":"levelo_inurba_marseille","lat":43.294162,"lon":5.386292,"is_reserved":false,"is_disabled":false,"rental_uris":{"android":"levelo://app?vid=b53b9774-b2a2-49a6-a952-2369809a2e67","ios":"levelo://app?vid=b53b9774-b2a2-49a6-a952-2369809a2e67"},"vehicle_type_id":"4","last_reported":1713200794,"current_range_meters":0,"station_id":"ce4bh2h2rcd13ifvqdh0","pricing_plan_id":"cebpf4jnsgd1na2vs0mg"},{"bike_id":"e52c38db-ba26-48ff-9e15-8f6efab8094b","system_id":"levelo_inurba_marseille","lat":43.294153,"lon":5.386305,"is_reserved":false,"is_disabled":false,"rental_uris":{"android":"levelo://app?vid=e52c38db-ba26-48ff-9e15-8f6efab8094b","ios":"levelo://app?vid=e52c38db-ba26-48ff-9e15-8f6efab8094b"},"vehicle_type_id":"4","last_reported":1713200794,"current_range_meters":6400,"station_id":"ce4bh2h2rcd13ifvqdh0","pricing_plan_id":"cebpf4jnsgd1na2vs0mg"},{"bike_id":"235490bf-0895-4ac9-a536-99691e82a258","system_id":"levelo_inurba_marseille","lat":43.294162,"lon":5.386292,"is_reserved":false,"is_disabled":false,"rental_uris":{"android":"levelo://app?vid=235490bf-0895-4ac9-a536-99691e82a258","ios":"levelo://app?vid=235490bf-0895-4ac9-a536-99691e82a258"},"vehicle_type_id":"4","last_reported":1713200794,"current_range_meters":26000,"station_id":"ce4bh2h2rcd13ifvqdh0","pricing_plan_id":"cebpf4jnsgd1na2vs0mg"},{"bike_id":"e1df267f-cfac-47b7-a062-53d007b280e1","system_id":"levelo_inurba_marseille","lat":43.294162,"lon":5.386292,"is_reserved":false,"is_disabled":false,"rental_uris":{"android":"levelo://app?vid=e1df267f-cfac-47b7-a062-53d007b280e1","ios":"levelo://app?vid=e1df267f-cfac-47b7-a062-53d007b280e1"},"vehicle_type_id":"4","last_reported":1713200794,"current_range_meters":8400,"station_id":"ce4bh2h2rcd13ifvqdh0","pricing_plan_id":"cebpf4jnsgd1na2vs0mg"},{"bike_id":"9fdb894a-15de-44f8-b7b9-7e0a4a37ccf6","system_id":"levelo_inurba_marseille","lat":43.294162,"lon":5.386292,"is_reserved":false,"is_disabled":false,"rental_uris":{"android":"levelo://app?vid=9fdb894a-15de-44f8-b7b9-7e0a4a37ccf6","ios":"levelo://app?vid=9fdb894a-15de-44f8-b7b9-7e0a4a37ccf6"},"vehicle_type_id":"4","last_reported":1713200794,"current_range_meters":1600,"station_id":"ce4bh2h2rcd13ifvqdh0","pricing_plan_id":"cebpf4jnsgd1na2vs0mg"},{"bike_id":"38cf0665-24ce-4d5b-af0f-56c2a5876a70","system_id":"levelo_inurba_marseille","lat":43.289184,"lon":5.366408,"is_reserved":false,"is_disabled":false,"rental_uris":{"android":"levelo://app?vid=38cf0665-24ce-4d5b-af0f-56c2a5876a70","ios":"levelo://app?vid=38cf0665-24ce-4d5b-af0f-56c2a5876a70"},"vehicle_type_id":"4","last_reported":1713200794,"current_range_meters":0,"station_id":"ce4bhap2rcd13ifvqek0","pricing_plan_id":"cebpf4jnsgd1na2vs0mg"},{"bike_id":"b8af8231-c2ee-4c1d-a36b-8b97ccc866b0","system_id":"levelo_inurba_marseille","lat":43.289184,"lon":5.366408,"is_reserved":false,"is_disabled":false,"rental_uris":{"android":"levelo://app?vid=b8af8231-c2ee-4c1d-a36b-8b97ccc866b0","ios":"levelo://app?vid=b8af8231-c2ee-4c1d-a36b-8b97ccc866b0"},"vehicle_type_id":"4","last_reported":1713200794,"current_range_meters":4000,"station_id":"ce4bhap2rcd13ifvqek0","pricing_plan_id":"cebpf4jnsgd1na2vs0mg"},{"bike_id":"04cce699-67a6-4504-9eb8-0dde31d11214","system_id":"levelo_inurba_marseille","lat":43.294162,"lon":5.386292,"is_reserved":false,"is_disabled":false,"rental_uris":{"android":"levelo://app?vid=04cce699-67a6-4504-9eb8-0dde31d11214","ios":"levelo://app?vid=04cce699-67a6-4504-9eb8-0dde31d11214"},"vehicle_type_id":"4","last_reported":1713200794,"current_range_meters":2000,"station_id":"ce4bh2h2rcd13ifvqdh0","pricing_plan_id":"cebpf4jnsgd1na2vs0mg"},{"bike_id":"12e139a2-c2d2-4b56-b202-38a72e4200ff","system_id":"levelo_inurba_marseille","lat":43.310785,"lon":5.424305,"is_reserved":false,"is_disabled":false,"rental_uris":{"android":"levelo://app?vid=12e139a2-c2d2-4b56-b202-38a72e4200ff","ios":"levelo://app?vid=12e139a2-c2d2-4b56-b202-38a72e4200ff"},"vehicle_type_id":"4","last_reported":1713200794,"current_range_meters":10800,"station_id":"ce4bhp92rcd13ifvqhag","pricing_plan_id":"cebpf4jnsgd1na2vs0mg"},{"bike_id":"13b32b49-d8d1-427e-8344-77a256c0b772","system_id":"levelo_inurba_marseille","lat":43.294162,"lon":5.386292,"is_reserved":false,"is_disabled":false,"rental_uris":{"android":"levelo://app?vid=13b32b49-d8d1-427e-8344-77a256c0b772","ios":"levelo://app?vid=13b32b49-d8d1-427e-8344-77a256c0b772"},"vehicle_type_id":"4","last_reported":1713200794,"current_range_meters":12800,"station_id":"ce4bh2h2rcd13ifvqdh0","pricing_plan_id":"cebpf4jnsgd1na2vs0mg"},{"bike_id":"d5ce29f4-a41a-41a4-8e8c-92bb4d02fc77","system_id":"levelo_inurba_marseille","lat":43.292816,"lon":5.384499,"is_reserved":false,"is_disabled":false,"rental_uris":{"android":"levelo://app?vid=d5ce29f4-a41a-41a4-8e8c-92bb4d02fc77","ios":"levelo://app?vid=d5ce29f4-a41a-41a4-8e8c-92bb4d02fc77"},"vehicle_type_id":"4","last_reported":1713200794,"current_range_meters":9600,"station_id":"ce4bh692rcd13ifvqea0","pricing_plan_id":"cebpf4jnsgd1na2vs0mg"},{"bike_id":"f2c7f51f-ed1f-42e5-baf5-2139b9c4d001","system_id":"levelo_inurba_marseille","lat":43.292644,"lon":5.384257,"is_reserved":false,"is_disabled":false,"rental_uris":{"android":"levelo://app?vid=f2c7f51f-ed1f-42e5-baf5-2139b9c4d001","ios":"levelo://app?vid=f2c7f51f-ed1f-42e5-baf5-2139b9c4d001"},"vehicle_type_id":"4","last_reported":1713200794,"current_range_meters":10400,"station_id":"ce4bh692rcd13ifvqea0","pricing_plan_id":"cebpf4jnsgd1na2vs0mg"},{"bike_id":"f2d7a6c1-4e05-4b2f-a339-917c31fca0b5","system_id":"levelo_inurba_marseille","lat":43.290779,"lon":5.371482,"is_reserved":false,"is_disabled":false,"rental_uris":{"android":"levelo://app?vid=f2d7a6c1-4e05-4b2f-a339-917c31fca0b5","ios":"levelo://app?vid=f2d7a6c1-4e05-4b2f-a339-917c31fca0b5"},"vehicle_type_id":"4","last_reported":1713200794,"current_range_meters":7600,"station_id":"ce4bh5p2rcd13ifvqe4g","pricing_plan_id":"cebpf4jnsgd1na2vs0mg"},{"bike_id":"e0411124-4dab-4859-9604-2eee2d554b07","system_id":"levelo_inurba_marseille","lat":43.292644,"lon":5.384257,"is_reserved":false,"is_disabled":false,"rental_uris":{"android":"levelo://app?vid=e0411124-4dab-4859-9604-2eee2d554b07","ios":"levelo://app?vid=e0411124-4dab-4859-9604-2eee2d554b07"},"vehicle_type_id":"4","last_reported":1713200794,"current_range_meters":13200,"station_id":"ce4bh692rcd13ifvqea0","pricing_plan_id":"cebpf4jnsgd1na2vs0mg"},{"bike_id":"fe66bb71-f11e-4e37-9737-5a5cf07ddffe","system_id":"levelo_inurba_marseille","lat":43.29267,"lon":5.38434,"is_reserved":false,"is_disabled":false,"rental_uris":{"android":"levelo://app?vid=fe66bb71-f11e-4e37-9737-5a5cf07ddffe","ios":"levelo://app?vid=fe66bb71-f11e-4e37-9737-5a5cf07ddffe"},"vehicle_type_id":"4","last_reported":1713200794,"current_range_meters":31200,"station_id":"ce4bhch2rcd13ifvqeug","pricing_plan_id":"cebpf4jnsgd1na2vs0mg"},{"bike_id":"5dda3d48-fc6a-48fc-9719-43ecbda23d7d","system_id":"levelo_inurba_marseille","lat":43.292644,"lon":5.384257,"is_reserved":false,"is_disabled":false,"rental_uris":{"android":"levelo://app?vid=5dda3d48-fc6a-48fc-9719-43ecbda23d7d","ios":"levelo://app?vid=5dda3d48-fc6a-48fc-9719-43ecbda23d7d"},"vehicle_type_id":"4","last_reported":1713200794,"current_range_meters":20000,"station_id":"ce4bh692rcd13ifvqea0","pricing_plan_id":"cebpf4jnsgd1na2vs0mg"},{"bike_id":"fdabd885-c35e-44c0-8c77-d629587b644b","system_id":"levelo_inurba_marseille","lat":43.304296,"lon":5.397513,"is_reserved":false,"is_disabled":false,"rental_uris":{"android":"levelo://app?vid=fdabd885-c35e-44c0-8c77-d629587b644b","ios":"levelo://app?vid=fdabd885-c35e-44c0-8c77-d629587b644b"},"vehicle_type_id":"4","last_reported":1713200794,"current_range_meters":6800,"station_id":"ce4bh092rcd13ifvqd20","pricing_plan_id":"cebpf4jnsgd1na2vs0mg"},{"bike_id":"046f988c-be41-47a1-87ee-86ae84d4fefd","system_id":"levelo_inurba_marseille","lat":43.292644,"lon":5.384257,"is_reserved":false,"is_disabled":false,"rental_uris":{"android":"levelo://app?vid=046f988c-be41-47a1-87ee-86ae84d4fefd","ios":"levelo://app?vid=046f988c-be41-47a1-87ee-86ae84d4fefd"},"vehicle_type_id":"4","last_reported":1713200794,"current_range_meters":18000,"station_id":"ce4bh692rcd13ifvqea0","pricing_plan_id":"cebpf4jnsgd1na2vs0mg"},{"bike_id":"8adb170c-2b09-45ff-99af-b821bd92ee2d","system_id":"levelo_inurba_marseille","lat":43.29259,"lon":5.38449,"is_reserved":false,"is_disabled":false,"rental_uris":{"android":"levelo://app?vid=8adb170c-2b09-45ff-99af-b821bd92ee2d","ios":"levelo://app?vid=8adb170c-2b09-45ff-99af-b821bd92ee2d"},"vehicle_type_id":"4","last_reported":1713200794,"current_range_meters":0,"station_id":"ce4bh692rcd13ifvqea0","pricing_plan_id":"cebpf4jnsgd1na2vs0mg"},{"bike_id":"98c60f80-824d-4ba8-ac98-89a209477d8e","system_id":"levelo_inurba_marseille","lat":43.294162,"lon":5.386292,"is_reserved":false,"is_disabled":false,"rental_uris":{"android":"levelo://app?vid=98c60f80-824d-4ba8-ac98-89a209477d8e","ios":"levelo://app?vid=98c60f80-824d-4ba8-ac98-89a209477d8e"},"vehicle_type_id":"4","last_reported":1713200794,"current_range_meters":3600,"station_id":"ce4bh2h2rcd13ifvqdh0","pricing_plan_id":"cebpf4jnsgd1na2vs0mg"},{"bike_id":"8819ceb4-a45c-4950-9bd6-a06491b641c1","system_id":"levelo_inurba_marseille","lat":43.290103,"lon":5.356114,"is_reserved":false,"is_disabled":false,"rental_uris":{"android":"levelo://app?vid=8819ceb4-a45c-4950-9bd6-a06491b641c1","ios":"levelo://app?vid=8819ceb4-a45c-4950-9bd6-a06491b641c1"},"vehicle_type_id":"4","last_reported":1713200794,"current_range_meters":31600,"station_id":"ce4bhb92rcd13ifvqen0","pricing_plan_id":"cebpf4jnsgd1na2vs0mg"},{"bike_id":"c2b9c46b-ad21-405c-ae09-3364d8c8b2fb","system_id":"levelo_inurba_marseille","lat":43.290104,"lon":5.356111,"is_reserved":false,"is_disabled":false,"rental_uris":{"android":"levelo://app?vid=c2b9c46b-ad21-405c-ae09-3364d8c8b2fb","ios":"levelo://app?vid=c2b9c46b-ad21-405c-ae09-3364d8c8b2fb"},"vehicle_type_id":"4","last_reported":1713200794,"current_range_meters":4000,"station_id":"ce4bhb92rcd13ifvqen0","pricing_plan_id":"cebpf4jnsgd1na2vs0mg"},{"bike_id":"9236d514-aa56-4098-b779-1a05a6d971c1","system_id":"levelo_inurba_marseille","lat":43.290103,"lon":5.356114,"is_reserved":false,"is_disabled":false,"rental_uris":{"android":"levelo://app?vid=9236d514-aa56-4098-b779-1a05a6d971c1","ios":"levelo://app?vid=9236d514-aa56-4098-b779-1a05a6d971c1"},"vehicle_type_id":"4","last_reported":1713200794,"current_range_meters":16400,"station_id":"ce4bhb92rcd13ifvqen0","pricing_plan_id":"cebpf4jnsgd1na2vs0mg"},{"bike_id":"7e899838-7b07-4187-800f-c6051863a56b","system_id":"levelo_inurba_marseille","lat":43.290104,"lon":5.356111,"is_reserved":false,"is_disabled":false,"rental_uris":{"android":"levelo://app?vid=7e899838-7b07-4187-800f-c6051863a56b","ios":"levelo://app?vid=7e899838-7b07-4187-800f-c6051863a56b"},"vehicle_type_id":"4","last_reported":1713200794,"current_range_meters":7200,"station_id":"ce4bhb92rcd13ifvqen0","pricing_plan_id":"cebpf4jnsgd1na2vs0mg"},{"bike_id":"92af855e-1618-4c3c-bb03-bd1235a019ec","system_id":"levelo_inurba_marseille","lat":43.290103,"lon":5.356114,"is_reserved":false,"is_disabled":false,"rental_uris":{"android":"levelo://app?vid=92af855e-1618-4c3c-bb03-bd1235a019ec","ios":"levelo://app?vid=92af855e-1618-4c3c-bb03-bd1235a019ec"},"vehicle_type_id":"4","last_reported":1713200794,"current_range_meters":31600,"station_id":"ce4bhb92rcd13ifvqen0","pricing_plan_id":"cebpf4jnsgd1na2vs0mg"},{"bike_id":"9cbf8aa8-61c1-4ed8-85af-a40ee7d8f48e","system_id":"levelo_inurba_marseille","lat":43.290103,"lon":5.356114,"is_reserved":false,"is_disabled":false,"rental_uris":{"android":"levelo://app?vid=9cbf8aa8-61c1-4ed8-85af-a40ee7d8f48e","ios":"levelo://app?vid=9cbf8aa8-61c1-4ed8-85af-a40ee7d8f48e"},"vehicle_type_id":"4","last_reported":1713200794,"current_range_meters":15600,"station_id":"ce4bhb92rcd13ifvqen0","pricing_plan_id":"cebpf4jnsgd1na2vs0mg"},{"bike_id":"be6ba048-38a7-4d8a-a527-eb7de2ae26a7","system_id":"levelo_inurba_marseille","lat":43.297815,"lon":5.393548,"is_reserved":false,"is_disabled":false,"rental_uris":{"android":"levelo://app?vid=be6ba048-38a7-4d8a-a527-eb7de2ae26a7","ios":"levelo://app?vid=be6ba048-38a7-4d8a-a527-eb7de2ae26a7"},"vehicle_type_id":"4","last_reported":1713200794,"current_range_meters":9600,"station_id":"chh1huq6cuj3fo74tm60","pricing_plan_id":"cebpf4jnsgd1na2vs0mg"},{"bike_id":"d35ba75f-39ed-4ccd-ac0e-288aa00089e0","system_id":"levelo_inurba_marseille","lat":43.33022,"lon":5.39037,"is_reserved":false,"is_disabled":false,"rental_uris":{"android":"levelo://app?vid=d35ba75f-39ed-4ccd-ac0e-288aa00089e0","ios":"levelo://app?vid=d35ba75f-39ed-4ccd-ac0e-288aa00089e0"},"vehicle_type_id":"4","last_reported":1713200794,"current_range_meters":1600,"station_id":"ce4bhr92rcd13ifvqhrg","pricing_plan_id":"cebpf4jnsgd1na2vs0mg"},{"bike_id":"e7870f04-9946-47af-b326-e15da4a91b34","system_id":"levelo_inurba_marseille","lat":43.33025,"lon":5.39036,"is_reserved":false,"is_disabled":false,"rental_uris":{"android":"levelo://app?vid=e7870f04-9946-47af-b326-e15da4a91b34","ios":"levelo://app?vid=e7870f04-9946-47af-b326-e15da4a91b34"},"vehicle_type_id":"4","last_reported":1713200794,"current_range_meters":13200,"station_id":"ce4bhr92rcd13ifvqhrg","pricing_plan_id":"cebpf4jnsgd1na2vs0mg"},{"bike_id":"cb8b9c01-a0f5-4a5b-b2f9-4fb643bf52fe","system_id":"levelo_inurba_marseille","lat":43.330442,"lon":5.389148,"is_reserved":false,"is_disabled":false,"rental_uris":{"android":"levelo://app?vid=cb8b9c01-a0f5-4a5b-b2f9-4fb643bf52fe","ios":"levelo://app?vid=cb8b9c01-a0f5-4a5b-b2f9-4fb643bf52fe"},"vehicle_type_id":"4","last_reported":1713200794,"current_range_meters":18800,"station_id":"ce4bhr92rcd13ifvqhrg","pricing_plan_id":"cebpf4jnsgd1na2vs0mg"},{"bike_id":"9ed4c8a3-6eb7-4317-9d95-45394ad31002","system_id":"levelo_inurba_marseille","lat":43.330442,"lon":5.389148,"is_reserved":false,"is_disabled":false,"rental_uris":{"android":"levelo://app?vid=9ed4c8a3-6eb7-4317-9d95-45394ad31002","ios":"levelo://app?vid=9ed4c8a3-6eb7-4317-9d95-45394ad31002"},"vehicle_type_id":"4","last_reported":1713200794,"current_range_meters":15600,"station_id":"ce4bhr92rcd13ifvqhrg","pricing_plan_id":"cebpf4jnsgd1na2vs0mg"},{"bike_id":"fb2b6be4-3eb5-4c6c-80d6-23618a8bc2a6","system_id":"levelo_inurba_marseille","lat":43.295169,"lon":5.390426,"is_reserved":false,"is_disabled":false,"rental_uris":{"android":"levelo://app?vid=fb2b6be4-3eb5-4c6c-80d6-23618a8bc2a6","ios":"levelo://app?vid=fb2b6be4-3eb5-4c6c-80d6-23618a8bc2a6"},"vehicle_type_id":"4","last_reported":1713200794,"current_range_meters":19600,"station_id":"ce4bh3p2rcd13ifvqdp0","pricing_plan_id":"cebpf4jnsgd1na2vs0mg"},{"bike_id":"b5a248dc-9382-4b84-92cd-0ab3a8395d6a","system_id":"levelo_inurba_marseille","lat":43.330442,"lon":5.389148,"is_reserved":false,"is_disabled":false,"rental_uris":{"android":"levelo://app?vid=b5a248dc-9382-4b84-92cd-0ab3a8395d6a","ios":"levelo://app?vid=b5a248dc-9382-4b84-92cd-0ab3a8395d6a"},"vehicle_type_id":"4","last_reported":1713200794,"current_range_meters":27200,"station_id":"ce4bhr92rcd13ifvqhrg","pricing_plan_id":"cebpf4jnsgd1na2vs0mg"},{"bike_id":"5c3035fb-e444-43b5-b5e5-746aa24a6eb9","system_id":"levelo_inurba_marseille","lat":43.330442,"lon":5.389148,"is_reserved":false,"is_disabled":false,"rental_uris":{"android":"levelo://app?vid=5c3035fb-e444-43b5-b5e5-746aa24a6eb9","ios":"levelo://app?vid=5c3035fb-e444-43b5-b5e5-746aa24a6eb9"},"vehicle_type_id":"4","last_reported":1713200794,"current_range_meters":0,"station_id":"ce4bhr92rcd13ifvqhrg","pricing_plan_id":"cebpf4jnsgd1na2vs0mg"},{"bike_id":"432fb115-a9d5-414d-9505-41fc0ad18a66","system_id":"levelo_inurba_marseille","lat":43.330442,"lon":5.389148,"is_reserved":false,"is_disabled":false,"rental_uris":{"android":"levelo://app?vid=432fb115-a9d5-414d-9505-41fc0ad18a66","ios":"levelo://app?vid=432fb115-a9d5-414d-9505-41fc0ad18a66"},"vehicle_type_id":"4","last_reported":1713200794,"current_range_meters":22800,"station_id":"ce4bhr92rcd13ifvqhrg","pricing_plan_id":"cebpf4jnsgd1na2vs0mg"},{"bike_id":"c27de58c-4d51-4d8b-804e-15754e64d2d9","system_id":"levelo_inurba_marseille","lat":43.330442,"lon":5.389148,"is_reserved":false,"is_disabled":false,"rental_uris":{"android":"levelo://app?vid=c27de58c-4d51-4d8b-804e-15754e64d2d9","ios":"levelo://app?vid=c27de58c-4d51-4d8b-804e-15754e64d2d9"},"vehicle_type_id":"4","last_reported":1713200794,"current_range_meters":0,"station_id":"ce4bhr92rcd13ifvqhrg","pricing_plan_id":"cebpf4jnsgd1na2vs0mg"},{"bike_id":"9c1c16cd-6359-46bd-aaf9-b0fc26dfc518","system_id":"levelo_inurba_marseille","lat":43.33035,"lon":5.39042,"is_reserved":false,"is_disabled":false,"rental_uris":{"android":"levelo://app?vid=9c1c16cd-6359-46bd-aaf9-b0fc26dfc518","ios":"levelo://app?vid=9c1c16cd-6359-46bd-aaf9-b0fc26dfc518"},"vehicle_type_id":"4","last_reported":1713200794,"current_range_meters":6400,"station_id":"ce4bhr92rcd13ifvqhrg","pricing_plan_id":"cebpf4jnsgd1na2vs0mg"},{"bike_id":"966863ae-4660-497c-a8c7-8eee15038dd2","system_id":"levelo_inurba_marseille","lat":43.288608,"lon":5.358445,"is_reserved":false,"is_disabled":false,"rental_uris":{"android":"levelo://app?vid=966863ae-4660-497c-a8c7-8eee15038dd2","ios":"levelo://app?vid=966863ae-4660-497c-a8c7-8eee15038dd2"},"vehicle_type_id":"4","last_reported":1713200794,"current_range_meters":1200,"station_id":"ce4bhb12rcd13ifvqem0","pricing_plan_id":"cebpf4jnsgd1na2vs0mg"},{"bike_id":"ed7b21c4-cab6-4db6-9b8f-c8e44ffaae63","system_id":"levelo_inurba_marseille","lat":43.28856,"lon":5.358371,"is_reserved":false,"is_disabled":false,"rental_uris":{"android":"levelo://app?vid=ed7b21c4-cab6-4db6-9b8f-c8e44ffaae63","ios":"levelo://app?vid=ed7b21c4-cab6-4db6-9b8f-c8e44ffaae63"},"vehicle_type_id":"4","last_reported":1713200794,"current_range_meters":0,"station_id":"ce4bhb12rcd13ifvqem0","pricing_plan_id":"cebpf4jnsgd1na2vs0mg"},{"bike_id":"4f0d4c81-ba8b-4a4a-8edc-893004b42f56","system_id":"levelo_inurba_marseille","lat":43.2901,"lon":5.381269,"is_reserved":false,"is_disabled":false,"rental_uris":{"android":"levelo://app?vid=4f0d4c81-ba8b-4a4a-8edc-893004b42f56","ios":"levelo://app?vid=4f0d4c81-ba8b-4a4a-8edc-893004b42f56"},"vehicle_type_id":"4","last_reported":1713200794,"current_range_meters":12800,"station_id":"ce4bh4p2rcd13ifvqe1g","pricing_plan_id":"cebpf4jnsgd1na2vs0mg"},{"bike_id":"8ad4cc55-dff1-4203-a497-aa08d94ddf76","system_id":"levelo_inurba_marseille","lat":43.309371,"lon":5.401449,"is_reserved":false,"is_disabled":false,"rental_uris":{"android":"levelo://app?vid=8ad4cc55-dff1-4203-a497-aa08d94ddf76","ios":"levelo://app?vid=8ad4cc55-dff1-4203-a497-aa08d94ddf76"},"vehicle_type_id":"4","last_reported":1713200794,"current_range_meters":0,"station_id":"ce4bgvp2rcd13ifvqct0","pricing_plan_id":"cebpf4jnsgd1na2vs0mg"},{"bike_id":"c878cc66-2949-476f-8648-d19099fdb85a","system_id":"levelo_inurba_marseille","lat":43.298681,"lon":5.397225,"is_reserved":false,"is_disabled":false,"rental_uris":{"android":"levelo://app?vid=c878cc66-2949-476f-8648-d19099fdb85a","ios":"levelo://app?vid=c878cc66-2949-476f-8648-d19099fdb85a"},"vehicle_type_id":"4","last_reported":1713200794,"current_range_meters":400,"station_id":"ce4bh0h2rcd13ifvqd50","pricing_plan_id":"cebpf4jnsgd1na2vs0mg"},{"bike_id":"36680056-5347-4acc-ae11-296ed0e60f47","system_id":"levelo_inurba_marseille","lat":43.309371,"lon":5.401449,"is_reserved":false,"is_disabled":false,"rental_uris":{"android":"levelo://app?vid=36680056-5347-4acc-ae11-296ed0e60f47","ios":"levelo://app?vid=36680056-5347-4acc-ae11-296ed0e60f47"},"vehicle_type_id":"4","last_reported":1713200794,"current_range_meters":11200,"station_id":"ce4bgvp2rcd13ifvqct0","pricing_plan_id":"cebpf4jnsgd1na2vs0mg"},{"bike_id":"2e736af2-202a-404b-8905-1084415eeb58","system_id":"levelo_inurba_marseille","lat":43.309371,"lon":5.401449,"is_reserved":false,"is_disabled":false,"rental_uris":{"android":"levelo://app?vid=2e736af2-202a-404b-8905-1084415eeb58","ios":"levelo://app?vid=2e736af2-202a-404b-8905-1084415eeb58"},"vehicle_type_id":"4","last_reported":1713200794,"current_range_meters":12400,"station_id":"ce4bgvp2rcd13ifvqct0","pricing_plan_id":"cebpf4jnsgd1na2vs0mg"},{"bike_id":"998ddf1b-f89e-45af-9d65-f2874bae51de","system_id":"levelo_inurba_marseille","lat":43.312609,"lon":5.401662,"is_reserved":false,"is_disabled":false,"rental_uris":{"android":"levelo://app?vid=998ddf1b-f89e-45af-9d65-f2874bae51de","ios":"levelo://app?vid=998ddf1b-f89e-45af-9d65-f2874bae51de"},"vehicle_type_id":"4","last_reported":1713200794,"current_range_meters":800,"station_id":"ce4bh092rcd13ifvqd30","pricing_plan_id":"cebpf4jnsgd1na2vs0mg"},{"bike_id":"87e7704b-f916-4fe5-89ab-9c3363f058bf","system_id":"levelo_inurba_marseille","lat":43.309371,"lon":5.401449,"is_reserved":false,"is_disabled":false,"rental_uris":{"android":"levelo://app?vid=87e7704b-f916-4fe5-89ab-9c3363f058bf","ios":"levelo://app?vid=87e7704b-f916-4fe5-89ab-9c3363f058bf"},"vehicle_type_id":"4","last_reported":1713200794,"current_range_meters":800,"station_id":"ce4bgvp2rcd13ifvqct0","pricing_plan_id":"cebpf4jnsgd1na2vs0mg"},{"bike_id":"b47c9187-a1e2-42aa-bd3d-ed16c9d5b93b","system_id":"levelo_inurba_marseille","lat":43.33612,"lon":5.410321,"is_reserved":false,"is_disabled":false,"rental_uris":{"android":"levelo://app?vid=b47c9187-a1e2-42aa-bd3d-ed16c9d5b93b","ios":"levelo://app?vid=b47c9187-a1e2-42aa-bd3d-ed16c9d5b93b"},"vehicle_type_id":"4","last_reported":1713200794,"current_range_meters":1600,"station_id":"ce4bhqh2rcd13ifvqhmg","pricing_plan_id":"cebpf4jnsgd1na2vs0mg"},{"bike_id":"084efec4-7234-45c9-a4b5-0a0d22a5f906","system_id":"levelo_inurba_marseille","lat":43.306412,"lon":5.401035,"is_reserved":false,"is_disabled":false,"rental_uris":{"android":"levelo://app?vid=084efec4-7234-45c9-a4b5-0a0d22a5f906","ios":"levelo://app?vid=084efec4-7234-45c9-a4b5-0a0d22a5f906"},"vehicle_type_id":"4","last_reported":1713200794,"current_range_meters":5200,"station_id":"ce4bh112rcd13ifvqda0","pricing_plan_id":"cebpf4jnsgd1na2vs0mg"},{"bike_id":"a39f5224-c737-4241-b67d-2191231c077a","system_id":"levelo_inurba_marseille","lat":43.33768,"lon":5.37472,"is_reserved":false,"is_disabled":false,"rental_uris":{"android":"levelo://app?vid=a39f5224-c737-4241-b67d-2191231c077a","ios":"levelo://app?vid=a39f5224-c737-4241-b67d-2191231c077a"},"vehicle_type_id":"4","last_reported":1713200794,"current_range_meters":11600,"station_id":"","pricing_plan_id":"cebpf4jnsgd1na2vs0mg"},{"bike_id":"4f01c83c-bfae-445a-95d2-b27ab4c50e36","system_id":"levelo_inurba_marseille","lat":43.301117,"lon":5.398795,"is_reserved":false,"is_disabled":false,"rental_uris":{"android":"levelo://app?vid=4f01c83c-bfae-445a-95d2-b27ab4c50e36","ios":"levelo://app?vid=4f01c83c-bfae-445a-95d2-b27ab4c50e36"},"vehicle_type_id":"4","last_reported":1713200794,"current_range_meters":0,"station_id":"ce4bh0h2rcd13ifvqd40","pricing_plan_id":"cebpf4jnsgd1na2vs0mg"},{"bike_id":"dee6401a-e50b-4f34-ab74-637a2451dd34","system_id":"levelo_inurba_marseille","lat":43.30153,"lon":5.39871,"is_reserved":false,"is_disabled":false,"rental_uris":{"android":"levelo://app?vid=dee6401a-e50b-4f34-ab74-637a2451dd34","ios":"levelo://app?vid=dee6401a-e50b-4f34-ab74-637a2451dd34"},"vehicle_type_id":"4","last_reported":1713200794,"current_range_meters":6400,"station_id":"ce4bh0h2rcd13ifvqd40","pricing_plan_id":"cebpf4jnsgd1na2vs0mg"},{"bike_id":"eae3be35-2b10-4588-9451-8e3af261f0d4","system_id":"levelo_inurba_marseille","lat":43.301117,"lon":5.398795,"is_reserved":false,"is_disabled":false,"rental_uris":{"android":"levelo://app?vid=eae3be35-2b10-4588-9451-8e3af261f0d4","ios":"levelo://app?vid=eae3be35-2b10-4588-9451-8e3af261f0d4"},"vehicle_type_id":"4","last_reported":1713200794,"current_range_meters":6000,"station_id":"ce4bh0h2rcd13ifvqd40","pricing_plan_id":"cebpf4jnsgd1na2vs0mg"},{"bike_id":"9ca85000-d326-4794-8781-1f43c2f887e5","system_id":"levelo_inurba_marseille","lat":43.30137,"lon":5.39861,"is_reserved":false,"is_disabled":false,"rental_uris":{"android":"levelo://app?vid=9ca85000-d326-4794-8781-1f43c2f887e5","ios":"levelo://app?vid=9ca85000-d326-4794-8781-1f43c2f887e5"},"vehicle_type_id":"4","last_reported":1713200794,"current_range_meters":0,"station_id":"ce4bh0h2rcd13ifvqd40","pricing_plan_id":"cebpf4jnsgd1na2vs0mg"},{"bike_id":"ca9d6b32-fd25-4526-bf14-5af9f1009d2e","system_id":"levelo_inurba_marseille","lat":43.30142,"lon":5.39866,"is_reserved":false,"is_disabled":false,"rental_uris":{"android":"levelo://app?vid=ca9d6b32-fd25-4526-bf14-5af9f1009d2e","ios":"levelo://app?vid=ca9d6b32-fd25-4526-bf14-5af9f1009d2e"},"vehicle_type_id":"4","last_reported":1713200794,"current_range_meters":24400,"station_id":"ce4bh0h2rcd13ifvqd40","pricing_plan_id":"cebpf4jnsgd1na2vs0mg"},{"bike_id":"1e9c2567-53bb-43df-ae16-c94e120892fe","system_id":"levelo_inurba_marseille","lat":43.3015,"lon":5.39872,"is_reserved":false,"is_disabled":false,"rental_uris":{"android":"levelo://app?vid=1e9c2567-53bb-43df-ae16-c94e120892fe","ios":"levelo://app?vid=1e9c2567-53bb-43df-ae16-c94e120892fe"},"vehicle_type_id":"4","last_reported":1713200794,"current_range_meters":0,"station_id":"ce4bh0h2rcd13ifvqd40","pricing_plan_id":"cebpf4jnsgd1na2vs0mg"},{"bike_id":"f8861777-a0af-4e30-9793-97f2900e2974","system_id":"levelo_inurba_marseille","lat":43.301379,"lon":5.398639,"is_reserved":false,"is_disabled":false,"rental_uris":{"android":"levelo://app?vid=f8861777-a0af-4e30-9793-97f2900e2974","ios":"levelo://app?vid=f8861777-a0af-4e30-9793-97f2900e2974"},"vehicle_type_id":"4","last_reported":1713200794,"current_range_meters":4000,"station_id":"ce4bh0h2rcd13ifvqd40","pricing_plan_id":"cebpf4jnsgd1na2vs0mg"},{"bike_id":"c8eb9115-3db4-4a20-b014-7a7a7f98d80e","system_id":"levelo_inurba_marseille","lat":43.290345,"lon":5.38646,"is_reserved":false,"is_disabled":false,"rental_uris":{"android":"levelo://app?vid=c8eb9115-3db4-4a20-b014-7a7a7f98d80e","ios":"levelo://app?vid=c8eb9115-3db4-4a20-b014-7a7a7f98d80e"},"vehicle_type_id":"4","last_reported":1713200794,"current_range_meters":0,"station_id":"ce4bh4p2rcd13ifvqe0g","pricing_plan_id":"cebpf4jnsgd1na2vs0mg"},{"bike_id":"89b9db50-4c59-4e9a-83dc-3a25ce901caf","system_id":"levelo_inurba_marseille","lat":43.301117,"lon":5.398795,"is_reserved":false,"is_disabled":false,"rental_uris":{"android":"levelo://app?vid=89b9db50-4c59-4e9a-83dc-3a25ce901caf","ios":"levelo://app?vid=89b9db50-4c59-4e9a-83dc-3a25ce901caf"},"vehicle_type_id":"4","last_reported":1713200794,"current_range_meters":2800,"station_id":"ce4bh0h2rcd13ifvqd40","pricing_plan_id":"cebpf4jnsgd1na2vs0mg"},{"bike_id":"1ac636b1-b890-43af-aab3-5664e1e7b80a","system_id":"levelo_inurba_marseille","lat":43.301117,"lon":5.398795,"is_reserved":false,"is_disabled":false,"rental_uris":{"android":"levelo://app?vid=1ac636b1-b890-43af-aab3-5664e1e7b80a","ios":"levelo://app?vid=1ac636b1-b890-43af-aab3-5664e1e7b80a"},"vehicle_type_id":"4","last_reported":1713200794,"current_range_meters":14800,"station_id":"ce4bh0h2rcd13ifvqd40","pricing_plan_id":"cebpf4jnsgd1na2vs0mg"},{"bike_id":"41d02e1d-b6b7-4767-93b8-5d98ee25fc1e","system_id":"levelo_inurba_marseille","lat":43.309371,"lon":5.401449,"is_reserved":false,"is_disabled":false,"rental_uris":{"android":"levelo://app?vid=41d02e1d-b6b7-4767-93b8-5d98ee25fc1e","ios":"levelo://app?vid=41d02e1d-b6b7-4767-93b8-5d98ee25fc1e"},"vehicle_type_id":"4","last_reported":1713200794,"current_range_meters":0,"station_id":"ce4bgvp2rcd13ifvqct0","pricing_plan_id":"cebpf4jnsgd1na2vs0mg"},{"bike_id":"32dce055-a829-4340-8aa8-45ae368238e5","system_id":"levelo_inurba_marseille","lat":43.28727,"lon":5.36078,"is_reserved":false,"is_disabled":false,"rental_uris":{"android":"levelo://app?vid=32dce055-a829-4340-8aa8-45ae368238e5","ios":"levelo://app?vid=32dce055-a829-4340-8aa8-45ae368238e5"},"vehicle_type_id":"4","last_reported":1713200794,"current_range_meters":24000,"station_id":"cki0cbj6b192h4jlfktg","pricing_plan_id":"cebpf4jnsgd1na2vs0mg"},{"bike_id":"d94a64d4-18aa-4ab1-8d5f-d3b6729ba088","system_id":"levelo_inurba_marseille","lat":43.2988,"lon":5.39723,"is_reserved":false,"is_disabled":false,"rental_uris":{"android":"levelo://app?vid=d94a64d4-18aa-4ab1-8d5f-d3b6729ba088","ios":"levelo://app?vid=d94a64d4-18aa-4ab1-8d5f-d3b6729ba088"},"vehicle_type_id":"4","last_reported":1713200794,"current_range_meters":0,"station_id":"ce4bh0h2rcd13ifvqd50","pricing_plan_id":"cebpf4jnsgd1na2vs0mg"},{"bike_id":"96fe72b3-d98c-4279-96e1-92ea96df3ab1","system_id":"levelo_inurba_marseille","lat":43.311125,"lon":5.377624,"is_reserved":false,"is_disabled":false,"rental_uris":{"android":"levelo://app?vid=96fe72b3-d98c-4279-96e1-92ea96df3ab1","ios":"levelo://app?vid=96fe72b3-d98c-4279-96e1-92ea96df3ab1"},"vehicle_type_id":"4","last_reported":1713200794,"current_range_meters":4000,"station_id":"ce4bgt92rcd13ifvqcg0","pricing_plan_id":"cebpf4jnsgd1na2vs0mg"},{"bike_id":"35eaff97-ef08-4ede-98df-8992cee82e39","system_id":"levelo_inurba_marseille","lat":43.286591,"lon":5.363346,"is_reserved":false,"is_disabled":false,"rental_uris":{"android":"levelo://app?vid=35eaff97-ef08-4ede-98df-8992cee82e39","ios":"levelo://app?vid=35eaff97-ef08-4ede-98df-8992cee82e39"},"vehicle_type_id":"4","last_reported":1713200794,"current_range_meters":8000,"station_id":"ce4bhah2rcd13ifvqej0","pricing_plan_id":"cebpf4jnsgd1na2vs0mg"},{"bike_id":"41cc33e7-1600-417d-b4de-3f41b9901653","system_id":"levelo_inurba_marseille","lat":43.298681,"lon":5.397225,"is_reserved":false,"is_disabled":false,"rental_uris":{"android":"levelo://app?vid=41cc33e7-1600-417d-b4de-3f41b9901653","ios":"levelo://app?vid=41cc33e7-1600-417d-b4de-3f41b9901653"},"vehicle_type_id":"4","last_reported":1713200794,"current_range_meters":3200,"station_id":"ce4bh0h2rcd13ifvqd50","pricing_plan_id":"cebpf4jnsgd1na2vs0mg"},{"bike_id":"cd34679b-f46b-4f26-b1cf-ced6a5e740bc","system_id":"levelo_inurba_marseille","lat":43.298681,"lon":5.397225,"is_reserved":false,"is_disabled":false,"rental_uris":{"android":"levelo://app?vid=cd34679b-f46b-4f26-b1cf-ced6a5e740bc","ios":"levelo://app?vid=cd34679b-f46b-4f26-b1cf-ced6a5e740bc"},"vehicle_type_id":"4","last_reported":1713200794,"current_range_meters":5600,"station_id":"ce4bh0h2rcd13ifvqd50","pricing_plan_id":"cebpf4jnsgd1na2vs0mg"},{"bike_id":"503a11b0-b170-4242-b319-13da6f1efdd7","system_id":"levelo_inurba_marseille","lat":43.290345,"lon":5.38646,"is_reserved":false,"is_disabled":false,"rental_uris":{"android":"levelo://app?vid=503a11b0-b170-4242-b319-13da6f1efdd7","ios":"levelo://app?vid=503a11b0-b170-4242-b319-13da6f1efdd7"},"vehicle_type_id":"4","last_reported":1713200794,"current_range_meters":17200,"station_id":"ce4bh4p2rcd13ifvqe0g","pricing_plan_id":"cebpf4jnsgd1na2vs0mg"},{"bike_id":"cff28b85-2cca-4625-aa45-98f97f37d538","system_id":"levelo_inurba_marseille","lat":43.289307,"lon":5.38406,"is_reserved":false,"is_disabled":false,"rental_uris":{"android":"levelo://app?vid=cff28b85-2cca-4625-aa45-98f97f37d538","ios":"levelo://app?vid=cff28b85-2cca-4625-aa45-98f97f37d538"},"vehicle_type_id":"4","last_reported":1713200794,"current_range_meters":4800,"station_id":"ce4bh612rcd13ifvqe6g","pricing_plan_id":"cebpf4jnsgd1na2vs0mg"},{"bike_id":"4968f72b-c01d-4269-a42a-0b03e4439f1b","system_id":"levelo_inurba_marseille","lat":43.295194,"lon":5.39397,"is_reserved":false,"is_disabled":false,"rental_uris":{"android":"levelo://app?vid=4968f72b-c01d-4269-a42a-0b03e4439f1b","ios":"levelo://app?vid=4968f72b-c01d-4269-a42a-0b03e4439f1b"},"vehicle_type_id":"4","last_reported":1713200794,"current_range_meters":4000,"station_id":"ce4bh292rcd13ifvqdf0","pricing_plan_id":"cebpf4jnsgd1na2vs0mg"},{"bike_id":"3aee3b41-b85d-4ef4-a3c3-3f9c3951bfba","system_id":"levelo_inurba_marseille","lat":43.302759,"lon":5.400793,"is_reserved":false,"is_disabled":false,"rental_uris":{"android":"levelo://app?vid=3aee3b41-b85d-4ef4-a3c3-3f9c3951bfba","ios":"levelo://app?vid=3aee3b41-b85d-4ef4-a3c3-3f9c3951bfba"},"vehicle_type_id":"4","last_reported":1713200794,"current_range_meters":8000,"station_id":"ce4bgvh2rcd13ifvqcs0","pricing_plan_id":"cebpf4jnsgd1na2vs0mg"},{"bike_id":"da543a19-d903-4aef-9145-2cb1a46b21e1","system_id":"levelo_inurba_marseille","lat":43.286591,"lon":5.363346,"is_reserved":false,"is_disabled":false,"rental_uris":{"android":"levelo://app?vid=da543a19-d903-4aef-9145-2cb1a46b21e1","ios":"levelo://app?vid=da543a19-d903-4aef-9145-2cb1a46b21e1"},"vehicle_type_id":"4","last_reported":1713200794,"current_range_meters":11200,"station_id":"ce4bhah2rcd13ifvqej0","pricing_plan_id":"cebpf4jnsgd1na2vs0mg"},{"bike_id":"07e7fe19-0c33-4864-b178-3b52915218ac","system_id":"levelo_inurba_marseille","lat":43.30242,"lon":5.40061,"is_reserved":false,"is_disabled":false,"rental_uris":{"android":"levelo://app?vid=07e7fe19-0c33-4864-b178-3b52915218ac","ios":"levelo://app?vid=07e7fe19-0c33-4864-b178-3b52915218ac"},"vehicle_type_id":"4","last_reported":1713200794,"current_range_meters":0,"station_id":"ce4bgvh2rcd13ifvqcs0","pricing_plan_id":"cebpf4jnsgd1na2vs0mg"},{"bike_id":"f64bdba5-af7f-4b69-a90f-0e73e914e37f","system_id":"levelo_inurba_marseille","lat":43.30243,"lon":5.40074,"is_reserved":false,"is_disabled":false,"rental_uris":{"android":"levelo://app?vid=f64bdba5-af7f-4b69-a90f-0e73e914e37f","ios":"levelo://app?vid=f64bdba5-af7f-4b69-a90f-0e73e914e37f"},"vehicle_type_id":"4","last_reported":1713200794,"current_range_meters":0,"station_id":"ce4bgvh2rcd13ifvqcs0","pricing_plan_id":"cebpf4jnsgd1na2vs0mg"},{"bike_id":"7ae36497-8777-42b9-903b-a464ee05c9b9","system_id":"levelo_inurba_marseille","lat":43.286039,"lon":5.370679,"is_reserved":false,"is_disabled":false,"rental_uris":{"android":"levelo://app?vid=7ae36497-8777-42b9-903b-a464ee05c9b9","ios":"levelo://app?vid=7ae36497-8777-42b9-903b-a464ee05c9b9"},"vehicle_type_id":"4","last_reported":1713200794,"current_range_meters":19600,"station_id":"ce4bht12rcd13ifvqi60","pricing_plan_id":"cebpf4jnsgd1na2vs0mg"},{"bike_id":"67fe1156-fd5e-4e46-a273-78dd8209eed7","system_id":"levelo_inurba_marseille","lat":43.287185,"lon":5.379373,"is_reserved":false,"is_disabled":false,"rental_uris":{"android":"levelo://app?vid=67fe1156-fd5e-4e46-a273-78dd8209eed7","ios":"levelo://app?vid=67fe1156-fd5e-4e46-a273-78dd8209eed7"},"vehicle_type_id":"4","last_reported":1713200794,"current_range_meters":0,"station_id":"ce4bh9p2rcd13ifvqec0","pricing_plan_id":"cebpf4jnsgd1na2vs0mg"},{"bike_id":"85672c93-5733-46bd-9a47-add676c698ac","system_id":"levelo_inurba_marseille","lat":43.287185,"lon":5.379373,"is_reserved":false,"is_disabled":false,"rental_uris":{"android":"levelo://app?vid=85672c93-5733-46bd-9a47-add676c698ac","ios":"levelo://app?vid=85672c93-5733-46bd-9a47-add676c698ac"},"vehicle_type_id":"4","last_reported":1713200794,"current_range_meters":11200,"station_id":"ce4bh9p2rcd13ifvqec0","pricing_plan_id":"cebpf4jnsgd1na2vs0mg"},{"bike_id":"6194edd4-c8df-415b-920f-ee530d2f755d","system_id":"levelo_inurba_marseille","lat":43.287185,"lon":5.379373,"is_reserved":false,"is_disabled":false,"rental_uris":{"android":"levelo://app?vid=6194edd4-c8df-415b-920f-ee530d2f755d","ios":"levelo://app?vid=6194edd4-c8df-415b-920f-ee530d2f755d"},"vehicle_type_id":"4","last_reported":1713200794,"current_range_meters":0,"station_id":"ce4bh9p2rcd13ifvqec0","pricing_plan_id":"cebpf4jnsgd1na2vs0mg"},{"bike_id":"5beef356-49ea-4f0e-830f-f2406dc903f6","system_id":"levelo_inurba_marseille","lat":43.231794,"lon":5.400052,"is_reserved":false,"is_disabled":false,"rental_uris":{"android":"levelo://app?vid=5beef356-49ea-4f0e-830f-f2406dc903f6","ios":"levelo://app?vid=5beef356-49ea-4f0e-830f-f2406dc903f6"},"vehicle_type_id":"4","last_reported":1713200794,"current_range_meters":9200,"station_id":"ce4bhn12rcd13ifvqgqg","pricing_plan_id":"cebpf4jnsgd1na2vs0mg"},{"bike_id":"d1960f70-1767-4fd7-bc06-8354f98d794e","system_id":"levelo_inurba_marseille","lat":43.316828,"lon":5.404723,"is_reserved":false,"is_disabled":false,"rental_uris":{"android":"levelo://app?vid=d1960f70-1767-4fd7-bc06-8354f98d794e","ios":"levelo://app?vid=d1960f70-1767-4fd7-bc06-8354f98d794e"},