{"last_updated":1744063783,"ttl":60,"version":"2.2","data":{"bikes":[{"bike_id":"655de01b-7e70-4bf7-b458-37e1d363d717","system_id":"levelo_inurba_marseille","lat":43.24391,"lon":5.37062,"is_reserved":false,"is_disabled":true,"rental_uris":{"android":"levelo://app?vid=655de01b-7e70-4bf7-b458-37e1d363d717","ios":"levelo://app?vid=655de01b-7e70-4bf7-b458-37e1d363d717"},"vehicle_type_id":"4","last_reported":1744063784,"current_range_meters":2800,"station_id":"ce4bhhh2rcd13ifvqfk0","pricing_plan_id":"cebpf4jnsgd1na2vs0mg"},{"bike_id":"43dae4b5-a23f-4b28-97e6-93280573ec6a","system_id":"levelo_inurba_marseille","lat":43.29586,"lon":5.38107,"is_reserved":false,"is_disabled":true,"rental_uris":{"android":"levelo://app?vid=43dae4b5-a23f-4b28-97e6-93280573ec6a","ios":"levelo://app?vid=43dae4b5-a23f-4b28-97e6-93280573ec6a"},"vehicle_type_id":"4","last_reported":1744063784,"current_range_meters":3200,"station_id":"ce4bgl12rcd13ifvqbo0","pricing_plan_id":"cebpf4jnsgd1na2vs0mg"},{"bike_id":"d8f246d4-63b0-40ac-97f8-ab32d9b8478c","system_id":"levelo_inurba_marseille","lat":43.27367,"lon":5.36274,"is_reserved":false,"is_disabled":true,"rental_uris":{"android":"levelo://app?vid=d8f246d4-63b0-40ac-97f8-ab32d9b8478c","ios":"levelo://app?vid=d8f246d4-63b0-40ac-97f8-ab32d9b8478c"},"vehicle_type_id":"4","last_reported":1744063784,"current_range_meters":3200,"station_id":"ce4bhbh2rcd13ifvqeo0","pricing_plan_id":"cebpf4jnsgd1na2vs0mg"},{"bike_id":"97b1740c-2d9c-4a33-8730-c07af7894ff5","system_id":"levelo_inurba_marseille","lat":43.29425,"lon":5.38557,"is_reserved":false,"is_disabled":false,"rental_uris":{"android":"levelo://app?vid=97b1740c-2d9c-4a33-8730-c07af7894ff5","ios":"levelo://app?vid=97b1740c-2d9c-4a33-8730-c07af7894ff5"},"vehicle_type_id":"4","last_reported":1744063784,"current_range_meters":3600,"station_id":"","pricing_plan_id":"cebpf4jnsgd1na2vs0mg"},{"bike_id":"b1291ee6-aa82-4d6b-bf86-1120d9c0f8a8","system_id":"levelo_inurba_marseille","lat":43.26558,"lon":5.3728,"is_reserved":false,"is_disabled":false,"rental_uris":{"android":"levelo://app?vid=b1291ee6-aa82-4d6b-bf86-1120d9c0f8a8","ios":"levelo://app?vid=b1291ee6-aa82-4d6b-bf86-1120d9c0f8a8"},"vehicle_type_id":"4","last_reported":1744063784,"current_range_meters":3600,"station_id":"ce4bhg12rcd13ifvqf70","pricing_plan_id":"cebpf4jnsgd1na2vs0mg"},{"bike_id":"30641c38-db5b-435c-abfb-7ef62ecbb550","system_id":"levelo_inurba_marseille","lat":43.30545,"lon":5.38432,"is_reserved":false,"is_disabled":true,"rental_uris":{"android":"levelo://app?vid=30641c38-db5b-435c-abfb-7ef62ecbb550","ios":"levelo://app?vid=30641c38-db5b-435c-abfb-7ef62ecbb550"},"vehicle_type_id":"4","last_reported":1744063784,"current_range_meters":4000,"station_id":"ce4bgg92rcd13ifvqb30","pricing_plan_id":"cebpf4jnsgd1na2vs0mg"},{"bike_id":"8e045a5e-5096-41be-b5b7-6b62ff14ce53","system_id":"levelo_inurba_marseille","lat":43.31781,"lon":5.38817,"is_reserved":false,"is_disabled":false,"rental_uris":{"android":"levelo://app?vid=8e045a5e-5096-41be-b5b7-6b62ff14ce53","ios":"levelo://app?vid=8e045a5e-5096-41be-b5b7-6b62ff14ce53"},"vehicle_type_id":"4","last_reported":1744063784,"current_range_meters":4000,"station_id":"","pricing_plan_id":"cebpf4jnsgd1na2vs0mg"},{"bike_id":"2607cbcb-f01f-4a18-a84e-704e99a9c241","system_id":"levelo_inurba_marseille","lat":43.2511,"lon":5.40331,"is_reserved":false,"is_disabled":false,"rental_uris":{"android":"levelo://app?vid=2607cbcb-f01f-4a18-a84e-704e99a9c241","ios":"levelo://app?vid=2607cbcb-f01f-4a18-a84e-704e99a9c241"},"vehicle_type_id":"4","last_reported":1744063784,"current_range_meters":4400,"station_id":"ce4bhlh2rcd13ifvqgig","pricing_plan_id":"cebpf4jnsgd1na2vs0mg"},{"bike_id":"f5d4db43-3a12-4756-9a95-baab6e0e7313","system_id":"levelo_inurba_marseille","lat":43.23963,"lon":5.36617,"is_reserved":false,"is_disabled":false,"rental_uris":{"android":"levelo://app?vid=f5d4db43-3a12-4756-9a95-baab6e0e7313","ios":"levelo://app?vid=f5d4db43-3a12-4756-9a95-baab6e0e7313"},"vehicle_type_id":"4","last_reported":1744063784,"current_range_meters":4400,"station_id":"ce4bhi12rcd13ifvqfp0","pricing_plan_id":"cebpf4jnsgd1na2vs0mg"},{"bike_id":"0ff777ef-b423-4128-9866-ab4bcb38d49b","system_id":"levelo_inurba_marseille","lat":43.3031,"lon":5.3689,"is_reserved":false,"is_disabled":false,"rental_uris":{"android":"levelo://app?vid=0ff777ef-b423-4128-9866-ab4bcb38d49b","ios":"levelo://app?vid=0ff777ef-b423-4128-9866-ab4bcb38d49b"},"vehicle_type_id":"4","last_reported":1744063784,"current_range_meters":4400,"station_id":"ce4bgqh2rcd13ifvqc5g","pricing_plan_id":"cebpf4jnsgd1na2vs0mg"},{"bike_id":"bda28d1e-0f84-474d-a739-6c6b9ce16d63","system_id":"levelo_inurba_marseille","lat":43.27074,"lon":5.42284,"is_reserved":false,"is_disabled":false,"rental_uris":{"android":"levelo://app?vid=bda28d1e-0f84-474d-a739-6c6b9ce16d63","ios":"levelo://app?vid=bda28d1e-0f84-474d-a739-6c6b9ce16d63"},"vehicle_type_id":"4","last_reported":1744063784,"current_range_meters":4800,"station_id":"ce4bhk92rcd13ifvqgb0","pricing_plan_id":"cebpf4jnsgd1na2vs0mg"},{"bike_id":"f3a82a8f-9c35-45c4-ba4d-a07bdb15f8b5","system_id":"levelo_inurba_marseille","lat":43.3315,"lon":5.41055,"is_reserved":false,"is_disabled":false,"rental_uris":{"android":"levelo://app?vid=f3a82a8f-9c35-45c4-ba4d-a07bdb15f8b5","ios":"levelo://app?vid=f3a82a8f-9c35-45c4-ba4d-a07bdb15f8b5"},"vehicle_type_id":"4","last_reported":1744063784,"current_range_meters":4800,"station_id":"","pricing_plan_id":"cebpf4jnsgd1na2vs0mg"},{"bike_id":"f85929bf-8ce3-4f64-9a38-f6ea21d51d14","system_id":"levelo_inurba_marseille","lat":43.28029,"lon":5.36952,"is_reserved":false,"is_disabled":false,"rental_uris":{"android":"levelo://app?vid=f85929bf-8ce3-4f64-9a38-f6ea21d51d14","ios":"levelo://app?vid=f85929bf-8ce3-4f64-9a38-f6ea21d51d14"},"vehicle_type_id":"4","last_reported":1744063784,"current_range_meters":5600,"station_id":"ce4bha12rcd13ifvqef0","pricing_plan_id":"cebpf4jnsgd1na2vs0mg"},{"bike_id":"b29aff3b-6390-4b57-b2d8-2d4f62df2edc","system_id":"levelo_inurba_marseille","lat":43.28155,"lon":5.42628,"is_reserved":false,"is_disabled":false,"rental_uris":{"android":"levelo://app?vid=b29aff3b-6390-4b57-b2d8-2d4f62df2edc","ios":"levelo://app?vid=b29aff3b-6390-4b57-b2d8-2d4f62df2edc"},"vehicle_type_id":"4","last_reported":1744063784,"current_range_meters":5600,"station_id":"ce4bhnh2rcd13ifvqgug","pricing_plan_id":"cebpf4jnsgd1na2vs0mg"},{"bike_id":"136b6e45-ee21-453e-aa22-e07947db9071","system_id":"levelo_inurba_marseille","lat":43.23157,"lon":5.436965,"is_reserved":false,"is_disabled":true,"rental_uris":{"android":"levelo://app?vid=136b6e45-ee21-453e-aa22-e07947db9071","ios":"levelo://app?vid=136b6e45-ee21-453e-aa22-e07947db9071"},"vehicle_type_id":"4","last_reported":1744063784,"current_range_meters":5600,"station_id":"ce4bhmp2rcd13ifvqgog","pricing_plan_id":"cebpf4jnsgd1na2vs0mg"},{"bike_id":"00393ee2-317d-4e98-a30d-fd25773ef49f","system_id":"levelo_inurba_marseille","lat":43.35208,"lon":5.35823,"is_reserved":false,"is_disabled":false,"rental_uris":{"android":"levelo://app?vid=00393ee2-317d-4e98-a30d-fd25773ef49f","ios":"levelo://app?vid=00393ee2-317d-4e98-a30d-fd25773ef49f"},"vehicle_type_id":"4","last_reported":1744063784,"current_range_meters":6000,"station_id":"","pricing_plan_id":"cebpf4jnsgd1na2vs0mg"},{"bike_id":"aba5e844-f429-4fca-8fbd-34616f5265a2","system_id":"levelo_inurba_marseille","lat":43.28168,"lon":5.4263,"is_reserved":false,"is_disabled":false,"rental_uris":{"android":"levelo://app?vid=aba5e844-f429-4fca-8fbd-34616f5265a2","ios":"levelo://app?vid=aba5e844-f429-4fca-8fbd-34616f5265a2"},"vehicle_type_id":"4","last_reported":1744063784,"current_range_meters":6000,"station_id":"ce4bhnh2rcd13ifvqgug","pricing_plan_id":"cebpf4jnsgd1na2vs0mg"},{"bike_id":"e31e6b7b-44ed-487f-9027-983e5055dbac","system_id":"levelo_inurba_marseille","lat":43.283878,"lon":5.387571,"is_reserved":false,"is_disabled":false,"rental_uris":{"android":"levelo://app?vid=e31e6b7b-44ed-487f-9027-983e5055dbac","ios":"levelo://app?vid=e31e6b7b-44ed-487f-9027-983e5055dbac"},"vehicle_type_id":"4","last_reported":1744063784,"current_range_meters":5600,"station_id":"ce4bh492rcd13ifvqdug","pricing_plan_id":"cebpf4jnsgd1na2vs0mg"},{"bike_id":"99f3b071-1649-4dc5-9a56-afa9a5751122","system_id":"levelo_inurba_marseille","lat":43.29301,"lon":5.3746,"is_reserved":false,"is_disabled":false,"rental_uris":{"android":"levelo://app?vid=99f3b071-1649-4dc5-9a56-afa9a5751122","ios":"levelo://app?vid=99f3b071-1649-4dc5-9a56-afa9a5751122"},"vehicle_type_id":"4","last_reported":1744063784,"current_range_meters":5600,"station_id":"ce4bgi12rcd13ifvqb70","pricing_plan_id":"cebpf4jnsgd1na2vs0mg"},{"bike_id":"40d2f783-fcea-4182-86f8-dc6ff1df2372","system_id":"levelo_inurba_marseille","lat":43.24649,"lon":5.38912,"is_reserved":false,"is_disabled":false,"rental_uris":{"android":"levelo://app?vid=40d2f783-fcea-4182-86f8-dc6ff1df2372","ios":"levelo://app?vid=40d2f783-fcea-4182-86f8-dc6ff1df2372"},"vehicle_type_id":"4","last_reported":1744063784,"current_range_meters":6000,"station_id":"ce4bhg12rcd13ifvqf60","pricing_plan_id":"cebpf4jnsgd1na2vs0mg"},{"bike_id":"b7723d15-4b7a-4e2a-8a3e-0a66051f1876","system_id":"levelo_inurba_marseille","lat":43.26824,"lon":5.40238,"is_reserved":false,"is_disabled":false,"rental_uris":{"android":"levelo://app?vid=b7723d15-4b7a-4e2a-8a3e-0a66051f1876","ios":"levelo://app?vid=b7723d15-4b7a-4e2a-8a3e-0a66051f1876"},"vehicle_type_id":"4","last_reported":1744063784,"current_range_meters":6400,"station_id":"ce501612rcd8frsf0b60","pricing_plan_id":"cebpf4jnsgd1na2vs0mg"},{"bike_id":"351b921a-1463-4cf6-859d-ca5bd51a6e76","system_id":"levelo_inurba_marseille","lat":43.31777,"lon":5.36709,"is_reserved":false,"is_disabled":false,"rental_uris":{"android":"levelo://app?vid=351b921a-1463-4cf6-859d-ca5bd51a6e76","ios":"levelo://app?vid=351b921a-1463-4cf6-859d-ca5bd51a6e76"},"vehicle_type_id":"4","last_reported":1744063784,"current_range_meters":6400,"station_id":"","pricing_plan_id":"cebpf4jnsgd1na2vs0mg"},{"bike_id":"2fbe95f8-0851-44e4-971f-1fc476136b20","system_id":"levelo_inurba_marseille","lat":43.30427,"lon":5.38891,"is_reserved":false,"is_disabled":false,"rental_uris":{"android":"levelo://app?vid=2fbe95f8-0851-44e4-971f-1fc476136b20","ios":"levelo://app?vid=2fbe95f8-0851-44e4-971f-1fc476136b20"},"vehicle_type_id":"4","last_reported":1744063784,"current_range_meters":6800,"station_id":"ce4bgk12rcd13ifvqbi0","pricing_plan_id":"cebpf4jnsgd1na2vs0mg"},{"bike_id":"3391c67d-d9cd-4ed9-9a29-e8813e97b009","system_id":"levelo_inurba_marseille","lat":43.29902,"lon":5.3746,"is_reserved":false,"is_disabled":false,"rental_uris":{"android":"levelo://app?vid=3391c67d-d9cd-4ed9-9a29-e8813e97b009","ios":"levelo://app?vid=3391c67d-d9cd-4ed9-9a29-e8813e97b009"},"vehicle_type_id":"4","last_reported":1744063784,"current_range_meters":6800,"station_id":"ce4bgjh2rcd13ifvqbg0","pricing_plan_id":"cebpf4jnsgd1na2vs0mg"},{"bike_id":"21465284-4bc0-4c69-8d7f-95731c02f76d","system_id":"levelo_inurba_marseille","lat":43.31357,"lon":5.38493,"is_reserved":false,"is_disabled":false,"rental_uris":{"android":"levelo://app?vid=21465284-4bc0-4c69-8d7f-95731c02f76d","ios":"levelo://app?vid=21465284-4bc0-4c69-8d7f-95731c02f76d"},"vehicle_type_id":"4","last_reported":1744063784,"current_range_meters":6800,"station_id":"ce4bgt92rcd13ifvqcf0","pricing_plan_id":"cebpf4jnsgd1na2vs0mg"},{"bike_id":"79ab7e2b-c8a0-4086-a8e4-f12e17aa0560","system_id":"levelo_inurba_marseille","lat":43.30286,"lon":5.37132,"is_reserved":false,"is_disabled":false,"rental_uris":{"android":"levelo://app?vid=79ab7e2b-c8a0-4086-a8e4-f12e17aa0560","ios":"levelo://app?vid=79ab7e2b-c8a0-4086-a8e4-f12e17aa0560"},"vehicle_type_id":"4","last_reported":1744063784,"current_range_meters":6800,"station_id":"","pricing_plan_id":"cebpf4jnsgd1na2vs0mg"},{"bike_id":"28e0e195-0dd5-4f65-bcd6-c7c03983765a","system_id":"levelo_inurba_marseille","lat":43.31883,"lon":5.40788,"is_reserved":false,"is_disabled":false,"rental_uris":{"android":"levelo://app?vid=28e0e195-0dd5-4f65-bcd6-c7c03983765a","ios":"levelo://app?vid=28e0e195-0dd5-4f65-bcd6-c7c03983765a"},"vehicle_type_id":"4","last_reported":1744063784,"current_range_meters":6800,"station_id":"ce4bhq12rcd13ifvqhig","pricing_plan_id":"cebpf4jnsgd1na2vs0mg"},{"bike_id":"7c33950e-6814-43ff-99af-bcd2af9f75d1","system_id":"levelo_inurba_marseille","lat":43.29262,"lon":5.38434,"is_reserved":false,"is_disabled":false,"rental_uris":{"android":"levelo://app?vid=7c33950e-6814-43ff-99af-bcd2af9f75d1","ios":"levelo://app?vid=7c33950e-6814-43ff-99af-bcd2af9f75d1"},"vehicle_type_id":"4","last_reported":1744063784,"current_range_meters":6800,"station_id":"ce4bh692rcd13ifvqea0","pricing_plan_id":"cebpf4jnsgd1na2vs0mg"},{"bike_id":"2e67450f-8fb7-444f-9232-f6509622af84","system_id":"levelo_inurba_marseille","lat":43.301229,"lon":5.398558,"is_reserved":false,"is_disabled":false,"rental_uris":{"android":"levelo://app?vid=2e67450f-8fb7-444f-9232-f6509622af84","ios":"levelo://app?vid=2e67450f-8fb7-444f-9232-f6509622af84"},"vehicle_type_id":"4","last_reported":1744063784,"current_range_meters":6800,"station_id":"ce4bh0h2rcd13ifvqd40","pricing_plan_id":"cebpf4jnsgd1na2vs0mg"},{"bike_id":"c3e6d442-6282-4c88-9f90-93d85aff9e76","system_id":"levelo_inurba_marseille","lat":43.28162,"lon":5.4264,"is_reserved":false,"is_disabled":false,"rental_uris":{"android":"levelo://app?vid=c3e6d442-6282-4c88-9f90-93d85aff9e76","ios":"levelo://app?vid=c3e6d442-6282-4c88-9f90-93d85aff9e76"},"vehicle_type_id":"4","last_reported":1744063784,"current_range_meters":7200,"station_id":"ce4bhnh2rcd13ifvqgug","pricing_plan_id":"cebpf4jnsgd1na2vs0mg"},{"bike_id":"a6f582fe-65c0-4531-9868-7f09ba8f3806","system_id":"levelo_inurba_marseille","lat":43.28702,"lon":5.37404,"is_reserved":false,"is_disabled":false,"rental_uris":{"android":"levelo://app?vid=a6f582fe-65c0-4531-9868-7f09ba8f3806","ios":"levelo://app?vid=a6f582fe-65c0-4531-9868-7f09ba8f3806"},"vehicle_type_id":"4","last_reported":1744063784,"current_range_meters":7200,"station_id":"ce4bh3p2rcd13ifvqdq0","pricing_plan_id":"cebpf4jnsgd1na2vs0mg"},{"bike_id":"454ad229-ae8c-47df-9402-1bfe4abd3acd","system_id":"levelo_inurba_marseille","lat":43.28163,"lon":5.42637,"is_reserved":false,"is_disabled":false,"rental_uris":{"android":"levelo://app?vid=454ad229-ae8c-47df-9402-1bfe4abd3acd","ios":"levelo://app?vid=454ad229-ae8c-47df-9402-1bfe4abd3acd"},"vehicle_type_id":"4","last_reported":1744063784,"current_range_meters":7200,"station_id":"ce4bhnh2rcd13ifvqgug","pricing_plan_id":"cebpf4jnsgd1na2vs0mg"},{"bike_id":"d3b22430-f2f3-498e-a709-0d9e04280ae5","system_id":"levelo_inurba_marseille","lat":43.30967,"lon":5.37946,"is_reserved":false,"is_disabled":false,"rental_uris":{"android":"levelo://app?vid=d3b22430-f2f3-498e-a709-0d9e04280ae5","ios":"levelo://app?vid=d3b22430-f2f3-498e-a709-0d9e04280ae5"},"vehicle_type_id":"4","last_reported":1744063784,"current_range_meters":7200,"station_id":"","pricing_plan_id":"cebpf4jnsgd1na2vs0mg"},{"bike_id":"0d1b8bd3-1521-4a9a-adb5-40c43d19c6fb","system_id":"levelo_inurba_marseille","lat":43.29537,"lon":5.38528,"is_reserved":false,"is_disabled":false,"rental_uris":{"android":"levelo://app?vid=0d1b8bd3-1521-4a9a-adb5-40c43d19c6fb","ios":"levelo://app?vid=0d1b8bd3-1521-4a9a-adb5-40c43d19c6fb"},"vehicle_type_id":"4","last_reported":1744063784,"current_range_meters":8000,"station_id":"ce4bgih2rcd13ifvqba0","pricing_plan_id":"cebpf4jnsgd1na2vs0mg"},{"bike_id":"3386e51e-281a-4588-9266-158d1cc5c3b3","system_id":"levelo_inurba_marseille","lat":43.29915,"lon":5.38147,"is_reserved":false,"is_disabled":false,"rental_uris":{"android":"levelo://app?vid=3386e51e-281a-4588-9266-158d1cc5c3b3","ios":"levelo://app?vid=3386e51e-281a-4588-9266-158d1cc5c3b3"},"vehicle_type_id":"4","last_reported":1744063784,"current_range_meters":8000,"station_id":"ce4bgj12rcd13ifvqbc0","pricing_plan_id":"cebpf4jnsgd1na2vs0mg"},{"bike_id":"6ebe9ec3-b74c-497b-aa8c-e68d0877c617","system_id":"levelo_inurba_marseille","lat":43.25123,"lon":5.40326,"is_reserved":false,"is_disabled":false,"rental_uris":{"android":"levelo://app?vid=6ebe9ec3-b74c-497b-aa8c-e68d0877c617","ios":"levelo://app?vid=6ebe9ec3-b74c-497b-aa8c-e68d0877c617"},"vehicle_type_id":"4","last_reported":1744063784,"current_range_meters":8000,"station_id":"ce4bhlh2rcd13ifvqgig","pricing_plan_id":"cebpf4jnsgd1na2vs0mg"},{"bike_id":"8a38320c-a733-4cf5-8c8e-152497fe8f8f","system_id":"levelo_inurba_marseille","lat":43.28163,"lon":5.4263,"is_reserved":false,"is_disabled":false,"rental_uris":{"android":"levelo://app?vid=8a38320c-a733-4cf5-8c8e-152497fe8f8f","ios":"levelo://app?vid=8a38320c-a733-4cf5-8c8e-152497fe8f8f"},"vehicle_type_id":"4","last_reported":1744063784,"current_range_meters":8000,"station_id":"ce4bhnh2rcd13ifvqgug","pricing_plan_id":"cebpf4jnsgd1na2vs0mg"},{"bike_id":"6b770536-e0ee-4074-a4d5-7fac1065bae9","system_id":"levelo_inurba_marseille","lat":43.337274,"lon":5.39184,"is_reserved":false,"is_disabled":false,"rental_uris":{"android":"levelo://app?vid=6b770536-e0ee-4074-a4d5-7fac1065bae9","ios":"levelo://app?vid=6b770536-e0ee-4074-a4d5-7fac1065bae9"},"vehicle_type_id":"4","last_reported":1744063784,"current_range_meters":8000,"station_id":"ce4bhr92rcd13ifvqhsg","pricing_plan_id":"cebpf4jnsgd1na2vs0mg"},{"bike_id":"f3b83e8a-c65f-4f5d-8899-2b84c089f530","system_id":"levelo_inurba_marseille","lat":43.32108,"lon":5.36775,"is_reserved":false,"is_disabled":false,"rental_uris":{"android":"levelo://app?vid=f3b83e8a-c65f-4f5d-8899-2b84c089f530","ios":"levelo://app?vid=f3b83e8a-c65f-4f5d-8899-2b84c089f530"},"vehicle_type_id":"4","last_reported":1744063784,"current_range_meters":8000,"station_id":"ce4bhrh2rcd13ifvqhug","pricing_plan_id":"cebpf4jnsgd1na2vs0mg"},{"bike_id":"a959694d-18ce-4d80-917f-23c91ed81065","system_id":"levelo_inurba_marseille","lat":43.29895,"lon":5.43653,"is_reserved":false,"is_disabled":false,"rental_uris":{"android":"levelo://app?vid=a959694d-18ce-4d80-917f-23c91ed81065","ios":"levelo://app?vid=a959694d-18ce-4d80-917f-23c91ed81065"},"vehicle_type_id":"4","last_reported":1744063784,"current_range_meters":8000,"station_id":"ce4bhpp2rcd13ifvqhfg","pricing_plan_id":"cebpf4jnsgd1na2vs0mg"},{"bike_id":"516d1131-8d22-4c00-9743-8f8296b9be79","system_id":"levelo_inurba_marseille","lat":43.254918,"lon":5.376447,"is_reserved":false,"is_disabled":true,"rental_uris":{"android":"levelo://app?vid=516d1131-8d22-4c00-9743-8f8296b9be79","ios":"levelo://app?vid=516d1131-8d22-4c00-9743-8f8296b9be79"},"vehicle_type_id":"4","last_reported":1744063784,"current_range_meters":8000,"station_id":"ce4bhh12rcd13ifvqff0","pricing_plan_id":"cebpf4jnsgd1na2vs0mg"},{"bike_id":"73276e73-379c-4215-bfe8-0a4cdf26f8fb","system_id":"levelo_inurba_marseille","lat":43.273787,"lon":5.362491,"is_reserved":false,"is_disabled":true,"rental_uris":{"android":"levelo://app?vid=73276e73-379c-4215-bfe8-0a4cdf26f8fb","ios":"levelo://app?vid=73276e73-379c-4215-bfe8-0a4cdf26f8fb"},"vehicle_type_id":"4","last_reported":1744063784,"current_range_meters":8000,"station_id":"ce4bhbh2rcd13ifvqeo0","pricing_plan_id":"cebpf4jnsgd1na2vs0mg"},{"bike_id":"2b321bde-d996-44f1-849a-8b6df8729d2d","system_id":"levelo_inurba_marseille","lat":43.29632,"lon":5.40595,"is_reserved":false,"is_disabled":false,"rental_uris":{"android":"levelo://app?vid=2b321bde-d996-44f1-849a-8b6df8729d2d","ios":"levelo://app?vid=2b321bde-d996-44f1-849a-8b6df8729d2d"},"vehicle_type_id":"4","last_reported":1744063784,"current_range_meters":8000,"station_id":"ce4bh0h2rcd13ifvqd60","pricing_plan_id":"cebpf4jnsgd1na2vs0mg"},{"bike_id":"2f09e351-1fd4-46fd-aaf9-3fc007187281","system_id":"levelo_inurba_marseille","lat":43.30645,"lon":5.40043,"is_reserved":false,"is_disabled":false,"rental_uris":{"android":"levelo://app?vid=2f09e351-1fd4-46fd-aaf9-3fc007187281","ios":"levelo://app?vid=2f09e351-1fd4-46fd-aaf9-3fc007187281"},"vehicle_type_id":"4","last_reported":1744063784,"current_range_meters":8000,"station_id":"ce4bh112rcd13ifvqda0","pricing_plan_id":"cebpf4jnsgd1na2vs0mg"},{"bike_id":"ebc84582-195b-4b4a-b4a4-256c36fe0b00","system_id":"levelo_inurba_marseille","lat":43.27079,"lon":5.4228,"is_reserved":false,"is_disabled":false,"rental_uris":{"android":"levelo://app?vid=ebc84582-195b-4b4a-b4a4-256c36fe0b00","ios":"levelo://app?vid=ebc84582-195b-4b4a-b4a4-256c36fe0b00"},"vehicle_type_id":"4","last_reported":1744063784,"current_range_meters":8400,"station_id":"ce4bhk92rcd13ifvqgb0","pricing_plan_id":"cebpf4jnsgd1na2vs0mg"},{"bike_id":"755acd57-59ea-49ed-ad6a-698107bd5c37","system_id":"levelo_inurba_marseille","lat":43.32352,"lon":5.36754,"is_reserved":false,"is_disabled":false,"rental_uris":{"android":"levelo://app?vid=755acd57-59ea-49ed-ad6a-698107bd5c37","ios":"levelo://app?vid=755acd57-59ea-49ed-ad6a-698107bd5c37"},"vehicle_type_id":"4","last_reported":1744063784,"current_range_meters":8400,"station_id":"ce4bhsh2rcd13ifvqi2g","pricing_plan_id":"cebpf4jnsgd1na2vs0mg"},{"bike_id":"6f0c8a80-7e89-4863-a8d6-f84e65c261ef","system_id":"levelo_inurba_marseille","lat":43.27198,"lon":5.40987,"is_reserved":false,"is_disabled":false,"rental_uris":{"android":"levelo://app?vid=6f0c8a80-7e89-4863-a8d6-f84e65c261ef","ios":"levelo://app?vid=6f0c8a80-7e89-4863-a8d6-f84e65c261ef"},"vehicle_type_id":"4","last_reported":1744063784,"current_range_meters":8400,"station_id":"ce4bhl12rcd13ifvqgf0","pricing_plan_id":"cebpf4jnsgd1na2vs0mg"},{"bike_id":"e223670b-5545-4017-934f-c2adf2f3c08b","system_id":"levelo_inurba_marseille","lat":43.27066,"lon":5.42286,"is_reserved":false,"is_disabled":false,"rental_uris":{"android":"levelo://app?vid=e223670b-5545-4017-934f-c2adf2f3c08b","ios":"levelo://app?vid=e223670b-5545-4017-934f-c2adf2f3c08b"},"vehicle_type_id":"4","last_reported":1744063784,"current_range_meters":8400,"station_id":"ce4bhk92rcd13ifvqgb0","pricing_plan_id":"cebpf4jnsgd1na2vs0mg"},{"bike_id":"7ae1c95c-1e2c-400a-8efd-618212ebe707","system_id":"levelo_inurba_marseille","lat":43.315391,"lon":5.380483,"is_reserved":false,"is_disabled":false,"rental_uris":{"android":"levelo://app?vid=7ae1c95c-1e2c-400a-8efd-618212ebe707","ios":"levelo://app?vid=7ae1c95c-1e2c-400a-8efd-618212ebe707"},"vehicle_type_id":"4","last_reported":1744063784,"current_range_meters":8400,"station_id":"ce4bhsp2rcd13ifvqi50","pricing_plan_id":"cebpf4jnsgd1na2vs0mg"},{"bike_id":"4e63bc7f-b907-45ea-bc67-f61c9be2b9d6","system_id":"levelo_inurba_marseille","lat":43.29985,"lon":5.38476,"is_reserved":false,"is_disabled":true,"rental_uris":{"android":"levelo://app?vid=4e63bc7f-b907-45ea-bc67-f61c9be2b9d6","ios":"levelo://app?vid=4e63bc7f-b907-45ea-bc67-f61c9be2b9d6"},"vehicle_type_id":"4","last_reported":1744063784,"current_range_meters":8400,"station_id":"ce4bgj92rcd13ifvqbd0","pricing_plan_id":"cebpf4jnsgd1na2vs0mg"},{"bike_id":"21ad2b20-e326-40c8-a3d6-b2092488dc26","system_id":"levelo_inurba_marseille","lat":43.24457,"lon":5.37,"is_reserved":false,"is_disabled":false,"rental_uris":{"android":"levelo://app?vid=21ad2b20-e326-40c8-a3d6-b2092488dc26","ios":"levelo://app?vid=21ad2b20-e326-40c8-a3d6-b2092488dc26"},"vehicle_type_id":"4","last_reported":1744063784,"current_range_meters":8400,"station_id":"","pricing_plan_id":"cebpf4jnsgd1na2vs0mg"},{"bike_id":"a5353134-0495-4e2a-a638-32c608b90f0c","system_id":"levelo_inurba_marseille","lat":43.31326,"lon":5.39704,"is_reserved":false,"is_disabled":false,"rental_uris":{"android":"levelo://app?vid=a5353134-0495-4e2a-a638-32c608b90f0c","ios":"levelo://app?vid=a5353134-0495-4e2a-a638-32c608b90f0c"},"vehicle_type_id":"4","last_reported":1744063784,"current_range_meters":8400,"station_id":"ce4bgvp2rcd13ifvqcu0","pricing_plan_id":"cebpf4jnsgd1na2vs0mg"},{"bike_id":"87bda883-ac94-49fc-94c2-3a86e52b4f97","system_id":"levelo_inurba_marseille","lat":43.30721,"lon":5.38345,"is_reserved":false,"is_disabled":false,"rental_uris":{"android":"levelo://app?vid=87bda883-ac94-49fc-94c2-3a86e52b4f97","ios":"levelo://app?vid=87bda883-ac94-49fc-94c2-3a86e52b4f97"},"vehicle_type_id":"4","last_reported":1744063784,"current_range_meters":8800,"station_id":"","pricing_plan_id":"cebpf4jnsgd1na2vs0mg"},{"bike_id":"817f52cf-2cb6-4ea2-a9a3-6b1f29447fc4","system_id":"levelo_inurba_marseille","lat":43.28956,"lon":5.36643,"is_reserved":false,"is_disabled":true,"rental_uris":{"android":"levelo://app?vid=817f52cf-2cb6-4ea2-a9a3-6b1f29447fc4","ios":"levelo://app?vid=817f52cf-2cb6-4ea2-a9a3-6b1f29447fc4"},"vehicle_type_id":"4","last_reported":1744063784,"current_range_meters":8800,"station_id":"ce4bhap2rcd13ifvqek0","pricing_plan_id":"cebpf4jnsgd1na2vs0mg"},{"bike_id":"1a58a830-97d6-479c-b929-678336cf052d","system_id":"levelo_inurba_marseille","lat":43.31072,"lon":5.38326,"is_reserved":false,"is_disabled":false,"rental_uris":{"android":"levelo://app?vid=1a58a830-97d6-479c-b929-678336cf052d","ios":"levelo://app?vid=1a58a830-97d6-479c-b929-678336cf052d"},"vehicle_type_id":"4","last_reported":1744063784,"current_range_meters":8800,"station_id":"ce4bgv92rcd13ifvqcr0","pricing_plan_id":"cebpf4jnsgd1na2vs0mg"},{"bike_id":"c992ced6-39ec-4f38-bdfd-b3fe3b40a633","system_id":"levelo_inurba_marseille","lat":43.30598,"lon":5.39342,"is_reserved":false,"is_disabled":false,"rental_uris":{"android":"levelo://app?vid=c992ced6-39ec-4f38-bdfd-b3fe3b40a633","ios":"levelo://app?vid=c992ced6-39ec-4f38-bdfd-b3fe3b40a633"},"vehicle_type_id":"4","last_reported":1744063784,"current_range_meters":8800,"station_id":"ce4bh0p2rcd13ifvqd80","pricing_plan_id":"cebpf4jnsgd1na2vs0mg"},{"bike_id":"5ba02e57-e745-47ce-9b93-c851debe9e12","system_id":"levelo_inurba_marseille","lat":43.27182,"lon":5.40991,"is_reserved":false,"is_disabled":false,"rental_uris":{"android":"levelo://app?vid=5ba02e57-e745-47ce-9b93-c851debe9e12","ios":"levelo://app?vid=5ba02e57-e745-47ce-9b93-c851debe9e12"},"vehicle_type_id":"4","last_reported":1744063784,"current_range_meters":8800,"station_id":"ce4bhl12rcd13ifvqgf0","pricing_plan_id":"cebpf4jnsgd1na2vs0mg"},{"bike_id":"cc057f14-b1e1-4dee-b107-8741c01c5964","system_id":"levelo_inurba_marseille","lat":43.32114,"lon":5.36762,"is_reserved":false,"is_disabled":true,"rental_uris":{"android":"levelo://app?vid=cc057f14-b1e1-4dee-b107-8741c01c5964","ios":"levelo://app?vid=cc057f14-b1e1-4dee-b107-8741c01c5964"},"vehicle_type_id":"4","last_reported":1744063784,"current_range_meters":8800,"station_id":"ce4bhrh2rcd13ifvqhug","pricing_plan_id":"cebpf4jnsgd1na2vs0mg"},{"bike_id":"72e975c9-40e9-4bdf-ad82-c634b1377ed7","system_id":"levelo_inurba_marseille","lat":43.27844,"lon":5.39197,"is_reserved":false,"is_disabled":false,"rental_uris":{"android":"levelo://app?vid=72e975c9-40e9-4bdf-ad82-c634b1377ed7","ios":"levelo://app?vid=72e975c9-40e9-4bdf-ad82-c634b1377ed7"},"vehicle_type_id":"4","last_reported":1744063784,"current_range_meters":8800,"station_id":"ce4bhjp2rcd13ifvqga0","pricing_plan_id":"cebpf4jnsgd1na2vs0mg"},{"bike_id":"23f348ed-c392-42a5-8d99-4feb7e18e1d2","system_id":"levelo_inurba_marseille","lat":43.2841,"lon":5.34993,"is_reserved":false,"is_disabled":false,"rental_uris":{"android":"levelo://app?vid=23f348ed-c392-42a5-8d99-4feb7e18e1d2","ios":"levelo://app?vid=23f348ed-c392-42a5-8d99-4feb7e18e1d2"},"vehicle_type_id":"4","last_reported":1744063784,"current_range_meters":8800,"station_id":"ce4bhbh2rcd13ifvqepg","pricing_plan_id":"cebpf4jnsgd1na2vs0mg"},{"bike_id":"12824dd8-63b9-4045-af28-6f83cf08dae1","system_id":"levelo_inurba_marseille","lat":43.27372,"lon":5.36257,"is_reserved":false,"is_disabled":false,"rental_uris":{"android":"levelo://app?vid=12824dd8-63b9-4045-af28-6f83cf08dae1","ios":"levelo://app?vid=12824dd8-63b9-4045-af28-6f83cf08dae1"},"vehicle_type_id":"4","last_reported":1744063784,"current_range_meters":8400,"station_id":"ce4bhbh2rcd13ifvqeo0","pricing_plan_id":"cebpf4jnsgd1na2vs0mg"},{"bike_id":"d172a948-5b54-446c-9325-17335baba5c1","system_id":"levelo_inurba_marseille","lat":43.29377,"lon":5.37861,"is_reserved":false,"is_disabled":true,"rental_uris":{"android":"levelo://app?vid=d172a948-5b54-446c-9325-17335baba5c1","ios":"levelo://app?vid=d172a948-5b54-446c-9325-17335baba5c1"},"vehicle_type_id":"4","last_reported":1744063784,"current_range_meters":9200,"station_id":"ce4bgjh2rcd13ifvqbf0","pricing_plan_id":"cebpf4jnsgd1na2vs0mg"},{"bike_id":"db77aa95-72db-470c-9c43-5322da612de8","system_id":"levelo_inurba_marseille","lat":43.31813,"lon":5.40181,"is_reserved":false,"is_disabled":false,"rental_uris":{"android":"levelo://app?vid=db77aa95-72db-470c-9c43-5322da612de8","ios":"levelo://app?vid=db77aa95-72db-470c-9c43-5322da612de8"},"vehicle_type_id":"4","last_reported":1744063784,"current_range_meters":9200,"station_id":"","pricing_plan_id":"cebpf4jnsgd1na2vs0mg"},{"bike_id":"f142ae53-f36d-4603-bed4-7f0174c72561","system_id":"levelo_inurba_marseille","lat":43.29538,"lon":5.385999,"is_reserved":false,"is_disabled":false,"rental_uris":{"android":"levelo://app?vid=f142ae53-f36d-4603-bed4-7f0174c72561","ios":"levelo://app?vid=f142ae53-f36d-4603-bed4-7f0174c72561"},"vehicle_type_id":"4","last_reported":1744063784,"current_range_meters":9200,"station_id":"ce4bh192rcd13ifvqdd0","pricing_plan_id":"cebpf4jnsgd1na2vs0mg"},{"bike_id":"bec659b1-2ddb-41bf-9e2d-39084f6c1a4a","system_id":"levelo_inurba_marseille","lat":43.31714,"lon":5.42417,"is_reserved":false,"is_disabled":false,"rental_uris":{"android":"levelo://app?vid=bec659b1-2ddb-41bf-9e2d-39084f6c1a4a","ios":"levelo://app?vid=bec659b1-2ddb-41bf-9e2d-39084f6c1a4a"},"vehicle_type_id":"4","last_reported":1744063784,"current_range_meters":9200,"station_id":"ce4bhp92rcd13ifvqhbg","pricing_plan_id":"cebpf4jnsgd1na2vs0mg"},{"bike_id":"19224d95-e048-4cbb-8884-43e0e6b3db9b","system_id":"levelo_inurba_marseille","lat":43.29888,"lon":5.39733,"is_reserved":false,"is_disabled":true,"rental_uris":{"android":"levelo://app?vid=19224d95-e048-4cbb-8884-43e0e6b3db9b","ios":"levelo://app?vid=19224d95-e048-4cbb-8884-43e0e6b3db9b"},"vehicle_type_id":"4","last_reported":1744063784,"current_range_meters":9200,"station_id":"ce4bh0h2rcd13ifvqd50","pricing_plan_id":"cebpf4jnsgd1na2vs0mg"},{"bike_id":"9972aee6-4470-443a-8e14-c2078bb91c0d","system_id":"levelo_inurba_marseille","lat":43.3123,"lon":5.37062,"is_reserved":false,"is_disabled":false,"rental_uris":{"android":"levelo://app?vid=9972aee6-4470-443a-8e14-c2078bb91c0d","ios":"levelo://app?vid=9972aee6-4470-443a-8e14-c2078bb91c0d"},"vehicle_type_id":"4","last_reported":1744063784,"current_range_meters":9200,"station_id":"","pricing_plan_id":"cebpf4jnsgd1na2vs0mg"},{"bike_id":"3cbad1fb-d71d-4e4f-90fa-c1465f9f9b65","system_id":"levelo_inurba_marseille","lat":43.2119,"lon":5.35073,"is_reserved":false,"is_disabled":false,"rental_uris":{"android":"levelo://app?vid=3cbad1fb-d71d-4e4f-90fa-c1465f9f9b65","ios":"levelo://app?vid=3cbad1fb-d71d-4e4f-90fa-c1465f9f9b65"},"vehicle_type_id":"4","last_reported":1744063784,"current_range_meters":9200,"station_id":"st_cvj6sg6p6f1abm77japg","pricing_plan_id":"cebpf4jnsgd1na2vs0mg"},{"bike_id":"ff0b2453-2fbb-467c-80b5-41964aa97aa4","system_id":"levelo_inurba_marseille","lat":43.31086,"lon":5.38334,"is_reserved":false,"is_disabled":false,"rental_uris":{"android":"levelo://app?vid=ff0b2453-2fbb-467c-80b5-41964aa97aa4","ios":"levelo://app?vid=ff0b2453-2fbb-467c-80b5-41964aa97aa4"},"vehicle_type_id":"4","last_reported":1744063784,"current_range_meters":9200,"station_id":"ce4bgv92rcd13ifvqcr0","pricing_plan_id":"cebpf4jnsgd1na2vs0mg"},{"bike_id":"485f24a3-8ba6-4caa-8780-8392668d8f6b","system_id":"levelo_inurba_marseille","lat":43.31711,"lon":5.37742,"is_reserved":false,"is_disabled":false,"rental_uris":{"android":"levelo://app?vid=485f24a3-8ba6-4caa-8780-8392668d8f6b","ios":"levelo://app?vid=485f24a3-8ba6-4caa-8780-8392668d8f6b"},"vehicle_type_id":"4","last_reported":1744063784,"current_range_meters":9600,"station_id":"ce4bgth2rcd13ifvqch0","pricing_plan_id":"cebpf4jnsgd1na2vs0mg"},{"bike_id":"c24c6f58-08f9-46f7-a74b-ccf16b493e04","system_id":"levelo_inurba_marseille","lat":43.2893,"lon":5.39632,"is_reserved":false,"is_disabled":false,"rental_uris":{"android":"levelo://app?vid=c24c6f58-08f9-46f7-a74b-ccf16b493e04","ios":"levelo://app?vid=c24c6f58-08f9-46f7-a74b-ccf16b493e04"},"vehicle_type_id":"4","last_reported":1744063784,"current_range_meters":9600,"station_id":"ce4bh3h2rcd13ifvqdn0","pricing_plan_id":"cebpf4jnsgd1na2vs0mg"},{"bike_id":"750bc9c2-8244-4f27-a571-77c62d7d6b92","system_id":"levelo_inurba_marseille","lat":43.3127,"lon":5.37761,"is_reserved":false,"is_disabled":false,"rental_uris":{"android":"levelo://app?vid=750bc9c2-8244-4f27-a571-77c62d7d6b92","ios":"levelo://app?vid=750bc9c2-8244-4f27-a571-77c62d7d6b92"},"vehicle_type_id":"4","last_reported":1744063784,"current_range_meters":9600,"station_id":"","pricing_plan_id":"cebpf4jnsgd1na2vs0mg"},{"bike_id":"1e135bb9-2996-44c8-a5fc-6958b4edfbec","system_id":"levelo_inurba_marseille","lat":43.28697,"lon":5.37391,"is_reserved":false,"is_disabled":false,"rental_uris":{"android":"levelo://app?vid=1e135bb9-2996-44c8-a5fc-6958b4edfbec","ios":"levelo://app?vid=1e135bb9-2996-44c8-a5fc-6958b4edfbec"},"vehicle_type_id":"4","last_reported":1744063784,"current_range_meters":9600,"station_id":"ce4bh3p2rcd13ifvqdq0","pricing_plan_id":"cebpf4jnsgd1na2vs0mg"},{"bike_id":"89a19d3f-b1d3-4f5d-8160-598b05407dcb","system_id":"levelo_inurba_marseille","lat":43.27193,"lon":5.40999,"is_reserved":false,"is_disabled":false,"rental_uris":{"android":"levelo://app?vid=89a19d3f-b1d3-4f5d-8160-598b05407dcb","ios":"levelo://app?vid=89a19d3f-b1d3-4f5d-8160-598b05407dcb"},"vehicle_type_id":"4","last_reported":1744063784,"current_range_meters":9600,"station_id":"ce4bhl12rcd13ifvqgf0","pricing_plan_id":"cebpf4jnsgd1na2vs0mg"},{"bike_id":"9389f907-78e2-4c8e-b008-de9739faa63f","system_id":"levelo_inurba_marseille","lat":43.33027,"lon":5.39437,"is_reserved":false,"is_disabled":false,"rental_uris":{"android":"levelo://app?vid=9389f907-78e2-4c8e-b008-de9739faa63f","ios":"levelo://app?vid=9389f907-78e2-4c8e-b008-de9739faa63f"},"vehicle_type_id":"4","last_reported":1744063784,"current_range_meters":9600,"station_id":"","pricing_plan_id":"cebpf4jnsgd1na2vs0mg"},{"bike_id":"62f09ee9-4a5c-4371-a1a6-0cfab82c7212","system_id":"levelo_inurba_marseille","lat":43.295,"lon":5.38601,"is_reserved":false,"is_disabled":false,"rental_uris":{"android":"levelo://app?vid=62f09ee9-4a5c-4371-a1a6-0cfab82c7212","ios":"levelo://app?vid=62f09ee9-4a5c-4371-a1a6-0cfab82c7212"},"vehicle_type_id":"4","last_reported":1744063784,"current_range_meters":9600,"station_id":"ce4bgih2rcd13ifvqba0","pricing_plan_id":"cebpf4jnsgd1na2vs0mg"},{"bike_id":"8b497f79-9857-4c2e-ae6e-95b0d6ccbc52","system_id":"levelo_inurba_marseille","lat":43.32492,"lon":5.36591,"is_reserved":false,"is_disabled":true,"rental_uris":{"android":"levelo://app?vid=8b497f79-9857-4c2e-ae6e-95b0d6ccbc52","ios":"levelo://app?vid=8b497f79-9857-4c2e-ae6e-95b0d6ccbc52"},"vehicle_type_id":"4","last_reported":1744063784,"current_range_meters":9600,"station_id":"ce4bhs12rcd13ifvqhvg","pricing_plan_id":"cebpf4jnsgd1na2vs0mg"},{"bike_id":"7b3646e0-cbf2-40de-92a8-c829ec618775","system_id":"levelo_inurba_marseille","lat":43.31993,"lon":5.3815,"is_reserved":false,"is_disabled":true,"rental_uris":{"android":"levelo://app?vid=7b3646e0-cbf2-40de-92a8-c829ec618775","ios":"levelo://app?vid=7b3646e0-cbf2-40de-92a8-c829ec618775"},"vehicle_type_id":"4","last_reported":1744063784,"current_range_meters":9600,"station_id":"ce4bhr12rcd13ifvqhpg","pricing_plan_id":"cebpf4jnsgd1na2vs0mg"},{"bike_id":"33eab9e3-83f0-4e14-afd5-e4a95f650b8d","system_id":"levelo_inurba_marseille","lat":43.29815,"lon":5.40404,"is_reserved":false,"is_disabled":false,"rental_uris":{"android":"levelo://app?vid=33eab9e3-83f0-4e14-afd5-e4a95f650b8d","ios":"levelo://app?vid=33eab9e3-83f0-4e14-afd5-e4a95f650b8d"},"vehicle_type_id":"4","last_reported":1744063784,"current_range_meters":9600,"station_id":"ce4bh112rcd13ifvqd90","pricing_plan_id":"cebpf4jnsgd1na2vs0mg"},{"bike_id":"d5336e05-c483-42e9-9d22-06117ee9ac14","system_id":"levelo_inurba_marseille","lat":43.286249,"lon":5.350949,"is_reserved":false,"is_disabled":false,"rental_uris":{"android":"levelo://app?vid=d5336e05-c483-42e9-9d22-06117ee9ac14","ios":"levelo://app?vid=d5336e05-c483-42e9-9d22-06117ee9ac14"},"vehicle_type_id":"4","last_reported":1744063784,"current_range_meters":9600,"station_id":"ce4bhch2rcd13ifvqeug","pricing_plan_id":"cebpf4jnsgd1na2vs0mg"},{"bike_id":"7b879770-1bbd-421d-9c8b-e0235cabedcf","system_id":"levelo_inurba_marseille","lat":43.25405,"lon":5.41898,"is_reserved":false,"is_disabled":false,"rental_uris":{"android":"levelo://app?vid=7b879770-1bbd-421d-9c8b-e0235cabedcf","ios":"levelo://app?vid=7b879770-1bbd-421d-9c8b-e0235cabedcf"},"vehicle_type_id":"4","last_reported":1744063784,"current_range_meters":10000,"station_id":"","pricing_plan_id":"cebpf4jnsgd1na2vs0mg"},{"bike_id":"c38ed3bc-dd26-462e-9426-da0d08d7dffa","system_id":"levelo_inurba_marseille","lat":43.29444,"lon":5.3974,"is_reserved":false,"is_disabled":false,"rental_uris":{"android":"levelo://app?vid=c38ed3bc-dd26-462e-9426-da0d08d7dffa","ios":"levelo://app?vid=c38ed3bc-dd26-462e-9426-da0d08d7dffa"},"vehicle_type_id":"4","last_reported":1744063784,"current_range_meters":9600,"station_id":"ce4bh3h2rcd13ifvqdo0","pricing_plan_id":"cebpf4jnsgd1na2vs0mg"},{"bike_id":"591f7ff7-49c6-474d-b679-0369581a4079","system_id":"levelo_inurba_marseille","lat":43.30236,"lon":5.39447,"is_reserved":false,"is_disabled":false,"rental_uris":{"android":"levelo://app?vid=591f7ff7-49c6-474d-b679-0369581a4079","ios":"levelo://app?vid=591f7ff7-49c6-474d-b679-0369581a4079"},"vehicle_type_id":"4","last_reported":1744063784,"current_range_meters":10000,"station_id":"ce4bh0p2rcd13ifvqd70","pricing_plan_id":"cebpf4jnsgd1na2vs0mg"},{"bike_id":"e53b9e9b-ac51-4f70-ad60-ed3149b8c178","system_id":"levelo_inurba_marseille","lat":43.31458,"lon":5.37208,"is_reserved":false,"is_disabled":false,"rental_uris":{"android":"levelo://app?vid=e53b9e9b-ac51-4f70-ad60-ed3149b8c178","ios":"levelo://app?vid=e53b9e9b-ac51-4f70-ad60-ed3149b8c178"},"vehicle_type_id":"4","last_reported":1744063784,"current_range_meters":10000,"station_id":"","pricing_plan_id":"cebpf4jnsgd1na2vs0mg"},{"bike_id":"eaa0040e-3fef-4a77-8b61-098c97496083","system_id":"levelo_inurba_marseille","lat":43.30248,"lon":5.4007,"is_reserved":false,"is_disabled":false,"rental_uris":{"android":"levelo://app?vid=eaa0040e-3fef-4a77-8b61-098c97496083","ios":"levelo://app?vid=eaa0040e-3fef-4a77-8b61-098c97496083"},"vehicle_type_id":"4","last_reported":1744063784,"current_range_meters":9600,"station_id":"ce4bgvh2rcd13ifvqcs0","pricing_plan_id":"cebpf4jnsgd1na2vs0mg"},{"bike_id":"89771962-fe60-4144-a8a6-39dd0f7b9fb3","system_id":"levelo_inurba_marseille","lat":43.21207,"lon":5.35107,"is_reserved":false,"is_disabled":false,"rental_uris":{"android":"levelo://app?vid=89771962-fe60-4144-a8a6-39dd0f7b9fb3","ios":"levelo://app?vid=89771962-fe60-4144-a8a6-39dd0f7b9fb3"},"vehicle_type_id":"4","last_reported":1744063784,"current_range_meters":10000,"station_id":"st_cvj6sg6p6f1abm77japg","pricing_plan_id":"cebpf4jnsgd1na2vs0mg"},{"bike_id":"70234b52-bc3d-48f7-a795-85c45f7b3313","system_id":"levelo_inurba_marseille","lat":43.30442,"lon":5.38889,"is_reserved":false,"is_disabled":false,"rental_uris":{"android":"levelo://app?vid=70234b52-bc3d-48f7-a795-85c45f7b3313","ios":"levelo://app?vid=70234b52-bc3d-48f7-a795-85c45f7b3313"},"vehicle_type_id":"4","last_reported":1744063784,"current_range_meters":10000,"station_id":"ce4bgk12rcd13ifvqbi0","pricing_plan_id":"cebpf4jnsgd1na2vs0mg"},{"bike_id":"9aac2fe2-cdbb-4c6c-a98a-ccac5f4e4d8e","system_id":"levelo_inurba_marseille","lat":43.27896,"lon":5.38001,"is_reserved":false,"is_disabled":false,"rental_uris":{"android":"levelo://app?vid=9aac2fe2-cdbb-4c6c-a98a-ccac5f4e4d8e","ios":"levelo://app?vid=9aac2fe2-cdbb-4c6c-a98a-ccac5f4e4d8e"},"vehicle_type_id":"4","last_reported":1744063784,"current_range_meters":10000,"station_id":"ce4bhf92rcd13ifvqf50","pricing_plan_id":"cebpf4jnsgd1na2vs0mg"},{"bike_id":"444a5f07-09c5-40f5-8d58-60f1f25c67b9","system_id":"levelo_inurba_marseille","lat":43.319887,"lon":5.38154,"is_reserved":false,"is_disabled":false,"rental_uris":{"android":"levelo://app?vid=444a5f07-09c5-40f5-8d58-60f1f25c67b9","ios":"levelo://app?vid=444a5f07-09c5-40f5-8d58-60f1f25c67b9"},"vehicle_type_id":"4","last_reported":1744063784,"current_range_meters":10000,"station_id":"ce4bhr12rcd13ifvqhpg","pricing_plan_id":"cebpf4jnsgd1na2vs0mg"},{"bike_id":"20ef46eb-3f7b-455c-a8ba-38646f63cf11","system_id":"levelo_inurba_marseille","lat":43.30931,"lon":5.40146,"is_reserved":false,"is_disabled":false,"rental_uris":{"android":"levelo://app?vid=20ef46eb-3f7b-455c-a8ba-38646f63cf11","ios":"levelo://app?vid=20ef46eb-3f7b-455c-a8ba-38646f63cf11"},"vehicle_type_id":"4","last_reported":1744063784,"current_range_meters":10800,"station_id":"ce4bgvp2rcd13ifvqct0","pricing_plan_id":"cebpf4jnsgd1na2vs0mg"},{"bike_id":"ca53f4ce-a20d-441d-88c7-4b3a7e17cae3","system_id":"levelo_inurba_marseille","lat":43.27175,"lon":5.40996,"is_reserved":false,"is_disabled":false,"rental_uris":{"android":"levelo://app?vid=ca53f4ce-a20d-441d-88c7-4b3a7e17cae3","ios":"levelo://app?vid=ca53f4ce-a20d-441d-88c7-4b3a7e17cae3"},"vehicle_type_id":"4","last_reported":1744063784,"current_range_meters":10800,"station_id":"ce4bhl12rcd13ifvqgf0","pricing_plan_id":"cebpf4jnsgd1na2vs0mg"},{"bike_id":"2b9db949-72e0-488e-b6cf-3bc38e356382","system_id":"levelo_inurba_marseille","lat":43.23152,"lon":5.43705,"is_reserved":false,"is_disabled":false,"rental_uris":{"android":"levelo://app?vid=2b9db949-72e0-488e-b6cf-3bc38e356382","ios":"levelo://app?vid=2b9db949-72e0-488e-b6cf-3bc38e356382"},"vehicle_type_id":"4","last_reported":1744063784,"current_range_meters":10800,"station_id":"ce4bhmp2rcd13ifvqgog","pricing_plan_id":"cebpf4jnsgd1na2vs0mg"},{"bike_id":"bb27bf37-4989-481b-9324-76c7fb81df3c","system_id":"levelo_inurba_marseille","lat":43.31161,"lon":5.3872,"is_reserved":false,"is_disabled":false,"rental_uris":{"android":"levelo://app?vid=bb27bf37-4989-481b-9324-76c7fb81df3c","ios":"levelo://app?vid=bb27bf37-4989-481b-9324-76c7fb81df3c"},"vehicle_type_id":"4","last_reported":1744063784,"current_range_meters":10800,"station_id":"ce4bgv12rcd13ifvqcp0","pricing_plan_id":"cebpf4jnsgd1na2vs0mg"},{"bike_id":"180237b6-a2b6-449d-9ae5-9e520f727ee7","system_id":"levelo_inurba_marseille","lat":43.28716,"lon":5.36099,"is_reserved":false,"is_disabled":false,"rental_uris":{"android":"levelo://app?vid=180237b6-a2b6-449d-9ae5-9e520f727ee7","ios":"levelo://app?vid=180237b6-a2b6-449d-9ae5-9e520f727ee7"},"vehicle_type_id":"4","last_reported":1744063784,"current_range_meters":10800,"station_id":"cki0cbj6b192h4jlfktg","pricing_plan_id":"cebpf4jnsgd1na2vs0mg"},{"bike_id":"257d1c02-5396-419e-a612-6a8a1704493e","system_id":"levelo_inurba_marseille","lat":43.29032,"lon":5.37543,"is_reserved":false,"is_disabled":true,"rental_uris":{"android":"levelo://app?vid=257d1c02-5396-419e-a612-6a8a1704493e","ios":"levelo://app?vid=257d1c02-5396-419e-a612-6a8a1704493e"},"vehicle_type_id":"4","last_reported":1744063784,"current_range_meters":10800,"station_id":"ce4bh692rcd13ifvqe90","pricing_plan_id":"cebpf4jnsgd1na2vs0mg"},{"bike_id":"f39be6f5-2f69-4c37-b021-559d20b299a4","system_id":"levelo_inurba_marseille","lat":43.29989,"lon":5.37637,"is_reserved":false,"is_disabled":false,"rental_uris":{"android":"levelo://app?vid=f39be6f5-2f69-4c37-b021-559d20b299a4","ios":"levelo://app?vid=f39be6f5-2f69-4c37-b021-559d20b299a4"},"vehicle_type_id":"4","last_reported":1744063784,"current_range_meters":10800,"station_id":"","pricing_plan_id":"cebpf4jnsgd1na2vs0mg"},{"bike_id":"1e01d50e-cead-45bb-a3a4-7e0d04b7b063","system_id":"levelo_inurba_marseille","lat":43.29039,"lon":5.38657,"is_reserved":false,"is_disabled":true,"rental_uris":{"android":"levelo://app?vid=1e01d50e-cead-45bb-a3a4-7e0d04b7b063","ios":"levelo://app?vid=1e01d50e-cead-45bb-a3a4-7e0d04b7b063"},"vehicle_type_id":"4","last_reported":1744063784,"current_range_meters":10800,"station_id":"ce4bh4p2rcd13ifvqe0g","pricing_plan_id":"cebpf4jnsgd1na2vs0mg"},{"bike_id":"b97be67a-237b-4810-9f2a-b7321431efc6","system_id":"levelo_inurba_marseille","lat":43.3133,"lon":5.39686,"is_reserved":false,"is_disabled":false,"rental_uris":{"android":"levelo://app?vid=b97be67a-237b-4810-9f2a-b7321431efc6","ios":"levelo://app?vid=b97be67a-237b-4810-9f2a-b7321431efc6"},"vehicle_type_id":"4","last_reported":1744063784,"current_range_meters":10800,"station_id":"ce4bgvp2rcd13ifvqcu0","pricing_plan_id":"cebpf4jnsgd1na2vs0mg"},{"bike_id":"847cff54-9149-4fb3-8217-2338a6e302d9","system_id":"levelo_inurba_marseille","lat":43.288602,"lon":5.358476,"is_reserved":false,"is_disabled":false,"rental_uris":{"android":"levelo://app?vid=847cff54-9149-4fb3-8217-2338a6e302d9","ios":"levelo://app?vid=847cff54-9149-4fb3-8217-2338a6e302d9"},"vehicle_type_id":"4","last_reported":1744063784,"current_range_meters":10800,"station_id":"ce4bhb12rcd13ifvqem0","pricing_plan_id":"cebpf4jnsgd1na2vs0mg"},{"bike_id":"48fccb4f-09f1-4e65-a7d2-a88a68c57483","system_id":"levelo_inurba_marseille","lat":43.31111,"lon":5.37773,"is_reserved":false,"is_disabled":false,"rental_uris":{"android":"levelo://app?vid=48fccb4f-09f1-4e65-a7d2-a88a68c57483","ios":"levelo://app?vid=48fccb4f-09f1-4e65-a7d2-a88a68c57483"},"vehicle_type_id":"4","last_reported":1744063784,"current_range_meters":10800,"station_id":"ce4bgt92rcd13ifvqcg0","pricing_plan_id":"cebpf4jnsgd1na2vs0mg"},{"bike_id":"b035aaa6-27bf-4037-8ed4-aeaee2973514","system_id":"levelo_inurba_marseille","lat":43.29521,"lon":5.3905,"is_reserved":false,"is_disabled":false,"rental_uris":{"android":"levelo://app?vid=b035aaa6-27bf-4037-8ed4-aeaee2973514","ios":"levelo://app?vid=b035aaa6-27bf-4037-8ed4-aeaee2973514"},"vehicle_type_id":"4","last_reported":1744063784,"current_range_meters":10800,"station_id":"ce4bh3p2rcd13ifvqdp0","pricing_plan_id":"cebpf4jnsgd1na2vs0mg"},{"bike_id":"2e9000dc-6400-4918-a994-dd60039ca96d","system_id":"levelo_inurba_marseille","lat":43.31996,"lon":5.38121,"is_reserved":false,"is_disabled":true,"rental_uris":{"android":"levelo://app?vid=2e9000dc-6400-4918-a994-dd60039ca96d","ios":"levelo://app?vid=2e9000dc-6400-4918-a994-dd60039ca96d"},"vehicle_type_id":"4","last_reported":1744063784,"current_range_meters":10800,"station_id":"ce4bhr12rcd13ifvqhpg","pricing_plan_id":"cebpf4jnsgd1na2vs0mg"},{"bike_id":"3164d024-3042-42c3-b471-557460cea48d","system_id":"levelo_inurba_marseille","lat":43.28152,"lon":5.42645,"is_reserved":false,"is_disabled":false,"rental_uris":{"android":"levelo://app?vid=3164d024-3042-42c3-b471-557460cea48d","ios":"levelo://app?vid=3164d024-3042-42c3-b471-557460cea48d"},"vehicle_type_id":"4","last_reported":1744063784,"current_range_meters":11200,"station_id":"ce4bhnh2rcd13ifvqgug","pricing_plan_id":"cebpf4jnsgd1na2vs0mg"},{"bike_id":"2a74d2ee-0dd6-47f8-8f26-88ec8276060f","system_id":"levelo_inurba_marseille","lat":43.30931,"lon":5.36727,"is_reserved":false,"is_disabled":false,"rental_uris":{"android":"levelo://app?vid=2a74d2ee-0dd6-47f8-8f26-88ec8276060f","ios":"levelo://app?vid=2a74d2ee-0dd6-47f8-8f26-88ec8276060f"},"vehicle_type_id":"4","last_reported":1744063784,"current_range_meters":11200,"station_id":"","pricing_plan_id":"cebpf4jnsgd1na2vs0mg"},{"bike_id":"1caaf187-7c56-4777-81af-6cb943962ba6","system_id":"levelo_inurba_marseille","lat":43.3029,"lon":5.39195,"is_reserved":false,"is_disabled":true,"rental_uris":{"android":"levelo://app?vid=1caaf187-7c56-4777-81af-6cb943962ba6","ios":"levelo://app?vid=1caaf187-7c56-4777-81af-6cb943962ba6"},"vehicle_type_id":"4","last_reported":1744063784,"current_range_meters":11200,"station_id":"ce4bgkh2rcd13ifvqbk0","pricing_plan_id":"cebpf4jnsgd1na2vs0mg"},{"bike_id":"b91e6d98-8f8c-47e9-b9cb-3e7a40463731","system_id":"levelo_inurba_marseille","lat":43.30433,"lon":5.38875,"is_reserved":false,"is_disabled":false,"rental_uris":{"android":"levelo://app?vid=b91e6d98-8f8c-47e9-b9cb-3e7a40463731","ios":"levelo://app?vid=b91e6d98-8f8c-47e9-b9cb-3e7a40463731"},"vehicle_type_id":"4","last_reported":1744063784,"current_range_meters":11600,"station_id":"ce4bgk12rcd13ifvqbi0","pricing_plan_id":"cebpf4jnsgd1na2vs0mg"},{"bike_id":"fb7a1608-45dc-49fb-b059-ed5163e78863","system_id":"levelo_inurba_marseille","lat":43.31725,"lon":5.43713,"is_reserved":false,"is_disabled":false,"rental_uris":{"android":"levelo://app?vid=fb7a1608-45dc-49fb-b059-ed5163e78863","ios":"levelo://app?vid=fb7a1608-45dc-49fb-b059-ed5163e78863"},"vehicle_type_id":"4","last_reported":1744063784,"current_range_meters":11600,"station_id":"ce4bhp92rcd13ifvqhcg","pricing_plan_id":"cebpf4jnsgd1na2vs0mg"},{"bike_id":"82f28cf6-556c-431d-a12b-bd3ce5fc2f28","system_id":"levelo_inurba_marseille","lat":43.275,"lon":5.37754,"is_reserved":false,"is_disabled":false,"rental_uris":{"android":"levelo://app?vid=82f28cf6-556c-431d-a12b-bd3ce5fc2f28","ios":"levelo://app?vid=82f28cf6-556c-431d-a12b-bd3ce5fc2f28"},"vehicle_type_id":"4","last_reported":1744063784,"current_range_meters":11600,"station_id":"","pricing_plan_id":"cebpf4jnsgd1na2vs0mg"},{"bike_id":"d1789c99-5c7c-4e88-9d29-ce771e783c08","system_id":"levelo_inurba_marseille","lat":43.31013,"lon":5.37746,"is_reserved":false,"is_disabled":false,"rental_uris":{"android":"levelo://app?vid=d1789c99-5c7c-4e88-9d29-ce771e783c08","ios":"levelo://app?vid=d1789c99-5c7c-4e88-9d29-ce771e783c08"},"vehicle_type_id":"4","last_reported":1744063784,"current_range_meters":11600,"station_id":"","pricing_plan_id":"cebpf4jnsgd1na2vs0mg"},{"bike_id":"3576b946-70b3-456f-a60a-d98e227f015c","system_id":"levelo_inurba_marseille","lat":43.30124,"lon":5.38192,"is_reserved":false,"is_disabled":false,"rental_uris":{"android":"levelo://app?vid=3576b946-70b3-456f-a60a-d98e227f015c","ios":"levelo://app?vid=3576b946-70b3-456f-a60a-d98e227f015c"},"vehicle_type_id":"4","last_reported":1744063784,"current_range_meters":11600,"station_id":"ce4bgup2rcd13ifvqcn0","pricing_plan_id":"cebpf4jnsgd1na2vs0mg"},{"bike_id":"9dfb4532-bf8c-4fd1-a03a-d57492154d55","system_id":"levelo_inurba_marseille","lat":43.30205,"lon":5.39462,"is_reserved":false,"is_disabled":false,"rental_uris":{"android":"levelo://app?vid=9dfb4532-bf8c-4fd1-a03a-d57492154d55","ios":"levelo://app?vid=9dfb4532-bf8c-4fd1-a03a-d57492154d55"},"vehicle_type_id":"4","last_reported":1744063784,"current_range_meters":11600,"station_id":"ce4bh0p2rcd13ifvqd70","pricing_plan_id":"cebpf4jnsgd1na2vs0mg"},{"bike_id":"de9994e1-5fb8-47ad-9857-ba1fa507007f","system_id":"levelo_inurba_marseille","lat":43.29444,"lon":5.39738,"is_reserved":false,"is_disabled":false,"rental_uris":{"android":"levelo://app?vid=de9994e1-5fb8-47ad-9857-ba1fa507007f","ios":"levelo://app?vid=de9994e1-5fb8-47ad-9857-ba1fa507007f"},"vehicle_type_id":"4","last_reported":1744063784,"current_range_meters":11200,"station_id":"ce4bh3h2rcd13ifvqdo0","pricing_plan_id":"cebpf4jnsgd1na2vs0mg"},{"bike_id":"f17ce36f-e80a-4732-89e2-7a7dfab19d87","system_id":"levelo_inurba_marseille","lat":43.29895,"lon":5.43654,"is_reserved":false,"is_disabled":false,"rental_uris":{"android":"levelo://app?vid=f17ce36f-e80a-4732-89e2-7a7dfab19d87","ios":"levelo://app?vid=f17ce36f-e80a-4732-89e2-7a7dfab19d87"},"vehicle_type_id":"4","last_reported":1744063784,"current_range_meters":12000,"station_id":"ce4bhpp2rcd13ifvqhfg","pricing_plan_id":"cebpf4jnsgd1na2vs0mg"},{"bike_id":"090942cf-a81c-4a67-9cd7-e7cda5b12730","system_id":"levelo_inurba_marseille","lat":43.28713,"lon":5.39984,"is_reserved":false,"is_disabled":false,"rental_uris":{"android":"levelo://app?vid=090942cf-a81c-4a67-9cd7-e7cda5b12730","ios":"levelo://app?vid=090942cf-a81c-4a67-9cd7-e7cda5b12730"},"vehicle_type_id":"4","last_reported":1744063784,"current_range_meters":12000,"station_id":"ce4bho92rcd13ifvqh3g","pricing_plan_id":"cebpf4jnsgd1na2vs0mg"},{"bike_id":"149d12c1-918e-45ca-96d3-9e3d71a1137b","system_id":"levelo_inurba_marseille","lat":43.29036,"lon":5.40013,"is_reserved":false,"is_disabled":false,"rental_uris":{"android":"levelo://app?vid=149d12c1-918e-45ca-96d3-9e3d71a1137b","ios":"levelo://app?vid=149d12c1-918e-45ca-96d3-9e3d71a1137b"},"vehicle_type_id":"4","last_reported":1744063784,"current_range_meters":12000,"station_id":"","pricing_plan_id":"cebpf4jnsgd1na2vs0mg"},{"bike_id":"4ee272f5-b2c0-449c-8b01-facdb8da4962","system_id":"levelo_inurba_marseille","lat":43.28425,"lon":5.34995,"is_reserved":false,"is_disabled":false,"rental_uris":{"android":"levelo://app?vid=4ee272f5-b2c0-449c-8b01-facdb8da4962","ios":"levelo://app?vid=4ee272f5-b2c0-449c-8b01-facdb8da4962"},"vehicle_type_id":"4","last_reported":1744063784,"current_range_meters":12400,"station_id":"ce4bhbh2rcd13ifvqepg","pricing_plan_id":"cebpf4jnsgd1na2vs0mg"},{"bike_id":"b0fe5383-3c07-4f60-b77e-74504ad3c9ed","system_id":"levelo_inurba_marseille","lat":43.28699,"lon":5.39981,"is_reserved":false,"is_disabled":false,"rental_uris":{"android":"levelo://app?vid=b0fe5383-3c07-4f60-b77e-74504ad3c9ed","ios":"levelo://app?vid=b0fe5383-3c07-4f60-b77e-74504ad3c9ed"},"vehicle_type_id":"4","last_reported":1744063784,"current_range_meters":12400,"station_id":"ce4bho92rcd13ifvqh3g","pricing_plan_id":"cebpf4jnsgd1na2vs0mg"},{"bike_id":"e0242f3e-c1d6-442e-9387-9ce899d3c4b8","system_id":"levelo_inurba_marseille","lat":43.29627,"lon":5.40597,"is_reserved":false,"is_disabled":false,"rental_uris":{"android":"levelo://app?vid=e0242f3e-c1d6-442e-9387-9ce899d3c4b8","ios":"levelo://app?vid=e0242f3e-c1d6-442e-9387-9ce899d3c4b8"},"vehicle_type_id":"4","last_reported":1744063784,"current_range_meters":12400,"station_id":"ce4bh0h2rcd13ifvqd60","pricing_plan_id":"cebpf4jnsgd1na2vs0mg"},{"bike_id":"ec7d3251-d53b-4874-b96d-6dae899b6aa1","system_id":"levelo_inurba_marseille","lat":43.27206,"lon":5.39212,"is_reserved":false,"is_disabled":true,"rental_uris":{"android":"levelo://app?vid=ec7d3251-d53b-4874-b96d-6dae899b6aa1","ios":"levelo://app?vid=ec7d3251-d53b-4874-b96d-6dae899b6aa1"},"vehicle_type_id":"4","last_reported":1744063784,"current_range_meters":12400,"station_id":"ce4bhhp2rcd13ifvqfm0","pricing_plan_id":"cebpf4jnsgd1na2vs0mg"},{"bike_id":"b7d15525-0102-4d63-b7d3-eaa2bc4c21c3","system_id":"levelo_inurba_marseille","lat":43.217438,"lon":5.346044,"is_reserved":false,"is_disabled":true,"rental_uris":{"android":"levelo://app?vid=b7d15525-0102-4d63-b7d3-eaa2bc4c21c3","ios":"levelo://app?vid=b7d15525-0102-4d63-b7d3-eaa2bc4c21c3"},"vehicle_type_id":"4","last_reported":1744063784,"current_range_meters":12400,"station_id":"","pricing_plan_id":"cebpf4jnsgd1na2vs0mg"},{"bike_id":"4b9dfe05-0e60-423c-af4b-3ef6e8cad4ce","system_id":"levelo_inurba_marseille","lat":43.25122,"lon":5.40302,"is_reserved":false,"is_disabled":true,"rental_uris":{"android":"levelo://app?vid=4b9dfe05-0e60-423c-af4b-3ef6e8cad4ce","ios":"levelo://app?vid=4b9dfe05-0e60-423c-af4b-3ef6e8cad4ce"},"vehicle_type_id":"4","last_reported":1744063784,"current_range_meters":12400,"station_id":"ce4bhlh2rcd13ifvqgig","pricing_plan_id":"cebpf4jnsgd1na2vs0mg"},{"bike_id":"fb9f6b16-b64d-4eb9-b329-0548a57bc9c5","system_id":"levelo_inurba_marseille","lat":43.30095,"lon":5.39087,"is_reserved":false,"is_disabled":false,"rental_uris":{"android":"levelo://app?vid=fb9f6b16-b64d-4eb9-b329-0548a57bc9c5","ios":"levelo://app?vid=fb9f6b16-b64d-4eb9-b329-0548a57bc9c5"},"vehicle_type_id":"4","last_reported":1744063784,"current_range_meters":12800,"station_id":"ce4bh192rcd13ifvqdb0","pricing_plan_id":"cebpf4jnsgd1na2vs0mg"},{"bike_id":"c879db94-7700-49a3-8554-1a634dac59d4","system_id":"levelo_inurba_marseille","lat":43.28698,"lon":5.39983,"is_reserved":false,"is_disabled":false,"rental_uris":{"android":"levelo://app?vid=c879db94-7700-49a3-8554-1a634dac59d4","ios":"levelo://app?vid=c879db94-7700-49a3-8554-1a634dac59d4"},"vehicle_type_id":"4","last_reported":1744063784,"current_range_meters":12800,"station_id":"ce4bho92rcd13ifvqh3g","pricing_plan_id":"cebpf4jnsgd1na2vs0mg"},{"bike_id":"034b881e-44c7-46eb-affa-8c5577be2c99","system_id":"levelo_inurba_marseille","lat":43.27815,"lon":5.40714,"is_reserved":false,"is_disabled":false,"rental_uris":{"android":"levelo://app?vid=034b881e-44c7-46eb-affa-8c5577be2c99","ios":"levelo://app?vid=034b881e-44c7-46eb-affa-8c5577be2c99"},"vehicle_type_id":"4","last_reported":1744063784,"current_range_meters":12800,"station_id":"ce4bhnh2rcd13ifvqgtg","pricing_plan_id":"cebpf4jnsgd1na2vs0mg"},{"bike_id":"f30abbf1-81a6-4d29-8c96-482f820a46ea","system_id":"levelo_inurba_marseille","lat":43.287,"lon":5.39983,"is_reserved":false,"is_disabled":false,"rental_uris":{"android":"levelo://app?vid=f30abbf1-81a6-4d29-8c96-482f820a46ea","ios":"levelo://app?vid=f30abbf1-81a6-4d29-8c96-482f820a46ea"},"vehicle_type_id":"4","last_reported":1744063784,"current_range_meters":13600,"station_id":"ce4bho92rcd13ifvqh3g","pricing_plan_id":"cebpf4jnsgd1na2vs0mg"},{"bike_id":"e642f7f4-7313-415d-9a80-d0d6b0477e6a","system_id":"levelo_inurba_marseille","lat":43.29786,"lon":5.38106,"is_reserved":false,"is_disabled":true,"rental_uris":{"android":"levelo://app?vid=e642f7f4-7313-415d-9a80-d0d6b0477e6a","ios":"levelo://app?vid=e642f7f4-7313-415d-9a80-d0d6b0477e6a"},"vehicle_type_id":"4","last_reported":1744063784,"current_range_meters":13600,"station_id":"ce4bgip2rcd13ifvqbb0","pricing_plan_id":"cebpf4jnsgd1na2vs0mg"},{"bike_id":"727420a5-2a4a-4878-9ca5-955e3d4d8d4d","system_id":"levelo_inurba_marseille","lat":43.30644,"lon":5.40079,"is_reserved":false,"is_disabled":false,"rental_uris":{"android":"levelo://app?vid=727420a5-2a4a-4878-9ca5-955e3d4d8d4d","ios":"levelo://app?vid=727420a5-2a4a-4878-9ca5-955e3d4d8d4d"},"vehicle_type_id":"4","last_reported":1744063784,"current_range_meters":13600,"station_id":"ce4bh112rcd13ifvqda0","pricing_plan_id":"cebpf4jnsgd1na2vs0mg"},{"bike_id":"4e0de06a-5fb6-425c-864f-446dbfc90cbc","system_id":"levelo_inurba_marseille","lat":43.28468,"lon":5.35887,"is_reserved":false,"is_disabled":false,"rental_uris":{"android":"levelo://app?vid=4e0de06a-5fb6-425c-864f-446dbfc90cbc","ios":"levelo://app?vid=4e0de06a-5fb6-425c-864f-446dbfc90cbc"},"vehicle_type_id":"4","last_reported":1744063784,"current_range_meters":13600,"station_id":"ce4bhah2rcd13ifvqei0","pricing_plan_id":"cebpf4jnsgd1na2vs0mg"},{"bike_id":"5d313498-0c3a-4518-90f1-dc0522884fbd","system_id":"levelo_inurba_marseille","lat":43.32264,"lon":5.3828,"is_reserved":false,"is_disabled":false,"rental_uris":{"android":"levelo://app?vid=5d313498-0c3a-4518-90f1-dc0522884fbd","ios":"levelo://app?vid=5d313498-0c3a-4518-90f1-dc0522884fbd"},"vehicle_type_id":"4","last_reported":1744063784,"current_range_meters":12800,"station_id":"ce4bhr12rcd13ifvqhqg","pricing_plan_id":"cebpf4jnsgd1na2vs0mg"},{"bike_id":"0aa02c49-cbb3-4907-a588-f754056f3ba8","system_id":"levelo_inurba_marseille","lat":43.30801,"lon":5.38139,"is_reserved":false,"is_disabled":true,"rental_uris":{"android":"levelo://app?vid=0aa02c49-cbb3-4907-a588-f754056f3ba8","ios":"levelo://app?vid=0aa02c49-cbb3-4907-a588-f754056f3ba8"},"vehicle_type_id":"4","last_reported":1744063784,"current_range_meters":14000,"station_id":"ce4bgt12rcd13ifvqce0","pricing_plan_id":"cebpf4jnsgd1na2vs0mg"},{"bike_id":"4f003989-bf72-4690-aae5-605687517780","system_id":"levelo_inurba_marseille","lat":43.28432,"lon":5.39204,"is_reserved":false,"is_disabled":false,"rental_uris":{"android":"levelo://app?vid=4f003989-bf72-4690-aae5-605687517780","ios":"levelo://app?vid=4f003989-bf72-4690-aae5-605687517780"},"vehicle_type_id":"4","last_reported":1744063784,"current_range_meters":14000,"station_id":"ce4bhoh2rcd13ifvqh5g","pricing_plan_id":"cebpf4jnsgd1na2vs0mg"},{"bike_id":"4c2d3fd7-a1d3-4a8f-b668-55a172b48630","system_id":"levelo_inurba_marseille","lat":43.30436,"lon":5.38888,"is_reserved":false,"is_disabled":false,"rental_uris":{"android":"levelo://app?vid=4c2d3fd7-a1d3-4a8f-b668-55a172b48630","ios":"levelo://app?vid=4c2d3fd7-a1d3-4a8f-b668-55a172b48630"},"vehicle_type_id":"4","last_reported":1744063784,"current_range_meters":14000,"station_id":"ce4bgk12rcd13ifvqbi0","pricing_plan_id":"cebpf4jnsgd1na2vs0mg"},{"bike_id":"bf61ee85-a98a-4de7-9464-757c7368502a","system_id":"levelo_inurba_marseille","lat":43.29794,"lon":5.39359,"is_reserved":false,"is_disabled":false,"rental_uris":{"android":"levelo://app?vid=bf61ee85-a98a-4de7-9464-757c7368502a","ios":"levelo://app?vid=bf61ee85-a98a-4de7-9464-757c7368502a"},"vehicle_type_id":"4","last_reported":1744063784,"current_range_meters":14000,"station_id":"chh1huq6cuj3fo74tm60","pricing_plan_id":"cebpf4jnsgd1na2vs0mg"},{"bike_id":"68d1cc33-0218-451e-8e10-d32225c21263","system_id":"levelo_inurba_marseille","lat":43.23161,"lon":5.43714,"is_reserved":false,"is_disabled":true,"rental_uris":{"android":"levelo://app?vid=68d1cc33-0218-451e-8e10-d32225c21263","ios":"levelo://app?vid=68d1cc33-0218-451e-8e10-d32225c21263"},"vehicle_type_id":"4","last_reported":1744063784,"current_range_meters":14000,"station_id":"ce4bhmp2rcd13ifvqgog","pricing_plan_id":"cebpf4jnsgd1na2vs0mg"},{"bike_id":"c8351757-3fec-4594-855b-7d7cf1a199dd","system_id":"levelo_inurba_marseille","lat":43.28422,"lon":5.37515,"is_reserved":false,"is_disabled":false,"rental_uris":{"android":"levelo://app?vid=c8351757-3fec-4594-855b-7d7cf1a199dd","ios":"levelo://app?vid=c8351757-3fec-4594-855b-7d7cf1a199dd"},"vehicle_type_id":"4","last_reported":1744063784,"current_range_meters":14000,"station_id":"ce4bh412rcd13ifvqds0","pricing_plan_id":"cebpf4jnsgd1na2vs0mg"},{"bike_id":"f9dfa114-9392-45ea-82d5-7f9c22d73bc6","system_id":"levelo_inurba_marseille","lat":43.29998,"lon":5.36393,"is_reserved":false,"is_disabled":false,"rental_uris":{"android":"levelo://app?vid=f9dfa114-9392-45ea-82d5-7f9c22d73bc6","ios":"levelo://app?vid=f9dfa114-9392-45ea-82d5-7f9c22d73bc6"},"vehicle_type_id":"4","last_reported":1744063784,"current_range_meters":14400,"station_id":"","pricing_plan_id":"cebpf4jnsgd1na2vs0mg"},{"bike_id":"6eec63f6-2a2d-45f6-98c6-5674c91eab93","system_id":"levelo_inurba_marseille","lat":43.31269,"lon":5.4017,"is_reserved":false,"is_disabled":false,"rental_uris":{"android":"levelo://app?vid=6eec63f6-2a2d-45f6-98c6-5674c91eab93","ios":"levelo://app?vid=6eec63f6-2a2d-45f6-98c6-5674c91eab93"},"vehicle_type_id":"4","last_reported":1744063784,"current_range_meters":14000,"station_id":"ce4bh092rcd13ifvqd30","pricing_plan_id":"cebpf4jnsgd1na2vs0mg"},{"bike_id":"1c24abbf-d842-4df3-9e43-2ef3129819ef","system_id":"levelo_inurba_marseille","lat":43.29536,"lon":5.38531,"is_reserved":false,"is_disabled":false,"rental_uris":{"android":"levelo://app?vid=1c24abbf-d842-4df3-9e43-2ef3129819ef","ios":"levelo://app?vid=1c24abbf-d842-4df3-9e43-2ef3129819ef"},"vehicle_type_id":"4","last_reported":1744063784,"current_range_meters":14400,"station_id":"ce4bgih2rcd13ifvqba0","pricing_plan_id":"cebpf4jnsgd1na2vs0mg"},{"bike_id":"93e3fd92-d65f-4f36-ba40-a3e5476ebc87","system_id":"levelo_inurba_marseille","lat":43.30646,"lon":5.36613,"is_reserved":false,"is_disabled":false,"rental_uris":{"android":"levelo://app?vid=93e3fd92-d65f-4f36-ba40-a3e5476ebc87","ios":"levelo://app?vid=93e3fd92-d65f-4f36-ba40-a3e5476ebc87"},"vehicle_type_id":"4","last_reported":1744063784,"current_range_meters":14800,"station_id":"","pricing_plan_id":"cebpf4jnsgd1na2vs0mg"},{"bike_id":"bb53d251-c2a9-4c03-a6c7-9d1272d728dc","system_id":"levelo_inurba_marseille","lat":43.31321,"lon":5.38492,"is_reserved":false,"is_disabled":false,"rental_uris":{"android":"levelo://app?vid=bb53d251-c2a9-4c03-a6c7-9d1272d728dc","ios":"levelo://app?vid=bb53d251-c2a9-4c03-a6c7-9d1272d728dc"},"vehicle_type_id":"4","last_reported":1744063784,"current_range_meters":14800,"station_id":"ce4bgt92rcd13ifvqcf0","pricing_plan_id":"cebpf4jnsgd1na2vs0mg"},{"bike_id":"48eb4048-1af7-49af-b3cb-6765b6f83818","system_id":"levelo_inurba_marseille","lat":43.30927,"lon":5.4014,"is_reserved":false,"is_disabled":false,"rental_uris":{"android":"levelo://app?vid=48eb4048-1af7-49af-b3cb-6765b6f83818","ios":"levelo://app?vid=48eb4048-1af7-49af-b3cb-6765b6f83818"},"vehicle_type_id":"4","last_reported":1744063784,"current_range_meters":14800,"station_id":"ce4bgvp2rcd13ifvqct0","pricing_plan_id":"cebpf4jnsgd1na2vs0mg"},{"bike_id":"61cd41de-07c4-4597-a74e-0c712a9e4d87","system_id":"levelo_inurba_marseille","lat":43.22946,"lon":5.35371,"is_reserved":false,"is_disabled":true,"rental_uris":{"android":"levelo://app?vid=61cd41de-07c4-4597-a74e-0c712a9e4d87","ios":"levelo://app?vid=61cd41de-07c4-4597-a74e-0c712a9e4d87"},"vehicle_type_id":"4","last_reported":1744063784,"current_range_meters":14800,"station_id":"cpo3532slgdg3j2ikp40","pricing_plan_id":"cebpf4jnsgd1na2vs0mg"},{"bike_id":"7d03e8c4-09b6-43fd-b688-8fa9a993b909","system_id":"levelo_inurba_marseille","lat":43.310088,"lon":5.367667,"is_reserved":false,"is_disabled":false,"rental_uris":{"android":"levelo://app?vid=7d03e8c4-09b6-43fd-b688-8fa9a993b909","ios":"levelo://app?vid=7d03e8c4-09b6-43fd-b688-8fa9a993b909"},"vehicle_type_id":"4","last_reported":1744063784,"current_range_meters":14800,"station_id":"","pricing_plan_id":"cebpf4jnsgd1na2vs0mg"},{"bike_id":"6ff17da5-9336-4cfd-974e-48be31ce9cbf","system_id":"levelo_inurba_marseille","lat":43.26557,"lon":5.3729,"is_reserved":false,"is_disabled":false,"rental_uris":{"android":"levelo://app?vid=6ff17da5-9336-4cfd-974e-48be31ce9cbf","ios":"levelo://app?vid=6ff17da5-9336-4cfd-974e-48be31ce9cbf"},"vehicle_type_id":"4","last_reported":1744063784,"current_range_meters":14800,"station_id":"ce4bhg12rcd13ifvqf70","pricing_plan_id":"cebpf4jnsgd1na2vs0mg"},{"bike_id":"28106982-b4c2-4a17-a517-f2f6ec8e207f","system_id":"levelo_inurba_marseille","lat":43.3136,"lon":5.38493,"is_reserved":false,"is_disabled":false,"rental_uris":{"android":"levelo://app?vid=28106982-b4c2-4a17-a517-f2f6ec8e207f","ios":"levelo://app?vid=28106982-b4c2-4a17-a517-f2f6ec8e207f"},"vehicle_type_id":"4","last_reported":1744063784,"current_range_meters":14800,"station_id":"ce4bgt92rcd13ifvqcf0","pricing_plan_id":"cebpf4jnsgd1na2vs0mg"},{"bike_id":"35f5b6d3-2e13-4db1-ab64-53db70d94c6f","system_id":"levelo_inurba_marseille","lat":43.26545,"lon":5.37312,"is_reserved":false,"is_disabled":false,"rental_uris":{"android":"levelo://app?vid=35f5b6d3-2e13-4db1-ab64-53db70d94c6f","ios":"levelo://app?vid=35f5b6d3-2e13-4db1-ab64-53db70d94c6f"},"vehicle_type_id":"4","last_reported":1744063784,"current_range_meters":15200,"station_id":"ce4bhg12rcd13ifvqf70","pricing_plan_id":"cebpf4jnsgd1na2vs0mg"},{"bike_id":"158df057-ca83-4895-ad1d-881f1e1b56e6","system_id":"levelo_inurba_marseille","lat":43.27193,"lon":5.39181,"is_reserved":false,"is_disabled":true,"rental_uris":{"android":"levelo://app?vid=158df057-ca83-4895-ad1d-881f1e1b56e6","ios":"levelo://app?vid=158df057-ca83-4895-ad1d-881f1e1b56e6"},"vehicle_type_id":"4","last_reported":1744063784,"current_range_meters":15200,"station_id":"ce4bhhp2rcd13ifvqfm0","pricing_plan_id":"cebpf4jnsgd1na2vs0mg"},{"bike_id":"4c5ed3bf-cdf5-43ce-9e91-f475551dd826","system_id":"levelo_inurba_marseille","lat":43.31319,"lon":5.39715,"is_reserved":false,"is_disabled":false,"rental_uris":{"android":"levelo://app?vid=4c5ed3bf-cdf5-43ce-9e91-f475551dd826","ios":"levelo://app?vid=4c5ed3bf-cdf5-43ce-9e91-f475551dd826"},"vehicle_type_id":"4","last_reported":1744063784,"current_range_meters":15200,"station_id":"ce4bgvp2rcd13ifvqcu0","pricing_plan_id":"cebpf4jnsgd1na2vs0mg"},{"bike_id":"e0c712a4-8c41-4e69-a875-50251525a0f6","system_id":"levelo_inurba_marseille","lat":43.27888,"lon":5.40754,"is_reserved":false,"is_disabled":false,"rental_uris":{"android":"levelo://app?vid=e0c712a4-8c41-4e69-a875-50251525a0f6","ios":"levelo://app?vid=e0c712a4-8c41-4e69-a875-50251525a0f6"},"vehicle_type_id":"4","last_reported":1744063784,"current_range_meters":15200,"station_id":"","pricing_plan_id":"cebpf4jnsgd1na2vs0mg"},{"bike_id":"a2b55975-55e4-4a3f-8af7-2c27ff45ed68","system_id":"levelo_inurba_marseille","lat":43.28161,"lon":5.42645,"is_reserved":false,"is_disabled":true,"rental_uris":{"android":"levelo://app?vid=a2b55975-55e4-4a3f-8af7-2c27ff45ed68","ios":"levelo://app?vid=a2b55975-55e4-4a3f-8af7-2c27ff45ed68"},"vehicle_type_id":"4","last_reported":1744063784,"current_range_meters":16000,"station_id":"ce4bhnh2rcd13ifvqgug","pricing_plan_id":"cebpf4jnsgd1na2vs0mg"},{"bike_id":"1ca7d0c4-b7aa-4350-ad9f-4e24c2ba029a","system_id":"levelo_inurba_marseille","lat":43.30297,"lon":5.42484,"is_reserved":false,"is_disabled":true,"rental_uris":{"android":"levelo://app?vid=1ca7d0c4-b7aa-4350-ad9f-4e24c2ba029a","ios":"levelo://app?vid=1ca7d0c4-b7aa-4350-ad9f-4e24c2ba029a"},"vehicle_type_id":"4","last_reported":1744063784,"current_range_meters":16000,"station_id":"","pricing_plan_id":"cebpf4jnsgd1na2vs0mg"},{"bike_id":"306fb80b-e66f-486f-9905-6c7789bca775","system_id":"levelo_inurba_marseille","lat":43.28415,"lon":5.37514,"is_reserved":false,"is_disabled":false,"rental_uris":{"android":"levelo://app?vid=306fb80b-e66f-486f-9905-6c7789bca775","ios":"levelo://app?vid=306fb80b-e66f-486f-9905-6c7789bca775"},"vehicle_type_id":"4","last_reported":1744063784,"current_range_meters":16000,"station_id":"ce4bh412rcd13ifvqds0","pricing_plan_id":"cebpf4jnsgd1na2vs0mg"},{"bike_id":"424487f3-4350-40b8-aa7c-dfad0244cdf9","system_id":"levelo_inurba_marseille","lat":43.27817,"lon":5.41764,"is_reserved":false,"is_disabled":false,"rental_uris":{"android":"levelo://app?vid=424487f3-4350-40b8-aa7c-dfad0244cdf9","ios":"levelo://app?vid=424487f3-4350-40b8-aa7c-dfad0244cdf9"},"vehicle_type_id":"4","last_reported":1744063784,"current_range_meters":16000,"station_id":"","pricing_plan_id":"cebpf4jnsgd1na2vs0mg"},{"bike_id":"f143ff2e-721e-493c-bcdc-a7d2cc09ad81","system_id":"levelo_inurba_marseille","lat":43.31004,"lon":5.37711,"is_reserved":false,"is_disabled":false,"rental_uris":{"android":"levelo://app?vid=f143ff2e-721e-493c-bcdc-a7d2cc09ad81","ios":"levelo://app?vid=f143ff2e-721e-493c-bcdc-a7d2cc09ad81"},"vehicle_type_id":"4","last_reported":1744063784,"current_range_meters":16000,"station_id":"","pricing_plan_id":"cebpf4jnsgd1na2vs0mg"},{"bike_id":"45d83681-f2eb-4a39-a20c-4022ba893ea0","system_id":"levelo_inurba_marseille","lat":43.3392,"lon":5.39225,"is_reserved":false,"is_disabled":false,"rental_uris":{"android":"levelo://app?vid=45d83681-f2eb-4a39-a20c-4022ba893ea0","ios":"levelo://app?vid=45d83681-f2eb-4a39-a20c-4022ba893ea0"},"vehicle_type_id":"4","last_reported":1744063784,"current_range_meters":16000,"station_id":"","pricing_plan_id":"cebpf4jnsgd1na2vs0mg"},{"bike_id":"92b7ed43-544e-48a7-9211-49c5372e8440","system_id":"levelo_inurba_marseille","lat":43.28959,"lon":5.36632,"is_reserved":false,"is_disabled":false,"rental_uris":{"android":"levelo://app?vid=92b7ed43-544e-48a7-9211-49c5372e8440","ios":"levelo://app?vid=92b7ed43-544e-48a7-9211-49c5372e8440"},"vehicle_type_id":"4","last_reported":1744063784,"current_range_meters":16400,"station_id":"ce4bhap2rcd13ifvqek0","pricing_plan_id":"cebpf4jnsgd1na2vs0mg"},{"bike_id":"f32cef04-dfe6-4f71-9b1f-7fa07dfba748","system_id":"levelo_inurba_marseille","lat":43.30313,"lon":5.36888,"is_reserved":false,"is_disabled":false,"rental_uris":{"android":"levelo://app?vid=f32cef04-dfe6-4f71-9b1f-7fa07dfba748","ios":"levelo://app?vid=f32cef04-dfe6-4f71-9b1f-7fa07dfba748"},"vehicle_type_id":"4","last_reported":1744063784,"current_range_meters":16400,"station_id":"ce4bgqh2rcd13ifvqc5g","pricing_plan_id":"cebpf4jnsgd1na2vs0mg"},{"bike_id":"6a33d1a2-e175-46b2-b9d0-46b3b8d04374","system_id":"levelo_inurba_marseille","lat":43.26189,"lon":5.37446,"is_reserved":false,"is_disabled":false,"rental_uris":{"android":"levelo://app?vid=6a33d1a2-e175-46b2-b9d0-46b3b8d04374","ios":"levelo://app?vid=6a33d1a2-e175-46b2-b9d0-46b3b8d04374"},"vehicle_type_id":"4","last_reported":1744063784,"current_range_meters":16400,"station_id":"ce4bhgp2rcd13ifvqfc0","pricing_plan_id":"cebpf4jnsgd1na2vs0mg"},{"bike_id":"f1e2fa16-262f-4907-ad0a-1dffa0dc2ed8","system_id":"levelo_inurba_marseille","lat":43.28721,"lon":5.36104,"is_reserved":false,"is_disabled":false,"rental_uris":{"android":"levelo://app?vid=f1e2fa16-262f-4907-ad0a-1dffa0dc2ed8","ios":"levelo://app?vid=f1e2fa16-262f-4907-ad0a-1dffa0dc2ed8"},"vehicle_type_id":"4","last_reported":1744063784,"current_range_meters":16400,"station_id":"cki0cbj6b192h4jlfktg","pricing_plan_id":"cebpf4jnsgd1na2vs0mg"},{"bike_id":"f0e5f8fc-186f-4f8d-ac1a-a52c8c71269c","system_id":"levelo_inurba_marseille","lat":43.31367,"lon":5.38498,"is_reserved":false,"is_disabled":false,"rental_uris":{"android":"levelo://app?vid=f0e5f8fc-186f-4f8d-ac1a-a52c8c71269c","ios":"levelo://app?vid=f0e5f8fc-186f-4f8d-ac1a-a52c8c71269c"},"vehicle_type_id":"4","last_reported":1744063784,"current_range_meters":16400,"station_id":"ce4bgt92rcd13ifvqcf0","pricing_plan_id":"cebpf4jnsgd1na2vs0mg"},{"bike_id":"7a27bbe8-2753-4075-8ccd-7f573c8d455f","system_id":"levelo_inurba_marseille","lat":43.241775,"lon":5.397205,"is_reserved":false,"is_disabled":false,"rental_uris":{"android":"levelo://app?vid=7a27bbe8-2753-4075-8ccd-7f573c8d455f","ios":"levelo://app?vid=7a27bbe8-2753-4075-8ccd-7f573c8d455f"},"vehicle_type_id":"4","last_reported":1744063784,"current_range_meters":16400,"station_id":"ce4bhn12rcd13ifvqgpg","pricing_plan_id":"cebpf4jnsgd1na2vs0mg"},{"bike_id":"19bb28ca-216b-4255-a4eb-cf63bcca46db","system_id":"levelo_inurba_marseille","lat":43.284641,"lon":5.358901,"is_reserved":false,"is_disabled":false,"rental_uris":{"android":"levelo://app?vid=19bb28ca-216b-4255-a4eb-cf63bcca46db","ios":"levelo://app?vid=19bb28ca-216b-4255-a4eb-cf63bcca46db"},"vehicle_type_id":"4","last_reported":1744063784,"current_range_meters":16400,"station_id":"ce4bhah2rcd13ifvqei0","pricing_plan_id":"cebpf4jnsgd1na2vs0mg"},{"bike_id":"d2818a82-492e-4cf8-8605-026ac930fd78","system_id":"levelo_inurba_marseille","lat":43.28459,"lon":5.35899,"is_reserved":false,"is_disabled":false,"rental_uris":{"android":"levelo://app?vid=d2818a82-492e-4cf8-8605-026ac930fd78","ios":"levelo://app?vid=d2818a82-492e-4cf8-8605-026ac930fd78"},"vehicle_type_id":"4","last_reported":1744063784,"current_range_meters":16400,"station_id":"ce4bhah2rcd13ifvqei0","pricing_plan_id":"cebpf4jnsgd1na2vs0mg"},{"bike_id":"1348ebda-69b3-4fab-9110-656bacb9c452","system_id":"levelo_inurba_marseille","lat":43.28696,"lon":5.36374,"is_reserved":false,"is_disabled":false,"rental_uris":{"android":"levelo://app?vid=1348ebda-69b3-4fab-9110-656bacb9c452","ios":"levelo://app?vid=1348ebda-69b3-4fab-9110-656bacb9c452"},"vehicle_type_id":"4","last_reported":1744063784,"current_range_meters":16400,"station_id":"ce4bhah2rcd13ifvqej0","pricing_plan_id":"cebpf4jnsgd1na2vs0mg"},{"bike_id":"b397701f-0d3d-44bf-ab3e-3ccc7e74fb2e","system_id":"levelo_inurba_marseille","lat":43.26415,"lon":5.4227,"is_reserved":false,"is_disabled":false,"rental_uris":{"android":"levelo://app?vid=b397701f-0d3d-44bf-ab3e-3ccc7e74fb2e","ios":"levelo://app?vid=b397701f-0d3d-44bf-ab3e-3ccc7e74fb2e"},"vehicle_type_id":"4","last_reported":1744063784,"current_range_meters":16400,"station_id":"","pricing_plan_id":"cebpf4jnsgd1na2vs0mg"},{"bike_id":"01b7378b-2eb9-4de2-9d50-fb3034d8e0d7","system_id":"levelo_inurba_marseille","lat":43.30314,"lon":5.40455,"is_reserved":false,"is_disabled":false,"rental_uris":{"android":"levelo://app?vid=01b7378b-2eb9-4de2-9d50-fb3034d8e0d7","ios":"levelo://app?vid=01b7378b-2eb9-4de2-9d50-fb3034d8e0d7"},"vehicle_type_id":"4","last_reported":1744063784,"current_range_meters":16800,"station_id":"ce4bh012rcd13ifvqd10","pricing_plan_id":"cebpf4jnsgd1na2vs0mg"},{"bike_id":"6083c5ea-b939-4297-84a0-a1d53b68cd5a","system_id":"levelo_inurba_marseille","lat":43.28449,"lon":5.37559,"is_reserved":false,"is_disabled":false,"rental_uris":{"android":"levelo://app?vid=6083c5ea-b939-4297-84a0-a1d53b68cd5a","ios":"levelo://app?vid=6083c5ea-b939-4297-84a0-a1d53b68cd5a"},"vehicle_type_id":"4","last_reported":1744063784,"current_range_meters":16800,"station_id":"","pricing_plan_id":"cebpf4jnsgd1na2vs0mg"},{"bike_id":"e054f688-e975-45ab-8945-bcc4f74953b0","system_id":"levelo_inurba_marseille","lat":43.29512,"lon":5.39037,"is_reserved":false,"is_disabled":false,"rental_uris":{"android":"levelo://app?vid=e054f688-e975-45ab-8945-bcc4f74953b0","ios":"levelo://app?vid=e054f688-e975-45ab-8945-bcc4f74953b0"},"vehicle_type_id":"4","last_reported":1744063784,"current_range_meters":16800,"station_id":"ce4bh3p2rcd13ifvqdp0","pricing_plan_id":"cebpf4jnsgd1na2vs0mg"},{"bike_id":"6e197547-19f8-4d8d-91ef-74eee60feac5","system_id":"levelo_inurba_marseille","lat":43.26523,"lon":5.39536,"is_reserved":false,"is_disabled":false,"rental_uris":{"android":"levelo://app?vid=6e197547-19f8-4d8d-91ef-74eee60feac5","ios":"levelo://app?vid=6e197547-19f8-4d8d-91ef-74eee60feac5"},"vehicle_type_id":"4","last_reported":1744063784,"current_range_meters":16800,"station_id":"ce4bhi12rcd13ifvqfq0","pricing_plan_id":"cebpf4jnsgd1na2vs0mg"},{"bike_id":"41947e67-a831-4ba3-8cae-2c5603bc9a84","system_id":"levelo_inurba_marseille","lat":43.2856,"lon":5.39504,"is_reserved":false,"is_disabled":false,"rental_uris":{"android":"levelo://app?vid=41947e67-a831-4ba3-8cae-2c5603bc9a84","ios":"levelo://app?vid=41947e67-a831-4ba3-8cae-2c5603bc9a84"},"vehicle_type_id":"4","last_reported":1744063784,"current_range_meters":16800,"station_id":"ce4bh292rcd13ifvqdg0","pricing_plan_id":"cebpf4jnsgd1na2vs0mg"},{"bike_id":"c86be446-33b4-453c-bc7e-58f1c0a41d7e","system_id":"levelo_inurba_marseille","lat":43.29517,"lon":5.39045,"is_reserved":false,"is_disabled":false,"rental_uris":{"android":"levelo://app?vid=c86be446-33b4-453c-bc7e-58f1c0a41d7e","ios":"levelo://app?vid=c86be446-33b4-453c-bc7e-58f1c0a41d7e"},"vehicle_type_id":"4","last_reported":1744063784,"current_range_meters":16800,"station_id":"ce4bh3p2rcd13ifvqdp0","pricing_plan_id":"cebpf4jnsgd1na2vs0mg"},{"bike_id":"d80533cc-8dc7-4356-8433-af344ad5199e","system_id":"levelo_inurba_marseille","lat":43.2869,"lon":5.39998,"is_reserved":false,"is_disabled":false,"rental_uris":{"android":"levelo://app?vid=d80533cc-8dc7-4356-8433-af344ad5199e","ios":"levelo://app?vid=d80533cc-8dc7-4356-8433-af344ad5199e"},"vehicle_type_id":"4","last_reported":1744063784,"current_range_meters":16800,"station_id":"ce4bho92rcd13ifvqh3g","pricing_plan_id":"cebpf4jnsgd1na2vs0mg"},{"bike_id":"67f5402e-84ba-4cca-bae1-1308d8bfce95","system_id":"levelo_inurba_marseille","lat":43.32307,"lon":5.36715,"is_reserved":false,"is_disabled":false,"rental_uris":{"android":"levelo://app?vid=67f5402e-84ba-4cca-bae1-1308d8bfce95","ios":"levelo://app?vid=67f5402e-84ba-4cca-bae1-1308d8bfce95"},"vehicle_type_id":"4","last_reported":1744063784,"current_range_meters":16800,"station_id":"ce4bhsh2rcd13ifvqi2g","pricing_plan_id":"cebpf4jnsgd1na2vs0mg"},{"bike_id":"d41a164c-6af8-4344-bffb-3b3c38a6d184","system_id":"levelo_inurba_marseille","lat":43.30544,"lon":5.36531,"is_reserved":false,"is_disabled":true,"rental_uris":{"android":"levelo://app?vid=d41a164c-6af8-4344-bffb-3b3c38a6d184","ios":"levelo://app?vid=d41a164c-6af8-4344-bffb-3b3c38a6d184"},"vehicle_type_id":"4","last_reported":1744063784,"current_range_meters":16800,"station_id":"ce4bgs12rcd13ifvqcag","pricing_plan_id":"cebpf4jnsgd1na2vs0mg"},{"bike_id":"fbe27213-9351-4c47-8819-a8eeb6a2201b","system_id":"levelo_inurba_marseille","lat":43.28402,"lon":5.37536,"is_reserved":false,"is_disabled":false,"rental_uris":{"android":"levelo://app?vid=fbe27213-9351-4c47-8819-a8eeb6a2201b","ios":"levelo://app?vid=fbe27213-9351-4c47-8819-a8eeb6a2201b"},"vehicle_type_id":"4","last_reported":1744063784,"current_range_meters":16800,"station_id":"ce4bh412rcd13ifvqds0","pricing_plan_id":"cebpf4jnsgd1na2vs0mg"},{"bike_id":"e8bfb874-ee18-4064-9e01-609da3d3029c","system_id":"levelo_inurba_marseille","lat":43.29571,"lon":5.39975,"is_reserved":false,"is_disabled":false,"rental_uris":{"android":"levelo://app?vid=e8bfb874-ee18-4064-9e01-609da3d3029c","ios":"levelo://app?vid=e8bfb874-ee18-4064-9e01-609da3d3029c"},"vehicle_type_id":"4","last_reported":1744063784,"current_range_meters":16800,"station_id":"ce4bh312rcd13ifvqdj0","pricing_plan_id":"cebpf4jnsgd1na2vs0mg"},{"bike_id":"ad0d4453-2c58-4258-8e17-aa49c50e1a2a","system_id":"levelo_inurba_marseille","lat":43.31998,"lon":5.38174,"is_reserved":false,"is_disabled":false,"rental_uris":{"android":"levelo://app?vid=ad0d4453-2c58-4258-8e17-aa49c50e1a2a","ios":"levelo://app?vid=ad0d4453-2c58-4258-8e17-aa49c50e1a2a"},"vehicle_type_id":"4","last_reported":1744063784,"current_range_meters":16800,"station_id":"ce4bhr12rcd13ifvqhpg","pricing_plan_id":"cebpf4jnsgd1na2vs0mg"},{"bike_id":"6a9463a6-0650-4e46-9ab3-34331315c861","system_id":"levelo_inurba_marseille","lat":43.284143,"lon":5.375235,"is_reserved":false,"is_disabled":false,"rental_uris":{"android":"levelo://app?vid=6a9463a6-0650-4e46-9ab3-34331315c861","ios":"levelo://app?vid=6a9463a6-0650-4e46-9ab3-34331315c861"},"vehicle_type_id":"4","last_reported":1744063784,"current_range_meters":16800,"station_id":"ce4bh412rcd13ifvqds0","pricing_plan_id":"cebpf4jnsgd1na2vs0mg"},{"bike_id":"573a7819-566f-4679-9fd5-63a7b34ed5b7","system_id":"levelo_inurba_marseille","lat":43.26228,"lon":5.40449,"is_reserved":false,"is_disabled":false,"rental_uris":{"android":"levelo://app?vid=573a7819-566f-4679-9fd5-63a7b34ed5b7","ios":"levelo://app?vid=573a7819-566f-4679-9fd5-63a7b34ed5b7"},"vehicle_type_id":"4","last_reported":1744063784,"current_range_meters":17200,"station_id":"ce4bhmh2rcd13ifvqgmg","pricing_plan_id":"cebpf4jnsgd1na2vs0mg"},{"bike_id":"90c56d57-56f3-4b37-a753-872d1a962a8d","system_id":"levelo_inurba_marseille","lat":43.2928,"lon":5.40121,"is_reserved":false,"is_disabled":false,"rental_uris":{"android":"levelo://app?vid=90c56d57-56f3-4b37-a753-872d1a962a8d","ios":"levelo://app?vid=90c56d57-56f3-4b37-a753-872d1a962a8d"},"vehicle_type_id":"4","last_reported":1744063784,"current_range_meters":17200,"station_id":"ce4bh312rcd13ifvqdk0","pricing_plan_id":"cebpf4jnsgd1na2vs0mg"},{"bike_id":"95cd3b4c-70dd-46b8-86a3-af37109c10c1","system_id":"levelo_inurba_marseille","lat":43.2954,"lon":5.38547,"is_reserved":false,"is_disabled":false,"rental_uris":{"android":"levelo://app?vid=95cd3b4c-70dd-46b8-86a3-af37109c10c1","ios":"levelo://app?vid=95cd3b4c-70dd-46b8-86a3-af37109c10c1"},"vehicle_type_id":"4","last_reported":1744063784,"current_range_meters":17200,"station_id":"ce4bgih2rcd13ifvqba0","pricing_plan_id":"cebpf4jnsgd1na2vs0mg"},{"bike_id":"6d0542f7-6036-4088-8b1a-3d30692d0077","system_id":"levelo_inurba_marseille","lat":43.29073,"lon":5.37173,"is_reserved":false,"is_disabled":false,"rental_uris":{"android":"levelo://app?vid=6d0542f7-6036-4088-8b1a-3d30692d0077","ios":"levelo://app?vid=6d0542f7-6036-4088-8b1a-3d30692d0077"},"vehicle_type_id":"4","last_reported":1744063784,"current_range_meters":17200,"station_id":"ce4bh5p2rcd13ifvqe4g","pricing_plan_id":"cebpf4jnsgd1na2vs0mg"},{"bike_id":"0d137e5e-4aa9-4d4c-b4ca-556b2a058b9d","system_id":"levelo_inurba_marseille","lat":43.24749,"lon":5.39488,"is_reserved":false,"is_disabled":false,"rental_uris":{"android":"levelo://app?vid=0d137e5e-4aa9-4d4c-b4ca-556b2a058b9d","ios":"levelo://app?vid=0d137e5e-4aa9-4d4c-b4ca-556b2a058b9d"},"vehicle_type_id":"4","last_reported":1744063784,"current_range_meters":17200,"station_id":"","pricing_plan_id":"cebpf4jnsgd1na2vs0mg"},{"bike_id":"126febf7-3cef-4d36-b748-32657f4deb1c","system_id":"levelo_inurba_marseille","lat":43.28408,"lon":5.37495,"is_reserved":false,"is_disabled":false,"rental_uris":{"android":"levelo://app?vid=126febf7-3cef-4d36-b748-32657f4deb1c","ios":"levelo://app?vid=126febf7-3cef-4d36-b748-32657f4deb1c"},"vehicle_type_id":"4","last_reported":1744063784,"current_range_meters":17200,"station_id":"ce4bh412rcd13ifvqds0","pricing_plan_id":"cebpf4jnsgd1na2vs0mg"},{"bike_id":"a4cd70d8-1d72-48fa-91f5-25356097ab83","system_id":"levelo_inurba_marseille","lat":43.280327,"lon":5.369465,"is_reserved":false,"is_disabled":false,"rental_uris":{"android":"levelo://app?vid=a4cd70d8-1d72-48fa-91f5-25356097ab83","ios":"levelo://app?vid=a4cd70d8-1d72-48fa-91f5-25356097ab83"},"vehicle_type_id":"4","last_reported":1744063784,"current_range_meters":17200,"station_id":"ce4bha12rcd13ifvqef0","pricing_plan_id":"cebpf4jnsgd1na2vs0mg"},{"bike_id":"af24e20d-cd14-47b0-8e42-24aa1cee57db","system_id":"levelo_inurba_marseille","lat":43.27495,"lon":5.42457,"is_reserved":false,"is_disabled":false,"rental_uris":{"android":"levelo://app?vid=af24e20d-cd14-47b0-8e42-24aa1cee57db","ios":"levelo://app?vid=af24e20d-cd14-47b0-8e42-24aa1cee57db"},"vehicle_type_id":"4","last_reported":1744063784,"current_range_meters":17200,"station_id":"ce4bhn92rcd13ifvqgrg","pricing_plan_id":"cebpf4jnsgd1na2vs0mg"},{"bike_id":"852819f8-8577-46de-b1fa-432b264e47e4","system_id":"levelo_inurba_marseille","lat":43.24166,"lon":5.3974,"is_reserved":false,"is_disabled":false,"rental_uris":{"android":"levelo://app?vid=852819f8-8577-46de-b1fa-432b264e47e4","ios":"levelo://app?vid=852819f8-8577-46de-b1fa-432b264e47e4"},"vehicle_type_id":"4","last_reported":1744063784,"current_range_meters":17600,"station_id":"ce4bhn12rcd13ifvqgpg","pricing_plan_id":"cebpf4jnsgd1na2vs0mg"},{"bike_id":"2b3a605f-171a-445c-9295-247f96f5dcad","system_id":"levelo_inurba_marseille","lat":43.28739,"lon":5.39952,"is_reserved":false,"is_disabled":false,"rental_uris":{"android":"levelo://app?vid=2b3a605f-171a-445c-9295-247f96f5dcad","ios":"levelo://app?vid=2b3a605f-171a-445c-9295-247f96f5dcad"},"vehicle_type_id":"4","last_reported":1744063784,"current_range_meters":17600,"station_id":"ce4bho92rcd13ifvqh3g","pricing_plan_id":"cebpf4jnsgd1na2vs0mg"},{"bike_id":"aabb93c4-65dc-483d-9fd8-04828834eee9","system_id":"levelo_inurba_marseille","lat":43.28939,"lon":5.36625,"is_reserved":false,"is_disabled":false,"rental_uris":{"android":"levelo://app?vid=aabb93c4-65dc-483d-9fd8-04828834eee9","ios":"levelo://app?vid=aabb93c4-65dc-483d-9fd8-04828834eee9"},"vehicle_type_id":"4","last_reported":1744063784,"current_range_meters":17600,"station_id":"ce4bhap2rcd13ifvqek0","pricing_plan_id":"cebpf4jnsgd1na2vs0mg"},{"bike_id":"3a623142-9aab-435a-98a5-0d62aaa52c1d","system_id":"levelo_inurba_marseille","lat":43.25118,"lon":5.40324,"is_reserved":false,"is_disabled":false,"rental_uris":{"android":"levelo://app?vid=3a623142-9aab-435a-98a5-0d62aaa52c1d","ios":"levelo://app?vid=3a623142-9aab-435a-98a5-0d62aaa52c1d"},"vehicle_type_id":"4","last_reported":1744063784,"current_range_meters":17600,"station_id":"ce4bhlh2rcd13ifvqgig","pricing_plan_id":"cebpf4jnsgd1na2vs0mg"},{"bike_id":"fce6272f-7361-4020-888a-de4c0f2c2017","system_id":"levelo_inurba_marseille","lat":43.33598,"lon":5.41037,"is_reserved":false,"is_disabled":false,"rental_uris":{"android":"levelo://app?vid=fce6272f-7361-4020-888a-de4c0f2c2017","ios":"levelo://app?vid=fce6272f-7361-4020-888a-de4c0f2c2017"},"vehicle_type_id":"4","last_reported":1744063784,"current_range_meters":17600,"station_id":"ce4bhqh2rcd13ifvqhmg","pricing_plan_id":"cebpf4jnsgd1na2vs0mg"},{"bike_id":"2aff3da0-1529-4960-a86c-d64b02e2b8cd","system_id":"levelo_inurba_marseille","lat":43.23051,"lon":5.35498,"is_reserved":false,"is_disabled":false,"rental_uris":{"android":"levelo://app?vid=2aff3da0-1529-4960-a86c-d64b02e2b8cd","ios":"levelo://app?vid=2aff3da0-1529-4960-a86c-d64b02e2b8cd"},"vehicle_type_id":"4","last_reported":1744063784,"current_range_meters":17600,"station_id":"cpo3342slgdg3j2ifvpg","pricing_plan_id":"cebpf4jnsgd1na2vs0mg"},{"bike_id":"25addcb4-8c65-4b9f-a107-9a505bc7e1e5","system_id":"levelo_inurba_marseille","lat":43.31483,"lon":5.36847,"is_reserved":false,"is_disabled":false,"rental_uris":{"android":"levelo://app?vid=25addcb4-8c65-4b9f-a107-9a505bc7e1e5","ios":"levelo://app?vid=25addcb4-8c65-4b9f-a107-9a505bc7e1e5"},"vehicle_type_id":"4","last_reported":1744063784,"current_range_meters":17600,"station_id":"","pricing_plan_id":"cebpf4jnsgd1na2vs0mg"},{"bike_id":"92a1ce84-dd6d-492f-ac7b-92ef2e817b80","system_id":"levelo_inurba_marseille","lat":43.3361,"lon":5.41031,"is_reserved":false,"is_disabled":false,"rental_uris":{"android":"levelo://app?vid=92a1ce84-dd6d-492f-ac7b-92ef2e817b80","ios":"levelo://app?vid=92a1ce84-dd6d-492f-ac7b-92ef2e817b80"},"vehicle_type_id":"4","last_reported":1744063784,"current_range_meters":17600,"station_id":"ce4bhqh2rcd13ifvqhmg","pricing_plan_id":"cebpf4jnsgd1na2vs0mg"},{"bike_id":"ade956e2-12af-48ee-aef6-a4e64043598a","system_id":"levelo_inurba_marseille","lat":43.28741,"lon":5.37935,"is_reserved":false,"is_disabled":false,"rental_uris":{"android":"levelo://app?vid=ade956e2-12af-48ee-aef6-a4e64043598a","ios":"levelo://app?vid=ade956e2-12af-48ee-aef6-a4e64043598a"},"vehicle_type_id":"4","last_reported":1744063784,"current_range_meters":18000,"station_id":"ce4bh9p2rcd13ifvqec0","pricing_plan_id":"cebpf4jnsgd1na2vs0mg"},{"bike_id":"302b0c63-344c-4e0d-b6e7-6cb2af7663da","system_id":"levelo_inurba_marseille","lat":43.26938,"lon":5.38641,"is_reserved":false,"is_disabled":true,"rental_uris":{"android":"levelo://app?vid=302b0c63-344c-4e0d-b6e7-6cb2af7663da","ios":"levelo://app?vid=302b0c63-344c-4e0d-b6e7-6cb2af7663da"},"vehicle_type_id":"4","last_reported":1744063784,"current_range_meters":18000,"station_id":"ce4bhh92rcd13ifvqfh0","pricing_plan_id":"cebpf4jnsgd1na2vs0mg"},{"bike_id":"965f47f9-7cc0-4332-96e0-1e646650dd1b","system_id":"levelo_inurba_marseille","lat":43.30604,"lon":5.37225,"is_reserved":false,"is_disabled":false,"rental_uris":{"android":"levelo://app?vid=965f47f9-7cc0-4332-96e0-1e646650dd1b","ios":"levelo://app?vid=965f47f9-7cc0-4332-96e0-1e646650dd1b"},"vehicle_type_id":"4","last_reported":1744063784,"current_range_meters":17600,"station_id":"ce4bgqh2rcd13ifvqc4g","pricing_plan_id":"cebpf4jnsgd1na2vs0mg"},{"bike_id":"516d4f98-b641-41fd-ba0e-01581b98c430","system_id":"levelo_inurba_marseille","lat":43.26558,"lon":5.37283,"is_reserved":false,"is_disabled":false,"rental_uris":{"android":"levelo://app?vid=516d4f98-b641-41fd-ba0e-01581b98c430","ios":"levelo://app?vid=516d4f98-b641-41fd-ba0e-01581b98c430"},"vehicle_type_id":"4","last_reported":1744063784,"current_range_meters":18000,"station_id":"ce4bhg12rcd13ifvqf70","pricing_plan_id":"cebpf4jnsgd1na2vs0mg"},{"bike_id":"eed759e0-0d15-48fc-9de3-a1a78f455b2c","system_id":"levelo_inurba_marseille","lat":43.29196,"lon":5.3933,"is_reserved":false,"is_disabled":false,"rental_uris":{"android":"levelo://app?vid=eed759e0-0d15-48fc-9de3-a1a78f455b2c","ios":"levelo://app?vid=eed759e0-0d15-48fc-9de3-a1a78f455b2c"},"vehicle_type_id":"4","last_reported":1744063784,"current_range_meters":17600,"station_id":"ce4bh192rcd13ifvqdd0","pricing_plan_id":"cebpf4jnsgd1na2vs0mg"},{"bike_id":"3992552f-8665-4257-82ce-346cf4533fc2","system_id":"levelo_inurba_marseille","lat":43.27809,"lon":5.40703,"is_reserved":false,"is_disabled":false,"rental_uris":{"android":"levelo://app?vid=3992552f-8665-4257-82ce-346cf4533fc2","ios":"levelo://app?vid=3992552f-8665-4257-82ce-346cf4533fc2"},"vehicle_type_id":"4","last_reported":1744063784,"current_range_meters":18000,"station_id":"ce4bhnh2rcd13ifvqgtg","pricing_plan_id":"cebpf4jnsgd1na2vs0mg"},{"bike_id":"c8ed31df-32d3-43e3-9d64-7e62fe9aba7e","system_id":"levelo_inurba_marseille","lat":43.30927,"lon":5.40144,"is_reserved":false,"is_disabled":false,"rental_uris":{"android":"levelo://app?vid=c8ed31df-32d3-43e3-9d64-7e62fe9aba7e","ios":"levelo://app?vid=c8ed31df-32d3-43e3-9d64-7e62fe9aba7e"},"vehicle_type_id":"4","last_reported":1744063784,"current_range_meters":18800,"station_id":"ce4bgvp2rcd13ifvqct0","pricing_plan_id":"cebpf4jnsgd1na2vs0mg"},{"bike_id":"ee13ef32-bae2-411a-8c04-b9b5062be823","system_id":"levelo_inurba_marseille","lat":43.30323,"lon":5.40443,"is_reserved":false,"is_disabled":false,"rental_uris":{"android":"levelo://app?vid=ee13ef32-bae2-411a-8c04-b9b5062be823","ios":"levelo://app?vid=ee13ef32-bae2-411a-8c04-b9b5062be823"},"vehicle_type_id":"4","last_reported":1744063784,"current_range_meters":18800,"station_id":"ce4bh012rcd13ifvqd10","pricing_plan_id":"cebpf4jnsgd1na2vs0mg"},{"bike_id":"d0431cc6-0d50-4c15-9917-ac3558321933","system_id":"levelo_inurba_marseille","lat":43.262123,"lon":5.374396,"is_reserved":false,"is_disabled":false,"rental_uris":{"android":"levelo://app?vid=d0431cc6-0d50-4c15-9917-ac3558321933","ios":"levelo://app?vid=d0431cc6-0d50-4c15-9917-ac3558321933"},"vehicle_type_id":"4","last_reported":1744063784,"current_range_meters":18800,"station_id":"ce4bh0h2rcd13ifvqd40","pricing_plan_id":"cebpf4jnsgd1na2vs0mg"},{"bike_id":"ffd23061-d90c-47a4-89fb-f1646bcdff1c","system_id":"levelo_inurba_marseille","lat":43.270657,"lon":5.422774,"is_reserved":false,"is_disabled":true,"rental_uris":{"android":"levelo://app?vid=ffd23061-d90c-47a4-89fb-f1646bcdff1c","ios":"levelo://app?vid=ffd23061-d90c-47a4-89fb-f1646bcdff1c"},"vehicle_type_id":"4","last_reported":1744063784,"current_range_meters":18800,"station_id":"ce4bhk92rcd13ifvqgb0","pricing_plan_id":"cebpf4jnsgd1na2vs0mg"},{"bike_id":"230b73a5-e986-4f1f-933c-dca4f2cf61af","system_id":"levelo_inurba_marseille","lat":43.34714,"lon":5.34702,"is_reserved":false,"is_disabled":false,"rental_uris":{"android":"levelo://app?vid=230b73a5-e986-4f1f-933c-dca4f2cf61af","ios":"levelo://app?vid=230b73a5-e986-4f1f-933c-dca4f2cf61af"},"vehicle_type_id":"4","last_reported":1744063784,"current_range_meters":18800,"station_id":"","pricing_plan_id":"cebpf4jnsgd1na2vs0mg"},{"bike_id":"a70a76a2-6f35-4514-96d1-711d49f1f94f","system_id":"levelo_inurba_marseille","lat":43.29625,"lon":5.40605,"is_reserved":false,"is_disabled":false,"rental_uris":{"android":"levelo://app?vid=a70a76a2-6f35-4514-96d1-711d49f1f94f","ios":"levelo://app?vid=a70a76a2-6f35-4514-96d1-711d49f1f94f"},"vehicle_type_id":"4","last_reported":1744063784,"current_range_meters":18800,"station_id":"ce4bh0h2rcd13ifvqd60","pricing_plan_id":"cebpf4jnsgd1na2vs0mg"},{"bike_id":"b7ea98cd-7ee2-4883-bc42-aca939a5c4d9","system_id":"levelo_inurba_marseille","lat":43.28557,"lon":5.39512,"is_reserved":false,"is_disabled":false,"rental_uris":{"android":"levelo://app?vid=b7ea98cd-7ee2-4883-bc42-aca939a5c4d9","ios":"levelo://app?vid=b7ea98cd-7ee2-4883-bc42-aca939a5c4d9"},"vehicle_type_id":"4","last_reported":1744063784,"current_range_meters":18800,"station_id":"ce4bh292rcd13ifvqdg0","pricing_plan_id":"cebpf4jnsgd1na2vs0mg"},{"bike_id":"c1ab22c3-8480-4c80-a462-a754e71d457d","system_id":"levelo_inurba_marseille","lat":43.31494,"lon":5.37282,"is_reserved":false,"is_disabled":false,"rental_uris":{"android":"levelo://app?vid=c1ab22c3-8480-4c80-a462-a754e71d457d","ios":"levelo://app?vid=c1ab22c3-8480-4c80-a462-a754e71d457d"},"vehicle_type_id":"4","last_reported":1744063784,"current_range_meters":18800,"station_id":"ce4bgt12rcd13ifvqcd0","pricing_plan_id":"cebpf4jnsgd1na2vs0mg"},{"bike_id":"27c3e362-a103-4a86-bbe2-a7d7344b27e0","system_id":"levelo_inurba_marseille","lat":43.31371,"lon":5.3851,"is_reserved":false,"is_disabled":false,"rental_uris":{"android":"levelo://app?vid=27c3e362-a103-4a86-bbe2-a7d7344b27e0","ios":"levelo://app?vid=27c3e362-a103-4a86-bbe2-a7d7344b27e0"},"vehicle_type_id":"4","last_reported":1744063784,"current_range_meters":18800,"station_id":"ce4bgt92rcd13ifvqcf0","pricing_plan_id":"cebpf4jnsgd1na2vs0mg"},{"bike_id":"15f74a3a-55d8-4027-ba23-8e12ba4914a9","system_id":"levelo_inurba_marseille","lat":43.31274,"lon":5.40164,"is_reserved":false,"is_disabled":false,"rental_uris":{"android":"levelo://app?vid=15f74a3a-55d8-4027-ba23-8e12ba4914a9","ios":"levelo://app?vid=15f74a3a-55d8-4027-ba23-8e12ba4914a9"},"vehicle_type_id":"4","last_reported":1744063784,"current_range_meters":19200,"station_id":"ce4bh092rcd13ifvqd30","pricing_plan_id":"cebpf4jnsgd1na2vs0mg"},{"bike_id":"c140cac6-8e8a-47f9-b3a2-5663c3fe91b5","system_id":"levelo_inurba_marseille","lat":43.28726,"lon":5.36107,"is_reserved":false,"is_disabled":false,"rental_uris":{"android":"levelo://app?vid=c140cac6-8e8a-47f9-b3a2-5663c3fe91b5","ios":"levelo://app?vid=c140cac6-8e8a-47f9-b3a2-5663c3fe91b5"},"vehicle_type_id":"4","last_reported":1744063784,"current_range_meters":19200,"station_id":"cki0cbj6b192h4jlfktg","pricing_plan_id":"cebpf4jnsgd1na2vs0mg"},{"bike_id":"b2e035e7-133c-4668-a748-9af734fdad11","system_id":"levelo_inurba_marseille","lat":43.28208,"lon":5.37664,"is_reserved":false,"is_disabled":false,"rental_uris":{"android":"levelo://app?vid=b2e035e7-133c-4668-a748-9af734fdad11","ios":"levelo://app?vid=b2e035e7-133c-4668-a748-9af734fdad11"},"vehicle_type_id":"4","last_reported":1744063784,"current_range_meters":19200,"station_id":"","pricing_plan_id":"cebpf4jnsgd1na2vs0mg"},{"bike_id":"d81c8687-7566-4a51-9c05-fb2d29ddb3e1","system_id":"levelo_inurba_marseille","lat":43.30307,"lon":5.36937,"is_reserved":false,"is_disabled":true,"rental_uris":{"android":"levelo://app?vid=d81c8687-7566-4a51-9c05-fb2d29ddb3e1","ios":"levelo://app?vid=d81c8687-7566-4a51-9c05-fb2d29ddb3e1"},"vehicle_type_id":"4","last_reported":1744063784,"current_range_meters":19200,"station_id":"ce4bgqh2rcd13ifvqc5g","pricing_plan_id":"cebpf4jnsgd1na2vs0mg"},{"bike_id":"ae749725-4f5f-4afd-a140-40d85be4e27f","system_id":"levelo_inurba_marseille","lat":43.287592,"lon":5.390218,"is_reserved":false,"is_disabled":false,"rental_uris":{"android":"levelo://app?vid=ae749725-4f5f-4afd-a140-40d85be4e27f","ios":"levelo://app?vid=ae749725-4f5f-4afd-a140-40d85be4e27f"},"vehicle_type_id":"4","last_reported":1744063784,"current_range_meters":19200,"station_id":"ce4bgvh2rcd13ifvqcs0","pricing_plan_id":"cebpf4jnsgd1na2vs0mg"},{"bike_id":"e24c6fd3-f9cb-40c7-9e57-dd2c20540e9b","system_id":"levelo_inurba_marseille","lat":43.33083,"lon":5.40814,"is_reserved":false,"is_disabled":false,"rental_uris":{"android":"levelo://app?vid=e24c6fd3-f9cb-40c7-9e57-dd2c20540e9b","ios":"levelo://app?vid=e24c6fd3-f9cb-40c7-9e57-dd2c20540e9b"},"vehicle_type_id":"4","last_reported":1744063784,"current_range_meters":19200,"station_id":"","pricing_plan_id":"cebpf4jnsgd1na2vs0mg"},{"bike_id":"121c1056-dc58-471e-a4ad-11bd99e6bc03","system_id":"levelo_inurba_marseille","lat":43.302,"lon":5.39466,"is_reserved":false,"is_disabled":false,"rental_uris":{"android":"levelo://app?vid=121c1056-dc58-471e-a4ad-11bd99e6bc03","ios":"levelo://app?vid=121c1056-dc58-471e-a4ad-11bd99e6bc03"},"vehicle_type_id":"4","last_reported":1744063784,"current_range_meters":19200,"station_id":"ce4bh0p2rcd13ifvqd70","pricing_plan_id":"cebpf4jnsgd1na2vs0mg"},{"bike_id":"97de4673-cb3d-476d-87f5-c831a74b2710","system_id":"levelo_inurba_marseille","lat":43.27944,"lon":5.41051,"is_reserved":false,"is_disabled":false,"rental_uris":{"android":"levelo://app?vid=97de4673-cb3d-476d-87f5-c831a74b2710","ios":"levelo://app?vid=97de4673-cb3d-476d-87f5-c831a74b2710"},"vehicle_type_id":"4","last_reported":1744063784,"current_range_meters":19200,"station_id":"ce4bhnp2rcd13ifvqh0g","pricing_plan_id":"cebpf4jnsgd1na2vs0mg"},{"bike_id":"17038a20-3c1e-434d-9e28-e3ac14276969","system_id":"levelo_inurba_marseille","lat":43.30884,"lon":5.39636,"is_reserved":false,"is_disabled":false,"rental_uris":{"android":"levelo://app?vid=17038a20-3c1e-434d-9e28-e3ac14276969","ios":"levelo://app?vid=17038a20-3c1e-434d-9e28-e3ac14276969"},"vehicle_type_id":"4","last_reported":1744063784,"current_range_meters":19200,"station_id":"ce4bh012rcd13ifvqcv0","pricing_plan_id":"cebpf4jnsgd1na2vs0mg"},{"bike_id":"669f305b-4d72-448f-93e8-5ed6f03cbb31","system_id":"levelo_inurba_marseille","lat":43.24803,"lon":5.37458,"is_reserved":false,"is_disabled":false,"rental_uris":{"android":"levelo://app?vid=669f305b-4d72-448f-93e8-5ed6f03cbb31","ios":"levelo://app?vid=669f305b-4d72-448f-93e8-5ed6f03cbb31"},"vehicle_type_id":"4","last_reported":1744063784,"current_range_meters":19200,"station_id":"ce4bhgh2rcd13ifvqfb0","pricing_plan_id":"cebpf4jnsgd1na2vs0mg"},{"bike_id":"d87231b7-aff6-4409-be5c-a19bac0dbb76","system_id":"levelo_inurba_marseille","lat":43.28617,"lon":5.35118,"is_reserved":false,"is_disabled":false,"rental_uris":{"android":"levelo://app?vid=d87231b7-aff6-4409-be5c-a19bac0dbb76","ios":"levelo://app?vid=d87231b7-aff6-4409-be5c-a19bac0dbb76"},"vehicle_type_id":"4","last_reported":1744063784,"current_range_meters":19200,"station_id":"ce4bhch2rcd13ifvqeug","pricing_plan_id":"cebpf4jnsgd1na2vs0mg"},