{"last_updated":1702505217,"ttl":30,"version":"2.2","data":{"bikes":[{"bike_id":"ce1fe5e0-8402-4458-a049-ee0416312f0d","system_id":"levelo_inurba_marseille","lat":43.314811,"lon":5.373103,"is_reserved":false,"is_disabled":false,"rental_uris":{"android":"levelo://app?vid=ce1fe5e0-8402-4458-a049-ee0416312f0d","ios":"levelo://app?vid=ce1fe5e0-8402-4458-a049-ee0416312f0d"},"vehicle_type_id":"4","last_reported":1702505217,"current_range_meters":28800,"station_id":"ce4bgt12rcd13ifvqcd0","pricing_plan_id":"free"},{"bike_id":"1071c7f1-e14d-443f-b974-3b5938ddd235","system_id":"levelo_inurba_marseille","lat":43.309039,"lon":5.371797,"is_reserved":false,"is_disabled":false,"rental_uris":{"android":"levelo://app?vid=1071c7f1-e14d-443f-b974-3b5938ddd235","ios":"levelo://app?vid=1071c7f1-e14d-443f-b974-3b5938ddd235"},"vehicle_type_id":"4","last_reported":1702505217,"current_range_meters":29600,"station_id":"ce4bguh2rcd13ifvqckg","pricing_plan_id":"free"},{"bike_id":"eda09b0d-4edb-440a-82aa-b4af25828588","system_id":"levelo_inurba_marseille","lat":43.309039,"lon":5.371797,"is_reserved":false,"is_disabled":false,"rental_uris":{"android":"levelo://app?vid=eda09b0d-4edb-440a-82aa-b4af25828588","ios":"levelo://app?vid=eda09b0d-4edb-440a-82aa-b4af25828588"},"vehicle_type_id":"4","last_reported":1702505217,"current_range_meters":24000,"station_id":"ce4bguh2rcd13ifvqckg","pricing_plan_id":"free"},{"bike_id":"3f8b821f-e430-4a35-bf14-f8b6e777ea11","system_id":"levelo_inurba_marseille","lat":43.313939,"lon":5.375306,"is_reserved":false,"is_disabled":false,"rental_uris":{"android":"levelo://app?vid=3f8b821f-e430-4a35-bf14-f8b6e777ea11","ios":"levelo://app?vid=3f8b821f-e430-4a35-bf14-f8b6e777ea11"},"vehicle_type_id":"4","last_reported":1702505217,"current_range_meters":6400,"station_id":"","pricing_plan_id":"free"},{"bike_id":"1f3d50e6-3470-4133-884b-7a0ef801f57d","system_id":"levelo_inurba_marseille","lat":43.305429,"lon":5.365396,"is_reserved":false,"is_disabled":false,"rental_uris":{"android":"levelo://app?vid=1f3d50e6-3470-4133-884b-7a0ef801f57d","ios":"levelo://app?vid=1f3d50e6-3470-4133-884b-7a0ef801f57d"},"vehicle_type_id":"4","last_reported":1702505217,"current_range_meters":5200,"station_id":"ce4bgs12rcd13ifvqcag","pricing_plan_id":"free"},{"bike_id":"955e4ab2-16e5-44e8-a986-a2f50ff96c06","system_id":"levelo_inurba_marseille","lat":43.305382,"lon":5.365389,"is_reserved":false,"is_disabled":false,"rental_uris":{"android":"levelo://app?vid=955e4ab2-16e5-44e8-a986-a2f50ff96c06","ios":"levelo://app?vid=955e4ab2-16e5-44e8-a986-a2f50ff96c06"},"vehicle_type_id":"4","last_reported":1702505217,"current_range_meters":25600,"station_id":"","pricing_plan_id":"free"},{"bike_id":"c007ab80-c099-4918-be17-3d4adef11cad","system_id":"levelo_inurba_marseille","lat":43.311125,"lon":5.377624,"is_reserved":false,"is_disabled":false,"rental_uris":{"android":"levelo://app?vid=c007ab80-c099-4918-be17-3d4adef11cad","ios":"levelo://app?vid=c007ab80-c099-4918-be17-3d4adef11cad"},"vehicle_type_id":"4","last_reported":1702505217,"current_range_meters":31200,"station_id":"ce4bgt92rcd13ifvqcg0","pricing_plan_id":"free"},{"bike_id":"47540256-3c3e-485b-8192-b25e508df8b3","system_id":"levelo_inurba_marseille","lat":43.311125,"lon":5.377624,"is_reserved":false,"is_disabled":false,"rental_uris":{"android":"levelo://app?vid=47540256-3c3e-485b-8192-b25e508df8b3","ios":"levelo://app?vid=47540256-3c3e-485b-8192-b25e508df8b3"},"vehicle_type_id":"4","last_reported":1702505217,"current_range_meters":18400,"station_id":"ce4bgt92rcd13ifvqcg0","pricing_plan_id":"free"},{"bike_id":"dc68debd-6203-4696-b9a5-55eea857c5a0","system_id":"levelo_inurba_marseille","lat":43.317129,"lon":5.376844,"is_reserved":false,"is_disabled":false,"rental_uris":{"android":"levelo://app?vid=dc68debd-6203-4696-b9a5-55eea857c5a0","ios":"levelo://app?vid=dc68debd-6203-4696-b9a5-55eea857c5a0"},"vehicle_type_id":"4","last_reported":1702505217,"current_range_meters":22000,"station_id":"ce4bgth2rcd13ifvqch0","pricing_plan_id":"free"},{"bike_id":"5fb00d7f-411d-4d9b-aff1-79627335c7ac","system_id":"levelo_inurba_marseille","lat":43.307945,"lon":5.376487,"is_reserved":false,"is_disabled":false,"rental_uris":{"android":"levelo://app?vid=5fb00d7f-411d-4d9b-aff1-79627335c7ac","ios":"levelo://app?vid=5fb00d7f-411d-4d9b-aff1-79627335c7ac"},"vehicle_type_id":"4","last_reported":1702505217,"current_range_meters":26400,"station_id":"ce4bgv92rcd13ifvqcq0","pricing_plan_id":"free"},{"bike_id":"fc4ba783-2704-49ed-93da-d2252d2cccda","system_id":"levelo_inurba_marseille","lat":43.307945,"lon":5.376487,"is_reserved":false,"is_disabled":false,"rental_uris":{"android":"levelo://app?vid=fc4ba783-2704-49ed-93da-d2252d2cccda","ios":"levelo://app?vid=fc4ba783-2704-49ed-93da-d2252d2cccda"},"vehicle_type_id":"4","last_reported":1702505217,"current_range_meters":28800,"station_id":"ce4bgv92rcd13ifvqcq0","pricing_plan_id":"free"},{"bike_id":"4cca5744-0c5d-456b-a810-0572a9c2b18d","system_id":"levelo_inurba_marseille","lat":43.307945,"lon":5.376487,"is_reserved":false,"is_disabled":false,"rental_uris":{"android":"levelo://app?vid=4cca5744-0c5d-456b-a810-0572a9c2b18d","ios":"levelo://app?vid=4cca5744-0c5d-456b-a810-0572a9c2b18d"},"vehicle_type_id":"4","last_reported":1702505217,"current_range_meters":0,"station_id":"ce4bgv92rcd13ifvqcq0","pricing_plan_id":"free"},{"bike_id":"227b454f-cbfd-4a97-b4c2-968569f53a3b","system_id":"levelo_inurba_marseille","lat":43.315355,"lon":5.38037,"is_reserved":false,"is_disabled":false,"rental_uris":{"android":"levelo://app?vid=227b454f-cbfd-4a97-b4c2-968569f53a3b","ios":"levelo://app?vid=227b454f-cbfd-4a97-b4c2-968569f53a3b"},"vehicle_type_id":"4","last_reported":1702505217,"current_range_meters":27600,"station_id":"ce4bhsp2rcd13ifvqi50","pricing_plan_id":"free"},{"bike_id":"81bd0fa4-0462-4c0e-b45d-e3b550d8b0e9","system_id":"levelo_inurba_marseille","lat":43.315385,"lon":5.380363,"is_reserved":false,"is_disabled":false,"rental_uris":{"android":"levelo://app?vid=81bd0fa4-0462-4c0e-b45d-e3b550d8b0e9","ios":"levelo://app?vid=81bd0fa4-0462-4c0e-b45d-e3b550d8b0e9"},"vehicle_type_id":"4","last_reported":1702505217,"current_range_meters":15600,"station_id":"ce4bhsp2rcd13ifvqi50","pricing_plan_id":"free"},{"bike_id":"71490bcb-59d9-43f8-a7bd-360e55df424d","system_id":"levelo_inurba_marseille","lat":43.308012,"lon":5.381511,"is_reserved":false,"is_disabled":false,"rental_uris":{"android":"levelo://app?vid=71490bcb-59d9-43f8-a7bd-360e55df424d","ios":"levelo://app?vid=71490bcb-59d9-43f8-a7bd-360e55df424d"},"vehicle_type_id":"4","last_reported":1702505217,"current_range_meters":23600,"station_id":"ce4bgt12rcd13ifvqce0","pricing_plan_id":"free"},{"bike_id":"3fafa966-a7a4-4a07-99aa-41e333c265a6","system_id":"levelo_inurba_marseille","lat":43.308012,"lon":5.381511,"is_reserved":false,"is_disabled":false,"rental_uris":{"android":"levelo://app?vid=3fafa966-a7a4-4a07-99aa-41e333c265a6","ios":"levelo://app?vid=3fafa966-a7a4-4a07-99aa-41e333c265a6"},"vehicle_type_id":"4","last_reported":1702505217,"current_range_meters":19200,"station_id":"ce4bgt12rcd13ifvqce0","pricing_plan_id":"free"},{"bike_id":"8afa07b5-ffce-48f5-8b50-fd9952f92a43","system_id":"levelo_inurba_marseille","lat":43.30466,"lon":5.37899,"is_reserved":false,"is_disabled":false,"rental_uris":{"android":"levelo://app?vid=8afa07b5-ffce-48f5-8b50-fd9952f92a43","ios":"levelo://app?vid=8afa07b5-ffce-48f5-8b50-fd9952f92a43"},"vehicle_type_id":"4","last_reported":1702505217,"current_range_meters":0,"station_id":"ce4bgup2rcd13ifvqcn0","pricing_plan_id":"free"},{"bike_id":"b795cd07-df6b-4c4c-8507-2dcae79f9bad","system_id":"levelo_inurba_marseille","lat":43.30462,"lon":5.378967,"is_reserved":false,"is_disabled":false,"rental_uris":{"android":"levelo://app?vid=b795cd07-df6b-4c4c-8507-2dcae79f9bad","ios":"levelo://app?vid=b795cd07-df6b-4c4c-8507-2dcae79f9bad"},"vehicle_type_id":"4","last_reported":1702505217,"current_range_meters":0,"station_id":"ce4bgup2rcd13ifvqcn0","pricing_plan_id":"free"},{"bike_id":"8c6d566c-fd2c-4a1e-b0f3-9e4cf2d76ecc","system_id":"levelo_inurba_marseille","lat":43.31993,"lon":5.38155,"is_reserved":false,"is_disabled":false,"rental_uris":{"android":"levelo://app?vid=8c6d566c-fd2c-4a1e-b0f3-9e4cf2d76ecc","ios":"levelo://app?vid=8c6d566c-fd2c-4a1e-b0f3-9e4cf2d76ecc"},"vehicle_type_id":"4","last_reported":1702505217,"current_range_meters":8800,"station_id":"ce4bhr12rcd13ifvqhpg","pricing_plan_id":"free"},{"bike_id":"0a956dae-9fb6-40fc-b61a-5bb393e9a4f8","system_id":"levelo_inurba_marseille","lat":43.31994,"lon":5.38161,"is_reserved":false,"is_disabled":false,"rental_uris":{"android":"levelo://app?vid=0a956dae-9fb6-40fc-b61a-5bb393e9a4f8","ios":"levelo://app?vid=0a956dae-9fb6-40fc-b61a-5bb393e9a4f8"},"vehicle_type_id":"4","last_reported":1702505217,"current_range_meters":6800,"station_id":"ce4bhr12rcd13ifvqhpg","pricing_plan_id":"free"},{"bike_id":"41037219-91ff-45ce-b2d6-c53389d12989","system_id":"levelo_inurba_marseille","lat":43.313571,"lon":5.384829,"is_reserved":false,"is_disabled":false,"rental_uris":{"android":"levelo://app?vid=41037219-91ff-45ce-b2d6-c53389d12989","ios":"levelo://app?vid=41037219-91ff-45ce-b2d6-c53389d12989"},"vehicle_type_id":"4","last_reported":1702505217,"current_range_meters":30000,"station_id":"ce4bgt92rcd13ifvqcf0","pricing_plan_id":"free"},{"bike_id":"c6bbee57-42c0-41ab-9dab-565bb1bb6f14","system_id":"levelo_inurba_marseille","lat":43.313571,"lon":5.384829,"is_reserved":false,"is_disabled":false,"rental_uris":{"android":"levelo://app?vid=c6bbee57-42c0-41ab-9dab-565bb1bb6f14","ios":"levelo://app?vid=c6bbee57-42c0-41ab-9dab-565bb1bb6f14"},"vehicle_type_id":"4","last_reported":1702505217,"current_range_meters":24400,"station_id":"ce4bgt92rcd13ifvqcf0","pricing_plan_id":"free"},{"bike_id":"7b0bdb86-f013-4b5a-bd12-b0e602bad957","system_id":"levelo_inurba_marseille","lat":43.313571,"lon":5.384829,"is_reserved":false,"is_disabled":false,"rental_uris":{"android":"levelo://app?vid=7b0bdb86-f013-4b5a-bd12-b0e602bad957","ios":"levelo://app?vid=7b0bdb86-f013-4b5a-bd12-b0e602bad957"},"vehicle_type_id":"4","last_reported":1702505217,"current_range_meters":23600,"station_id":"ce4bgt92rcd13ifvqcf0","pricing_plan_id":"free"},{"bike_id":"f9c64e3e-111a-4af0-ba1a-031519c8c278","system_id":"levelo_inurba_marseille","lat":43.313571,"lon":5.384829,"is_reserved":false,"is_disabled":false,"rental_uris":{"android":"levelo://app?vid=f9c64e3e-111a-4af0-ba1a-031519c8c278","ios":"levelo://app?vid=f9c64e3e-111a-4af0-ba1a-031519c8c278"},"vehicle_type_id":"4","last_reported":1702505217,"current_range_meters":17200,"station_id":"ce4bgt92rcd13ifvqcf0","pricing_plan_id":"free"},{"bike_id":"62c4f95f-ec48-4f8f-96b5-1da2ba2b0a34","system_id":"levelo_inurba_marseille","lat":43.31159,"lon":5.38697,"is_reserved":false,"is_disabled":false,"rental_uris":{"android":"levelo://app?vid=62c4f95f-ec48-4f8f-96b5-1da2ba2b0a34","ios":"levelo://app?vid=62c4f95f-ec48-4f8f-96b5-1da2ba2b0a34"},"vehicle_type_id":"4","last_reported":1702505217,"current_range_meters":12400,"station_id":"ce4bgv12rcd13ifvqcp0","pricing_plan_id":"free"},{"bike_id":"77a6c46d-d898-4e4f-8846-efa91689c7f0","system_id":"levelo_inurba_marseille","lat":43.302006,"lon":5.38065,"is_reserved":false,"is_disabled":false,"rental_uris":{"android":"levelo://app?vid=77a6c46d-d898-4e4f-8846-efa91689c7f0","ios":"levelo://app?vid=77a6c46d-d898-4e4f-8846-efa91689c7f0"},"vehicle_type_id":"4","last_reported":1702505217,"current_range_meters":0,"station_id":"","pricing_plan_id":"free"},{"bike_id":"845dc11a-992a-4047-b7cb-2502696f07e1","system_id":"levelo_inurba_marseille","lat":43.297774,"lon":5.370875,"is_reserved":false,"is_disabled":false,"rental_uris":{"android":"levelo://app?vid=845dc11a-992a-4047-b7cb-2502696f07e1","ios":"levelo://app?vid=845dc11a-992a-4047-b7cb-2502696f07e1"},"vehicle_type_id":"4","last_reported":1702505217,"current_range_meters":25200,"station_id":"ce4bgop2rcd13ifvqc1g","pricing_plan_id":"free"},{"bike_id":"5a55f5f0-f311-407c-95c3-e7b1788970dc","system_id":"levelo_inurba_marseille","lat":43.322872,"lon":5.382756,"is_reserved":false,"is_disabled":false,"rental_uris":{"android":"levelo://app?vid=5a55f5f0-f311-407c-95c3-e7b1788970dc","ios":"levelo://app?vid=5a55f5f0-f311-407c-95c3-e7b1788970dc"},"vehicle_type_id":"4","last_reported":1702505217,"current_range_meters":17600,"station_id":"ce4bhr12rcd13ifvqhqg","pricing_plan_id":"free"},{"bike_id":"1c9c228c-5954-4155-a104-2a72ed6d3f0b","system_id":"levelo_inurba_marseille","lat":43.32291,"lon":5.38282,"is_reserved":false,"is_disabled":false,"rental_uris":{"android":"levelo://app?vid=1c9c228c-5954-4155-a104-2a72ed6d3f0b","ios":"levelo://app?vid=1c9c228c-5954-4155-a104-2a72ed6d3f0b"},"vehicle_type_id":"4","last_reported":1702505217,"current_range_meters":27200,"station_id":"ce4bhr12rcd13ifvqhqg","pricing_plan_id":"free"},{"bike_id":"659a38c5-092d-469d-acdb-90f2143cb397","system_id":"levelo_inurba_marseille","lat":43.32826,"lon":5.36678,"is_reserved":false,"is_disabled":false,"rental_uris":{"android":"levelo://app?vid=659a38c5-092d-469d-acdb-90f2143cb397","ios":"levelo://app?vid=659a38c5-092d-469d-acdb-90f2143cb397"},"vehicle_type_id":"4","last_reported":1702505217,"current_range_meters":11600,"station_id":"ce4bhs92rcd13ifvqi0g","pricing_plan_id":"free"},{"bike_id":"bc06b289-dab8-4815-820b-662dd218c477","system_id":"levelo_inurba_marseille","lat":43.32828,"lon":5.36676,"is_reserved":false,"is_disabled":false,"rental_uris":{"android":"levelo://app?vid=bc06b289-dab8-4815-820b-662dd218c477","ios":"levelo://app?vid=bc06b289-dab8-4815-820b-662dd218c477"},"vehicle_type_id":"4","last_reported":1702505217,"current_range_meters":2400,"station_id":"ce4bhs92rcd13ifvqi0g","pricing_plan_id":"free"},{"bike_id":"12ad22a9-0bdd-41fc-9930-bdc94d645c03","system_id":"levelo_inurba_marseille","lat":43.299028,"lon":5.381509,"is_reserved":false,"is_disabled":false,"rental_uris":{"android":"levelo://app?vid=12ad22a9-0bdd-41fc-9930-bdc94d645c03","ios":"levelo://app?vid=12ad22a9-0bdd-41fc-9930-bdc94d645c03"},"vehicle_type_id":"4","last_reported":1702505217,"current_range_meters":1600,"station_id":"ce4bgj12rcd13ifvqbc0","pricing_plan_id":"free"},{"bike_id":"1f731f79-da92-4bc7-b21b-0abd1ee03930","system_id":"levelo_inurba_marseille","lat":43.317557,"lon":5.390173,"is_reserved":false,"is_disabled":false,"rental_uris":{"android":"levelo://app?vid=1f731f79-da92-4bc7-b21b-0abd1ee03930","ios":"levelo://app?vid=1f731f79-da92-4bc7-b21b-0abd1ee03930"},"vehicle_type_id":"4","last_reported":1702505217,"current_range_meters":19600,"station_id":"ce4bhqp2rcd13ifvqhng","pricing_plan_id":"free"},{"bike_id":"c840002a-d80a-40b4-a65f-1d4c04eabb61","system_id":"levelo_inurba_marseille","lat":43.31762,"lon":5.39021,"is_reserved":false,"is_disabled":false,"rental_uris":{"android":"levelo://app?vid=c840002a-d80a-40b4-a65f-1d4c04eabb61","ios":"levelo://app?vid=c840002a-d80a-40b4-a65f-1d4c04eabb61"},"vehicle_type_id":"4","last_reported":1702505217,"current_range_meters":9200,"station_id":"ce4bhqp2rcd13ifvqhng","pricing_plan_id":"free"},{"bike_id":"ef76321a-9b04-47b4-92de-d682e9f5920f","system_id":"levelo_inurba_marseille","lat":43.32364,"lon":5.38879,"is_reserved":false,"is_disabled":false,"rental_uris":{"android":"levelo://app?vid=ef76321a-9b04-47b4-92de-d682e9f5920f","ios":"levelo://app?vid=ef76321a-9b04-47b4-92de-d682e9f5920f"},"vehicle_type_id":"4","last_reported":1702505217,"current_range_meters":4800,"station_id":"ce4bhqp2rcd13ifvqhog","pricing_plan_id":"free"},{"bike_id":"8ab9895a-c9b8-42e7-a73a-c3d8ad10cfa2","system_id":"levelo_inurba_marseille","lat":43.32365,"lon":5.38884,"is_reserved":false,"is_disabled":false,"rental_uris":{"android":"levelo://app?vid=8ab9895a-c9b8-42e7-a73a-c3d8ad10cfa2","ios":"levelo://app?vid=8ab9895a-c9b8-42e7-a73a-c3d8ad10cfa2"},"vehicle_type_id":"4","last_reported":1702505217,"current_range_meters":4000,"station_id":"ce4bhqp2rcd13ifvqhog","pricing_plan_id":"free"},{"bike_id":"dc01d294-5e1b-433f-878e-eb8a914aadd8","system_id":"levelo_inurba_marseille","lat":43.32367,"lon":5.38886,"is_reserved":false,"is_disabled":false,"rental_uris":{"android":"levelo://app?vid=dc01d294-5e1b-433f-878e-eb8a914aadd8","ios":"levelo://app?vid=dc01d294-5e1b-433f-878e-eb8a914aadd8"},"vehicle_type_id":"4","last_reported":1702505217,"current_range_meters":5600,"station_id":"ce4bhqp2rcd13ifvqhog","pricing_plan_id":"free"},{"bike_id":"18e8fec3-c034-486d-b65b-5c2605e3f3ab","system_id":"levelo_inurba_marseille","lat":43.32366,"lon":5.38888,"is_reserved":false,"is_disabled":false,"rental_uris":{"android":"levelo://app?vid=18e8fec3-c034-486d-b65b-5c2605e3f3ab","ios":"levelo://app?vid=18e8fec3-c034-486d-b65b-5c2605e3f3ab"},"vehicle_type_id":"4","last_reported":1702505217,"current_range_meters":14800,"station_id":"ce4bhqp2rcd13ifvqhog","pricing_plan_id":"free"},{"bike_id":"03f6119d-7ba1-4608-b75b-b20f3efbdaef","system_id":"levelo_inurba_marseille","lat":43.323708,"lon":5.388862,"is_reserved":false,"is_disabled":false,"rental_uris":{"android":"levelo://app?vid=03f6119d-7ba1-4608-b75b-b20f3efbdaef","ios":"levelo://app?vid=03f6119d-7ba1-4608-b75b-b20f3efbdaef"},"vehicle_type_id":"4","last_reported":1702505217,"current_range_meters":14000,"station_id":"ce4bhqp2rcd13ifvqhog","pricing_plan_id":"free"},{"bike_id":"38a3f914-1123-4063-87ab-18b0717e3ced","system_id":"levelo_inurba_marseille","lat":43.2936,"lon":5.37835,"is_reserved":false,"is_disabled":false,"rental_uris":{"android":"levelo://app?vid=38a3f914-1123-4063-87ab-18b0717e3ced","ios":"levelo://app?vid=38a3f914-1123-4063-87ab-18b0717e3ced"},"vehicle_type_id":"4","last_reported":1702505217,"current_range_meters":6800,"station_id":"ce4bgjh2rcd13ifvqbf0","pricing_plan_id":"free"},{"bike_id":"7fdd0752-4474-45c5-aa24-f9bf325d22c5","system_id":"levelo_inurba_marseille","lat":43.292311,"lon":5.360731,"is_reserved":false,"is_disabled":false,"rental_uris":{"android":"levelo://app?vid=7fdd0752-4474-45c5-aa24-f9bf325d22c5","ios":"levelo://app?vid=7fdd0752-4474-45c5-aa24-f9bf325d22c5"},"vehicle_type_id":"4","last_reported":1702505217,"current_range_meters":30000,"station_id":"ce4bhbh2rcd13ifvqeqg","pricing_plan_id":"free"},{"bike_id":"f648efeb-0108-4d76-a50d-5f8c57973f7c","system_id":"levelo_inurba_marseille","lat":43.291671,"lon":5.371575,"is_reserved":false,"is_disabled":false,"rental_uris":{"android":"levelo://app?vid=f648efeb-0108-4d76-a50d-5f8c57973f7c","ios":"levelo://app?vid=f648efeb-0108-4d76-a50d-5f8c57973f7c"},"vehicle_type_id":"4","last_reported":1702505217,"current_range_meters":1600,"station_id":"ce4bha92rcd13ifvqeh0","pricing_plan_id":"free"},{"bike_id":"2a54657b-ca11-485d-b42f-eeaeba72a652","system_id":"levelo_inurba_marseille","lat":43.309038,"lon":5.396546,"is_reserved":false,"is_disabled":false,"rental_uris":{"android":"levelo://app?vid=2a54657b-ca11-485d-b42f-eeaeba72a652","ios":"levelo://app?vid=2a54657b-ca11-485d-b42f-eeaeba72a652"},"vehicle_type_id":"4","last_reported":1702505217,"current_range_meters":12000,"station_id":"ce4bh012rcd13ifvqcv0","pricing_plan_id":"free"},{"bike_id":"03ce2c01-3605-4da1-b297-425e40d4ffea","system_id":"levelo_inurba_marseille","lat":43.313291,"lon":5.396838,"is_reserved":false,"is_disabled":false,"rental_uris":{"android":"levelo://app?vid=03ce2c01-3605-4da1-b297-425e40d4ffea","ios":"levelo://app?vid=03ce2c01-3605-4da1-b297-425e40d4ffea"},"vehicle_type_id":"4","last_reported":1702505217,"current_range_meters":6000,"station_id":"ce4bgvp2rcd13ifvqcu0","pricing_plan_id":"free"},{"bike_id":"f554f45e-91cd-40e1-ac9f-276bec7cef9c","system_id":"levelo_inurba_marseille","lat":43.290624,"lon":5.359245,"is_reserved":false,"is_disabled":false,"rental_uris":{"android":"levelo://app?vid=f554f45e-91cd-40e1-ac9f-276bec7cef9c","ios":"levelo://app?vid=f554f45e-91cd-40e1-ac9f-276bec7cef9c"},"vehicle_type_id":"4","last_reported":1702505217,"current_range_meters":24000,"station_id":"ce4bha92rcd13ifvqeg0","pricing_plan_id":"free"},{"bike_id":"37432273-2e9c-4bdf-8f4f-34bd0a8ab705","system_id":"levelo_inurba_marseille","lat":43.290631,"lon":5.359244,"is_reserved":false,"is_disabled":false,"rental_uris":{"android":"levelo://app?vid=37432273-2e9c-4bdf-8f4f-34bd0a8ab705","ios":"levelo://app?vid=37432273-2e9c-4bdf-8f4f-34bd0a8ab705"},"vehicle_type_id":"4","last_reported":1702505217,"current_range_meters":8400,"station_id":"ce4bha92rcd13ifvqeg0","pricing_plan_id":"free"},{"bike_id":"f074393f-4f20-4840-bd52-d2851d953426","system_id":"levelo_inurba_marseille","lat":43.28949,"lon":5.36394,"is_reserved":false,"is_disabled":false,"rental_uris":{"android":"levelo://app?vid=f074393f-4f20-4840-bd52-d2851d953426","ios":"levelo://app?vid=f074393f-4f20-4840-bd52-d2851d953426"},"vehicle_type_id":"4","last_reported":1702505217,"current_range_meters":24400,"station_id":"ce4bhc92rcd13ifvqetg","pricing_plan_id":"free"},{"bike_id":"ebd9b61c-59bb-448e-8f1c-7896590f6ae5","system_id":"levelo_inurba_marseille","lat":43.289414,"lon":5.363857,"is_reserved":false,"is_disabled":false,"rental_uris":{"android":"levelo://app?vid=ebd9b61c-59bb-448e-8f1c-7896590f6ae5","ios":"levelo://app?vid=ebd9b61c-59bb-448e-8f1c-7896590f6ae5"},"vehicle_type_id":"4","last_reported":1702505217,"current_range_meters":22000,"station_id":"ce4bhc92rcd13ifvqetg","pricing_plan_id":"free"},{"bike_id":"25606491-eee5-43c7-8c90-1748526b53ec","system_id":"levelo_inurba_marseille","lat":43.33042,"lon":5.38916,"is_reserved":false,"is_disabled":false,"rental_uris":{"android":"levelo://app?vid=25606491-eee5-43c7-8c90-1748526b53ec","ios":"levelo://app?vid=25606491-eee5-43c7-8c90-1748526b53ec"},"vehicle_type_id":"4","last_reported":1702505217,"current_range_meters":16000,"station_id":"ce4bhr92rcd13ifvqhrg","pricing_plan_id":"free"},{"bike_id":"07f670d0-374a-4b81-b8b0-158fd4af9fa0","system_id":"levelo_inurba_marseille","lat":43.33043,"lon":5.3892,"is_reserved":false,"is_disabled":false,"rental_uris":{"android":"levelo://app?vid=07f670d0-374a-4b81-b8b0-158fd4af9fa0","ios":"levelo://app?vid=07f670d0-374a-4b81-b8b0-158fd4af9fa0"},"vehicle_type_id":"4","last_reported":1702505217,"current_range_meters":12400,"station_id":"ce4bhr92rcd13ifvqhrg","pricing_plan_id":"free"},{"bike_id":"0a75e64e-3c37-473e-92cc-4953104d2425","system_id":"levelo_inurba_marseille","lat":43.330442,"lon":5.389148,"is_reserved":false,"is_disabled":false,"rental_uris":{"android":"levelo://app?vid=0a75e64e-3c37-473e-92cc-4953104d2425","ios":"levelo://app?vid=0a75e64e-3c37-473e-92cc-4953104d2425"},"vehicle_type_id":"4","last_reported":1702505217,"current_range_meters":23200,"station_id":"ce4bhr92rcd13ifvqhrg","pricing_plan_id":"free"},{"bike_id":"2006e456-8425-445d-8e94-760701cc7358","system_id":"levelo_inurba_marseille","lat":43.295169,"lon":5.390426,"is_reserved":false,"is_disabled":false,"rental_uris":{"android":"levelo://app?vid=2006e456-8425-445d-8e94-760701cc7358","ios":"levelo://app?vid=2006e456-8425-445d-8e94-760701cc7358"},"vehicle_type_id":"4","last_reported":1702505217,"current_range_meters":26800,"station_id":"ce4bh3p2rcd13ifvqdp0","pricing_plan_id":"free"},{"bike_id":"1d88f152-c389-457d-9cdb-ccac5543e642","system_id":"levelo_inurba_marseille","lat":43.28856,"lon":5.358371,"is_reserved":false,"is_disabled":false,"rental_uris":{"android":"levelo://app?vid=1d88f152-c389-457d-9cdb-ccac5543e642","ios":"levelo://app?vid=1d88f152-c389-457d-9cdb-ccac5543e642"},"vehicle_type_id":"4","last_reported":1702505217,"current_range_meters":30400,"station_id":"ce4bhb12rcd13ifvqem0","pricing_plan_id":"free"},{"bike_id":"3c8d67d4-b145-49c4-a282-6ba085f5bc6a","system_id":"levelo_inurba_marseille","lat":43.28856,"lon":5.358371,"is_reserved":false,"is_disabled":false,"rental_uris":{"android":"levelo://app?vid=3c8d67d4-b145-49c4-a282-6ba085f5bc6a","ios":"levelo://app?vid=3c8d67d4-b145-49c4-a282-6ba085f5bc6a"},"vehicle_type_id":"4","last_reported":1702505217,"current_range_meters":11200,"station_id":"ce4bhb12rcd13ifvqem0","pricing_plan_id":"free"},{"bike_id":"1dfb7e36-e9db-4c5c-b9f4-a203d31bef22","system_id":"levelo_inurba_marseille","lat":43.2885,"lon":5.35866,"is_reserved":false,"is_disabled":false,"rental_uris":{"android":"levelo://app?vid=1dfb7e36-e9db-4c5c-b9f4-a203d31bef22","ios":"levelo://app?vid=1dfb7e36-e9db-4c5c-b9f4-a203d31bef22"},"vehicle_type_id":"4","last_reported":1702505217,"current_range_meters":2000,"station_id":"ce4bhb12rcd13ifvqem0","pricing_plan_id":"free"},{"bike_id":"38e32c40-360a-4c9c-bd40-bcdd74a7f454","system_id":"levelo_inurba_marseille","lat":43.31275,"lon":5.4018,"is_reserved":false,"is_disabled":false,"rental_uris":{"android":"levelo://app?vid=38e32c40-360a-4c9c-bd40-bcdd74a7f454","ios":"levelo://app?vid=38e32c40-360a-4c9c-bd40-bcdd74a7f454"},"vehicle_type_id":"4","last_reported":1702505217,"current_range_meters":12800,"station_id":"ce4bh092rcd13ifvqd30","pricing_plan_id":"free"},{"bike_id":"fa23bc4c-3492-4ba5-ab13-c42e18316583","system_id":"levelo_inurba_marseille","lat":43.33754,"lon":5.37488,"is_reserved":false,"is_disabled":false,"rental_uris":{"android":"levelo://app?vid=fa23bc4c-3492-4ba5-ab13-c42e18316583","ios":"levelo://app?vid=fa23bc4c-3492-4ba5-ab13-c42e18316583"},"vehicle_type_id":"4","last_reported":1702505217,"current_range_meters":31200,"station_id":"","pricing_plan_id":"free"},{"bike_id":"d1401e11-55bb-4e68-8553-4ee05204b2df","system_id":"levelo_inurba_marseille","lat":43.337647,"lon":5.374497,"is_reserved":false,"is_disabled":false,"rental_uris":{"android":"levelo://app?vid=d1401e11-55bb-4e68-8553-4ee05204b2df","ios":"levelo://app?vid=d1401e11-55bb-4e68-8553-4ee05204b2df"},"vehicle_type_id":"4","last_reported":1702505217,"current_range_meters":30400,"station_id":"","pricing_plan_id":"free"},{"bike_id":"231d751e-291e-46d6-ac3e-5aee5ff318e4","system_id":"levelo_inurba_marseille","lat":43.301117,"lon":5.398795,"is_reserved":false,"is_disabled":false,"rental_uris":{"android":"levelo://app?vid=231d751e-291e-46d6-ac3e-5aee5ff318e4","ios":"levelo://app?vid=231d751e-291e-46d6-ac3e-5aee5ff318e4"},"vehicle_type_id":"4","last_reported":1702505217,"current_range_meters":14400,"station_id":"ce4bh0h2rcd13ifvqd40","pricing_plan_id":"free"},{"bike_id":"d26d58e1-6968-4755-a5df-fa3aa7d263a0","system_id":"levelo_inurba_marseille","lat":43.28727,"lon":5.36078,"is_reserved":false,"is_disabled":false,"rental_uris":{"android":"levelo://app?vid=d26d58e1-6968-4755-a5df-fa3aa7d263a0","ios":"levelo://app?vid=d26d58e1-6968-4755-a5df-fa3aa7d263a0"},"vehicle_type_id":"4","last_reported":1702505217,"current_range_meters":27200,"station_id":"cki0cbj6b192h4jlfktg","pricing_plan_id":"free"},{"bike_id":"f0d70e3a-0236-4546-99a7-bae9167c0494","system_id":"levelo_inurba_marseille","lat":43.28727,"lon":5.36078,"is_reserved":false,"is_disabled":false,"rental_uris":{"android":"levelo://app?vid=f0d70e3a-0236-4546-99a7-bae9167c0494","ios":"levelo://app?vid=f0d70e3a-0236-4546-99a7-bae9167c0494"},"vehicle_type_id":"4","last_reported":1702505217,"current_range_meters":27600,"station_id":"cki0cbj6b192h4jlfktg","pricing_plan_id":"free"},{"bike_id":"eb8d2a55-ab0f-49b0-9578-3aaca41e0055","system_id":"levelo_inurba_marseille","lat":43.286961,"lon":5.373785,"is_reserved":false,"is_disabled":false,"rental_uris":{"android":"levelo://app?vid=eb8d2a55-ab0f-49b0-9578-3aaca41e0055","ios":"levelo://app?vid=eb8d2a55-ab0f-49b0-9578-3aaca41e0055"},"vehicle_type_id":"4","last_reported":1702505217,"current_range_meters":16800,"station_id":"ce4bh3p2rcd13ifvqdq0","pricing_plan_id":"free"},{"bike_id":"2890f1c1-7bed-4e69-a925-0bc8fc958e29","system_id":"levelo_inurba_marseille","lat":43.298681,"lon":5.397225,"is_reserved":false,"is_disabled":false,"rental_uris":{"android":"levelo://app?vid=2890f1c1-7bed-4e69-a925-0bc8fc958e29","ios":"levelo://app?vid=2890f1c1-7bed-4e69-a925-0bc8fc958e29"},"vehicle_type_id":"4","last_reported":1702505217,"current_range_meters":1600,"station_id":"ce4bh0h2rcd13ifvqd50","pricing_plan_id":"free"},{"bike_id":"64b382ee-c706-4dd6-bfcf-1bcc9919d75c","system_id":"levelo_inurba_marseille","lat":43.286961,"lon":5.373785,"is_reserved":false,"is_disabled":false,"rental_uris":{"android":"levelo://app?vid=64b382ee-c706-4dd6-bfcf-1bcc9919d75c","ios":"levelo://app?vid=64b382ee-c706-4dd6-bfcf-1bcc9919d75c"},"vehicle_type_id":"4","last_reported":1702505217,"current_range_meters":22800,"station_id":"ce4bh3p2rcd13ifvqdq0","pricing_plan_id":"free"},{"bike_id":"7a2a1a30-5969-41ae-afa6-c19793b7b03a","system_id":"levelo_inurba_marseille","lat":43.286961,"lon":5.373785,"is_reserved":false,"is_disabled":false,"rental_uris":{"android":"levelo://app?vid=7a2a1a30-5969-41ae-afa6-c19793b7b03a","ios":"levelo://app?vid=7a2a1a30-5969-41ae-afa6-c19793b7b03a"},"vehicle_type_id":"4","last_reported":1702505217,"current_range_meters":12000,"station_id":"ce4bh3p2rcd13ifvqdq0","pricing_plan_id":"free"},{"bike_id":"3fd6d764-233f-46c5-80ae-4807922dc31c","system_id":"levelo_inurba_marseille","lat":43.286039,"lon":5.370679,"is_reserved":false,"is_disabled":false,"rental_uris":{"android":"levelo://app?vid=3fd6d764-233f-46c5-80ae-4807922dc31c","ios":"levelo://app?vid=3fd6d764-233f-46c5-80ae-4807922dc31c"},"vehicle_type_id":"4","last_reported":1702505217,"current_range_meters":22800,"station_id":"ce4bht12rcd13ifvqi60","pricing_plan_id":"free"},{"bike_id":"5dc10632-1838-4b46-a105-042f318474fa","system_id":"levelo_inurba_marseille","lat":43.286039,"lon":5.370681,"is_reserved":false,"is_disabled":false,"rental_uris":{"android":"levelo://app?vid=5dc10632-1838-4b46-a105-042f318474fa","ios":"levelo://app?vid=5dc10632-1838-4b46-a105-042f318474fa"},"vehicle_type_id":"4","last_reported":1702505217,"current_range_meters":18800,"station_id":"ce4bht12rcd13ifvqi60","pricing_plan_id":"free"},{"bike_id":"3dc17693-3aa5-480c-b1b0-d5e0a2b7938c","system_id":"levelo_inurba_marseille","lat":43.291994,"lon":5.392907,"is_reserved":false,"is_disabled":false,"rental_uris":{"android":"levelo://app?vid=3dc17693-3aa5-480c-b1b0-d5e0a2b7938c","ios":"levelo://app?vid=3dc17693-3aa5-480c-b1b0-d5e0a2b7938c"},"vehicle_type_id":"4","last_reported":1702505217,"current_range_meters":0,"station_id":"ce4bh192rcd13ifvqdd0","pricing_plan_id":"free"},{"bike_id":"3ffb2319-e132-4c3f-b035-da2508c8dccc","system_id":"levelo_inurba_marseille","lat":43.294314,"lon":5.397498,"is_reserved":false,"is_disabled":false,"rental_uris":{"android":"levelo://app?vid=3ffb2319-e132-4c3f-b035-da2508c8dccc","ios":"levelo://app?vid=3ffb2319-e132-4c3f-b035-da2508c8dccc"},"vehicle_type_id":"4","last_reported":1702505217,"current_range_meters":22400,"station_id":"ce4bh3h2rcd13ifvqdo0","pricing_plan_id":"free"},{"bike_id":"83479b9e-f975-4df3-a4f8-95be3cb3a1c1","system_id":"levelo_inurba_marseille","lat":43.284538,"lon":5.358657,"is_reserved":false,"is_disabled":false,"rental_uris":{"android":"levelo://app?vid=83479b9e-f975-4df3-a4f8-95be3cb3a1c1","ios":"levelo://app?vid=83479b9e-f975-4df3-a4f8-95be3cb3a1c1"},"vehicle_type_id":"4","last_reported":1702505217,"current_range_meters":26400,"station_id":"ce4bhah2rcd13ifvqei0","pricing_plan_id":"free"},{"bike_id":"a93dac9a-eb0d-4428-a95c-38a000ce55ae","system_id":"levelo_inurba_marseille","lat":43.284538,"lon":5.358657,"is_reserved":false,"is_disabled":false,"rental_uris":{"android":"levelo://app?vid=a93dac9a-eb0d-4428-a95c-38a000ce55ae","ios":"levelo://app?vid=a93dac9a-eb0d-4428-a95c-38a000ce55ae"},"vehicle_type_id":"4","last_reported":1702505217,"current_range_meters":31200,"station_id":"ce4bhah2rcd13ifvqei0","pricing_plan_id":"free"},{"bike_id":"af1db5c5-87c1-409d-aaf1-1312678c5fa9","system_id":"levelo_inurba_marseille","lat":43.28464,"lon":5.35884,"is_reserved":false,"is_disabled":false,"rental_uris":{"android":"levelo://app?vid=af1db5c5-87c1-409d-aaf1-1312678c5fa9","ios":"levelo://app?vid=af1db5c5-87c1-409d-aaf1-1312678c5fa9"},"vehicle_type_id":"4","last_reported":1702505217,"current_range_meters":30800,"station_id":"ce4bhah2rcd13ifvqei0","pricing_plan_id":"free"},{"bike_id":"ca031547-cfb3-4b2b-bc50-11b7481bd43b","system_id":"levelo_inurba_marseille","lat":43.284534,"lon":5.358662,"is_reserved":false,"is_disabled":false,"rental_uris":{"android":"levelo://app?vid=ca031547-cfb3-4b2b-bc50-11b7481bd43b","ios":"levelo://app?vid=ca031547-cfb3-4b2b-bc50-11b7481bd43b"},"vehicle_type_id":"4","last_reported":1702505217,"current_range_meters":28000,"station_id":"ce4bhah2rcd13ifvqei0","pricing_plan_id":"free"},{"bike_id":"e3c167b8-4bc0-4261-9f55-681ba47e8c9d","system_id":"levelo_inurba_marseille","lat":43.295678,"lon":5.399641,"is_reserved":false,"is_disabled":false,"rental_uris":{"android":"levelo://app?vid=e3c167b8-4bc0-4261-9f55-681ba47e8c9d","ios":"levelo://app?vid=e3c167b8-4bc0-4261-9f55-681ba47e8c9d"},"vehicle_type_id":"4","last_reported":1702505217,"current_range_meters":0,"station_id":"ce4bh312rcd13ifvqdj0","pricing_plan_id":"free"},{"bike_id":"9031ee4e-5dec-48c9-b287-be74aa80005d","system_id":"levelo_inurba_marseille","lat":43.319179,"lon":5.407725,"is_reserved":false,"is_disabled":false,"rental_uris":{"android":"levelo://app?vid=9031ee4e-5dec-48c9-b287-be74aa80005d","ios":"levelo://app?vid=9031ee4e-5dec-48c9-b287-be74aa80005d"},"vehicle_type_id":"4","last_reported":1702505217,"current_range_meters":7200,"station_id":"ce4bhq12rcd13ifvqhig","pricing_plan_id":"free"},{"bike_id":"87dab1ae-9ae7-4880-8bc7-561b1e5b26cb","system_id":"levelo_inurba_marseille","lat":43.283494,"lon":5.380945,"is_reserved":false,"is_disabled":false,"rental_uris":{"android":"levelo://app?vid=87dab1ae-9ae7-4880-8bc7-561b1e5b26cb","ios":"levelo://app?vid=87dab1ae-9ae7-4880-8bc7-561b1e5b26cb"},"vehicle_type_id":"4","last_reported":1702505217,"current_range_meters":31200,"station_id":"ce4bh412rcd13ifvqdr0","pricing_plan_id":"free"},{"bike_id":"d90070ee-7b85-44b2-82bc-4c7e855c2f0d","system_id":"levelo_inurba_marseille","lat":43.292724,"lon":5.401131,"is_reserved":false,"is_disabled":false,"rental_uris":{"android":"levelo://app?vid=d90070ee-7b85-44b2-82bc-4c7e855c2f0d","ios":"levelo://app?vid=d90070ee-7b85-44b2-82bc-4c7e855c2f0d"},"vehicle_type_id":"4","last_reported":1702505217,"current_range_meters":14400,"station_id":"ce4bh312rcd13ifvqdk0","pricing_plan_id":"free"},{"bike_id":"58e39fca-3803-4d77-9f5e-1f7714036ed7","system_id":"levelo_inurba_marseille","lat":43.283502,"lon":5.386471,"is_reserved":false,"is_disabled":false,"rental_uris":{"android":"levelo://app?vid=58e39fca-3803-4d77-9f5e-1f7714036ed7","ios":"levelo://app?vid=58e39fca-3803-4d77-9f5e-1f7714036ed7"},"vehicle_type_id":"4","last_reported":1702505217,"current_range_meters":4800,"station_id":"ce4bh492rcd13ifvqdvg","pricing_plan_id":"free"},{"bike_id":"aa31d776-cefe-43ae-b65b-dd8de1a11de5","system_id":"levelo_inurba_marseille","lat":43.282754,"lon":5.350519,"is_reserved":false,"is_disabled":false,"rental_uris":{"android":"levelo://app?vid=aa31d776-cefe-43ae-b65b-dd8de1a11de5","ios":"levelo://app?vid=aa31d776-cefe-43ae-b65b-dd8de1a11de5"},"vehicle_type_id":"4","last_reported":1702505217,"current_range_meters":29600,"station_id":"ce4bhbp2rcd13ifvqerg","pricing_plan_id":"free"},{"bike_id":"5c3195f6-352c-40da-ad54-1b047e8385b7","system_id":"levelo_inurba_marseille","lat":43.280382,"lon":5.369291,"is_reserved":false,"is_disabled":false,"rental_uris":{"android":"levelo://app?vid=5c3195f6-352c-40da-ad54-1b047e8385b7","ios":"levelo://app?vid=5c3195f6-352c-40da-ad54-1b047e8385b7"},"vehicle_type_id":"4","last_reported":1702505217,"current_range_meters":31200,"station_id":"ce4bha12rcd13ifvqef0","pricing_plan_id":"free"},{"bike_id":"2d54fb07-2eee-40f1-9cf1-a2808a2d326c","system_id":"levelo_inurba_marseille","lat":43.280382,"lon":5.369291,"is_reserved":false,"is_disabled":false,"rental_uris":{"android":"levelo://app?vid=2d54fb07-2eee-40f1-9cf1-a2808a2d326c","ios":"levelo://app?vid=2d54fb07-2eee-40f1-9cf1-a2808a2d326c"},"vehicle_type_id":"4","last_reported":1702505217,"current_range_meters":31200,"station_id":"ce4bha12rcd13ifvqef0","pricing_plan_id":"free"},{"bike_id":"1f466c26-0951-4c09-ac7b-cae9d1fa7040","system_id":"levelo_inurba_marseille","lat":43.28107,"lon":5.37835,"is_reserved":false,"is_disabled":false,"rental_uris":{"android":"levelo://app?vid=1f466c26-0951-4c09-ac7b-cae9d1fa7040","ios":"levelo://app?vid=1f466c26-0951-4c09-ac7b-cae9d1fa7040"},"vehicle_type_id":"4","last_reported":1702505217,"current_range_meters":20400,"station_id":"ce4bha12rcd13ifvqee0","pricing_plan_id":"free"},{"bike_id":"5407d63a-9900-4fbe-ab2a-75f5ea0683f0","system_id":"levelo_inurba_marseille","lat":43.28106,"lon":5.37844,"is_reserved":false,"is_disabled":false,"rental_uris":{"android":"levelo://app?vid=5407d63a-9900-4fbe-ab2a-75f5ea0683f0","ios":"levelo://app?vid=5407d63a-9900-4fbe-ab2a-75f5ea0683f0"},"vehicle_type_id":"4","last_reported":1702505217,"current_range_meters":14800,"station_id":"ce4bha12rcd13ifvqee0","pricing_plan_id":"free"},{"bike_id":"c8c5cff7-36d7-498a-b8bd-01aa079975ac","system_id":"levelo_inurba_marseille","lat":43.281044,"lon":5.378308,"is_reserved":false,"is_disabled":false,"rental_uris":{"android":"levelo://app?vid=c8c5cff7-36d7-498a-b8bd-01aa079975ac","ios":"levelo://app?vid=c8c5cff7-36d7-498a-b8bd-01aa079975ac"},"vehicle_type_id":"4","last_reported":1702505217,"current_range_meters":25200,"station_id":"ce4bha12rcd13ifvqee0","pricing_plan_id":"free"},{"bike_id":"c6f64ab4-4b11-47d2-b867-b50541b6a046","system_id":"levelo_inurba_marseille","lat":43.296263,"lon":5.40601,"is_reserved":false,"is_disabled":false,"rental_uris":{"android":"levelo://app?vid=c6f64ab4-4b11-47d2-b867-b50541b6a046","ios":"levelo://app?vid=c6f64ab4-4b11-47d2-b867-b50541b6a046"},"vehicle_type_id":"4","last_reported":1702505217,"current_range_meters":15600,"station_id":"ce4bh0h2rcd13ifvqd60","pricing_plan_id":"free"},{"bike_id":"f84b1966-ee0d-437f-bc68-fd45c1879fd9","system_id":"levelo_inurba_marseille","lat":43.296263,"lon":5.40601,"is_reserved":false,"is_disabled":false,"rental_uris":{"android":"levelo://app?vid=f84b1966-ee0d-437f-bc68-fd45c1879fd9","ios":"levelo://app?vid=f84b1966-ee0d-437f-bc68-fd45c1879fd9"},"vehicle_type_id":"4","last_reported":1702505217,"current_range_meters":27600,"station_id":"ce4bh0h2rcd13ifvqd60","pricing_plan_id":"free"},{"bike_id":"af2f66a0-f29b-4bc5-8bee-d308fdbe5407","system_id":"levelo_inurba_marseille","lat":43.284462,"lon":5.392121,"is_reserved":false,"is_disabled":false,"rental_uris":{"android":"levelo://app?vid=af2f66a0-f29b-4bc5-8bee-d308fdbe5407","ios":"levelo://app?vid=af2f66a0-f29b-4bc5-8bee-d308fdbe5407"},"vehicle_type_id":"4","last_reported":1702505217,"current_range_meters":23600,"station_id":"ce4bhoh2rcd13ifvqh5g","pricing_plan_id":"free"},{"bike_id":"53e3ad93-c484-4049-b446-8c685425dedd","system_id":"levelo_inurba_marseille","lat":43.326605,"lon":5.409903,"is_reserved":false,"is_disabled":false,"rental_uris":{"android":"levelo://app?vid=53e3ad93-c484-4049-b446-8c685425dedd","ios":"levelo://app?vid=53e3ad93-c484-4049-b446-8c685425dedd"},"vehicle_type_id":"4","last_reported":1702505217,"current_range_meters":7600,"station_id":"ce4bhpp2rcd13ifvqhgg","pricing_plan_id":"free"},{"bike_id":"9e5f3076-d78d-422f-9da4-73ce9f83f386","system_id":"levelo_inurba_marseille","lat":43.284462,"lon":5.392121,"is_reserved":false,"is_disabled":false,"rental_uris":{"android":"levelo://app?vid=9e5f3076-d78d-422f-9da4-73ce9f83f386","ios":"levelo://app?vid=9e5f3076-d78d-422f-9da4-73ce9f83f386"},"vehicle_type_id":"4","last_reported":1702505217,"current_range_meters":6800,"station_id":"ce4bhoh2rcd13ifvqh5g","pricing_plan_id":"free"},{"bike_id":"991997b1-c923-49d1-8fdf-e06a7a482ddd","system_id":"levelo_inurba_marseille","lat":43.304188,"lon":5.412904,"is_reserved":false,"is_disabled":false,"rental_uris":{"android":"levelo://app?vid=991997b1-c923-49d1-8fdf-e06a7a482ddd","ios":"levelo://app?vid=991997b1-c923-49d1-8fdf-e06a7a482ddd"},"vehicle_type_id":"4","last_reported":1702505217,"current_range_meters":27600,"station_id":"ce4bhop2rcd13ifvqh8g","pricing_plan_id":"free"},{"bike_id":"e53b3a4d-9aac-4e94-8796-cafcea6e6f56","system_id":"levelo_inurba_marseille","lat":43.279087,"lon":5.380114,"is_reserved":false,"is_disabled":false,"rental_uris":{"android":"levelo://app?vid=e53b3a4d-9aac-4e94-8796-cafcea6e6f56","ios":"levelo://app?vid=e53b3a4d-9aac-4e94-8796-cafcea6e6f56"},"vehicle_type_id":"4","last_reported":1702505217,"current_range_meters":23600,"station_id":"ce4bhf92rcd13ifvqf50","pricing_plan_id":"free"},{"bike_id":"ef64ee73-c7d7-48b7-b0d0-2158323f94f1","system_id":"levelo_inurba_marseille","lat":43.287154,"lon":5.399979,"is_reserved":false,"is_disabled":false,"rental_uris":{"android":"levelo://app?vid=ef64ee73-c7d7-48b7-b0d0-2158323f94f1","ios":"levelo://app?vid=ef64ee73-c7d7-48b7-b0d0-2158323f94f1"},"vehicle_type_id":"4","last_reported":1702505217,"current_range_meters":10400,"station_id":"ce4bho92rcd13ifvqh3g","pricing_plan_id":"free"},{"bike_id":"3ded3b68-8883-4abd-940e-c262f90e4afa","system_id":"levelo_inurba_marseille","lat":43.287154,"lon":5.399979,"is_reserved":false,"is_disabled":false,"rental_uris":{"android":"levelo://app?vid=3ded3b68-8883-4abd-940e-c262f90e4afa","ios":"levelo://app?vid=3ded3b68-8883-4abd-940e-c262f90e4afa"},"vehicle_type_id":"4","last_reported":1702505217,"current_range_meters":2800,"station_id":"ce4bho92rcd13ifvqh3g","pricing_plan_id":"free"},{"bike_id":"bac7f80f-57fe-40eb-8330-1a5ff70c2840","system_id":"levelo_inurba_marseille","lat":43.279607,"lon":5.38729,"is_reserved":false,"is_disabled":false,"rental_uris":{"android":"levelo://app?vid=bac7f80f-57fe-40eb-8330-1a5ff70c2840","ios":"levelo://app?vid=bac7f80f-57fe-40eb-8330-1a5ff70c2840"},"vehicle_type_id":"4","last_reported":1702505217,"current_range_meters":0,"station_id":"ce4bhg12rcd13ifvqf80","pricing_plan_id":"free"},{"bike_id":"44039015-ea42-4a27-b079-f84165ee0372","system_id":"levelo_inurba_marseille","lat":43.292571,"lon":5.409107,"is_reserved":false,"is_disabled":false,"rental_uris":{"android":"levelo://app?vid=44039015-ea42-4a27-b079-f84165ee0372","ios":"levelo://app?vid=44039015-ea42-4a27-b079-f84165ee0372"},"vehicle_type_id":"4","last_reported":1702505217,"current_range_meters":11600,"station_id":"ce4bh192rcd13ifvqdc0","pricing_plan_id":"free"},{"bike_id":"0ee73de2-2bbb-44e8-a446-c5857dc8dd35","system_id":"levelo_inurba_marseille","lat":43.292571,"lon":5.409107,"is_reserved":false,"is_disabled":false,"rental_uris":{"android":"levelo://app?vid=0ee73de2-2bbb-44e8-a446-c5857dc8dd35","ios":"levelo://app?vid=0ee73de2-2bbb-44e8-a446-c5857dc8dd35"},"vehicle_type_id":"4","last_reported":1702505217,"current_range_meters":26400,"station_id":"ce4bh192rcd13ifvqdc0","pricing_plan_id":"free"},{"bike_id":"b17b3073-f001-47b0-8ca9-ccb2216d00ad","system_id":"levelo_inurba_marseille","lat":43.292569,"lon":5.409107,"is_reserved":false,"is_disabled":false,"rental_uris":{"android":"levelo://app?vid=b17b3073-f001-47b0-8ca9-ccb2216d00ad","ios":"levelo://app?vid=b17b3073-f001-47b0-8ca9-ccb2216d00ad"},"vehicle_type_id":"4","last_reported":1702505217,"current_range_meters":26000,"station_id":"ce4bh192rcd13ifvqdc0","pricing_plan_id":"free"},{"bike_id":"41878be8-5525-4b88-958b-6b1fe5000c03","system_id":"levelo_inurba_marseille","lat":43.292569,"lon":5.409107,"is_reserved":false,"is_disabled":false,"rental_uris":{"android":"levelo://app?vid=41878be8-5525-4b88-958b-6b1fe5000c03","ios":"levelo://app?vid=41878be8-5525-4b88-958b-6b1fe5000c03"},"vehicle_type_id":"4","last_reported":1702505217,"current_range_meters":20000,"station_id":"ce4bh192rcd13ifvqdc0","pricing_plan_id":"free"},{"bike_id":"359fb6df-e61b-45e7-95a6-2a3959446907","system_id":"levelo_inurba_marseille","lat":43.27618,"lon":5.361009,"is_reserved":false,"is_disabled":false,"rental_uris":{"android":"levelo://app?vid=359fb6df-e61b-45e7-95a6-2a3959446907","ios":"levelo://app?vid=359fb6df-e61b-45e7-95a6-2a3959446907"},"vehicle_type_id":"4","last_reported":1702505217,"current_range_meters":30000,"station_id":"ce4bgj92rcd13ifvqbe0","pricing_plan_id":"free"},{"bike_id":"c016e672-b4d7-49b9-b38f-69fd9e1cf7ed","system_id":"levelo_inurba_marseille","lat":43.325243,"lon":5.414326,"is_reserved":false,"is_disabled":false,"rental_uris":{"android":"levelo://app?vid=c016e672-b4d7-49b9-b38f-69fd9e1cf7ed","ios":"levelo://app?vid=c016e672-b4d7-49b9-b38f-69fd9e1cf7ed"},"vehicle_type_id":"4","last_reported":1702505217,"current_range_meters":19200,"station_id":"ce4bhq12rcd13ifvqhhg","pricing_plan_id":"free"},{"bike_id":"39eefe27-03d9-47f3-9de8-d68c3a12f1c4","system_id":"levelo_inurba_marseille","lat":43.35094,"lon":5.3681,"is_reserved":false,"is_disabled":false,"rental_uris":{"android":"levelo://app?vid=39eefe27-03d9-47f3-9de8-d68c3a12f1c4","ios":"levelo://app?vid=39eefe27-03d9-47f3-9de8-d68c3a12f1c4"},"vehicle_type_id":"4","last_reported":1702505217,"current_range_meters":0,"station_id":"","pricing_plan_id":"free"},{"bike_id":"880aa1c5-8b19-4862-ae8e-55a3060b0ba9","system_id":"levelo_inurba_marseille","lat":43.280784,"lon":5.396622,"is_reserved":false,"is_disabled":false,"rental_uris":{"android":"levelo://app?vid=880aa1c5-8b19-4862-ae8e-55a3060b0ba9","ios":"levelo://app?vid=880aa1c5-8b19-4862-ae8e-55a3060b0ba9"},"vehicle_type_id":"4","last_reported":1702505217,"current_range_meters":29600,"station_id":"ce4bho12rcd13ifvqh2g","pricing_plan_id":"free"},{"bike_id":"95999ca3-6ed8-4d64-9c6d-96ed6ed03926","system_id":"levelo_inurba_marseille","lat":43.27377,"lon":5.36251,"is_reserved":false,"is_disabled":false,"rental_uris":{"android":"levelo://app?vid=95999ca3-6ed8-4d64-9c6d-96ed6ed03926","ios":"levelo://app?vid=95999ca3-6ed8-4d64-9c6d-96ed6ed03926"},"vehicle_type_id":"4","last_reported":1702505217,"current_range_meters":31200,"station_id":"ce4bhbh2rcd13ifvqeo0","pricing_plan_id":"free"},{"bike_id":"0e8e627f-717c-4eff-a3de-0b4809158be9","system_id":"levelo_inurba_marseille","lat":43.275625,"lon":5.384392,"is_reserved":false,"is_disabled":false,"rental_uris":{"android":"levelo://app?vid=0e8e627f-717c-4eff-a3de-0b4809158be9","ios":"levelo://app?vid=0e8e627f-717c-4eff-a3de-0b4809158be9"},"vehicle_type_id":"4","last_reported":1702505217,"current_range_meters":13600,"station_id":"ce4bhh92rcd13ifvqfi0","pricing_plan_id":"free"},{"bike_id":"fa983061-5134-4d54-8ae6-e419c0aa537c","system_id":"levelo_inurba_marseille","lat":43.336148,"lon":5.410349,"is_reserved":false,"is_disabled":false,"rental_uris":{"android":"levelo://app?vid=fa983061-5134-4d54-8ae6-e419c0aa537c","ios":"levelo://app?vid=fa983061-5134-4d54-8ae6-e419c0aa537c"},"vehicle_type_id":"4","last_reported":1702505217,"current_range_meters":8400,"station_id":"ce4bhqh2rcd13ifvqhmg","pricing_plan_id":"free"},{"bike_id":"dc3c8b4f-f9e7-4155-b82a-12f4e8aa9985","system_id":"levelo_inurba_marseille","lat":43.279952,"lon":5.400085,"is_reserved":false,"is_disabled":false,"rental_uris":{"android":"levelo://app?vid=dc3c8b4f-f9e7-4155-b82a-12f4e8aa9985","ios":"levelo://app?vid=dc3c8b4f-f9e7-4155-b82a-12f4e8aa9985"},"vehicle_type_id":"4","last_reported":1702505217,"current_range_meters":18800,"station_id":"ce4bho92rcd13ifvqh4g","pricing_plan_id":"free"},{"bike_id":"79650ebc-967e-4d1c-81ae-bc942d9248c1","system_id":"levelo_inurba_marseille","lat":43.279975,"lon":5.40009,"is_reserved":false,"is_disabled":false,"rental_uris":{"android":"levelo://app?vid=79650ebc-967e-4d1c-81ae-bc942d9248c1","ios":"levelo://app?vid=79650ebc-967e-4d1c-81ae-bc942d9248c1"},"vehicle_type_id":"4","last_reported":1702505217,"current_range_meters":22800,"station_id":"ce4bho92rcd13ifvqh4g","pricing_plan_id":"free"},{"bike_id":"946f57eb-3762-4ab4-825d-a8d3a102ceba","system_id":"levelo_inurba_marseille","lat":43.279952,"lon":5.400085,"is_reserved":false,"is_disabled":false,"rental_uris":{"android":"levelo://app?vid=946f57eb-3762-4ab4-825d-a8d3a102ceba","ios":"levelo://app?vid=946f57eb-3762-4ab4-825d-a8d3a102ceba"},"vehicle_type_id":"4","last_reported":1702505217,"current_range_meters":26400,"station_id":"ce4bho92rcd13ifvqh4g","pricing_plan_id":"free"},{"bike_id":"55f8cf7b-a384-4860-b1f5-075034029351","system_id":"levelo_inurba_marseille","lat":43.31712,"lon":5.42402,"is_reserved":false,"is_disabled":false,"rental_uris":{"android":"levelo://app?vid=55f8cf7b-a384-4860-b1f5-075034029351","ios":"levelo://app?vid=55f8cf7b-a384-4860-b1f5-075034029351"},"vehicle_type_id":"4","last_reported":1702505217,"current_range_meters":23600,"station_id":"ce4bhp92rcd13ifvqhbg","pricing_plan_id":"free"},{"bike_id":"fdfea060-a937-4f92-8430-8f650d233de2","system_id":"levelo_inurba_marseille","lat":43.317121,"lon":5.423936,"is_reserved":false,"is_disabled":false,"rental_uris":{"android":"levelo://app?vid=fdfea060-a937-4f92-8430-8f650d233de2","ios":"levelo://app?vid=fdfea060-a937-4f92-8430-8f650d233de2"},"vehicle_type_id":"4","last_reported":1702505217,"current_range_meters":27200,"station_id":"ce4bhp92rcd13ifvqhbg","pricing_plan_id":"free"},{"bike_id":"b1c028eb-0fe1-4afa-b35c-b9783a0e9537","system_id":"levelo_inurba_marseille","lat":43.31723,"lon":5.42405,"is_reserved":false,"is_disabled":false,"rental_uris":{"android":"levelo://app?vid=b1c028eb-0fe1-4afa-b35c-b9783a0e9537","ios":"levelo://app?vid=b1c028eb-0fe1-4afa-b35c-b9783a0e9537"},"vehicle_type_id":"4","last_reported":1702505217,"current_range_meters":400,"station_id":"ce4bhp92rcd13ifvqhbg","pricing_plan_id":"free"},{"bike_id":"ceded0a8-b6c8-4c13-8e17-994a5c22e158","system_id":"levelo_inurba_marseille","lat":43.340804,"lon":5.410219,"is_reserved":false,"is_disabled":false,"rental_uris":{"android":"levelo://app?vid=ceded0a8-b6c8-4c13-8e17-994a5c22e158","ios":"levelo://app?vid=ceded0a8-b6c8-4c13-8e17-994a5c22e158"},"vehicle_type_id":"4","last_reported":1702505217,"current_range_meters":11600,"station_id":"ce4bhqh2rcd13ifvqhlg","pricing_plan_id":"free"},{"bike_id":"735a48c3-eb5d-4627-ac05-6da9b77b047f","system_id":"levelo_inurba_marseille","lat":43.340804,"lon":5.410219,"is_reserved":false,"is_disabled":false,"rental_uris":{"android":"levelo://app?vid=735a48c3-eb5d-4627-ac05-6da9b77b047f","ios":"levelo://app?vid=735a48c3-eb5d-4627-ac05-6da9b77b047f"},"vehicle_type_id":"4","last_reported":1702505217,"current_range_meters":27200,"station_id":"ce4bhqh2rcd13ifvqhlg","pricing_plan_id":"free"},{"bike_id":"3ca2c2d2-99b0-4aa6-a05d-e30f02e6a7fb","system_id":"levelo_inurba_marseille","lat":43.27588,"lon":5.39495,"is_reserved":false,"is_disabled":false,"rental_uris":{"android":"levelo://app?vid=3ca2c2d2-99b0-4aa6-a05d-e30f02e6a7fb","ios":"levelo://app?vid=3ca2c2d2-99b0-4aa6-a05d-e30f02e6a7fb"},"vehicle_type_id":"4","last_reported":1702505217,"current_range_meters":13600,"station_id":"","pricing_plan_id":"free"},{"bike_id":"bcb5db2f-8bfd-4a96-80c5-4e038682ef0d","system_id":"levelo_inurba_marseille","lat":43.273129,"lon":5.390725,"is_reserved":false,"is_disabled":false,"rental_uris":{"android":"levelo://app?vid=bcb5db2f-8bfd-4a96-80c5-4e038682ef0d","ios":"levelo://app?vid=bcb5db2f-8bfd-4a96-80c5-4e038682ef0d"},"vehicle_type_id":"4","last_reported":1702505217,"current_range_meters":0,"station_id":"ce4bhgp2rcd13ifvqfe0","pricing_plan_id":"free"},{"bike_id":"f24842c9-86a0-47e5-beb1-29d6f71a0a0b","system_id":"levelo_inurba_marseille","lat":43.295523,"lon":5.422926,"is_reserved":false,"is_disabled":false,"rental_uris":{"android":"levelo://app?vid=f24842c9-86a0-47e5-beb1-29d6f71a0a0b","ios":"levelo://app?vid=f24842c9-86a0-47e5-beb1-29d6f71a0a0b"},"vehicle_type_id":"4","last_reported":1702505217,"current_range_meters":26800,"station_id":"ce4bhph2rcd13ifvqhdg","pricing_plan_id":"free"},{"bike_id":"21cd849d-d21e-4908-819b-2fc71912a061","system_id":"levelo_inurba_marseille","lat":43.295511,"lon":5.422926,"is_reserved":false,"is_disabled":false,"rental_uris":{"android":"levelo://app?vid=21cd849d-d21e-4908-819b-2fc71912a061","ios":"levelo://app?vid=21cd849d-d21e-4908-819b-2fc71912a061"},"vehicle_type_id":"4","last_reported":1702505217,"current_range_meters":26400,"station_id":"ce4bhph2rcd13ifvqhdg","pricing_plan_id":"free"},{"bike_id":"4390bffd-7c0b-4706-b12e-4a9031cdebaa","system_id":"levelo_inurba_marseille","lat":43.278128,"lon":5.407195,"is_reserved":false,"is_disabled":false,"rental_uris":{"android":"levelo://app?vid=4390bffd-7c0b-4706-b12e-4a9031cdebaa","ios":"levelo://app?vid=4390bffd-7c0b-4706-b12e-4a9031cdebaa"},"vehicle_type_id":"4","last_reported":1702505217,"current_range_meters":27600,"station_id":"ce4bhnh2rcd13ifvqgtg","pricing_plan_id":"free"},{"bike_id":"13aeab0c-5fc7-4a70-9d35-9a78d4004e35","system_id":"levelo_inurba_marseille","lat":43.27943,"lon":5.41046,"is_reserved":false,"is_disabled":false,"rental_uris":{"android":"levelo://app?vid=13aeab0c-5fc7-4a70-9d35-9a78d4004e35","ios":"levelo://app?vid=13aeab0c-5fc7-4a70-9d35-9a78d4004e35"},"vehicle_type_id":"4","last_reported":1702505217,"current_range_meters":4800,"station_id":"ce4bhnp2rcd13ifvqh0g","pricing_plan_id":"free"},{"bike_id":"2f954a71-a24d-4218-8131-98337f69cd1b","system_id":"levelo_inurba_marseille","lat":43.279465,"lon":5.410561,"is_reserved":false,"is_disabled":false,"rental_uris":{"android":"levelo://app?vid=2f954a71-a24d-4218-8131-98337f69cd1b","ios":"levelo://app?vid=2f954a71-a24d-4218-8131-98337f69cd1b"},"vehicle_type_id":"4","last_reported":1702505217,"current_range_meters":12800,"station_id":"ce4bhnp2rcd13ifvqh0g","pricing_plan_id":"free"},{"bike_id":"e2900e18-4941-4439-8de2-b15297bc1263","system_id":"levelo_inurba_marseille","lat":43.26681,"lon":5.382694,"is_reserved":false,"is_disabled":false,"rental_uris":{"android":"levelo://app?vid=e2900e18-4941-4439-8de2-b15297bc1263","ios":"levelo://app?vid=e2900e18-4941-4439-8de2-b15297bc1263"},"vehicle_type_id":"4","last_reported":1702505217,"current_range_meters":25200,"station_id":"ce4bhg92rcd13ifvqf90","pricing_plan_id":"free"},{"bike_id":"cb25c8bf-e4ee-4d5d-bae9-3b58e7e9abcd","system_id":"levelo_inurba_marseille","lat":43.265714,"lon":5.372891,"is_reserved":false,"is_disabled":false,"rental_uris":{"android":"levelo://app?vid=cb25c8bf-e4ee-4d5d-bae9-3b58e7e9abcd","ios":"levelo://app?vid=cb25c8bf-e4ee-4d5d-bae9-3b58e7e9abcd"},"vehicle_type_id":"4","last_reported":1702505217,"current_range_meters":30800,"station_id":"ce4bhg12rcd13ifvqf70","pricing_plan_id":"free"},{"bike_id":"fee91fa2-5868-42fc-8e40-ea18a86e9560","system_id":"levelo_inurba_marseille","lat":43.26553,"lon":5.37295,"is_reserved":false,"is_disabled":false,"rental_uris":{"android":"levelo://app?vid=fee91fa2-5868-42fc-8e40-ea18a86e9560","ios":"levelo://app?vid=fee91fa2-5868-42fc-8e40-ea18a86e9560"},"vehicle_type_id":"4","last_reported":1702505217,"current_range_meters":29200,"station_id":"ce4bhg12rcd13ifvqf70","pricing_plan_id":"free"},{"bike_id":"ae456074-9193-466b-a9ff-bd0ca1e61e16","system_id":"levelo_inurba_marseille","lat":43.27996,"lon":5.416624,"is_reserved":false,"is_disabled":false,"rental_uris":{"android":"levelo://app?vid=ae456074-9193-466b-a9ff-bd0ca1e61e16","ios":"levelo://app?vid=ae456074-9193-466b-a9ff-bd0ca1e61e16"},"vehicle_type_id":"4","last_reported":1702505217,"current_range_meters":16000,"station_id":"ce4bho12rcd13ifvqh1g","pricing_plan_id":"free"},{"bike_id":"3f232a0b-f328-4a7c-9376-5d1041aa79e5","system_id":"levelo_inurba_marseille","lat":43.30803,"lon":5.43523,"is_reserved":false,"is_disabled":false,"rental_uris":{"android":"levelo://app?vid=3f232a0b-f328-4a7c-9376-5d1041aa79e5","ios":"levelo://app?vid=3f232a0b-f328-4a7c-9376-5d1041aa79e5"},"vehicle_type_id":"4","last_reported":1702505217,"current_range_meters":30400,"station_id":"ce4bhph2rcd13ifvqheg","pricing_plan_id":"free"},{"bike_id":"af2968c9-3858-4920-90e1-be7507fc4cd7","system_id":"levelo_inurba_marseille","lat":43.308051,"lon":5.43527,"is_reserved":false,"is_disabled":false,"rental_uris":{"android":"levelo://app?vid=af2968c9-3858-4920-90e1-be7507fc4cd7","ios":"levelo://app?vid=af2968c9-3858-4920-90e1-be7507fc4cd7"},"vehicle_type_id":"4","last_reported":1702505217,"current_range_meters":21600,"station_id":"ce4bhph2rcd13ifvqheg","pricing_plan_id":"free"},{"bike_id":"74aa75cc-540d-493f-9f44-d4d00cdc5059","system_id":"levelo_inurba_marseille","lat":43.26189,"lon":5.37444,"is_reserved":false,"is_disabled":false,"rental_uris":{"android":"levelo://app?vid=74aa75cc-540d-493f-9f44-d4d00cdc5059","ios":"levelo://app?vid=74aa75cc-540d-493f-9f44-d4d00cdc5059"},"vehicle_type_id":"4","last_reported":1702505217,"current_range_meters":7200,"station_id":"ce4bhgp2rcd13ifvqfc0","pricing_plan_id":"free"},{"bike_id":"b582c90a-7ad2-4807-97c7-a55d689f7b21","system_id":"levelo_inurba_marseille","lat":43.261782,"lon":5.374515,"is_reserved":false,"is_disabled":false,"rental_uris":{"android":"levelo://app?vid=b582c90a-7ad2-4807-97c7-a55d689f7b21","ios":"levelo://app?vid=b582c90a-7ad2-4807-97c7-a55d689f7b21"},"vehicle_type_id":"4","last_reported":1702505217,"current_range_meters":22000,"station_id":"ce4bhgp2rcd13ifvqfc0","pricing_plan_id":"free"},{"bike_id":"d7c68083-de0d-4032-884a-e4511850567b","system_id":"levelo_inurba_marseille","lat":43.26202,"lon":5.379299,"is_reserved":false,"is_disabled":false,"rental_uris":{"android":"levelo://app?vid=d7c68083-de0d-4032-884a-e4511850567b","ios":"levelo://app?vid=d7c68083-de0d-4032-884a-e4511850567b"},"vehicle_type_id":"4","last_reported":1702505217,"current_range_meters":30000,"station_id":"ce4bhjp2rcd13ifvqg90","pricing_plan_id":"free"},{"bike_id":"4f487e36-00dc-42e1-bb73-139c0266d0c1","system_id":"levelo_inurba_marseille","lat":43.271368,"lon":5.40928,"is_reserved":false,"is_disabled":false,"rental_uris":{"android":"levelo://app?vid=4f487e36-00dc-42e1-bb73-139c0266d0c1","ios":"levelo://app?vid=4f487e36-00dc-42e1-bb73-139c0266d0c1"},"vehicle_type_id":"4","last_reported":1702505217,"current_range_meters":28000,"station_id":"ce4bhl12rcd13ifvqgf0","pricing_plan_id":"free"},{"bike_id":"3b3ce763-90e8-4e69-820b-3004a0854853","system_id":"levelo_inurba_marseille","lat":43.267959,"lon":5.402687,"is_reserved":false,"is_disabled":false,"rental_uris":{"android":"levelo://app?vid=3b3ce763-90e8-4e69-820b-3004a0854853","ios":"levelo://app?vid=3b3ce763-90e8-4e69-820b-3004a0854853"},"vehicle_type_id":"4","last_reported":1702505217,"current_range_meters":13600,"station_id":"ce501612rcd8frsf0b60","pricing_plan_id":"free"},{"bike_id":"237634d4-2d23-479f-935b-09427197b407","system_id":"levelo_inurba_marseille","lat":43.27094,"lon":5.40951,"is_reserved":false,"is_disabled":false,"rental_uris":{"android":"levelo://app?vid=237634d4-2d23-479f-935b-09427197b407","ios":"levelo://app?vid=237634d4-2d23-479f-935b-09427197b407"},"vehicle_type_id":"4","last_reported":1702505217,"current_range_meters":10000,"station_id":"","pricing_plan_id":"free"},{"bike_id":"f860f387-f2ce-4d8f-830e-bd8a0d08dbe2","system_id":"levelo_inurba_marseille","lat":43.298768,"lon":5.43643,"is_reserved":false,"is_disabled":false,"rental_uris":{"android":"levelo://app?vid=f860f387-f2ce-4d8f-830e-bd8a0d08dbe2","ios":"levelo://app?vid=f860f387-f2ce-4d8f-830e-bd8a0d08dbe2"},"vehicle_type_id":"4","last_reported":1702505217,"current_range_meters":27600,"station_id":"ce4bhpp2rcd13ifvqhfg","pricing_plan_id":"free"},{"bike_id":"4ec71661-c1e3-4c3b-a17d-3fefed6d4370","system_id":"levelo_inurba_marseille","lat":43.29891,"lon":5.43664,"is_reserved":false,"is_disabled":false,"rental_uris":{"android":"levelo://app?vid=4ec71661-c1e3-4c3b-a17d-3fefed6d4370","ios":"levelo://app?vid=4ec71661-c1e3-4c3b-a17d-3fefed6d4370"},"vehicle_type_id":"4","last_reported":1702505217,"current_range_meters":18000,"station_id":"ce4bhpp2rcd13ifvqhfg","pricing_plan_id":"free"},{"bike_id":"38a4a3ac-b01c-43e0-abb4-5a012521fc8c","system_id":"levelo_inurba_marseille","lat":43.298768,"lon":5.43643,"is_reserved":false,"is_disabled":false,"rental_uris":{"android":"levelo://app?vid=38a4a3ac-b01c-43e0-abb4-5a012521fc8c","ios":"levelo://app?vid=38a4a3ac-b01c-43e0-abb4-5a012521fc8c"},"vehicle_type_id":"4","last_reported":1702505217,"current_range_meters":31200,"station_id":"ce4bhpp2rcd13ifvqhfg","pricing_plan_id":"free"},{"bike_id":"90dd1de4-f108-4a51-959d-09fe5b551bc7","system_id":"levelo_inurba_marseille","lat":43.28151,"lon":5.42649,"is_reserved":false,"is_disabled":false,"rental_uris":{"android":"levelo://app?vid=90dd1de4-f108-4a51-959d-09fe5b551bc7","ios":"levelo://app?vid=90dd1de4-f108-4a51-959d-09fe5b551bc7"},"vehicle_type_id":"4","last_reported":1702505217,"current_range_meters":0,"station_id":"ce4bhnh2rcd13ifvqgug","pricing_plan_id":"free"},{"bike_id":"89f090d1-02e6-4ed1-950a-6f917dc6929a","system_id":"levelo_inurba_marseille","lat":43.28149,"lon":5.42655,"is_reserved":false,"is_disabled":false,"rental_uris":{"android":"levelo://app?vid=89f090d1-02e6-4ed1-950a-6f917dc6929a","ios":"levelo://app?vid=89f090d1-02e6-4ed1-950a-6f917dc6929a"},"vehicle_type_id":"4","last_reported":1702505217,"current_range_meters":5600,"station_id":"ce4bhnh2rcd13ifvqgug","pricing_plan_id":"free"},{"bike_id":"139a7b0f-d716-4a89-a8df-8cb0192f7033","system_id":"levelo_inurba_marseille","lat":43.275028,"lon":5.424534,"is_reserved":false,"is_disabled":false,"rental_uris":{"android":"levelo://app?vid=139a7b0f-d716-4a89-a8df-8cb0192f7033","ios":"levelo://app?vid=139a7b0f-d716-4a89-a8df-8cb0192f7033"},"vehicle_type_id":"4","last_reported":1702505217,"current_range_meters":27200,"station_id":"ce4bhn92rcd13ifvqgrg","pricing_plan_id":"free"},{"bike_id":"efcdaaa3-64b2-4b35-b07c-0ee493515b56","system_id":"levelo_inurba_marseille","lat":43.254947,"lon":5.376454,"is_reserved":false,"is_disabled":false,"rental_uris":{"android":"levelo://app?vid=efcdaaa3-64b2-4b35-b07c-0ee493515b56","ios":"levelo://app?vid=efcdaaa3-64b2-4b35-b07c-0ee493515b56"},"vehicle_type_id":"4","last_reported":1702505217,"current_range_meters":6400,"station_id":"ce4bhh12rcd13ifvqff0","pricing_plan_id":"free"},{"bike_id":"21f1fc67-fe69-4f9c-8ac6-ca5ebd21edc5","system_id":"levelo_inurba_marseille","lat":43.258658,"lon":5.398935,"is_reserved":false,"is_disabled":false,"rental_uris":{"android":"levelo://app?vid=21f1fc67-fe69-4f9c-8ac6-ca5ebd21edc5","ios":"levelo://app?vid=21f1fc67-fe69-4f9c-8ac6-ca5ebd21edc5"},"vehicle_type_id":"4","last_reported":1702505217,"current_range_meters":27200,"station_id":"ce4bhl92rcd13ifvqghg","pricing_plan_id":"free"},{"bike_id":"69ff6680-51ba-4fb6-bcd3-e47fa46192a8","system_id":"levelo_inurba_marseille","lat":43.25865,"lon":5.39902,"is_reserved":false,"is_disabled":false,"rental_uris":{"android":"levelo://app?vid=69ff6680-51ba-4fb6-bcd3-e47fa46192a8","ios":"levelo://app?vid=69ff6680-51ba-4fb6-bcd3-e47fa46192a8"},"vehicle_type_id":"4","last_reported":1702505217,"current_range_meters":12800,"station_id":"ce4bhl92rcd13ifvqghg","pricing_plan_id":"free"},{"bike_id":"b3778f4b-17a5-414d-a355-5d6709a05873","system_id":"levelo_inurba_marseille","lat":43.25397,"lon":5.3828,"is_reserved":false,"is_disabled":false,"rental_uris":{"android":"levelo://app?vid=b3778f4b-17a5-414d-a355-5d6709a05873","ios":"levelo://app?vid=b3778f4b-17a5-414d-a355-5d6709a05873"},"vehicle_type_id":"4","last_reported":1702505217,"current_range_meters":21600,"station_id":"","pricing_plan_id":"free"},{"bike_id":"a8e20f3c-56a3-473c-a768-733a19fc879c","system_id":"levelo_inurba_marseille","lat":43.257079,"lon":5.411051,"is_reserved":false,"is_disabled":false,"rental_uris":{"android":"levelo://app?vid=a8e20f3c-56a3-473c-a768-733a19fc879c","ios":"levelo://app?vid=a8e20f3c-56a3-473c-a768-733a19fc879c"},"vehicle_type_id":"4","last_reported":1702505217,"current_range_meters":26800,"station_id":"ce4bhkp2rcd13ifvqgd0","pricing_plan_id":"free"},{"bike_id":"4609f49a-f338-428d-89d6-a5d7ed19bdbf","system_id":"levelo_inurba_marseille","lat":43.250009,"lon":5.389195,"is_reserved":false,"is_disabled":false,"rental_uris":{"android":"levelo://app?vid=4609f49a-f338-428d-89d6-a5d7ed19bdbf","ios":"levelo://app?vid=4609f49a-f338-428d-89d6-a5d7ed19bdbf"},"vehicle_type_id":"4","last_reported":1702505217,"current_range_meters":31200,"station_id":"ce4bhgp2rcd13ifvqfd0","pricing_plan_id":"free"},{"bike_id":"24c3afac-e3f6-4ac8-b6cc-1a7bcf5555cc","system_id":"levelo_inurba_marseille","lat":43.250023,"lon":5.38919,"is_reserved":false,"is_disabled":false,"rental_uris":{"android":"levelo://app?vid=24c3afac-e3f6-4ac8-b6cc-1a7bcf5555cc","ios":"levelo://app?vid=24c3afac-e3f6-4ac8-b6cc-1a7bcf5555cc"},"vehicle_type_id":"4","last_reported":1702505217,"current_range_meters":31200,"station_id":"ce4bhgp2rcd13ifvqfd0","pricing_plan_id":"free"},{"bike_id":"5cae2298-3e03-42c1-bf24-6a636c501b6f","system_id":"levelo_inurba_marseille","lat":43.2479,"lon":5.374457,"is_reserved":false,"is_disabled":false,"rental_uris":{"android":"levelo://app?vid=5cae2298-3e03-42c1-bf24-6a636c501b6f","ios":"levelo://app?vid=5cae2298-3e03-42c1-bf24-6a636c501b6f"},"vehicle_type_id":"4","last_reported":1702505217,"current_range_meters":2800,"station_id":"ce4bhgh2rcd13ifvqfb0","pricing_plan_id":"free"},{"bike_id":"665491de-a2a8-4144-a748-ce95312daad7","system_id":"levelo_inurba_marseille","lat":43.2509,"lon":5.39525,"is_reserved":false,"is_disabled":false,"rental_uris":{"android":"levelo://app?vid=665491de-a2a8-4144-a748-ce95312daad7","ios":"levelo://app?vid=665491de-a2a8-4144-a748-ce95312daad7"},"vehicle_type_id":"4","last_reported":1702505217,"current_range_meters":14800,"station_id":"ce4bhm12rcd13ifvqgkg","pricing_plan_id":"free"},{"bike_id":"7e1973b3-f606-4647-8baa-0aa70235ba76","system_id":"levelo_inurba_marseille","lat":43.250966,"lon":5.395186,"is_reserved":false,"is_disabled":false,"rental_uris":{"android":"levelo://app?vid=7e1973b3-f606-4647-8baa-0aa70235ba76","ios":"levelo://app?vid=7e1973b3-f606-4647-8baa-0aa70235ba76"},"vehicle_type_id":"4","last_reported":1702505217,"current_range_meters":30800,"station_id":"ce4bhm12rcd13ifvqgkg","pricing_plan_id":"free"},{"bike_id":"4e5ad467-5b2a-4311-bfbd-5ed452f7c851","system_id":"levelo_inurba_marseille","lat":43.250966,"lon":5.395186,"is_reserved":false,"is_disabled":false,"rental_uris":{"android":"levelo://app?vid=4e5ad467-5b2a-4311-bfbd-5ed452f7c851","ios":"levelo://app?vid=4e5ad467-5b2a-4311-bfbd-5ed452f7c851"},"vehicle_type_id":"4","last_reported":1702505217,"current_range_meters":23600,"station_id":"ce4bhm12rcd13ifvqgkg","pricing_plan_id":"free"},{"bike_id":"dc118269-ea24-4acd-9418-28f82ac9c150","system_id":"levelo_inurba_marseille","lat":43.25102,"lon":5.403214,"is_reserved":false,"is_disabled":false,"rental_uris":{"android":"levelo://app?vid=dc118269-ea24-4acd-9418-28f82ac9c150","ios":"levelo://app?vid=dc118269-ea24-4acd-9418-28f82ac9c150"},"vehicle_type_id":"4","last_reported":1702505217,"current_range_meters":23600,"station_id":"ce4bhlh2rcd13ifvqgig","pricing_plan_id":"free"},{"bike_id":"ff5e0797-a271-4d1e-8059-a2e1f74a08f0","system_id":"levelo_inurba_marseille","lat":43.25102,"lon":5.403214,"is_reserved":false,"is_disabled":false,"rental_uris":{"android":"levelo://app?vid=ff5e0797-a271-4d1e-8059-a2e1f74a08f0","ios":"levelo://app?vid=ff5e0797-a271-4d1e-8059-a2e1f74a08f0"},"vehicle_type_id":"4","last_reported":1702505217,"current_range_meters":0,"station_id":"ce4bhlh2rcd13ifvqgig","pricing_plan_id":"free"},{"bike_id":"061c59c2-1961-4229-8a98-6ee4e01c183b","system_id":"levelo_inurba_marseille","lat":43.25102,"lon":5.403214,"is_reserved":false,"is_disabled":false,"rental_uris":{"android":"levelo://app?vid=061c59c2-1961-4229-8a98-6ee4e01c183b","ios":"levelo://app?vid=061c59c2-1961-4229-8a98-6ee4e01c183b"},"vehicle_type_id":"4","last_reported":1702505217,"current_range_meters":14000,"station_id":"ce4bhlh2rcd13ifvqgig","pricing_plan_id":"free"},{"bike_id":"f61707de-c839-47df-b06d-a3b8de53d564","system_id":"levelo_inurba_marseille","lat":43.25102,"lon":5.403214,"is_reserved":false,"is_disabled":false,"rental_uris":{"android":"levelo://app?vid=f61707de-c839-47df-b06d-a3b8de53d564","ios":"levelo://app?vid=f61707de-c839-47df-b06d-a3b8de53d564"},"vehicle_type_id":"4","last_reported":1702505217,"current_range_meters":31200,"station_id":"ce4bhlh2rcd13ifvqgig","pricing_plan_id":"free"},{"bike_id":"215c9b75-e235-4d68-9eee-1d1363ed0011","system_id":"levelo_inurba_marseille","lat":43.240623,"lon":5.377642,"is_reserved":false,"is_disabled":false,"rental_uris":{"android":"levelo://app?vid=215c9b75-e235-4d68-9eee-1d1363ed0011","ios":"levelo://app?vid=215c9b75-e235-4d68-9eee-1d1363ed0011"},"vehicle_type_id":"4","last_reported":1702505217,"current_range_meters":23600,"station_id":"ce4bhnp2rcd13ifvqgvg","pricing_plan_id":"free"},{"bike_id":"1b2ea811-591a-43e2-a7a2-2a84bd8d0164","system_id":"levelo_inurba_marseille","lat":43.240623,"lon":5.377642,"is_reserved":false,"is_disabled":false,"rental_uris":{"android":"levelo://app?vid=1b2ea811-591a-43e2-a7a2-2a84bd8d0164","ios":"levelo://app?vid=1b2ea811-591a-43e2-a7a2-2a84bd8d0164"},"vehicle_type_id":"4","last_reported":1702505217,"current_range_meters":28400,"station_id":"ce4bhnp2rcd13ifvqgvg","pricing_plan_id":"free"},{"bike_id":"d1e4ffa3-0a0a-4153-b85c-71ae60bb1e49","system_id":"levelo_inurba_marseille","lat":43.240623,"lon":5.377642,"is_reserved":false,"is_disabled":false,"rental_uris":{"android":"levelo://app?vid=d1e4ffa3-0a0a-4153-b85c-71ae60bb1e49","ios":"levelo://app?vid=d1e4ffa3-0a0a-4153-b85c-71ae60bb1e49"},"vehicle_type_id":"4","last_reported":1702505217,"current_range_meters":13600,"station_id":"ce4bhnp2rcd13ifvqgvg","pricing_plan_id":"free"},{"bike_id":"825265e1-f294-4e04-ac72-2c431a6af408","system_id":"levelo_inurba_marseille","lat":43.239588,"lon":5.366238,"is_reserved":false,"is_disabled":false,"rental_uris":{"android":"levelo://app?vid=825265e1-f294-4e04-ac72-2c431a6af408","ios":"levelo://app?vid=825265e1-f294-4e04-ac72-2c431a6af408"},"vehicle_type_id":"4","last_reported":1702505217,"current_range_meters":31200,"station_id":"ce4bhi12rcd13ifvqfp0","pricing_plan_id":"free"},{"bike_id":"9af76f9c-24ab-48cd-a884-2f55b135e3d5","system_id":"levelo_inurba_marseille","lat":43.239588,"lon":5.366238,"is_reserved":false,"is_disabled":false,"rental_uris":{"android":"levelo://app?vid=9af76f9c-24ab-48cd-a884-2f55b135e3d5","ios":"levelo://app?vid=9af76f9c-24ab-48cd-a884-2f55b135e3d5"},"vehicle_type_id":"4","last_reported":1702505217,"current_range_meters":26000,"station_id":"ce4bhi12rcd13ifvqfp0","pricing_plan_id":"free"},{"bike_id":"1a11021d-6d42-4b34-88b2-d10245b35442","system_id":"levelo_inurba_marseille","lat":43.239588,"lon":5.366238,"is_reserved":false,"is_disabled":false,"rental_uris":{"android":"levelo://app?vid=1a11021d-6d42-4b34-88b2-d10245b35442","ios":"levelo://app?vid=1a11021d-6d42-4b34-88b2-d10245b35442"},"vehicle_type_id":"4","last_reported":1702505217,"current_range_meters":10000,"station_id":"ce4bhi12rcd13ifvqfp0","pricing_plan_id":"free"},{"bike_id":"d2de9bcc-0a4a-4f92-a74d-96a33e79b929","system_id":"levelo_inurba_marseille","lat":43.239588,"lon":5.366238,"is_reserved":false,"is_disabled":false,"rental_uris":{"android":"levelo://app?vid=d2de9bcc-0a4a-4f92-a74d-96a33e79b929","ios":"levelo://app?vid=d2de9bcc-0a4a-4f92-a74d-96a33e79b929"},"vehicle_type_id":"4","last_reported":1702505217,"current_range_meters":0,"station_id":"ce4bhi12rcd13ifvqfp0","pricing_plan_id":"free"},{"bike_id":"6bd20864-53b2-4d37-8c90-9b33e3024701","system_id":"levelo_inurba_marseille","lat":43.239598,"lon":5.366368,"is_reserved":false,"is_disabled":false,"rental_uris":{"android":"levelo://app?vid=6bd20864-53b2-4d37-8c90-9b33e3024701","ios":"levelo://app?vid=6bd20864-53b2-4d37-8c90-9b33e3024701"},"vehicle_type_id":"4","last_reported":1702505217,"current_range_meters":5600,"station_id":"ce4bhi12rcd13ifvqfp0","pricing_plan_id":"free"},{"bike_id":"6319c87f-71db-4e16-88ff-997c6b137b73","system_id":"levelo_inurba_marseille","lat":43.239588,"lon":5.366238,"is_reserved":false,"is_disabled":false,"rental_uris":{"android":"levelo://app?vid=6319c87f-71db-4e16-88ff-997c6b137b73","ios":"levelo://app?vid=6319c87f-71db-4e16-88ff-997c6b137b73"},"vehicle_type_id":"4","last_reported":1702505217,"current_range_meters":30000,"station_id":"ce4bhi12rcd13ifvqfp0","pricing_plan_id":"free"},{"bike_id":"708e0811-e309-4ac8-b94d-8fd0999b98bf","system_id":"levelo_inurba_marseille","lat":43.241782,"lon":5.397261,"is_reserved":false,"is_disabled":false,"rental_uris":{"android":"levelo://app?vid=708e0811-e309-4ac8-b94d-8fd0999b98bf","ios":"levelo://app?vid=708e0811-e309-4ac8-b94d-8fd0999b98bf"},"vehicle_type_id":"4","last_reported":1702505217,"current_range_meters":19200,"station_id":"ce4bhn12rcd13ifvqgpg","pricing_plan_id":"free"},{"bike_id":"976b51c7-50e5-4a1e-9623-472378627f57","system_id":"levelo_inurba_marseille","lat":43.231794,"lon":5.400052,"is_reserved":false,"is_disabled":false,"rental_uris":{"android":"levelo://app?vid=976b51c7-50e5-4a1e-9623-472378627f57","ios":"levelo://app?vid=976b51c7-50e5-4a1e-9623-472378627f57"},"vehicle_type_id":"4","last_reported":1702505217,"current_range_meters":31600,"station_id":"ce4bhn12rcd13ifvqgqg","pricing_plan_id":"free"},{"bike_id":"e9e13da5-814b-4e04-963f-f688451db439","system_id":"levelo_inurba_marseille","lat":43.231793,"lon":5.400044,"is_reserved":false,"is_disabled":false,"rental_uris":{"android":"levelo://app?vid=e9e13da5-814b-4e04-963f-f688451db439","ios":"levelo://app?vid=e9e13da5-814b-4e04-963f-f688451db439"},"vehicle_type_id":"4","last_reported":1702505217,"current_range_meters":30800,"station_id":"ce4bhn12rcd13ifvqgqg","pricing_plan_id":"free"},{"bike_id":"28cf0186-3129-4448-9e8f-8fa9860365e7","system_id":"levelo_inurba_marseille","lat":43.231794,"lon":5.400052,"is_reserved":false,"is_disabled":false,"rental_uris":{"android":"levelo://app?vid=28cf0186-3129-4448-9e8f-8fa9860365e7","ios":"levelo://app?vid=28cf0186-3129-4448-9e8f-8fa9860365e7"},"vehicle_type_id":"4","last_reported":1702505217,"current_range_meters":18400,"station_id":"ce4bhn12rcd13ifvqgqg","pricing_plan_id":"free"},{"bike_id":"46e85755-7f44-4770-9e69-88e3e5d2d0d4","system_id":"levelo_inurba_marseille","lat":43.231794,"lon":5.400052,"is_reserved":false,"is_disabled":false,"rental_uris":{"android":"levelo://app?vid=46e85755-7f44-4770-9e69-88e3e5d2d0d4","ios":"levelo://app?vid=46e85755-7f44-4770-9e69-88e3e5d2d0d4"},"vehicle_type_id":"4","last_reported":1702505217,"current_range_meters":20400,"station_id":"ce4bhn12rcd13ifvqgqg","pricing_plan_id":"free"},{"bike_id":"c66ca343-0c27-4535-baf6-7afe3f4ae09f","system_id":"levelo_inurba_marseille","lat":43.231794,"lon":5.400052,"is_reserved":false,"is_disabled":false,"rental_uris":{"android":"levelo://app?vid=c66ca343-0c27-4535-baf6-7afe3f4ae09f","ios":"levelo://app?vid=c66ca343-0c27-4535-baf6-7afe3f4ae09f"},"vehicle_type_id":"4","last_reported":1702505217,"current_range_meters":29200,"station_id":"ce4bhn12rcd13ifvqgqg","pricing_plan_id":"free"},{"bike_id":"2b605040-44f0-4665-aefa-dbb05f50f601","system_id":"levelo_inurba_marseille","lat":43.23188,"lon":5.39987,"is_reserved":false,"is_disabled":false,"rental_uris":{"android":"levelo://app?vid=2b605040-44f0-4665-aefa-dbb05f50f601","ios":"levelo://app?vid=2b605040-44f0-4665-aefa-dbb05f50f601"},"vehicle_type_id":"4","last_reported":1702505217,"current_range_meters":5200,"station_id":"ce4bhn12rcd13ifvqgqg","pricing_plan_id":"free"},{"bike_id":"a70842cf-3cdd-4227-8996-9e4cdf55219b","system_id":"levelo_inurba_marseille","lat":43.231793,"lon":5.400044,"is_reserved":false,"is_disabled":false,"rental_uris":{"android":"levelo://app?vid=a70842cf-3cdd-4227-8996-9e4cdf55219b","ios":"levelo://app?vid=a70842cf-3cdd-4227-8996-9e4cdf55219b"},"vehicle_type_id":"4","last_reported":1702505217,"current_range_meters":28400,"station_id":"ce4bhn12rcd13ifvqgqg","pricing_plan_id":"free"},{"bike_id":"b5e4fe9e-d152-47d1-ab48-f60ff93db450","system_id":"levelo_inurba_marseille","lat":43.231793,"lon":5.400044,"is_reserved":false,"is_disabled":false,"rental_uris":{"android":"levelo://app?vid=b5e4fe9e-d152-47d1-ab48-f60ff93db450","ios":"levelo://app?vid=b5e4fe9e-d152-47d1-ab48-f60ff93db450"},"vehicle_type_id":"4","last_reported":1702505217,"current_range_meters":9600,"station_id":"ce4bhn12rcd13ifvqgqg","pricing_plan_id":"free"},{"bike_id":"7686f611-5aad-4e08-8e3f-9126375d30b8","system_id":"levelo_inurba_marseille","lat":43.231794,"lon":5.400052,"is_reserved":false,"is_disabled":false,"rental_uris":{"android":"levelo://app?vid=7686f611-5aad-4e08-8e3f-9126375d30b8","ios":"levelo://app?vid=7686f611-5aad-4e08-8e3f-9126375d30b8"},"vehicle_type_id":"4","last_reported":1702505217,"current_range_meters":24400,"station_id":"ce4bhn12rcd13ifvqgqg","pricing_plan_id":"free"},{"bike_id":"5d66a1e1-407e-43b7-8a1f-b43437a90341","system_id":"levelo_inurba_marseille","lat":43.231794,"lon":5.400052,"is_reserved":false,"is_disabled":false,"rental_uris":{"android":"levelo://app?vid=5d66a1e1-407e-43b7-8a1f-b43437a90341","ios":"levelo://app?vid=5d66a1e1-407e-43b7-8a1f-b43437a90341"},"vehicle_type_id":"4","last_reported":1702505217,"current_range_meters":31200,"station_id":"ce4bhn12rcd13ifvqgqg","pricing_plan_id":"free"},{"bike_id":"488995f1-5a8c-4082-a3c5-475b61d123ab","system_id":"levelo_inurba_marseille","lat":43.231793,"lon":5.400044,"is_reserved":false,"is_disabled":false,"rental_uris":{"android":"levelo://app?vid=488995f1-5a8c-4082-a3c5-475b61d123ab","ios":"levelo://app?vid=488995f1-5a8c-4082-a3c5-475b61d123ab"},"vehicle_type_id":"4","last_reported":1702505217,"current_range_meters":22000,"station_id":"ce4bhn12rcd13ifvqgqg","pricing_plan_id":"free"},{"bike_id":"089568fd-e936-4c31-a2a6-ab09f2b4391b","system_id":"levelo_inurba_marseille","lat":43.231794,"lon":5.400052,"is_reserved":false,"is_disabled":false,"rental_uris":{"android":"levelo://app?vid=089568fd-e936-4c31-a2a6-ab09f2b4391b","ios":"levelo://app?vid=089568fd-e936-4c31-a2a6-ab09f2b4391b"},"vehicle_type_id":"4","last_reported":1702505217,"current_range_meters":800,"station_id":"ce4bhn12rcd13ifvqgqg","pricing_plan_id":"free"}]}}