{"last_updated":1749625840,"ttl":60,"version":"2.2","data":{"bikes":[{"bike_id":"9ee821ac-a236-4a06-9401-3664b58ff4d8","system_id":"levelo_inurba_marseille","lat":43.32344,"lon":5.40619,"is_reserved":false,"is_disabled":false,"rental_uris":{"android":"levelo://app?vid=9ee821ac-a236-4a06-9401-3664b58ff4d8","ios":"levelo://app?vid=9ee821ac-a236-4a06-9401-3664b58ff4d8"},"vehicle_type_id":"4","last_reported":1749625840,"current_range_meters":2800,"station_id":"ce4bhq92rcd13ifvqhjg","pricing_plan_id":"cebpf4jnsgd1na2vs0mg"},{"bike_id":"dd67f108-95bf-4a1e-b619-4bb77e009c5b","system_id":"levelo_inurba_marseille","lat":43.290705,"lon":5.427509,"is_reserved":false,"is_disabled":false,"rental_uris":{"android":"levelo://app?vid=dd67f108-95bf-4a1e-b619-4bb77e009c5b","ios":"levelo://app?vid=dd67f108-95bf-4a1e-b619-4bb77e009c5b"},"vehicle_type_id":"4","last_reported":1749625840,"current_range_meters":2800,"station_id":"","pricing_plan_id":"cebpf4jnsgd1na2vs0mg"},{"bike_id":"b3d982ff-85a1-4dd3-8d38-99737526bcfa","system_id":"levelo_inurba_marseille","lat":43.30303,"lon":5.36891,"is_reserved":false,"is_disabled":false,"rental_uris":{"android":"levelo://app?vid=b3d982ff-85a1-4dd3-8d38-99737526bcfa","ios":"levelo://app?vid=b3d982ff-85a1-4dd3-8d38-99737526bcfa"},"vehicle_type_id":"4","last_reported":1749625840,"current_range_meters":2800,"station_id":"ce4bgqh2rcd13ifvqc5g","pricing_plan_id":"cebpf4jnsgd1na2vs0mg"},{"bike_id":"6af3e095-8551-41eb-b61d-80cd5adae411","system_id":"levelo_inurba_marseille","lat":43.286967,"lon":5.399793,"is_reserved":false,"is_disabled":false,"rental_uris":{"android":"levelo://app?vid=6af3e095-8551-41eb-b61d-80cd5adae411","ios":"levelo://app?vid=6af3e095-8551-41eb-b61d-80cd5adae411"},"vehicle_type_id":"4","last_reported":1749625840,"current_range_meters":2800,"station_id":"ce4bho92rcd13ifvqh3g","pricing_plan_id":"cebpf4jnsgd1na2vs0mg"},{"bike_id":"78234848-a88c-450e-bcf2-d9583380bccf","system_id":"levelo_inurba_marseille","lat":43.31223,"lon":5.36851,"is_reserved":false,"is_disabled":false,"rental_uris":{"android":"levelo://app?vid=78234848-a88c-450e-bcf2-d9583380bccf","ios":"levelo://app?vid=78234848-a88c-450e-bcf2-d9583380bccf"},"vehicle_type_id":"4","last_reported":1749625840,"current_range_meters":2800,"station_id":"ce4bgl92rcd13ifvqbq0","pricing_plan_id":"cebpf4jnsgd1na2vs0mg"},{"bike_id":"e4413fa4-4949-4a8b-80a7-db572197f8b5","system_id":"levelo_inurba_marseille","lat":43.30544,"lon":5.36556,"is_reserved":false,"is_disabled":false,"rental_uris":{"android":"levelo://app?vid=e4413fa4-4949-4a8b-80a7-db572197f8b5","ios":"levelo://app?vid=e4413fa4-4949-4a8b-80a7-db572197f8b5"},"vehicle_type_id":"4","last_reported":1749625840,"current_range_meters":2800,"station_id":"ce4bgs12rcd13ifvqcag","pricing_plan_id":"cebpf4jnsgd1na2vs0mg"},{"bike_id":"84c5a056-59a2-4114-a338-ef6831f40fe4","system_id":"levelo_inurba_marseille","lat":43.24179,"lon":5.39732,"is_reserved":false,"is_disabled":false,"rental_uris":{"android":"levelo://app?vid=84c5a056-59a2-4114-a338-ef6831f40fe4","ios":"levelo://app?vid=84c5a056-59a2-4114-a338-ef6831f40fe4"},"vehicle_type_id":"4","last_reported":1749625840,"current_range_meters":3200,"station_id":"ce4bhn12rcd13ifvqgpg","pricing_plan_id":"cebpf4jnsgd1na2vs0mg"},{"bike_id":"9f905ee7-9850-4447-a6ec-5683f1ce09fd","system_id":"levelo_inurba_marseille","lat":43.30103,"lon":5.39037,"is_reserved":false,"is_disabled":false,"rental_uris":{"android":"levelo://app?vid=9f905ee7-9850-4447-a6ec-5683f1ce09fd","ios":"levelo://app?vid=9f905ee7-9850-4447-a6ec-5683f1ce09fd"},"vehicle_type_id":"4","last_reported":1749625840,"current_range_meters":3600,"station_id":"ce4bh192rcd13ifvqdb0","pricing_plan_id":"cebpf4jnsgd1na2vs0mg"},{"bike_id":"92522c87-80c7-4f69-b600-b9dfb2479cda","system_id":"levelo_inurba_marseille","lat":43.28479,"lon":5.38553,"is_reserved":false,"is_disabled":false,"rental_uris":{"android":"levelo://app?vid=92522c87-80c7-4f69-b600-b9dfb2479cda","ios":"levelo://app?vid=92522c87-80c7-4f69-b600-b9dfb2479cda"},"vehicle_type_id":"4","last_reported":1749625840,"current_range_meters":3600,"station_id":"ce4bh8p2rcd13ifvqeb0","pricing_plan_id":"cebpf4jnsgd1na2vs0mg"},{"bike_id":"3a23267e-7fd8-4eb7-8a33-5a60aab332da","system_id":"levelo_inurba_marseille","lat":43.29172,"lon":5.37154,"is_reserved":false,"is_disabled":false,"rental_uris":{"android":"levelo://app?vid=3a23267e-7fd8-4eb7-8a33-5a60aab332da","ios":"levelo://app?vid=3a23267e-7fd8-4eb7-8a33-5a60aab332da"},"vehicle_type_id":"4","last_reported":1749625840,"current_range_meters":3600,"station_id":"ce4bha92rcd13ifvqeh0","pricing_plan_id":"cebpf4jnsgd1na2vs0mg"},{"bike_id":"ec22e88e-1e87-401a-9f66-0e8bb6167184","system_id":"levelo_inurba_marseille","lat":43.293,"lon":5.37464,"is_reserved":false,"is_disabled":false,"rental_uris":{"android":"levelo://app?vid=ec22e88e-1e87-401a-9f66-0e8bb6167184","ios":"levelo://app?vid=ec22e88e-1e87-401a-9f66-0e8bb6167184"},"vehicle_type_id":"4","last_reported":1749625840,"current_range_meters":3600,"station_id":"ce4bgi12rcd13ifvqb70","pricing_plan_id":"cebpf4jnsgd1na2vs0mg"},{"bike_id":"88113087-f0bb-4133-ab2a-bbfce1f3d99a","system_id":"levelo_inurba_marseille","lat":43.31722,"lon":5.40455,"is_reserved":false,"is_disabled":true,"rental_uris":{"android":"levelo://app?vid=88113087-f0bb-4133-ab2a-bbfce1f3d99a","ios":"levelo://app?vid=88113087-f0bb-4133-ab2a-bbfce1f3d99a"},"vehicle_type_id":"4","last_reported":1749625840,"current_range_meters":4000,"station_id":"ce4bh012rcd13ifvqd00","pricing_plan_id":"cebpf4jnsgd1na2vs0mg"},{"bike_id":"1bd44778-94d3-4355-bdc9-4cc77b5e252d","system_id":"levelo_inurba_marseille","lat":43.29569,"lon":5.38127,"is_reserved":false,"is_disabled":false,"rental_uris":{"android":"levelo://app?vid=1bd44778-94d3-4355-bdc9-4cc77b5e252d","ios":"levelo://app?vid=1bd44778-94d3-4355-bdc9-4cc77b5e252d"},"vehicle_type_id":"4","last_reported":1749625840,"current_range_meters":4400,"station_id":"ce4bgl12rcd13ifvqbo0","pricing_plan_id":"cebpf4jnsgd1na2vs0mg"},{"bike_id":"9dc5f68d-a9af-4dac-a748-966c6b7f669f","system_id":"levelo_inurba_marseille","lat":43.28978,"lon":5.37837,"is_reserved":false,"is_disabled":false,"rental_uris":{"android":"levelo://app?vid=9dc5f68d-a9af-4dac-a748-966c6b7f669f","ios":"levelo://app?vid=9dc5f68d-a9af-4dac-a748-966c6b7f669f"},"vehicle_type_id":"4","last_reported":1749625840,"current_range_meters":4400,"station_id":"ce4bh9p2rcd13ifvqed0","pricing_plan_id":"cebpf4jnsgd1na2vs0mg"},{"bike_id":"4bbf18c4-952a-4eb4-8649-6803f058eaa5","system_id":"levelo_inurba_marseille","lat":43.33206,"lon":5.42871,"is_reserved":false,"is_disabled":true,"rental_uris":{"android":"levelo://app?vid=4bbf18c4-952a-4eb4-8649-6803f058eaa5","ios":"levelo://app?vid=4bbf18c4-952a-4eb4-8649-6803f058eaa5"},"vehicle_type_id":"4","last_reported":1749625840,"current_range_meters":4400,"station_id":"","pricing_plan_id":"cebpf4jnsgd1na2vs0mg"},{"bike_id":"c555f70c-866d-4d56-b60f-fdd3434007cf","system_id":"levelo_inurba_marseille","lat":43.29084,"lon":5.38163,"is_reserved":false,"is_disabled":true,"rental_uris":{"android":"levelo://app?vid=c555f70c-866d-4d56-b60f-fdd3434007cf","ios":"levelo://app?vid=c555f70c-866d-4d56-b60f-fdd3434007cf"},"vehicle_type_id":"4","last_reported":1749625840,"current_range_meters":4400,"station_id":"ce4bh512rcd13ifvqe2g","pricing_plan_id":"cebpf4jnsgd1na2vs0mg"},{"bike_id":"783fb3e4-49e0-49bd-a00e-3b817dfa3d18","system_id":"levelo_inurba_marseille","lat":43.31476,"lon":5.37286,"is_reserved":false,"is_disabled":false,"rental_uris":{"android":"levelo://app?vid=783fb3e4-49e0-49bd-a00e-3b817dfa3d18","ios":"levelo://app?vid=783fb3e4-49e0-49bd-a00e-3b817dfa3d18"},"vehicle_type_id":"4","last_reported":1749625840,"current_range_meters":4800,"station_id":"ce4bgt12rcd13ifvqcd0","pricing_plan_id":"cebpf4jnsgd1na2vs0mg"},{"bike_id":"4a547821-6e1b-42ff-bb92-10ab6581a149","system_id":"levelo_inurba_marseille","lat":43.31868,"lon":5.37489,"is_reserved":false,"is_disabled":false,"rental_uris":{"android":"levelo://app?vid=4a547821-6e1b-42ff-bb92-10ab6581a149","ios":"levelo://app?vid=4a547821-6e1b-42ff-bb92-10ab6581a149"},"vehicle_type_id":"4","last_reported":1749625840,"current_range_meters":6000,"station_id":"","pricing_plan_id":"cebpf4jnsgd1na2vs0mg"},{"bike_id":"be3eb215-a814-4a86-82da-2c1d80a154c2","system_id":"levelo_inurba_marseille","lat":43.27838,"lon":5.39207,"is_reserved":false,"is_disabled":false,"rental_uris":{"android":"levelo://app?vid=be3eb215-a814-4a86-82da-2c1d80a154c2","ios":"levelo://app?vid=be3eb215-a814-4a86-82da-2c1d80a154c2"},"vehicle_type_id":"4","last_reported":1749625840,"current_range_meters":6000,"station_id":"ce4bhjp2rcd13ifvqga0","pricing_plan_id":"cebpf4jnsgd1na2vs0mg"},{"bike_id":"5300afc6-2762-4731-9dd7-b62876dcccf7","system_id":"levelo_inurba_marseille","lat":43.30545,"lon":5.36547,"is_reserved":false,"is_disabled":false,"rental_uris":{"android":"levelo://app?vid=5300afc6-2762-4731-9dd7-b62876dcccf7","ios":"levelo://app?vid=5300afc6-2762-4731-9dd7-b62876dcccf7"},"vehicle_type_id":"4","last_reported":1749625840,"current_range_meters":6000,"station_id":"ce4bgs12rcd13ifvqcag","pricing_plan_id":"cebpf4jnsgd1na2vs0mg"},{"bike_id":"4a69c6fe-7b60-4246-ad19-0ca232c439a9","system_id":"levelo_inurba_marseille","lat":43.29165,"lon":5.37164,"is_reserved":false,"is_disabled":false,"rental_uris":{"android":"levelo://app?vid=4a69c6fe-7b60-4246-ad19-0ca232c439a9","ios":"levelo://app?vid=4a69c6fe-7b60-4246-ad19-0ca232c439a9"},"vehicle_type_id":"4","last_reported":1749625840,"current_range_meters":6000,"station_id":"ce4bha92rcd13ifvqeh0","pricing_plan_id":"cebpf4jnsgd1na2vs0mg"},{"bike_id":"38b56b87-c555-459e-af32-328872fc7a4c","system_id":"levelo_inurba_marseille","lat":43.30079,"lon":5.39077,"is_reserved":false,"is_disabled":false,"rental_uris":{"android":"levelo://app?vid=38b56b87-c555-459e-af32-328872fc7a4c","ios":"levelo://app?vid=38b56b87-c555-459e-af32-328872fc7a4c"},"vehicle_type_id":"4","last_reported":1749625840,"current_range_meters":6400,"station_id":"ce4bh192rcd13ifvqdb0","pricing_plan_id":"cebpf4jnsgd1na2vs0mg"},{"bike_id":"33a7407a-f9ba-430d-abc6-01fe5e60108f","system_id":"levelo_inurba_marseille","lat":43.28716,"lon":5.39998,"is_reserved":false,"is_disabled":false,"rental_uris":{"android":"levelo://app?vid=33a7407a-f9ba-430d-abc6-01fe5e60108f","ios":"levelo://app?vid=33a7407a-f9ba-430d-abc6-01fe5e60108f"},"vehicle_type_id":"4","last_reported":1749625840,"current_range_meters":6400,"station_id":"ce4bho92rcd13ifvqh3g","pricing_plan_id":"cebpf4jnsgd1na2vs0mg"},{"bike_id":"920b912a-c925-4a32-b1f3-ac2f24b422eb","system_id":"levelo_inurba_marseille","lat":43.286909,"lon":5.399917,"is_reserved":false,"is_disabled":false,"rental_uris":{"android":"levelo://app?vid=920b912a-c925-4a32-b1f3-ac2f24b422eb","ios":"levelo://app?vid=920b912a-c925-4a32-b1f3-ac2f24b422eb"},"vehicle_type_id":"4","last_reported":1749625840,"current_range_meters":6800,"station_id":"ce4bho92rcd13ifvqh3g","pricing_plan_id":"cebpf4jnsgd1na2vs0mg"},{"bike_id":"f125b270-e6e8-45c8-95c7-7124f302e594","system_id":"levelo_inurba_marseille","lat":43.29225,"lon":5.36062,"is_reserved":false,"is_disabled":false,"rental_uris":{"android":"levelo://app?vid=f125b270-e6e8-45c8-95c7-7124f302e594","ios":"levelo://app?vid=f125b270-e6e8-45c8-95c7-7124f302e594"},"vehicle_type_id":"4","last_reported":1749625840,"current_range_meters":6800,"station_id":"ce4bhbh2rcd13ifvqeqg","pricing_plan_id":"cebpf4jnsgd1na2vs0mg"},{"bike_id":"49938379-7218-4c9f-884c-7e199e43a101","system_id":"levelo_inurba_marseille","lat":43.31681,"lon":5.40479,"is_reserved":false,"is_disabled":false,"rental_uris":{"android":"levelo://app?vid=49938379-7218-4c9f-884c-7e199e43a101","ios":"levelo://app?vid=49938379-7218-4c9f-884c-7e199e43a101"},"vehicle_type_id":"4","last_reported":1749625840,"current_range_meters":6800,"station_id":"ce4bh012rcd13ifvqd00","pricing_plan_id":"cebpf4jnsgd1na2vs0mg"},{"bike_id":"3924f8b3-f13b-4c6d-bf0e-03aef010c488","system_id":"levelo_inurba_marseille","lat":43.31465,"lon":5.37287,"is_reserved":false,"is_disabled":false,"rental_uris":{"android":"levelo://app?vid=3924f8b3-f13b-4c6d-bf0e-03aef010c488","ios":"levelo://app?vid=3924f8b3-f13b-4c6d-bf0e-03aef010c488"},"vehicle_type_id":"4","last_reported":1749625840,"current_range_meters":7200,"station_id":"ce4bgt12rcd13ifvqcd0","pricing_plan_id":"cebpf4jnsgd1na2vs0mg"},{"bike_id":"7e816257-60d6-4df9-aec5-ee760f2ac071","system_id":"levelo_inurba_marseille","lat":43.255001,"lon":5.376299,"is_reserved":false,"is_disabled":false,"rental_uris":{"android":"levelo://app?vid=7e816257-60d6-4df9-aec5-ee760f2ac071","ios":"levelo://app?vid=7e816257-60d6-4df9-aec5-ee760f2ac071"},"vehicle_type_id":"4","last_reported":1749625840,"current_range_meters":7200,"station_id":"ce4bhh12rcd13ifvqff0","pricing_plan_id":"cebpf4jnsgd1na2vs0mg"},{"bike_id":"87177a5f-311c-4313-bfd8-5aae0c9781e6","system_id":"levelo_inurba_marseille","lat":43.24998,"lon":5.38932,"is_reserved":false,"is_disabled":false,"rental_uris":{"android":"levelo://app?vid=87177a5f-311c-4313-bfd8-5aae0c9781e6","ios":"levelo://app?vid=87177a5f-311c-4313-bfd8-5aae0c9781e6"},"vehicle_type_id":"4","last_reported":1749625840,"current_range_meters":7200,"station_id":"ce4bhgp2rcd13ifvqfd0","pricing_plan_id":"cebpf4jnsgd1na2vs0mg"},{"bike_id":"b6285f6b-e9e7-470d-9b6d-1afe99ab71bf","system_id":"levelo_inurba_marseille","lat":43.2619,"lon":5.42086,"is_reserved":false,"is_disabled":false,"rental_uris":{"android":"levelo://app?vid=b6285f6b-e9e7-470d-9b6d-1afe99ab71bf","ios":"levelo://app?vid=b6285f6b-e9e7-470d-9b6d-1afe99ab71bf"},"vehicle_type_id":"4","last_reported":1749625840,"current_range_meters":7200,"station_id":"","pricing_plan_id":"cebpf4jnsgd1na2vs0mg"},{"bike_id":"3d59d2ec-b59a-43e8-abae-40ac02fdcdb8","system_id":"levelo_inurba_marseille","lat":43.29546,"lon":5.42291,"is_reserved":false,"is_disabled":false,"rental_uris":{"android":"levelo://app?vid=3d59d2ec-b59a-43e8-abae-40ac02fdcdb8","ios":"levelo://app?vid=3d59d2ec-b59a-43e8-abae-40ac02fdcdb8"},"vehicle_type_id":"4","last_reported":1749625840,"current_range_meters":7200,"station_id":"ce4bhph2rcd13ifvqhdg","pricing_plan_id":"cebpf4jnsgd1na2vs0mg"},{"bike_id":"c878e9a3-def5-4533-9212-6f1f9299bfe4","system_id":"levelo_inurba_marseille","lat":43.24388,"lon":5.37062,"is_reserved":false,"is_disabled":false,"rental_uris":{"android":"levelo://app?vid=c878e9a3-def5-4533-9212-6f1f9299bfe4","ios":"levelo://app?vid=c878e9a3-def5-4533-9212-6f1f9299bfe4"},"vehicle_type_id":"4","last_reported":1749625840,"current_range_meters":7200,"station_id":"ce4bhhh2rcd13ifvqfk0","pricing_plan_id":"cebpf4jnsgd1na2vs0mg"},{"bike_id":"377e798d-9e1d-43b1-8b16-376695dae270","system_id":"levelo_inurba_marseille","lat":43.28693,"lon":5.39993,"is_reserved":false,"is_disabled":false,"rental_uris":{"android":"levelo://app?vid=377e798d-9e1d-43b1-8b16-376695dae270","ios":"levelo://app?vid=377e798d-9e1d-43b1-8b16-376695dae270"},"vehicle_type_id":"4","last_reported":1749625840,"current_range_meters":7200,"station_id":"ce4bho92rcd13ifvqh3g","pricing_plan_id":"cebpf4jnsgd1na2vs0mg"},{"bike_id":"18239c82-c106-4981-9962-6dc843ea705f","system_id":"levelo_inurba_marseille","lat":43.25933,"lon":5.40909,"is_reserved":false,"is_disabled":false,"rental_uris":{"android":"levelo://app?vid=18239c82-c106-4981-9962-6dc843ea705f","ios":"levelo://app?vid=18239c82-c106-4981-9962-6dc843ea705f"},"vehicle_type_id":"4","last_reported":1749625840,"current_range_meters":7200,"station_id":"ce4bhm92rcd13ifvqglg","pricing_plan_id":"cebpf4jnsgd1na2vs0mg"},{"bike_id":"66fac9ba-4e53-469d-8c0e-b15cb784136c","system_id":"levelo_inurba_marseille","lat":43.290652,"lon":5.371405,"is_reserved":false,"is_disabled":true,"rental_uris":{"android":"levelo://app?vid=66fac9ba-4e53-469d-8c0e-b15cb784136c","ios":"levelo://app?vid=66fac9ba-4e53-469d-8c0e-b15cb784136c"},"vehicle_type_id":"4","last_reported":1749625840,"current_range_meters":8000,"station_id":"ce4bh5p2rcd13ifvqe4g","pricing_plan_id":"cebpf4jnsgd1na2vs0mg"},{"bike_id":"11ef9da6-26f9-4893-919a-003f2d8531a7","system_id":"levelo_inurba_marseille","lat":43.29619,"lon":5.371599,"is_reserved":false,"is_disabled":false,"rental_uris":{"android":"levelo://app?vid=11ef9da6-26f9-4893-919a-003f2d8531a7","ios":"levelo://app?vid=11ef9da6-26f9-4893-919a-003f2d8531a7"},"vehicle_type_id":"4","last_reported":1749625840,"current_range_meters":8000,"station_id":"","pricing_plan_id":"cebpf4jnsgd1na2vs0mg"},{"bike_id":"e523f706-8c3e-4c14-b599-8e03c9d72beb","system_id":"levelo_inurba_marseille","lat":43.3169,"lon":5.40479,"is_reserved":false,"is_disabled":false,"rental_uris":{"android":"levelo://app?vid=e523f706-8c3e-4c14-b599-8e03c9d72beb","ios":"levelo://app?vid=e523f706-8c3e-4c14-b599-8e03c9d72beb"},"vehicle_type_id":"4","last_reported":1749625840,"current_range_meters":8000,"station_id":"ce4bh012rcd13ifvqd00","pricing_plan_id":"cebpf4jnsgd1na2vs0mg"},{"bike_id":"6e6663d3-3b2e-4bb9-8719-fd25c8891443","system_id":"levelo_inurba_marseille","lat":43.30956,"lon":5.39091,"is_reserved":false,"is_disabled":true,"rental_uris":{"android":"levelo://app?vid=6e6663d3-3b2e-4bb9-8719-fd25c8891443","ios":"levelo://app?vid=6e6663d3-3b2e-4bb9-8719-fd25c8891443"},"vehicle_type_id":"4","last_reported":1749625840,"current_range_meters":8000,"station_id":"ce4bgup2rcd13ifvqco0","pricing_plan_id":"cebpf4jnsgd1na2vs0mg"},{"bike_id":"a9334c0d-cdfc-464f-8eab-e98192ed3454","system_id":"levelo_inurba_marseille","lat":43.292242,"lon":5.399338,"is_reserved":false,"is_disabled":false,"rental_uris":{"android":"levelo://app?vid=a9334c0d-cdfc-464f-8eab-e98192ed3454","ios":"levelo://app?vid=a9334c0d-cdfc-464f-8eab-e98192ed3454"},"vehicle_type_id":"4","last_reported":1749625840,"current_range_meters":8000,"station_id":"","pricing_plan_id":"cebpf4jnsgd1na2vs0mg"},{"bike_id":"39d32260-51d5-455a-ba53-6471389bd255","system_id":"levelo_inurba_marseille","lat":43.319777,"lon":5.376138,"is_reserved":false,"is_disabled":false,"rental_uris":{"android":"levelo://app?vid=39d32260-51d5-455a-ba53-6471389bd255","ios":"levelo://app?vid=39d32260-51d5-455a-ba53-6471389bd255"},"vehicle_type_id":"4","last_reported":1749625840,"current_range_meters":8000,"station_id":"","pricing_plan_id":"cebpf4jnsgd1na2vs0mg"},{"bike_id":"5e6b1e47-16fd-488b-b7eb-507767b76ee6","system_id":"levelo_inurba_marseille","lat":43.26832,"lon":5.39051,"is_reserved":false,"is_disabled":false,"rental_uris":{"android":"levelo://app?vid=5e6b1e47-16fd-488b-b7eb-507767b76ee6","ios":"levelo://app?vid=5e6b1e47-16fd-488b-b7eb-507767b76ee6"},"vehicle_type_id":"4","last_reported":1749625840,"current_range_meters":8000,"station_id":"","pricing_plan_id":"cebpf4jnsgd1na2vs0mg"},{"bike_id":"e494a894-0c09-427a-9e9e-b13be9090f83","system_id":"levelo_inurba_marseille","lat":43.2418,"lon":5.39725,"is_reserved":false,"is_disabled":false,"rental_uris":{"android":"levelo://app?vid=e494a894-0c09-427a-9e9e-b13be9090f83","ios":"levelo://app?vid=e494a894-0c09-427a-9e9e-b13be9090f83"},"vehicle_type_id":"4","last_reported":1749625840,"current_range_meters":8400,"station_id":"ce4bhn12rcd13ifvqgpg","pricing_plan_id":"cebpf4jnsgd1na2vs0mg"},{"bike_id":"b9bd581d-71a5-4f8b-8522-beb50df880ae","system_id":"levelo_inurba_marseille","lat":43.30139,"lon":5.38776,"is_reserved":false,"is_disabled":false,"rental_uris":{"android":"levelo://app?vid=b9bd581d-71a5-4f8b-8522-beb50df880ae","ios":"levelo://app?vid=b9bd581d-71a5-4f8b-8522-beb50df880ae"},"vehicle_type_id":"4","last_reported":1749625840,"current_range_meters":8400,"station_id":"ce4bghh2rcd13ifvqb60","pricing_plan_id":"cebpf4jnsgd1na2vs0mg"},{"bike_id":"c96defc4-7d86-4a0a-9944-e593e4547d0e","system_id":"levelo_inurba_marseille","lat":43.32333,"lon":5.40652,"is_reserved":false,"is_disabled":false,"rental_uris":{"android":"levelo://app?vid=c96defc4-7d86-4a0a-9944-e593e4547d0e","ios":"levelo://app?vid=c96defc4-7d86-4a0a-9944-e593e4547d0e"},"vehicle_type_id":"4","last_reported":1749625840,"current_range_meters":8400,"station_id":"ce4bhq92rcd13ifvqhjg","pricing_plan_id":"cebpf4jnsgd1na2vs0mg"},{"bike_id":"d5eed58c-eed9-43d3-a070-dfcb6cf8de82","system_id":"levelo_inurba_marseille","lat":43.29045,"lon":5.3995,"is_reserved":false,"is_disabled":false,"rental_uris":{"android":"levelo://app?vid=d5eed58c-eed9-43d3-a070-dfcb6cf8de82","ios":"levelo://app?vid=d5eed58c-eed9-43d3-a070-dfcb6cf8de82"},"vehicle_type_id":"4","last_reported":1749625840,"current_range_meters":8400,"station_id":"ce4bh392rcd13ifvqdm0","pricing_plan_id":"cebpf4jnsgd1na2vs0mg"},{"bike_id":"d6f475e9-bfee-4388-80e7-67e105fd5efb","system_id":"levelo_inurba_marseille","lat":43.29982,"lon":5.38493,"is_reserved":false,"is_disabled":false,"rental_uris":{"android":"levelo://app?vid=d6f475e9-bfee-4388-80e7-67e105fd5efb","ios":"levelo://app?vid=d6f475e9-bfee-4388-80e7-67e105fd5efb"},"vehicle_type_id":"4","last_reported":1749625840,"current_range_meters":8400,"station_id":"ce4bgj92rcd13ifvqbd0","pricing_plan_id":"cebpf4jnsgd1na2vs0mg"},{"bike_id":"6890b9e2-87e1-40b6-9e0f-8af99f456400","system_id":"levelo_inurba_marseille","lat":43.29603,"lon":5.38086,"is_reserved":false,"is_disabled":false,"rental_uris":{"android":"levelo://app?vid=6890b9e2-87e1-40b6-9e0f-8af99f456400","ios":"levelo://app?vid=6890b9e2-87e1-40b6-9e0f-8af99f456400"},"vehicle_type_id":"4","last_reported":1749625840,"current_range_meters":8400,"station_id":"ce4bgl12rcd13ifvqbo0","pricing_plan_id":"cebpf4jnsgd1na2vs0mg"},{"bike_id":"125bd855-10ed-4a56-9707-403f3a8b58a0","system_id":"levelo_inurba_marseille","lat":43.33071,"lon":5.40511,"is_reserved":false,"is_disabled":false,"rental_uris":{"android":"levelo://app?vid=125bd855-10ed-4a56-9707-403f3a8b58a0","ios":"levelo://app?vid=125bd855-10ed-4a56-9707-403f3a8b58a0"},"vehicle_type_id":"4","last_reported":1749625840,"current_range_meters":8400,"station_id":"","pricing_plan_id":"cebpf4jnsgd1na2vs0mg"},{"bike_id":"88febd41-fb4a-4499-886e-f4719eb106f4","system_id":"levelo_inurba_marseille","lat":43.26681,"lon":5.38267,"is_reserved":false,"is_disabled":false,"rental_uris":{"android":"levelo://app?vid=88febd41-fb4a-4499-886e-f4719eb106f4","ios":"levelo://app?vid=88febd41-fb4a-4499-886e-f4719eb106f4"},"vehicle_type_id":"4","last_reported":1749625840,"current_range_meters":8400,"station_id":"ce4bhg92rcd13ifvqf90","pricing_plan_id":"cebpf4jnsgd1na2vs0mg"},{"bike_id":"b2b091c7-ef42-4c06-871f-fd9e224b498e","system_id":"levelo_inurba_marseille","lat":43.30928,"lon":5.40141,"is_reserved":false,"is_disabled":false,"rental_uris":{"android":"levelo://app?vid=b2b091c7-ef42-4c06-871f-fd9e224b498e","ios":"levelo://app?vid=b2b091c7-ef42-4c06-871f-fd9e224b498e"},"vehicle_type_id":"4","last_reported":1749625840,"current_range_meters":8800,"station_id":"ce4bgvp2rcd13ifvqct0","pricing_plan_id":"cebpf4jnsgd1na2vs0mg"},{"bike_id":"71dc4462-a789-43ea-bf4b-c8893020ffe4","system_id":"levelo_inurba_marseille","lat":43.29269,"lon":5.37633,"is_reserved":false,"is_disabled":false,"rental_uris":{"android":"levelo://app?vid=71dc4462-a789-43ea-bf4b-c8893020ffe4","ios":"levelo://app?vid=71dc4462-a789-43ea-bf4b-c8893020ffe4"},"vehicle_type_id":"4","last_reported":1749625840,"current_range_meters":8800,"station_id":"ce4bgi12rcd13ifvqb80","pricing_plan_id":"cebpf4jnsgd1na2vs0mg"},{"bike_id":"a679cb80-4242-4d18-a97e-ea4a60dc83be","system_id":"levelo_inurba_marseille","lat":43.321874,"lon":5.413081,"is_reserved":false,"is_disabled":false,"rental_uris":{"android":"levelo://app?vid=a679cb80-4242-4d18-a97e-ea4a60dc83be","ios":"levelo://app?vid=a679cb80-4242-4d18-a97e-ea4a60dc83be"},"vehicle_type_id":"4","last_reported":1749625840,"current_range_meters":8800,"station_id":"","pricing_plan_id":"cebpf4jnsgd1na2vs0mg"},{"bike_id":"247bf4d1-ea2b-4e09-b584-ac3f9a91ae37","system_id":"levelo_inurba_marseille","lat":43.307996,"lon":5.435364,"is_reserved":false,"is_disabled":false,"rental_uris":{"android":"levelo://app?vid=247bf4d1-ea2b-4e09-b584-ac3f9a91ae37","ios":"levelo://app?vid=247bf4d1-ea2b-4e09-b584-ac3f9a91ae37"},"vehicle_type_id":"4","last_reported":1749625840,"current_range_meters":8800,"station_id":"ce4bhph2rcd13ifvqheg","pricing_plan_id":"cebpf4jnsgd1na2vs0mg"},{"bike_id":"e3c17200-0403-46bb-95bf-38d3bff53fa3","system_id":"levelo_inurba_marseille","lat":43.31329,"lon":5.396907,"is_reserved":false,"is_disabled":false,"rental_uris":{"android":"levelo://app?vid=e3c17200-0403-46bb-95bf-38d3bff53fa3","ios":"levelo://app?vid=e3c17200-0403-46bb-95bf-38d3bff53fa3"},"vehicle_type_id":"4","last_reported":1749625840,"current_range_meters":8800,"station_id":"ce4bgvp2rcd13ifvqcu0","pricing_plan_id":"cebpf4jnsgd1na2vs0mg"},{"bike_id":"2fb82a4e-0ee1-4839-87e1-0819fb18ed3d","system_id":"levelo_inurba_marseille","lat":43.2706,"lon":5.42271,"is_reserved":false,"is_disabled":true,"rental_uris":{"android":"levelo://app?vid=2fb82a4e-0ee1-4839-87e1-0819fb18ed3d","ios":"levelo://app?vid=2fb82a4e-0ee1-4839-87e1-0819fb18ed3d"},"vehicle_type_id":"4","last_reported":1749625840,"current_range_meters":8800,"station_id":"ce4bhk92rcd13ifvqgb0","pricing_plan_id":"cebpf4jnsgd1na2vs0mg"},{"bike_id":"5077581b-cebb-46fc-ba69-4fa8272d4810","system_id":"levelo_inurba_marseille","lat":43.213662,"lon":5.355259,"is_reserved":false,"is_disabled":false,"rental_uris":{"android":"levelo://app?vid=5077581b-cebb-46fc-ba69-4fa8272d4810","ios":"levelo://app?vid=5077581b-cebb-46fc-ba69-4fa8272d4810"},"vehicle_type_id":"4","last_reported":1749625840,"current_range_meters":9200,"station_id":"","pricing_plan_id":"cebpf4jnsgd1na2vs0mg"},{"bike_id":"32b62a51-6893-43fc-a047-9897e164dcd4","system_id":"levelo_inurba_marseille","lat":43.31707,"lon":5.37742,"is_reserved":false,"is_disabled":false,"rental_uris":{"android":"levelo://app?vid=32b62a51-6893-43fc-a047-9897e164dcd4","ios":"levelo://app?vid=32b62a51-6893-43fc-a047-9897e164dcd4"},"vehicle_type_id":"4","last_reported":1749625840,"current_range_meters":9200,"station_id":"ce4bgth2rcd13ifvqch0","pricing_plan_id":"cebpf4jnsgd1na2vs0mg"},{"bike_id":"b1e2c716-9c5d-497d-aff1-1d0015c40748","system_id":"levelo_inurba_marseille","lat":43.3054,"lon":5.3656,"is_reserved":false,"is_disabled":false,"rental_uris":{"android":"levelo://app?vid=b1e2c716-9c5d-497d-aff1-1d0015c40748","ios":"levelo://app?vid=b1e2c716-9c5d-497d-aff1-1d0015c40748"},"vehicle_type_id":"4","last_reported":1749625840,"current_range_meters":9200,"station_id":"ce4bgs12rcd13ifvqcag","pricing_plan_id":"cebpf4jnsgd1na2vs0mg"},{"bike_id":"aa5ff6c8-e238-4c10-a7b2-9520c56b0e3f","system_id":"levelo_inurba_marseille","lat":43.31498,"lon":5.373107,"is_reserved":false,"is_disabled":false,"rental_uris":{"android":"levelo://app?vid=aa5ff6c8-e238-4c10-a7b2-9520c56b0e3f","ios":"levelo://app?vid=aa5ff6c8-e238-4c10-a7b2-9520c56b0e3f"},"vehicle_type_id":"4","last_reported":1749625840,"current_range_meters":9200,"station_id":"ce4bgt12rcd13ifvqcd0","pricing_plan_id":"cebpf4jnsgd1na2vs0mg"},{"bike_id":"89751972-2148-47e8-a9f5-6238a039cba7","system_id":"levelo_inurba_marseille","lat":43.30555,"lon":5.3652,"is_reserved":false,"is_disabled":false,"rental_uris":{"android":"levelo://app?vid=89751972-2148-47e8-a9f5-6238a039cba7","ios":"levelo://app?vid=89751972-2148-47e8-a9f5-6238a039cba7"},"vehicle_type_id":"4","last_reported":1749625840,"current_range_meters":9200,"station_id":"ce4bgs12rcd13ifvqcag","pricing_plan_id":"cebpf4jnsgd1na2vs0mg"},{"bike_id":"5a8aebc1-4b9f-40cd-af06-b2c2750a7146","system_id":"levelo_inurba_marseille","lat":43.317554,"lon":5.390252,"is_reserved":false,"is_disabled":false,"rental_uris":{"android":"levelo://app?vid=5a8aebc1-4b9f-40cd-af06-b2c2750a7146","ios":"levelo://app?vid=5a8aebc1-4b9f-40cd-af06-b2c2750a7146"},"vehicle_type_id":"4","last_reported":1749625840,"current_range_meters":9200,"station_id":"ce4bhqp2rcd13ifvqhng","pricing_plan_id":"cebpf4jnsgd1na2vs0mg"},{"bike_id":"c96c724b-fbaf-464c-9798-7401c3f83174","system_id":"levelo_inurba_marseille","lat":43.30166,"lon":5.38083,"is_reserved":false,"is_disabled":false,"rental_uris":{"android":"levelo://app?vid=c96c724b-fbaf-464c-9798-7401c3f83174","ios":"levelo://app?vid=c96c724b-fbaf-464c-9798-7401c3f83174"},"vehicle_type_id":"4","last_reported":1749625840,"current_range_meters":9600,"station_id":"ce4bgjp2rcd13ifvqbh0","pricing_plan_id":"cebpf4jnsgd1na2vs0mg"},{"bike_id":"ea3aa8cc-3da5-4c9f-b785-438f25aae8ad","system_id":"levelo_inurba_marseille","lat":43.30931,"lon":5.4014,"is_reserved":false,"is_disabled":false,"rental_uris":{"android":"levelo://app?vid=ea3aa8cc-3da5-4c9f-b785-438f25aae8ad","ios":"levelo://app?vid=ea3aa8cc-3da5-4c9f-b785-438f25aae8ad"},"vehicle_type_id":"4","last_reported":1749625840,"current_range_meters":9600,"station_id":"ce4bgvp2rcd13ifvqct0","pricing_plan_id":"cebpf4jnsgd1na2vs0mg"},{"bike_id":"60f440a3-f416-4034-8f3c-58318f9cd70c","system_id":"levelo_inurba_marseille","lat":43.32535,"lon":5.41427,"is_reserved":false,"is_disabled":false,"rental_uris":{"android":"levelo://app?vid=60f440a3-f416-4034-8f3c-58318f9cd70c","ios":"levelo://app?vid=60f440a3-f416-4034-8f3c-58318f9cd70c"},"vehicle_type_id":"4","last_reported":1749625840,"current_range_meters":9600,"station_id":"ce4bhq12rcd13ifvqhhg","pricing_plan_id":"cebpf4jnsgd1na2vs0mg"},{"bike_id":"070924f3-1016-4542-a776-1e739f01cfb0","system_id":"levelo_inurba_marseille","lat":43.28723,"lon":5.39993,"is_reserved":false,"is_disabled":true,"rental_uris":{"android":"levelo://app?vid=070924f3-1016-4542-a776-1e739f01cfb0","ios":"levelo://app?vid=070924f3-1016-4542-a776-1e739f01cfb0"},"vehicle_type_id":"4","last_reported":1749625840,"current_range_meters":10800,"station_id":"ce4bho92rcd13ifvqh3g","pricing_plan_id":"cebpf4jnsgd1na2vs0mg"},{"bike_id":"4bc01087-5ba3-41a5-9286-e8c8f55bcaa0","system_id":"levelo_inurba_marseille","lat":43.25491,"lon":5.37645,"is_reserved":false,"is_disabled":true,"rental_uris":{"android":"levelo://app?vid=4bc01087-5ba3-41a5-9286-e8c8f55bcaa0","ios":"levelo://app?vid=4bc01087-5ba3-41a5-9286-e8c8f55bcaa0"},"vehicle_type_id":"4","last_reported":1749625840,"current_range_meters":9600,"station_id":"ce4bhh12rcd13ifvqff0","pricing_plan_id":"cebpf4jnsgd1na2vs0mg"},{"bike_id":"ca27e12a-1f2d-4cf2-be29-12a2b9ff1547","system_id":"levelo_inurba_marseille","lat":43.317144,"lon":5.424046,"is_reserved":false,"is_disabled":false,"rental_uris":{"android":"levelo://app?vid=ca27e12a-1f2d-4cf2-be29-12a2b9ff1547","ios":"levelo://app?vid=ca27e12a-1f2d-4cf2-be29-12a2b9ff1547"},"vehicle_type_id":"4","last_reported":1749625840,"current_range_meters":9600,"station_id":"ce4bhp92rcd13ifvqhbg","pricing_plan_id":"cebpf4jnsgd1na2vs0mg"},{"bike_id":"d45a0a92-47af-4e28-a2db-1d41183c9d26","system_id":"levelo_inurba_marseille","lat":43.30375,"lon":5.42487,"is_reserved":false,"is_disabled":false,"rental_uris":{"android":"levelo://app?vid=d45a0a92-47af-4e28-a2db-1d41183c9d26","ios":"levelo://app?vid=d45a0a92-47af-4e28-a2db-1d41183c9d26"},"vehicle_type_id":"4","last_reported":1749625840,"current_range_meters":10000,"station_id":"ce4bhoh2rcd13ifvqh6g","pricing_plan_id":"cebpf4jnsgd1na2vs0mg"},{"bike_id":"3dfd0bdc-5347-4837-afd5-cedae3349545","system_id":"levelo_inurba_marseille","lat":43.23185,"lon":5.39993,"is_reserved":false,"is_disabled":false,"rental_uris":{"android":"levelo://app?vid=3dfd0bdc-5347-4837-afd5-cedae3349545","ios":"levelo://app?vid=3dfd0bdc-5347-4837-afd5-cedae3349545"},"vehicle_type_id":"4","last_reported":1749625840,"current_range_meters":10000,"station_id":"ce4bhn12rcd13ifvqgqg","pricing_plan_id":"cebpf4jnsgd1na2vs0mg"},{"bike_id":"7827f560-396e-4aa9-ab9a-a4e8cbce4e7d","system_id":"levelo_inurba_marseille","lat":43.308442,"lon":5.368068,"is_reserved":false,"is_disabled":false,"rental_uris":{"android":"levelo://app?vid=7827f560-396e-4aa9-ab9a-a4e8cbce4e7d","ios":"levelo://app?vid=7827f560-396e-4aa9-ab9a-a4e8cbce4e7d"},"vehicle_type_id":"4","last_reported":1749625840,"current_range_meters":10000,"station_id":"","pricing_plan_id":"cebpf4jnsgd1na2vs0mg"},{"bike_id":"ab5d796b-6f87-4b6e-a5bd-6ac051fcacd1","system_id":"levelo_inurba_marseille","lat":43.324868,"lon":5.365706,"is_reserved":false,"is_disabled":false,"rental_uris":{"android":"levelo://app?vid=ab5d796b-6f87-4b6e-a5bd-6ac051fcacd1","ios":"levelo://app?vid=ab5d796b-6f87-4b6e-a5bd-6ac051fcacd1"},"vehicle_type_id":"4","last_reported":1749625840,"current_range_meters":10000,"station_id":"ce4bhs12rcd13ifvqhvg","pricing_plan_id":"cebpf4jnsgd1na2vs0mg"},{"bike_id":"403b571b-5169-4183-b1c0-036767db5bf7","system_id":"levelo_inurba_marseille","lat":43.26556,"lon":5.39014,"is_reserved":false,"is_disabled":false,"rental_uris":{"android":"levelo://app?vid=403b571b-5169-4183-b1c0-036767db5bf7","ios":"levelo://app?vid=403b571b-5169-4183-b1c0-036767db5bf7"},"vehicle_type_id":"4","last_reported":1749625840,"current_range_meters":10000,"station_id":"ce4bhe12rcd13ifvqf30","pricing_plan_id":"cebpf4jnsgd1na2vs0mg"},{"bike_id":"187b0a7b-e256-4c19-9794-bb250a6c5653","system_id":"levelo_inurba_marseille","lat":43.31846,"lon":5.37926,"is_reserved":false,"is_disabled":false,"rental_uris":{"android":"levelo://app?vid=187b0a7b-e256-4c19-9794-bb250a6c5653","ios":"levelo://app?vid=187b0a7b-e256-4c19-9794-bb250a6c5653"},"vehicle_type_id":"4","last_reported":1749625840,"current_range_meters":10000,"station_id":"","pricing_plan_id":"cebpf4jnsgd1na2vs0mg"},{"bike_id":"15138ce4-9850-4a09-9eb2-0da12393d0d8","system_id":"levelo_inurba_marseille","lat":43.31715,"lon":5.43696,"is_reserved":false,"is_disabled":false,"rental_uris":{"android":"levelo://app?vid=15138ce4-9850-4a09-9eb2-0da12393d0d8","ios":"levelo://app?vid=15138ce4-9850-4a09-9eb2-0da12393d0d8"},"vehicle_type_id":"4","last_reported":1749625840,"current_range_meters":10000,"station_id":"ce4bhp92rcd13ifvqhcg","pricing_plan_id":"cebpf4jnsgd1na2vs0mg"},{"bike_id":"6181a8f6-1227-49a1-9beb-bb1c37c1ae5c","system_id":"levelo_inurba_marseille","lat":43.27986,"lon":5.41666,"is_reserved":false,"is_disabled":true,"rental_uris":{"android":"levelo://app?vid=6181a8f6-1227-49a1-9beb-bb1c37c1ae5c","ios":"levelo://app?vid=6181a8f6-1227-49a1-9beb-bb1c37c1ae5c"},"vehicle_type_id":"4","last_reported":1749625840,"current_range_meters":10800,"station_id":"ce4bho12rcd13ifvqh1g","pricing_plan_id":"cebpf4jnsgd1na2vs0mg"},{"bike_id":"413191a8-b99c-4b21-ad14-c915925f20ff","system_id":"levelo_inurba_marseille","lat":43.280027,"lon":5.425,"is_reserved":false,"is_disabled":true,"rental_uris":{"android":"levelo://app?vid=413191a8-b99c-4b21-ad14-c915925f20ff","ios":"levelo://app?vid=413191a8-b99c-4b21-ad14-c915925f20ff"},"vehicle_type_id":"4","last_reported":1749625840,"current_range_meters":10800,"station_id":"","pricing_plan_id":"cebpf4jnsgd1na2vs0mg"},{"bike_id":"c30dbedc-c866-492b-a092-32c1ee0c1f22","system_id":"levelo_inurba_marseille","lat":43.29536,"lon":5.38551,"is_reserved":false,"is_disabled":true,"rental_uris":{"android":"levelo://app?vid=c30dbedc-c866-492b-a092-32c1ee0c1f22","ios":"levelo://app?vid=c30dbedc-c866-492b-a092-32c1ee0c1f22"},"vehicle_type_id":"4","last_reported":1749625840,"current_range_meters":10800,"station_id":"ce4bgih2rcd13ifvqba0","pricing_plan_id":"cebpf4jnsgd1na2vs0mg"},{"bike_id":"55b7171e-3eba-4412-b568-99c2bd3afd38","system_id":"levelo_inurba_marseille","lat":43.318967,"lon":5.407404,"is_reserved":false,"is_disabled":true,"rental_uris":{"android":"levelo://app?vid=55b7171e-3eba-4412-b568-99c2bd3afd38","ios":"levelo://app?vid=55b7171e-3eba-4412-b568-99c2bd3afd38"},"vehicle_type_id":"4","last_reported":1749625840,"current_range_meters":10800,"station_id":"ce4bhq12rcd13ifvqhig","pricing_plan_id":"cebpf4jnsgd1na2vs0mg"},{"bike_id":"236e422e-563d-45a9-89dd-b134d86f6f50","system_id":"levelo_inurba_marseille","lat":43.292172,"lon":5.396121,"is_reserved":false,"is_disabled":false,"rental_uris":{"android":"levelo://app?vid=236e422e-563d-45a9-89dd-b134d86f6f50","ios":"levelo://app?vid=236e422e-563d-45a9-89dd-b134d86f6f50"},"vehicle_type_id":"4","last_reported":1749625840,"current_range_meters":10800,"station_id":"","pricing_plan_id":"cebpf4jnsgd1na2vs0mg"},{"bike_id":"3ee6165b-b2c0-4036-a331-ec913cfc06b4","system_id":"levelo_inurba_marseille","lat":43.27906,"lon":5.3801,"is_reserved":false,"is_disabled":false,"rental_uris":{"android":"levelo://app?vid=3ee6165b-b2c0-4036-a331-ec913cfc06b4","ios":"levelo://app?vid=3ee6165b-b2c0-4036-a331-ec913cfc06b4"},"vehicle_type_id":"4","last_reported":1749625840,"current_range_meters":10800,"station_id":"ce4bhf92rcd13ifvqf50","pricing_plan_id":"cebpf4jnsgd1na2vs0mg"},{"bike_id":"1e20f032-0f6a-40b2-ad29-e4d2225496fa","system_id":"levelo_inurba_marseille","lat":43.30282,"lon":5.37072,"is_reserved":false,"is_disabled":false,"rental_uris":{"android":"levelo://app?vid=1e20f032-0f6a-40b2-ad29-e4d2225496fa","ios":"levelo://app?vid=1e20f032-0f6a-40b2-ad29-e4d2225496fa"},"vehicle_type_id":"4","last_reported":1749625840,"current_range_meters":10800,"station_id":"","pricing_plan_id":"cebpf4jnsgd1na2vs0mg"},{"bike_id":"1d282a40-9896-4445-92da-37b09bfc0d2a","system_id":"levelo_inurba_marseille","lat":43.27211,"lon":5.39191,"is_reserved":false,"is_disabled":false,"rental_uris":{"android":"levelo://app?vid=1d282a40-9896-4445-92da-37b09bfc0d2a","ios":"levelo://app?vid=1d282a40-9896-4445-92da-37b09bfc0d2a"},"vehicle_type_id":"4","last_reported":1749625840,"current_range_meters":10800,"station_id":"ce4bhhp2rcd13ifvqfm0","pricing_plan_id":"cebpf4jnsgd1na2vs0mg"},{"bike_id":"24677b43-078a-4210-ad8c-935106b74628","system_id":"levelo_inurba_marseille","lat":43.30305,"lon":5.36905,"is_reserved":false,"is_disabled":false,"rental_uris":{"android":"levelo://app?vid=24677b43-078a-4210-ad8c-935106b74628","ios":"levelo://app?vid=24677b43-078a-4210-ad8c-935106b74628"},"vehicle_type_id":"4","last_reported":1749625840,"current_range_meters":10800,"station_id":"ce4bgqh2rcd13ifvqc5g","pricing_plan_id":"cebpf4jnsgd1na2vs0mg"},{"bike_id":"2909fdf1-5de0-4015-965c-4039eac7212a","system_id":"levelo_inurba_marseille","lat":43.31686,"lon":5.40463,"is_reserved":false,"is_disabled":false,"rental_uris":{"android":"levelo://app?vid=2909fdf1-5de0-4015-965c-4039eac7212a","ios":"levelo://app?vid=2909fdf1-5de0-4015-965c-4039eac7212a"},"vehicle_type_id":"4","last_reported":1749625840,"current_range_meters":11200,"station_id":"ce4bh012rcd13ifvqd00","pricing_plan_id":"cebpf4jnsgd1na2vs0mg"},{"bike_id":"481c5e6f-f95f-4e4b-a27a-dc3a35cfa976","system_id":"levelo_inurba_marseille","lat":43.30906,"lon":5.36844,"is_reserved":false,"is_disabled":false,"rental_uris":{"android":"levelo://app?vid=481c5e6f-f95f-4e4b-a27a-dc3a35cfa976","ios":"levelo://app?vid=481c5e6f-f95f-4e4b-a27a-dc3a35cfa976"},"vehicle_type_id":"4","last_reported":1749625840,"current_range_meters":11200,"station_id":"ce4bgn92rcd13ifvqbvg","pricing_plan_id":"cebpf4jnsgd1na2vs0mg"},{"bike_id":"bee56db6-494e-47cf-9047-47a632945433","system_id":"levelo_inurba_marseille","lat":43.26493,"lon":5.3955,"is_reserved":false,"is_disabled":false,"rental_uris":{"android":"levelo://app?vid=bee56db6-494e-47cf-9047-47a632945433","ios":"levelo://app?vid=bee56db6-494e-47cf-9047-47a632945433"},"vehicle_type_id":"4","last_reported":1749625840,"current_range_meters":11200,"station_id":"ce4bhi12rcd13ifvqfq0","pricing_plan_id":"cebpf4jnsgd1na2vs0mg"},{"bike_id":"576dcb57-47da-4cb1-b417-8674875acb4a","system_id":"levelo_inurba_marseille","lat":43.302202,"lon":5.394767,"is_reserved":false,"is_disabled":false,"rental_uris":{"android":"levelo://app?vid=576dcb57-47da-4cb1-b417-8674875acb4a","ios":"levelo://app?vid=576dcb57-47da-4cb1-b417-8674875acb4a"},"vehicle_type_id":"4","last_reported":1749625840,"current_range_meters":11200,"station_id":"ce4bh0p2rcd13ifvqd70","pricing_plan_id":"cebpf4jnsgd1na2vs0mg"},{"bike_id":"0917dc07-1198-4902-b422-c5fc9e6fcca4","system_id":"levelo_inurba_marseille","lat":43.31314,"lon":5.39722,"is_reserved":false,"is_disabled":true,"rental_uris":{"android":"levelo://app?vid=0917dc07-1198-4902-b422-c5fc9e6fcca4","ios":"levelo://app?vid=0917dc07-1198-4902-b422-c5fc9e6fcca4"},"vehicle_type_id":"4","last_reported":1749625840,"current_range_meters":11600,"station_id":"ce4bgvp2rcd13ifvqcu0","pricing_plan_id":"cebpf4jnsgd1na2vs0mg"},{"bike_id":"e6d67648-0d34-4392-8e2c-f83f208c9d05","system_id":"levelo_inurba_marseille","lat":43.31673,"lon":5.40493,"is_reserved":false,"is_disabled":false,"rental_uris":{"android":"levelo://app?vid=e6d67648-0d34-4392-8e2c-f83f208c9d05","ios":"levelo://app?vid=e6d67648-0d34-4392-8e2c-f83f208c9d05"},"vehicle_type_id":"4","last_reported":1749625840,"current_range_meters":11600,"station_id":"ce4bh012rcd13ifvqd00","pricing_plan_id":"cebpf4jnsgd1na2vs0mg"},{"bike_id":"83c117a4-4454-49a9-9b2f-e548255e6ba9","system_id":"levelo_inurba_marseille","lat":43.25718,"lon":5.41114,"is_reserved":false,"is_disabled":false,"rental_uris":{"android":"levelo://app?vid=83c117a4-4454-49a9-9b2f-e548255e6ba9","ios":"levelo://app?vid=83c117a4-4454-49a9-9b2f-e548255e6ba9"},"vehicle_type_id":"4","last_reported":1749625840,"current_range_meters":11600,"station_id":"ce4bhkp2rcd13ifvqgd0","pricing_plan_id":"cebpf4jnsgd1na2vs0mg"},{"bike_id":"fd1d14a0-1a3e-4eb9-b19e-044738f5d1c3","system_id":"levelo_inurba_marseille","lat":43.28986,"lon":5.356,"is_reserved":false,"is_disabled":true,"rental_uris":{"android":"levelo://app?vid=fd1d14a0-1a3e-4eb9-b19e-044738f5d1c3","ios":"levelo://app?vid=fd1d14a0-1a3e-4eb9-b19e-044738f5d1c3"},"vehicle_type_id":"4","last_reported":1749625840,"current_range_meters":11600,"station_id":"ce4bhb92rcd13ifvqen0","pricing_plan_id":"cebpf4jnsgd1na2vs0mg"},{"bike_id":"262903a9-22b9-4b2d-96c2-2e5dbd155090","system_id":"levelo_inurba_marseille","lat":43.32457,"lon":5.36589,"is_reserved":false,"is_disabled":false,"rental_uris":{"android":"levelo://app?vid=262903a9-22b9-4b2d-96c2-2e5dbd155090","ios":"levelo://app?vid=262903a9-22b9-4b2d-96c2-2e5dbd155090"},"vehicle_type_id":"4","last_reported":1749625840,"current_range_meters":12000,"station_id":"ce4bhs12rcd13ifvqhvg","pricing_plan_id":"cebpf4jnsgd1na2vs0mg"},{"bike_id":"a6a9aa78-7299-47ac-a784-76282a099506","system_id":"levelo_inurba_marseille","lat":43.30155,"lon":5.38079,"is_reserved":false,"is_disabled":false,"rental_uris":{"android":"levelo://app?vid=a6a9aa78-7299-47ac-a784-76282a099506","ios":"levelo://app?vid=a6a9aa78-7299-47ac-a784-76282a099506"},"vehicle_type_id":"4","last_reported":1749625840,"current_range_meters":12000,"station_id":"ce4bgjp2rcd13ifvqbh0","pricing_plan_id":"cebpf4jnsgd1na2vs0mg"},{"bike_id":"e857b26f-e98d-4e5b-a472-9489934cc3bc","system_id":"levelo_inurba_marseille","lat":43.309234,"lon":5.401411,"is_reserved":false,"is_disabled":true,"rental_uris":{"android":"levelo://app?vid=e857b26f-e98d-4e5b-a472-9489934cc3bc","ios":"levelo://app?vid=e857b26f-e98d-4e5b-a472-9489934cc3bc"},"vehicle_type_id":"4","last_reported":1749625840,"current_range_meters":12000,"station_id":"ce4bgvp2rcd13ifvqct0","pricing_plan_id":"cebpf4jnsgd1na2vs0mg"},{"bike_id":"77f6f3b8-304d-45f4-909b-fe68944bc597","system_id":"levelo_inurba_marseille","lat":43.3171,"lon":5.40465,"is_reserved":false,"is_disabled":false,"rental_uris":{"android":"levelo://app?vid=77f6f3b8-304d-45f4-909b-fe68944bc597","ios":"levelo://app?vid=77f6f3b8-304d-45f4-909b-fe68944bc597"},"vehicle_type_id":"4","last_reported":1749625840,"current_range_meters":12000,"station_id":"ce4bh012rcd13ifvqd00","pricing_plan_id":"cebpf4jnsgd1na2vs0mg"},{"bike_id":"c12a43dd-d6f2-41de-a6c5-03c32c4840c8","system_id":"levelo_inurba_marseille","lat":43.30158,"lon":5.38087,"is_reserved":false,"is_disabled":false,"rental_uris":{"android":"levelo://app?vid=c12a43dd-d6f2-41de-a6c5-03c32c4840c8","ios":"levelo://app?vid=c12a43dd-d6f2-41de-a6c5-03c32c4840c8"},"vehicle_type_id":"4","last_reported":1749625840,"current_range_meters":12000,"station_id":"ce4bgjp2rcd13ifvqbh0","pricing_plan_id":"cebpf4jnsgd1na2vs0mg"},{"bike_id":"84f5a926-1dd6-4535-b647-2764ce0ca103","system_id":"levelo_inurba_marseille","lat":43.321114,"lon":5.367791,"is_reserved":false,"is_disabled":false,"rental_uris":{"android":"levelo://app?vid=84f5a926-1dd6-4535-b647-2764ce0ca103","ios":"levelo://app?vid=84f5a926-1dd6-4535-b647-2764ce0ca103"},"vehicle_type_id":"4","last_reported":1749625840,"current_range_meters":12000,"station_id":"ce4bhrh2rcd13ifvqhug","pricing_plan_id":"cebpf4jnsgd1na2vs0mg"},{"bike_id":"c4ac7a5c-c960-4c83-b776-b8ff573e7853","system_id":"levelo_inurba_marseille","lat":43.30365,"lon":5.42489,"is_reserved":false,"is_disabled":false,"rental_uris":{"android":"levelo://app?vid=c4ac7a5c-c960-4c83-b776-b8ff573e7853","ios":"levelo://app?vid=c4ac7a5c-c960-4c83-b776-b8ff573e7853"},"vehicle_type_id":"4","last_reported":1749625840,"current_range_meters":12000,"station_id":"ce4bhoh2rcd13ifvqh6g","pricing_plan_id":"cebpf4jnsgd1na2vs0mg"},{"bike_id":"72a94b25-2fe0-4919-8521-e8b66695aa46","system_id":"levelo_inurba_marseille","lat":43.286987,"lon":5.399945,"is_reserved":false,"is_disabled":false,"rental_uris":{"android":"levelo://app?vid=72a94b25-2fe0-4919-8521-e8b66695aa46","ios":"levelo://app?vid=72a94b25-2fe0-4919-8521-e8b66695aa46"},"vehicle_type_id":"4","last_reported":1749625840,"current_range_meters":12400,"station_id":"","pricing_plan_id":"cebpf4jnsgd1na2vs0mg"},{"bike_id":"7267b302-34e6-46fb-9a59-d9237a82b293","system_id":"levelo_inurba_marseille","lat":43.30531,"lon":5.36711,"is_reserved":false,"is_disabled":false,"rental_uris":{"android":"levelo://app?vid=7267b302-34e6-46fb-9a59-d9237a82b293","ios":"levelo://app?vid=7267b302-34e6-46fb-9a59-d9237a82b293"},"vehicle_type_id":"4","last_reported":1749625840,"current_range_meters":12400,"station_id":"ce4bgrp2rcd13ifvqc9g","pricing_plan_id":"cebpf4jnsgd1na2vs0mg"},{"bike_id":"4c1d17d4-327b-412a-b5fe-13fda86712c4","system_id":"levelo_inurba_marseille","lat":43.27486,"lon":5.42469,"is_reserved":false,"is_disabled":false,"rental_uris":{"android":"levelo://app?vid=4c1d17d4-327b-412a-b5fe-13fda86712c4","ios":"levelo://app?vid=4c1d17d4-327b-412a-b5fe-13fda86712c4"},"vehicle_type_id":"4","last_reported":1749625840,"current_range_meters":12400,"station_id":"ce4bhn92rcd13ifvqgrg","pricing_plan_id":"cebpf4jnsgd1na2vs0mg"},{"bike_id":"c43fe918-bbce-4c81-b905-f4ca5ca72e1a","system_id":"levelo_inurba_marseille","lat":43.31066,"lon":5.38357,"is_reserved":false,"is_disabled":false,"rental_uris":{"android":"levelo://app?vid=c43fe918-bbce-4c81-b905-f4ca5ca72e1a","ios":"levelo://app?vid=c43fe918-bbce-4c81-b905-f4ca5ca72e1a"},"vehicle_type_id":"4","last_reported":1749625840,"current_range_meters":12400,"station_id":"ce4bgv92rcd13ifvqcr0","pricing_plan_id":"cebpf4jnsgd1na2vs0mg"},{"bike_id":"24d19777-6ba9-4a07-b074-32c88a360f61","system_id":"levelo_inurba_marseille","lat":43.28975,"lon":5.37854,"is_reserved":false,"is_disabled":false,"rental_uris":{"android":"levelo://app?vid=24d19777-6ba9-4a07-b074-32c88a360f61","ios":"levelo://app?vid=24d19777-6ba9-4a07-b074-32c88a360f61"},"vehicle_type_id":"4","last_reported":1749625840,"current_range_meters":12800,"station_id":"ce4bh9p2rcd13ifvqed0","pricing_plan_id":"cebpf4jnsgd1na2vs0mg"},{"bike_id":"afef7fca-ab8c-462d-a535-ad9eb1fde279","system_id":"levelo_inurba_marseille","lat":43.2418,"lon":5.39739,"is_reserved":false,"is_disabled":false,"rental_uris":{"android":"levelo://app?vid=afef7fca-ab8c-462d-a535-ad9eb1fde279","ios":"levelo://app?vid=afef7fca-ab8c-462d-a535-ad9eb1fde279"},"vehicle_type_id":"4","last_reported":1749625840,"current_range_meters":12800,"station_id":"ce4bhn12rcd13ifvqgpg","pricing_plan_id":"cebpf4jnsgd1na2vs0mg"},{"bike_id":"07ef5da2-09d5-494f-9011-3bb880f6be8b","system_id":"levelo_inurba_marseille","lat":43.259277,"lon":5.409069,"is_reserved":false,"is_disabled":false,"rental_uris":{"android":"levelo://app?vid=07ef5da2-09d5-494f-9011-3bb880f6be8b","ios":"levelo://app?vid=07ef5da2-09d5-494f-9011-3bb880f6be8b"},"vehicle_type_id":"4","last_reported":1749625840,"current_range_meters":12800,"station_id":"","pricing_plan_id":"cebpf4jnsgd1na2vs0mg"},{"bike_id":"91252cb4-db98-4cff-ba49-0337a6eacf8f","system_id":"levelo_inurba_marseille","lat":43.31979,"lon":5.38766,"is_reserved":false,"is_disabled":false,"rental_uris":{"android":"levelo://app?vid=91252cb4-db98-4cff-ba49-0337a6eacf8f","ios":"levelo://app?vid=91252cb4-db98-4cff-ba49-0337a6eacf8f"},"vehicle_type_id":"4","last_reported":1749625840,"current_range_meters":12800,"station_id":"","pricing_plan_id":"cebpf4jnsgd1na2vs0mg"},{"bike_id":"c6d8aa8d-469c-4e4f-a44e-63d34d4e2f4e","system_id":"levelo_inurba_marseille","lat":43.30902,"lon":5.37183,"is_reserved":false,"is_disabled":false,"rental_uris":{"android":"levelo://app?vid=c6d8aa8d-469c-4e4f-a44e-63d34d4e2f4e","ios":"levelo://app?vid=c6d8aa8d-469c-4e4f-a44e-63d34d4e2f4e"},"vehicle_type_id":"4","last_reported":1749625840,"current_range_meters":13600,"station_id":"ce4bguh2rcd13ifvqckg","pricing_plan_id":"cebpf4jnsgd1na2vs0mg"},{"bike_id":"832f853b-7624-4fdb-af3c-8f57a235a7ad","system_id":"levelo_inurba_marseille","lat":43.294151,"lon":5.38623,"is_reserved":false,"is_disabled":false,"rental_uris":{"android":"levelo://app?vid=832f853b-7624-4fdb-af3c-8f57a235a7ad","ios":"levelo://app?vid=832f853b-7624-4fdb-af3c-8f57a235a7ad"},"vehicle_type_id":"4","last_reported":1749625840,"current_range_meters":13600,"station_id":"ce4bh2h2rcd13ifvqdh0","pricing_plan_id":"cebpf4jnsgd1na2vs0mg"},{"bike_id":"ed38c509-2da4-43d9-ad88-0d8e7b872a63","system_id":"levelo_inurba_marseille","lat":43.30142,"lon":5.37428,"is_reserved":false,"is_disabled":false,"rental_uris":{"android":"levelo://app?vid=ed38c509-2da4-43d9-ad88-0d8e7b872a63","ios":"levelo://app?vid=ed38c509-2da4-43d9-ad88-0d8e7b872a63"},"vehicle_type_id":"4","last_reported":1749625840,"current_range_meters":13600,"station_id":"ce4bgs92rcd13ifvqcc0","pricing_plan_id":"cebpf4jnsgd1na2vs0mg"},{"bike_id":"7130eafd-58ef-49e3-8296-da23b92ff172","system_id":"levelo_inurba_marseille","lat":43.2469,"lon":5.39429,"is_reserved":false,"is_disabled":true,"rental_uris":{"android":"levelo://app?vid=7130eafd-58ef-49e3-8296-da23b92ff172","ios":"levelo://app?vid=7130eafd-58ef-49e3-8296-da23b92ff172"},"vehicle_type_id":"4","last_reported":1749625840,"current_range_meters":14000,"station_id":"","pricing_plan_id":"cebpf4jnsgd1na2vs0mg"},{"bike_id":"4ac55865-de56-42ff-9c2f-27be692fc73d","system_id":"levelo_inurba_marseille","lat":43.26989,"lon":5.38768,"is_reserved":false,"is_disabled":false,"rental_uris":{"android":"levelo://app?vid=4ac55865-de56-42ff-9c2f-27be692fc73d","ios":"levelo://app?vid=4ac55865-de56-42ff-9c2f-27be692fc73d"},"vehicle_type_id":"4","last_reported":1749625840,"current_range_meters":14000,"station_id":"","pricing_plan_id":"cebpf4jnsgd1na2vs0mg"},{"bike_id":"4727b314-3bd1-43f9-b43d-76c9166f290d","system_id":"levelo_inurba_marseille","lat":43.32359,"lon":5.4057,"is_reserved":false,"is_disabled":false,"rental_uris":{"android":"levelo://app?vid=4727b314-3bd1-43f9-b43d-76c9166f290d","ios":"levelo://app?vid=4727b314-3bd1-43f9-b43d-76c9166f290d"},"vehicle_type_id":"4","last_reported":1749625840,"current_range_meters":14000,"station_id":"ce4bhq92rcd13ifvqhjg","pricing_plan_id":"cebpf4jnsgd1na2vs0mg"},{"bike_id":"0ed7abed-7481-4262-ad44-7fb2d933fc23","system_id":"levelo_inurba_marseille","lat":43.25934,"lon":5.40915,"is_reserved":false,"is_disabled":false,"rental_uris":{"android":"levelo://app?vid=0ed7abed-7481-4262-ad44-7fb2d933fc23","ios":"levelo://app?vid=0ed7abed-7481-4262-ad44-7fb2d933fc23"},"vehicle_type_id":"4","last_reported":1749625840,"current_range_meters":14000,"station_id":"ce4bhm92rcd13ifvqglg","pricing_plan_id":"cebpf4jnsgd1na2vs0mg"},{"bike_id":"efe29453-f6bb-4196-b881-56a7b954d052","system_id":"levelo_inurba_marseille","lat":43.3169,"lon":5.40472,"is_reserved":false,"is_disabled":false,"rental_uris":{"android":"levelo://app?vid=efe29453-f6bb-4196-b881-56a7b954d052","ios":"levelo://app?vid=efe29453-f6bb-4196-b881-56a7b954d052"},"vehicle_type_id":"4","last_reported":1749625840,"current_range_meters":14000,"station_id":"ce4bh012rcd13ifvqd00","pricing_plan_id":"cebpf4jnsgd1na2vs0mg"},{"bike_id":"305b45c4-52b6-41c7-97ab-ef0fd5712026","system_id":"levelo_inurba_marseille","lat":43.26931,"lon":5.38646,"is_reserved":false,"is_disabled":false,"rental_uris":{"android":"levelo://app?vid=305b45c4-52b6-41c7-97ab-ef0fd5712026","ios":"levelo://app?vid=305b45c4-52b6-41c7-97ab-ef0fd5712026"},"vehicle_type_id":"4","last_reported":1749625840,"current_range_meters":14000,"station_id":"ce4bhh92rcd13ifvqfh0","pricing_plan_id":"cebpf4jnsgd1na2vs0mg"},{"bike_id":"05392779-fd4d-4143-b140-788f96dcf167","system_id":"levelo_inurba_marseille","lat":43.27998,"lon":5.40024,"is_reserved":false,"is_disabled":false,"rental_uris":{"android":"levelo://app?vid=05392779-fd4d-4143-b140-788f96dcf167","ios":"levelo://app?vid=05392779-fd4d-4143-b140-788f96dcf167"},"vehicle_type_id":"4","last_reported":1749625840,"current_range_meters":13600,"station_id":"ce4bho92rcd13ifvqh4g","pricing_plan_id":"cebpf4jnsgd1na2vs0mg"},{"bike_id":"c0059c6b-affa-4894-ad35-e029cf9a2a71","system_id":"levelo_inurba_marseille","lat":43.27575,"lon":5.38416,"is_reserved":false,"is_disabled":false,"rental_uris":{"android":"levelo://app?vid=c0059c6b-affa-4894-ad35-e029cf9a2a71","ios":"levelo://app?vid=c0059c6b-affa-4894-ad35-e029cf9a2a71"},"vehicle_type_id":"4","last_reported":1749625840,"current_range_meters":14000,"station_id":"ce4bhh92rcd13ifvqfi0","pricing_plan_id":"cebpf4jnsgd1na2vs0mg"},{"bike_id":"1acfb620-cad7-48c0-8901-d7a5b74a5b65","system_id":"levelo_inurba_marseille","lat":43.33751,"lon":5.37456,"is_reserved":false,"is_disabled":false,"rental_uris":{"android":"levelo://app?vid=1acfb620-cad7-48c0-8901-d7a5b74a5b65","ios":"levelo://app?vid=1acfb620-cad7-48c0-8901-d7a5b74a5b65"},"vehicle_type_id":"4","last_reported":1749625840,"current_range_meters":14000,"station_id":"","pricing_plan_id":"cebpf4jnsgd1na2vs0mg"},{"bike_id":"52cecc31-f6e6-4c6c-b86d-dce52f254d43","system_id":"levelo_inurba_marseille","lat":43.29297,"lon":5.37458,"is_reserved":false,"is_disabled":false,"rental_uris":{"android":"levelo://app?vid=52cecc31-f6e6-4c6c-b86d-dce52f254d43","ios":"levelo://app?vid=52cecc31-f6e6-4c6c-b86d-dce52f254d43"},"vehicle_type_id":"4","last_reported":1749625840,"current_range_meters":14400,"station_id":"ce4bgi12rcd13ifvqb70","pricing_plan_id":"cebpf4jnsgd1na2vs0mg"},{"bike_id":"9231f021-d06e-4dc9-b555-e59bf1d45ecd","system_id":"levelo_inurba_marseille","lat":43.3209,"lon":5.36801,"is_reserved":false,"is_disabled":false,"rental_uris":{"android":"levelo://app?vid=9231f021-d06e-4dc9-b555-e59bf1d45ecd","ios":"levelo://app?vid=9231f021-d06e-4dc9-b555-e59bf1d45ecd"},"vehicle_type_id":"4","last_reported":1749625840,"current_range_meters":14800,"station_id":"ce4bhrh2rcd13ifvqhug","pricing_plan_id":"cebpf4jnsgd1na2vs0mg"},{"bike_id":"1f42e774-0b65-4738-b3e3-0aae7ec0e65c","system_id":"levelo_inurba_marseille","lat":43.29579,"lon":5.37511,"is_reserved":false,"is_disabled":true,"rental_uris":{"android":"levelo://app?vid=1f42e774-0b65-4738-b3e3-0aae7ec0e65c","ios":"levelo://app?vid=1f42e774-0b65-4738-b3e3-0aae7ec0e65c"},"vehicle_type_id":"4","last_reported":1749625840,"current_range_meters":14800,"station_id":"ce4bgh92rcd13ifvqb50","pricing_plan_id":"cebpf4jnsgd1na2vs0mg"},{"bike_id":"8f007e10-4732-4d06-80bc-94e33b5da4e7","system_id":"levelo_inurba_marseille","lat":43.30927,"lon":5.36835,"is_reserved":false,"is_disabled":false,"rental_uris":{"android":"levelo://app?vid=8f007e10-4732-4d06-80bc-94e33b5da4e7","ios":"levelo://app?vid=8f007e10-4732-4d06-80bc-94e33b5da4e7"},"vehicle_type_id":"4","last_reported":1749625840,"current_range_meters":15200,"station_id":"ce4bgn92rcd13ifvqbvg","pricing_plan_id":"cebpf4jnsgd1na2vs0mg"},{"bike_id":"348e51ac-c165-4532-b7ef-cd9c150faaf0","system_id":"levelo_inurba_marseille","lat":43.30903,"lon":5.36837,"is_reserved":false,"is_disabled":false,"rental_uris":{"android":"levelo://app?vid=348e51ac-c165-4532-b7ef-cd9c150faaf0","ios":"levelo://app?vid=348e51ac-c165-4532-b7ef-cd9c150faaf0"},"vehicle_type_id":"4","last_reported":1749625840,"current_range_meters":15200,"station_id":"ce4bgn92rcd13ifvqbvg","pricing_plan_id":"cebpf4jnsgd1na2vs0mg"},{"bike_id":"3a739672-c67e-4a21-a7cf-272409c07aa5","system_id":"levelo_inurba_marseille","lat":43.27596,"lon":5.38434,"is_reserved":false,"is_disabled":false,"rental_uris":{"android":"levelo://app?vid=3a739672-c67e-4a21-a7cf-272409c07aa5","ios":"levelo://app?vid=3a739672-c67e-4a21-a7cf-272409c07aa5"},"vehicle_type_id":"4","last_reported":1749625840,"current_range_meters":15200,"station_id":"ce4bhh92rcd13ifvqfi0","pricing_plan_id":"cebpf4jnsgd1na2vs0mg"},{"bike_id":"b5f07396-9dc2-4a2d-94da-9ae6c6971084","system_id":"levelo_inurba_marseille","lat":43.30918,"lon":5.36848,"is_reserved":false,"is_disabled":false,"rental_uris":{"android":"levelo://app?vid=b5f07396-9dc2-4a2d-94da-9ae6c6971084","ios":"levelo://app?vid=b5f07396-9dc2-4a2d-94da-9ae6c6971084"},"vehicle_type_id":"4","last_reported":1749625840,"current_range_meters":15200,"station_id":"ce4bgn92rcd13ifvqbvg","pricing_plan_id":"cebpf4jnsgd1na2vs0mg"},{"bike_id":"31329148-1e30-43cd-8edf-8d7732e8b9a3","system_id":"levelo_inurba_marseille","lat":43.32489,"lon":5.36567,"is_reserved":false,"is_disabled":true,"rental_uris":{"android":"levelo://app?vid=31329148-1e30-43cd-8edf-8d7732e8b9a3","ios":"levelo://app?vid=31329148-1e30-43cd-8edf-8d7732e8b9a3"},"vehicle_type_id":"4","last_reported":1749625840,"current_range_meters":15200,"station_id":"ce4bhs12rcd13ifvqhvg","pricing_plan_id":"cebpf4jnsgd1na2vs0mg"},{"bike_id":"b746c2ea-582d-453e-b55d-7f4c2db34f3d","system_id":"levelo_inurba_marseille","lat":43.27315,"lon":5.39082,"is_reserved":false,"is_disabled":false,"rental_uris":{"android":"levelo://app?vid=b746c2ea-582d-453e-b55d-7f4c2db34f3d","ios":"levelo://app?vid=b746c2ea-582d-453e-b55d-7f4c2db34f3d"},"vehicle_type_id":"4","last_reported":1749625840,"current_range_meters":16000,"station_id":"ce4bhgp2rcd13ifvqfe0","pricing_plan_id":"cebpf4jnsgd1na2vs0mg"},{"bike_id":"d6515318-ac2c-47f0-b0e4-ac5ab2c5d151","system_id":"levelo_inurba_marseille","lat":43.24167,"lon":5.36408,"is_reserved":false,"is_disabled":false,"rental_uris":{"android":"levelo://app?vid=d6515318-ac2c-47f0-b0e4-ac5ab2c5d151","ios":"levelo://app?vid=d6515318-ac2c-47f0-b0e4-ac5ab2c5d151"},"vehicle_type_id":"4","last_reported":1749625840,"current_range_meters":16000,"station_id":"cpo36qri1sfpv3e86is0","pricing_plan_id":"cebpf4jnsgd1na2vs0mg"},{"bike_id":"7fdd7452-289f-4231-bdb3-1e684c7c58e3","system_id":"levelo_inurba_marseille","lat":43.30487,"lon":5.37918,"is_reserved":false,"is_disabled":true,"rental_uris":{"android":"levelo://app?vid=7fdd7452-289f-4231-bdb3-1e684c7c58e3","ios":"levelo://app?vid=7fdd7452-289f-4231-bdb3-1e684c7c58e3"},"vehicle_type_id":"4","last_reported":1749625840,"current_range_meters":16000,"station_id":"ce4bgup2rcd13ifvqcn0","pricing_plan_id":"cebpf4jnsgd1na2vs0mg"},{"bike_id":"03ff7327-9d80-465b-bc3e-d109526df4c5","system_id":"levelo_inurba_marseille","lat":43.262298,"lon":5.404465,"is_reserved":false,"is_disabled":false,"rental_uris":{"android":"levelo://app?vid=03ff7327-9d80-465b-bc3e-d109526df4c5","ios":"levelo://app?vid=03ff7327-9d80-465b-bc3e-d109526df4c5"},"vehicle_type_id":"4","last_reported":1749625840,"current_range_meters":16000,"station_id":"ce4bhmh2rcd13ifvqgmg","pricing_plan_id":"cebpf4jnsgd1na2vs0mg"},{"bike_id":"b918f339-a33d-489c-826a-8fffafca2d2e","system_id":"levelo_inurba_marseille","lat":43.32375,"lon":5.3888,"is_reserved":false,"is_disabled":false,"rental_uris":{"android":"levelo://app?vid=b918f339-a33d-489c-826a-8fffafca2d2e","ios":"levelo://app?vid=b918f339-a33d-489c-826a-8fffafca2d2e"},"vehicle_type_id":"4","last_reported":1749625840,"current_range_meters":16000,"station_id":"ce4bhqp2rcd13ifvqhog","pricing_plan_id":"cebpf4jnsgd1na2vs0mg"},{"bike_id":"314bac2c-e47f-46cd-afcd-53cd84a7d142","system_id":"levelo_inurba_marseille","lat":43.2761,"lon":5.36116,"is_reserved":false,"is_disabled":true,"rental_uris":{"android":"levelo://app?vid=314bac2c-e47f-46cd-afcd-53cd84a7d142","ios":"levelo://app?vid=314bac2c-e47f-46cd-afcd-53cd84a7d142"},"vehicle_type_id":"4","last_reported":1749625840,"current_range_meters":16000,"station_id":"ce4bgj92rcd13ifvqbe0","pricing_plan_id":"cebpf4jnsgd1na2vs0mg"},{"bike_id":"dc6fca2e-5f1c-4ae8-aefe-7f65f0547e41","system_id":"levelo_inurba_marseille","lat":43.33766,"lon":5.37441,"is_reserved":false,"is_disabled":false,"rental_uris":{"android":"levelo://app?vid=dc6fca2e-5f1c-4ae8-aefe-7f65f0547e41","ios":"levelo://app?vid=dc6fca2e-5f1c-4ae8-aefe-7f65f0547e41"},"vehicle_type_id":"4","last_reported":1749625840,"current_range_meters":16400,"station_id":"","pricing_plan_id":"cebpf4jnsgd1na2vs0mg"},{"bike_id":"a2421370-e442-436f-a98a-844d44299694","system_id":"levelo_inurba_marseille","lat":43.32373,"lon":5.36783,"is_reserved":false,"is_disabled":false,"rental_uris":{"android":"levelo://app?vid=a2421370-e442-436f-a98a-844d44299694","ios":"levelo://app?vid=a2421370-e442-436f-a98a-844d44299694"},"vehicle_type_id":"4","last_reported":1749625840,"current_range_meters":16400,"station_id":"ce4bhsh2rcd13ifvqi2g","pricing_plan_id":"cebpf4jnsgd1na2vs0mg"},{"bike_id":"011a51e0-e9d8-4321-bc06-60864898b9e9","system_id":"levelo_inurba_marseille","lat":43.30536,"lon":5.36541,"is_reserved":false,"is_disabled":true,"rental_uris":{"android":"levelo://app?vid=011a51e0-e9d8-4321-bc06-60864898b9e9","ios":"levelo://app?vid=011a51e0-e9d8-4321-bc06-60864898b9e9"},"vehicle_type_id":"4","last_reported":1749625840,"current_range_meters":16400,"station_id":"ce4bgs12rcd13ifvqcag","pricing_plan_id":"cebpf4jnsgd1na2vs0mg"},{"bike_id":"089378df-b31d-4d5d-af80-e3600bbe9b7f","system_id":"levelo_inurba_marseille","lat":43.312658,"lon":5.368408,"is_reserved":false,"is_disabled":false,"rental_uris":{"android":"levelo://app?vid=089378df-b31d-4d5d-af80-e3600bbe9b7f","ios":"levelo://app?vid=089378df-b31d-4d5d-af80-e3600bbe9b7f"},"vehicle_type_id":"4","last_reported":1749625840,"current_range_meters":16400,"station_id":"ce4bgl92rcd13ifvqbq0","pricing_plan_id":"cebpf4jnsgd1na2vs0mg"},{"bike_id":"336846bd-2508-4735-9155-4b74f3200650","system_id":"levelo_inurba_marseille","lat":43.29747,"lon":5.37657,"is_reserved":false,"is_disabled":true,"rental_uris":{"android":"levelo://app?vid=336846bd-2508-4735-9155-4b74f3200650","ios":"levelo://app?vid=336846bd-2508-4735-9155-4b74f3200650"},"vehicle_type_id":"4","last_reported":1749625840,"current_range_meters":16400,"station_id":"ce4bgkh2rcd13ifvqbl0","pricing_plan_id":"cebpf4jnsgd1na2vs0mg"},{"bike_id":"f10adc7e-6a3a-4a5d-9515-dc52fefe2058","system_id":"levelo_inurba_marseille","lat":43.32359,"lon":5.36763,"is_reserved":false,"is_disabled":false,"rental_uris":{"android":"levelo://app?vid=f10adc7e-6a3a-4a5d-9515-dc52fefe2058","ios":"levelo://app?vid=f10adc7e-6a3a-4a5d-9515-dc52fefe2058"},"vehicle_type_id":"4","last_reported":1749625840,"current_range_meters":16400,"station_id":"ce4bhsh2rcd13ifvqi2g","pricing_plan_id":"cebpf4jnsgd1na2vs0mg"},{"bike_id":"fcf12bf5-15d6-40ae-bb04-4dddeb26c28a","system_id":"levelo_inurba_marseille","lat":43.31349,"lon":5.36729,"is_reserved":false,"is_disabled":false,"rental_uris":{"android":"levelo://app?vid=fcf12bf5-15d6-40ae-bb04-4dddeb26c28a","ios":"levelo://app?vid=fcf12bf5-15d6-40ae-bb04-4dddeb26c28a"},"vehicle_type_id":"4","last_reported":1749625840,"current_range_meters":16400,"station_id":"ce4bgr92rcd13ifvqc6g","pricing_plan_id":"cebpf4jnsgd1na2vs0mg"},{"bike_id":"dbd38c4e-8263-44d4-8e38-d22436680392","system_id":"levelo_inurba_marseille","lat":43.2978,"lon":5.39342,"is_reserved":false,"is_disabled":false,"rental_uris":{"android":"levelo://app?vid=dbd38c4e-8263-44d4-8e38-d22436680392","ios":"levelo://app?vid=dbd38c4e-8263-44d4-8e38-d22436680392"},"vehicle_type_id":"4","last_reported":1749625840,"current_range_meters":17200,"station_id":"chh1huq6cuj3fo74tm60","pricing_plan_id":"cebpf4jnsgd1na2vs0mg"},{"bike_id":"f302c6ba-0833-4358-ab71-4c42d0933f9b","system_id":"levelo_inurba_marseille","lat":43.30173,"lon":5.3662,"is_reserved":false,"is_disabled":false,"rental_uris":{"android":"levelo://app?vid=f302c6ba-0833-4358-ab71-4c42d0933f9b","ios":"levelo://app?vid=f302c6ba-0833-4358-ab71-4c42d0933f9b"},"vehicle_type_id":"4","last_reported":1749625840,"current_range_meters":16400,"station_id":"ce4bgrh2rcd13ifvqc8g","pricing_plan_id":"cebpf4jnsgd1na2vs0mg"},{"bike_id":"a172b0cf-62c4-4c52-a818-ce564350df02","system_id":"levelo_inurba_marseille","lat":43.211949,"lon":5.350733,"is_reserved":false,"is_disabled":false,"rental_uris":{"android":"levelo://app?vid=a172b0cf-62c4-4c52-a818-ce564350df02","ios":"levelo://app?vid=a172b0cf-62c4-4c52-a818-ce564350df02"},"vehicle_type_id":"4","last_reported":1749625840,"current_range_meters":16400,"station_id":"st_cvj6sg6p6f1abm77japg","pricing_plan_id":"cebpf4jnsgd1na2vs0mg"},{"bike_id":"9a22421e-ce7c-4654-a92f-e0cc7932f8bd","system_id":"levelo_inurba_marseille","lat":43.27062,"lon":5.40253,"is_reserved":false,"is_disabled":false,"rental_uris":{"android":"levelo://app?vid=9a22421e-ce7c-4654-a92f-e0cc7932f8bd","ios":"levelo://app?vid=9a22421e-ce7c-4654-a92f-e0cc7932f8bd"},"vehicle_type_id":"4","last_reported":1749625840,"current_range_meters":16400,"station_id":"ce4bhk92rcd13ifvqgc0","pricing_plan_id":"cebpf4jnsgd1na2vs0mg"},{"bike_id":"725a92d2-9ce1-4783-a143-7be5fe0664ee","system_id":"levelo_inurba_marseille","lat":43.304666,"lon":5.379282,"is_reserved":false,"is_disabled":false,"rental_uris":{"android":"levelo://app?vid=725a92d2-9ce1-4783-a143-7be5fe0664ee","ios":"levelo://app?vid=725a92d2-9ce1-4783-a143-7be5fe0664ee"},"vehicle_type_id":"4","last_reported":1749625840,"current_range_meters":16400,"station_id":"ce4bgup2rcd13ifvqcn0","pricing_plan_id":"cebpf4jnsgd1na2vs0mg"},{"bike_id":"6a7e642c-a743-4ba2-9912-573aa7c4d357","system_id":"levelo_inurba_marseille","lat":43.25933,"lon":5.40911,"is_reserved":false,"is_disabled":false,"rental_uris":{"android":"levelo://app?vid=6a7e642c-a743-4ba2-9912-573aa7c4d357","ios":"levelo://app?vid=6a7e642c-a743-4ba2-9912-573aa7c4d357"},"vehicle_type_id":"4","last_reported":1749625840,"current_range_meters":16800,"station_id":"ce4bhm92rcd13ifvqglg","pricing_plan_id":"cebpf4jnsgd1na2vs0mg"},{"bike_id":"b718b6cf-203e-431a-ada9-bcc4e81b08ec","system_id":"levelo_inurba_marseille","lat":43.337444,"lon":5.374475,"is_reserved":false,"is_disabled":false,"rental_uris":{"android":"levelo://app?vid=b718b6cf-203e-431a-ada9-bcc4e81b08ec","ios":"levelo://app?vid=b718b6cf-203e-431a-ada9-bcc4e81b08ec"},"vehicle_type_id":"4","last_reported":1749625840,"current_range_meters":16800,"station_id":"","pricing_plan_id":"cebpf4jnsgd1na2vs0mg"},{"bike_id":"65066ef9-1c39-47d6-b104-be1d784d3bad","system_id":"levelo_inurba_marseille","lat":43.262227,"lon":5.404604,"is_reserved":false,"is_disabled":false,"rental_uris":{"android":"levelo://app?vid=65066ef9-1c39-47d6-b104-be1d784d3bad","ios":"levelo://app?vid=65066ef9-1c39-47d6-b104-be1d784d3bad"},"vehicle_type_id":"4","last_reported":1749625840,"current_range_meters":16800,"station_id":"ce4bhmh2rcd13ifvqgmg","pricing_plan_id":"cebpf4jnsgd1na2vs0mg"},{"bike_id":"e636ab65-bc01-4586-a61f-ca9c388a9557","system_id":"levelo_inurba_marseille","lat":43.25932,"lon":5.40913,"is_reserved":false,"is_disabled":false,"rental_uris":{"android":"levelo://app?vid=e636ab65-bc01-4586-a61f-ca9c388a9557","ios":"levelo://app?vid=e636ab65-bc01-4586-a61f-ca9c388a9557"},"vehicle_type_id":"4","last_reported":1749625840,"current_range_meters":16800,"station_id":"ce4bhm92rcd13ifvqglg","pricing_plan_id":"cebpf4jnsgd1na2vs0mg"},{"bike_id":"634f107c-7707-4bfd-9f74-b9cfb361bd02","system_id":"levelo_inurba_marseille","lat":43.30534,"lon":5.365553,"is_reserved":false,"is_disabled":false,"rental_uris":{"android":"levelo://app?vid=634f107c-7707-4bfd-9f74-b9cfb361bd02","ios":"levelo://app?vid=634f107c-7707-4bfd-9f74-b9cfb361bd02"},"vehicle_type_id":"4","last_reported":1749625840,"current_range_meters":16800,"station_id":"ce4bgs12rcd13ifvqcag","pricing_plan_id":"cebpf4jnsgd1na2vs0mg"},{"bike_id":"812e4842-d011-45eb-9f3e-65d6a7b1e1f0","system_id":"levelo_inurba_marseille","lat":43.30924,"lon":5.40162,"is_reserved":false,"is_disabled":false,"rental_uris":{"android":"levelo://app?vid=812e4842-d011-45eb-9f3e-65d6a7b1e1f0","ios":"levelo://app?vid=812e4842-d011-45eb-9f3e-65d6a7b1e1f0"},"vehicle_type_id":"4","last_reported":1749625840,"current_range_meters":16800,"station_id":"ce4bgvp2rcd13ifvqct0","pricing_plan_id":"cebpf4jnsgd1na2vs0mg"},{"bike_id":"28df176a-daf5-4063-a891-2e35b6eb5d9f","system_id":"levelo_inurba_marseille","lat":43.304682,"lon":5.379084,"is_reserved":false,"is_disabled":false,"rental_uris":{"android":"levelo://app?vid=28df176a-daf5-4063-a891-2e35b6eb5d9f","ios":"levelo://app?vid=28df176a-daf5-4063-a891-2e35b6eb5d9f"},"vehicle_type_id":"4","last_reported":1749625840,"current_range_meters":16800,"station_id":"ce4bgup2rcd13ifvqcn0","pricing_plan_id":"cebpf4jnsgd1na2vs0mg"},{"bike_id":"50490822-204a-4b19-9af8-0374c540b273","system_id":"levelo_inurba_marseille","lat":43.30874,"lon":5.37199,"is_reserved":false,"is_disabled":false,"rental_uris":{"android":"levelo://app?vid=50490822-204a-4b19-9af8-0374c540b273","ios":"levelo://app?vid=50490822-204a-4b19-9af8-0374c540b273"},"vehicle_type_id":"4","last_reported":1749625840,"current_range_meters":16800,"station_id":"ce4bguh2rcd13ifvqckg","pricing_plan_id":"cebpf4jnsgd1na2vs0mg"},{"bike_id":"ba74330e-e7e1-47b7-aac8-f61ede63b89c","system_id":"levelo_inurba_marseille","lat":43.28145,"lon":5.42645,"is_reserved":false,"is_disabled":false,"rental_uris":{"android":"levelo://app?vid=ba74330e-e7e1-47b7-aac8-f61ede63b89c","ios":"levelo://app?vid=ba74330e-e7e1-47b7-aac8-f61ede63b89c"},"vehicle_type_id":"4","last_reported":1749625840,"current_range_meters":16800,"station_id":"ce4bhnh2rcd13ifvqgug","pricing_plan_id":"cebpf4jnsgd1na2vs0mg"},{"bike_id":"571c7c3c-ca38-44a9-bb44-74036773b79d","system_id":"levelo_inurba_marseille","lat":43.29361,"lon":5.37849,"is_reserved":false,"is_disabled":false,"rental_uris":{"android":"levelo://app?vid=571c7c3c-ca38-44a9-bb44-74036773b79d","ios":"levelo://app?vid=571c7c3c-ca38-44a9-bb44-74036773b79d"},"vehicle_type_id":"4","last_reported":1749625840,"current_range_meters":16800,"station_id":"ce4bgjh2rcd13ifvqbf0","pricing_plan_id":"cebpf4jnsgd1na2vs0mg"},{"bike_id":"f0a8df2a-526d-4a25-ac25-61d0af8f2bcc","system_id":"levelo_inurba_marseille","lat":43.31755,"lon":5.39022,"is_reserved":false,"is_disabled":false,"rental_uris":{"android":"levelo://app?vid=f0a8df2a-526d-4a25-ac25-61d0af8f2bcc","ios":"levelo://app?vid=f0a8df2a-526d-4a25-ac25-61d0af8f2bcc"},"vehicle_type_id":"4","last_reported":1749625840,"current_range_meters":16800,"station_id":"ce4bhqp2rcd13ifvqhng","pricing_plan_id":"cebpf4jnsgd1na2vs0mg"},{"bike_id":"ff6779a1-4f4c-471b-ab85-6c361d5c8c03","system_id":"levelo_inurba_marseille","lat":43.31355,"lon":5.36736,"is_reserved":false,"is_disabled":false,"rental_uris":{"android":"levelo://app?vid=ff6779a1-4f4c-471b-ab85-6c361d5c8c03","ios":"levelo://app?vid=ff6779a1-4f4c-471b-ab85-6c361d5c8c03"},"vehicle_type_id":"4","last_reported":1749625840,"current_range_meters":16800,"station_id":"ce4bgr92rcd13ifvqc6g","pricing_plan_id":"cebpf4jnsgd1na2vs0mg"},{"bike_id":"d91f6a9c-b365-4bb3-ae1d-8221ca286875","system_id":"levelo_inurba_marseille","lat":43.27491,"lon":5.42453,"is_reserved":false,"is_disabled":false,"rental_uris":{"android":"levelo://app?vid=d91f6a9c-b365-4bb3-ae1d-8221ca286875","ios":"levelo://app?vid=d91f6a9c-b365-4bb3-ae1d-8221ca286875"},"vehicle_type_id":"4","last_reported":1749625840,"current_range_meters":17200,"station_id":"ce4bhn92rcd13ifvqgrg","pricing_plan_id":"cebpf4jnsgd1na2vs0mg"},{"bike_id":"3ae9240c-47c6-47d7-ac15-288432b863e1","system_id":"levelo_inurba_marseille","lat":43.31346,"lon":5.36716,"is_reserved":false,"is_disabled":false,"rental_uris":{"android":"levelo://app?vid=3ae9240c-47c6-47d7-ac15-288432b863e1","ios":"levelo://app?vid=3ae9240c-47c6-47d7-ac15-288432b863e1"},"vehicle_type_id":"4","last_reported":1749625840,"current_range_meters":17200,"station_id":"ce4bgr92rcd13ifvqc6g","pricing_plan_id":"cebpf4jnsgd1na2vs0mg"},{"bike_id":"299006ef-6714-4010-a911-d7a4da017399","system_id":"levelo_inurba_marseille","lat":43.246287,"lon":5.368192,"is_reserved":false,"is_disabled":false,"rental_uris":{"android":"levelo://app?vid=299006ef-6714-4010-a911-d7a4da017399","ios":"levelo://app?vid=299006ef-6714-4010-a911-d7a4da017399"},"vehicle_type_id":"4","last_reported":1749625840,"current_range_meters":17200,"station_id":"ce4bhi12rcd13ifvqfp0","pricing_plan_id":"cebpf4jnsgd1na2vs0mg"},{"bike_id":"c9a3d5be-e502-4481-8a7b-128b0007d4f1","system_id":"levelo_inurba_marseille","lat":43.25935,"lon":5.40909,"is_reserved":false,"is_disabled":false,"rental_uris":{"android":"levelo://app?vid=c9a3d5be-e502-4481-8a7b-128b0007d4f1","ios":"levelo://app?vid=c9a3d5be-e502-4481-8a7b-128b0007d4f1"},"vehicle_type_id":"4","last_reported":1749625840,"current_range_meters":17600,"station_id":"ce4bhm92rcd13ifvqglg","pricing_plan_id":"cebpf4jnsgd1na2vs0mg"},{"bike_id":"71d23069-4b53-4c59-89de-c54de3aeb2cf","system_id":"levelo_inurba_marseille","lat":43.24559,"lon":5.4163,"is_reserved":false,"is_disabled":false,"rental_uris":{"android":"levelo://app?vid=71d23069-4b53-4c59-89de-c54de3aeb2cf","ios":"levelo://app?vid=71d23069-4b53-4c59-89de-c54de3aeb2cf"},"vehicle_type_id":"4","last_reported":1749625840,"current_range_meters":17600,"station_id":"","pricing_plan_id":"cebpf4jnsgd1na2vs0mg"},{"bike_id":"04f107b7-020e-49a3-8513-6c594c244cad","system_id":"levelo_inurba_marseille","lat":43.31352,"lon":5.3848,"is_reserved":false,"is_disabled":false,"rental_uris":{"android":"levelo://app?vid=04f107b7-020e-49a3-8513-6c594c244cad","ios":"levelo://app?vid=04f107b7-020e-49a3-8513-6c594c244cad"},"vehicle_type_id":"4","last_reported":1749625840,"current_range_meters":17600,"station_id":"ce4bgt92rcd13ifvqcf0","pricing_plan_id":"cebpf4jnsgd1na2vs0mg"},{"bike_id":"1a3b0ef4-fd99-41cb-bbbe-2863e96b819d","system_id":"levelo_inurba_marseille","lat":43.31338,"lon":5.36716,"is_reserved":false,"is_disabled":false,"rental_uris":{"android":"levelo://app?vid=1a3b0ef4-fd99-41cb-bbbe-2863e96b819d","ios":"levelo://app?vid=1a3b0ef4-fd99-41cb-bbbe-2863e96b819d"},"vehicle_type_id":"4","last_reported":1749625840,"current_range_meters":17600,"station_id":"ce4bgr92rcd13ifvqc6g","pricing_plan_id":"cebpf4jnsgd1na2vs0mg"},{"bike_id":"43d06fb2-37ef-4f7f-bea3-608ee6d0f3e3","system_id":"levelo_inurba_marseille","lat":43.26483,"lon":5.39553,"is_reserved":false,"is_disabled":true,"rental_uris":{"android":"levelo://app?vid=43d06fb2-37ef-4f7f-bea3-608ee6d0f3e3","ios":"levelo://app?vid=43d06fb2-37ef-4f7f-bea3-608ee6d0f3e3"},"vehicle_type_id":"4","last_reported":1749625840,"current_range_meters":18000,"station_id":"ce4bhi12rcd13ifvqfq0","pricing_plan_id":"cebpf4jnsgd1na2vs0mg"},{"bike_id":"00c94cd1-33f1-4483-8d50-d32717f9fe3e","system_id":"levelo_inurba_marseille","lat":43.31742,"lon":5.424,"is_reserved":false,"is_disabled":false,"rental_uris":{"android":"levelo://app?vid=00c94cd1-33f1-4483-8d50-d32717f9fe3e","ios":"levelo://app?vid=00c94cd1-33f1-4483-8d50-d32717f9fe3e"},"vehicle_type_id":"4","last_reported":1749625840,"current_range_meters":18000,"station_id":"ce4bhp92rcd13ifvqhbg","pricing_plan_id":"cebpf4jnsgd1na2vs0mg"},{"bike_id":"136a956b-c67e-4ee7-bafc-f4953a39f893","system_id":"levelo_inurba_marseille","lat":43.25125,"lon":5.39657,"is_reserved":false,"is_disabled":false,"rental_uris":{"android":"levelo://app?vid=136a956b-c67e-4ee7-bafc-f4953a39f893","ios":"levelo://app?vid=136a956b-c67e-4ee7-bafc-f4953a39f893"},"vehicle_type_id":"4","last_reported":1749625840,"current_range_meters":18000,"station_id":"","pricing_plan_id":"cebpf4jnsgd1na2vs0mg"},{"bike_id":"8720c117-08ad-45d9-9ffe-2b9397284168","system_id":"levelo_inurba_marseille","lat":43.2407,"lon":5.37758,"is_reserved":false,"is_disabled":false,"rental_uris":{"android":"levelo://app?vid=8720c117-08ad-45d9-9ffe-2b9397284168","ios":"levelo://app?vid=8720c117-08ad-45d9-9ffe-2b9397284168"},"vehicle_type_id":"4","last_reported":1749625840,"current_range_meters":18000,"station_id":"ce4bhnp2rcd13ifvqgvg","pricing_plan_id":"cebpf4jnsgd1na2vs0mg"},{"bike_id":"7b1cfe02-109e-4836-ae59-8aad9c4f2698","system_id":"levelo_inurba_marseille","lat":43.32336,"lon":5.40634,"is_reserved":false,"is_disabled":false,"rental_uris":{"android":"levelo://app?vid=7b1cfe02-109e-4836-ae59-8aad9c4f2698","ios":"levelo://app?vid=7b1cfe02-109e-4836-ae59-8aad9c4f2698"},"vehicle_type_id":"4","last_reported":1749625840,"current_range_meters":18000,"station_id":"ce4bhq92rcd13ifvqhjg","pricing_plan_id":"cebpf4jnsgd1na2vs0mg"},{"bike_id":"355cf286-0b63-4ba5-8fd3-08f2449a771d","system_id":"levelo_inurba_marseille","lat":43.27479,"lon":5.42474,"is_reserved":false,"is_disabled":false,"rental_uris":{"android":"levelo://app?vid=355cf286-0b63-4ba5-8fd3-08f2449a771d","ios":"levelo://app?vid=355cf286-0b63-4ba5-8fd3-08f2449a771d"},"vehicle_type_id":"4","last_reported":1749625840,"current_range_meters":18000,"station_id":"ce4bhn92rcd13ifvqgrg","pricing_plan_id":"cebpf4jnsgd1na2vs0mg"},{"bike_id":"26188140-1807-466a-b47c-9cde473e1f96","system_id":"levelo_inurba_marseille","lat":43.29996,"lon":5.37173,"is_reserved":false,"is_disabled":false,"rental_uris":{"android":"levelo://app?vid=26188140-1807-466a-b47c-9cde473e1f96","ios":"levelo://app?vid=26188140-1807-466a-b47c-9cde473e1f96"},"vehicle_type_id":"4","last_reported":1749625840,"current_range_meters":18000,"station_id":"ce4bgr92rcd13ifvqc7g","pricing_plan_id":"cebpf4jnsgd1na2vs0mg"},{"bike_id":"9b27829e-5332-4f5a-9e45-aad00442a969","system_id":"levelo_inurba_marseille","lat":43.27919,"lon":5.383,"is_reserved":false,"is_disabled":false,"rental_uris":{"android":"levelo://app?vid=9b27829e-5332-4f5a-9e45-aad00442a969","ios":"levelo://app?vid=9b27829e-5332-4f5a-9e45-aad00442a969"},"vehicle_type_id":"4","last_reported":1749625840,"current_range_meters":18000,"station_id":"","pricing_plan_id":"cebpf4jnsgd1na2vs0mg"},{"bike_id":"1f946e20-d142-4cbb-9385-f87ae2569b7b","system_id":"levelo_inurba_marseille","lat":43.28144,"lon":5.42642,"is_reserved":false,"is_disabled":false,"rental_uris":{"android":"levelo://app?vid=1f946e20-d142-4cbb-9385-f87ae2569b7b","ios":"levelo://app?vid=1f946e20-d142-4cbb-9385-f87ae2569b7b"},"vehicle_type_id":"4","last_reported":1749625840,"current_range_meters":18000,"station_id":"ce4bhnh2rcd13ifvqgug","pricing_plan_id":"cebpf4jnsgd1na2vs0mg"},{"bike_id":"99ccb411-d7f9-4fcb-b612-4d8582e16182","system_id":"levelo_inurba_marseille","lat":43.33732,"lon":5.39188,"is_reserved":false,"is_disabled":false,"rental_uris":{"android":"levelo://app?vid=99ccb411-d7f9-4fcb-b612-4d8582e16182","ios":"levelo://app?vid=99ccb411-d7f9-4fcb-b612-4d8582e16182"},"vehicle_type_id":"4","last_reported":1749625840,"current_range_meters":18000,"station_id":"ce4bhr92rcd13ifvqhsg","pricing_plan_id":"cebpf4jnsgd1na2vs0mg"},{"bike_id":"415d307a-18cd-4efb-a2ea-509f707e5bc8","system_id":"levelo_inurba_marseille","lat":43.309514,"lon":5.39036,"is_reserved":false,"is_disabled":false,"rental_uris":{"android":"levelo://app?vid=415d307a-18cd-4efb-a2ea-509f707e5bc8","ios":"levelo://app?vid=415d307a-18cd-4efb-a2ea-509f707e5bc8"},"vehicle_type_id":"4","last_reported":1749625840,"current_range_meters":18000,"station_id":"ce4bghh2rcd13ifvqb60","pricing_plan_id":"cebpf4jnsgd1na2vs0mg"},{"bike_id":"0eede140-17b3-4c85-9da6-881c562fa7d5","system_id":"levelo_inurba_marseille","lat":43.30141,"lon":5.37424,"is_reserved":false,"is_disabled":false,"rental_uris":{"android":"levelo://app?vid=0eede140-17b3-4c85-9da6-881c562fa7d5","ios":"levelo://app?vid=0eede140-17b3-4c85-9da6-881c562fa7d5"},"vehicle_type_id":"4","last_reported":1749625840,"current_range_meters":18000,"station_id":"ce4bgs92rcd13ifvqcc0","pricing_plan_id":"cebpf4jnsgd1na2vs0mg"},{"bike_id":"07496176-d4c7-444e-b485-13025cec7453","system_id":"levelo_inurba_marseille","lat":43.25114,"lon":5.40331,"is_reserved":false,"is_disabled":false,"rental_uris":{"android":"levelo://app?vid=07496176-d4c7-444e-b485-13025cec7453","ios":"levelo://app?vid=07496176-d4c7-444e-b485-13025cec7453"},"vehicle_type_id":"4","last_reported":1749625840,"current_range_meters":18800,"station_id":"ce4bhlh2rcd13ifvqgig","pricing_plan_id":"cebpf4jnsgd1na2vs0mg"},{"bike_id":"1ffe6267-ffee-48b5-9a1a-8fe4f3a18bb0","system_id":"levelo_inurba_marseille","lat":43.31498,"lon":5.37311,"is_reserved":false,"is_disabled":false,"rental_uris":{"android":"levelo://app?vid=1ffe6267-ffee-48b5-9a1a-8fe4f3a18bb0","ios":"levelo://app?vid=1ffe6267-ffee-48b5-9a1a-8fe4f3a18bb0"},"vehicle_type_id":"4","last_reported":1749625840,"current_range_meters":18800,"station_id":"ce4bgt12rcd13ifvqcd0","pricing_plan_id":"cebpf4jnsgd1na2vs0mg"},{"bike_id":"df40d743-ca7b-4f7c-882e-6472a0df34cc","system_id":"levelo_inurba_marseille","lat":43.23187,"lon":5.35555,"is_reserved":false,"is_disabled":true,"rental_uris":{"android":"levelo://app?vid=df40d743-ca7b-4f7c-882e-6472a0df34cc","ios":"levelo://app?vid=df40d743-ca7b-4f7c-882e-6472a0df34cc"},"vehicle_type_id":"4","last_reported":1749625840,"current_range_meters":18800,"station_id":"ce4bhu92rcd13ifvqi70","pricing_plan_id":"cebpf4jnsgd1na2vs0mg"},{"bike_id":"1f01b44c-5f74-458f-bd4e-74f1314b1ea9","system_id":"levelo_inurba_marseille","lat":43.27208,"lon":5.39191,"is_reserved":false,"is_disabled":true,"rental_uris":{"android":"levelo://app?vid=1f01b44c-5f74-458f-bd4e-74f1314b1ea9","ios":"levelo://app?vid=1f01b44c-5f74-458f-bd4e-74f1314b1ea9"},"vehicle_type_id":"4","last_reported":1749625840,"current_range_meters":18800,"station_id":"ce4bhhp2rcd13ifvqfm0","pricing_plan_id":"cebpf4jnsgd1na2vs0mg"},{"bike_id":"21ff43a8-c498-48e2-98c3-d1187a8f1a90","system_id":"levelo_inurba_marseille","lat":43.267766,"lon":5.394196,"is_reserved":false,"is_disabled":false,"rental_uris":{"android":"levelo://app?vid=21ff43a8-c498-48e2-98c3-d1187a8f1a90","ios":"levelo://app?vid=21ff43a8-c498-48e2-98c3-d1187a8f1a90"},"vehicle_type_id":"4","last_reported":1749625840,"current_range_meters":18800,"station_id":"ce4bhh12rcd13ifvqfg0","pricing_plan_id":"cebpf4jnsgd1na2vs0mg"},{"bike_id":"27c3ce4c-2f83-41ff-abde-3fb4e2e068fb","system_id":"levelo_inurba_marseille","lat":43.30995,"lon":5.37474,"is_reserved":false,"is_disabled":false,"rental_uris":{"android":"levelo://app?vid=27c3ce4c-2f83-41ff-abde-3fb4e2e068fb","ios":"levelo://app?vid=27c3ce4c-2f83-41ff-abde-3fb4e2e068fb"},"vehicle_type_id":"4","last_reported":1749625840,"current_range_meters":18800,"station_id":"","pricing_plan_id":"cebpf4jnsgd1na2vs0mg"},{"bike_id":"2864d4e7-681e-4d29-8bf9-2bd9c358b292","system_id":"levelo_inurba_marseille","lat":43.28359,"lon":5.38642,"is_reserved":false,"is_disabled":false,"rental_uris":{"android":"levelo://app?vid=2864d4e7-681e-4d29-8bf9-2bd9c358b292","ios":"levelo://app?vid=2864d4e7-681e-4d29-8bf9-2bd9c358b292"},"vehicle_type_id":"4","last_reported":1749625840,"current_range_meters":18800,"station_id":"ce4bh492rcd13ifvqdvg","pricing_plan_id":"cebpf4jnsgd1na2vs0mg"},{"bike_id":"cc55b817-cc91-4b6e-871f-f7bd0dccbcd8","system_id":"levelo_inurba_marseille","lat":43.30997,"lon":5.390592,"is_reserved":false,"is_disabled":false,"rental_uris":{"android":"levelo://app?vid=cc55b817-cc91-4b6e-871f-f7bd0dccbcd8","ios":"levelo://app?vid=cc55b817-cc91-4b6e-871f-f7bd0dccbcd8"},"vehicle_type_id":"4","last_reported":1749625840,"current_range_meters":18800,"station_id":"ce4bgup2rcd13ifvqco0","pricing_plan_id":"cebpf4jnsgd1na2vs0mg"},{"bike_id":"c9fce19b-bd54-4522-bdc7-aa26a9be634a","system_id":"levelo_inurba_marseille","lat":43.27324,"lon":5.3909,"is_reserved":false,"is_disabled":true,"rental_uris":{"android":"levelo://app?vid=c9fce19b-bd54-4522-bdc7-aa26a9be634a","ios":"levelo://app?vid=c9fce19b-bd54-4522-bdc7-aa26a9be634a"},"vehicle_type_id":"4","last_reported":1749625840,"current_range_meters":19200,"station_id":"ce4bhgp2rcd13ifvqfe0","pricing_plan_id":"cebpf4jnsgd1na2vs0mg"},{"bike_id":"466284f8-a86d-4294-a5f1-b471ff2d0c49","system_id":"levelo_inurba_marseille","lat":43.23964,"lon":5.36632,"is_reserved":false,"is_disabled":false,"rental_uris":{"android":"levelo://app?vid=466284f8-a86d-4294-a5f1-b471ff2d0c49","ios":"levelo://app?vid=466284f8-a86d-4294-a5f1-b471ff2d0c49"},"vehicle_type_id":"4","last_reported":1749625840,"current_range_meters":19200,"station_id":"ce4bhi12rcd13ifvqfp0","pricing_plan_id":"cebpf4jnsgd1na2vs0mg"},{"bike_id":"556ea021-f173-497b-9607-7375aef62e86","system_id":"levelo_inurba_marseille","lat":43.31706,"lon":5.40475,"is_reserved":false,"is_disabled":false,"rental_uris":{"android":"levelo://app?vid=556ea021-f173-497b-9607-7375aef62e86","ios":"levelo://app?vid=556ea021-f173-497b-9607-7375aef62e86"},"vehicle_type_id":"4","last_reported":1749625840,"current_range_meters":19200,"station_id":"ce4bh012rcd13ifvqd00","pricing_plan_id":"cebpf4jnsgd1na2vs0mg"},{"bike_id":"233d099d-7398-4251-a9ac-8ab5c25a21fc","system_id":"levelo_inurba_marseille","lat":43.30912,"lon":5.36844,"is_reserved":false,"is_disabled":false,"rental_uris":{"android":"levelo://app?vid=233d099d-7398-4251-a9ac-8ab5c25a21fc","ios":"levelo://app?vid=233d099d-7398-4251-a9ac-8ab5c25a21fc"},"vehicle_type_id":"4","last_reported":1749625840,"current_range_meters":19200,"station_id":"ce4bgn92rcd13ifvqbvg","pricing_plan_id":"cebpf4jnsgd1na2vs0mg"},{"bike_id":"9cc09854-d27d-4772-a587-4e62b3e1423f","system_id":"levelo_inurba_marseille","lat":43.25101,"lon":5.40327,"is_reserved":false,"is_disabled":true,"rental_uris":{"android":"levelo://app?vid=9cc09854-d27d-4772-a587-4e62b3e1423f","ios":"levelo://app?vid=9cc09854-d27d-4772-a587-4e62b3e1423f"},"vehicle_type_id":"4","last_reported":1749625840,"current_range_meters":19200,"station_id":"ce4bhlh2rcd13ifvqgig","pricing_plan_id":"cebpf4jnsgd1na2vs0mg"},{"bike_id":"dbb3b8fb-fe6b-468a-b993-7c9487b6c88c","system_id":"levelo_inurba_marseille","lat":43.24102,"lon":5.37742,"is_reserved":false,"is_disabled":true,"rental_uris":{"android":"levelo://app?vid=dbb3b8fb-fe6b-468a-b993-7c9487b6c88c","ios":"levelo://app?vid=dbb3b8fb-fe6b-468a-b993-7c9487b6c88c"},"vehicle_type_id":"4","last_reported":1749625840,"current_range_meters":19200,"station_id":"ce4bhnp2rcd13ifvqgvg","pricing_plan_id":"cebpf4jnsgd1na2vs0mg"},{"bike_id":"1b986ab5-899b-45c0-ae8f-5234203e90af","system_id":"levelo_inurba_marseille","lat":43.32138,"lon":5.36753,"is_reserved":false,"is_disabled":false,"rental_uris":{"android":"levelo://app?vid=1b986ab5-899b-45c0-ae8f-5234203e90af","ios":"levelo://app?vid=1b986ab5-899b-45c0-ae8f-5234203e90af"},"vehicle_type_id":"4","last_reported":1749625840,"current_range_meters":19600,"station_id":"","pricing_plan_id":"cebpf4jnsgd1na2vs0mg"},{"bike_id":"f1fa8b0e-e18b-4209-ad0b-df9823f71d1d","system_id":"levelo_inurba_marseille","lat":43.25938,"lon":5.40903,"is_reserved":false,"is_disabled":false,"rental_uris":{"android":"levelo://app?vid=f1fa8b0e-e18b-4209-ad0b-df9823f71d1d","ios":"levelo://app?vid=f1fa8b0e-e18b-4209-ad0b-df9823f71d1d"},"vehicle_type_id":"4","last_reported":1749625840,"current_range_meters":19600,"station_id":"ce4bhm92rcd13ifvqglg","pricing_plan_id":"cebpf4jnsgd1na2vs0mg"},{"bike_id":"43905188-6755-4fcf-a1e5-419d01155020","system_id":"levelo_inurba_marseille","lat":43.26219,"lon":5.40454,"is_reserved":false,"is_disabled":false,"rental_uris":{"android":"levelo://app?vid=43905188-6755-4fcf-a1e5-419d01155020","ios":"levelo://app?vid=43905188-6755-4fcf-a1e5-419d01155020"},"vehicle_type_id":"4","last_reported":1749625840,"current_range_meters":19600,"station_id":"ce4bhmh2rcd13ifvqgmg","pricing_plan_id":"cebpf4jnsgd1na2vs0mg"},{"bike_id":"0db5affc-6d8c-4e5e-9e45-1b3c94af636c","system_id":"levelo_inurba_marseille","lat":43.23965,"lon":5.36627,"is_reserved":false,"is_disabled":false,"rental_uris":{"android":"levelo://app?vid=0db5affc-6d8c-4e5e-9e45-1b3c94af636c","ios":"levelo://app?vid=0db5affc-6d8c-4e5e-9e45-1b3c94af636c"},"vehicle_type_id":"4","last_reported":1749625840,"current_range_meters":19600,"station_id":"ce4bhi12rcd13ifvqfp0","pricing_plan_id":"cebpf4jnsgd1na2vs0mg"},{"bike_id":"4c7d11cc-361d-4c0a-b7b6-b403260380b1","system_id":"levelo_inurba_marseille","lat":43.30126,"lon":5.38763,"is_reserved":false,"is_disabled":false,"rental_uris":{"android":"levelo://app?vid=4c7d11cc-361d-4c0a-b7b6-b403260380b1","ios":"levelo://app?vid=4c7d11cc-361d-4c0a-b7b6-b403260380b1"},"vehicle_type_id":"4","last_reported":1749625840,"current_range_meters":20000,"station_id":"ce4bghh2rcd13ifvqb60","pricing_plan_id":"cebpf4jnsgd1na2vs0mg"},{"bike_id":"ec80188f-0d7b-4ad0-aedf-7dec6d69e932","system_id":"levelo_inurba_marseille","lat":43.25936,"lon":5.40903,"is_reserved":false,"is_disabled":false,"rental_uris":{"android":"levelo://app?vid=ec80188f-0d7b-4ad0-aedf-7dec6d69e932","ios":"levelo://app?vid=ec80188f-0d7b-4ad0-aedf-7dec6d69e932"},"vehicle_type_id":"4","last_reported":1749625840,"current_range_meters":20000,"station_id":"ce4bhm92rcd13ifvqglg","pricing_plan_id":"cebpf4jnsgd1na2vs0mg"},{"bike_id":"61a79c4f-dbeb-4750-94a4-6628c8dd5f5b","system_id":"levelo_inurba_marseille","lat":43.31684,"lon":5.40474,"is_reserved":false,"is_disabled":false,"rental_uris":{"android":"levelo://app?vid=61a79c4f-dbeb-4750-94a4-6628c8dd5f5b","ios":"levelo://app?vid=61a79c4f-dbeb-4750-94a4-6628c8dd5f5b"},"vehicle_type_id":"4","last_reported":1749625840,"current_range_meters":20000,"station_id":"ce4bh012rcd13ifvqd00","pricing_plan_id":"cebpf4jnsgd1na2vs0mg"},{"bike_id":"51ac4440-dde0-4f13-bf9a-5a5b6810d184","system_id":"levelo_inurba_marseille","lat":43.3039,"lon":5.42461,"is_reserved":false,"is_disabled":false,"rental_uris":{"android":"levelo://app?vid=51ac4440-dde0-4f13-bf9a-5a5b6810d184","ios":"levelo://app?vid=51ac4440-dde0-4f13-bf9a-5a5b6810d184"},"vehicle_type_id":"4","last_reported":1749625840,"current_range_meters":20000,"station_id":"ce4bghh2rcd13ifvqb60","pricing_plan_id":"cebpf4jnsgd1na2vs0mg"},{"bike_id":"28083116-5116-4ad1-81fb-9edbe48bd17d","system_id":"levelo_inurba_marseille","lat":43.31364,"lon":5.38501,"is_reserved":false,"is_disabled":false,"rental_uris":{"android":"levelo://app?vid=28083116-5116-4ad1-81fb-9edbe48bd17d","ios":"levelo://app?vid=28083116-5116-4ad1-81fb-9edbe48bd17d"},"vehicle_type_id":"4","last_reported":1749625840,"current_range_meters":20000,"station_id":"ce4bgt92rcd13ifvqcf0","pricing_plan_id":"cebpf4jnsgd1na2vs0mg"},{"bike_id":"3f1574d6-fc40-4341-9dac-b195059ec68d","system_id":"levelo_inurba_marseille","lat":43.27218,"lon":5.39195,"is_reserved":false,"is_disabled":true,"rental_uris":{"android":"levelo://app?vid=3f1574d6-fc40-4341-9dac-b195059ec68d","ios":"levelo://app?vid=3f1574d6-fc40-4341-9dac-b195059ec68d"},"vehicle_type_id":"4","last_reported":1749625840,"current_range_meters":20000,"station_id":"ce4bhhp2rcd13ifvqfm0","pricing_plan_id":"cebpf4jnsgd1na2vs0mg"},{"bike_id":"ed1aa8e0-a33b-4919-9e0d-ab75dc3c6a07","system_id":"levelo_inurba_marseille","lat":43.264859,"lon":5.409623,"is_reserved":false,"is_disabled":false,"rental_uris":{"android":"levelo://app?vid=ed1aa8e0-a33b-4919-9e0d-ab75dc3c6a07","ios":"levelo://app?vid=ed1aa8e0-a33b-4919-9e0d-ab75dc3c6a07"},"vehicle_type_id":"4","last_reported":1749625840,"current_range_meters":20000,"station_id":"","pricing_plan_id":"cebpf4jnsgd1na2vs0mg"},{"bike_id":"3db8fde5-dc25-47f9-adb5-1429f5338e31","system_id":"levelo_inurba_marseille","lat":43.31755,"lon":5.38475,"is_reserved":false,"is_disabled":false,"rental_uris":{"android":"levelo://app?vid=3db8fde5-dc25-47f9-adb5-1429f5338e31","ios":"levelo://app?vid=3db8fde5-dc25-47f9-adb5-1429f5338e31"},"vehicle_type_id":"4","last_reported":1749625840,"current_range_meters":20000,"station_id":"","pricing_plan_id":"cebpf4jnsgd1na2vs0mg"},{"bike_id":"a7cd85f5-afff-45b0-bb98-6ffa8e2e9d6b","system_id":"levelo_inurba_marseille","lat":43.31342,"lon":5.3674,"is_reserved":false,"is_disabled":false,"rental_uris":{"android":"levelo://app?vid=a7cd85f5-afff-45b0-bb98-6ffa8e2e9d6b","ios":"levelo://app?vid=a7cd85f5-afff-45b0-bb98-6ffa8e2e9d6b"},"vehicle_type_id":"4","last_reported":1749625840,"current_range_meters":20400,"station_id":"ce4bgr92rcd13ifvqc6g","pricing_plan_id":"cebpf4jnsgd1na2vs0mg"},{"bike_id":"ed7b6444-d227-40dd-8b71-2b25b2f39759","system_id":"levelo_inurba_marseille","lat":43.31469,"lon":5.37389,"is_reserved":false,"is_disabled":false,"rental_uris":{"android":"levelo://app?vid=ed7b6444-d227-40dd-8b71-2b25b2f39759","ios":"levelo://app?vid=ed7b6444-d227-40dd-8b71-2b25b2f39759"},"vehicle_type_id":"4","last_reported":1749625840,"current_range_meters":20400,"station_id":"","pricing_plan_id":"cebpf4jnsgd1na2vs0mg"},{"bike_id":"9af9db5d-c58f-41ef-9c39-74eea1a2a942","system_id":"levelo_inurba_marseille","lat":43.29971,"lon":5.38501,"is_reserved":false,"is_disabled":true,"rental_uris":{"android":"levelo://app?vid=9af9db5d-c58f-41ef-9c39-74eea1a2a942","ios":"levelo://app?vid=9af9db5d-c58f-41ef-9c39-74eea1a2a942"},"vehicle_type_id":"4","last_reported":1749625840,"current_range_meters":20400,"station_id":"ce4bgj92rcd13ifvqbd0","pricing_plan_id":"cebpf4jnsgd1na2vs0mg"},{"bike_id":"7003b93c-725d-412e-9127-fbade718cbc3","system_id":"levelo_inurba_marseille","lat":43.21204,"lon":5.35071,"is_reserved":false,"is_disabled":false,"rental_uris":{"android":"levelo://app?vid=7003b93c-725d-412e-9127-fbade718cbc3","ios":"levelo://app?vid=7003b93c-725d-412e-9127-fbade718cbc3"},"vehicle_type_id":"4","last_reported":1749625840,"current_range_meters":20400,"station_id":"st_cvj6sg6p6f1abm77japg","pricing_plan_id":"cebpf4jnsgd1na2vs0mg"},{"bike_id":"268a324a-8e4d-4216-854d-c09220f5a417","system_id":"levelo_inurba_marseille","lat":43.24056,"lon":5.37777,"is_reserved":false,"is_disabled":false,"rental_uris":{"android":"levelo://app?vid=268a324a-8e4d-4216-854d-c09220f5a417","ios":"levelo://app?vid=268a324a-8e4d-4216-854d-c09220f5a417"},"vehicle_type_id":"4","last_reported":1749625840,"current_range_meters":20400,"station_id":"ce4bhnp2rcd13ifvqgvg","pricing_plan_id":"cebpf4jnsgd1na2vs0mg"},{"bike_id":"2a7344b5-7126-4cc1-bbd1-a9bb0e44b7bd","system_id":"levelo_inurba_marseille","lat":43.23046,"lon":5.35498,"is_reserved":false,"is_disabled":false,"rental_uris":{"android":"levelo://app?vid=2a7344b5-7126-4cc1-bbd1-a9bb0e44b7bd","ios":"levelo://app?vid=2a7344b5-7126-4cc1-bbd1-a9bb0e44b7bd"},"vehicle_type_id":"4","last_reported":1749625840,"current_range_meters":20400,"station_id":"cpo3342slgdg3j2ifvpg","pricing_plan_id":"cebpf4jnsgd1na2vs0mg"},{"bike_id":"346f3f80-6b15-4406-b905-bb78596f5bac","system_id":"levelo_inurba_marseille","lat":43.32358,"lon":5.36763,"is_reserved":false,"is_disabled":false,"rental_uris":{"android":"levelo://app?vid=346f3f80-6b15-4406-b905-bb78596f5bac","ios":"levelo://app?vid=346f3f80-6b15-4406-b905-bb78596f5bac"},"vehicle_type_id":"4","last_reported":1749625840,"current_range_meters":20400,"station_id":"ce4bhsh2rcd13ifvqi2g","pricing_plan_id":"cebpf4jnsgd1na2vs0mg"},{"bike_id":"00e1765b-c113-458d-af17-4ffde14bace6","system_id":"levelo_inurba_marseille","lat":43.27498,"lon":5.42446,"is_reserved":false,"is_disabled":false,"rental_uris":{"android":"levelo://app?vid=00e1765b-c113-458d-af17-4ffde14bace6","ios":"levelo://app?vid=00e1765b-c113-458d-af17-4ffde14bace6"},"vehicle_type_id":"4","last_reported":1749625840,"current_range_meters":20400,"station_id":"ce4bhn92rcd13ifvqgrg","pricing_plan_id":"cebpf4jnsgd1na2vs0mg"},{"bike_id":"34aef53d-21b2-4f85-b3c8-0b6ce0b3af7f","system_id":"levelo_inurba_marseille","lat":43.31703,"lon":5.40465,"is_reserved":false,"is_disabled":false,"rental_uris":{"android":"levelo://app?vid=34aef53d-21b2-4f85-b3c8-0b6ce0b3af7f","ios":"levelo://app?vid=34aef53d-21b2-4f85-b3c8-0b6ce0b3af7f"},"vehicle_type_id":"4","last_reported":1749625840,"current_range_meters":20800,"station_id":"ce4bh012rcd13ifvqd00","pricing_plan_id":"cebpf4jnsgd1na2vs0mg"},{"bike_id":"98855dfb-7f1a-4ad2-b5c8-6854d863a5f3","system_id":"levelo_inurba_marseille","lat":43.28148,"lon":5.426363,"is_reserved":false,"is_disabled":false,"rental_uris":{"android":"levelo://app?vid=98855dfb-7f1a-4ad2-b5c8-6854d863a5f3","ios":"levelo://app?vid=98855dfb-7f1a-4ad2-b5c8-6854d863a5f3"},"vehicle_type_id":"4","last_reported":1749625840,"current_range_meters":20800,"station_id":"ce4bhnh2rcd13ifvqgug","pricing_plan_id":"cebpf4jnsgd1na2vs0mg"},{"bike_id":"8461f970-1ae3-4c4d-8d48-e45e1c65e387","system_id":"levelo_inurba_marseille","lat":43.24644,"lon":5.38888,"is_reserved":false,"is_disabled":true,"rental_uris":{"android":"levelo://app?vid=8461f970-1ae3-4c4d-8d48-e45e1c65e387","ios":"levelo://app?vid=8461f970-1ae3-4c4d-8d48-e45e1c65e387"},"vehicle_type_id":"4","last_reported":1749625840,"current_range_meters":20800,"station_id":"ce4bhg12rcd13ifvqf60","pricing_plan_id":"cebpf4jnsgd1na2vs0mg"},{"bike_id":"7c5c504d-5a46-42a5-a89c-a84653e2b889","system_id":"levelo_inurba_marseille","lat":43.31224,"lon":5.36858,"is_reserved":false,"is_disabled":false,"rental_uris":{"android":"levelo://app?vid=7c5c504d-5a46-42a5-a89c-a84653e2b889","ios":"levelo://app?vid=7c5c504d-5a46-42a5-a89c-a84653e2b889"},"vehicle_type_id":"4","last_reported":1749625840,"current_range_meters":20800,"station_id":"ce4bgl92rcd13ifvqbq0","pricing_plan_id":"cebpf4jnsgd1na2vs0mg"},{"bike_id":"bfdec20f-63bd-46a3-a7f8-82c0580e5c54","system_id":"levelo_inurba_marseille","lat":43.24068,"lon":5.37764,"is_reserved":false,"is_disabled":false,"rental_uris":{"android":"levelo://app?vid=bfdec20f-63bd-46a3-a7f8-82c0580e5c54","ios":"levelo://app?vid=bfdec20f-63bd-46a3-a7f8-82c0580e5c54"},"vehicle_type_id":"4","last_reported":1749625840,"current_range_meters":20800,"station_id":"ce4bhnp2rcd13ifvqgvg","pricing_plan_id":"cebpf4jnsgd1na2vs0mg"},{"bike_id":"d7b9176d-dc0b-4ef5-9130-6a6fe17ffd89","system_id":"levelo_inurba_marseille","lat":43.231523,"lon":5.437142,"is_reserved":false,"is_disabled":false,"rental_uris":{"android":"levelo://app?vid=d7b9176d-dc0b-4ef5-9130-6a6fe17ffd89","ios":"levelo://app?vid=d7b9176d-dc0b-4ef5-9130-6a6fe17ffd89"},"vehicle_type_id":"4","last_reported":1749625840,"current_range_meters":20800,"station_id":"ce4bhmp2rcd13ifvqgog","pricing_plan_id":"cebpf4jnsgd1na2vs0mg"},{"bike_id":"36604c08-b0ea-4a17-be13-9ad9348add4f","system_id":"levelo_inurba_marseille","lat":43.30151,"lon":5.381,"is_reserved":false,"is_disabled":false,"rental_uris":{"android":"levelo://app?vid=36604c08-b0ea-4a17-be13-9ad9348add4f","ios":"levelo://app?vid=36604c08-b0ea-4a17-be13-9ad9348add4f"},"vehicle_type_id":"4","last_reported":1749625840,"current_range_meters":20800,"station_id":"ce4bgjp2rcd13ifvqbh0","pricing_plan_id":"cebpf4jnsgd1na2vs0mg"},{"bike_id":"33e21c20-fffb-4fd2-80f8-0ca4671fb5d6","system_id":"levelo_inurba_marseille","lat":43.31224,"lon":5.368576,"is_reserved":false,"is_disabled":false,"rental_uris":{"android":"levelo://app?vid=33e21c20-fffb-4fd2-80f8-0ca4671fb5d6","ios":"levelo://app?vid=33e21c20-fffb-4fd2-80f8-0ca4671fb5d6"},"vehicle_type_id":"4","last_reported":1749625840,"current_range_meters":20800,"station_id":"ce4bgl92rcd13ifvqbq0","pricing_plan_id":"cebpf4jnsgd1na2vs0mg"},{"bike_id":"3f721d0a-a8f4-479e-aaa6-6ed8f7b1d35e","system_id":"levelo_inurba_marseille","lat":43.26202,"lon":5.37893,"is_reserved":false,"is_disabled":true,"rental_uris":{"android":"levelo://app?vid=3f721d0a-a8f4-479e-aaa6-6ed8f7b1d35e","ios":"levelo://app?vid=3f721d0a-a8f4-479e-aaa6-6ed8f7b1d35e"},"vehicle_type_id":"4","last_reported":1749625840,"current_range_meters":21600,"station_id":"ce4bhjp2rcd13ifvqg90","pricing_plan_id":"cebpf4jnsgd1na2vs0mg"},{"bike_id":"da3304cf-e9fb-48d8-ae6e-a5601281487d","system_id":"levelo_inurba_marseille","lat":43.3238,"lon":5.38863,"is_reserved":false,"is_disabled":false,"rental_uris":{"android":"levelo://app?vid=da3304cf-e9fb-48d8-ae6e-a5601281487d","ios":"levelo://app?vid=da3304cf-e9fb-48d8-ae6e-a5601281487d"},"vehicle_type_id":"4","last_reported":1749625840,"current_range_meters":21600,"station_id":"ce4bhqp2rcd13ifvqhog","pricing_plan_id":"cebpf4jnsgd1na2vs0mg"},{"bike_id":"8ece0923-1fba-43f1-85c9-961ecf5f6a2b","system_id":"levelo_inurba_marseille","lat":43.26504,"lon":5.39524,"is_reserved":false,"is_disabled":false,"rental_uris":{"android":"levelo://app?vid=8ece0923-1fba-43f1-85c9-961ecf5f6a2b","ios":"levelo://app?vid=8ece0923-1fba-43f1-85c9-961ecf5f6a2b"},"vehicle_type_id":"4","last_reported":1749625840,"current_range_meters":21600,"station_id":"ce4bhi12rcd13ifvqfq0","pricing_plan_id":"cebpf4jnsgd1na2vs0mg"},