{"last_updated":1740507198,"ttl":60,"version":"2.2","data":{"bikes":[{"bike_id":"5a16cd45-7b23-4828-a25f-81a08151e011","system_id":"levelo_inurba_marseille","lat":43.30354,"lon":5.4189,"is_reserved":false,"is_disabled":false,"rental_uris":{"android":"levelo://app?vid=5a16cd45-7b23-4828-a25f-81a08151e011","ios":"levelo://app?vid=5a16cd45-7b23-4828-a25f-81a08151e011"},"vehicle_type_id":"4","last_reported":1740507198,"current_range_meters":2800,"station_id":"ce4bhop2rcd13ifvqh7g","pricing_plan_id":"cebpf4jnsgd1na2vs0mg"},{"bike_id":"634f5661-d6bd-45ed-9324-9d629e1248b5","system_id":"levelo_inurba_marseille","lat":43.28698,"lon":5.37393,"is_reserved":false,"is_disabled":false,"rental_uris":{"android":"levelo://app?vid=634f5661-d6bd-45ed-9324-9d629e1248b5","ios":"levelo://app?vid=634f5661-d6bd-45ed-9324-9d629e1248b5"},"vehicle_type_id":"4","last_reported":1740507198,"current_range_meters":2800,"station_id":"ce4bh3p2rcd13ifvqdq0","pricing_plan_id":"cebpf4jnsgd1na2vs0mg"},{"bike_id":"04e8bbfb-64ca-491e-a24f-57180faf0eac","system_id":"levelo_inurba_marseille","lat":43.31118,"lon":5.37769,"is_reserved":false,"is_disabled":false,"rental_uris":{"android":"levelo://app?vid=04e8bbfb-64ca-491e-a24f-57180faf0eac","ios":"levelo://app?vid=04e8bbfb-64ca-491e-a24f-57180faf0eac"},"vehicle_type_id":"4","last_reported":1740507198,"current_range_meters":2000,"station_id":"ce4bgt92rcd13ifvqcg0","pricing_plan_id":"cebpf4jnsgd1na2vs0mg"},{"bike_id":"3f201449-b493-4083-b09d-597f12726e48","system_id":"levelo_inurba_marseille","lat":43.29542,"lon":5.37504,"is_reserved":false,"is_disabled":true,"rental_uris":{"android":"levelo://app?vid=3f201449-b493-4083-b09d-597f12726e48","ios":"levelo://app?vid=3f201449-b493-4083-b09d-597f12726e48"},"vehicle_type_id":"4","last_reported":1740507198,"current_range_meters":2800,"station_id":"ce4bgkp2rcd13ifvqbmg","pricing_plan_id":"cebpf4jnsgd1na2vs0mg"},{"bike_id":"1438575d-9fd6-43ee-9b6c-848d2f40689b","system_id":"levelo_inurba_marseille","lat":43.31362,"lon":5.38498,"is_reserved":false,"is_disabled":false,"rental_uris":{"android":"levelo://app?vid=1438575d-9fd6-43ee-9b6c-848d2f40689b","ios":"levelo://app?vid=1438575d-9fd6-43ee-9b6c-848d2f40689b"},"vehicle_type_id":"4","last_reported":1740507198,"current_range_meters":800,"station_id":"ce4bgt92rcd13ifvqcf0","pricing_plan_id":"cebpf4jnsgd1na2vs0mg"},{"bike_id":"7aa35c97-08ee-4714-b2e3-a65db18088d4","system_id":"levelo_inurba_marseille","lat":43.29785,"lon":5.38124,"is_reserved":false,"is_disabled":false,"rental_uris":{"android":"levelo://app?vid=7aa35c97-08ee-4714-b2e3-a65db18088d4","ios":"levelo://app?vid=7aa35c97-08ee-4714-b2e3-a65db18088d4"},"vehicle_type_id":"4","last_reported":1740507198,"current_range_meters":2800,"station_id":"ce4bgip2rcd13ifvqbb0","pricing_plan_id":"cebpf4jnsgd1na2vs0mg"},{"bike_id":"8fee03f2-e082-48cb-a709-e5d076b9db56","system_id":"levelo_inurba_marseille","lat":43.30414,"lon":5.41287,"is_reserved":false,"is_disabled":true,"rental_uris":{"android":"levelo://app?vid=8fee03f2-e082-48cb-a709-e5d076b9db56","ios":"levelo://app?vid=8fee03f2-e082-48cb-a709-e5d076b9db56"},"vehicle_type_id":"4","last_reported":1740507198,"current_range_meters":2800,"station_id":"ce4bhop2rcd13ifvqh8g","pricing_plan_id":"cebpf4jnsgd1na2vs0mg"},{"bike_id":"533977a0-be81-4d06-808f-ed4c4793828a","system_id":"levelo_inurba_marseille","lat":43.31124,"lon":5.37761,"is_reserved":false,"is_disabled":false,"rental_uris":{"android":"levelo://app?vid=533977a0-be81-4d06-808f-ed4c4793828a","ios":"levelo://app?vid=533977a0-be81-4d06-808f-ed4c4793828a"},"vehicle_type_id":"4","last_reported":1740507198,"current_range_meters":3200,"station_id":"ce4bgt92rcd13ifvqcg0","pricing_plan_id":"cebpf4jnsgd1na2vs0mg"},{"bike_id":"f8c9c053-9a65-4cb1-9f46-65df94695291","system_id":"levelo_inurba_marseille","lat":43.2927,"lon":5.38431,"is_reserved":false,"is_disabled":false,"rental_uris":{"android":"levelo://app?vid=f8c9c053-9a65-4cb1-9f46-65df94695291","ios":"levelo://app?vid=f8c9c053-9a65-4cb1-9f46-65df94695291"},"vehicle_type_id":"4","last_reported":1740507198,"current_range_meters":3200,"station_id":"ce4bh692rcd13ifvqea0","pricing_plan_id":"cebpf4jnsgd1na2vs0mg"},{"bike_id":"2b40de7e-c4c2-4a14-b678-4febc2792ef9","system_id":"levelo_inurba_marseille","lat":43.30794,"lon":5.38155,"is_reserved":false,"is_disabled":false,"rental_uris":{"android":"levelo://app?vid=2b40de7e-c4c2-4a14-b678-4febc2792ef9","ios":"levelo://app?vid=2b40de7e-c4c2-4a14-b678-4febc2792ef9"},"vehicle_type_id":"4","last_reported":1740507198,"current_range_meters":2800,"station_id":"ce4bgt12rcd13ifvqce0","pricing_plan_id":"cebpf4jnsgd1na2vs0mg"},{"bike_id":"bd494fcc-049e-4a25-af0a-c8c88ce197a5","system_id":"levelo_inurba_marseille","lat":43.25691,"lon":5.41072,"is_reserved":false,"is_disabled":false,"rental_uris":{"android":"levelo://app?vid=bd494fcc-049e-4a25-af0a-c8c88ce197a5","ios":"levelo://app?vid=bd494fcc-049e-4a25-af0a-c8c88ce197a5"},"vehicle_type_id":"4","last_reported":1740507198,"current_range_meters":3200,"station_id":"ce4bhkp2rcd13ifvqgd0","pricing_plan_id":"cebpf4jnsgd1na2vs0mg"},{"bike_id":"432ff3b1-2ffb-4dd5-910a-aa39ee1d3010","system_id":"levelo_inurba_marseille","lat":43.27833,"lon":5.39201,"is_reserved":false,"is_disabled":false,"rental_uris":{"android":"levelo://app?vid=432ff3b1-2ffb-4dd5-910a-aa39ee1d3010","ios":"levelo://app?vid=432ff3b1-2ffb-4dd5-910a-aa39ee1d3010"},"vehicle_type_id":"4","last_reported":1740507198,"current_range_meters":3200,"station_id":"ce4bhjp2rcd13ifvqga0","pricing_plan_id":"cebpf4jnsgd1na2vs0mg"},{"bike_id":"a717c824-9073-4e1f-a559-5157596f57a8","system_id":"levelo_inurba_marseille","lat":43.310844,"lon":5.424256,"is_reserved":false,"is_disabled":false,"rental_uris":{"android":"levelo://app?vid=a717c824-9073-4e1f-a559-5157596f57a8","ios":"levelo://app?vid=a717c824-9073-4e1f-a559-5157596f57a8"},"vehicle_type_id":"4","last_reported":1740507198,"current_range_meters":3600,"station_id":"ce4bhp92rcd13ifvqhag","pricing_plan_id":"cebpf4jnsgd1na2vs0mg"},{"bike_id":"7c2d3c70-55ce-40bb-b693-25d5512ac7b5","system_id":"levelo_inurba_marseille","lat":43.30304,"lon":5.39211,"is_reserved":false,"is_disabled":false,"rental_uris":{"android":"levelo://app?vid=7c2d3c70-55ce-40bb-b693-25d5512ac7b5","ios":"levelo://app?vid=7c2d3c70-55ce-40bb-b693-25d5512ac7b5"},"vehicle_type_id":"4","last_reported":1740507198,"current_range_meters":3600,"station_id":"ce4bgkh2rcd13ifvqbk0","pricing_plan_id":"cebpf4jnsgd1na2vs0mg"},{"bike_id":"20df654a-1f4c-4cdb-a755-49b90aa45189","system_id":"levelo_inurba_marseille","lat":43.267029,"lon":5.389649,"is_reserved":false,"is_disabled":false,"rental_uris":{"android":"levelo://app?vid=20df654a-1f4c-4cdb-a755-49b90aa45189","ios":"levelo://app?vid=20df654a-1f4c-4cdb-a755-49b90aa45189"},"vehicle_type_id":"4","last_reported":1740507198,"current_range_meters":3600,"station_id":"ce4bhhh2rcd13ifvqfl0","pricing_plan_id":"cebpf4jnsgd1na2vs0mg"},{"bike_id":"4f6fe6ca-d476-49aa-b653-5bb8aa105efc","system_id":"levelo_inurba_marseille","lat":43.27956,"lon":5.410443,"is_reserved":false,"is_disabled":false,"rental_uris":{"android":"levelo://app?vid=4f6fe6ca-d476-49aa-b653-5bb8aa105efc","ios":"levelo://app?vid=4f6fe6ca-d476-49aa-b653-5bb8aa105efc"},"vehicle_type_id":"4","last_reported":1740507198,"current_range_meters":3600,"station_id":"ce4bhnp2rcd13ifvqh0g","pricing_plan_id":"cebpf4jnsgd1na2vs0mg"},{"bike_id":"938a7f6b-f245-486a-bdc5-9fbb302be8c9","system_id":"levelo_inurba_marseille","lat":43.292553,"lon":5.401105,"is_reserved":false,"is_disabled":false,"rental_uris":{"android":"levelo://app?vid=938a7f6b-f245-486a-bdc5-9fbb302be8c9","ios":"levelo://app?vid=938a7f6b-f245-486a-bdc5-9fbb302be8c9"},"vehicle_type_id":"4","last_reported":1740507198,"current_range_meters":4000,"station_id":"ce4bhhp2rcd13ifvqfm0","pricing_plan_id":"cebpf4jnsgd1na2vs0mg"},{"bike_id":"a8692879-7eca-4d99-8e8d-c7aaad0f16fb","system_id":"levelo_inurba_marseille","lat":43.24806,"lon":5.37456,"is_reserved":false,"is_disabled":false,"rental_uris":{"android":"levelo://app?vid=a8692879-7eca-4d99-8e8d-c7aaad0f16fb","ios":"levelo://app?vid=a8692879-7eca-4d99-8e8d-c7aaad0f16fb"},"vehicle_type_id":"4","last_reported":1740507198,"current_range_meters":4000,"station_id":"ce4bhgh2rcd13ifvqfb0","pricing_plan_id":"cebpf4jnsgd1na2vs0mg"},{"bike_id":"5cbac3e1-1d62-4853-851c-ca1bc85d596c","system_id":"levelo_inurba_marseille","lat":43.31333,"lon":5.39689,"is_reserved":false,"is_disabled":false,"rental_uris":{"android":"levelo://app?vid=5cbac3e1-1d62-4853-851c-ca1bc85d596c","ios":"levelo://app?vid=5cbac3e1-1d62-4853-851c-ca1bc85d596c"},"vehicle_type_id":"4","last_reported":1740507198,"current_range_meters":4000,"station_id":"ce4bgvp2rcd13ifvqcu0","pricing_plan_id":"cebpf4jnsgd1na2vs0mg"},{"bike_id":"67659637-7f52-4357-bb3a-6dc1fd86471e","system_id":"levelo_inurba_marseille","lat":43.28156,"lon":5.42648,"is_reserved":false,"is_disabled":false,"rental_uris":{"android":"levelo://app?vid=67659637-7f52-4357-bb3a-6dc1fd86471e","ios":"levelo://app?vid=67659637-7f52-4357-bb3a-6dc1fd86471e"},"vehicle_type_id":"4","last_reported":1740507198,"current_range_meters":4000,"station_id":"ce4bhnh2rcd13ifvqgug","pricing_plan_id":"cebpf4jnsgd1na2vs0mg"},{"bike_id":"52fc7aa0-29f9-4e7c-94b4-00a90bb6b72a","system_id":"levelo_inurba_marseille","lat":43.28462,"lon":5.35887,"is_reserved":false,"is_disabled":false,"rental_uris":{"android":"levelo://app?vid=52fc7aa0-29f9-4e7c-94b4-00a90bb6b72a","ios":"levelo://app?vid=52fc7aa0-29f9-4e7c-94b4-00a90bb6b72a"},"vehicle_type_id":"4","last_reported":1740507198,"current_range_meters":4000,"station_id":"ce4bhah2rcd13ifvqei0","pricing_plan_id":"cebpf4jnsgd1na2vs0mg"},{"bike_id":"5d2a91a4-deab-47e5-8597-b9d0c3137b86","system_id":"levelo_inurba_marseille","lat":43.257226,"lon":5.411152,"is_reserved":false,"is_disabled":false,"rental_uris":{"android":"levelo://app?vid=5d2a91a4-deab-47e5-8597-b9d0c3137b86","ios":"levelo://app?vid=5d2a91a4-deab-47e5-8597-b9d0c3137b86"},"vehicle_type_id":"4","last_reported":1740507198,"current_range_meters":1600,"station_id":"ce4bhkp2rcd13ifvqgd0","pricing_plan_id":"cebpf4jnsgd1na2vs0mg"},{"bike_id":"1505eec7-eeb7-4e2f-99fe-a409e6d4ac68","system_id":"levelo_inurba_marseille","lat":43.28403,"lon":5.37519,"is_reserved":false,"is_disabled":false,"rental_uris":{"android":"levelo://app?vid=1505eec7-eeb7-4e2f-99fe-a409e6d4ac68","ios":"levelo://app?vid=1505eec7-eeb7-4e2f-99fe-a409e6d4ac68"},"vehicle_type_id":"4","last_reported":1740507198,"current_range_meters":4400,"station_id":"ce4bh412rcd13ifvqds0","pricing_plan_id":"cebpf4jnsgd1na2vs0mg"},{"bike_id":"15d63c41-d467-4e01-ab9d-1a4d98399eb8","system_id":"levelo_inurba_marseille","lat":43.28083,"lon":5.39661,"is_reserved":false,"is_disabled":true,"rental_uris":{"android":"levelo://app?vid=15d63c41-d467-4e01-ab9d-1a4d98399eb8","ios":"levelo://app?vid=15d63c41-d467-4e01-ab9d-1a4d98399eb8"},"vehicle_type_id":"4","last_reported":1740507198,"current_range_meters":4400,"station_id":"ce4bho12rcd13ifvqh2g","pricing_plan_id":"cebpf4jnsgd1na2vs0mg"},{"bike_id":"8252afe0-f729-4067-892c-0c5a5e53b97e","system_id":"levelo_inurba_marseille","lat":43.29275,"lon":5.38452,"is_reserved":false,"is_disabled":false,"rental_uris":{"android":"levelo://app?vid=8252afe0-f729-4067-892c-0c5a5e53b97e","ios":"levelo://app?vid=8252afe0-f729-4067-892c-0c5a5e53b97e"},"vehicle_type_id":"4","last_reported":1740507198,"current_range_meters":4400,"station_id":"ce4bh692rcd13ifvqea0","pricing_plan_id":"cebpf4jnsgd1na2vs0mg"},{"bike_id":"40daa5b0-a928-4f78-8777-24eca1031da0","system_id":"levelo_inurba_marseille","lat":43.29673,"lon":5.40535,"is_reserved":false,"is_disabled":false,"rental_uris":{"android":"levelo://app?vid=40daa5b0-a928-4f78-8777-24eca1031da0","ios":"levelo://app?vid=40daa5b0-a928-4f78-8777-24eca1031da0"},"vehicle_type_id":"4","last_reported":1740507198,"current_range_meters":4800,"station_id":"","pricing_plan_id":"cebpf4jnsgd1na2vs0mg"},{"bike_id":"d65bac87-29af-4ee2-930a-c61bd33c06ef","system_id":"levelo_inurba_marseille","lat":43.2509,"lon":5.3952,"is_reserved":false,"is_disabled":false,"rental_uris":{"android":"levelo://app?vid=d65bac87-29af-4ee2-930a-c61bd33c06ef","ios":"levelo://app?vid=d65bac87-29af-4ee2-930a-c61bd33c06ef"},"vehicle_type_id":"4","last_reported":1740507198,"current_range_meters":4800,"station_id":"ce4bhm12rcd13ifvqgkg","pricing_plan_id":"cebpf4jnsgd1na2vs0mg"},{"bike_id":"21d8ab16-c01b-4dfb-b7c4-e961f4cf550b","system_id":"levelo_inurba_marseille","lat":43.243164,"lon":5.377704,"is_reserved":false,"is_disabled":false,"rental_uris":{"android":"levelo://app?vid=21d8ab16-c01b-4dfb-b7c4-e961f4cf550b","ios":"levelo://app?vid=21d8ab16-c01b-4dfb-b7c4-e961f4cf550b"},"vehicle_type_id":"4","last_reported":1740507198,"current_range_meters":4800,"station_id":"ce4bhlh2rcd13ifvqgig","pricing_plan_id":"cebpf4jnsgd1na2vs0mg"},{"bike_id":"5fbaf1e2-789f-4403-ae92-8da0f51da3be","system_id":"levelo_inurba_marseille","lat":43.28467,"lon":5.35894,"is_reserved":false,"is_disabled":false,"rental_uris":{"android":"levelo://app?vid=5fbaf1e2-789f-4403-ae92-8da0f51da3be","ios":"levelo://app?vid=5fbaf1e2-789f-4403-ae92-8da0f51da3be"},"vehicle_type_id":"4","last_reported":1740507198,"current_range_meters":4800,"station_id":"ce4bhah2rcd13ifvqei0","pricing_plan_id":"cebpf4jnsgd1na2vs0mg"},{"bike_id":"b3c07c0d-7914-4a8f-af51-6134ae8608fc","system_id":"levelo_inurba_marseille","lat":43.2846,"lon":5.35889,"is_reserved":false,"is_disabled":false,"rental_uris":{"android":"levelo://app?vid=b3c07c0d-7914-4a8f-af51-6134ae8608fc","ios":"levelo://app?vid=b3c07c0d-7914-4a8f-af51-6134ae8608fc"},"vehicle_type_id":"4","last_reported":1740507198,"current_range_meters":4800,"station_id":"ce4bhah2rcd13ifvqei0","pricing_plan_id":"cebpf4jnsgd1na2vs0mg"},{"bike_id":"f3e2d31b-bf16-4d93-8358-e1b5fc69cdb1","system_id":"levelo_inurba_marseille","lat":43.28127,"lon":5.39927,"is_reserved":false,"is_disabled":false,"rental_uris":{"android":"levelo://app?vid=f3e2d31b-bf16-4d93-8358-e1b5fc69cdb1","ios":"levelo://app?vid=f3e2d31b-bf16-4d93-8358-e1b5fc69cdb1"},"vehicle_type_id":"4","last_reported":1740507198,"current_range_meters":5600,"station_id":"","pricing_plan_id":"cebpf4jnsgd1na2vs0mg"},{"bike_id":"71f606a5-4879-4b26-9ccd-1543fb1a6ec7","system_id":"levelo_inurba_marseille","lat":43.28377,"lon":5.39029,"is_reserved":false,"is_disabled":false,"rental_uris":{"android":"levelo://app?vid=71f606a5-4879-4b26-9ccd-1543fb1a6ec7","ios":"levelo://app?vid=71f606a5-4879-4b26-9ccd-1543fb1a6ec7"},"vehicle_type_id":"4","last_reported":1740507198,"current_range_meters":5600,"station_id":"","pricing_plan_id":"cebpf4jnsgd1na2vs0mg"},{"bike_id":"7a1baf5f-d71d-404d-a64d-353306dafd82","system_id":"levelo_inurba_marseille","lat":43.28466,"lon":5.35881,"is_reserved":false,"is_disabled":false,"rental_uris":{"android":"levelo://app?vid=7a1baf5f-d71d-404d-a64d-353306dafd82","ios":"levelo://app?vid=7a1baf5f-d71d-404d-a64d-353306dafd82"},"vehicle_type_id":"4","last_reported":1740507198,"current_range_meters":6400,"station_id":"","pricing_plan_id":"cebpf4jnsgd1na2vs0mg"},{"bike_id":"1c7c4667-8fde-4781-bb0a-87464d617403","system_id":"levelo_inurba_marseille","lat":43.28932,"lon":5.36634,"is_reserved":false,"is_disabled":false,"rental_uris":{"android":"levelo://app?vid=1c7c4667-8fde-4781-bb0a-87464d617403","ios":"levelo://app?vid=1c7c4667-8fde-4781-bb0a-87464d617403"},"vehicle_type_id":"4","last_reported":1740507198,"current_range_meters":6000,"station_id":"ce4bhap2rcd13ifvqek0","pricing_plan_id":"cebpf4jnsgd1na2vs0mg"},{"bike_id":"819b1b6e-ed61-427c-ad26-10b97162771a","system_id":"levelo_inurba_marseille","lat":43.29272,"lon":5.40899,"is_reserved":false,"is_disabled":false,"rental_uris":{"android":"levelo://app?vid=819b1b6e-ed61-427c-ad26-10b97162771a","ios":"levelo://app?vid=819b1b6e-ed61-427c-ad26-10b97162771a"},"vehicle_type_id":"4","last_reported":1740507198,"current_range_meters":6000,"station_id":"ce4bh192rcd13ifvqdc0","pricing_plan_id":"cebpf4jnsgd1na2vs0mg"},{"bike_id":"67b95bb9-cc8e-4d02-841e-22984d7aab97","system_id":"levelo_inurba_marseille","lat":43.29279,"lon":5.40727,"is_reserved":false,"is_disabled":false,"rental_uris":{"android":"levelo://app?vid=67b95bb9-cc8e-4d02-841e-22984d7aab97","ios":"levelo://app?vid=67b95bb9-cc8e-4d02-841e-22984d7aab97"},"vehicle_type_id":"4","last_reported":1740507198,"current_range_meters":6000,"station_id":"ce4bh192rcd13ifvqdc0","pricing_plan_id":"cebpf4jnsgd1na2vs0mg"},{"bike_id":"23112539-f375-4d82-a4e4-031f84731c39","system_id":"levelo_inurba_marseille","lat":43.31124,"lon":5.37768,"is_reserved":false,"is_disabled":false,"rental_uris":{"android":"levelo://app?vid=23112539-f375-4d82-a4e4-031f84731c39","ios":"levelo://app?vid=23112539-f375-4d82-a4e4-031f84731c39"},"vehicle_type_id":"4","last_reported":1740507198,"current_range_meters":0,"station_id":"ce4bgt92rcd13ifvqcg0","pricing_plan_id":"cebpf4jnsgd1na2vs0mg"},{"bike_id":"7b566d27-c053-4800-90f3-0ffe44845ffd","system_id":"levelo_inurba_marseille","lat":43.28703,"lon":5.37393,"is_reserved":false,"is_disabled":false,"rental_uris":{"android":"levelo://app?vid=7b566d27-c053-4800-90f3-0ffe44845ffd","ios":"levelo://app?vid=7b566d27-c053-4800-90f3-0ffe44845ffd"},"vehicle_type_id":"4","last_reported":1740507198,"current_range_meters":6000,"station_id":"ce4bh3p2rcd13ifvqdq0","pricing_plan_id":"cebpf4jnsgd1na2vs0mg"},{"bike_id":"7f1c060b-5843-4c09-9b29-715512d4ddc3","system_id":"levelo_inurba_marseille","lat":43.28358,"lon":5.3864,"is_reserved":false,"is_disabled":false,"rental_uris":{"android":"levelo://app?vid=7f1c060b-5843-4c09-9b29-715512d4ddc3","ios":"levelo://app?vid=7f1c060b-5843-4c09-9b29-715512d4ddc3"},"vehicle_type_id":"4","last_reported":1740507198,"current_range_meters":6400,"station_id":"ce4bh492rcd13ifvqdvg","pricing_plan_id":"cebpf4jnsgd1na2vs0mg"},{"bike_id":"4348350c-81c0-4bd8-8b92-260fb74ca8c3","system_id":"levelo_inurba_marseille","lat":43.29538,"lon":5.39409,"is_reserved":false,"is_disabled":false,"rental_uris":{"android":"levelo://app?vid=4348350c-81c0-4bd8-8b92-260fb74ca8c3","ios":"levelo://app?vid=4348350c-81c0-4bd8-8b92-260fb74ca8c3"},"vehicle_type_id":"4","last_reported":1740507198,"current_range_meters":6000,"station_id":"ce4bh292rcd13ifvqdf0","pricing_plan_id":"cebpf4jnsgd1na2vs0mg"},{"bike_id":"2cbef011-6189-4514-a55c-335a5596ff93","system_id":"levelo_inurba_marseille","lat":43.3132,"lon":5.3863,"is_reserved":false,"is_disabled":false,"rental_uris":{"android":"levelo://app?vid=2cbef011-6189-4514-a55c-335a5596ff93","ios":"levelo://app?vid=2cbef011-6189-4514-a55c-335a5596ff93"},"vehicle_type_id":"4","last_reported":1740507198,"current_range_meters":6000,"station_id":"","pricing_plan_id":"cebpf4jnsgd1na2vs0mg"},{"bike_id":"24067980-02e9-4519-860c-537348a90469","system_id":"levelo_inurba_marseille","lat":43.30424,"lon":5.41284,"is_reserved":false,"is_disabled":false,"rental_uris":{"android":"levelo://app?vid=24067980-02e9-4519-860c-537348a90469","ios":"levelo://app?vid=24067980-02e9-4519-860c-537348a90469"},"vehicle_type_id":"4","last_reported":1740507198,"current_range_meters":1600,"station_id":"ce4bhop2rcd13ifvqh8g","pricing_plan_id":"cebpf4jnsgd1na2vs0mg"},{"bike_id":"b3739dd1-c2ea-4afb-9bb4-975986d3382b","system_id":"levelo_inurba_marseille","lat":43.28151,"lon":5.42655,"is_reserved":false,"is_disabled":false,"rental_uris":{"android":"levelo://app?vid=b3739dd1-c2ea-4afb-9bb4-975986d3382b","ios":"levelo://app?vid=b3739dd1-c2ea-4afb-9bb4-975986d3382b"},"vehicle_type_id":"4","last_reported":1740507198,"current_range_meters":6400,"station_id":"ce4bhnh2rcd13ifvqgug","pricing_plan_id":"cebpf4jnsgd1na2vs0mg"},{"bike_id":"eca5959f-ee34-40c3-8410-160ba8599d0c","system_id":"levelo_inurba_marseille","lat":43.31367,"lon":5.385,"is_reserved":false,"is_disabled":false,"rental_uris":{"android":"levelo://app?vid=eca5959f-ee34-40c3-8410-160ba8599d0c","ios":"levelo://app?vid=eca5959f-ee34-40c3-8410-160ba8599d0c"},"vehicle_type_id":"4","last_reported":1740507198,"current_range_meters":6400,"station_id":"ce4bgt92rcd13ifvqcf0","pricing_plan_id":"cebpf4jnsgd1na2vs0mg"},{"bike_id":"d7d78ca0-6eb6-4b8d-b645-f576204891f9","system_id":"levelo_inurba_marseille","lat":43.31124,"lon":5.37763,"is_reserved":false,"is_disabled":false,"rental_uris":{"android":"levelo://app?vid=d7d78ca0-6eb6-4b8d-b645-f576204891f9","ios":"levelo://app?vid=d7d78ca0-6eb6-4b8d-b645-f576204891f9"},"vehicle_type_id":"4","last_reported":1740507198,"current_range_meters":6400,"station_id":"ce4bgt92rcd13ifvqcg0","pricing_plan_id":"cebpf4jnsgd1na2vs0mg"},{"bike_id":"322c0db9-e580-4b56-9659-2338e6a758a3","system_id":"levelo_inurba_marseille","lat":43.30466,"lon":5.38225,"is_reserved":false,"is_disabled":false,"rental_uris":{"android":"levelo://app?vid=322c0db9-e580-4b56-9659-2338e6a758a3","ios":"levelo://app?vid=322c0db9-e580-4b56-9659-2338e6a758a3"},"vehicle_type_id":"4","last_reported":1740507198,"current_range_meters":6400,"station_id":"","pricing_plan_id":"cebpf4jnsgd1na2vs0mg"},{"bike_id":"17150a21-63a8-4df4-92e7-b364b699a6c6","system_id":"levelo_inurba_marseille","lat":43.231865,"lon":5.39984,"is_reserved":false,"is_disabled":false,"rental_uris":{"android":"levelo://app?vid=17150a21-63a8-4df4-92e7-b364b699a6c6","ios":"levelo://app?vid=17150a21-63a8-4df4-92e7-b364b699a6c6"},"vehicle_type_id":"4","last_reported":1740507198,"current_range_meters":6400,"station_id":"ce4bhn12rcd13ifvqgqg","pricing_plan_id":"cebpf4jnsgd1na2vs0mg"},{"bike_id":"b13858bb-7c44-42c9-9f81-cd83b80c4cec","system_id":"levelo_inurba_marseille","lat":43.26217,"lon":5.40466,"is_reserved":false,"is_disabled":false,"rental_uris":{"android":"levelo://app?vid=b13858bb-7c44-42c9-9f81-cd83b80c4cec","ios":"levelo://app?vid=b13858bb-7c44-42c9-9f81-cd83b80c4cec"},"vehicle_type_id":"4","last_reported":1740507198,"current_range_meters":6400,"station_id":"ce4bhmh2rcd13ifvqgmg","pricing_plan_id":"cebpf4jnsgd1na2vs0mg"},{"bike_id":"432f7b5e-d7d0-4d61-9ca5-880bd04e8fc5","system_id":"levelo_inurba_marseille","lat":43.278342,"lon":5.39212,"is_reserved":false,"is_disabled":false,"rental_uris":{"android":"levelo://app?vid=432f7b5e-d7d0-4d61-9ca5-880bd04e8fc5","ios":"levelo://app?vid=432f7b5e-d7d0-4d61-9ca5-880bd04e8fc5"},"vehicle_type_id":"4","last_reported":1740507198,"current_range_meters":6400,"station_id":"ce4bhjp2rcd13ifvqga0","pricing_plan_id":"cebpf4jnsgd1na2vs0mg"},{"bike_id":"755a0161-62b4-4833-ab12-ccd6ceb6dd1f","system_id":"levelo_inurba_marseille","lat":43.30925,"lon":5.40153,"is_reserved":false,"is_disabled":true,"rental_uris":{"android":"levelo://app?vid=755a0161-62b4-4833-ab12-ccd6ceb6dd1f","ios":"levelo://app?vid=755a0161-62b4-4833-ab12-ccd6ceb6dd1f"},"vehicle_type_id":"4","last_reported":1740507198,"current_range_meters":6400,"station_id":"ce4bgvp2rcd13ifvqct0","pricing_plan_id":"cebpf4jnsgd1na2vs0mg"},{"bike_id":"1c8236a9-96fb-443c-bf9a-d26ed00cc14f","system_id":"levelo_inurba_marseille","lat":43.2466,"lon":5.38164,"is_reserved":false,"is_disabled":false,"rental_uris":{"android":"levelo://app?vid=1c8236a9-96fb-443c-bf9a-d26ed00cc14f","ios":"levelo://app?vid=1c8236a9-96fb-443c-bf9a-d26ed00cc14f"},"vehicle_type_id":"4","last_reported":1740507198,"current_range_meters":6400,"station_id":"ce4bhih2rcd13ifvqfr0","pricing_plan_id":"cebpf4jnsgd1na2vs0mg"},{"bike_id":"da634367-acad-40de-ac7c-eb1fe9e9f106","system_id":"levelo_inurba_marseille","lat":43.28698,"lon":5.37388,"is_reserved":false,"is_disabled":true,"rental_uris":{"android":"levelo://app?vid=da634367-acad-40de-ac7c-eb1fe9e9f106","ios":"levelo://app?vid=da634367-acad-40de-ac7c-eb1fe9e9f106"},"vehicle_type_id":"4","last_reported":1740507198,"current_range_meters":6800,"station_id":"ce4bh3p2rcd13ifvqdq0","pricing_plan_id":"cebpf4jnsgd1na2vs0mg"},{"bike_id":"92aabcf1-8c40-4f41-9a99-0c5b795f7fc9","system_id":"levelo_inurba_marseille","lat":43.25088,"lon":5.39527,"is_reserved":false,"is_disabled":false,"rental_uris":{"android":"levelo://app?vid=92aabcf1-8c40-4f41-9a99-0c5b795f7fc9","ios":"levelo://app?vid=92aabcf1-8c40-4f41-9a99-0c5b795f7fc9"},"vehicle_type_id":"4","last_reported":1740507198,"current_range_meters":6800,"station_id":"ce4bhm12rcd13ifvqgkg","pricing_plan_id":"cebpf4jnsgd1na2vs0mg"},{"bike_id":"6b0e301a-789e-4363-9355-7f034d842d69","system_id":"levelo_inurba_marseille","lat":43.27075,"lon":5.40286,"is_reserved":false,"is_disabled":false,"rental_uris":{"android":"levelo://app?vid=6b0e301a-789e-4363-9355-7f034d842d69","ios":"levelo://app?vid=6b0e301a-789e-4363-9355-7f034d842d69"},"vehicle_type_id":"4","last_reported":1740507198,"current_range_meters":6800,"station_id":"ce4bhk92rcd13ifvqgc0","pricing_plan_id":"cebpf4jnsgd1na2vs0mg"},{"bike_id":"38b274ce-9909-4fc1-8760-435de8af0660","system_id":"levelo_inurba_marseille","lat":43.31366,"lon":5.38492,"is_reserved":false,"is_disabled":false,"rental_uris":{"android":"levelo://app?vid=38b274ce-9909-4fc1-8760-435de8af0660","ios":"levelo://app?vid=38b274ce-9909-4fc1-8760-435de8af0660"},"vehicle_type_id":"4","last_reported":1740507198,"current_range_meters":6800,"station_id":"ce4bgt92rcd13ifvqcf0","pricing_plan_id":"cebpf4jnsgd1na2vs0mg"},{"bike_id":"53bc4704-fa9c-4074-9d2c-8aa30001b7a8","system_id":"levelo_inurba_marseille","lat":43.30955,"lon":5.39038,"is_reserved":false,"is_disabled":false,"rental_uris":{"android":"levelo://app?vid=53bc4704-fa9c-4074-9d2c-8aa30001b7a8","ios":"levelo://app?vid=53bc4704-fa9c-4074-9d2c-8aa30001b7a8"},"vehicle_type_id":"4","last_reported":1740507198,"current_range_meters":10800,"station_id":"ce4bgup2rcd13ifvqco0","pricing_plan_id":"cebpf4jnsgd1na2vs0mg"},{"bike_id":"54fe31c8-6d36-49df-aa78-7c381d448243","system_id":"levelo_inurba_marseille","lat":43.28467,"lon":5.35883,"is_reserved":false,"is_disabled":false,"rental_uris":{"android":"levelo://app?vid=54fe31c8-6d36-49df-aa78-7c381d448243","ios":"levelo://app?vid=54fe31c8-6d36-49df-aa78-7c381d448243"},"vehicle_type_id":"4","last_reported":1740507198,"current_range_meters":6800,"station_id":"ce4bhah2rcd13ifvqei0","pricing_plan_id":"cebpf4jnsgd1na2vs0mg"},{"bike_id":"f513b22f-1270-409c-88f4-5d445d93fc81","system_id":"levelo_inurba_marseille","lat":43.25833,"lon":5.39432,"is_reserved":false,"is_disabled":false,"rental_uris":{"android":"levelo://app?vid=f513b22f-1270-409c-88f4-5d445d93fc81","ios":"levelo://app?vid=f513b22f-1270-409c-88f4-5d445d93fc81"},"vehicle_type_id":"4","last_reported":1740507198,"current_range_meters":7200,"station_id":"ce4bhip2rcd13ifvqft0","pricing_plan_id":"cebpf4jnsgd1na2vs0mg"},{"bike_id":"5b1330cb-9e0c-4ecb-a5f4-98cf52af9afc","system_id":"levelo_inurba_marseille","lat":43.25723,"lon":5.41111,"is_reserved":false,"is_disabled":false,"rental_uris":{"android":"levelo://app?vid=5b1330cb-9e0c-4ecb-a5f4-98cf52af9afc","ios":"levelo://app?vid=5b1330cb-9e0c-4ecb-a5f4-98cf52af9afc"},"vehicle_type_id":"4","last_reported":1740507198,"current_range_meters":7200,"station_id":"ce4bhkp2rcd13ifvqgd0","pricing_plan_id":"cebpf4jnsgd1na2vs0mg"},{"bike_id":"0a72916f-db65-4d32-976f-b2305f3c3331","system_id":"levelo_inurba_marseille","lat":43.31775,"lon":5.39021,"is_reserved":false,"is_disabled":false,"rental_uris":{"android":"levelo://app?vid=0a72916f-db65-4d32-976f-b2305f3c3331","ios":"levelo://app?vid=0a72916f-db65-4d32-976f-b2305f3c3331"},"vehicle_type_id":"4","last_reported":1740507198,"current_range_meters":7200,"station_id":"ce4bhqp2rcd13ifvqhng","pricing_plan_id":"cebpf4jnsgd1na2vs0mg"},{"bike_id":"b0319319-1ae3-4867-bf81-d240c9f190cb","system_id":"levelo_inurba_marseille","lat":43.2861,"lon":5.35112,"is_reserved":false,"is_disabled":false,"rental_uris":{"android":"levelo://app?vid=b0319319-1ae3-4867-bf81-d240c9f190cb","ios":"levelo://app?vid=b0319319-1ae3-4867-bf81-d240c9f190cb"},"vehicle_type_id":"4","last_reported":1740507198,"current_range_meters":7200,"station_id":"ce4bhch2rcd13ifvqeug","pricing_plan_id":"cebpf4jnsgd1na2vs0mg"},{"bike_id":"48043528-c521-4656-ac42-dd4891924259","system_id":"levelo_inurba_marseille","lat":43.28535,"lon":5.38381,"is_reserved":false,"is_disabled":false,"rental_uris":{"android":"levelo://app?vid=48043528-c521-4656-ac42-dd4891924259","ios":"levelo://app?vid=48043528-c521-4656-ac42-dd4891924259"},"vehicle_type_id":"4","last_reported":1740507198,"current_range_meters":8400,"station_id":"","pricing_plan_id":"cebpf4jnsgd1na2vs0mg"},{"bike_id":"191a008d-82af-4472-81c6-1c4ebca1698c","system_id":"levelo_inurba_marseille","lat":43.29924,"lon":5.37482,"is_reserved":false,"is_disabled":false,"rental_uris":{"android":"levelo://app?vid=191a008d-82af-4472-81c6-1c4ebca1698c","ios":"levelo://app?vid=191a008d-82af-4472-81c6-1c4ebca1698c"},"vehicle_type_id":"4","last_reported":1740507198,"current_range_meters":8000,"station_id":"ce4bgjh2rcd13ifvqbg0","pricing_plan_id":"cebpf4jnsgd1na2vs0mg"},{"bike_id":"c8f6faae-dbfc-411f-a1fd-4f0f5be0d6d1","system_id":"levelo_inurba_marseille","lat":43.3173,"lon":5.42395,"is_reserved":false,"is_disabled":false,"rental_uris":{"android":"levelo://app?vid=c8f6faae-dbfc-411f-a1fd-4f0f5be0d6d1","ios":"levelo://app?vid=c8f6faae-dbfc-411f-a1fd-4f0f5be0d6d1"},"vehicle_type_id":"4","last_reported":1740507198,"current_range_meters":8000,"station_id":"ce4bhp92rcd13ifvqhbg","pricing_plan_id":"cebpf4jnsgd1na2vs0mg"},{"bike_id":"146aebc9-098b-47c2-b26e-46c1350561bc","system_id":"levelo_inurba_marseille","lat":43.337699,"lon":5.37479,"is_reserved":false,"is_disabled":false,"rental_uris":{"android":"levelo://app?vid=146aebc9-098b-47c2-b26e-46c1350561bc","ios":"levelo://app?vid=146aebc9-098b-47c2-b26e-46c1350561bc"},"vehicle_type_id":"4","last_reported":1740507198,"current_range_meters":8000,"station_id":"","pricing_plan_id":"cebpf4jnsgd1na2vs0mg"},{"bike_id":"8151addf-9a2f-4b65-828e-378a989003fb","system_id":"levelo_inurba_marseille","lat":43.31898,"lon":5.40732,"is_reserved":false,"is_disabled":false,"rental_uris":{"android":"levelo://app?vid=8151addf-9a2f-4b65-828e-378a989003fb","ios":"levelo://app?vid=8151addf-9a2f-4b65-828e-378a989003fb"},"vehicle_type_id":"4","last_reported":1740507198,"current_range_meters":8000,"station_id":"ce4bhq12rcd13ifvqhig","pricing_plan_id":"cebpf4jnsgd1na2vs0mg"},{"bike_id":"5162c2ce-a731-4d3b-a21a-a1c8cb63150f","system_id":"levelo_inurba_marseille","lat":43.31707,"lon":5.43685,"is_reserved":false,"is_disabled":false,"rental_uris":{"android":"levelo://app?vid=5162c2ce-a731-4d3b-a21a-a1c8cb63150f","ios":"levelo://app?vid=5162c2ce-a731-4d3b-a21a-a1c8cb63150f"},"vehicle_type_id":"4","last_reported":1740507198,"current_range_meters":8000,"station_id":"ce4bhp92rcd13ifvqhcg","pricing_plan_id":"cebpf4jnsgd1na2vs0mg"},{"bike_id":"d8eb1d95-1fee-4e72-b7bd-4b17c471587d","system_id":"levelo_inurba_marseille","lat":43.29534,"lon":5.38544,"is_reserved":false,"is_disabled":false,"rental_uris":{"android":"levelo://app?vid=d8eb1d95-1fee-4e72-b7bd-4b17c471587d","ios":"levelo://app?vid=d8eb1d95-1fee-4e72-b7bd-4b17c471587d"},"vehicle_type_id":"4","last_reported":1740507198,"current_range_meters":7200,"station_id":"ce4bgih2rcd13ifvqba0","pricing_plan_id":"cebpf4jnsgd1na2vs0mg"},{"bike_id":"de998bbb-545c-41d1-8e7f-b543048043ce","system_id":"levelo_inurba_marseille","lat":43.28698,"lon":5.37384,"is_reserved":false,"is_disabled":false,"rental_uris":{"android":"levelo://app?vid=de998bbb-545c-41d1-8e7f-b543048043ce","ios":"levelo://app?vid=de998bbb-545c-41d1-8e7f-b543048043ce"},"vehicle_type_id":"4","last_reported":1740507198,"current_range_meters":7200,"station_id":"ce4bh3p2rcd13ifvqdq0","pricing_plan_id":"cebpf4jnsgd1na2vs0mg"},{"bike_id":"93f21c71-494f-415a-ae74-9aabc2fe02a6","system_id":"levelo_inurba_marseille","lat":43.29577,"lon":5.36739,"is_reserved":false,"is_disabled":false,"rental_uris":{"android":"levelo://app?vid=93f21c71-494f-415a-ae74-9aabc2fe02a6","ios":"levelo://app?vid=93f21c71-494f-415a-ae74-9aabc2fe02a6"},"vehicle_type_id":"4","last_reported":1740507198,"current_range_meters":8000,"station_id":"ce4bgph2rcd13ifvqc2g","pricing_plan_id":"cebpf4jnsgd1na2vs0mg"},{"bike_id":"f58a2741-fe1f-45fe-86a7-94e1e33b8745","system_id":"levelo_inurba_marseille","lat":43.31126,"lon":5.37766,"is_reserved":false,"is_disabled":false,"rental_uris":{"android":"levelo://app?vid=f58a2741-fe1f-45fe-86a7-94e1e33b8745","ios":"levelo://app?vid=f58a2741-fe1f-45fe-86a7-94e1e33b8745"},"vehicle_type_id":"4","last_reported":1740507198,"current_range_meters":10000,"station_id":"ce4bgt92rcd13ifvqcg0","pricing_plan_id":"cebpf4jnsgd1na2vs0mg"},{"bike_id":"5f516801-523f-4d74-bc7b-d8e2f69b848e","system_id":"levelo_inurba_marseille","lat":43.29232,"lon":5.36068,"is_reserved":false,"is_disabled":false,"rental_uris":{"android":"levelo://app?vid=5f516801-523f-4d74-bc7b-d8e2f69b848e","ios":"levelo://app?vid=5f516801-523f-4d74-bc7b-d8e2f69b848e"},"vehicle_type_id":"4","last_reported":1740507198,"current_range_meters":8400,"station_id":"ce4bhbh2rcd13ifvqeqg","pricing_plan_id":"cebpf4jnsgd1na2vs0mg"},{"bike_id":"66c4e27d-fd15-4e96-8910-1916ae6d5d49","system_id":"levelo_inurba_marseille","lat":43.2847,"lon":5.3588,"is_reserved":false,"is_disabled":false,"rental_uris":{"android":"levelo://app?vid=66c4e27d-fd15-4e96-8910-1916ae6d5d49","ios":"levelo://app?vid=66c4e27d-fd15-4e96-8910-1916ae6d5d49"},"vehicle_type_id":"4","last_reported":1740507198,"current_range_meters":8400,"station_id":"ce4bhah2rcd13ifvqei0","pricing_plan_id":"cebpf4jnsgd1na2vs0mg"},{"bike_id":"94e2a98b-59a1-4b23-aa10-06484019ee13","system_id":"levelo_inurba_marseille","lat":43.28267,"lon":5.35068,"is_reserved":false,"is_disabled":false,"rental_uris":{"android":"levelo://app?vid=94e2a98b-59a1-4b23-aa10-06484019ee13","ios":"levelo://app?vid=94e2a98b-59a1-4b23-aa10-06484019ee13"},"vehicle_type_id":"4","last_reported":1740507198,"current_range_meters":8400,"station_id":"ce4bhbp2rcd13ifvqerg","pricing_plan_id":"cebpf4jnsgd1na2vs0mg"},{"bike_id":"652e010c-c05f-4832-a370-b768a2682f44","system_id":"levelo_inurba_marseille","lat":43.32345,"lon":5.3863,"is_reserved":false,"is_disabled":false,"rental_uris":{"android":"levelo://app?vid=652e010c-c05f-4832-a370-b768a2682f44","ios":"levelo://app?vid=652e010c-c05f-4832-a370-b768a2682f44"},"vehicle_type_id":"4","last_reported":1740507198,"current_range_meters":8400,"station_id":"","pricing_plan_id":"cebpf4jnsgd1na2vs0mg"},{"bike_id":"d54d80d0-89cd-4f17-84e4-3b6e7f868b3c","system_id":"levelo_inurba_marseille","lat":43.2927,"lon":5.38433,"is_reserved":false,"is_disabled":false,"rental_uris":{"android":"levelo://app?vid=d54d80d0-89cd-4f17-84e4-3b6e7f868b3c","ios":"levelo://app?vid=d54d80d0-89cd-4f17-84e4-3b6e7f868b3c"},"vehicle_type_id":"4","last_reported":1740507198,"current_range_meters":8400,"station_id":"ce4bh692rcd13ifvqea0","pricing_plan_id":"cebpf4jnsgd1na2vs0mg"},{"bike_id":"ceff7498-623c-49c6-b291-d6b8b533e34e","system_id":"levelo_inurba_marseille","lat":43.32359,"lon":5.38891,"is_reserved":false,"is_disabled":false,"rental_uris":{"android":"levelo://app?vid=ceff7498-623c-49c6-b291-d6b8b533e34e","ios":"levelo://app?vid=ceff7498-623c-49c6-b291-d6b8b533e34e"},"vehicle_type_id":"4","last_reported":1740507198,"current_range_meters":8400,"station_id":"ce4bhqp2rcd13ifvqhog","pricing_plan_id":"cebpf4jnsgd1na2vs0mg"},{"bike_id":"ad15a503-e243-4704-8cbb-77d92c75e1d9","system_id":"levelo_inurba_marseille","lat":43.28415,"lon":5.39116,"is_reserved":false,"is_disabled":true,"rental_uris":{"android":"levelo://app?vid=ad15a503-e243-4704-8cbb-77d92c75e1d9","ios":"levelo://app?vid=ad15a503-e243-4704-8cbb-77d92c75e1d9"},"vehicle_type_id":"4","last_reported":1740507198,"current_range_meters":8400,"station_id":"","pricing_plan_id":"cebpf4jnsgd1na2vs0mg"},{"bike_id":"3663f829-7050-4e49-be23-5885b47d0581","system_id":"levelo_inurba_marseille","lat":43.29512,"lon":5.39405,"is_reserved":false,"is_disabled":false,"rental_uris":{"android":"levelo://app?vid=3663f829-7050-4e49-be23-5885b47d0581","ios":"levelo://app?vid=3663f829-7050-4e49-be23-5885b47d0581"},"vehicle_type_id":"4","last_reported":1740507198,"current_range_meters":8400,"station_id":"ce4bh292rcd13ifvqdf0","pricing_plan_id":"cebpf4jnsgd1na2vs0mg"},{"bike_id":"a141b9ae-2c6e-41ff-a4a5-632b6f8fa821","system_id":"levelo_inurba_marseille","lat":43.28364,"lon":5.38096,"is_reserved":false,"is_disabled":false,"rental_uris":{"android":"levelo://app?vid=a141b9ae-2c6e-41ff-a4a5-632b6f8fa821","ios":"levelo://app?vid=a141b9ae-2c6e-41ff-a4a5-632b6f8fa821"},"vehicle_type_id":"4","last_reported":1740507198,"current_range_meters":11200,"station_id":"ce4bh412rcd13ifvqdr0","pricing_plan_id":"cebpf4jnsgd1na2vs0mg"},{"bike_id":"f0d9f04c-ad9d-420c-8364-57b1241a2260","system_id":"levelo_inurba_marseille","lat":43.29264,"lon":5.38444,"is_reserved":false,"is_disabled":false,"rental_uris":{"android":"levelo://app?vid=f0d9f04c-ad9d-420c-8364-57b1241a2260","ios":"levelo://app?vid=f0d9f04c-ad9d-420c-8364-57b1241a2260"},"vehicle_type_id":"4","last_reported":1740507198,"current_range_meters":8800,"station_id":"ce4bh692rcd13ifvqea0","pricing_plan_id":"cebpf4jnsgd1na2vs0mg"},{"bike_id":"54e7028c-62dd-46e2-9a69-27e0f34b2f36","system_id":"levelo_inurba_marseille","lat":43.2873,"lon":5.36078,"is_reserved":false,"is_disabled":false,"rental_uris":{"android":"levelo://app?vid=54e7028c-62dd-46e2-9a69-27e0f34b2f36","ios":"levelo://app?vid=54e7028c-62dd-46e2-9a69-27e0f34b2f36"},"vehicle_type_id":"4","last_reported":1740507198,"current_range_meters":8800,"station_id":"cki0cbj6b192h4jlfktg","pricing_plan_id":"cebpf4jnsgd1na2vs0mg"},{"bike_id":"b3be3741-6ba0-4c85-bada-5d60cd637267","system_id":"levelo_inurba_marseille","lat":43.28142,"lon":5.4266,"is_reserved":false,"is_disabled":false,"rental_uris":{"android":"levelo://app?vid=b3be3741-6ba0-4c85-bada-5d60cd637267","ios":"levelo://app?vid=b3be3741-6ba0-4c85-bada-5d60cd637267"},"vehicle_type_id":"4","last_reported":1740507198,"current_range_meters":8800,"station_id":"ce4bhnh2rcd13ifvqgug","pricing_plan_id":"cebpf4jnsgd1na2vs0mg"},{"bike_id":"1c8a639a-5981-46b4-8529-ef7a6cf3ebf3","system_id":"levelo_inurba_marseille","lat":43.29705,"lon":5.36607,"is_reserved":false,"is_disabled":false,"rental_uris":{"android":"levelo://app?vid=1c8a639a-5981-46b4-8529-ef7a6cf3ebf3","ios":"levelo://app?vid=1c8a639a-5981-46b4-8529-ef7a6cf3ebf3"},"vehicle_type_id":"4","last_reported":1740507198,"current_range_meters":9200,"station_id":"ce4bgn12rcd13ifvqbt0","pricing_plan_id":"cebpf4jnsgd1na2vs0mg"},{"bike_id":"5d82850a-2060-4334-b916-61c4448a40ba","system_id":"levelo_inurba_marseille","lat":43.24807,"lon":5.37455,"is_reserved":false,"is_disabled":false,"rental_uris":{"android":"levelo://app?vid=5d82850a-2060-4334-b916-61c4448a40ba","ios":"levelo://app?vid=5d82850a-2060-4334-b916-61c4448a40ba"},"vehicle_type_id":"4","last_reported":1740507198,"current_range_meters":9200,"station_id":"ce4bhgh2rcd13ifvqfb0","pricing_plan_id":"cebpf4jnsgd1na2vs0mg"},{"bike_id":"dbd3c8d2-9217-4414-8ce9-3e5785c88579","system_id":"levelo_inurba_marseille","lat":43.31183,"lon":5.38703,"is_reserved":false,"is_disabled":false,"rental_uris":{"android":"levelo://app?vid=dbd3c8d2-9217-4414-8ce9-3e5785c88579","ios":"levelo://app?vid=dbd3c8d2-9217-4414-8ce9-3e5785c88579"},"vehicle_type_id":"4","last_reported":1740507198,"current_range_meters":6000,"station_id":"ce4bgv12rcd13ifvqcp0","pricing_plan_id":"cebpf4jnsgd1na2vs0mg"},{"bike_id":"e60c3d7a-558d-40da-9213-6b846f4e8868","system_id":"levelo_inurba_marseille","lat":43.28154,"lon":5.42634,"is_reserved":false,"is_disabled":false,"rental_uris":{"android":"levelo://app?vid=e60c3d7a-558d-40da-9213-6b846f4e8868","ios":"levelo://app?vid=e60c3d7a-558d-40da-9213-6b846f4e8868"},"vehicle_type_id":"4","last_reported":1740507198,"current_range_meters":9200,"station_id":"ce4bhnh2rcd13ifvqgug","pricing_plan_id":"cebpf4jnsgd1na2vs0mg"},{"bike_id":"04fed40f-6366-4adc-8110-34cd72fc4be4","system_id":"levelo_inurba_marseille","lat":43.28462,"lon":5.3588,"is_reserved":false,"is_disabled":false,"rental_uris":{"android":"levelo://app?vid=04fed40f-6366-4adc-8110-34cd72fc4be4","ios":"levelo://app?vid=04fed40f-6366-4adc-8110-34cd72fc4be4"},"vehicle_type_id":"4","last_reported":1740507198,"current_range_meters":10000,"station_id":"ce4bhah2rcd13ifvqei0","pricing_plan_id":"cebpf4jnsgd1na2vs0mg"},{"bike_id":"b3bca411-1a60-4b56-b6cd-6cdec8118a8c","system_id":"levelo_inurba_marseille","lat":43.26212,"lon":5.37441,"is_reserved":false,"is_disabled":false,"rental_uris":{"android":"levelo://app?vid=b3bca411-1a60-4b56-b6cd-6cdec8118a8c","ios":"levelo://app?vid=b3bca411-1a60-4b56-b6cd-6cdec8118a8c"},"vehicle_type_id":"4","last_reported":1740507198,"current_range_meters":9200,"station_id":"ce4bhgp2rcd13ifvqfc0","pricing_plan_id":"cebpf4jnsgd1na2vs0mg"},{"bike_id":"ae8a19c6-d644-4dc9-829e-8caf6b1d2af0","system_id":"levelo_inurba_marseille","lat":43.27221,"lon":5.39204,"is_reserved":false,"is_disabled":true,"rental_uris":{"android":"levelo://app?vid=ae8a19c6-d644-4dc9-829e-8caf6b1d2af0","ios":"levelo://app?vid=ae8a19c6-d644-4dc9-829e-8caf6b1d2af0"},"vehicle_type_id":"4","last_reported":1740507198,"current_range_meters":9200,"station_id":"ce4bhhp2rcd13ifvqfm0","pricing_plan_id":"cebpf4jnsgd1na2vs0mg"},{"bike_id":"8f9c93fb-eeee-46b2-a0ee-c43c3d59dd96","system_id":"levelo_inurba_marseille","lat":43.28161,"lon":5.42643,"is_reserved":false,"is_disabled":false,"rental_uris":{"android":"levelo://app?vid=8f9c93fb-eeee-46b2-a0ee-c43c3d59dd96","ios":"levelo://app?vid=8f9c93fb-eeee-46b2-a0ee-c43c3d59dd96"},"vehicle_type_id":"4","last_reported":1740507198,"current_range_meters":9200,"station_id":"ce4bhnh2rcd13ifvqgug","pricing_plan_id":"cebpf4jnsgd1na2vs0mg"},{"bike_id":"7ce94ac4-8de9-4d22-ab59-fafd5d4ddae0","system_id":"levelo_inurba_marseille","lat":43.27994,"lon":5.40018,"is_reserved":false,"is_disabled":false,"rental_uris":{"android":"levelo://app?vid=7ce94ac4-8de9-4d22-ab59-fafd5d4ddae0","ios":"levelo://app?vid=7ce94ac4-8de9-4d22-ab59-fafd5d4ddae0"},"vehicle_type_id":"4","last_reported":1740507198,"current_range_meters":9600,"station_id":"ce4bho92rcd13ifvqh4g","pricing_plan_id":"cebpf4jnsgd1na2vs0mg"},{"bike_id":"e5c275a2-a964-47d8-9489-ed1126cf4cef","system_id":"levelo_inurba_marseille","lat":43.2962,"lon":5.37897,"is_reserved":false,"is_disabled":false,"rental_uris":{"android":"levelo://app?vid=e5c275a2-a964-47d8-9489-ed1126cf4cef","ios":"levelo://app?vid=e5c275a2-a964-47d8-9489-ed1126cf4cef"},"vehicle_type_id":"4","last_reported":1740507198,"current_range_meters":9600,"station_id":"","pricing_plan_id":"cebpf4jnsgd1na2vs0mg"},{"bike_id":"1e2d74a3-cdaf-4d99-929c-4f74a06c796a","system_id":"levelo_inurba_marseille","lat":43.29268,"lon":5.38436,"is_reserved":false,"is_disabled":false,"rental_uris":{"android":"levelo://app?vid=1e2d74a3-cdaf-4d99-929c-4f74a06c796a","ios":"levelo://app?vid=1e2d74a3-cdaf-4d99-929c-4f74a06c796a"},"vehicle_type_id":"4","last_reported":1740507198,"current_range_meters":9600,"station_id":"ce4bh692rcd13ifvqea0","pricing_plan_id":"cebpf4jnsgd1na2vs0mg"},{"bike_id":"6cfe6c0b-f073-48df-9d8d-da9b92280f00","system_id":"levelo_inurba_marseille","lat":43.31756,"lon":5.39022,"is_reserved":false,"is_disabled":false,"rental_uris":{"android":"levelo://app?vid=6cfe6c0b-f073-48df-9d8d-da9b92280f00","ios":"levelo://app?vid=6cfe6c0b-f073-48df-9d8d-da9b92280f00"},"vehicle_type_id":"4","last_reported":1740507198,"current_range_meters":9600,"station_id":"ce4bhqp2rcd13ifvqhng","pricing_plan_id":"cebpf4jnsgd1na2vs0mg"},{"bike_id":"6daa4d6b-b19e-42ac-82a6-c43e1de55ed6","system_id":"levelo_inurba_marseille","lat":43.30939,"lon":5.40144,"is_reserved":false,"is_disabled":false,"rental_uris":{"android":"levelo://app?vid=6daa4d6b-b19e-42ac-82a6-c43e1de55ed6","ios":"levelo://app?vid=6daa4d6b-b19e-42ac-82a6-c43e1de55ed6"},"vehicle_type_id":"4","last_reported":1740507198,"current_range_meters":10000,"station_id":"ce4bgvp2rcd13ifvqct0","pricing_plan_id":"cebpf4jnsgd1na2vs0mg"},{"bike_id":"b301d4a6-d7b2-4729-8a87-0ef1b2650231","system_id":"levelo_inurba_marseille","lat":43.30781,"lon":5.37655,"is_reserved":false,"is_disabled":false,"rental_uris":{"android":"levelo://app?vid=b301d4a6-d7b2-4729-8a87-0ef1b2650231","ios":"levelo://app?vid=b301d4a6-d7b2-4729-8a87-0ef1b2650231"},"vehicle_type_id":"4","last_reported":1740507198,"current_range_meters":8800,"station_id":"ce4bgv92rcd13ifvqcq0","pricing_plan_id":"cebpf4jnsgd1na2vs0mg"},{"bike_id":"cffafb85-8217-4e8c-8b7c-26a52a1d9051","system_id":"levelo_inurba_marseille","lat":43.31122,"lon":5.37766,"is_reserved":false,"is_disabled":false,"rental_uris":{"android":"levelo://app?vid=cffafb85-8217-4e8c-8b7c-26a52a1d9051","ios":"levelo://app?vid=cffafb85-8217-4e8c-8b7c-26a52a1d9051"},"vehicle_type_id":"4","last_reported":1740507198,"current_range_meters":10000,"station_id":"ce4bgt92rcd13ifvqcg0","pricing_plan_id":"cebpf4jnsgd1na2vs0mg"},{"bike_id":"b8056528-61d4-45d9-b2dd-e6ab8ef50c51","system_id":"levelo_inurba_marseille","lat":43.31279,"lon":5.4017,"is_reserved":false,"is_disabled":false,"rental_uris":{"android":"levelo://app?vid=b8056528-61d4-45d9-b2dd-e6ab8ef50c51","ios":"levelo://app?vid=b8056528-61d4-45d9-b2dd-e6ab8ef50c51"},"vehicle_type_id":"4","last_reported":1740507198,"current_range_meters":10000,"station_id":"ce4bh092rcd13ifvqd30","pricing_plan_id":"cebpf4jnsgd1na2vs0mg"},{"bike_id":"c13dadc1-dfe6-4bc3-ba49-747fa1ec330f","system_id":"levelo_inurba_marseille","lat":43.292,"lon":5.358,"is_reserved":false,"is_disabled":false,"rental_uris":{"android":"levelo://app?vid=c13dadc1-dfe6-4bc3-ba49-747fa1ec330f","ios":"levelo://app?vid=c13dadc1-dfe6-4bc3-ba49-747fa1ec330f"},"vehicle_type_id":"4","last_reported":1740507198,"current_range_meters":14800,"station_id":"ce4bhb12rcd13ifvqel0","pricing_plan_id":"cebpf4jnsgd1na2vs0mg"},{"bike_id":"33d5722e-8844-4839-9aeb-9d83bf8f270b","system_id":"levelo_inurba_marseille","lat":43.32663,"lon":5.40991,"is_reserved":false,"is_disabled":false,"rental_uris":{"android":"levelo://app?vid=33d5722e-8844-4839-9aeb-9d83bf8f270b","ios":"levelo://app?vid=33d5722e-8844-4839-9aeb-9d83bf8f270b"},"vehicle_type_id":"4","last_reported":1740507198,"current_range_meters":10000,"station_id":"ce4bhpp2rcd13ifvqhgg","pricing_plan_id":"cebpf4jnsgd1na2vs0mg"},{"bike_id":"81854ebf-0024-4e94-a1b8-7d3d711b5ad6","system_id":"levelo_inurba_marseille","lat":43.30097,"lon":5.39066,"is_reserved":false,"is_disabled":false,"rental_uris":{"android":"levelo://app?vid=81854ebf-0024-4e94-a1b8-7d3d711b5ad6","ios":"levelo://app?vid=81854ebf-0024-4e94-a1b8-7d3d711b5ad6"},"vehicle_type_id":"4","last_reported":1740507198,"current_range_meters":10800,"station_id":"ce4bh192rcd13ifvqdb0","pricing_plan_id":"cebpf4jnsgd1na2vs0mg"},{"bike_id":"6a0c7139-dad4-46e0-a6b6-9e813b46471f","system_id":"levelo_inurba_marseille","lat":43.292694,"lon":5.38441,"is_reserved":false,"is_disabled":false,"rental_uris":{"android":"levelo://app?vid=6a0c7139-dad4-46e0-a6b6-9e813b46471f","ios":"levelo://app?vid=6a0c7139-dad4-46e0-a6b6-9e813b46471f"},"vehicle_type_id":"4","last_reported":1740507198,"current_range_meters":8000,"station_id":"ce4bh692rcd13ifvqea0","pricing_plan_id":"cebpf4jnsgd1na2vs0mg"},{"bike_id":"43d63f8a-f3b7-4d7c-be3c-996582d0e403","system_id":"levelo_inurba_marseille","lat":43.28418,"lon":5.375137,"is_reserved":false,"is_disabled":false,"rental_uris":{"android":"levelo://app?vid=43d63f8a-f3b7-4d7c-be3c-996582d0e403","ios":"levelo://app?vid=43d63f8a-f3b7-4d7c-be3c-996582d0e403"},"vehicle_type_id":"4","last_reported":1740507198,"current_range_meters":3600,"station_id":"ce4bh412rcd13ifvqds0","pricing_plan_id":"cebpf4jnsgd1na2vs0mg"},{"bike_id":"446d6471-d048-48d9-b250-a72425f86bbb","system_id":"levelo_inurba_marseille","lat":43.2872,"lon":5.37948,"is_reserved":false,"is_disabled":false,"rental_uris":{"android":"levelo://app?vid=446d6471-d048-48d9-b250-a72425f86bbb","ios":"levelo://app?vid=446d6471-d048-48d9-b250-a72425f86bbb"},"vehicle_type_id":"4","last_reported":1740507198,"current_range_meters":9600,"station_id":"ce4bh9p2rcd13ifvqec0","pricing_plan_id":"cebpf4jnsgd1na2vs0mg"},{"bike_id":"aeed2899-746a-4738-91d4-47eb52592b70","system_id":"levelo_inurba_marseille","lat":43.28853,"lon":5.35857,"is_reserved":false,"is_disabled":false,"rental_uris":{"android":"levelo://app?vid=aeed2899-746a-4738-91d4-47eb52592b70","ios":"levelo://app?vid=aeed2899-746a-4738-91d4-47eb52592b70"},"vehicle_type_id":"4","last_reported":1740507198,"current_range_meters":11600,"station_id":"ce4bhb12rcd13ifvqem0","pricing_plan_id":"cebpf4jnsgd1na2vs0mg"},{"bike_id":"e93c7e29-0d01-4887-aaa1-1b6f0519e5f6","system_id":"levelo_inurba_marseille","lat":43.2987,"lon":5.3974,"is_reserved":false,"is_disabled":false,"rental_uris":{"android":"levelo://app?vid=e93c7e29-0d01-4887-aaa1-1b6f0519e5f6","ios":"levelo://app?vid=e93c7e29-0d01-4887-aaa1-1b6f0519e5f6"},"vehicle_type_id":"4","last_reported":1740507198,"current_range_meters":10000,"station_id":"ce4bh0h2rcd13ifvqd50","pricing_plan_id":"cebpf4jnsgd1na2vs0mg"},{"bike_id":"05f51bd6-bf8c-4b6c-ba2f-d7bf7cec3006","system_id":"levelo_inurba_marseille","lat":43.2319,"lon":5.35556,"is_reserved":false,"is_disabled":false,"rental_uris":{"android":"levelo://app?vid=05f51bd6-bf8c-4b6c-ba2f-d7bf7cec3006","ios":"levelo://app?vid=05f51bd6-bf8c-4b6c-ba2f-d7bf7cec3006"},"vehicle_type_id":"4","last_reported":1740507198,"current_range_meters":10800,"station_id":"ce4bhu92rcd13ifvqi70","pricing_plan_id":"cebpf4jnsgd1na2vs0mg"},{"bike_id":"1cb968f6-d06d-4938-bed5-f2fc347d99a7","system_id":"levelo_inurba_marseille","lat":43.29261,"lon":5.40904,"is_reserved":false,"is_disabled":false,"rental_uris":{"android":"levelo://app?vid=1cb968f6-d06d-4938-bed5-f2fc347d99a7","ios":"levelo://app?vid=1cb968f6-d06d-4938-bed5-f2fc347d99a7"},"vehicle_type_id":"4","last_reported":1740507198,"current_range_meters":15200,"station_id":"ce4bh192rcd13ifvqdc0","pricing_plan_id":"cebpf4jnsgd1na2vs0mg"},{"bike_id":"81f5a0ac-9fbc-4093-9829-7c67f70cb06b","system_id":"levelo_inurba_marseille","lat":43.31359,"lon":5.38497,"is_reserved":false,"is_disabled":false,"rental_uris":{"android":"levelo://app?vid=81f5a0ac-9fbc-4093-9829-7c67f70cb06b","ios":"levelo://app?vid=81f5a0ac-9fbc-4093-9829-7c67f70cb06b"},"vehicle_type_id":"4","last_reported":1740507198,"current_range_meters":10800,"station_id":"ce4bgt92rcd13ifvqcf0","pricing_plan_id":"cebpf4jnsgd1na2vs0mg"},{"bike_id":"99855d37-cafd-4750-b562-4cf42b4927e8","system_id":"levelo_inurba_marseille","lat":43.31895,"lon":5.4073,"is_reserved":false,"is_disabled":false,"rental_uris":{"android":"levelo://app?vid=99855d37-cafd-4750-b562-4cf42b4927e8","ios":"levelo://app?vid=99855d37-cafd-4750-b562-4cf42b4927e8"},"vehicle_type_id":"4","last_reported":1740507198,"current_range_meters":12400,"station_id":"ce4bhq12rcd13ifvqhig","pricing_plan_id":"cebpf4jnsgd1na2vs0mg"},{"bike_id":"f2a87237-f624-4bf7-ad01-90df07b15d25","system_id":"levelo_inurba_marseille","lat":43.28427,"lon":5.37512,"is_reserved":false,"is_disabled":false,"rental_uris":{"android":"levelo://app?vid=f2a87237-f624-4bf7-ad01-90df07b15d25","ios":"levelo://app?vid=f2a87237-f624-4bf7-ad01-90df07b15d25"},"vehicle_type_id":"4","last_reported":1740507198,"current_range_meters":10800,"station_id":"ce4bh412rcd13ifvqds0","pricing_plan_id":"cebpf4jnsgd1na2vs0mg"},{"bike_id":"25255681-d668-4957-b49d-3fba4d0fc5e1","system_id":"levelo_inurba_marseille","lat":43.27902,"lon":5.37992,"is_reserved":false,"is_disabled":false,"rental_uris":{"android":"levelo://app?vid=25255681-d668-4957-b49d-3fba4d0fc5e1","ios":"levelo://app?vid=25255681-d668-4957-b49d-3fba4d0fc5e1"},"vehicle_type_id":"4","last_reported":1740507198,"current_range_meters":11200,"station_id":"ce4bhf92rcd13ifvqf50","pricing_plan_id":"cebpf4jnsgd1na2vs0mg"},{"bike_id":"86480794-dbfd-4463-8fde-b19df08000eb","system_id":"levelo_inurba_marseille","lat":43.29455,"lon":5.3975,"is_reserved":false,"is_disabled":false,"rental_uris":{"android":"levelo://app?vid=86480794-dbfd-4463-8fde-b19df08000eb","ios":"levelo://app?vid=86480794-dbfd-4463-8fde-b19df08000eb"},"vehicle_type_id":"4","last_reported":1740507198,"current_range_meters":11200,"station_id":"ce4bh3h2rcd13ifvqdo0","pricing_plan_id":"cebpf4jnsgd1na2vs0mg"},{"bike_id":"0afab1a6-4666-4be7-b256-f72e4efd254e","system_id":"levelo_inurba_marseille","lat":43.31499,"lon":5.37309,"is_reserved":false,"is_disabled":false,"rental_uris":{"android":"levelo://app?vid=0afab1a6-4666-4be7-b256-f72e4efd254e","ios":"levelo://app?vid=0afab1a6-4666-4be7-b256-f72e4efd254e"},"vehicle_type_id":"4","last_reported":1740507198,"current_range_meters":6400,"station_id":"ce4bgt12rcd13ifvqcd0","pricing_plan_id":"cebpf4jnsgd1na2vs0mg"},{"bike_id":"0f1f3b76-2791-4f0f-845e-300b9a8eb89b","system_id":"levelo_inurba_marseille","lat":43.23179,"lon":5.35558,"is_reserved":false,"is_disabled":false,"rental_uris":{"android":"levelo://app?vid=0f1f3b76-2791-4f0f-845e-300b9a8eb89b","ios":"levelo://app?vid=0f1f3b76-2791-4f0f-845e-300b9a8eb89b"},"vehicle_type_id":"4","last_reported":1740507198,"current_range_meters":11200,"station_id":"ce4bhu92rcd13ifvqi70","pricing_plan_id":"cebpf4jnsgd1na2vs0mg"},{"bike_id":"601d9d1a-b924-4349-8cfa-62d99997e8fb","system_id":"levelo_inurba_marseille","lat":43.23194,"lon":5.39979,"is_reserved":false,"is_disabled":false,"rental_uris":{"android":"levelo://app?vid=601d9d1a-b924-4349-8cfa-62d99997e8fb","ios":"levelo://app?vid=601d9d1a-b924-4349-8cfa-62d99997e8fb"},"vehicle_type_id":"4","last_reported":1740507198,"current_range_meters":11200,"station_id":"ce4bhn12rcd13ifvqgqg","pricing_plan_id":"cebpf4jnsgd1na2vs0mg"},{"bike_id":"7c45866a-bd99-4c12-9747-66203f12a96e","system_id":"levelo_inurba_marseille","lat":43.23152,"lon":5.35523,"is_reserved":false,"is_disabled":false,"rental_uris":{"android":"levelo://app?vid=7c45866a-bd99-4c12-9747-66203f12a96e","ios":"levelo://app?vid=7c45866a-bd99-4c12-9747-66203f12a96e"},"vehicle_type_id":"4","last_reported":1740507198,"current_range_meters":11200,"station_id":"","pricing_plan_id":"cebpf4jnsgd1na2vs0mg"},{"bike_id":"f5232ca0-a0ea-4b65-9be9-c58c9ab586fb","system_id":"levelo_inurba_marseille","lat":43.28165,"lon":5.42643,"is_reserved":false,"is_disabled":false,"rental_uris":{"android":"levelo://app?vid=f5232ca0-a0ea-4b65-9be9-c58c9ab586fb","ios":"levelo://app?vid=f5232ca0-a0ea-4b65-9be9-c58c9ab586fb"},"vehicle_type_id":"4","last_reported":1740507198,"current_range_meters":11600,"station_id":"ce4bhnh2rcd13ifvqgug","pricing_plan_id":"cebpf4jnsgd1na2vs0mg"},{"bike_id":"549eba66-470c-49fc-9bda-650ecb397aed","system_id":"levelo_inurba_marseille","lat":43.28582,"lon":5.38112,"is_reserved":false,"is_disabled":true,"rental_uris":{"android":"levelo://app?vid=549eba66-470c-49fc-9bda-650ecb397aed","ios":"levelo://app?vid=549eba66-470c-49fc-9bda-650ecb397aed"},"vehicle_type_id":"4","last_reported":1740507198,"current_range_meters":11600,"station_id":"","pricing_plan_id":"cebpf4jnsgd1na2vs0mg"},{"bike_id":"705d4c5c-19e2-4866-97d4-b09e7afe24df","system_id":"levelo_inurba_marseille","lat":43.292633,"lon":5.384278,"is_reserved":false,"is_disabled":false,"rental_uris":{"android":"levelo://app?vid=705d4c5c-19e2-4866-97d4-b09e7afe24df","ios":"levelo://app?vid=705d4c5c-19e2-4866-97d4-b09e7afe24df"},"vehicle_type_id":"4","last_reported":1740507198,"current_range_meters":11600,"station_id":"ce4bh692rcd13ifvqea0","pricing_plan_id":"cebpf4jnsgd1na2vs0mg"},{"bike_id":"4c3ed0f9-3852-4d9f-a849-d03fce967204","system_id":"levelo_inurba_marseille","lat":43.28951,"lon":5.36401,"is_reserved":false,"is_disabled":false,"rental_uris":{"android":"levelo://app?vid=4c3ed0f9-3852-4d9f-a849-d03fce967204","ios":"levelo://app?vid=4c3ed0f9-3852-4d9f-a849-d03fce967204"},"vehicle_type_id":"4","last_reported":1740507198,"current_range_meters":11600,"station_id":"ce4bhc92rcd13ifvqetg","pricing_plan_id":"cebpf4jnsgd1na2vs0mg"},{"bike_id":"5097a6d2-3520-45da-a7ac-4484e394fdca","system_id":"levelo_inurba_marseille","lat":43.28685,"lon":5.38657,"is_reserved":false,"is_disabled":false,"rental_uris":{"android":"levelo://app?vid=5097a6d2-3520-45da-a7ac-4484e394fdca","ios":"levelo://app?vid=5097a6d2-3520-45da-a7ac-4484e394fdca"},"vehicle_type_id":"4","last_reported":1740507198,"current_range_meters":11600,"station_id":"ce4bh492rcd13ifvqdug","pricing_plan_id":"cebpf4jnsgd1na2vs0mg"},{"bike_id":"e0b42781-ae0b-4189-88d8-b650e11efa1c","system_id":"levelo_inurba_marseille","lat":43.30161,"lon":5.3979,"is_reserved":false,"is_disabled":false,"rental_uris":{"android":"levelo://app?vid=e0b42781-ae0b-4189-88d8-b650e11efa1c","ios":"levelo://app?vid=e0b42781-ae0b-4189-88d8-b650e11efa1c"},"vehicle_type_id":"4","last_reported":1740507198,"current_range_meters":20000,"station_id":"","pricing_plan_id":"cebpf4jnsgd1na2vs0mg"},{"bike_id":"45e4d41f-f836-4460-a1ed-18ab5ed9c24c","system_id":"levelo_inurba_marseille","lat":43.28491,"lon":5.38415,"is_reserved":false,"is_disabled":false,"rental_uris":{"android":"levelo://app?vid=45e4d41f-f836-4460-a1ed-18ab5ed9c24c","ios":"levelo://app?vid=45e4d41f-f836-4460-a1ed-18ab5ed9c24c"},"vehicle_type_id":"4","last_reported":1740507198,"current_range_meters":9600,"station_id":"ce4bh512rcd13ifvqe3g","pricing_plan_id":"cebpf4jnsgd1na2vs0mg"},{"bike_id":"7110c69d-9730-4011-ae5c-37b7246b56f0","system_id":"levelo_inurba_marseille","lat":43.25728,"lon":5.41104,"is_reserved":false,"is_disabled":false,"rental_uris":{"android":"levelo://app?vid=7110c69d-9730-4011-ae5c-37b7246b56f0","ios":"levelo://app?vid=7110c69d-9730-4011-ae5c-37b7246b56f0"},"vehicle_type_id":"4","last_reported":1740507198,"current_range_meters":12000,"station_id":"ce4bhkp2rcd13ifvqgd0","pricing_plan_id":"cebpf4jnsgd1na2vs0mg"},{"bike_id":"bea517ec-06d8-4315-a101-031d4852ca77","system_id":"levelo_inurba_marseille","lat":43.242,"lon":5.39813,"is_reserved":false,"is_disabled":false,"rental_uris":{"android":"levelo://app?vid=bea517ec-06d8-4315-a101-031d4852ca77","ios":"levelo://app?vid=bea517ec-06d8-4315-a101-031d4852ca77"},"vehicle_type_id":"4","last_reported":1740507198,"current_range_meters":12400,"station_id":"ce4bhn12rcd13ifvqgpg","pricing_plan_id":"cebpf4jnsgd1na2vs0mg"},{"bike_id":"b47f6ae1-f96b-425d-be63-361bc2fda551","system_id":"levelo_inurba_marseille","lat":43.29524,"lon":5.39409,"is_reserved":false,"is_disabled":false,"rental_uris":{"android":"levelo://app?vid=b47f6ae1-f96b-425d-be63-361bc2fda551","ios":"levelo://app?vid=b47f6ae1-f96b-425d-be63-361bc2fda551"},"vehicle_type_id":"4","last_reported":1740507198,"current_range_meters":12000,"station_id":"ce4bh292rcd13ifvqdf0","pricing_plan_id":"cebpf4jnsgd1na2vs0mg"},{"bike_id":"74ca54f2-a6d4-4f3e-85e7-c3e46a0fc80a","system_id":"levelo_inurba_marseille","lat":43.3176,"lon":5.39016,"is_reserved":false,"is_disabled":false,"rental_uris":{"android":"levelo://app?vid=74ca54f2-a6d4-4f3e-85e7-c3e46a0fc80a","ios":"levelo://app?vid=74ca54f2-a6d4-4f3e-85e7-c3e46a0fc80a"},"vehicle_type_id":"4","last_reported":1740507198,"current_range_meters":12000,"station_id":"ce4bhqp2rcd13ifvqhng","pricing_plan_id":"cebpf4jnsgd1na2vs0mg"},{"bike_id":"3d81723d-01c9-47bd-b722-6a396b3e0462","system_id":"levelo_inurba_marseille","lat":43.3059,"lon":5.39353,"is_reserved":false,"is_disabled":false,"rental_uris":{"android":"levelo://app?vid=3d81723d-01c9-47bd-b722-6a396b3e0462","ios":"levelo://app?vid=3d81723d-01c9-47bd-b722-6a396b3e0462"},"vehicle_type_id":"4","last_reported":1740507198,"current_range_meters":12800,"station_id":"ce4bh0p2rcd13ifvqd80","pricing_plan_id":"cebpf4jnsgd1na2vs0mg"},{"bike_id":"3f2dadf9-9fcb-4651-8ff7-921b52058d9a","system_id":"levelo_inurba_marseille","lat":43.28413,"lon":5.39191,"is_reserved":false,"is_disabled":false,"rental_uris":{"android":"levelo://app?vid=3f2dadf9-9fcb-4651-8ff7-921b52058d9a","ios":"levelo://app?vid=3f2dadf9-9fcb-4651-8ff7-921b52058d9a"},"vehicle_type_id":"4","last_reported":1740507198,"current_range_meters":12400,"station_id":"ce4bhoh2rcd13ifvqh5g","pricing_plan_id":"cebpf4jnsgd1na2vs0mg"},{"bike_id":"d773d98d-bc07-4fbf-bd96-669a4515643f","system_id":"levelo_inurba_marseille","lat":43.29798,"lon":5.37101,"is_reserved":false,"is_disabled":false,"rental_uris":{"android":"levelo://app?vid=d773d98d-bc07-4fbf-bd96-669a4515643f","ios":"levelo://app?vid=d773d98d-bc07-4fbf-bd96-669a4515643f"},"vehicle_type_id":"4","last_reported":1740507198,"current_range_meters":9200,"station_id":"ce4bgop2rcd13ifvqc1g","pricing_plan_id":"cebpf4jnsgd1na2vs0mg"},{"bike_id":"b68c4a8d-14d8-4987-9dce-59319ae96c78","system_id":"levelo_inurba_marseille","lat":43.28763,"lon":5.35226,"is_reserved":false,"is_disabled":false,"rental_uris":{"android":"levelo://app?vid=b68c4a8d-14d8-4987-9dce-59319ae96c78","ios":"levelo://app?vid=b68c4a8d-14d8-4987-9dce-59319ae96c78"},"vehicle_type_id":"4","last_reported":1740507198,"current_range_meters":12800,"station_id":"","pricing_plan_id":"cebpf4jnsgd1na2vs0mg"},{"bike_id":"b2c44dad-a7fb-4108-910f-9af8328a895e","system_id":"levelo_inurba_marseille","lat":43.30097,"lon":5.3908,"is_reserved":false,"is_disabled":false,"rental_uris":{"android":"levelo://app?vid=b2c44dad-a7fb-4108-910f-9af8328a895e","ios":"levelo://app?vid=b2c44dad-a7fb-4108-910f-9af8328a895e"},"vehicle_type_id":"4","last_reported":1740507198,"current_range_meters":12400,"station_id":"ce4bh192rcd13ifvqdb0","pricing_plan_id":"cebpf4jnsgd1na2vs0mg"},{"bike_id":"de7a37af-ae16-4c6b-b949-244df6037a9f","system_id":"levelo_inurba_marseille","lat":43.30791,"lon":5.37649,"is_reserved":false,"is_disabled":false,"rental_uris":{"android":"levelo://app?vid=de7a37af-ae16-4c6b-b949-244df6037a9f","ios":"levelo://app?vid=de7a37af-ae16-4c6b-b949-244df6037a9f"},"vehicle_type_id":"4","last_reported":1740507198,"current_range_meters":12800,"station_id":"ce4bgv92rcd13ifvqcq0","pricing_plan_id":"cebpf4jnsgd1na2vs0mg"},{"bike_id":"47f4c39e-03ed-43d6-bd7d-d2d667bafc06","system_id":"levelo_inurba_marseille","lat":43.30444,"lon":5.38881,"is_reserved":false,"is_disabled":false,"rental_uris":{"android":"levelo://app?vid=47f4c39e-03ed-43d6-bd7d-d2d667bafc06","ios":"levelo://app?vid=47f4c39e-03ed-43d6-bd7d-d2d667bafc06"},"vehicle_type_id":"4","last_reported":1740507198,"current_range_meters":12000,"station_id":"ce4bgk12rcd13ifvqbi0","pricing_plan_id":"cebpf4jnsgd1na2vs0mg"},{"bike_id":"32584527-82ca-4821-ad4a-70e2a4d42c2b","system_id":"levelo_inurba_marseille","lat":43.27377,"lon":5.36248,"is_reserved":false,"is_disabled":false,"rental_uris":{"android":"levelo://app?vid=32584527-82ca-4821-ad4a-70e2a4d42c2b","ios":"levelo://app?vid=32584527-82ca-4821-ad4a-70e2a4d42c2b"},"vehicle_type_id":"4","last_reported":1740507198,"current_range_meters":12800,"station_id":"ce4bhbh2rcd13ifvqeo0","pricing_plan_id":"cebpf4jnsgd1na2vs0mg"},{"bike_id":"9f410218-3040-4e5d-995c-1587f208b52e","system_id":"levelo_inurba_marseille","lat":43.27822,"lon":5.4073,"is_reserved":false,"is_disabled":false,"rental_uris":{"android":"levelo://app?vid=9f410218-3040-4e5d-995c-1587f208b52e","ios":"levelo://app?vid=9f410218-3040-4e5d-995c-1587f208b52e"},"vehicle_type_id":"4","last_reported":1740507198,"current_range_meters":12400,"station_id":"ce4bhnh2rcd13ifvqgtg","pricing_plan_id":"cebpf4jnsgd1na2vs0mg"},{"bike_id":"bb197dcb-4af2-40a1-b597-f15826b08c4b","system_id":"levelo_inurba_marseille","lat":43.31356,"lon":5.38502,"is_reserved":false,"is_disabled":false,"rental_uris":{"android":"levelo://app?vid=bb197dcb-4af2-40a1-b597-f15826b08c4b","ios":"levelo://app?vid=bb197dcb-4af2-40a1-b597-f15826b08c4b"},"vehicle_type_id":"4","last_reported":1740507198,"current_range_meters":12400,"station_id":"ce4bgt92rcd13ifvqcf0","pricing_plan_id":"cebpf4jnsgd1na2vs0mg"},{"bike_id":"d0801915-0de0-4f9d-9726-750b42c06614","system_id":"levelo_inurba_marseille","lat":43.32111,"lon":5.36777,"is_reserved":false,"is_disabled":false,"rental_uris":{"android":"levelo://app?vid=d0801915-0de0-4f9d-9726-750b42c06614","ios":"levelo://app?vid=d0801915-0de0-4f9d-9726-750b42c06614"},"vehicle_type_id":"4","last_reported":1740507198,"current_range_meters":12800,"station_id":"ce4bhrh2rcd13ifvqhug","pricing_plan_id":"cebpf4jnsgd1na2vs0mg"},{"bike_id":"46ab6a61-fce5-46e2-83dc-07566ae7fb6d","system_id":"levelo_inurba_marseille","lat":43.29272,"lon":5.36792,"is_reserved":false,"is_disabled":false,"rental_uris":{"android":"levelo://app?vid=46ab6a61-fce5-46e2-83dc-07566ae7fb6d","ios":"levelo://app?vid=46ab6a61-fce5-46e2-83dc-07566ae7fb6d"},"vehicle_type_id":"4","last_reported":1740507198,"current_range_meters":12800,"station_id":"ce4bhbp2rcd13ifvqesg","pricing_plan_id":"cebpf4jnsgd1na2vs0mg"},{"bike_id":"1f6bbfe9-aae7-43d5-a4ef-153399ef3f5f","system_id":"levelo_inurba_marseille","lat":43.32366,"lon":5.38887,"is_reserved":false,"is_disabled":false,"rental_uris":{"android":"levelo://app?vid=1f6bbfe9-aae7-43d5-a4ef-153399ef3f5f","ios":"levelo://app?vid=1f6bbfe9-aae7-43d5-a4ef-153399ef3f5f"},"vehicle_type_id":"4","last_reported":1740507198,"current_range_meters":12800,"station_id":"ce4bhqp2rcd13ifvqhog","pricing_plan_id":"cebpf4jnsgd1na2vs0mg"},{"bike_id":"7c8aaa9b-e43a-43de-8b4f-a531a44d3724","system_id":"levelo_inurba_marseille","lat":43.27948,"lon":5.41047,"is_reserved":false,"is_disabled":false,"rental_uris":{"android":"levelo://app?vid=7c8aaa9b-e43a-43de-8b4f-a531a44d3724","ios":"levelo://app?vid=7c8aaa9b-e43a-43de-8b4f-a531a44d3724"},"vehicle_type_id":"4","last_reported":1740507198,"current_range_meters":12800,"station_id":"ce4bhnp2rcd13ifvqh0g","pricing_plan_id":"cebpf4jnsgd1na2vs0mg"},{"bike_id":"b007f058-4163-4bbe-ba13-50835769bd43","system_id":"levelo_inurba_marseille","lat":43.31708,"lon":5.43705,"is_reserved":false,"is_disabled":false,"rental_uris":{"android":"levelo://app?vid=b007f058-4163-4bbe-ba13-50835769bd43","ios":"levelo://app?vid=b007f058-4163-4bbe-ba13-50835769bd43"},"vehicle_type_id":"4","last_reported":1740507198,"current_range_meters":12800,"station_id":"ce4bhp92rcd13ifvqhcg","pricing_plan_id":"cebpf4jnsgd1na2vs0mg"},{"bike_id":"44a737df-aa61-45f7-857c-d7d275870e10","system_id":"levelo_inurba_marseille","lat":43.25481,"lon":5.37714,"is_reserved":false,"is_disabled":false,"rental_uris":{"android":"levelo://app?vid=44a737df-aa61-45f7-857c-d7d275870e10","ios":"levelo://app?vid=44a737df-aa61-45f7-857c-d7d275870e10"},"vehicle_type_id":"4","last_reported":1740507198,"current_range_meters":13600,"station_id":"","pricing_plan_id":"cebpf4jnsgd1na2vs0mg"},{"bike_id":"a0ea952e-3dec-4799-b0e2-fb429c0fabfc","system_id":"levelo_inurba_marseille","lat":43.31754,"lon":5.39016,"is_reserved":false,"is_disabled":false,"rental_uris":{"android":"levelo://app?vid=a0ea952e-3dec-4799-b0e2-fb429c0fabfc","ios":"levelo://app?vid=a0ea952e-3dec-4799-b0e2-fb429c0fabfc"},"vehicle_type_id":"4","last_reported":1740507198,"current_range_meters":13600,"station_id":"ce4bhqp2rcd13ifvqhng","pricing_plan_id":"cebpf4jnsgd1na2vs0mg"},{"bike_id":"bb261147-f1f4-4fa2-bd45-b350479fc44e","system_id":"levelo_inurba_marseille","lat":43.23966,"lon":5.36628,"is_reserved":false,"is_disabled":false,"rental_uris":{"android":"levelo://app?vid=bb261147-f1f4-4fa2-bd45-b350479fc44e","ios":"levelo://app?vid=bb261147-f1f4-4fa2-bd45-b350479fc44e"},"vehicle_type_id":"4","last_reported":1740507198,"current_range_meters":12800,"station_id":"ce4bhi12rcd13ifvqfp0","pricing_plan_id":"cebpf4jnsgd1na2vs0mg"},{"bike_id":"0ff74aab-d845-41c4-83a1-8486f0e7beb8","system_id":"levelo_inurba_marseille","lat":43.28418,"lon":5.37504,"is_reserved":false,"is_disabled":false,"rental_uris":{"android":"levelo://app?vid=0ff74aab-d845-41c4-83a1-8486f0e7beb8","ios":"levelo://app?vid=0ff74aab-d845-41c4-83a1-8486f0e7beb8"},"vehicle_type_id":"4","last_reported":1740507198,"current_range_meters":9600,"station_id":"ce4bh412rcd13ifvqds0","pricing_plan_id":"cebpf4jnsgd1na2vs0mg"},{"bike_id":"8e5105f1-0439-4742-a3ae-b8e929153446","system_id":"levelo_inurba_marseille","lat":43.289353,"lon":5.366388,"is_reserved":false,"is_disabled":false,"rental_uris":{"android":"levelo://app?vid=8e5105f1-0439-4742-a3ae-b8e929153446","ios":"levelo://app?vid=8e5105f1-0439-4742-a3ae-b8e929153446"},"vehicle_type_id":"4","last_reported":1740507198,"current_range_meters":15200,"station_id":"ce4bho92rcd13ifvqh4g","pricing_plan_id":"cebpf4jnsgd1na2vs0mg"},{"bike_id":"4c109f60-d5a1-4979-93e1-31de3e496c77","system_id":"levelo_inurba_marseille","lat":43.28411,"lon":5.3752,"is_reserved":false,"is_disabled":false,"rental_uris":{"android":"levelo://app?vid=4c109f60-d5a1-4979-93e1-31de3e496c77","ios":"levelo://app?vid=4c109f60-d5a1-4979-93e1-31de3e496c77"},"vehicle_type_id":"4","last_reported":1740507198,"current_range_meters":14000,"station_id":"ce4bh412rcd13ifvqds0","pricing_plan_id":"cebpf4jnsgd1na2vs0mg"},{"bike_id":"44f9e446-3836-44ff-921d-578372029f43","system_id":"levelo_inurba_marseille","lat":43.29088,"lon":5.37177,"is_reserved":false,"is_disabled":false,"rental_uris":{"android":"levelo://app?vid=44f9e446-3836-44ff-921d-578372029f43","ios":"levelo://app?vid=44f9e446-3836-44ff-921d-578372029f43"},"vehicle_type_id":"4","last_reported":1740507198,"current_range_meters":14000,"station_id":"ce4bh5p2rcd13ifvqe4g","pricing_plan_id":"cebpf4jnsgd1na2vs0mg"},{"bike_id":"bcad61a2-0ca5-4d3e-a62c-5a15240332aa","system_id":"levelo_inurba_marseille","lat":43.26223,"lon":5.40453,"is_reserved":false,"is_disabled":false,"rental_uris":{"android":"levelo://app?vid=bcad61a2-0ca5-4d3e-a62c-5a15240332aa","ios":"levelo://app?vid=bcad61a2-0ca5-4d3e-a62c-5a15240332aa"},"vehicle_type_id":"4","last_reported":1740507198,"current_range_meters":14000,"station_id":"ce4bhmh2rcd13ifvqgmg","pricing_plan_id":"cebpf4jnsgd1na2vs0mg"},{"bike_id":"28c3c768-a907-4c23-bf24-a49a1e1e5bae","system_id":"levelo_inurba_marseille","lat":43.29198,"lon":5.38398,"is_reserved":false,"is_disabled":false,"rental_uris":{"android":"levelo://app?vid=28c3c768-a907-4c23-bf24-a49a1e1e5bae","ios":"levelo://app?vid=28c3c768-a907-4c23-bf24-a49a1e1e5bae"},"vehicle_type_id":"4","last_reported":1740507198,"current_range_meters":14000,"station_id":"","pricing_plan_id":"cebpf4jnsgd1na2vs0mg"},{"bike_id":"94c8a369-487e-4729-98d9-9c7a116328cd","system_id":"levelo_inurba_marseille","lat":43.26807,"lon":5.40255,"is_reserved":false,"is_disabled":false,"rental_uris":{"android":"levelo://app?vid=94c8a369-487e-4729-98d9-9c7a116328cd","ios":"levelo://app?vid=94c8a369-487e-4729-98d9-9c7a116328cd"},"vehicle_type_id":"4","last_reported":1740507198,"current_range_meters":17200,"station_id":"ce501612rcd8frsf0b60","pricing_plan_id":"cebpf4jnsgd1na2vs0mg"},{"bike_id":"e9c908fa-3548-42b4-b26e-3a651dbd126a","system_id":"levelo_inurba_marseille","lat":43.30805,"lon":5.43515,"is_reserved":false,"is_disabled":false,"rental_uris":{"android":"levelo://app?vid=e9c908fa-3548-42b4-b26e-3a651dbd126a","ios":"levelo://app?vid=e9c908fa-3548-42b4-b26e-3a651dbd126a"},"vehicle_type_id":"4","last_reported":1740507198,"current_range_meters":14400,"station_id":"ce4bhph2rcd13ifvqheg","pricing_plan_id":"cebpf4jnsgd1na2vs0mg"},{"bike_id":"0a089428-bbf6-4308-bf3d-1d45254d436e","system_id":"levelo_inurba_marseille","lat":43.25089,"lon":5.39528,"is_reserved":false,"is_disabled":false,"rental_uris":{"android":"levelo://app?vid=0a089428-bbf6-4308-bf3d-1d45254d436e","ios":"levelo://app?vid=0a089428-bbf6-4308-bf3d-1d45254d436e"},"vehicle_type_id":"4","last_reported":1740507198,"current_range_meters":14400,"station_id":"ce4bhm12rcd13ifvqgkg","pricing_plan_id":"cebpf4jnsgd1na2vs0mg"},{"bike_id":"63a45967-c601-4e29-bea0-4f67aa111102","system_id":"levelo_inurba_marseille","lat":43.31287,"lon":5.40166,"is_reserved":false,"is_disabled":false,"rental_uris":{"android":"levelo://app?vid=63a45967-c601-4e29-bea0-4f67aa111102","ios":"levelo://app?vid=63a45967-c601-4e29-bea0-4f67aa111102"},"vehicle_type_id":"4","last_reported":1740507198,"current_range_meters":14800,"station_id":"ce4bh092rcd13ifvqd30","pricing_plan_id":"cebpf4jnsgd1na2vs0mg"},{"bike_id":"dfd23175-6a62-4c95-a53c-9500be447999","system_id":"levelo_inurba_marseille","lat":43.24071,"lon":5.37769,"is_reserved":false,"is_disabled":false,"rental_uris":{"android":"levelo://app?vid=dfd23175-6a62-4c95-a53c-9500be447999","ios":"levelo://app?vid=dfd23175-6a62-4c95-a53c-9500be447999"},"vehicle_type_id":"4","last_reported":1740507198,"current_range_meters":16000,"station_id":"ce4bhnp2rcd13ifvqgvg","pricing_plan_id":"cebpf4jnsgd1na2vs0mg"},{"bike_id":"41678bf0-ed53-49af-8ec3-e00744cd3b01","system_id":"levelo_inurba_marseille","lat":43.26556,"lon":5.39033,"is_reserved":false,"is_disabled":false,"rental_uris":{"android":"levelo://app?vid=41678bf0-ed53-49af-8ec3-e00744cd3b01","ios":"levelo://app?vid=41678bf0-ed53-49af-8ec3-e00744cd3b01"},"vehicle_type_id":"4","last_reported":1740507198,"current_range_meters":14400,"station_id":"ce4bhe12rcd13ifvqf30","pricing_plan_id":"cebpf4jnsgd1na2vs0mg"},{"bike_id":"4a5400e7-730c-42de-9997-b10170412d92","system_id":"levelo_inurba_marseille","lat":43.3173,"lon":5.39011,"is_reserved":false,"is_disabled":false,"rental_uris":{"android":"levelo://app?vid=4a5400e7-730c-42de-9997-b10170412d92","ios":"levelo://app?vid=4a5400e7-730c-42de-9997-b10170412d92"},"vehicle_type_id":"4","last_reported":1740507198,"current_range_meters":14800,"station_id":"ce4bhqp2rcd13ifvqhng","pricing_plan_id":"cebpf4jnsgd1na2vs0mg"},{"bike_id":"1be365f8-5573-4503-b3ef-39777c5f6233","system_id":"levelo_inurba_marseille","lat":43.278972,"lon":5.395889,"is_reserved":false,"is_disabled":false,"rental_uris":{"android":"levelo://app?vid=1be365f8-5573-4503-b3ef-39777c5f6233","ios":"levelo://app?vid=1be365f8-5573-4503-b3ef-39777c5f6233"},"vehicle_type_id":"4","last_reported":1740507198,"current_range_meters":14800,"station_id":"ce4bh312rcd13ifvqdk0","pricing_plan_id":"cebpf4jnsgd1na2vs0mg"},{"bike_id":"6ddc9b84-6183-497f-972f-42df90de0e93","system_id":"levelo_inurba_marseille","lat":43.29877,"lon":5.38911,"is_reserved":false,"is_disabled":false,"rental_uris":{"android":"levelo://app?vid=6ddc9b84-6183-497f-972f-42df90de0e93","ios":"levelo://app?vid=6ddc9b84-6183-497f-972f-42df90de0e93"},"vehicle_type_id":"4","last_reported":1740507198,"current_range_meters":14800,"station_id":"ce4bh392rcd13ifvqdl0","pricing_plan_id":"cebpf4jnsgd1na2vs0mg"},{"bike_id":"67ee95a1-160f-49c1-b11e-b3640680cd0d","system_id":"levelo_inurba_marseille","lat":43.32128,"lon":5.36787,"is_reserved":false,"is_disabled":false,"rental_uris":{"android":"levelo://app?vid=67ee95a1-160f-49c1-b11e-b3640680cd0d","ios":"levelo://app?vid=67ee95a1-160f-49c1-b11e-b3640680cd0d"},"vehicle_type_id":"4","last_reported":1740507198,"current_range_meters":15200,"station_id":"ce4bhrh2rcd13ifvqhug","pricing_plan_id":"cebpf4jnsgd1na2vs0mg"},{"bike_id":"b6a4cfb9-fdd3-4bf6-9402-2e45d150b5a9","system_id":"levelo_inurba_marseille","lat":43.31763,"lon":5.39032,"is_reserved":false,"is_disabled":false,"rental_uris":{"android":"levelo://app?vid=b6a4cfb9-fdd3-4bf6-9402-2e45d150b5a9","ios":"levelo://app?vid=b6a4cfb9-fdd3-4bf6-9402-2e45d150b5a9"},"vehicle_type_id":"4","last_reported":1740507198,"current_range_meters":15200,"station_id":"ce4bhqp2rcd13ifvqhng","pricing_plan_id":"cebpf4jnsgd1na2vs0mg"},{"bike_id":"5851bf66-b92e-4171-910f-09aa31d0b097","system_id":"levelo_inurba_marseille","lat":43.31122,"lon":5.37775,"is_reserved":false,"is_disabled":false,"rental_uris":{"android":"levelo://app?vid=5851bf66-b92e-4171-910f-09aa31d0b097","ios":"levelo://app?vid=5851bf66-b92e-4171-910f-09aa31d0b097"},"vehicle_type_id":"4","last_reported":1740507198,"current_range_meters":15200,"station_id":"ce4bgt92rcd13ifvqcg0","pricing_plan_id":"cebpf4jnsgd1na2vs0mg"},{"bike_id":"40bd775e-5ce3-4948-be2f-acfa8e48e7a0","system_id":"levelo_inurba_marseille","lat":43.2862,"lon":5.3511,"is_reserved":false,"is_disabled":false,"rental_uris":{"android":"levelo://app?vid=40bd775e-5ce3-4948-be2f-acfa8e48e7a0","ios":"levelo://app?vid=40bd775e-5ce3-4948-be2f-acfa8e48e7a0"},"vehicle_type_id":"4","last_reported":1740507198,"current_range_meters":15200,"station_id":"ce4bhch2rcd13ifvqeug","pricing_plan_id":"cebpf4jnsgd1na2vs0mg"},{"bike_id":"e95041c8-f6c0-4ea4-b792-489acb67e888","system_id":"levelo_inurba_marseille","lat":43.3128,"lon":5.4016,"is_reserved":false,"is_disabled":false,"rental_uris":{"android":"levelo://app?vid=e95041c8-f6c0-4ea4-b792-489acb67e888","ios":"levelo://app?vid=e95041c8-f6c0-4ea4-b792-489acb67e888"},"vehicle_type_id":"4","last_reported":1740507198,"current_range_meters":14800,"station_id":"ce4bh092rcd13ifvqd30","pricing_plan_id":"cebpf4jnsgd1na2vs0mg"},{"bike_id":"daf11c2b-f621-49a6-9132-098ef985992e","system_id":"levelo_inurba_marseille","lat":43.25407,"lon":5.41868,"is_reserved":false,"is_disabled":false,"rental_uris":{"android":"levelo://app?vid=daf11c2b-f621-49a6-9132-098ef985992e","ios":"levelo://app?vid=daf11c2b-f621-49a6-9132-098ef985992e"},"vehicle_type_id":"4","last_reported":1740507198,"current_range_meters":17200,"station_id":"","pricing_plan_id":"cebpf4jnsgd1na2vs0mg"},{"bike_id":"f7a6da87-93fc-42e2-b1d3-8ac001dcc8c4","system_id":"levelo_inurba_marseille","lat":43.29511,"lon":5.39398,"is_reserved":false,"is_disabled":false,"rental_uris":{"android":"levelo://app?vid=f7a6da87-93fc-42e2-b1d3-8ac001dcc8c4","ios":"levelo://app?vid=f7a6da87-93fc-42e2-b1d3-8ac001dcc8c4"},"vehicle_type_id":"4","last_reported":1740507198,"current_range_meters":16000,"station_id":"ce4bh292rcd13ifvqdf0","pricing_plan_id":"cebpf4jnsgd1na2vs0mg"},{"bike_id":"0fed8810-f223-420d-a943-490aa683decd","system_id":"levelo_inurba_marseille","lat":43.28918,"lon":5.38398,"is_reserved":false,"is_disabled":false,"rental_uris":{"android":"levelo://app?vid=0fed8810-f223-420d-a943-490aa683decd","ios":"levelo://app?vid=0fed8810-f223-420d-a943-490aa683decd"},"vehicle_type_id":"4","last_reported":1740507198,"current_range_meters":16000,"station_id":"ce4bh612rcd13ifvqe6g","pricing_plan_id":"cebpf4jnsgd1na2vs0mg"},{"bike_id":"fe31fd88-f530-4541-9b84-be55dbc2a8bf","system_id":"levelo_inurba_marseille","lat":43.2892,"lon":5.3841,"is_reserved":false,"is_disabled":false,"rental_uris":{"android":"levelo://app?vid=fe31fd88-f530-4541-9b84-be55dbc2a8bf","ios":"levelo://app?vid=fe31fd88-f530-4541-9b84-be55dbc2a8bf"},"vehicle_type_id":"4","last_reported":1740507198,"current_range_meters":15200,"station_id":"ce4bh612rcd13ifvqe6g","pricing_plan_id":"cebpf4jnsgd1na2vs0mg"},{"bike_id":"c0e8029c-62e5-4c07-9ba6-92cd76ee8fca","system_id":"levelo_inurba_marseille","lat":43.25005,"lon":5.38921,"is_reserved":false,"is_disabled":false,"rental_uris":{"android":"levelo://app?vid=c0e8029c-62e5-4c07-9ba6-92cd76ee8fca","ios":"levelo://app?vid=c0e8029c-62e5-4c07-9ba6-92cd76ee8fca"},"vehicle_type_id":"4","last_reported":1740507198,"current_range_meters":16800,"station_id":"ce4bhgp2rcd13ifvqfd0","pricing_plan_id":"cebpf4jnsgd1na2vs0mg"},{"bike_id":"657805a7-7c02-4ae3-92be-cc7300051d2b","system_id":"levelo_inurba_marseille","lat":43.30436,"lon":5.41278,"is_reserved":false,"is_disabled":false,"rental_uris":{"android":"levelo://app?vid=657805a7-7c02-4ae3-92be-cc7300051d2b","ios":"levelo://app?vid=657805a7-7c02-4ae3-92be-cc7300051d2b"},"vehicle_type_id":"4","last_reported":1740507198,"current_range_meters":16400,"station_id":"ce4bhop2rcd13ifvqh8g","pricing_plan_id":"cebpf4jnsgd1na2vs0mg"},{"bike_id":"e9bf8700-43e9-4ad9-bd52-ca2f22661089","system_id":"levelo_inurba_marseille","lat":43.28466,"lon":5.3588,"is_reserved":false,"is_disabled":false,"rental_uris":{"android":"levelo://app?vid=e9bf8700-43e9-4ad9-bd52-ca2f22661089","ios":"levelo://app?vid=e9bf8700-43e9-4ad9-bd52-ca2f22661089"},"vehicle_type_id":"4","last_reported":1740507198,"current_range_meters":16400,"station_id":"ce4bhah2rcd13ifvqei0","pricing_plan_id":"cebpf4jnsgd1na2vs0mg"},{"bike_id":"ac8a4022-35fc-4317-8a88-7f91e9527975","system_id":"levelo_inurba_marseille","lat":43.30097,"lon":5.39077,"is_reserved":false,"is_disabled":false,"rental_uris":{"android":"levelo://app?vid=ac8a4022-35fc-4317-8a88-7f91e9527975","ios":"levelo://app?vid=ac8a4022-35fc-4317-8a88-7f91e9527975"},"vehicle_type_id":"4","last_reported":1740507198,"current_range_meters":16400,"station_id":"ce4bh192rcd13ifvqdb0","pricing_plan_id":"cebpf4jnsgd1na2vs0mg"},{"bike_id":"482be1bf-bd5d-4dd6-a7a0-d03f870e0e21","system_id":"levelo_inurba_marseille","lat":43.31533,"lon":5.38041,"is_reserved":false,"is_disabled":false,"rental_uris":{"android":"levelo://app?vid=482be1bf-bd5d-4dd6-a7a0-d03f870e0e21","ios":"levelo://app?vid=482be1bf-bd5d-4dd6-a7a0-d03f870e0e21"},"vehicle_type_id":"4","last_reported":1740507198,"current_range_meters":16000,"station_id":"ce4bhsp2rcd13ifvqi50","pricing_plan_id":"cebpf4jnsgd1na2vs0mg"},{"bike_id":"56c90c05-21dd-4258-af01-641c62e92e64","system_id":"levelo_inurba_marseille","lat":43.28619,"lon":5.3511,"is_reserved":false,"is_disabled":false,"rental_uris":{"android":"levelo://app?vid=56c90c05-21dd-4258-af01-641c62e92e64","ios":"levelo://app?vid=56c90c05-21dd-4258-af01-641c62e92e64"},"vehicle_type_id":"4","last_reported":1740507198,"current_range_meters":16400,"station_id":"ce4bhch2rcd13ifvqeug","pricing_plan_id":"cebpf4jnsgd1na2vs0mg"},{"bike_id":"c0ed74a2-e2a8-41f0-9b03-a680909f2682","system_id":"levelo_inurba_marseille","lat":43.27957,"lon":5.41039,"is_reserved":false,"is_disabled":false,"rental_uris":{"android":"levelo://app?vid=c0ed74a2-e2a8-41f0-9b03-a680909f2682","ios":"levelo://app?vid=c0ed74a2-e2a8-41f0-9b03-a680909f2682"},"vehicle_type_id":"4","last_reported":1740507198,"current_range_meters":16400,"station_id":"ce4bhnp2rcd13ifvqh0g","pricing_plan_id":"cebpf4jnsgd1na2vs0mg"},{"bike_id":"efabe882-84d2-4901-b43b-5b94c2a3d4df","system_id":"levelo_inurba_marseille","lat":43.29919,"lon":5.39721,"is_reserved":false,"is_disabled":false,"rental_uris":{"android":"levelo://app?vid=efabe882-84d2-4901-b43b-5b94c2a3d4df","ios":"levelo://app?vid=efabe882-84d2-4901-b43b-5b94c2a3d4df"},"vehicle_type_id":"4","last_reported":1740507198,"current_range_meters":16000,"station_id":"","pricing_plan_id":"cebpf4jnsgd1na2vs0mg"},{"bike_id":"e136996b-2022-45c8-bd68-9749b6d20d3e","system_id":"levelo_inurba_marseille","lat":43.29522,"lon":5.39042,"is_reserved":false,"is_disabled":false,"rental_uris":{"android":"levelo://app?vid=e136996b-2022-45c8-bd68-9749b6d20d3e","ios":"levelo://app?vid=e136996b-2022-45c8-bd68-9749b6d20d3e"},"vehicle_type_id":"4","last_reported":1740507198,"current_range_meters":17600,"station_id":"ce4bh3p2rcd13ifvqdp0","pricing_plan_id":"cebpf4jnsgd1na2vs0mg"},{"bike_id":"bc9b1e32-064d-4bf1-b679-48091aef2876","system_id":"levelo_inurba_marseille","lat":43.28149,"lon":5.42644,"is_reserved":false,"is_disabled":false,"rental_uris":{"android":"levelo://app?vid=bc9b1e32-064d-4bf1-b679-48091aef2876","ios":"levelo://app?vid=bc9b1e32-064d-4bf1-b679-48091aef2876"},"vehicle_type_id":"4","last_reported":1740507198,"current_range_meters":16400,"station_id":"ce4bhnh2rcd13ifvqgug","pricing_plan_id":"cebpf4jnsgd1na2vs0mg"},{"bike_id":"2c05f2fb-4631-4402-ba61-dafa591a77fa","system_id":"levelo_inurba_marseille","lat":43.248,"lon":5.37451,"is_reserved":false,"is_disabled":false,"rental_uris":{"android":"levelo://app?vid=2c05f2fb-4631-4402-ba61-dafa591a77fa","ios":"levelo://app?vid=2c05f2fb-4631-4402-ba61-dafa591a77fa"},"vehicle_type_id":"4","last_reported":1740507198,"current_range_meters":16400,"station_id":"ce4bhgh2rcd13ifvqfb0","pricing_plan_id":"cebpf4jnsgd1na2vs0mg"},{"bike_id":"ca39c590-15b6-4613-9685-9be8fd164a9f","system_id":"levelo_inurba_marseille","lat":43.302179,"lon":5.394654,"is_reserved":false,"is_disabled":false,"rental_uris":{"android":"levelo://app?vid=ca39c590-15b6-4613-9685-9be8fd164a9f","ios":"levelo://app?vid=ca39c590-15b6-4613-9685-9be8fd164a9f"},"vehicle_type_id":"4","last_reported":1740507198,"current_range_meters":16400,"station_id":"ce4bh2p2rcd13ifvqdi0","pricing_plan_id":"cebpf4jnsgd1na2vs0mg"},{"bike_id":"faad8377-5e96-42b8-868f-6c1c257845c0","system_id":"levelo_inurba_marseille","lat":43.28691,"lon":5.3865,"is_reserved":false,"is_disabled":false,"rental_uris":{"android":"levelo://app?vid=faad8377-5e96-42b8-868f-6c1c257845c0","ios":"levelo://app?vid=faad8377-5e96-42b8-868f-6c1c257845c0"},"vehicle_type_id":"4","last_reported":1740507198,"current_range_meters":16800,"station_id":"ce4bh492rcd13ifvqdug","pricing_plan_id":"cebpf4jnsgd1na2vs0mg"},{"bike_id":"bb953524-1b92-4c01-b6f7-6c8d4a329874","system_id":"levelo_inurba_marseille","lat":43.28273,"lon":5.35089,"is_reserved":false,"is_disabled":false,"rental_uris":{"android":"levelo://app?vid=bb953524-1b92-4c01-b6f7-6c8d4a329874","ios":"levelo://app?vid=bb953524-1b92-4c01-b6f7-6c8d4a329874"},"vehicle_type_id":"4","last_reported":1740507198,"current_range_meters":16800,"station_id":"ce4bhbp2rcd13ifvqerg","pricing_plan_id":"cebpf4jnsgd1na2vs0mg"},{"bike_id":"35574852-253b-4bbe-a6e3-ee31965d9ec8","system_id":"levelo_inurba_marseille","lat":43.323443,"lon":5.388988,"is_reserved":false,"is_disabled":false,"rental_uris":{"android":"levelo://app?vid=35574852-253b-4bbe-a6e3-ee31965d9ec8","ios":"levelo://app?vid=35574852-253b-4bbe-a6e3-ee31965d9ec8"},"vehicle_type_id":"4","last_reported":1740507198,"current_range_meters":17200,"station_id":"ce4bhqp2rcd13ifvqhog","pricing_plan_id":"cebpf4jnsgd1na2vs0mg"},{"bike_id":"2285c932-96d2-4e25-b5ab-a9d3a942aa52","system_id":"levelo_inurba_marseille","lat":43.322837,"lon":5.382667,"is_reserved":false,"is_disabled":false,"rental_uris":{"android":"levelo://app?vid=2285c932-96d2-4e25-b5ab-a9d3a942aa52","ios":"levelo://app?vid=2285c932-96d2-4e25-b5ab-a9d3a942aa52"},"vehicle_type_id":"4","last_reported":1740507198,"current_range_meters":16800,"station_id":"ce4bhr12rcd13ifvqhqg","pricing_plan_id":"cebpf4jnsgd1na2vs0mg"},{"bike_id":"a8961a16-4d9d-4026-81b4-70f1059f57c6","system_id":"levelo_inurba_marseille","lat":43.24136,"lon":5.36427,"is_reserved":false,"is_disabled":false,"rental_uris":{"android":"levelo://app?vid=a8961a16-4d9d-4026-81b4-70f1059f57c6","ios":"levelo://app?vid=a8961a16-4d9d-4026-81b4-70f1059f57c6"},"vehicle_type_id":"4","last_reported":1740507198,"current_range_meters":16800,"station_id":"cpo36qri1sfpv3e86is0","pricing_plan_id":"cebpf4jnsgd1na2vs0mg"},{"bike_id":"12451835-3853-43ca-a98e-147997a5e2b1","system_id":"levelo_inurba_marseille","lat":43.28459,"lon":5.35885,"is_reserved":false,"is_disabled":false,"rental_uris":{"android":"levelo://app?vid=12451835-3853-43ca-a98e-147997a5e2b1","ios":"levelo://app?vid=12451835-3853-43ca-a98e-147997a5e2b1"},"vehicle_type_id":"4","last_reported":1740507198,"current_range_meters":17200,"station_id":"ce4bhah2rcd13ifvqei0","pricing_plan_id":"cebpf4jnsgd1na2vs0mg"},{"bike_id":"dc36290f-2a7f-4e77-9664-36695af5e735","system_id":"levelo_inurba_marseille","lat":43.3044,"lon":5.3889,"is_reserved":false,"is_disabled":false,"rental_uris":{"android":"levelo://app?vid=dc36290f-2a7f-4e77-9664-36695af5e735","ios":"levelo://app?vid=dc36290f-2a7f-4e77-9664-36695af5e735"},"vehicle_type_id":"4","last_reported":1740507198,"current_range_meters":16800,"station_id":"ce4bgk12rcd13ifvqbi0","pricing_plan_id":"cebpf4jnsgd1na2vs0mg"},{"bike_id":"0b2f5009-1e4e-4593-8abd-b74dc1937c26","system_id":"levelo_inurba_marseille","lat":43.23199,"lon":5.39975,"is_reserved":false,"is_disabled":false,"rental_uris":{"android":"levelo://app?vid=0b2f5009-1e4e-4593-8abd-b74dc1937c26","ios":"levelo://app?vid=0b2f5009-1e4e-4593-8abd-b74dc1937c26"},"vehicle_type_id":"4","last_reported":1740507198,"current_range_meters":16800,"station_id":"ce4bhn12rcd13ifvqgqg","pricing_plan_id":"cebpf4jnsgd1na2vs0mg"},{"bike_id":"8e6259b1-dd52-4351-8877-86b29f7257c7","system_id":"levelo_inurba_marseille","lat":43.24157,"lon":5.39727,"is_reserved":false,"is_disabled":false,"rental_uris":{"android":"levelo://app?vid=8e6259b1-dd52-4351-8877-86b29f7257c7","ios":"levelo://app?vid=8e6259b1-dd52-4351-8877-86b29f7257c7"},"vehicle_type_id":"4","last_reported":1740507198,"current_range_meters":16800,"station_id":"ce4bhn12rcd13ifvqgpg","pricing_plan_id":"cebpf4jnsgd1na2vs0mg"},{"bike_id":"7c4112af-4220-42f6-98e8-9f0ad4c08842","system_id":"levelo_inurba_marseille","lat":43.28416,"lon":5.37515,"is_reserved":false,"is_disabled":false,"rental_uris":{"android":"levelo://app?vid=7c4112af-4220-42f6-98e8-9f0ad4c08842","ios":"levelo://app?vid=7c4112af-4220-42f6-98e8-9f0ad4c08842"},"vehicle_type_id":"4","last_reported":1740507198,"current_range_meters":17200,"station_id":"ce4bh412rcd13ifvqds0","pricing_plan_id":"cebpf4jnsgd1na2vs0mg"},{"bike_id":"8017275c-452b-45ff-8366-44e6b7f56cac","system_id":"levelo_inurba_marseille","lat":43.26212,"lon":5.3744,"is_reserved":false,"is_disabled":false,"rental_uris":{"android":"levelo://app?vid=8017275c-452b-45ff-8366-44e6b7f56cac","ios":"levelo://app?vid=8017275c-452b-45ff-8366-44e6b7f56cac"},"vehicle_type_id":"4","last_reported":1740507198,"current_range_meters":16800,"station_id":"ce4bhgp2rcd13ifvqfc0","pricing_plan_id":"cebpf4jnsgd1na2vs0mg"},{"bike_id":"03dc35e7-cb11-4e37-8635-9ecb22204266","system_id":"levelo_inurba_marseille","lat":43.28349,"lon":5.38628,"is_reserved":false,"is_disabled":false,"rental_uris":{"android":"levelo://app?vid=03dc35e7-cb11-4e37-8635-9ecb22204266","ios":"levelo://app?vid=03dc35e7-cb11-4e37-8635-9ecb22204266"},"vehicle_type_id":"4","last_reported":1740507198,"current_range_meters":16800,"station_id":"ce4bh492rcd13ifvqdvg","pricing_plan_id":"cebpf4jnsgd1na2vs0mg"},{"bike_id":"90a7c933-ced0-4465-a2ee-e7e2cc730e5b","system_id":"levelo_inurba_marseille","lat":43.30286,"lon":5.37695,"is_reserved":false,"is_disabled":false,"rental_uris":{"android":"levelo://app?vid=90a7c933-ced0-4465-a2ee-e7e2cc730e5b","ios":"levelo://app?vid=90a7c933-ced0-4465-a2ee-e7e2cc730e5b"},"vehicle_type_id":"4","last_reported":1740507198,"current_range_meters":16400,"station_id":"ce4bguh2rcd13ifvqcj0","pricing_plan_id":"cebpf4jnsgd1na2vs0mg"},{"bike_id":"00d5c953-1e69-498c-8cf7-9bf8f01f9c44","system_id":"levelo_inurba_marseille","lat":43.28357,"lon":5.38627,"is_reserved":false,"is_disabled":false,"rental_uris":{"android":"levelo://app?vid=00d5c953-1e69-498c-8cf7-9bf8f01f9c44","ios":"levelo://app?vid=00d5c953-1e69-498c-8cf7-9bf8f01f9c44"},"vehicle_type_id":"4","last_reported":1740507198,"current_range_meters":17200,"station_id":"ce4bh492rcd13ifvqdvg","pricing_plan_id":"cebpf4jnsgd1na2vs0mg"},{"bike_id":"eebf97bb-17d2-446c-abd5-b22da59c8979","system_id":"levelo_inurba_marseille","lat":43.31887,"lon":5.40739,"is_reserved":false,"is_disabled":false,"rental_uris":{"android":"levelo://app?vid=eebf97bb-17d2-446c-abd5-b22da59c8979","ios":"levelo://app?vid=eebf97bb-17d2-446c-abd5-b22da59c8979"},"vehicle_type_id":"4","last_reported":1740507198,"current_range_meters":16800,"station_id":"ce4bhq12rcd13ifvqhig","pricing_plan_id":"cebpf4jnsgd1na2vs0mg"},{"bike_id":"a191f8d0-3370-4b82-94a2-c8f7dc91c04e","system_id":"levelo_inurba_marseille","lat":43.2989,"lon":5.39738,"is_reserved":false,"is_disabled":false,"rental_uris":{"android":"levelo://app?vid=a191f8d0-3370-4b82-94a2-c8f7dc91c04e","ios":"levelo://app?vid=a191f8d0-3370-4b82-94a2-c8f7dc91c04e"},"vehicle_type_id":"4","last_reported":1740507198,"current_range_meters":16800,"station_id":"ce4bh0h2rcd13ifvqd50","pricing_plan_id":"cebpf4jnsgd1na2vs0mg"},{"bike_id":"0b72bdc5-4d34-4c39-be0a-10d4342b4fc6","system_id":"levelo_inurba_marseille","lat":43.25121,"lon":5.40312,"is_reserved":false,"is_disabled":false,"rental_uris":{"android":"levelo://app?vid=0b72bdc5-4d34-4c39-be0a-10d4342b4fc6","ios":"levelo://app?vid=0b72bdc5-4d34-4c39-be0a-10d4342b4fc6"},"vehicle_type_id":"4","last_reported":1740507198,"current_range_meters":17600,"station_id":"ce4bhlh2rcd13ifvqgig","pricing_plan_id":"cebpf4jnsgd1na2vs0mg"},{"bike_id":"7082b425-40e9-4386-b3da-747bafe62d60","system_id":"levelo_inurba_marseille","lat":43.26218,"lon":5.37403,"is_reserved":false,"is_disabled":false,"rental_uris":{"android":"levelo://app?vid=7082b425-40e9-4386-b3da-747bafe62d60","ios":"levelo://app?vid=7082b425-40e9-4386-b3da-747bafe62d60"},"vehicle_type_id":"4","last_reported":1740507198,"current_range_meters":17200,"station_id":"ce4bhgp2rcd13ifvqfc0","pricing_plan_id":"cebpf4jnsgd1na2vs0mg"},{"bike_id":"dfa5af00-5528-476e-8a65-ed9d5a54efc1","system_id":"levelo_inurba_marseille","lat":43.28724,"lon":5.36084,"is_reserved":false,"is_disabled":false,"rental_uris":{"android":"levelo://app?vid=dfa5af00-5528-476e-8a65-ed9d5a54efc1","ios":"levelo://app?vid=dfa5af00-5528-476e-8a65-ed9d5a54efc1"},"vehicle_type_id":"4","last_reported":1740507198,"current_range_meters":17200,"station_id":"cki0cbj6b192h4jlfktg","pricing_plan_id":"cebpf4jnsgd1na2vs0mg"},{"bike_id":"08051b5b-7d27-4e0d-a90f-6a2c41706665","system_id":"levelo_inurba_marseille","lat":43.3079,"lon":5.37655,"is_reserved":false,"is_disabled":false,"rental_uris":{"android":"levelo://app?vid=08051b5b-7d27-4e0d-a90f-6a2c41706665","ios":"levelo://app?vid=08051b5b-7d27-4e0d-a90f-6a2c41706665"},"vehicle_type_id":"4","last_reported":1740507198,"current_range_meters":17200,"station_id":"ce4bgv92rcd13ifvqcq0","pricing_plan_id":"cebpf4jnsgd1na2vs0mg"},{"bike_id":"788d258b-736f-40f4-b8c9-b21b3995db77","system_id":"levelo_inurba_marseille","lat":43.31367,"lon":5.38492,"is_reserved":false,"is_disabled":false,"rental_uris":{"android":"levelo://app?vid=788d258b-736f-40f4-b8c9-b21b3995db77","ios":"levelo://app?vid=788d258b-736f-40f4-b8c9-b21b3995db77"},"vehicle_type_id":"4","last_reported":1740507198,"current_range_meters":17200,"station_id":"ce4bgt92rcd13ifvqcf0","pricing_plan_id":"cebpf4jnsgd1na2vs0mg"},{"bike_id":"b426a55b-6079-4410-bdcf-64a0360c349f","system_id":"levelo_inurba_marseille","lat":43.28421,"lon":5.34981,"is_reserved":false,"is_disabled":false,"rental_uris":{"android":"levelo://app?vid=b426a55b-6079-4410-bdcf-64a0360c349f","ios":"levelo://app?vid=b426a55b-6079-4410-bdcf-64a0360c349f"},"vehicle_type_id":"4","last_reported":1740507198,"current_range_meters":17200,"station_id":"ce4bhbh2rcd13ifvqepg","pricing_plan_id":"cebpf4jnsgd1na2vs0mg"},{"bike_id":"fba9c048-3893-48d7-b4d6-2dd4e6cd9376","system_id":"levelo_inurba_marseille","lat":43.27841,"lon":5.39205,"is_reserved":false,"is_disabled":false,"rental_uris":{"android":"levelo://app?vid=fba9c048-3893-48d7-b4d6-2dd4e6cd9376","ios":"levelo://app?vid=fba9c048-3893-48d7-b4d6-2dd4e6cd9376"},"vehicle_type_id":"4","last_reported":1740507198,"current_range_meters":17200,"station_id":"ce4bhjp2rcd13ifvqga0","pricing_plan_id":"cebpf4jnsgd1na2vs0mg"},{"bike_id":"413a2602-264e-43a4-98cf-ba5861b15c41","system_id":"levelo_inurba_marseille","lat":43.28142,"lon":5.42629,"is_reserved":false,"is_disabled":false,"rental_uris":{"android":"levelo://app?vid=413a2602-264e-43a4-98cf-ba5861b15c41","ios":"levelo://app?vid=413a2602-264e-43a4-98cf-ba5861b15c41"},"vehicle_type_id":"4","last_reported":1740507198,"current_range_meters":17200,"station_id":"ce4bhnh2rcd13ifvqgug","pricing_plan_id":"cebpf4jnsgd1na2vs0mg"},{"bike_id":"0d09d9d7-90c0-473b-83d7-5343e851a66b","system_id":"levelo_inurba_marseille","lat":43.24374,"lon":5.37059,"is_reserved":false,"is_disabled":false,"rental_uris":{"android":"levelo://app?vid=0d09d9d7-90c0-473b-83d7-5343e851a66b","ios":"levelo://app?vid=0d09d9d7-90c0-473b-83d7-5343e851a66b"},"vehicle_type_id":"4","last_reported":1740507198,"current_range_meters":17200,"station_id":"ce4bhhh2rcd13ifvqfk0","pricing_plan_id":"cebpf4jnsgd1na2vs0mg"},{"bike_id":"e1d1f14c-1797-487f-bad5-aeee03d5456a","system_id":"levelo_inurba_marseille","lat":43.24739,"lon":5.38134,"is_reserved":false,"is_disabled":false,"rental_uris":{"android":"levelo://app?vid=e1d1f14c-1797-487f-bad5-aeee03d5456a","ios":"levelo://app?vid=e1d1f14c-1797-487f-bad5-aeee03d5456a"},"vehicle_type_id":"4","last_reported":1740507198,"current_range_meters":14400,"station_id":"","pricing_plan_id":"cebpf4jnsgd1na2vs0mg"},{"bike_id":"1eaf9d1d-4a9a-49b9-ac54-e5e35bd37011","system_id":"levelo_inurba_marseille","lat":43.29795,"lon":5.38097,"is_reserved":false,"is_disabled":false,"rental_uris":{"android":"levelo://app?vid=1eaf9d1d-4a9a-49b9-ac54-e5e35bd37011","ios":"levelo://app?vid=1eaf9d1d-4a9a-49b9-ac54-e5e35bd37011"},"vehicle_type_id":"4","last_reported":1740507198,"current_range_meters":17200,"station_id":"ce4bgip2rcd13ifvqbb0","pricing_plan_id":"cebpf4jnsgd1na2vs0mg"},{"bike_id":"dccbaa4e-08c6-4ce1-87f9-41ddfa619aa2","system_id":"levelo_inurba_marseille","lat":43.28729,"lon":5.36081,"is_reserved":false,"is_disabled":false,"rental_uris":{"android":"levelo://app?vid=dccbaa4e-08c6-4ce1-87f9-41ddfa619aa2","ios":"levelo://app?vid=dccbaa4e-08c6-4ce1-87f9-41ddfa619aa2"},"vehicle_type_id":"4","last_reported":1740507198,"current_range_meters":16800,"station_id":"cki0cbj6b192h4jlfktg","pricing_plan_id":"cebpf4jnsgd1na2vs0mg"},{"bike_id":"6125a074-50c2-49a2-882d-664736a4044e","system_id":"levelo_inurba_marseille","lat":43.29231,"lon":5.3607,"is_reserved":false,"is_disabled":false,"rental_uris":{"android":"levelo://app?vid=6125a074-50c2-49a2-882d-664736a4044e","ios":"levelo://app?vid=6125a074-50c2-49a2-882d-664736a4044e"},"vehicle_type_id":"4","last_reported":1740507198,"current_range_meters":16800,"station_id":"ce4bhbh2rcd13ifvqeqg","pricing_plan_id":"cebpf4jnsgd1na2vs0mg"},{"bike_id":"ba7310ac-0764-4ccf-8bec-7a2976e24404","system_id":"levelo_inurba_marseille","lat":43.29272,"lon":5.38435,"is_reserved":false,"is_disabled":false,"rental_uris":{"android":"levelo://app?vid=ba7310ac-0764-4ccf-8bec-7a2976e24404","ios":"levelo://app?vid=ba7310ac-0764-4ccf-8bec-7a2976e24404"},"vehicle_type_id":"4","last_reported":1740507198,"current_range_meters":17600,"station_id":"ce4bh692rcd13ifvqea0","pricing_plan_id":"cebpf4jnsgd1na2vs0mg"},{"bike_id":"78863fde-fa6f-4f5a-b881-6c3eb227b66f","system_id":"levelo_inurba_marseille","lat":43.2955,"lon":5.42283,"is_reserved":false,"is_disabled":false,"rental_uris":{"android":"levelo://app?vid=78863fde-fa6f-4f5a-b881-6c3eb227b66f","ios":"levelo://app?vid=78863fde-fa6f-4f5a-b881-6c3eb227b66f"},"vehicle_type_id":"4","last_reported":1740507198,"current_range_meters":17600,"station_id":"ce4bhph2rcd13ifvqhdg","pricing_plan_id":"cebpf4jnsgd1na2vs0mg"},{"bike_id":"73ddbacb-25f5-4884-8c28-405a7baade5b","system_id":"levelo_inurba_marseille","lat":43.28151,"lon":5.4264,"is_reserved":false,"is_disabled":false,"rental_uris":{"android":"levelo://app?vid=73ddbacb-25f5-4884-8c28-405a7baade5b","ios":"levelo://app?vid=73ddbacb-25f5-4884-8c28-405a7baade5b"},"vehicle_type_id":"4","last_reported":1740507198,"current_range_meters":17600,"station_id":"ce4bhnh2rcd13ifvqgug","pricing_plan_id":"cebpf4jnsgd1na2vs0mg"},{"bike_id":"4303e72d-c309-440e-990e-397e2de97f27","system_id":"levelo_inurba_marseille","lat":43.28849,"lon":5.35844,"is_reserved":false,"is_disabled":false,"rental_uris":{"android":"levelo://app?vid=4303e72d-c309-440e-990e-397e2de97f27","ios":"levelo://app?vid=4303e72d-c309-440e-990e-397e2de97f27"},"vehicle_type_id":"4","last_reported":1740507198,"current_range_meters":17600,"station_id":"ce4bhb12rcd13ifvqem0","pricing_plan_id":"cebpf4jnsgd1na2vs0mg"},{"bike_id":"02028f5d-7181-4e7f-80ba-abb06cf96801","system_id":"levelo_inurba_marseille","lat":43.28415,"lon":5.34989,"is_reserved":false,"is_disabled":false,"rental_uris":{"android":"levelo://app?vid=02028f5d-7181-4e7f-80ba-abb06cf96801","ios":"levelo://app?vid=02028f5d-7181-4e7f-80ba-abb06cf96801"},"vehicle_type_id":"4","last_reported":1740507198,"current_range_meters":17600,"station_id":"ce4bhbh2rcd13ifvqepg","pricing_plan_id":"cebpf4jnsgd1na2vs0mg"},{"bike_id":"f682e0e7-7287-4810-b57c-07b39acfa03a","system_id":"levelo_inurba_marseille","lat":43.29275,"lon":5.3843,"is_reserved":false,"is_disabled":false,"rental_uris":{"android":"levelo://app?vid=f682e0e7-7287-4810-b57c-07b39acfa03a","ios":"levelo://app?vid=f682e0e7-7287-4810-b57c-07b39acfa03a"},"vehicle_type_id":"4","last_reported":1740507198,"current_range_meters":17600,"station_id":"ce4bh692rcd13ifvqea0","pricing_plan_id":"cebpf4jnsgd1na2vs0mg"},{"bike_id":"8a7d730e-73c0-400f-80e6-84f1339bb6fd","system_id":"levelo_inurba_marseille","lat":43.24676,"lon":5.38154,"is_reserved":false,"is_disabled":false,"rental_uris":{"android":"levelo://app?vid=8a7d730e-73c0-400f-80e6-84f1339bb6fd","ios":"levelo://app?vid=8a7d730e-73c0-400f-80e6-84f1339bb6fd"},"vehicle_type_id":"4","last_reported":1740507198,"current_range_meters":17600,"station_id":"ce4bhih2rcd13ifvqfr0","pricing_plan_id":"cebpf4jnsgd1na2vs0mg"},{"bike_id":"25c5ad0f-17d5-4992-a2f2-88e61a5c277e","system_id":"levelo_inurba_marseille","lat":43.26202,"lon":5.37467,"is_reserved":false,"is_disabled":false,"rental_uris":{"android":"levelo://app?vid=25c5ad0f-17d5-4992-a2f2-88e61a5c277e","ios":"levelo://app?vid=25c5ad0f-17d5-4992-a2f2-88e61a5c277e"},