{"last_updated":1752178348,"ttl":60,"version":"2.2","data":{"bikes":[{"bike_id":"cd20cfea-2f2f-444d-a882-a49b6cf370eb","system_id":"levelo_inurba_marseille","lat":43.337444,"lon":5.374475,"is_reserved":false,"is_disabled":true,"rental_uris":{"android":"levelo://app?vid=cd20cfea-2f2f-444d-a882-a49b6cf370eb","ios":"levelo://app?vid=cd20cfea-2f2f-444d-a882-a49b6cf370eb"},"vehicle_type_id":"4","last_reported":1752178348,"current_range_meters":0,"station_id":"","pricing_plan_id":"cebpf4jnsgd1na2vs0mg"},{"bike_id":"3da29fb8-fc97-44c6-b9ac-31dd456b2fd4","system_id":"levelo_inurba_marseille","lat":43.33771,"lon":5.37424,"is_reserved":false,"is_disabled":true,"rental_uris":{"android":"levelo://app?vid=3da29fb8-fc97-44c6-b9ac-31dd456b2fd4","ios":"levelo://app?vid=3da29fb8-fc97-44c6-b9ac-31dd456b2fd4"},"vehicle_type_id":"4","last_reported":1752178348,"current_range_meters":0,"station_id":"","pricing_plan_id":"cebpf4jnsgd1na2vs0mg"},{"bike_id":"01861ad8-a8d7-4be6-816e-651927c87584","system_id":"levelo_inurba_marseille","lat":43.33751,"lon":5.37456,"is_reserved":false,"is_disabled":true,"rental_uris":{"android":"levelo://app?vid=01861ad8-a8d7-4be6-816e-651927c87584","ios":"levelo://app?vid=01861ad8-a8d7-4be6-816e-651927c87584"},"vehicle_type_id":"4","last_reported":1752178348,"current_range_meters":0,"station_id":"","pricing_plan_id":"cebpf4jnsgd1na2vs0mg"},{"bike_id":"37f2becd-23f9-4f13-a711-38b8024eeec7","system_id":"levelo_inurba_marseille","lat":43.33768,"lon":5.37516,"is_reserved":false,"is_disabled":true,"rental_uris":{"android":"levelo://app?vid=37f2becd-23f9-4f13-a711-38b8024eeec7","ios":"levelo://app?vid=37f2becd-23f9-4f13-a711-38b8024eeec7"},"vehicle_type_id":"4","last_reported":1752178348,"current_range_meters":0,"station_id":"","pricing_plan_id":"cebpf4jnsgd1na2vs0mg"},{"bike_id":"be977911-8e4c-4d3b-b79a-7cb1c646e558","system_id":"levelo_inurba_marseille","lat":43.305053,"lon":5.38449,"is_reserved":false,"is_disabled":true,"rental_uris":{"android":"levelo://app?vid=be977911-8e4c-4d3b-b79a-7cb1c646e558","ios":"levelo://app?vid=be977911-8e4c-4d3b-b79a-7cb1c646e558"},"vehicle_type_id":"4","last_reported":1752178348,"current_range_meters":0,"station_id":"ce4bgg92rcd13ifvqb30","pricing_plan_id":"cebpf4jnsgd1na2vs0mg"},{"bike_id":"b46bda00-ba28-4a13-90b0-1c3a320e3f7e","system_id":"levelo_inurba_marseille","lat":43.28947,"lon":5.3663,"is_reserved":false,"is_disabled":true,"rental_uris":{"android":"levelo://app?vid=b46bda00-ba28-4a13-90b0-1c3a320e3f7e","ios":"levelo://app?vid=b46bda00-ba28-4a13-90b0-1c3a320e3f7e"},"vehicle_type_id":"4","last_reported":1752178348,"current_range_meters":0,"station_id":"ce4bhap2rcd13ifvqek0","pricing_plan_id":"cebpf4jnsgd1na2vs0mg"},{"bike_id":"69327d35-64be-4965-82c4-adede8888b08","system_id":"levelo_inurba_marseille","lat":43.28411,"lon":5.34988,"is_reserved":false,"is_disabled":true,"rental_uris":{"android":"levelo://app?vid=69327d35-64be-4965-82c4-adede8888b08","ios":"levelo://app?vid=69327d35-64be-4965-82c4-adede8888b08"},"vehicle_type_id":"4","last_reported":1752178348,"current_range_meters":0,"station_id":"ce4bhbh2rcd13ifvqepg","pricing_plan_id":"cebpf4jnsgd1na2vs0mg"},{"bike_id":"0c61775f-f727-40f0-bf0f-10407ad1d0e8","system_id":"levelo_inurba_marseille","lat":43.28274,"lon":5.35058,"is_reserved":false,"is_disabled":true,"rental_uris":{"android":"levelo://app?vid=0c61775f-f727-40f0-bf0f-10407ad1d0e8","ios":"levelo://app?vid=0c61775f-f727-40f0-bf0f-10407ad1d0e8"},"vehicle_type_id":"4","last_reported":1752178348,"current_range_meters":0,"station_id":"ce4bhbp2rcd13ifvqerg","pricing_plan_id":"cebpf4jnsgd1na2vs0mg"},{"bike_id":"cb6dc15e-db5c-4417-b117-e08b13af5724","system_id":"levelo_inurba_marseille","lat":43.27808,"lon":5.40707,"is_reserved":false,"is_disabled":true,"rental_uris":{"android":"levelo://app?vid=cb6dc15e-db5c-4417-b117-e08b13af5724","ios":"levelo://app?vid=cb6dc15e-db5c-4417-b117-e08b13af5724"},"vehicle_type_id":"4","last_reported":1752178348,"current_range_meters":0,"station_id":"ce4bhnh2rcd13ifvqgtg","pricing_plan_id":"cebpf4jnsgd1na2vs0mg"},{"bike_id":"50d29d87-be07-4be0-8b6b-4da41d4d3fab","system_id":"levelo_inurba_marseille","lat":43.31091,"lon":5.42434,"is_reserved":false,"is_disabled":true,"rental_uris":{"android":"levelo://app?vid=50d29d87-be07-4be0-8b6b-4da41d4d3fab","ios":"levelo://app?vid=50d29d87-be07-4be0-8b6b-4da41d4d3fab"},"vehicle_type_id":"4","last_reported":1752178348,"current_range_meters":0,"station_id":"ce4bhp92rcd13ifvqhag","pricing_plan_id":"cebpf4jnsgd1na2vs0mg"},{"bike_id":"7b29ed69-f74d-40bc-80a8-0cd31c5f75cc","system_id":"levelo_inurba_marseille","lat":43.30896,"lon":5.39648,"is_reserved":false,"is_disabled":true,"rental_uris":{"android":"levelo://app?vid=7b29ed69-f74d-40bc-80a8-0cd31c5f75cc","ios":"levelo://app?vid=7b29ed69-f74d-40bc-80a8-0cd31c5f75cc"},"vehicle_type_id":"4","last_reported":1752178348,"current_range_meters":400,"station_id":"ce4bh012rcd13ifvqcv0","pricing_plan_id":"cebpf4jnsgd1na2vs0mg"},{"bike_id":"888522e3-39b6-4ff3-ad74-ff6c6f771157","system_id":"levelo_inurba_marseille","lat":43.29578,"lon":5.3994,"is_reserved":false,"is_disabled":true,"rental_uris":{"android":"levelo://app?vid=888522e3-39b6-4ff3-ad74-ff6c6f771157","ios":"levelo://app?vid=888522e3-39b6-4ff3-ad74-ff6c6f771157"},"vehicle_type_id":"4","last_reported":1752178348,"current_range_meters":800,"station_id":"ce4bh312rcd13ifvqdj0","pricing_plan_id":"cebpf4jnsgd1na2vs0mg"},{"bike_id":"5a873d3e-b6e7-40c1-822e-7083afb21ec0","system_id":"levelo_inurba_marseille","lat":43.29026,"lon":5.38647,"is_reserved":false,"is_disabled":true,"rental_uris":{"android":"levelo://app?vid=5a873d3e-b6e7-40c1-822e-7083afb21ec0","ios":"levelo://app?vid=5a873d3e-b6e7-40c1-822e-7083afb21ec0"},"vehicle_type_id":"4","last_reported":1752178348,"current_range_meters":1200,"station_id":"ce4bh4p2rcd13ifvqe0g","pricing_plan_id":"cebpf4jnsgd1na2vs0mg"},{"bike_id":"fe557580-7d40-428c-bab9-732dac0da7f1","system_id":"levelo_inurba_marseille","lat":43.21221,"lon":5.35071,"is_reserved":false,"is_disabled":true,"rental_uris":{"android":"levelo://app?vid=fe557580-7d40-428c-bab9-732dac0da7f1","ios":"levelo://app?vid=fe557580-7d40-428c-bab9-732dac0da7f1"},"vehicle_type_id":"4","last_reported":1752178348,"current_range_meters":1200,"station_id":"st_cvj6sg6p6f1abm77japg","pricing_plan_id":"cebpf4jnsgd1na2vs0mg"},{"bike_id":"71c2991d-4c93-4a58-bda8-499f8e187abd","system_id":"levelo_inurba_marseille","lat":43.282638,"lon":5.350618,"is_reserved":false,"is_disabled":true,"rental_uris":{"android":"levelo://app?vid=71c2991d-4c93-4a58-bda8-499f8e187abd","ios":"levelo://app?vid=71c2991d-4c93-4a58-bda8-499f8e187abd"},"vehicle_type_id":"4","last_reported":1752178348,"current_range_meters":2000,"station_id":"","pricing_plan_id":"cebpf4jnsgd1na2vs0mg"},{"bike_id":"1a459887-dd21-4e6b-b393-13e873d842ca","system_id":"levelo_inurba_marseille","lat":43.285706,"lon":5.394986,"is_reserved":false,"is_disabled":true,"rental_uris":{"android":"levelo://app?vid=1a459887-dd21-4e6b-b393-13e873d842ca","ios":"levelo://app?vid=1a459887-dd21-4e6b-b393-13e873d842ca"},"vehicle_type_id":"4","last_reported":1752178348,"current_range_meters":2000,"station_id":"ce4bh292rcd13ifvqdg0","pricing_plan_id":"cebpf4jnsgd1na2vs0mg"},{"bike_id":"e82c48e8-6da9-4f98-a568-6751169c1987","system_id":"levelo_inurba_marseille","lat":43.30941,"lon":5.40137,"is_reserved":false,"is_disabled":false,"rental_uris":{"android":"levelo://app?vid=e82c48e8-6da9-4f98-a568-6751169c1987","ios":"levelo://app?vid=e82c48e8-6da9-4f98-a568-6751169c1987"},"vehicle_type_id":"4","last_reported":1752178348,"current_range_meters":2800,"station_id":"ce4bgvp2rcd13ifvqct0","pricing_plan_id":"cebpf4jnsgd1na2vs0mg"},{"bike_id":"700026de-24d8-4412-b60e-b2004b6b18a1","system_id":"levelo_inurba_marseille","lat":43.30648,"lon":5.40099,"is_reserved":false,"is_disabled":false,"rental_uris":{"android":"levelo://app?vid=700026de-24d8-4412-b60e-b2004b6b18a1","ios":"levelo://app?vid=700026de-24d8-4412-b60e-b2004b6b18a1"},"vehicle_type_id":"4","last_reported":1752178348,"current_range_meters":2800,"station_id":"ce4bh112rcd13ifvqda0","pricing_plan_id":"cebpf4jnsgd1na2vs0mg"},{"bike_id":"accc6cab-ad8b-4961-bb79-fcd432757e2b","system_id":"levelo_inurba_marseille","lat":43.30945,"lon":5.39028,"is_reserved":false,"is_disabled":false,"rental_uris":{"android":"levelo://app?vid=accc6cab-ad8b-4961-bb79-fcd432757e2b","ios":"levelo://app?vid=accc6cab-ad8b-4961-bb79-fcd432757e2b"},"vehicle_type_id":"4","last_reported":1752178348,"current_range_meters":3200,"station_id":"ce4bgup2rcd13ifvqco0","pricing_plan_id":"cebpf4jnsgd1na2vs0mg"},{"bike_id":"328a2126-c338-484d-b0b2-85a381405780","system_id":"levelo_inurba_marseille","lat":43.31076,"lon":5.38356,"is_reserved":false,"is_disabled":false,"rental_uris":{"android":"levelo://app?vid=328a2126-c338-484d-b0b2-85a381405780","ios":"levelo://app?vid=328a2126-c338-484d-b0b2-85a381405780"},"vehicle_type_id":"4","last_reported":1752178348,"current_range_meters":3200,"station_id":"ce4bgv92rcd13ifvqcr0","pricing_plan_id":"cebpf4jnsgd1na2vs0mg"},{"bike_id":"1adeaf53-e610-49ae-95d4-0ce96f86030a","system_id":"levelo_inurba_marseille","lat":43.29934,"lon":5.3655,"is_reserved":false,"is_disabled":false,"rental_uris":{"android":"levelo://app?vid=1adeaf53-e610-49ae-95d4-0ce96f86030a","ios":"levelo://app?vid=1adeaf53-e610-49ae-95d4-0ce96f86030a"},"vehicle_type_id":"4","last_reported":1752178348,"current_range_meters":3600,"station_id":"ce4bgm92rcd13ifvqbr0","pricing_plan_id":"cebpf4jnsgd1na2vs0mg"},{"bike_id":"b10e6252-488a-453b-a351-9007d064cf64","system_id":"levelo_inurba_marseille","lat":43.261932,"lon":5.374482,"is_reserved":false,"is_disabled":false,"rental_uris":{"android":"levelo://app?vid=b10e6252-488a-453b-a351-9007d064cf64","ios":"levelo://app?vid=b10e6252-488a-453b-a351-9007d064cf64"},"vehicle_type_id":"4","last_reported":1752178348,"current_range_meters":3600,"station_id":"ce4bhgp2rcd13ifvqfc0","pricing_plan_id":"cebpf4jnsgd1na2vs0mg"},{"bike_id":"3951efe1-70a8-4c26-a473-f136ec027189","system_id":"levelo_inurba_marseille","lat":43.28905,"lon":5.3664,"is_reserved":false,"is_disabled":false,"rental_uris":{"android":"levelo://app?vid=3951efe1-70a8-4c26-a473-f136ec027189","ios":"levelo://app?vid=3951efe1-70a8-4c26-a473-f136ec027189"},"vehicle_type_id":"4","last_reported":1752178348,"current_range_meters":4000,"station_id":"","pricing_plan_id":"cebpf4jnsgd1na2vs0mg"},{"bike_id":"c22918d7-4d5a-4879-aead-6e32266d3cc6","system_id":"levelo_inurba_marseille","lat":43.29795,"lon":5.38099,"is_reserved":false,"is_disabled":false,"rental_uris":{"android":"levelo://app?vid=c22918d7-4d5a-4879-aead-6e32266d3cc6","ios":"levelo://app?vid=c22918d7-4d5a-4879-aead-6e32266d3cc6"},"vehicle_type_id":"4","last_reported":1752178348,"current_range_meters":4000,"station_id":"ce4bgip2rcd13ifvqbb0","pricing_plan_id":"cebpf4jnsgd1na2vs0mg"},{"bike_id":"1d94d372-84d3-47e0-ae09-6683fb3ec892","system_id":"levelo_inurba_marseille","lat":43.292726,"lon":5.385376,"is_reserved":false,"is_disabled":false,"rental_uris":{"android":"levelo://app?vid=1d94d372-84d3-47e0-ae09-6683fb3ec892","ios":"levelo://app?vid=1d94d372-84d3-47e0-ae09-6683fb3ec892"},"vehicle_type_id":"4","last_reported":1752178348,"current_range_meters":4800,"station_id":"ce4bh692rcd13ifvqea0","pricing_plan_id":"cebpf4jnsgd1na2vs0mg"},{"bike_id":"41ccd574-3caf-4bce-aecc-896ae890cafe","system_id":"levelo_inurba_marseille","lat":43.28845,"lon":5.35849,"is_reserved":false,"is_disabled":false,"rental_uris":{"android":"levelo://app?vid=41ccd574-3caf-4bce-aecc-896ae890cafe","ios":"levelo://app?vid=41ccd574-3caf-4bce-aecc-896ae890cafe"},"vehicle_type_id":"4","last_reported":1752178348,"current_range_meters":4800,"station_id":"ce4bhb12rcd13ifvqem0","pricing_plan_id":"cebpf4jnsgd1na2vs0mg"},{"bike_id":"159fe00e-1605-4a3a-a906-ef8dcd52b1db","system_id":"levelo_inurba_marseille","lat":43.30874,"lon":5.37319,"is_reserved":false,"is_disabled":false,"rental_uris":{"android":"levelo://app?vid=159fe00e-1605-4a3a-a906-ef8dcd52b1db","ios":"levelo://app?vid=159fe00e-1605-4a3a-a906-ef8dcd52b1db"},"vehicle_type_id":"4","last_reported":1752178348,"current_range_meters":5600,"station_id":"","pricing_plan_id":"cebpf4jnsgd1na2vs0mg"},{"bike_id":"564b53bb-dab8-4d0d-bd4f-e0b921c2b8ac","system_id":"levelo_inurba_marseille","lat":43.26032,"lon":5.37545,"is_reserved":false,"is_disabled":false,"rental_uris":{"android":"levelo://app?vid=564b53bb-dab8-4d0d-bd4f-e0b921c2b8ac","ios":"levelo://app?vid=564b53bb-dab8-4d0d-bd4f-e0b921c2b8ac"},"vehicle_type_id":"4","last_reported":1752178348,"current_range_meters":5600,"station_id":"ce4bhgh2rcd13ifvqfa0","pricing_plan_id":"cebpf4jnsgd1na2vs0mg"},{"bike_id":"b4f0af24-1970-4cb2-abb4-e9f7f09fa10a","system_id":"levelo_inurba_marseille","lat":43.30324,"lon":5.40432,"is_reserved":false,"is_disabled":false,"rental_uris":{"android":"levelo://app?vid=b4f0af24-1970-4cb2-abb4-e9f7f09fa10a","ios":"levelo://app?vid=b4f0af24-1970-4cb2-abb4-e9f7f09fa10a"},"vehicle_type_id":"4","last_reported":1752178348,"current_range_meters":6000,"station_id":"ce4bh012rcd13ifvqd10","pricing_plan_id":"cebpf4jnsgd1na2vs0mg"},{"bike_id":"78f9d0a3-9398-4c27-8839-647f821ef2b4","system_id":"levelo_inurba_marseille","lat":43.25515,"lon":5.37657,"is_reserved":false,"is_disabled":false,"rental_uris":{"android":"levelo://app?vid=78f9d0a3-9398-4c27-8839-647f821ef2b4","ios":"levelo://app?vid=78f9d0a3-9398-4c27-8839-647f821ef2b4"},"vehicle_type_id":"4","last_reported":1752178348,"current_range_meters":6000,"station_id":"ce4bhh12rcd13ifvqff0","pricing_plan_id":"cebpf4jnsgd1na2vs0mg"},{"bike_id":"aee80bca-d7be-4d9b-a71e-94fb80cc853e","system_id":"levelo_inurba_marseille","lat":43.28726,"lon":5.3608,"is_reserved":false,"is_disabled":false,"rental_uris":{"android":"levelo://app?vid=aee80bca-d7be-4d9b-a71e-94fb80cc853e","ios":"levelo://app?vid=aee80bca-d7be-4d9b-a71e-94fb80cc853e"},"vehicle_type_id":"4","last_reported":1752178348,"current_range_meters":6000,"station_id":"cki0cbj6b192h4jlfktg","pricing_plan_id":"cebpf4jnsgd1na2vs0mg"},{"bike_id":"3ea3e679-4d7b-4ffd-8e50-1dd4e9ec9659","system_id":"levelo_inurba_marseille","lat":43.29911,"lon":5.37475,"is_reserved":false,"is_disabled":false,"rental_uris":{"android":"levelo://app?vid=3ea3e679-4d7b-4ffd-8e50-1dd4e9ec9659","ios":"levelo://app?vid=3ea3e679-4d7b-4ffd-8e50-1dd4e9ec9659"},"vehicle_type_id":"4","last_reported":1752178348,"current_range_meters":6400,"station_id":"ce4bgjh2rcd13ifvqbg0","pricing_plan_id":"cebpf4jnsgd1na2vs0mg"},{"bike_id":"d665a6dd-5185-4b70-b464-d31b3e486d5d","system_id":"levelo_inurba_marseille","lat":43.29422,"lon":5.38607,"is_reserved":false,"is_disabled":false,"rental_uris":{"android":"levelo://app?vid=d665a6dd-5185-4b70-b464-d31b3e486d5d","ios":"levelo://app?vid=d665a6dd-5185-4b70-b464-d31b3e486d5d"},"vehicle_type_id":"4","last_reported":1752178348,"current_range_meters":6400,"station_id":"ce4bh2h2rcd13ifvqdh0","pricing_plan_id":"cebpf4jnsgd1na2vs0mg"},{"bike_id":"972fcd1c-dcda-4cd6-8832-182e74314d21","system_id":"levelo_inurba_marseille","lat":43.29281,"lon":5.40117,"is_reserved":false,"is_disabled":false,"rental_uris":{"android":"levelo://app?vid=972fcd1c-dcda-4cd6-8832-182e74314d21","ios":"levelo://app?vid=972fcd1c-dcda-4cd6-8832-182e74314d21"},"vehicle_type_id":"4","last_reported":1752178348,"current_range_meters":6400,"station_id":"ce4bh312rcd13ifvqdk0","pricing_plan_id":"cebpf4jnsgd1na2vs0mg"},{"bike_id":"08021640-d5d5-4970-912a-086b800b3972","system_id":"levelo_inurba_marseille","lat":43.2902,"lon":5.38137,"is_reserved":false,"is_disabled":false,"rental_uris":{"android":"levelo://app?vid=08021640-d5d5-4970-912a-086b800b3972","ios":"levelo://app?vid=08021640-d5d5-4970-912a-086b800b3972"},"vehicle_type_id":"4","last_reported":1752178348,"current_range_meters":6400,"station_id":"ce4bh4p2rcd13ifvqe1g","pricing_plan_id":"cebpf4jnsgd1na2vs0mg"},{"bike_id":"3a018df6-f07f-4996-a08e-f8489eb39ec1","system_id":"levelo_inurba_marseille","lat":43.29791,"lon":5.39337,"is_reserved":false,"is_disabled":false,"rental_uris":{"android":"levelo://app?vid=3a018df6-f07f-4996-a08e-f8489eb39ec1","ios":"levelo://app?vid=3a018df6-f07f-4996-a08e-f8489eb39ec1"},"vehicle_type_id":"4","last_reported":1752178348,"current_range_meters":6400,"station_id":"chh1huq6cuj3fo74tm60","pricing_plan_id":"cebpf4jnsgd1na2vs0mg"},{"bike_id":"c870e9e9-30df-47c3-a7d5-26e3b65d2693","system_id":"levelo_inurba_marseille","lat":43.30601,"lon":5.37215,"is_reserved":false,"is_disabled":false,"rental_uris":{"android":"levelo://app?vid=c870e9e9-30df-47c3-a7d5-26e3b65d2693","ios":"levelo://app?vid=c870e9e9-30df-47c3-a7d5-26e3b65d2693"},"vehicle_type_id":"4","last_reported":1752178348,"current_range_meters":6800,"station_id":"ce4bgqh2rcd13ifvqc4g","pricing_plan_id":"cebpf4jnsgd1na2vs0mg"},{"bike_id":"f643ff93-c6a5-4153-9976-04873ee5d730","system_id":"levelo_inurba_marseille","lat":43.28417,"lon":5.34979,"is_reserved":false,"is_disabled":false,"rental_uris":{"android":"levelo://app?vid=f643ff93-c6a5-4153-9976-04873ee5d730","ios":"levelo://app?vid=f643ff93-c6a5-4153-9976-04873ee5d730"},"vehicle_type_id":"4","last_reported":1752178348,"current_range_meters":6800,"station_id":"ce4bhbh2rcd13ifvqepg","pricing_plan_id":"cebpf4jnsgd1na2vs0mg"},{"bike_id":"9f80a175-6748-482b-92f8-4cbdd9f8bbf0","system_id":"levelo_inurba_marseille","lat":43.254913,"lon":5.376474,"is_reserved":false,"is_disabled":false,"rental_uris":{"android":"levelo://app?vid=9f80a175-6748-482b-92f8-4cbdd9f8bbf0","ios":"levelo://app?vid=9f80a175-6748-482b-92f8-4cbdd9f8bbf0"},"vehicle_type_id":"4","last_reported":1752178348,"current_range_meters":6800,"station_id":"ce4bhh12rcd13ifvqff0","pricing_plan_id":"cebpf4jnsgd1na2vs0mg"},{"bike_id":"b324f163-6924-4fa2-aba8-04c75d81fe5f","system_id":"levelo_inurba_marseille","lat":43.29198,"lon":5.39331,"is_reserved":false,"is_disabled":false,"rental_uris":{"android":"levelo://app?vid=b324f163-6924-4fa2-aba8-04c75d81fe5f","ios":"levelo://app?vid=b324f163-6924-4fa2-aba8-04c75d81fe5f"},"vehicle_type_id":"4","last_reported":1752178348,"current_range_meters":7200,"station_id":"","pricing_plan_id":"cebpf4jnsgd1na2vs0mg"},{"bike_id":"c086afd2-6bf6-4373-82a8-d72a8beba41f","system_id":"levelo_inurba_marseille","lat":43.30306,"lon":5.36896,"is_reserved":false,"is_disabled":false,"rental_uris":{"android":"levelo://app?vid=c086afd2-6bf6-4373-82a8-d72a8beba41f","ios":"levelo://app?vid=c086afd2-6bf6-4373-82a8-d72a8beba41f"},"vehicle_type_id":"4","last_reported":1752178348,"current_range_meters":7200,"station_id":"","pricing_plan_id":"cebpf4jnsgd1na2vs0mg"},{"bike_id":"12a40eac-7ba3-4115-8455-e8517f0ed9dd","system_id":"levelo_inurba_marseille","lat":43.29576,"lon":5.39977,"is_reserved":false,"is_disabled":false,"rental_uris":{"android":"levelo://app?vid=12a40eac-7ba3-4115-8455-e8517f0ed9dd","ios":"levelo://app?vid=12a40eac-7ba3-4115-8455-e8517f0ed9dd"},"vehicle_type_id":"4","last_reported":1752178348,"current_range_meters":8000,"station_id":"ce4bh312rcd13ifvqdj0","pricing_plan_id":"cebpf4jnsgd1na2vs0mg"},{"bike_id":"54daa2d2-4327-4a7e-9750-7fc2e6b91aa0","system_id":"levelo_inurba_marseille","lat":43.27838,"lon":5.39211,"is_reserved":false,"is_disabled":false,"rental_uris":{"android":"levelo://app?vid=54daa2d2-4327-4a7e-9750-7fc2e6b91aa0","ios":"levelo://app?vid=54daa2d2-4327-4a7e-9750-7fc2e6b91aa0"},"vehicle_type_id":"4","last_reported":1752178348,"current_range_meters":8400,"station_id":"ce4bhjp2rcd13ifvqga0","pricing_plan_id":"cebpf4jnsgd1na2vs0mg"},{"bike_id":"e86f96e5-f2aa-4d72-829c-c868b674b3a0","system_id":"levelo_inurba_marseille","lat":43.23163,"lon":5.436913,"is_reserved":false,"is_disabled":false,"rental_uris":{"android":"levelo://app?vid=e86f96e5-f2aa-4d72-829c-c868b674b3a0","ios":"levelo://app?vid=e86f96e5-f2aa-4d72-829c-c868b674b3a0"},"vehicle_type_id":"4","last_reported":1752178348,"current_range_meters":8400,"station_id":"ce4bhmp2rcd13ifvqgog","pricing_plan_id":"cebpf4jnsgd1na2vs0mg"},{"bike_id":"ba480b1d-fbef-4d54-9bb0-c2fa8b787212","system_id":"levelo_inurba_marseille","lat":43.21171,"lon":5.35074,"is_reserved":false,"is_disabled":false,"rental_uris":{"android":"levelo://app?vid=ba480b1d-fbef-4d54-9bb0-c2fa8b787212","ios":"levelo://app?vid=ba480b1d-fbef-4d54-9bb0-c2fa8b787212"},"vehicle_type_id":"4","last_reported":1752178348,"current_range_meters":8400,"station_id":"st_cvj6sg6p6f1abm77japg","pricing_plan_id":"cebpf4jnsgd1na2vs0mg"},{"bike_id":"1176e6fa-f11d-4291-aaeb-c874eeeb6554","system_id":"levelo_inurba_marseille","lat":43.29305,"lon":5.37179,"is_reserved":false,"is_disabled":false,"rental_uris":{"android":"levelo://app?vid=1176e6fa-f11d-4291-aaeb-c874eeeb6554","ios":"levelo://app?vid=1176e6fa-f11d-4291-aaeb-c874eeeb6554"},"vehicle_type_id":"4","last_reported":1752178348,"current_range_meters":8800,"station_id":"ce4bgh92rcd13ifvqb40","pricing_plan_id":"cebpf4jnsgd1na2vs0mg"},{"bike_id":"2d678204-1447-404a-8ea2-c188549a23d0","system_id":"levelo_inurba_marseille","lat":43.31484,"lon":5.37273,"is_reserved":false,"is_disabled":false,"rental_uris":{"android":"levelo://app?vid=2d678204-1447-404a-8ea2-c188549a23d0","ios":"levelo://app?vid=2d678204-1447-404a-8ea2-c188549a23d0"},"vehicle_type_id":"4","last_reported":1752178348,"current_range_meters":8800,"station_id":"ce4bgt12rcd13ifvqcd0","pricing_plan_id":"cebpf4jnsgd1na2vs0mg"},{"bike_id":"84cb787e-9e3f-43cc-948c-24b004f5562a","system_id":"levelo_inurba_marseille","lat":43.31072,"lon":5.38354,"is_reserved":false,"is_disabled":false,"rental_uris":{"android":"levelo://app?vid=84cb787e-9e3f-43cc-948c-24b004f5562a","ios":"levelo://app?vid=84cb787e-9e3f-43cc-948c-24b004f5562a"},"vehicle_type_id":"4","last_reported":1752178348,"current_range_meters":8800,"station_id":"ce4bgv92rcd13ifvqcr0","pricing_plan_id":"cebpf4jnsgd1na2vs0mg"},{"bike_id":"c887d9c8-a70f-465a-bc71-8d2afec5de7a","system_id":"levelo_inurba_marseille","lat":43.28404,"lon":5.34993,"is_reserved":false,"is_disabled":false,"rental_uris":{"android":"levelo://app?vid=c887d9c8-a70f-465a-bc71-8d2afec5de7a","ios":"levelo://app?vid=c887d9c8-a70f-465a-bc71-8d2afec5de7a"},"vehicle_type_id":"4","last_reported":1752178348,"current_range_meters":8800,"station_id":"ce4bhbh2rcd13ifvqepg","pricing_plan_id":"cebpf4jnsgd1na2vs0mg"},{"bike_id":"21ae54b9-7375-4101-b8a7-bff9d6e1fa32","system_id":"levelo_inurba_marseille","lat":43.29992,"lon":5.37614,"is_reserved":false,"is_disabled":false,"rental_uris":{"android":"levelo://app?vid=21ae54b9-7375-4101-b8a7-bff9d6e1fa32","ios":"levelo://app?vid=21ae54b9-7375-4101-b8a7-bff9d6e1fa32"},"vehicle_type_id":"4","last_reported":1752178348,"current_range_meters":9200,"station_id":"","pricing_plan_id":"cebpf4jnsgd1na2vs0mg"},{"bike_id":"3afe5864-aa12-436e-ae42-0a8732df9faa","system_id":"levelo_inurba_marseille","lat":43.28438,"lon":5.35,"is_reserved":false,"is_disabled":false,"rental_uris":{"android":"levelo://app?vid=3afe5864-aa12-436e-ae42-0a8732df9faa","ios":"levelo://app?vid=3afe5864-aa12-436e-ae42-0a8732df9faa"},"vehicle_type_id":"4","last_reported":1752178348,"current_range_meters":9200,"station_id":"ce4bhbh2rcd13ifvqepg","pricing_plan_id":"cebpf4jnsgd1na2vs0mg"},{"bike_id":"56c06933-7b74-48ca-a11b-e8bafb8a11d2","system_id":"levelo_inurba_marseille","lat":43.2842,"lon":5.34993,"is_reserved":false,"is_disabled":false,"rental_uris":{"android":"levelo://app?vid=56c06933-7b74-48ca-a11b-e8bafb8a11d2","ios":"levelo://app?vid=56c06933-7b74-48ca-a11b-e8bafb8a11d2"},"vehicle_type_id":"4","last_reported":1752178348,"current_range_meters":9200,"station_id":"ce4bhbh2rcd13ifvqepg","pricing_plan_id":"cebpf4jnsgd1na2vs0mg"},{"bike_id":"6e5c2657-ccb8-4153-8b94-2143bc427a03","system_id":"levelo_inurba_marseille","lat":43.22492,"lon":5.34773,"is_reserved":false,"is_disabled":false,"rental_uris":{"android":"levelo://app?vid=6e5c2657-ccb8-4153-8b94-2143bc427a03","ios":"levelo://app?vid=6e5c2657-ccb8-4153-8b94-2143bc427a03"},"vehicle_type_id":"4","last_reported":1752178348,"current_range_meters":9200,"station_id":"st_cvj5dfep6f1abm77gieg","pricing_plan_id":"cebpf4jnsgd1na2vs0mg"},{"bike_id":"b757ffbb-2b71-4330-9f60-5f8a9d46d16e","system_id":"levelo_inurba_marseille","lat":43.29656,"lon":5.37078,"is_reserved":false,"is_disabled":false,"rental_uris":{"android":"levelo://app?vid=b757ffbb-2b71-4330-9f60-5f8a9d46d16e","ios":"levelo://app?vid=b757ffbb-2b71-4330-9f60-5f8a9d46d16e"},"vehicle_type_id":"4","last_reported":1752178348,"current_range_meters":9600,"station_id":"","pricing_plan_id":"cebpf4jnsgd1na2vs0mg"},{"bike_id":"b2caa530-bb19-4cc6-a6bd-61e3e1d7432e","system_id":"levelo_inurba_marseille","lat":43.33763,"lon":5.37461,"is_reserved":false,"is_disabled":false,"rental_uris":{"android":"levelo://app?vid=b2caa530-bb19-4cc6-a6bd-61e3e1d7432e","ios":"levelo://app?vid=b2caa530-bb19-4cc6-a6bd-61e3e1d7432e"},"vehicle_type_id":"4","last_reported":1752178348,"current_range_meters":9600,"station_id":"","pricing_plan_id":"cebpf4jnsgd1na2vs0mg"},{"bike_id":"83caaf0d-b918-4b8a-83e5-fb6a9ff083fb","system_id":"levelo_inurba_marseille","lat":43.29443,"lon":5.37451,"is_reserved":false,"is_disabled":false,"rental_uris":{"android":"levelo://app?vid=83caaf0d-b918-4b8a-83e5-fb6a9ff083fb","ios":"levelo://app?vid=83caaf0d-b918-4b8a-83e5-fb6a9ff083fb"},"vehicle_type_id":"4","last_reported":1752178348,"current_range_meters":9600,"station_id":"","pricing_plan_id":"cebpf4jnsgd1na2vs0mg"},{"bike_id":"be6c8668-e517-41f7-9337-d0d3a4d058ef","system_id":"levelo_inurba_marseille","lat":43.297969,"lon":5.404078,"is_reserved":false,"is_disabled":false,"rental_uris":{"android":"levelo://app?vid=be6c8668-e517-41f7-9337-d0d3a4d058ef","ios":"levelo://app?vid=be6c8668-e517-41f7-9337-d0d3a4d058ef"},"vehicle_type_id":"4","last_reported":1752178348,"current_range_meters":9600,"station_id":"ce4bh112rcd13ifvqd90","pricing_plan_id":"cebpf4jnsgd1na2vs0mg"},{"bike_id":"52810e48-ccc0-47e3-964a-9771ebcb6c5a","system_id":"levelo_inurba_marseille","lat":43.28415,"lon":5.34991,"is_reserved":false,"is_disabled":false,"rental_uris":{"android":"levelo://app?vid=52810e48-ccc0-47e3-964a-9771ebcb6c5a","ios":"levelo://app?vid=52810e48-ccc0-47e3-964a-9771ebcb6c5a"},"vehicle_type_id":"4","last_reported":1752178348,"current_range_meters":9600,"station_id":"ce4bhbh2rcd13ifvqepg","pricing_plan_id":"cebpf4jnsgd1na2vs0mg"},{"bike_id":"833f97ec-e704-4051-ab3b-2e9eb58f71d0","system_id":"levelo_inurba_marseille","lat":43.30252,"lon":5.37545,"is_reserved":false,"is_disabled":false,"rental_uris":{"android":"levelo://app?vid=833f97ec-e704-4051-ab3b-2e9eb58f71d0","ios":"levelo://app?vid=833f97ec-e704-4051-ab3b-2e9eb58f71d0"},"vehicle_type_id":"4","last_reported":1752178348,"current_range_meters":10000,"station_id":"","pricing_plan_id":"cebpf4jnsgd1na2vs0mg"},{"bike_id":"e7865df7-382e-4b90-abd2-d21a7be8359f","system_id":"levelo_inurba_marseille","lat":43.29306,"lon":5.37174,"is_reserved":false,"is_disabled":false,"rental_uris":{"android":"levelo://app?vid=e7865df7-382e-4b90-abd2-d21a7be8359f","ios":"levelo://app?vid=e7865df7-382e-4b90-abd2-d21a7be8359f"},"vehicle_type_id":"4","last_reported":1752178348,"current_range_meters":10800,"station_id":"ce4bgh92rcd13ifvqb40","pricing_plan_id":"cebpf4jnsgd1na2vs0mg"},{"bike_id":"ee38626f-153d-4aab-ae87-9e4efdb1a4ba","system_id":"levelo_inurba_marseille","lat":43.28367,"lon":5.38628,"is_reserved":false,"is_disabled":false,"rental_uris":{"android":"levelo://app?vid=ee38626f-153d-4aab-ae87-9e4efdb1a4ba","ios":"levelo://app?vid=ee38626f-153d-4aab-ae87-9e4efdb1a4ba"},"vehicle_type_id":"4","last_reported":1752178348,"current_range_meters":10800,"station_id":"ce4bh492rcd13ifvqdvg","pricing_plan_id":"cebpf4jnsgd1na2vs0mg"},{"bike_id":"1ad842b8-0cc2-4d3e-b52a-74013a0908e3","system_id":"levelo_inurba_marseille","lat":43.27374,"lon":5.36246,"is_reserved":false,"is_disabled":false,"rental_uris":{"android":"levelo://app?vid=1ad842b8-0cc2-4d3e-b52a-74013a0908e3","ios":"levelo://app?vid=1ad842b8-0cc2-4d3e-b52a-74013a0908e3"},"vehicle_type_id":"4","last_reported":1752178348,"current_range_meters":10800,"station_id":"ce4bhbh2rcd13ifvqeo0","pricing_plan_id":"cebpf4jnsgd1na2vs0mg"},{"bike_id":"f9ee97f3-793a-4037-86cc-dfe626a501ba","system_id":"levelo_inurba_marseille","lat":43.28421,"lon":5.34997,"is_reserved":false,"is_disabled":false,"rental_uris":{"android":"levelo://app?vid=f9ee97f3-793a-4037-86cc-dfe626a501ba","ios":"levelo://app?vid=f9ee97f3-793a-4037-86cc-dfe626a501ba"},"vehicle_type_id":"4","last_reported":1752178348,"current_range_meters":10800,"station_id":"ce4bhbh2rcd13ifvqepg","pricing_plan_id":"cebpf4jnsgd1na2vs0mg"},{"bike_id":"416aa403-df6a-48c6-8096-7f1c4420265c","system_id":"levelo_inurba_marseille","lat":43.32049,"lon":5.41554,"is_reserved":false,"is_disabled":false,"rental_uris":{"android":"levelo://app?vid=416aa403-df6a-48c6-8096-7f1c4420265c","ios":"levelo://app?vid=416aa403-df6a-48c6-8096-7f1c4420265c"},"vehicle_type_id":"4","last_reported":1752178348,"current_range_meters":10800,"station_id":"ce4bhq92rcd13ifvqhkg","pricing_plan_id":"cebpf4jnsgd1na2vs0mg"},{"bike_id":"8c6df043-f89b-4b60-9bbe-e89c16f4b76f","system_id":"levelo_inurba_marseille","lat":43.31496,"lon":5.37284,"is_reserved":false,"is_disabled":false,"rental_uris":{"android":"levelo://app?vid=8c6df043-f89b-4b60-9bbe-e89c16f4b76f","ios":"levelo://app?vid=8c6df043-f89b-4b60-9bbe-e89c16f4b76f"},"vehicle_type_id":"4","last_reported":1752178348,"current_range_meters":11200,"station_id":"ce4bgt12rcd13ifvqcd0","pricing_plan_id":"cebpf4jnsgd1na2vs0mg"},{"bike_id":"a52717e1-d0f4-4ca2-b25e-9c370f784722","system_id":"levelo_inurba_marseille","lat":43.28989,"lon":5.37825,"is_reserved":false,"is_disabled":false,"rental_uris":{"android":"levelo://app?vid=a52717e1-d0f4-4ca2-b25e-9c370f784722","ios":"levelo://app?vid=a52717e1-d0f4-4ca2-b25e-9c370f784722"},"vehicle_type_id":"4","last_reported":1752178348,"current_range_meters":11200,"station_id":"ce4bh9p2rcd13ifvqed0","pricing_plan_id":"cebpf4jnsgd1na2vs0mg"},{"bike_id":"3e9bf0ba-20ef-4d1d-8346-6d7b9775dbd9","system_id":"levelo_inurba_marseille","lat":43.28408,"lon":5.34999,"is_reserved":false,"is_disabled":false,"rental_uris":{"android":"levelo://app?vid=3e9bf0ba-20ef-4d1d-8346-6d7b9775dbd9","ios":"levelo://app?vid=3e9bf0ba-20ef-4d1d-8346-6d7b9775dbd9"},"vehicle_type_id":"4","last_reported":1752178348,"current_range_meters":11200,"station_id":"ce4bhbh2rcd13ifvqepg","pricing_plan_id":"cebpf4jnsgd1na2vs0mg"},{"bike_id":"c25396b1-9305-49b1-8c0b-9006eb1f35d9","system_id":"levelo_inurba_marseille","lat":43.29277,"lon":5.36837,"is_reserved":false,"is_disabled":false,"rental_uris":{"android":"levelo://app?vid=c25396b1-9305-49b1-8c0b-9006eb1f35d9","ios":"levelo://app?vid=c25396b1-9305-49b1-8c0b-9006eb1f35d9"},"vehicle_type_id":"4","last_reported":1752178348,"current_range_meters":11200,"station_id":"ce4bhbp2rcd13ifvqesg","pricing_plan_id":"cebpf4jnsgd1na2vs0mg"},{"bike_id":"a55a2fda-d71e-4860-b95f-531a33267435","system_id":"levelo_inurba_marseille","lat":43.29543,"lon":5.37496,"is_reserved":false,"is_disabled":false,"rental_uris":{"android":"levelo://app?vid=a55a2fda-d71e-4860-b95f-531a33267435","ios":"levelo://app?vid=a55a2fda-d71e-4860-b95f-531a33267435"},"vehicle_type_id":"4","last_reported":1752178348,"current_range_meters":11600,"station_id":"ce4bgkp2rcd13ifvqbmg","pricing_plan_id":"cebpf4jnsgd1na2vs0mg"},{"bike_id":"12a0bf33-2236-445d-8294-ca753d7f4f88","system_id":"levelo_inurba_marseille","lat":43.30425,"lon":5.39742,"is_reserved":false,"is_disabled":false,"rental_uris":{"android":"levelo://app?vid=12a0bf33-2236-445d-8294-ca753d7f4f88","ios":"levelo://app?vid=12a0bf33-2236-445d-8294-ca753d7f4f88"},"vehicle_type_id":"4","last_reported":1752178348,"current_range_meters":11600,"station_id":"ce4bh092rcd13ifvqd20","pricing_plan_id":"cebpf4jnsgd1na2vs0mg"},{"bike_id":"73fc7984-12e3-4bae-9195-8440a99a0ee7","system_id":"levelo_inurba_marseille","lat":43.28606,"lon":5.35103,"is_reserved":false,"is_disabled":false,"rental_uris":{"android":"levelo://app?vid=73fc7984-12e3-4bae-9195-8440a99a0ee7","ios":"levelo://app?vid=73fc7984-12e3-4bae-9195-8440a99a0ee7"},"vehicle_type_id":"4","last_reported":1752178348,"current_range_meters":11600,"station_id":"ce4bhch2rcd13ifvqeug","pricing_plan_id":"cebpf4jnsgd1na2vs0mg"},{"bike_id":"0c3ef97b-97eb-4273-8688-c44e748d207b","system_id":"levelo_inurba_marseille","lat":43.34932,"lon":5.39924,"is_reserved":false,"is_disabled":false,"rental_uris":{"android":"levelo://app?vid=0c3ef97b-97eb-4273-8688-c44e748d207b","ios":"levelo://app?vid=0c3ef97b-97eb-4273-8688-c44e748d207b"},"vehicle_type_id":"4","last_reported":1752178348,"current_range_meters":12000,"station_id":"","pricing_plan_id":"cebpf4jnsgd1na2vs0mg"},{"bike_id":"feaa7e3a-cbe4-4489-be11-8a12d7eec173","system_id":"levelo_inurba_marseille","lat":43.25215,"lon":5.425,"is_reserved":false,"is_disabled":false,"rental_uris":{"android":"levelo://app?vid=feaa7e3a-cbe4-4489-be11-8a12d7eec173","ios":"levelo://app?vid=feaa7e3a-cbe4-4489-be11-8a12d7eec173"},"vehicle_type_id":"4","last_reported":1752178348,"current_range_meters":12000,"station_id":"","pricing_plan_id":"cebpf4jnsgd1na2vs0mg"},{"bike_id":"c0a77af9-da99-48dc-a3e5-2fde23e47b87","system_id":"levelo_inurba_marseille","lat":43.29033,"lon":5.38126,"is_reserved":false,"is_disabled":false,"rental_uris":{"android":"levelo://app?vid=c0a77af9-da99-48dc-a3e5-2fde23e47b87","ios":"levelo://app?vid=c0a77af9-da99-48dc-a3e5-2fde23e47b87"},"vehicle_type_id":"4","last_reported":1752178348,"current_range_meters":12000,"station_id":"ce4bh4p2rcd13ifvqe1g","pricing_plan_id":"cebpf4jnsgd1na2vs0mg"},{"bike_id":"1412ed3a-df2a-4acd-899a-72f39d3418cc","system_id":"levelo_inurba_marseille","lat":43.27381,"lon":5.36244,"is_reserved":false,"is_disabled":false,"rental_uris":{"android":"levelo://app?vid=1412ed3a-df2a-4acd-899a-72f39d3418cc","ios":"levelo://app?vid=1412ed3a-df2a-4acd-899a-72f39d3418cc"},"vehicle_type_id":"4","last_reported":1752178348,"current_range_meters":12000,"station_id":"ce4bhbh2rcd13ifvqeo0","pricing_plan_id":"cebpf4jnsgd1na2vs0mg"},{"bike_id":"5a18f551-12cc-4361-9590-00bf9930799a","system_id":"levelo_inurba_marseille","lat":43.254982,"lon":5.376491,"is_reserved":false,"is_disabled":false,"rental_uris":{"android":"levelo://app?vid=5a18f551-12cc-4361-9590-00bf9930799a","ios":"levelo://app?vid=5a18f551-12cc-4361-9590-00bf9930799a"},"vehicle_type_id":"4","last_reported":1752178348,"current_range_meters":12000,"station_id":"ce4bhh12rcd13ifvqff0","pricing_plan_id":"cebpf4jnsgd1na2vs0mg"},{"bike_id":"9e84f726-bca4-4be5-89aa-118290d5b915","system_id":"levelo_inurba_marseille","lat":43.31366,"lon":5.38497,"is_reserved":false,"is_disabled":false,"rental_uris":{"android":"levelo://app?vid=9e84f726-bca4-4be5-89aa-118290d5b915","ios":"levelo://app?vid=9e84f726-bca4-4be5-89aa-118290d5b915"},"vehicle_type_id":"4","last_reported":1752178348,"current_range_meters":12400,"station_id":"ce4bgt92rcd13ifvqcf0","pricing_plan_id":"cebpf4jnsgd1na2vs0mg"},{"bike_id":"bcaf39f4-e68a-4f79-b2d2-a54e025cad08","system_id":"levelo_inurba_marseille","lat":43.2898,"lon":5.37837,"is_reserved":false,"is_disabled":false,"rental_uris":{"android":"levelo://app?vid=bcaf39f4-e68a-4f79-b2d2-a54e025cad08","ios":"levelo://app?vid=bcaf39f4-e68a-4f79-b2d2-a54e025cad08"},"vehicle_type_id":"4","last_reported":1752178348,"current_range_meters":12400,"station_id":"ce4bh9p2rcd13ifvqed0","pricing_plan_id":"cebpf4jnsgd1na2vs0mg"},{"bike_id":"b561e6f5-3cb5-4e20-b799-eb58407fb41d","system_id":"levelo_inurba_marseille","lat":43.28432,"lon":5.34969,"is_reserved":false,"is_disabled":false,"rental_uris":{"android":"levelo://app?vid=b561e6f5-3cb5-4e20-b799-eb58407fb41d","ios":"levelo://app?vid=b561e6f5-3cb5-4e20-b799-eb58407fb41d"},"vehicle_type_id":"4","last_reported":1752178348,"current_range_meters":12400,"station_id":"ce4bhbh2rcd13ifvqepg","pricing_plan_id":"cebpf4jnsgd1na2vs0mg"},{"bike_id":"de010bc4-5e98-41bd-aed3-9094f259cc5a","system_id":"levelo_inurba_marseille","lat":43.24155,"lon":5.36396,"is_reserved":false,"is_disabled":false,"rental_uris":{"android":"levelo://app?vid=de010bc4-5e98-41bd-aed3-9094f259cc5a","ios":"levelo://app?vid=de010bc4-5e98-41bd-aed3-9094f259cc5a"},"vehicle_type_id":"4","last_reported":1752178348,"current_range_meters":12400,"station_id":"cpo36qri1sfpv3e86is0","pricing_plan_id":"cebpf4jnsgd1na2vs0mg"},{"bike_id":"d4fef870-f3df-418c-b45a-632453acc9ad","system_id":"levelo_inurba_marseille","lat":43.22497,"lon":5.34785,"is_reserved":false,"is_disabled":false,"rental_uris":{"android":"levelo://app?vid=d4fef870-f3df-418c-b45a-632453acc9ad","ios":"levelo://app?vid=d4fef870-f3df-418c-b45a-632453acc9ad"},"vehicle_type_id":"4","last_reported":1752178348,"current_range_meters":12400,"station_id":"st_cvj5dfep6f1abm77gieg","pricing_plan_id":"cebpf4jnsgd1na2vs0mg"},{"bike_id":"985db6cd-eb32-402a-9a7e-453c37ec0db0","system_id":"levelo_inurba_marseille","lat":43.28701,"lon":5.37382,"is_reserved":false,"is_disabled":false,"rental_uris":{"android":"levelo://app?vid=985db6cd-eb32-402a-9a7e-453c37ec0db0","ios":"levelo://app?vid=985db6cd-eb32-402a-9a7e-453c37ec0db0"},"vehicle_type_id":"4","last_reported":1752178348,"current_range_meters":12800,"station_id":"","pricing_plan_id":"cebpf4jnsgd1na2vs0mg"},{"bike_id":"d738154a-b7a8-47ee-b4de-b37e92312c88","system_id":"levelo_inurba_marseille","lat":43.26177,"lon":5.37049,"is_reserved":false,"is_disabled":false,"rental_uris":{"android":"levelo://app?vid=d738154a-b7a8-47ee-b4de-b37e92312c88","ios":"levelo://app?vid=d738154a-b7a8-47ee-b4de-b37e92312c88"},"vehicle_type_id":"4","last_reported":1752178348,"current_range_meters":12800,"station_id":"","pricing_plan_id":"cebpf4jnsgd1na2vs0mg"},{"bike_id":"d6c31952-2ba1-4aaa-8ac6-df214607add1","system_id":"levelo_inurba_marseille","lat":43.29533,"lon":5.38537,"is_reserved":false,"is_disabled":false,"rental_uris":{"android":"levelo://app?vid=d6c31952-2ba1-4aaa-8ac6-df214607add1","ios":"levelo://app?vid=d6c31952-2ba1-4aaa-8ac6-df214607add1"},"vehicle_type_id":"4","last_reported":1752178348,"current_range_meters":12800,"station_id":"ce4bgih2rcd13ifvqba0","pricing_plan_id":"cebpf4jnsgd1na2vs0mg"},{"bike_id":"96d0e48f-1d19-4d1d-bd6a-f642438fe9ea","system_id":"levelo_inurba_marseille","lat":43.29405,"lon":5.38616,"is_reserved":false,"is_disabled":false,"rental_uris":{"android":"levelo://app?vid=96d0e48f-1d19-4d1d-bd6a-f642438fe9ea","ios":"levelo://app?vid=96d0e48f-1d19-4d1d-bd6a-f642438fe9ea"},"vehicle_type_id":"4","last_reported":1752178348,"current_range_meters":12800,"station_id":"ce4bh2h2rcd13ifvqdh0","pricing_plan_id":"cebpf4jnsgd1na2vs0mg"},{"bike_id":"7a857438-decf-4393-b0be-21e524007d2f","system_id":"levelo_inurba_marseille","lat":43.284106,"lon":5.374905,"is_reserved":false,"is_disabled":false,"rental_uris":{"android":"levelo://app?vid=7a857438-decf-4393-b0be-21e524007d2f","ios":"levelo://app?vid=7a857438-decf-4393-b0be-21e524007d2f"},"vehicle_type_id":"4","last_reported":1752178348,"current_range_meters":12800,"station_id":"ce4bh412rcd13ifvqds0","pricing_plan_id":"cebpf4jnsgd1na2vs0mg"},{"bike_id":"5e652fbf-2930-4f54-b983-f14790f50846","system_id":"levelo_inurba_marseille","lat":43.27375,"lon":5.36253,"is_reserved":false,"is_disabled":false,"rental_uris":{"android":"levelo://app?vid=5e652fbf-2930-4f54-b983-f14790f50846","ios":"levelo://app?vid=5e652fbf-2930-4f54-b983-f14790f50846"},"vehicle_type_id":"4","last_reported":1752178348,"current_range_meters":12800,"station_id":"ce4bhbh2rcd13ifvqeo0","pricing_plan_id":"cebpf4jnsgd1na2vs0mg"},{"bike_id":"9ae8456a-f70a-4ad4-9d9a-de568831cfed","system_id":"levelo_inurba_marseille","lat":43.26025,"lon":5.37547,"is_reserved":false,"is_disabled":false,"rental_uris":{"android":"levelo://app?vid=9ae8456a-f70a-4ad4-9d9a-de568831cfed","ios":"levelo://app?vid=9ae8456a-f70a-4ad4-9d9a-de568831cfed"},"vehicle_type_id":"4","last_reported":1752178348,"current_range_meters":12800,"station_id":"ce4bhgh2rcd13ifvqfa0","pricing_plan_id":"cebpf4jnsgd1na2vs0mg"},{"bike_id":"c641cf0e-e392-4c60-8ea8-faf8af4b3deb","system_id":"levelo_inurba_marseille","lat":43.26934,"lon":5.38918,"is_reserved":false,"is_disabled":false,"rental_uris":{"android":"levelo://app?vid=c641cf0e-e392-4c60-8ea8-faf8af4b3deb","ios":"levelo://app?vid=c641cf0e-e392-4c60-8ea8-faf8af4b3deb"},"vehicle_type_id":"4","last_reported":1752178348,"current_range_meters":12800,"station_id":"ce4bhhh2rcd13ifvqfl0","pricing_plan_id":"cebpf4jnsgd1na2vs0mg"},{"bike_id":"932dabc0-17d0-4533-972c-0835eff0576e","system_id":"levelo_inurba_marseille","lat":43.32655,"lon":5.40994,"is_reserved":false,"is_disabled":false,"rental_uris":{"android":"levelo://app?vid=932dabc0-17d0-4533-972c-0835eff0576e","ios":"levelo://app?vid=932dabc0-17d0-4533-972c-0835eff0576e"},"vehicle_type_id":"4","last_reported":1752178348,"current_range_meters":13600,"station_id":"ce4bhpp2rcd13ifvqhgg","pricing_plan_id":"cebpf4jnsgd1na2vs0mg"},{"bike_id":"f373e4a8-33e3-4f72-ae8e-e7ab386910f4","system_id":"levelo_inurba_marseille","lat":43.22514,"lon":5.34767,"is_reserved":false,"is_disabled":false,"rental_uris":{"android":"levelo://app?vid=f373e4a8-33e3-4f72-ae8e-e7ab386910f4","ios":"levelo://app?vid=f373e4a8-33e3-4f72-ae8e-e7ab386910f4"},"vehicle_type_id":"4","last_reported":1752178348,"current_range_meters":13600,"station_id":"st_cvj5dfep6f1abm77gieg","pricing_plan_id":"cebpf4jnsgd1na2vs0mg"},{"bike_id":"9f5e74ce-2459-4c6f-a171-f6d1e8a1ed83","system_id":"levelo_inurba_marseille","lat":43.31888,"lon":5.37574,"is_reserved":false,"is_disabled":false,"rental_uris":{"android":"levelo://app?vid=9f5e74ce-2459-4c6f-a171-f6d1e8a1ed83","ios":"levelo://app?vid=9f5e74ce-2459-4c6f-a171-f6d1e8a1ed83"},"vehicle_type_id":"4","last_reported":1752178348,"current_range_meters":14000,"station_id":"","pricing_plan_id":"cebpf4jnsgd1na2vs0mg"},{"bike_id":"5e3de7c8-3182-4a73-8e5c-d4ae2028ef6e","system_id":"levelo_inurba_marseille","lat":43.21739,"lon":5.34604,"is_reserved":false,"is_disabled":false,"rental_uris":{"android":"levelo://app?vid=5e3de7c8-3182-4a73-8e5c-d4ae2028ef6e","ios":"levelo://app?vid=5e3de7c8-3182-4a73-8e5c-d4ae2028ef6e"},"vehicle_type_id":"4","last_reported":1752178348,"current_range_meters":14000,"station_id":"","pricing_plan_id":"cebpf4jnsgd1na2vs0mg"},{"bike_id":"2594e65f-dea1-4a23-9d41-fd36c7c261a9","system_id":"levelo_inurba_marseille","lat":43.29533,"lon":5.3854,"is_reserved":false,"is_disabled":false,"rental_uris":{"android":"levelo://app?vid=2594e65f-dea1-4a23-9d41-fd36c7c261a9","ios":"levelo://app?vid=2594e65f-dea1-4a23-9d41-fd36c7c261a9"},"vehicle_type_id":"4","last_reported":1752178348,"current_range_meters":14000,"station_id":"ce4bgih2rcd13ifvqba0","pricing_plan_id":"cebpf4jnsgd1na2vs0mg"},{"bike_id":"d1c381aa-dfa2-4c58-a265-ce0e0106c998","system_id":"levelo_inurba_marseille","lat":43.29968,"lon":5.38485,"is_reserved":false,"is_disabled":false,"rental_uris":{"android":"levelo://app?vid=d1c381aa-dfa2-4c58-a265-ce0e0106c998","ios":"levelo://app?vid=d1c381aa-dfa2-4c58-a265-ce0e0106c998"},"vehicle_type_id":"4","last_reported":1752178348,"current_range_meters":14000,"station_id":"ce4bgj92rcd13ifvqbd0","pricing_plan_id":"cebpf4jnsgd1na2vs0mg"},{"bike_id":"119b7eed-1582-4766-b484-107798ee8de6","system_id":"levelo_inurba_marseille","lat":43.284223,"lon":5.349954,"is_reserved":false,"is_disabled":false,"rental_uris":{"android":"levelo://app?vid=119b7eed-1582-4766-b484-107798ee8de6","ios":"levelo://app?vid=119b7eed-1582-4766-b484-107798ee8de6"},"vehicle_type_id":"4","last_reported":1752178348,"current_range_meters":14000,"station_id":"ce4bhbh2rcd13ifvqepg","pricing_plan_id":"cebpf4jnsgd1na2vs0mg"},{"bike_id":"1ef8c9da-64e0-45be-91c7-aae7458ed9bb","system_id":"levelo_inurba_marseille","lat":43.29274,"lon":5.3684,"is_reserved":false,"is_disabled":false,"rental_uris":{"android":"levelo://app?vid=1ef8c9da-64e0-45be-91c7-aae7458ed9bb","ios":"levelo://app?vid=1ef8c9da-64e0-45be-91c7-aae7458ed9bb"},"vehicle_type_id":"4","last_reported":1752178348,"current_range_meters":14000,"station_id":"ce4bhbp2rcd13ifvqesg","pricing_plan_id":"cebpf4jnsgd1na2vs0mg"},{"bike_id":"f4d8afa1-8f4d-42c0-b795-8a2d2ea9a8de","system_id":"levelo_inurba_marseille","lat":43.27789,"lon":5.40716,"is_reserved":false,"is_disabled":false,"rental_uris":{"android":"levelo://app?vid=f4d8afa1-8f4d-42c0-b795-8a2d2ea9a8de","ios":"levelo://app?vid=f4d8afa1-8f4d-42c0-b795-8a2d2ea9a8de"},"vehicle_type_id":"4","last_reported":1752178348,"current_range_meters":14000,"station_id":"ce4bhnh2rcd13ifvqgtg","pricing_plan_id":"cebpf4jnsgd1na2vs0mg"},{"bike_id":"7f2f2937-2eee-42a3-a8a8-eaa2c470af40","system_id":"levelo_inurba_marseille","lat":43.29254,"lon":5.38465,"is_reserved":false,"is_disabled":false,"rental_uris":{"android":"levelo://app?vid=7f2f2937-2eee-42a3-a8a8-eaa2c470af40","ios":"levelo://app?vid=7f2f2937-2eee-42a3-a8a8-eaa2c470af40"},"vehicle_type_id":"4","last_reported":1752178348,"current_range_meters":14400,"station_id":"ce4bh692rcd13ifvqea0","pricing_plan_id":"cebpf4jnsgd1na2vs0mg"},{"bike_id":"04148f14-4cd8-42b8-8416-c87a9d5cb2a7","system_id":"levelo_inurba_marseille","lat":43.2842,"lon":5.34991,"is_reserved":false,"is_disabled":false,"rental_uris":{"android":"levelo://app?vid=04148f14-4cd8-42b8-8416-c87a9d5cb2a7","ios":"levelo://app?vid=04148f14-4cd8-42b8-8416-c87a9d5cb2a7"},"vehicle_type_id":"4","last_reported":1752178348,"current_range_meters":14400,"station_id":"ce4bhbh2rcd13ifvqepg","pricing_plan_id":"cebpf4jnsgd1na2vs0mg"},{"bike_id":"3bcfcea9-db06-4e8e-a7e9-7ec63fc20fc7","system_id":"levelo_inurba_marseille","lat":43.25475,"lon":5.37658,"is_reserved":false,"is_disabled":false,"rental_uris":{"android":"levelo://app?vid=3bcfcea9-db06-4e8e-a7e9-7ec63fc20fc7","ios":"levelo://app?vid=3bcfcea9-db06-4e8e-a7e9-7ec63fc20fc7"},"vehicle_type_id":"4","last_reported":1752178348,"current_range_meters":14400,"station_id":"ce4bhh12rcd13ifvqff0","pricing_plan_id":"cebpf4jnsgd1na2vs0mg"},{"bike_id":"cb0890e8-3c02-4962-99e3-73812f6ce8d5","system_id":"levelo_inurba_marseille","lat":43.29541,"lon":5.42299,"is_reserved":false,"is_disabled":false,"rental_uris":{"android":"levelo://app?vid=cb0890e8-3c02-4962-99e3-73812f6ce8d5","ios":"levelo://app?vid=cb0890e8-3c02-4962-99e3-73812f6ce8d5"},"vehicle_type_id":"4","last_reported":1752178348,"current_range_meters":14400,"station_id":"ce4bhph2rcd13ifvqhdg","pricing_plan_id":"cebpf4jnsgd1na2vs0mg"},{"bike_id":"8330a68f-2f6e-4337-9657-35d7d87c04ca","system_id":"levelo_inurba_marseille","lat":43.25451,"lon":5.37946,"is_reserved":false,"is_disabled":false,"rental_uris":{"android":"levelo://app?vid=8330a68f-2f6e-4337-9657-35d7d87c04ca","ios":"levelo://app?vid=8330a68f-2f6e-4337-9657-35d7d87c04ca"},"vehicle_type_id":"4","last_reported":1752178348,"current_range_meters":14800,"station_id":"","pricing_plan_id":"cebpf4jnsgd1na2vs0mg"},{"bike_id":"4e209b0c-855f-4b51-8120-2faef8673853","system_id":"levelo_inurba_marseille","lat":43.30621,"lon":5.36871,"is_reserved":false,"is_disabled":false,"rental_uris":{"android":"levelo://app?vid=4e209b0c-855f-4b51-8120-2faef8673853","ios":"levelo://app?vid=4e209b0c-855f-4b51-8120-2faef8673853"},"vehicle_type_id":"4","last_reported":1752178348,"current_range_meters":14800,"station_id":"","pricing_plan_id":"cebpf4jnsgd1na2vs0mg"},{"bike_id":"a2c2b450-825a-4cde-8d8f-436369c3859c","system_id":"levelo_inurba_marseille","lat":43.29415,"lon":5.386,"is_reserved":false,"is_disabled":false,"rental_uris":{"android":"levelo://app?vid=a2c2b450-825a-4cde-8d8f-436369c3859c","ios":"levelo://app?vid=a2c2b450-825a-4cde-8d8f-436369c3859c"},"vehicle_type_id":"4","last_reported":1752178348,"current_range_meters":14800,"station_id":"ce4bh2h2rcd13ifvqdh0","pricing_plan_id":"cebpf4jnsgd1na2vs0mg"},{"bike_id":"c95a1872-1e81-470e-afc1-c13eda1627c8","system_id":"levelo_inurba_marseille","lat":43.26932,"lon":5.38916,"is_reserved":false,"is_disabled":false,"rental_uris":{"android":"levelo://app?vid=c95a1872-1e81-470e-afc1-c13eda1627c8","ios":"levelo://app?vid=c95a1872-1e81-470e-afc1-c13eda1627c8"},"vehicle_type_id":"4","last_reported":1752178348,"current_range_meters":14800,"station_id":"ce4bhhh2rcd13ifvqfl0","pricing_plan_id":"cebpf4jnsgd1na2vs0mg"},{"bike_id":"73fe94e8-74f9-41f0-85e9-7d8c52adf2fc","system_id":"levelo_inurba_marseille","lat":43.2126,"lon":5.35277,"is_reserved":false,"is_disabled":false,"rental_uris":{"android":"levelo://app?vid=73fe94e8-74f9-41f0-85e9-7d8c52adf2fc","ios":"levelo://app?vid=73fe94e8-74f9-41f0-85e9-7d8c52adf2fc"},"vehicle_type_id":"4","last_reported":1752178348,"current_range_meters":15200,"station_id":"","pricing_plan_id":"cebpf4jnsgd1na2vs0mg"},{"bike_id":"fa87fcb5-aacb-41a1-a789-0296bbd02085","system_id":"levelo_inurba_marseille","lat":43.24585,"lon":5.37372,"is_reserved":false,"is_disabled":false,"rental_uris":{"android":"levelo://app?vid=fa87fcb5-aacb-41a1-a789-0296bbd02085","ios":"levelo://app?vid=fa87fcb5-aacb-41a1-a789-0296bbd02085"},"vehicle_type_id":"4","last_reported":1752178348,"current_range_meters":15200,"station_id":"","pricing_plan_id":"cebpf4jnsgd1na2vs0mg"},{"bike_id":"39e4fe2b-1ed9-415a-b4ba-0ddb11404665","system_id":"levelo_inurba_marseille","lat":43.30558,"lon":5.36528,"is_reserved":false,"is_disabled":false,"rental_uris":{"android":"levelo://app?vid=39e4fe2b-1ed9-415a-b4ba-0ddb11404665","ios":"levelo://app?vid=39e4fe2b-1ed9-415a-b4ba-0ddb11404665"},"vehicle_type_id":"4","last_reported":1752178348,"current_range_meters":15200,"station_id":"ce4bgs12rcd13ifvqcag","pricing_plan_id":"cebpf4jnsgd1na2vs0mg"},{"bike_id":"24b17f7b-dff1-4936-b27a-7c2c6813a894","system_id":"levelo_inurba_marseille","lat":43.24587,"lon":5.37378,"is_reserved":false,"is_disabled":false,"rental_uris":{"android":"levelo://app?vid=24b17f7b-dff1-4936-b27a-7c2c6813a894","ios":"levelo://app?vid=24b17f7b-dff1-4936-b27a-7c2c6813a894"},"vehicle_type_id":"4","last_reported":1752178348,"current_range_meters":16000,"station_id":"","pricing_plan_id":"cebpf4jnsgd1na2vs0mg"},{"bike_id":"614e4b74-698b-41bc-a4e9-913b020b97af","system_id":"levelo_inurba_marseille","lat":43.30598,"lon":5.37216,"is_reserved":false,"is_disabled":false,"rental_uris":{"android":"levelo://app?vid=614e4b74-698b-41bc-a4e9-913b020b97af","ios":"levelo://app?vid=614e4b74-698b-41bc-a4e9-913b020b97af"},"vehicle_type_id":"4","last_reported":1752178348,"current_range_meters":16000,"station_id":"ce4bgqh2rcd13ifvqc4g","pricing_plan_id":"cebpf4jnsgd1na2vs0mg"},{"bike_id":"0a16c66a-7288-4189-89da-61950214bfa0","system_id":"levelo_inurba_marseille","lat":43.29304,"lon":5.36809,"is_reserved":false,"is_disabled":false,"rental_uris":{"android":"levelo://app?vid=0a16c66a-7288-4189-89da-61950214bfa0","ios":"levelo://app?vid=0a16c66a-7288-4189-89da-61950214bfa0"},"vehicle_type_id":"4","last_reported":1752178348,"current_range_meters":16000,"station_id":"ce4bhbp2rcd13ifvqesg","pricing_plan_id":"cebpf4jnsgd1na2vs0mg"},{"bike_id":"8fa4adde-c2f4-4337-bd4d-e9ea707cd1b3","system_id":"levelo_inurba_marseille","lat":43.25004,"lon":5.38934,"is_reserved":false,"is_disabled":false,"rental_uris":{"android":"levelo://app?vid=8fa4adde-c2f4-4337-bd4d-e9ea707cd1b3","ios":"levelo://app?vid=8fa4adde-c2f4-4337-bd4d-e9ea707cd1b3"},"vehicle_type_id":"4","last_reported":1752178348,"current_range_meters":16000,"station_id":"ce4bhgp2rcd13ifvqfd0","pricing_plan_id":"cebpf4jnsgd1na2vs0mg"},{"bike_id":"6994c34f-7b9e-4588-9c5d-f80e030067a1","system_id":"levelo_inurba_marseille","lat":43.32379,"lon":5.3888,"is_reserved":false,"is_disabled":false,"rental_uris":{"android":"levelo://app?vid=6994c34f-7b9e-4588-9c5d-f80e030067a1","ios":"levelo://app?vid=6994c34f-7b9e-4588-9c5d-f80e030067a1"},"vehicle_type_id":"4","last_reported":1752178348,"current_range_meters":16000,"station_id":"ce4bhqp2rcd13ifvqhog","pricing_plan_id":"cebpf4jnsgd1na2vs0mg"},{"bike_id":"ee1ac907-8623-4d00-ac01-d41dd90be9fe","system_id":"levelo_inurba_marseille","lat":43.211925,"lon":5.350739,"is_reserved":false,"is_disabled":false,"rental_uris":{"android":"levelo://app?vid=ee1ac907-8623-4d00-ac01-d41dd90be9fe","ios":"levelo://app?vid=ee1ac907-8623-4d00-ac01-d41dd90be9fe"},"vehicle_type_id":"4","last_reported":1752178348,"current_range_meters":16000,"station_id":"st_cvj6sg6p6f1abm77japg","pricing_plan_id":"cebpf4jnsgd1na2vs0mg"},{"bike_id":"a5a6c2c1-2d48-4581-8647-6eab6c0bbb54","system_id":"levelo_inurba_marseille","lat":43.263,"lon":5.3735,"is_reserved":false,"is_disabled":false,"rental_uris":{"android":"levelo://app?vid=a5a6c2c1-2d48-4581-8647-6eab6c0bbb54","ios":"levelo://app?vid=a5a6c2c1-2d48-4581-8647-6eab6c0bbb54"},"vehicle_type_id":"4","last_reported":1752178348,"current_range_meters":16400,"station_id":"","pricing_plan_id":"cebpf4jnsgd1na2vs0mg"},{"bike_id":"cc282b1b-49c8-4f6c-a387-cb5d7b0a9088","system_id":"levelo_inurba_marseille","lat":43.31252,"lon":5.36851,"is_reserved":false,"is_disabled":false,"rental_uris":{"android":"levelo://app?vid=cc282b1b-49c8-4f6c-a387-cb5d7b0a9088","ios":"levelo://app?vid=cc282b1b-49c8-4f6c-a387-cb5d7b0a9088"},"vehicle_type_id":"4","last_reported":1752178348,"current_range_meters":16400,"station_id":"ce4bgl92rcd13ifvqbq0","pricing_plan_id":"cebpf4jnsgd1na2vs0mg"},{"bike_id":"0ab3f00c-4b54-424c-8e6d-e6b4e5865f8f","system_id":"levelo_inurba_marseille","lat":43.29631,"lon":5.4059,"is_reserved":false,"is_disabled":false,"rental_uris":{"android":"levelo://app?vid=0ab3f00c-4b54-424c-8e6d-e6b4e5865f8f","ios":"levelo://app?vid=0ab3f00c-4b54-424c-8e6d-e6b4e5865f8f"},"vehicle_type_id":"4","last_reported":1752178348,"current_range_meters":16400,"station_id":"ce4bh0h2rcd13ifvqd60","pricing_plan_id":"cebpf4jnsgd1na2vs0mg"},{"bike_id":"2aaad0ac-253a-434e-a4ce-92edbde19c37","system_id":"levelo_inurba_marseille","lat":43.26021,"lon":5.3756,"is_reserved":false,"is_disabled":false,"rental_uris":{"android":"levelo://app?vid=2aaad0ac-253a-434e-a4ce-92edbde19c37","ios":"levelo://app?vid=2aaad0ac-253a-434e-a4ce-92edbde19c37"},"vehicle_type_id":"4","last_reported":1752178348,"current_range_meters":16400,"station_id":"ce4bhgh2rcd13ifvqfa0","pricing_plan_id":"cebpf4jnsgd1na2vs0mg"},{"bike_id":"8f89e4f3-495a-4317-bd6d-37a19186d65b","system_id":"levelo_inurba_marseille","lat":43.33725,"lon":5.39188,"is_reserved":false,"is_disabled":false,"rental_uris":{"android":"levelo://app?vid=8f89e4f3-495a-4317-bd6d-37a19186d65b","ios":"levelo://app?vid=8f89e4f3-495a-4317-bd6d-37a19186d65b"},"vehicle_type_id":"4","last_reported":1752178348,"current_range_meters":16400,"station_id":"ce4bhr92rcd13ifvqhsg","pricing_plan_id":"cebpf4jnsgd1na2vs0mg"},{"bike_id":"4d4b9e28-a4f6-4d45-ac6b-64a63a768bd8","system_id":"levelo_inurba_marseille","lat":43.31511,"lon":5.37424,"is_reserved":false,"is_disabled":false,"rental_uris":{"android":"levelo://app?vid=4d4b9e28-a4f6-4d45-ac6b-64a63a768bd8","ios":"levelo://app?vid=4d4b9e28-a4f6-4d45-ac6b-64a63a768bd8"},"vehicle_type_id":"4","last_reported":1752178348,"current_range_meters":16800,"station_id":"","pricing_plan_id":"cebpf4jnsgd1na2vs0mg"},{"bike_id":"fa1301bd-2b82-4370-ac64-3a865e539776","system_id":"levelo_inurba_marseille","lat":43.30749,"lon":5.40149,"is_reserved":false,"is_disabled":false,"rental_uris":{"android":"levelo://app?vid=fa1301bd-2b82-4370-ac64-3a865e539776","ios":"levelo://app?vid=fa1301bd-2b82-4370-ac64-3a865e539776"},"vehicle_type_id":"4","last_reported":1752178348,"current_range_meters":16800,"station_id":"","pricing_plan_id":"cebpf4jnsgd1na2vs0mg"},{"bike_id":"6737467a-fe5d-470c-a191-2df05ebbb3bb","system_id":"levelo_inurba_marseille","lat":43.22549,"lon":5.34743,"is_reserved":false,"is_disabled":false,"rental_uris":{"android":"levelo://app?vid=6737467a-fe5d-470c-a191-2df05ebbb3bb","ios":"levelo://app?vid=6737467a-fe5d-470c-a191-2df05ebbb3bb"},"vehicle_type_id":"4","last_reported":1752178348,"current_range_meters":16800,"station_id":"","pricing_plan_id":"cebpf4jnsgd1na2vs0mg"},{"bike_id":"717bf09d-cc85-4cc9-a382-ced972b2279c","system_id":"levelo_inurba_marseille","lat":43.30275,"lon":5.37714,"is_reserved":false,"is_disabled":false,"rental_uris":{"android":"levelo://app?vid=717bf09d-cc85-4cc9-a382-ced972b2279c","ios":"levelo://app?vid=717bf09d-cc85-4cc9-a382-ced972b2279c"},"vehicle_type_id":"4","last_reported":1752178348,"current_range_meters":16800,"station_id":"ce4bguh2rcd13ifvqcj0","pricing_plan_id":"cebpf4jnsgd1na2vs0mg"},{"bike_id":"d7c3b084-d1e7-418d-ab13-1fec0b15ee85","system_id":"levelo_inurba_marseille","lat":43.304636,"lon":5.379126,"is_reserved":false,"is_disabled":false,"rental_uris":{"android":"levelo://app?vid=d7c3b084-d1e7-418d-ab13-1fec0b15ee85","ios":"levelo://app?vid=d7c3b084-d1e7-418d-ab13-1fec0b15ee85"},"vehicle_type_id":"4","last_reported":1752178348,"current_range_meters":16800,"station_id":"ce4bgup2rcd13ifvqcn0","pricing_plan_id":"cebpf4jnsgd1na2vs0mg"},{"bike_id":"6c436b36-960f-4ef5-9b55-d6b5371855ce","system_id":"levelo_inurba_marseille","lat":43.28408,"lon":5.34969,"is_reserved":false,"is_disabled":false,"rental_uris":{"android":"levelo://app?vid=6c436b36-960f-4ef5-9b55-d6b5371855ce","ios":"levelo://app?vid=6c436b36-960f-4ef5-9b55-d6b5371855ce"},"vehicle_type_id":"4","last_reported":1752178348,"current_range_meters":16800,"station_id":"ce4bhbh2rcd13ifvqepg","pricing_plan_id":"cebpf4jnsgd1na2vs0mg"},{"bike_id":"bb5f6e14-9798-4952-af04-7c292094af51","system_id":"levelo_inurba_marseille","lat":43.28619,"lon":5.35092,"is_reserved":false,"is_disabled":false,"rental_uris":{"android":"levelo://app?vid=bb5f6e14-9798-4952-af04-7c292094af51","ios":"levelo://app?vid=bb5f6e14-9798-4952-af04-7c292094af51"},"vehicle_type_id":"4","last_reported":1752178348,"current_range_meters":16800,"station_id":"ce4bhch2rcd13ifvqeug","pricing_plan_id":"cebpf4jnsgd1na2vs0mg"},{"bike_id":"29a0a180-d29f-4a4e-a71b-d1d9d42cb217","system_id":"levelo_inurba_marseille","lat":43.21173,"lon":5.3509,"is_reserved":false,"is_disabled":false,"rental_uris":{"android":"levelo://app?vid=29a0a180-d29f-4a4e-a71b-d1d9d42cb217","ios":"levelo://app?vid=29a0a180-d29f-4a4e-a71b-d1d9d42cb217"},"vehicle_type_id":"4","last_reported":1752178348,"current_range_meters":16800,"station_id":"st_cvj6sg6p6f1abm77japg","pricing_plan_id":"cebpf4jnsgd1na2vs0mg"},{"bike_id":"8b440aeb-3c8b-4650-9f24-9c9b62dd74de","system_id":"levelo_inurba_marseille","lat":43.2123,"lon":5.3505,"is_reserved":false,"is_disabled":false,"rental_uris":{"android":"levelo://app?vid=8b440aeb-3c8b-4650-9f24-9c9b62dd74de","ios":"levelo://app?vid=8b440aeb-3c8b-4650-9f24-9c9b62dd74de"},"vehicle_type_id":"4","last_reported":1752178348,"current_range_meters":17200,"station_id":"","pricing_plan_id":"cebpf4jnsgd1na2vs0mg"},{"bike_id":"544ec108-796d-413d-8a7c-7e4ffa805fe3","system_id":"levelo_inurba_marseille","lat":43.27354,"lon":5.39299,"is_reserved":false,"is_disabled":false,"rental_uris":{"android":"levelo://app?vid=544ec108-796d-413d-8a7c-7e4ffa805fe3","ios":"levelo://app?vid=544ec108-796d-413d-8a7c-7e4ffa805fe3"},"vehicle_type_id":"4","last_reported":1752178348,"current_range_meters":17200,"station_id":"","pricing_plan_id":"cebpf4jnsgd1na2vs0mg"},{"bike_id":"46d8d8c5-491a-45a8-a1ea-b94e22270c85","system_id":"levelo_inurba_marseille","lat":43.29917,"lon":5.37468,"is_reserved":false,"is_disabled":false,"rental_uris":{"android":"levelo://app?vid=46d8d8c5-491a-45a8-a1ea-b94e22270c85","ios":"levelo://app?vid=46d8d8c5-491a-45a8-a1ea-b94e22270c85"},"vehicle_type_id":"4","last_reported":1752178348,"current_range_meters":17200,"station_id":"ce4bgjh2rcd13ifvqbg0","pricing_plan_id":"cebpf4jnsgd1na2vs0mg"},{"bike_id":"2a526fa1-26d9-4956-ad3e-0ec386dfcef3","system_id":"levelo_inurba_marseille","lat":43.303012,"lon":5.392145,"is_reserved":false,"is_disabled":false,"rental_uris":{"android":"levelo://app?vid=2a526fa1-26d9-4956-ad3e-0ec386dfcef3","ios":"levelo://app?vid=2a526fa1-26d9-4956-ad3e-0ec386dfcef3"},"vehicle_type_id":"4","last_reported":1752178348,"current_range_meters":17200,"station_id":"ce4bgkh2rcd13ifvqbk0","pricing_plan_id":"cebpf4jnsgd1na2vs0mg"},{"bike_id":"287e52a0-40a3-4c68-a1c5-1ce1bf4d275c","system_id":"levelo_inurba_marseille","lat":43.29593,"lon":5.38101,"is_reserved":false,"is_disabled":false,"rental_uris":{"android":"levelo://app?vid=287e52a0-40a3-4c68-a1c5-1ce1bf4d275c","ios":"levelo://app?vid=287e52a0-40a3-4c68-a1c5-1ce1bf4d275c"},"vehicle_type_id":"4","last_reported":1752178348,"current_range_meters":17200,"station_id":"ce4bgl12rcd13ifvqbo0","pricing_plan_id":"cebpf4jnsgd1na2vs0mg"},{"bike_id":"1d7f2ee9-a805-4c65-8616-73e2199c119f","system_id":"levelo_inurba_marseille","lat":43.3021,"lon":5.39466,"is_reserved":false,"is_disabled":false,"rental_uris":{"android":"levelo://app?vid=1d7f2ee9-a805-4c65-8616-73e2199c119f","ios":"levelo://app?vid=1d7f2ee9-a805-4c65-8616-73e2199c119f"},"vehicle_type_id":"4","last_reported":1752178348,"current_range_meters":17200,"station_id":"ce4bh0p2rcd13ifvqd70","pricing_plan_id":"cebpf4jnsgd1na2vs0mg"},{"bike_id":"09d6e05b-b489-494a-9f00-551474131412","system_id":"levelo_inurba_marseille","lat":43.25492,"lon":5.37646,"is_reserved":false,"is_disabled":false,"rental_uris":{"android":"levelo://app?vid=09d6e05b-b489-494a-9f00-551474131412","ios":"levelo://app?vid=09d6e05b-b489-494a-9f00-551474131412"},"vehicle_type_id":"4","last_reported":1752178348,"current_range_meters":17200,"station_id":"ce4bhh12rcd13ifvqff0","pricing_plan_id":"cebpf4jnsgd1na2vs0mg"},{"bike_id":"c3c5b26c-e834-4db6-994b-52abb31f20f1","system_id":"levelo_inurba_marseille","lat":43.24052,"lon":5.3777,"is_reserved":false,"is_disabled":false,"rental_uris":{"android":"levelo://app?vid=c3c5b26c-e834-4db6-994b-52abb31f20f1","ios":"levelo://app?vid=c3c5b26c-e834-4db6-994b-52abb31f20f1"},"vehicle_type_id":"4","last_reported":1752178348,"current_range_meters":17200,"station_id":"ce4bhnp2rcd13ifvqgvg","pricing_plan_id":"cebpf4jnsgd1na2vs0mg"},{"bike_id":"2a7690b8-e28f-4aa3-b011-b47c6c0d78b3","system_id":"levelo_inurba_marseille","lat":43.299603,"lon":5.41316,"is_reserved":false,"is_disabled":false,"rental_uris":{"android":"levelo://app?vid=2a7690b8-e28f-4aa3-b011-b47c6c0d78b3","ios":"levelo://app?vid=2a7690b8-e28f-4aa3-b011-b47c6c0d78b3"},"vehicle_type_id":"4","last_reported":1752178348,"current_range_meters":17200,"station_id":"ce4bhp12rcd13ifvqh9g","pricing_plan_id":"cebpf4jnsgd1na2vs0mg"},{"bike_id":"595e9351-a7ce-45de-8995-771f7d9fe86e","system_id":"levelo_inurba_marseille","lat":43.309243,"lon":5.378088,"is_reserved":false,"is_disabled":false,"rental_uris":{"android":"levelo://app?vid=595e9351-a7ce-45de-8995-771f7d9fe86e","ios":"levelo://app?vid=595e9351-a7ce-45de-8995-771f7d9fe86e"},"vehicle_type_id":"4","last_reported":1752178348,"current_range_meters":17600,"station_id":"","pricing_plan_id":"cebpf4jnsgd1na2vs0mg"},{"bike_id":"a27c01d4-977b-4bc7-a2ef-e89407d4dbd5","system_id":"levelo_inurba_marseille","lat":43.31076,"lon":5.38369,"is_reserved":false,"is_disabled":false,"rental_uris":{"android":"levelo://app?vid=a27c01d4-977b-4bc7-a2ef-e89407d4dbd5","ios":"levelo://app?vid=a27c01d4-977b-4bc7-a2ef-e89407d4dbd5"},"vehicle_type_id":"4","last_reported":1752178348,"current_range_meters":17600,"station_id":"ce4bgv92rcd13ifvqcr0","pricing_plan_id":"cebpf4jnsgd1na2vs0mg"},{"bike_id":"cd3ad621-81d5-486b-8d9d-ec2d2d715d0a","system_id":"levelo_inurba_marseille","lat":43.30331,"lon":5.40425,"is_reserved":false,"is_disabled":false,"rental_uris":{"android":"levelo://app?vid=cd3ad621-81d5-486b-8d9d-ec2d2d715d0a","ios":"levelo://app?vid=cd3ad621-81d5-486b-8d9d-ec2d2d715d0a"},"vehicle_type_id":"4","last_reported":1752178348,"current_range_meters":17600,"station_id":"ce4bh012rcd13ifvqd10","pricing_plan_id":"cebpf4jnsgd1na2vs0mg"},{"bike_id":"90bc1451-ed8f-4f1a-807c-2488b3557cb8","system_id":"levelo_inurba_marseille","lat":43.30646,"lon":5.40069,"is_reserved":false,"is_disabled":false,"rental_uris":{"android":"levelo://app?vid=90bc1451-ed8f-4f1a-807c-2488b3557cb8","ios":"levelo://app?vid=90bc1451-ed8f-4f1a-807c-2488b3557cb8"},"vehicle_type_id":"4","last_reported":1752178348,"current_range_meters":17600,"station_id":"ce4bh112rcd13ifvqda0","pricing_plan_id":"cebpf4jnsgd1na2vs0mg"},{"bike_id":"a5261600-9255-42e2-b637-5a80bb2b2650","system_id":"levelo_inurba_marseille","lat":43.29532,"lon":5.39039,"is_reserved":false,"is_disabled":false,"rental_uris":{"android":"levelo://app?vid=a5261600-9255-42e2-b637-5a80bb2b2650","ios":"levelo://app?vid=a5261600-9255-42e2-b637-5a80bb2b2650"},"vehicle_type_id":"4","last_reported":1752178348,"current_range_meters":17600,"station_id":"ce4bh3p2rcd13ifvqdp0","pricing_plan_id":"cebpf4jnsgd1na2vs0mg"},{"bike_id":"1886c21f-8bb0-49ec-9e4c-223d502e3248","system_id":"levelo_inurba_marseille","lat":43.29265,"lon":5.38437,"is_reserved":false,"is_disabled":false,"rental_uris":{"android":"levelo://app?vid=1886c21f-8bb0-49ec-9e4c-223d502e3248","ios":"levelo://app?vid=1886c21f-8bb0-49ec-9e4c-223d502e3248"},"vehicle_type_id":"4","last_reported":1752178348,"current_range_meters":17600,"station_id":"ce4bh692rcd13ifvqea0","pricing_plan_id":"cebpf4jnsgd1na2vs0mg"},{"bike_id":"d33cbabe-8724-4b7d-a873-a5476968f7d3","system_id":"levelo_inurba_marseille","lat":43.28411,"lon":5.34985,"is_reserved":false,"is_disabled":false,"rental_uris":{"android":"levelo://app?vid=d33cbabe-8724-4b7d-a873-a5476968f7d3","ios":"levelo://app?vid=d33cbabe-8724-4b7d-a873-a5476968f7d3"},"vehicle_type_id":"4","last_reported":1752178348,"current_range_meters":17600,"station_id":"ce4bhbh2rcd13ifvqepg","pricing_plan_id":"cebpf4jnsgd1na2vs0mg"},{"bike_id":"e3a75ee9-c614-467b-8cc2-f813bcef2ab1","system_id":"levelo_inurba_marseille","lat":43.33743,"lon":5.3919,"is_reserved":false,"is_disabled":false,"rental_uris":{"android":"levelo://app?vid=e3a75ee9-c614-467b-8cc2-f813bcef2ab1","ios":"levelo://app?vid=e3a75ee9-c614-467b-8cc2-f813bcef2ab1"},"vehicle_type_id":"4","last_reported":1752178348,"current_range_meters":17600,"station_id":"ce4bhr92rcd13ifvqhsg","pricing_plan_id":"cebpf4jnsgd1na2vs0mg"},{"bike_id":"5423e7d5-07f9-4264-9d42-219884898d7f","system_id":"levelo_inurba_marseille","lat":43.2417,"lon":5.36417,"is_reserved":false,"is_disabled":false,"rental_uris":{"android":"levelo://app?vid=5423e7d5-07f9-4264-9d42-219884898d7f","ios":"levelo://app?vid=5423e7d5-07f9-4264-9d42-219884898d7f"},"vehicle_type_id":"4","last_reported":1752178348,"current_range_meters":17600,"station_id":"cpo36qri1sfpv3e86is0","pricing_plan_id":"cebpf4jnsgd1na2vs0mg"},{"bike_id":"cb8db05c-7ef4-4fcf-b321-cdc13d7cccad","system_id":"levelo_inurba_marseille","lat":43.29086,"lon":5.35593,"is_reserved":false,"is_disabled":false,"rental_uris":{"android":"levelo://app?vid=cb8db05c-7ef4-4fcf-b321-cdc13d7cccad","ios":"levelo://app?vid=cb8db05c-7ef4-4fcf-b321-cdc13d7cccad"},"vehicle_type_id":"4","last_reported":1752178348,"current_range_meters":18000,"station_id":"","pricing_plan_id":"cebpf4jnsgd1na2vs0mg"},{"bike_id":"bd69f1e7-b901-41a0-b2c9-aee4bd027443","system_id":"levelo_inurba_marseille","lat":43.21234,"lon":5.35046,"is_reserved":false,"is_disabled":false,"rental_uris":{"android":"levelo://app?vid=bd69f1e7-b901-41a0-b2c9-aee4bd027443","ios":"levelo://app?vid=bd69f1e7-b901-41a0-b2c9-aee4bd027443"},"vehicle_type_id":"4","last_reported":1752178348,"current_range_meters":18000,"station_id":"","pricing_plan_id":"cebpf4jnsgd1na2vs0mg"},{"bike_id":"718425a5-067e-4941-9734-97d113beb9cb","system_id":"levelo_inurba_marseille","lat":43.29883,"lon":5.38527,"is_reserved":false,"is_disabled":false,"rental_uris":{"android":"levelo://app?vid=718425a5-067e-4941-9734-97d113beb9cb","ios":"levelo://app?vid=718425a5-067e-4941-9734-97d113beb9cb"},"vehicle_type_id":"4","last_reported":1752178348,"current_range_meters":18000,"station_id":"ce4bgj92rcd13ifvqbd0","pricing_plan_id":"cebpf4jnsgd1na2vs0mg"},{"bike_id":"d4e87a53-9708-4f41-83eb-6a9fd7670099","system_id":"levelo_inurba_marseille","lat":43.28667,"lon":5.38662,"is_reserved":false,"is_disabled":false,"rental_uris":{"android":"levelo://app?vid=d4e87a53-9708-4f41-83eb-6a9fd7670099","ios":"levelo://app?vid=d4e87a53-9708-4f41-83eb-6a9fd7670099"},"vehicle_type_id":"4","last_reported":1752178348,"current_range_meters":18000,"station_id":"ce4bh492rcd13ifvqdug","pricing_plan_id":"cebpf4jnsgd1na2vs0mg"},{"bike_id":"218798d0-10e2-40b4-8550-3cf14b6b5344","system_id":"levelo_inurba_marseille","lat":43.29269,"lon":5.38447,"is_reserved":false,"is_disabled":false,"rental_uris":{"android":"levelo://app?vid=218798d0-10e2-40b4-8550-3cf14b6b5344","ios":"levelo://app?vid=218798d0-10e2-40b4-8550-3cf14b6b5344"},"vehicle_type_id":"4","last_reported":1752178348,"current_range_meters":18000,"station_id":"ce4bh692rcd13ifvqea0","pricing_plan_id":"cebpf4jnsgd1na2vs0mg"},{"bike_id":"46e76d63-dcce-4084-828e-9cffe437f4b6","system_id":"levelo_inurba_marseille","lat":43.28717,"lon":5.37925,"is_reserved":false,"is_disabled":false,"rental_uris":{"android":"levelo://app?vid=46e76d63-dcce-4084-828e-9cffe437f4b6","ios":"levelo://app?vid=46e76d63-dcce-4084-828e-9cffe437f4b6"},"vehicle_type_id":"4","last_reported":1752178348,"current_range_meters":18000,"station_id":"ce4bh9p2rcd13ifvqec0","pricing_plan_id":"cebpf4jnsgd1na2vs0mg"},{"bike_id":"9fca92a7-4425-49cb-95c7-cdac4cfc0880","system_id":"levelo_inurba_marseille","lat":43.28943,"lon":5.36626,"is_reserved":false,"is_disabled":false,"rental_uris":{"android":"levelo://app?vid=9fca92a7-4425-49cb-95c7-cdac4cfc0880","ios":"levelo://app?vid=9fca92a7-4425-49cb-95c7-cdac4cfc0880"},"vehicle_type_id":"4","last_reported":1752178348,"current_range_meters":18000,"station_id":"ce4bhap2rcd13ifvqek0","pricing_plan_id":"cebpf4jnsgd1na2vs0mg"},{"bike_id":"74b56b5c-7101-429d-bd50-fa33a326ffc2","system_id":"levelo_inurba_marseille","lat":43.2841,"lon":5.34991,"is_reserved":false,"is_disabled":false,"rental_uris":{"android":"levelo://app?vid=74b56b5c-7101-429d-bd50-fa33a326ffc2","ios":"levelo://app?vid=74b56b5c-7101-429d-bd50-fa33a326ffc2"},"vehicle_type_id":"4","last_reported":1752178348,"current_range_meters":18000,"station_id":"ce4bhbh2rcd13ifvqepg","pricing_plan_id":"cebpf4jnsgd1na2vs0mg"},{"bike_id":"479b69d4-3376-4ae6-bc74-41dcf16b0474","system_id":"levelo_inurba_marseille","lat":43.22472,"lon":5.34792,"is_reserved":false,"is_disabled":false,"rental_uris":{"android":"levelo://app?vid=479b69d4-3376-4ae6-bc74-41dcf16b0474","ios":"levelo://app?vid=479b69d4-3376-4ae6-bc74-41dcf16b0474"},"vehicle_type_id":"4","last_reported":1752178348,"current_range_meters":18000,"station_id":"st_cvj5dfep6f1abm77gieg","pricing_plan_id":"cebpf4jnsgd1na2vs0mg"},{"bike_id":"96f82260-718a-4e3a-9802-28ac9d732e83","system_id":"levelo_inurba_marseille","lat":43.26161,"lon":5.37468,"is_reserved":false,"is_disabled":false,"rental_uris":{"android":"levelo://app?vid=96f82260-718a-4e3a-9802-28ac9d732e83","ios":"levelo://app?vid=96f82260-718a-4e3a-9802-28ac9d732e83"},"vehicle_type_id":"4","last_reported":1752178348,"current_range_meters":18800,"station_id":"","pricing_plan_id":"cebpf4jnsgd1na2vs0mg"},{"bike_id":"16c752bf-e05c-45d4-b20d-dbc414486db1","system_id":"levelo_inurba_marseille","lat":43.29538,"lon":5.38542,"is_reserved":false,"is_disabled":false,"rental_uris":{"android":"levelo://app?vid=16c752bf-e05c-45d4-b20d-dbc414486db1","ios":"levelo://app?vid=16c752bf-e05c-45d4-b20d-dbc414486db1"},"vehicle_type_id":"4","last_reported":1752178348,"current_range_meters":18800,"station_id":"ce4bgih2rcd13ifvqba0","pricing_plan_id":"cebpf4jnsgd1na2vs0mg"},{"bike_id":"bad0229e-8685-47cd-8aa3-9b8614be5286","system_id":"levelo_inurba_marseille","lat":43.29257,"lon":5.38456,"is_reserved":false,"is_disabled":false,"rental_uris":{"android":"levelo://app?vid=bad0229e-8685-47cd-8aa3-9b8614be5286","ios":"levelo://app?vid=bad0229e-8685-47cd-8aa3-9b8614be5286"},"vehicle_type_id":"4","last_reported":1752178348,"current_range_meters":18800,"station_id":"ce4bh692rcd13ifvqea0","pricing_plan_id":"cebpf4jnsgd1na2vs0mg"},{"bike_id":"bc93b38e-df53-4418-ad7b-7c2e1f66857f","system_id":"levelo_inurba_marseille","lat":43.27376,"lon":5.36265,"is_reserved":false,"is_disabled":false,"rental_uris":{"android":"levelo://app?vid=bc93b38e-df53-4418-ad7b-7c2e1f66857f","ios":"levelo://app?vid=bc93b38e-df53-4418-ad7b-7c2e1f66857f"},"vehicle_type_id":"4","last_reported":1752178348,"current_range_meters":18800,"station_id":"ce4bhbh2rcd13ifvqeo0","pricing_plan_id":"cebpf4jnsgd1na2vs0mg"},{"bike_id":"b758c025-73ed-4a72-ad84-8bd0eb3ba794","system_id":"levelo_inurba_marseille","lat":43.32661,"lon":5.40993,"is_reserved":false,"is_disabled":false,"rental_uris":{"android":"levelo://app?vid=b758c025-73ed-4a72-ad84-8bd0eb3ba794","ios":"levelo://app?vid=b758c025-73ed-4a72-ad84-8bd0eb3ba794"},"vehicle_type_id":"4","last_reported":1752178348,"current_range_meters":18800,"station_id":"ce4bhpp2rcd13ifvqhgg","pricing_plan_id":"cebpf4jnsgd1na2vs0mg"},{"bike_id":"ecec5a70-47e2-4076-ac88-b63310387724","system_id":"levelo_inurba_marseille","lat":43.21746,"lon":5.34607,"is_reserved":false,"is_disabled":false,"rental_uris":{"android":"levelo://app?vid=ecec5a70-47e2-4076-ac88-b63310387724","ios":"levelo://app?vid=ecec5a70-47e2-4076-ac88-b63310387724"},"vehicle_type_id":"4","last_reported":1752178348,"current_range_meters":18800,"station_id":"st_cvj6r9ubvosntc0bgbag","pricing_plan_id":"cebpf4jnsgd1na2vs0mg"},{"bike_id":"dafa5a87-b26d-4379-9a6b-1f02133b78a6","system_id":"levelo_inurba_marseille","lat":43.21191,"lon":5.35074,"is_reserved":false,"is_disabled":false,"rental_uris":{"android":"levelo://app?vid=dafa5a87-b26d-4379-9a6b-1f02133b78a6","ios":"levelo://app?vid=dafa5a87-b26d-4379-9a6b-1f02133b78a6"},"vehicle_type_id":"4","last_reported":1752178348,"current_range_meters":18800,"station_id":"st_cvj6sg6p6f1abm77japg","pricing_plan_id":"cebpf4jnsgd1na2vs0mg"},{"bike_id":"bb331b04-2f9d-4792-b924-8cd3c00be2fa","system_id":"levelo_inurba_marseille","lat":43.2925,"lon":5.38449,"is_reserved":false,"is_disabled":false,"rental_uris":{"android":"levelo://app?vid=bb331b04-2f9d-4792-b924-8cd3c00be2fa","ios":"levelo://app?vid=bb331b04-2f9d-4792-b924-8cd3c00be2fa"},"vehicle_type_id":"4","last_reported":1752178348,"current_range_meters":19200,"station_id":"ce4bh692rcd13ifvqea0","pricing_plan_id":"cebpf4jnsgd1na2vs0mg"},{"bike_id":"f56b4f69-8254-47fe-b0a1-0bcb07a2d734","system_id":"levelo_inurba_marseille","lat":43.284689,"lon":5.358877,"is_reserved":false,"is_disabled":false,"rental_uris":{"android":"levelo://app?vid=f56b4f69-8254-47fe-b0a1-0bcb07a2d734","ios":"levelo://app?vid=f56b4f69-8254-47fe-b0a1-0bcb07a2d734"},"vehicle_type_id":"4","last_reported":1752178348,"current_range_meters":19200,"station_id":"ce4bhah2rcd13ifvqei0","pricing_plan_id":"cebpf4jnsgd1na2vs0mg"},{"bike_id":"7c7034fd-107d-4dc3-a500-b58c762d64f0","system_id":"levelo_inurba_marseille","lat":43.2405,"lon":5.37765,"is_reserved":false,"is_disabled":false,"rental_uris":{"android":"levelo://app?vid=7c7034fd-107d-4dc3-a500-b58c762d64f0","ios":"levelo://app?vid=7c7034fd-107d-4dc3-a500-b58c762d64f0"},"vehicle_type_id":"4","last_reported":1752178348,"current_range_meters":19200,"station_id":"ce4bhnp2rcd13ifvqgvg","pricing_plan_id":"cebpf4jnsgd1na2vs0mg"},{"bike_id":"7b5cd6ce-df57-4328-854d-cb2d1407ab18","system_id":"levelo_inurba_marseille","lat":43.33061,"lon":5.39026,"is_reserved":false,"is_disabled":false,"rental_uris":{"android":"levelo://app?vid=7b5cd6ce-df57-4328-854d-cb2d1407ab18","ios":"levelo://app?vid=7b5cd6ce-df57-4328-854d-cb2d1407ab18"},"vehicle_type_id":"4","last_reported":1752178348,"current_range_meters":19200,"station_id":"ce4bhr92rcd13ifvqhrg","pricing_plan_id":"cebpf4jnsgd1na2vs0mg"},{"bike_id":"37b84a38-055a-4a6e-a56a-8ff3d0c1b2ec","system_id":"levelo_inurba_marseille","lat":43.21192,"lon":5.35073,"is_reserved":false,"is_disabled":false,"rental_uris":{"android":"levelo://app?vid=37b84a38-055a-4a6e-a56a-8ff3d0c1b2ec","ios":"levelo://app?vid=37b84a38-055a-4a6e-a56a-8ff3d0c1b2ec"},"vehicle_type_id":"4","last_reported":1752178348,"current_range_meters":19200,"station_id":"st_cvj6sg6p6f1abm77japg","pricing_plan_id":"cebpf4jnsgd1na2vs0mg"},{"bike_id":"43b90c82-97e0-4fa7-8b67-2448f07d529e","system_id":"levelo_inurba_marseille","lat":43.21197,"lon":5.35088,"is_reserved":false,"is_disabled":false,"rental_uris":{"android":"levelo://app?vid=43b90c82-97e0-4fa7-8b67-2448f07d529e","ios":"levelo://app?vid=43b90c82-97e0-4fa7-8b67-2448f07d529e"},"vehicle_type_id":"4","last_reported":1752178348,"current_range_meters":19600,"station_id":"","pricing_plan_id":"cebpf4jnsgd1na2vs0mg"},{"bike_id":"84c53d95-bc68-4913-9133-ee1a4e219b4c","system_id":"levelo_inurba_marseille","lat":43.29554,"lon":5.38501,"is_reserved":false,"is_disabled":false,"rental_uris":{"android":"levelo://app?vid=84c53d95-bc68-4913-9133-ee1a4e219b4c","ios":"levelo://app?vid=84c53d95-bc68-4913-9133-ee1a4e219b4c"},"vehicle_type_id":"4","last_reported":1752178348,"current_range_meters":19600,"station_id":"","pricing_plan_id":"cebpf4jnsgd1na2vs0mg"},{"bike_id":"4d7d6f5d-f56b-4025-bbae-600a10075b5c","system_id":"levelo_inurba_marseille","lat":43.2926,"lon":5.40899,"is_reserved":false,"is_disabled":false,"rental_uris":{"android":"levelo://app?vid=4d7d6f5d-f56b-4025-bbae-600a10075b5c","ios":"levelo://app?vid=4d7d6f5d-f56b-4025-bbae-600a10075b5c"},"vehicle_type_id":"4","last_reported":1752178348,"current_range_meters":19600,"station_id":"ce4bh192rcd13ifvqdc0","pricing_plan_id":"cebpf4jnsgd1na2vs0mg"},{"bike_id":"dfa6582f-0d8a-4c25-abf8-37adb7d47e0e","system_id":"levelo_inurba_marseille","lat":43.292628,"lon":5.384553,"is_reserved":false,"is_disabled":false,"rental_uris":{"android":"levelo://app?vid=dfa6582f-0d8a-4c25-abf8-37adb7d47e0e","ios":"levelo://app?vid=dfa6582f-0d8a-4c25-abf8-37adb7d47e0e"},"vehicle_type_id":"4","last_reported":1752178348,"current_range_meters":19600,"station_id":"ce4bh692rcd13ifvqea0","pricing_plan_id":"cebpf4jnsgd1na2vs0mg"},{"bike_id":"fbe38991-6830-48a2-926a-432712182cd1","system_id":"levelo_inurba_marseille","lat":43.2743,"lon":5.39413,"is_reserved":false,"is_disabled":false,"rental_uris":{"android":"levelo://app?vid=fbe38991-6830-48a2-926a-432712182cd1","ios":"levelo://app?vid=fbe38991-6830-48a2-926a-432712182cd1"},"vehicle_type_id":"4","last_reported":1752178348,"current_range_meters":19600,"station_id":"ce4bhdp2rcd13ifvqf20","pricing_plan_id":"cebpf4jnsgd1na2vs0mg"},{"bike_id":"7534bc1e-fe76-4770-8621-47eca358784f","system_id":"levelo_inurba_marseille","lat":43.25493,"lon":5.37646,"is_reserved":false,"is_disabled":false,"rental_uris":{"android":"levelo://app?vid=7534bc1e-fe76-4770-8621-47eca358784f","ios":"levelo://app?vid=7534bc1e-fe76-4770-8621-47eca358784f"},"vehicle_type_id":"4","last_reported":1752178348,"current_range_meters":19600,"station_id":"ce4bhh12rcd13ifvqff0","pricing_plan_id":"cebpf4jnsgd1na2vs0mg"},{"bike_id":"027b9027-0b54-4437-9fdb-35c0e71ed8ba","system_id":"levelo_inurba_marseille","lat":43.31717,"lon":5.4239,"is_reserved":false,"is_disabled":false,"rental_uris":{"android":"levelo://app?vid=027b9027-0b54-4437-9fdb-35c0e71ed8ba","ios":"levelo://app?vid=027b9027-0b54-4437-9fdb-35c0e71ed8ba"},"vehicle_type_id":"4","last_reported":1752178348,"current_range_meters":19600,"station_id":"ce4bhp92rcd13ifvqhbg","pricing_plan_id":"cebpf4jnsgd1na2vs0mg"},{"bike_id":"52bbed55-bb43-4609-aa14-ca80dd09df26","system_id":"levelo_inurba_marseille","lat":43.3376,"lon":5.3748,"is_reserved":false,"is_disabled":false,"rental_uris":{"android":"levelo://app?vid=52bbed55-bb43-4609-aa14-ca80dd09df26","ios":"levelo://app?vid=52bbed55-bb43-4609-aa14-ca80dd09df26"},"vehicle_type_id":"4","last_reported":1752178348,"current_range_meters":20000,"station_id":"","pricing_plan_id":"cebpf4jnsgd1na2vs0mg"},{"bike_id":"3bae48a3-8e65-4e37-a138-50b2dd8ab601","system_id":"levelo_inurba_marseille","lat":43.29804,"lon":5.38081,"is_reserved":false,"is_disabled":false,"rental_uris":{"android":"levelo://app?vid=3bae48a3-8e65-4e37-a138-50b2dd8ab601","ios":"levelo://app?vid=3bae48a3-8e65-4e37-a138-50b2dd8ab601"},"vehicle_type_id":"4","last_reported":1752178348,"current_range_meters":20000,"station_id":"ce4bgip2rcd13ifvqbb0","pricing_plan_id":"cebpf4jnsgd1na2vs0mg"},{"bike_id":"bb4e0981-07a2-48f2-bb9e-57e9616eb103","system_id":"levelo_inurba_marseille","lat":43.28358,"lon":5.38092,"is_reserved":false,"is_disabled":false,"rental_uris":{"android":"levelo://app?vid=bb4e0981-07a2-48f2-bb9e-57e9616eb103","ios":"levelo://app?vid=bb4e0981-07a2-48f2-bb9e-57e9616eb103"},"vehicle_type_id":"4","last_reported":1752178348,"current_range_meters":20000,"station_id":"ce4bh412rcd13ifvqdr0","pricing_plan_id":"cebpf4jnsgd1na2vs0mg"},{"bike_id":"81d27735-2a10-40c5-85ca-ba6b3d509ca9","system_id":"levelo_inurba_marseille","lat":43.2927,"lon":5.38444,"is_reserved":false,"is_disabled":false,"rental_uris":{"android":"levelo://app?vid=81d27735-2a10-40c5-85ca-ba6b3d509ca9","ios":"levelo://app?vid=81d27735-2a10-40c5-85ca-ba6b3d509ca9"},"vehicle_type_id":"4","last_reported":1752178348,"current_range_meters":20000,"station_id":"ce4bh692rcd13ifvqea0","pricing_plan_id":"cebpf4jnsgd1na2vs0mg"},{"bike_id":"5a999777-1f7c-44e2-9aa3-06326d452654","system_id":"levelo_inurba_marseille","lat":43.29264,"lon":5.38432,"is_reserved":false,"is_disabled":false,"rental_uris":{"android":"levelo://app?vid=5a999777-1f7c-44e2-9aa3-06326d452654","ios":"levelo://app?vid=5a999777-1f7c-44e2-9aa3-06326d452654"},"vehicle_type_id":"4","last_reported":1752178348,"current_range_meters":20000,"station_id":"ce4bh692rcd13ifvqea0","pricing_plan_id":"cebpf4jnsgd1na2vs0mg"},{"bike_id":"68826ec1-2d41-4bb5-a405-afb62c7d1197","system_id":"levelo_inurba_marseille","lat":43.28425,"lon":5.34981,"is_reserved":false,"is_disabled":false,"rental_uris":{"android":"levelo://app?vid=68826ec1-2d41-4bb5-a405-afb62c7d1197","ios":"levelo://app?vid=68826ec1-2d41-4bb5-a405-afb62c7d1197"},"vehicle_type_id":"4","last_reported":1752178348,"current_range_meters":20000,"station_id":"ce4bhbh2rcd13ifvqepg","pricing_plan_id":"cebpf4jnsgd1na2vs0mg"},{"bike_id":"dbba3321-20c7-4989-a7b5-ea9ab2c4b3e8","system_id":"levelo_inurba_marseille","lat":43.261935,"lon":5.374477,"is_reserved":false,"is_disabled":false,"rental_uris":{"android":"levelo://app?vid=dbba3321-20c7-4989-a7b5-ea9ab2c4b3e8","ios":"levelo://app?vid=dbba3321-20c7-4989-a7b5-ea9ab2c4b3e8"},"vehicle_type_id":"4","last_reported":1752178348,"current_range_meters":20000,"station_id":"ce4bhgp2rcd13ifvqfc0","pricing_plan_id":"cebpf4jnsgd1na2vs0mg"},{"bike_id":"8b1a6851-6aeb-480d-9719-46f9836523db","system_id":"levelo_inurba_marseille","lat":43.25495,"lon":5.37647,"is_reserved":false,"is_disabled":false,"rental_uris":{"android":"levelo://app?vid=8b1a6851-6aeb-480d-9719-46f9836523db","ios":"levelo://app?vid=8b1a6851-6aeb-480d-9719-46f9836523db"},"vehicle_type_id":"4","last_reported":1752178348,"current_range_meters":20000,"station_id":"ce4bhh12rcd13ifvqff0","pricing_plan_id":"cebpf4jnsgd1na2vs0mg"},{"bike_id":"c1a2a69e-9bf5-4849-b55f-6847b98c70a7","system_id":"levelo_inurba_marseille","lat":43.29571,"lon":5.39977,"is_reserved":false,"is_disabled":false,"rental_uris":{"android":"levelo://app?vid=c1a2a69e-9bf5-4849-b55f-6847b98c70a7","ios":"levelo://app?vid=c1a2a69e-9bf5-4849-b55f-6847b98c70a7"},"vehicle_type_id":"4","last_reported":1752178348,"current_range_meters":20400,"station_id":"","pricing_plan_id":"cebpf4jnsgd1na2vs0mg"},{"bike_id":"5f9facdb-d1e1-40e1-8ceb-766e4b9ac193","system_id":"levelo_inurba_marseille","lat":43.21754,"lon":5.345992,"is_reserved":false,"is_disabled":false,"rental_uris":{"android":"levelo://app?vid=5f9facdb-d1e1-40e1-8ceb-766e4b9ac193","ios":"levelo://app?vid=5f9facdb-d1e1-40e1-8ceb-766e4b9ac193"},"vehicle_type_id":"4","last_reported":1752178348,"current_range_meters":20400,"station_id":"","pricing_plan_id":"cebpf4jnsgd1na2vs0mg"},{"bike_id":"df94f5e2-89e5-42ef-91e0-9854ebcf637f","system_id":"levelo_inurba_marseille","lat":43.29498,"lon":5.38551,"is_reserved":false,"is_disabled":false,"rental_uris":{"android":"levelo://app?vid=df94f5e2-89e5-42ef-91e0-9854ebcf637f","ios":"levelo://app?vid=df94f5e2-89e5-42ef-91e0-9854ebcf637f"},"vehicle_type_id":"4","last_reported":1752178348,"current_range_meters":20400,"station_id":"ce4bgih2rcd13ifvqba0","pricing_plan_id":"cebpf4jnsgd1na2vs0mg"},{"bike_id":"3d96e96b-e1d8-4c0b-9d7b-66a0c8d86d69","system_id":"levelo_inurba_marseille","lat":43.29528,"lon":5.38557,"is_reserved":false,"is_disabled":false,"rental_uris":{"android":"levelo://app?vid=3d96e96b-e1d8-4c0b-9d7b-66a0c8d86d69","ios":"levelo://app?vid=3d96e96b-e1d8-4c0b-9d7b-66a0c8d86d69"},"vehicle_type_id":"4","last_reported":1752178348,"current_range_meters":20400,"station_id":"ce4bgih2rcd13ifvqba0","pricing_plan_id":"cebpf4jnsgd1na2vs0mg"},{"bike_id":"ec8f48e0-76ec-477e-a3d5-c18a3450aaa6","system_id":"levelo_inurba_marseille","lat":43.276,"lon":5.36125,"is_reserved":false,"is_disabled":false,"rental_uris":{"android":"levelo://app?vid=ec8f48e0-76ec-477e-a3d5-c18a3450aaa6","ios":"levelo://app?vid=ec8f48e0-76ec-477e-a3d5-c18a3450aaa6"},"vehicle_type_id":"4","last_reported":1752178348,"current_range_meters":20400,"station_id":"ce4bgj92rcd13ifvqbe0","pricing_plan_id":"cebpf4jnsgd1na2vs0mg"},{"bike_id":"3bc32fe5-6783-4ed8-83a2-fa8ba566f0a6","system_id":"levelo_inurba_marseille","lat":43.29977,"lon":5.37184,"is_reserved":false,"is_disabled":false,"rental_uris":{"android":"levelo://app?vid=3bc32fe5-6783-4ed8-83a2-fa8ba566f0a6","ios":"levelo://app?vid=3bc32fe5-6783-4ed8-83a2-fa8ba566f0a6"},"vehicle_type_id":"4","last_reported":1752178348,"current_range_meters":20400,"station_id":"ce4bgr92rcd13ifvqc7g","pricing_plan_id":"cebpf4jnsgd1na2vs0mg"},{"bike_id":"c5c289a0-5ef4-4d7d-bda8-f2b4cde29890","system_id":"levelo_inurba_marseille","lat":43.29251,"lon":5.38433,"is_reserved":false,"is_disabled":false,"rental_uris":{"android":"levelo://app?vid=c5c289a0-5ef4-4d7d-bda8-f2b4cde29890","ios":"levelo://app?vid=c5c289a0-5ef4-4d7d-bda8-f2b4cde29890"},"vehicle_type_id":"4","last_reported":1752178348,"current_range_meters":20400,"station_id":"ce4bh692rcd13ifvqea0","pricing_plan_id":"cebpf4jnsgd1na2vs0mg"},{"bike_id":"5e8e2973-8562-414c-a2a7-f651670dd623","system_id":"levelo_inurba_marseille","lat":43.2842,"lon":5.34978,"is_reserved":false,"is_disabled":false,"rental_uris":{"android":"levelo://app?vid=5e8e2973-8562-414c-a2a7-f651670dd623","ios":"levelo://app?vid=5e8e2973-8562-414c-a2a7-f651670dd623"},"vehicle_type_id":"4","last_reported":1752178348,"current_range_meters":20400,"station_id":"ce4bhbh2rcd13ifvqepg","pricing_plan_id":"cebpf4jnsgd1na2vs0mg"},{"bike_id":"515c39b4-93b6-419f-b9a6-df213e5b8d78","system_id":"levelo_inurba_marseille","lat":43.25503,"lon":5.37649,"is_reserved":false,"is_disabled":false,"rental_uris":{"android":"levelo://app?vid=515c39b4-93b6-419f-b9a6-df213e5b8d78","ios":"levelo://app?vid=515c39b4-93b6-419f-b9a6-df213e5b8d78"},"vehicle_type_id":"4","last_reported":1752178348,"current_range_meters":20400,"station_id":"ce4bhh12rcd13ifvqff0","pricing_plan_id":"cebpf4jnsgd1na2vs0mg"},{"bike_id":"95387458-4b0d-400c-a33f-6405ec762bd5","system_id":"levelo_inurba_marseille","lat":43.32543,"lon":5.41419,"is_reserved":false,"is_disabled":false,"rental_uris":{"android":"levelo://app?vid=95387458-4b0d-400c-a33f-6405ec762bd5","ios":"levelo://app?vid=95387458-4b0d-400c-a33f-6405ec762bd5"},"vehicle_type_id":"4","last_reported":1752178348,"current_range_meters":20400,"station_id":"ce4bhq12rcd13ifvqhhg","pricing_plan_id":"cebpf4jnsgd1na2vs0mg"},{"bike_id":"52e17cb9-3244-4eaa-8702-0add62e2a730","system_id":"levelo_inurba_marseille","lat":43.2319,"lon":5.35545,"is_reserved":false,"is_disabled":false,"rental_uris":{"android":"levelo://app?vid=52e17cb9-3244-4eaa-8702-0add62e2a730","ios":"levelo://app?vid=52e17cb9-3244-4eaa-8702-0add62e2a730"},"vehicle_type_id":"4","last_reported":1752178348,"current_range_meters":20400,"station_id":"ce4bhu92rcd13ifvqi70","pricing_plan_id":"cebpf4jnsgd1na2vs0mg"},{"bike_id":"5667e937-a815-4777-a199-90490a246b5b","system_id":"levelo_inurba_marseille","lat":43.29782,"lon":5.3934,"is_reserved":false,"is_disabled":false,"rental_uris":{"android":"levelo://app?vid=5667e937-a815-4777-a199-90490a246b5b","ios":"levelo://app?vid=5667e937-a815-4777-a199-90490a246b5b"},"vehicle_type_id":"4","last_reported":1752178348,"current_range_meters":20400,"station_id":"chh1huq6cuj3fo74tm60","pricing_plan_id":"cebpf4jnsgd1na2vs0mg"},{"bike_id":"9d0d85e3-ee19-452d-93c5-fbfc98a09acf","system_id":"levelo_inurba_marseille","lat":43.29508,"lon":5.43862,"is_reserved":false,"is_disabled":false,"rental_uris":{"android":"levelo://app?vid=9d0d85e3-ee19-452d-93c5-fbfc98a09acf","ios":"levelo://app?vid=9d0d85e3-ee19-452d-93c5-fbfc98a09acf"},"vehicle_type_id":"4","last_reported":1752178348,"current_range_meters":20800,"station_id":"","pricing_plan_id":"cebpf4jnsgd1na2vs0mg"},{"bike_id":"7a5b65b1-8677-4370-b76e-2862dcdcfd1d","system_id":"levelo_inurba_marseille","lat":43.30138,"lon":5.38775,"is_reserved":false,"is_disabled":false,"rental_uris":{"android":"levelo://app?vid=7a5b65b1-8677-4370-b76e-2862dcdcfd1d","ios":"levelo://app?vid=7a5b65b1-8677-4370-b76e-2862dcdcfd1d"},"vehicle_type_id":"4","last_reported":1752178348,"current_range_meters":20800,"station_id":"ce4bghh2rcd13ifvqb60","pricing_plan_id":"cebpf4jnsgd1na2vs0mg"},{"bike_id":"23f74866-df0d-4acb-8522-dc32248f1a9d","system_id":"levelo_inurba_marseille","lat":43.29033,"lon":5.38142,"is_reserved":false,"is_disabled":false,"rental_uris":{"android":"levelo://app?vid=23f74866-df0d-4acb-8522-dc32248f1a9d","ios":"levelo://app?vid=23f74866-df0d-4acb-8522-dc32248f1a9d"},"vehicle_type_id":"4","last_reported":1752178348,"current_range_meters":20800,"station_id":"ce4bh4p2rcd13ifvqe1g","pricing_plan_id":"cebpf4jnsgd1na2vs0mg"},{"bike_id":"33ac2659-cac5-44a3-8d2a-4fcea3f9cfcb","system_id":"levelo_inurba_marseille","lat":43.26558,"lon":5.37287,"is_reserved":false,"is_disabled":false,"rental_uris":{"android":"levelo://app?vid=33ac2659-cac5-44a3-8d2a-4fcea3f9cfcb","ios":"levelo://app?vid=33ac2659-cac5-44a3-8d2a-4fcea3f9cfcb"},"vehicle_type_id":"4","last_reported":1752178348,"current_range_meters":20800,"station_id":"ce4bhg12rcd13ifvqf70","pricing_plan_id":"cebpf4jnsgd1na2vs0mg"},{"bike_id":"452e8211-4f44-45d0-814a-3e9e25b8c44e","system_id":"levelo_inurba_marseille","lat":43.21192,"lon":5.35073,"is_reserved":false,"is_disabled":false,"rental_uris":{"android":"levelo://app?vid=452e8211-4f44-45d0-814a-3e9e25b8c44e","ios":"levelo://app?vid=452e8211-4f44-45d0-814a-3e9e25b8c44e"},"vehicle_type_id":"4","last_reported":1752178348,"current_range_meters":20800,"station_id":"st_cvj6sg6p6f1abm77japg","pricing_plan_id":"cebpf4jnsgd1na2vs0mg"},{"bike_id":"e86ba8c9-208d-482c-a826-4c100938472a","system_id":"levelo_inurba_marseille","lat":43.21194,"lon":5.35072,"is_reserved":false,"is_disabled":false,"rental_uris":{"android":"levelo://app?vid=e86ba8c9-208d-482c-a826-4c100938472a","ios":"levelo://app?vid=e86ba8c9-208d-482c-a826-4c100938472a"},"vehicle_type_id":"4","last_reported":1752178348,"current_range_meters":20800,"station_id":"st_cvj6sg6p6f1abm77japg","pricing_plan_id":"cebpf4jnsgd1na2vs0mg"},{"bike_id":"62e3151d-ce10-48fd-8a98-b07f96acd786","system_id":"levelo_inurba_marseille","lat":43.273702,"lon":5.362592,"is_reserved":false,"is_disabled":false,"rental_uris":{"android":"levelo://app?vid=62e3151d-ce10-48fd-8a98-b07f96acd786","ios":"levelo://app?vid=62e3151d-ce10-48fd-8a98-b07f96acd786"},"vehicle_type_id":"4","last_reported":1752178348,"current_range_meters":21600,"station_id":"ce4bgj92rcd13ifvqbe0","pricing_plan_id":"cebpf4jnsgd1na2vs0mg"},{"bike_id":"eb6f9212-6813-4889-aceb-35c70365318f","system_id":"levelo_inurba_marseille","lat":43.29611,"lon":5.381,"is_reserved":false,"is_disabled":false,"rental_uris":{"android":"levelo://app?vid=eb6f9212-6813-4889-aceb-35c70365318f","ios":"levelo://app?vid=eb6f9212-6813-4889-aceb-35c70365318f"},"vehicle_type_id":"4","last_reported":1752178348,"current_range_meters":21600,"station_id":"ce4bgl12rcd13ifvqbo0","pricing_plan_id":"cebpf4jnsgd1na2vs0mg"},{"bike_id":"9625c1ba-9539-4304-bdf2-a2dc2db034b4","system_id":"levelo_inurba_marseille","lat":43.28352,"lon":5.381,"is_reserved":false,"is_disabled":false,"rental_uris":{"android":"levelo://app?vid=9625c1ba-9539-4304-bdf2-a2dc2db034b4","ios":"levelo://app?vid=9625c1ba-9539-4304-bdf2-a2dc2db034b4"},"vehicle_type_id":"4","last_reported":1752178348,"current_range_meters":21600,"station_id":"ce4bh412rcd13ifvqdr0","pricing_plan_id":"cebpf4jnsgd1na2vs0mg"},{"bike_id":"77df93bd-75b4-4c0b-9fb0-c888359d3678","system_id":"levelo_inurba_marseille","lat":43.28678,"lon":5.38667,"is_reserved":false,"is_disabled":false,"rental_uris":{"android":"levelo://app?vid=77df93bd-75b4-4c0b-9fb0-c888359d3678","ios":"levelo://app?vid=77df93bd-75b4-4c0b-9fb0-c888359d3678"},"vehicle_type_id":"4","last_reported":1752178348,"current_range_meters":21600,"station_id":"ce4bh492rcd13ifvqdug","pricing_plan_id":"cebpf4jnsgd1na2vs0mg"},{"bike_id":"97ee5d65-d07a-43f4-a13b-75a938afb5d7","system_id":"levelo_inurba_marseille","lat":43.261968,"lon":5.374484,"is_reserved":false,"is_disabled":false,"rental_uris":{"android":"levelo://app?vid=97ee5d65-d07a-43f4-a13b-75a938afb5d7","ios":"levelo://app?vid=97ee5d65-d07a-43f4-a13b-75a938afb5d7"},"vehicle_type_id":"4","last_reported":1752178348,"current_range_meters":21600,"station_id":"ce4bhgp2rcd13ifvqfc0","pricing_plan_id":"cebpf4jnsgd1na2vs0mg"},{"bike_id":"d1d27555-5742-45b6-8513-9a5426faf3d2","system_id":"levelo_inurba_marseille","lat":43.29416,"lon":5.38612,"is_reserved":false,"is_disabled":false,"rental_uris":{"android":"levelo://app?vid=d1d27555-5742-45b6-8513-9a5426faf3d2","ios":"levelo://app?vid=d1d27555-5742-45b6-8513-9a5426faf3d2"},"vehicle_type_id":"4","last_reported":1752178348,"current_range_meters":22000,"station_id":"ce4bh2h2rcd13ifvqdh0","pricing_plan_id":"cebpf4jnsgd1na2vs0mg"},{"bike_id":"84dcbe42-88b4-4fdd-aa55-b2040b1cb69c","system_id":"levelo_inurba_marseille","lat":43.290311,"lon":5.386479,"is_reserved":false,"is_disabled":false,"rental_uris":{"android":"levelo://app?vid=84dcbe42-88b4-4fdd-aa55-b2040b1cb69c","ios":"levelo://app?vid=84dcbe42-88b4-4fdd-aa55-b2040b1cb69c"},"vehicle_type_id":"4","last_reported":1752178348,"current_range_meters":22000,"station_id":"ce4bh4p2rcd13ifvqe0g","pricing_plan_id":"cebpf4jnsgd1na2vs0mg"},{"bike_id":"fa143eb6-e424-49c9-bbbb-bf221f023f61","system_id":"levelo_inurba_marseille","lat":43.28487,"lon":5.38556,"is_reserved":false,"is_disabled":false,"rental_uris":{"android":"levelo://app?vid=fa143eb6-e424-49c9-bbbb-bf221f023f61","ios":"levelo://app?vid=fa143eb6-e424-49c9-bbbb-bf221f023f61"},"vehicle_type_id":"4","last_reported":1752178348,"current_range_meters":22000,"station_id":"ce4bh8p2rcd13ifvqeb0","pricing_plan_id":"cebpf4jnsgd1na2vs0mg"},{"bike_id":"7ebb26dd-bbc4-4c92-ae45-e38a926e7957","system_id":"levelo_inurba_marseille","lat":43.28039,"lon":5.36945,"is_reserved":false,"is_disabled":false,"rental_uris":{"android":"levelo://app?vid=7ebb26dd-bbc4-4c92-ae45-e38a926e7957","ios":"levelo://app?vid=7ebb26dd-bbc4-4c92-ae45-e38a926e7957"},"vehicle_type_id":"4","last_reported":1752178348,"current_range_meters":22000,"station_id":"ce4bha12rcd13ifvqef0","pricing_plan_id":"cebpf4jnsgd1na2vs0mg"},{"bike_id":"375d9dd1-724f-4716-a6ba-63e2cfa360e8","system_id":"levelo_inurba_marseille","lat":43.27362,"lon":5.36243,"is_reserved":false,"is_disabled":false,"rental_uris":{"android":"levelo://app?vid=375d9dd1-724f-4716-a6ba-63e2cfa360e8","ios":"levelo://app?vid=375d9dd1-724f-4716-a6ba-63e2cfa360e8"},"vehicle_type_id":"4","last_reported":1752178348,"current_range_meters":22000,"station_id":"ce4bhbh2rcd13ifvqeo0","pricing_plan_id":"cebpf4jnsgd1na2vs0mg"},{"bike_id":"63eb0946-3a7f-48f5-9ce5-04ee0abbe304","system_id":"levelo_inurba_marseille","lat":43.28411,"lon":5.34975,"is_reserved":false,"is_disabled":false,"rental_uris":{"android":"levelo://app?vid=63eb0946-3a7f-48f5-9ce5-04ee0abbe304","ios":"levelo://app?vid=63eb0946-3a7f-48f5-9ce5-04ee0abbe304"},"vehicle_type_id":"4","last_reported":1752178348,"current_range_meters":22000,"station_id":"ce4bhbh2rcd13ifvqepg","pricing_plan_id":"cebpf4jnsgd1na2vs0mg"},{"bike_id":"39438dbc-87f6-42fd-8e4b-472a9231b8ee","system_id":"levelo_inurba_marseille","lat":43.2619,"lon":5.37447,"is_reserved":false,"is_disabled":false,"rental_uris":{"android":"levelo://app?vid=39438dbc-87f6-42fd-8e4b-472a9231b8ee","ios":"levelo://app?vid=39438dbc-87f6-42fd-8e4b-472a9231b8ee"},"vehicle_type_id":"4","last_reported":1752178348,"current_range_meters":22000,"station_id":"ce4bhgp2rcd13ifvqfc0","pricing_plan_id":"cebpf4jnsgd1na2vs0mg"},{"bike_id":"e1e34a92-d1e7-4d15-b0c0-b77854657cee","system_id":"levelo_inurba_marseille","lat":43.239602,"lon":5.366181,"is_reserved":false,"is_disabled":false,"rental_uris":{"android":"levelo://app?vid=e1e34a92-d1e7-4d15-b0c0-b77854657cee","ios":"levelo://app?vid=e1e34a92-d1e7-4d15-b0c0-b77854657cee"},"vehicle_type_id":"4","last_reported":1752178348,"current_range_meters":22000,"station_id":"ce4bhi12rcd13ifvqfp0","pricing_plan_id":"cebpf4jnsgd1na2vs0mg"},{"bike_id":"981c6d46-7e6d-4bec-9c40-9554adfbf3e4","system_id":"levelo_inurba_marseille","lat":43.24179,"lon":5.39726,"is_reserved":false,"is_disabled":false,"rental_uris":{"android":"levelo://app?vid=981c6d46-7e6d-4bec-9c40-9554adfbf3e4","ios":"levelo://app?vid=981c6d46-7e6d-4bec-9c40-9554adfbf3e4"},"vehicle_type_id":"4","last_reported":1752178348,"current_range_meters":22000,"station_id":"ce4bhn12rcd13ifvqgpg","pricing_plan_id":"cebpf4jnsgd1na2vs0mg"},{"bike_id":"58ffa050-1d4a-437f-ab51-221afcd30193","system_id":"levelo_inurba_marseille","lat":43.29538,"lon":5.38534,"is_reserved":false,"is_disabled":false,"rental_uris":{"android":"levelo://app?vid=58ffa050-1d4a-437f-ab51-221afcd30193","ios":"levelo://app?vid=58ffa050-1d4a-437f-ab51-221afcd30193"},"vehicle_type_id":"4","last_reported":1752178348,"current_range_meters":22400,"station_id":"ce4bgih2rcd13ifvqba0","pricing_plan_id":"cebpf4jnsgd1na2vs0mg"},{"bike_id":"5fd454bc-c190-4521-9ff0-8d349d07fa0c","system_id":"levelo_inurba_marseille","lat":43.284217,"lon":5.349895,"is_reserved":false,"is_disabled":false,"rental_uris":{"android":"levelo://app?vid=5fd454bc-c190-4521-9ff0-8d349d07fa0c","ios":"levelo://app?vid=5fd454bc-c190-4521-9ff0-8d349d07fa0c"},"vehicle_type_id":"4","last_reported":1752178348,"current_range_meters":22400,"station_id":"ce4bhbh2rcd13ifvqepg","pricing_plan_id":"cebpf4jnsgd1na2vs0mg"},{"bike_id":"548305b1-fa79-46fd-a796-f7d488f08666","system_id":"levelo_inurba_marseille","lat":43.26007,"lon":5.41757,"is_reserved":false,"is_disabled":false,"rental_uris":{"android":"levelo://app?vid=548305b1-fa79-46fd-a796-f7d488f08666","ios":"levelo://app?vid=548305b1-fa79-46fd-a796-f7d488f08666"},"vehicle_type_id":"4","last_reported":1752178348,"current_range_meters":22800,"station_id":"","pricing_plan_id":"cebpf4jnsgd1na2vs0mg"},{"bike_id":"187f652a-a00d-4d6f-a0d9-7d077ef17a4f","system_id":"levelo_inurba_marseille","lat":43.2997,"lon":5.37178,"is_reserved":false,"is_disabled":false,"rental_uris":{"android":"levelo://app?vid=187f652a-a00d-4d6f-a0d9-7d077ef17a4f","ios":"levelo://app?vid=187f652a-a00d-4d6f-a0d9-7d077ef17a4f"},"vehicle_type_id":"4","last_reported":1752178348,"current_range_meters":22800,"station_id":"ce4bgr92rcd13ifvqc7g","pricing_plan_id":"cebpf4jnsgd1na2vs0mg"},{"bike_id":"8b2afa9d-d895-4ed3-b361-8b2c5b18f72a","system_id":"levelo_inurba_marseille","lat":43.30891,"lon":5.39655,"is_reserved":false,"is_disabled":false,"rental_uris":{"android":"levelo://app?vid=8b2afa9d-d895-4ed3-b361-8b2c5b18f72a","ios":"levelo://app?vid=8b2afa9d-d895-4ed3-b361-8b2c5b18f72a"},"vehicle_type_id":"4","last_reported":1752178348,"current_range_meters":22800,"station_id":"ce4bh012rcd13ifvqcv0","pricing_plan_id":"cebpf4jnsgd1na2vs0mg"},{"bike_id":"908d0cbc-ae8b-4bfb-8604-e0ffe50e6692","system_id":"levelo_inurba_marseille","lat":43.30594,"lon":5.39359,"is_reserved":false,"is_disabled":false,"rental_uris":{"android":"levelo://app?vid=908d0cbc-ae8b-4bfb-8604-e0ffe50e6692","ios":"levelo://app?vid=908d0cbc-ae8b-4bfb-8604-e0ffe50e6692"},"vehicle_type_id":"4","last_reported":1752178348,"current_range_meters":22800,"station_id":"ce4bh0p2rcd13ifvqd80","pricing_plan_id":"cebpf4jnsgd1na2vs0mg"},{"bike_id":"332c530f-0402-4fb0-ab1c-577087e02459","system_id":"levelo_inurba_marseille","lat":43.28435,"lon":5.34976,"is_reserved":false,"is_disabled":false,"rental_uris":{"android":"levelo://app?vid=332c530f-0402-4fb0-ab1c-577087e02459","ios":"levelo://app?vid=332c530f-0402-4fb0-ab1c-577087e02459"},