{"last_updated":1748423463,"ttl":60,"version":"2.2","data":{"bikes":[{"bike_id":"8e1e3d14-39e1-40c6-a572-79984978bd7d","system_id":"levelo_inurba_marseille","lat":43.22481,"lon":5.34771,"is_reserved":false,"is_disabled":false,"rental_uris":{"android":"levelo://app?vid=8e1e3d14-39e1-40c6-a572-79984978bd7d","ios":"levelo://app?vid=8e1e3d14-39e1-40c6-a572-79984978bd7d"},"vehicle_type_id":"4","last_reported":1748423463,"current_range_meters":2800,"station_id":"","pricing_plan_id":"cebpf4jnsgd1na2vs0mg"},{"bike_id":"0060b897-b64a-4294-98e0-bdff7c072cdd","system_id":"levelo_inurba_marseille","lat":43.21743,"lon":5.34596,"is_reserved":false,"is_disabled":false,"rental_uris":{"android":"levelo://app?vid=0060b897-b64a-4294-98e0-bdff7c072cdd","ios":"levelo://app?vid=0060b897-b64a-4294-98e0-bdff7c072cdd"},"vehicle_type_id":"4","last_reported":1748423463,"current_range_meters":2800,"station_id":"","pricing_plan_id":"cebpf4jnsgd1na2vs0mg"},{"bike_id":"5f12688d-730f-4bf2-acdb-0c47a5d6e38b","system_id":"levelo_inurba_marseille","lat":43.292,"lon":5.35806,"is_reserved":false,"is_disabled":true,"rental_uris":{"android":"levelo://app?vid=5f12688d-730f-4bf2-acdb-0c47a5d6e38b","ios":"levelo://app?vid=5f12688d-730f-4bf2-acdb-0c47a5d6e38b"},"vehicle_type_id":"4","last_reported":1748423463,"current_range_meters":2800,"station_id":"ce4bhb12rcd13ifvqel0","pricing_plan_id":"cebpf4jnsgd1na2vs0mg"},{"bike_id":"2f50dc5b-dd1a-4fd7-b3a4-bca2ea8883de","system_id":"levelo_inurba_marseille","lat":43.3199,"lon":5.3815,"is_reserved":false,"is_disabled":false,"rental_uris":{"android":"levelo://app?vid=2f50dc5b-dd1a-4fd7-b3a4-bca2ea8883de","ios":"levelo://app?vid=2f50dc5b-dd1a-4fd7-b3a4-bca2ea8883de"},"vehicle_type_id":"4","last_reported":1748423463,"current_range_meters":2800,"station_id":"ce4bhr12rcd13ifvqhpg","pricing_plan_id":"cebpf4jnsgd1na2vs0mg"},{"bike_id":"eb81b3de-7f9c-4ede-9da4-ac5788736220","system_id":"levelo_inurba_marseille","lat":43.29004,"lon":5.35625,"is_reserved":false,"is_disabled":false,"rental_uris":{"android":"levelo://app?vid=eb81b3de-7f9c-4ede-9da4-ac5788736220","ios":"levelo://app?vid=eb81b3de-7f9c-4ede-9da4-ac5788736220"},"vehicle_type_id":"4","last_reported":1748423463,"current_range_meters":2800,"station_id":"ce4bhb92rcd13ifvqen0","pricing_plan_id":"cebpf4jnsgd1na2vs0mg"},{"bike_id":"a747db6a-76ee-4f9d-8e93-84a1a1834589","system_id":"levelo_inurba_marseille","lat":43.28266,"lon":5.35075,"is_reserved":false,"is_disabled":false,"rental_uris":{"android":"levelo://app?vid=a747db6a-76ee-4f9d-8e93-84a1a1834589","ios":"levelo://app?vid=a747db6a-76ee-4f9d-8e93-84a1a1834589"},"vehicle_type_id":"4","last_reported":1748423463,"current_range_meters":3200,"station_id":"ce4bhbp2rcd13ifvqerg","pricing_plan_id":"cebpf4jnsgd1na2vs0mg"},{"bike_id":"85d1e926-bbfb-4ea4-8add-c3b75abcf11e","system_id":"levelo_inurba_marseille","lat":43.313483,"lon":5.367422,"is_reserved":false,"is_disabled":false,"rental_uris":{"android":"levelo://app?vid=85d1e926-bbfb-4ea4-8add-c3b75abcf11e","ios":"levelo://app?vid=85d1e926-bbfb-4ea4-8add-c3b75abcf11e"},"vehicle_type_id":"4","last_reported":1748423463,"current_range_meters":3200,"station_id":"ce4bgr92rcd13ifvqc6g","pricing_plan_id":"cebpf4jnsgd1na2vs0mg"},{"bike_id":"8457e217-14d8-4752-9ab1-6c2356cc7d6c","system_id":"levelo_inurba_marseille","lat":43.27315,"lon":5.39077,"is_reserved":false,"is_disabled":false,"rental_uris":{"android":"levelo://app?vid=8457e217-14d8-4752-9ab1-6c2356cc7d6c","ios":"levelo://app?vid=8457e217-14d8-4752-9ab1-6c2356cc7d6c"},"vehicle_type_id":"4","last_reported":1748423463,"current_range_meters":4800,"station_id":"ce4bhgp2rcd13ifvqfe0","pricing_plan_id":"cebpf4jnsgd1na2vs0mg"},{"bike_id":"25c6281e-8d09-4db3-8cc3-67bfa99569fc","system_id":"levelo_inurba_marseille","lat":43.26959,"lon":5.38638,"is_reserved":false,"is_disabled":false,"rental_uris":{"android":"levelo://app?vid=25c6281e-8d09-4db3-8cc3-67bfa99569fc","ios":"levelo://app?vid=25c6281e-8d09-4db3-8cc3-67bfa99569fc"},"vehicle_type_id":"4","last_reported":1748423463,"current_range_meters":2800,"station_id":"ce4bhh92rcd13ifvqfh0","pricing_plan_id":"cebpf4jnsgd1na2vs0mg"},{"bike_id":"5cfe8527-58b1-4f69-b893-13b42152f2a4","system_id":"levelo_inurba_marseille","lat":43.312245,"lon":5.368609,"is_reserved":false,"is_disabled":false,"rental_uris":{"android":"levelo://app?vid=5cfe8527-58b1-4f69-b893-13b42152f2a4","ios":"levelo://app?vid=5cfe8527-58b1-4f69-b893-13b42152f2a4"},"vehicle_type_id":"4","last_reported":1748423463,"current_range_meters":3200,"station_id":"ce4bgl92rcd13ifvqbq0","pricing_plan_id":"cebpf4jnsgd1na2vs0mg"},{"bike_id":"a7d628af-fd22-49c2-828b-28a5e047c442","system_id":"levelo_inurba_marseille","lat":43.29569,"lon":5.37514,"is_reserved":false,"is_disabled":false,"rental_uris":{"android":"levelo://app?vid=a7d628af-fd22-49c2-828b-28a5e047c442","ios":"levelo://app?vid=a7d628af-fd22-49c2-828b-28a5e047c442"},"vehicle_type_id":"4","last_reported":1748423463,"current_range_meters":3600,"station_id":"ce4bgh92rcd13ifvqb50","pricing_plan_id":"cebpf4jnsgd1na2vs0mg"},{"bike_id":"eb684bf4-a04e-4969-85a7-6bc9df0d61b0","system_id":"levelo_inurba_marseille","lat":43.31326,"lon":5.36741,"is_reserved":false,"is_disabled":false,"rental_uris":{"android":"levelo://app?vid=eb684bf4-a04e-4969-85a7-6bc9df0d61b0","ios":"levelo://app?vid=eb684bf4-a04e-4969-85a7-6bc9df0d61b0"},"vehicle_type_id":"4","last_reported":1748423463,"current_range_meters":3600,"station_id":"ce4bgr92rcd13ifvqc6g","pricing_plan_id":"cebpf4jnsgd1na2vs0mg"},{"bike_id":"abba546a-070b-4ccc-a6b4-411f39382fa3","system_id":"levelo_inurba_marseille","lat":43.2987,"lon":5.39733,"is_reserved":false,"is_disabled":false,"rental_uris":{"android":"levelo://app?vid=abba546a-070b-4ccc-a6b4-411f39382fa3","ios":"levelo://app?vid=abba546a-070b-4ccc-a6b4-411f39382fa3"},"vehicle_type_id":"4","last_reported":1748423463,"current_range_meters":3600,"station_id":"ce4bh0h2rcd13ifvqd50","pricing_plan_id":"cebpf4jnsgd1na2vs0mg"},{"bike_id":"7a78ce2a-b3f3-4b99-a04e-41156739a7e6","system_id":"levelo_inurba_marseille","lat":43.2667,"lon":5.38265,"is_reserved":false,"is_disabled":false,"rental_uris":{"android":"levelo://app?vid=7a78ce2a-b3f3-4b99-a04e-41156739a7e6","ios":"levelo://app?vid=7a78ce2a-b3f3-4b99-a04e-41156739a7e6"},"vehicle_type_id":"4","last_reported":1748423463,"current_range_meters":4000,"station_id":"ce4bhg92rcd13ifvqf90","pricing_plan_id":"cebpf4jnsgd1na2vs0mg"},{"bike_id":"3f1e173e-5538-4798-8bce-4d559b01ef1e","system_id":"levelo_inurba_marseille","lat":43.259484,"lon":5.408878,"is_reserved":false,"is_disabled":false,"rental_uris":{"android":"levelo://app?vid=3f1e173e-5538-4798-8bce-4d559b01ef1e","ios":"levelo://app?vid=3f1e173e-5538-4798-8bce-4d559b01ef1e"},"vehicle_type_id":"4","last_reported":1748423463,"current_range_meters":4000,"station_id":"ce4bhm92rcd13ifvqglg","pricing_plan_id":"cebpf4jnsgd1na2vs0mg"},{"bike_id":"c2b0a191-bf31-4e89-8dc5-11d646e535b1","system_id":"levelo_inurba_marseille","lat":43.254969,"lon":5.37649,"is_reserved":false,"is_disabled":false,"rental_uris":{"android":"levelo://app?vid=c2b0a191-bf31-4e89-8dc5-11d646e535b1","ios":"levelo://app?vid=c2b0a191-bf31-4e89-8dc5-11d646e535b1"},"vehicle_type_id":"4","last_reported":1748423463,"current_range_meters":4000,"station_id":"","pricing_plan_id":"cebpf4jnsgd1na2vs0mg"},{"bike_id":"db2ac856-f79c-426b-96e3-52526435259b","system_id":"levelo_inurba_marseille","lat":43.25946,"lon":5.40881,"is_reserved":false,"is_disabled":false,"rental_uris":{"android":"levelo://app?vid=db2ac856-f79c-426b-96e3-52526435259b","ios":"levelo://app?vid=db2ac856-f79c-426b-96e3-52526435259b"},"vehicle_type_id":"4","last_reported":1748423463,"current_range_meters":4000,"station_id":"ce4bhm92rcd13ifvqglg","pricing_plan_id":"cebpf4jnsgd1na2vs0mg"},{"bike_id":"33fe8719-0311-411c-86f2-9bec37eb6797","system_id":"levelo_inurba_marseille","lat":43.26034,"lon":5.3755,"is_reserved":false,"is_disabled":false,"rental_uris":{"android":"levelo://app?vid=33fe8719-0311-411c-86f2-9bec37eb6797","ios":"levelo://app?vid=33fe8719-0311-411c-86f2-9bec37eb6797"},"vehicle_type_id":"4","last_reported":1748423463,"current_range_meters":3600,"station_id":"ce4bhgh2rcd13ifvqfa0","pricing_plan_id":"cebpf4jnsgd1na2vs0mg"},{"bike_id":"206a4e12-c240-4ba5-a84e-9a270d2307a3","system_id":"levelo_inurba_marseille","lat":43.30539,"lon":5.36551,"is_reserved":false,"is_disabled":false,"rental_uris":{"android":"levelo://app?vid=206a4e12-c240-4ba5-a84e-9a270d2307a3","ios":"levelo://app?vid=206a4e12-c240-4ba5-a84e-9a270d2307a3"},"vehicle_type_id":"4","last_reported":1748423463,"current_range_meters":4400,"station_id":"ce4bgs12rcd13ifvqcag","pricing_plan_id":"cebpf4jnsgd1na2vs0mg"},{"bike_id":"3b452a51-b8d0-4f8d-861c-e53d81707fef","system_id":"levelo_inurba_marseille","lat":43.2319,"lon":5.39975,"is_reserved":false,"is_disabled":false,"rental_uris":{"android":"levelo://app?vid=3b452a51-b8d0-4f8d-861c-e53d81707fef","ios":"levelo://app?vid=3b452a51-b8d0-4f8d-861c-e53d81707fef"},"vehicle_type_id":"4","last_reported":1748423463,"current_range_meters":4400,"station_id":"ce4bhn12rcd13ifvqgqg","pricing_plan_id":"cebpf4jnsgd1na2vs0mg"},{"bike_id":"dcf6d256-50f6-4204-bc71-52061a33ed32","system_id":"levelo_inurba_marseille","lat":43.29096,"lon":5.38132,"is_reserved":false,"is_disabled":false,"rental_uris":{"android":"levelo://app?vid=dcf6d256-50f6-4204-bc71-52061a33ed32","ios":"levelo://app?vid=dcf6d256-50f6-4204-bc71-52061a33ed32"},"vehicle_type_id":"4","last_reported":1748423463,"current_range_meters":4400,"station_id":"ce4bh512rcd13ifvqe2g","pricing_plan_id":"cebpf4jnsgd1na2vs0mg"},{"bike_id":"c20c3ec9-2f2c-46fa-a993-107af72fdbce","system_id":"levelo_inurba_marseille","lat":43.2731,"lon":5.39078,"is_reserved":false,"is_disabled":false,"rental_uris":{"android":"levelo://app?vid=c20c3ec9-2f2c-46fa-a993-107af72fdbce","ios":"levelo://app?vid=c20c3ec9-2f2c-46fa-a993-107af72fdbce"},"vehicle_type_id":"4","last_reported":1748423463,"current_range_meters":4000,"station_id":"ce4bhgp2rcd13ifvqfe0","pricing_plan_id":"cebpf4jnsgd1na2vs0mg"},{"bike_id":"ae6e6868-2635-4f49-b7c1-b03759c58ec7","system_id":"levelo_inurba_marseille","lat":43.27282,"lon":5.41612,"is_reserved":false,"is_disabled":false,"rental_uris":{"android":"levelo://app?vid=ae6e6868-2635-4f49-b7c1-b03759c58ec7","ios":"levelo://app?vid=ae6e6868-2635-4f49-b7c1-b03759c58ec7"},"vehicle_type_id":"4","last_reported":1748423463,"current_range_meters":4800,"station_id":"","pricing_plan_id":"cebpf4jnsgd1na2vs0mg"},{"bike_id":"e57c349f-28e0-4fff-b357-934d70ac9fe6","system_id":"levelo_inurba_marseille","lat":43.29319,"lon":5.37161,"is_reserved":false,"is_disabled":false,"rental_uris":{"android":"levelo://app?vid=e57c349f-28e0-4fff-b357-934d70ac9fe6","ios":"levelo://app?vid=e57c349f-28e0-4fff-b357-934d70ac9fe6"},"vehicle_type_id":"4","last_reported":1748423463,"current_range_meters":4800,"station_id":"ce4bgh92rcd13ifvqb40","pricing_plan_id":"cebpf4jnsgd1na2vs0mg"},{"bike_id":"480fa9e4-5826-4fd5-980c-e3069709bf32","system_id":"levelo_inurba_marseille","lat":43.31712,"lon":5.43705,"is_reserved":false,"is_disabled":false,"rental_uris":{"android":"levelo://app?vid=480fa9e4-5826-4fd5-980c-e3069709bf32","ios":"levelo://app?vid=480fa9e4-5826-4fd5-980c-e3069709bf32"},"vehicle_type_id":"4","last_reported":1748423463,"current_range_meters":5600,"station_id":"ce4bhp92rcd13ifvqhcg","pricing_plan_id":"cebpf4jnsgd1na2vs0mg"},{"bike_id":"53595349-f4a1-4237-8fe8-c399d607135c","system_id":"levelo_inurba_marseille","lat":43.28265,"lon":5.35059,"is_reserved":false,"is_disabled":false,"rental_uris":{"android":"levelo://app?vid=53595349-f4a1-4237-8fe8-c399d607135c","ios":"levelo://app?vid=53595349-f4a1-4237-8fe8-c399d607135c"},"vehicle_type_id":"4","last_reported":1748423463,"current_range_meters":5600,"station_id":"ce4bhbp2rcd13ifvqerg","pricing_plan_id":"cebpf4jnsgd1na2vs0mg"},{"bike_id":"70b8d7b3-a5d3-4b96-bc08-d4df14e64b2c","system_id":"levelo_inurba_marseille","lat":43.23156,"lon":5.43686,"is_reserved":false,"is_disabled":false,"rental_uris":{"android":"levelo://app?vid=70b8d7b3-a5d3-4b96-bc08-d4df14e64b2c","ios":"levelo://app?vid=70b8d7b3-a5d3-4b96-bc08-d4df14e64b2c"},"vehicle_type_id":"4","last_reported":1748423463,"current_range_meters":5600,"station_id":"ce4bhmp2rcd13ifvqgog","pricing_plan_id":"cebpf4jnsgd1na2vs0mg"},{"bike_id":"98a9ddb7-df42-428b-9320-2b01dc110bfc","system_id":"levelo_inurba_marseille","lat":43.320551,"lon":5.415353,"is_reserved":false,"is_disabled":false,"rental_uris":{"android":"levelo://app?vid=98a9ddb7-df42-428b-9320-2b01dc110bfc","ios":"levelo://app?vid=98a9ddb7-df42-428b-9320-2b01dc110bfc"},"vehicle_type_id":"4","last_reported":1748423463,"current_range_meters":5600,"station_id":"ce4bhq92rcd13ifvqhkg","pricing_plan_id":"cebpf4jnsgd1na2vs0mg"},{"bike_id":"57e8e6a1-f43c-4131-9726-42448d07b18d","system_id":"levelo_inurba_marseille","lat":43.30926,"lon":5.40145,"is_reserved":false,"is_disabled":false,"rental_uris":{"android":"levelo://app?vid=57e8e6a1-f43c-4131-9726-42448d07b18d","ios":"levelo://app?vid=57e8e6a1-f43c-4131-9726-42448d07b18d"},"vehicle_type_id":"4","last_reported":1748423463,"current_range_meters":5600,"station_id":"ce4bgvp2rcd13ifvqct0","pricing_plan_id":"cebpf4jnsgd1na2vs0mg"},{"bike_id":"15793c7f-4bb8-4270-96ae-3d1876c39454","system_id":"levelo_inurba_marseille","lat":43.27843,"lon":5.39206,"is_reserved":false,"is_disabled":false,"rental_uris":{"android":"levelo://app?vid=15793c7f-4bb8-4270-96ae-3d1876c39454","ios":"levelo://app?vid=15793c7f-4bb8-4270-96ae-3d1876c39454"},"vehicle_type_id":"4","last_reported":1748423463,"current_range_meters":6000,"station_id":"ce4bhjp2rcd13ifvqga0","pricing_plan_id":"cebpf4jnsgd1na2vs0mg"},{"bike_id":"ceb81090-b40e-47dd-bc35-8598d269ef58","system_id":"levelo_inurba_marseille","lat":43.266562,"lon":5.384317,"is_reserved":false,"is_disabled":false,"rental_uris":{"android":"levelo://app?vid=ceb81090-b40e-47dd-bc35-8598d269ef58","ios":"levelo://app?vid=ceb81090-b40e-47dd-bc35-8598d269ef58"},"vehicle_type_id":"4","last_reported":1748423463,"current_range_meters":6400,"station_id":"","pricing_plan_id":"cebpf4jnsgd1na2vs0mg"},{"bike_id":"001ec09b-9d4c-4152-9b6a-0b3c3ef56c21","system_id":"levelo_inurba_marseille","lat":43.30135,"lon":5.37412,"is_reserved":false,"is_disabled":false,"rental_uris":{"android":"levelo://app?vid=001ec09b-9d4c-4152-9b6a-0b3c3ef56c21","ios":"levelo://app?vid=001ec09b-9d4c-4152-9b6a-0b3c3ef56c21"},"vehicle_type_id":"4","last_reported":1748423463,"current_range_meters":6400,"station_id":"ce4bgs92rcd13ifvqcc0","pricing_plan_id":"cebpf4jnsgd1na2vs0mg"},{"bike_id":"344df99e-d549-48a4-ab71-1f45ee1da59e","system_id":"levelo_inurba_marseille","lat":43.32357,"lon":5.36756,"is_reserved":false,"is_disabled":false,"rental_uris":{"android":"levelo://app?vid=344df99e-d549-48a4-ab71-1f45ee1da59e","ios":"levelo://app?vid=344df99e-d549-48a4-ab71-1f45ee1da59e"},"vehicle_type_id":"4","last_reported":1748423463,"current_range_meters":6400,"station_id":"ce4bhsh2rcd13ifvqi2g","pricing_plan_id":"cebpf4jnsgd1na2vs0mg"},{"bike_id":"f2c30cbd-ae7b-4568-a297-6260345aa9ba","system_id":"levelo_inurba_marseille","lat":43.3122,"lon":5.36859,"is_reserved":false,"is_disabled":false,"rental_uris":{"android":"levelo://app?vid=f2c30cbd-ae7b-4568-a297-6260345aa9ba","ios":"levelo://app?vid=f2c30cbd-ae7b-4568-a297-6260345aa9ba"},"vehicle_type_id":"4","last_reported":1748423463,"current_range_meters":6400,"station_id":"ce4bgl92rcd13ifvqbq0","pricing_plan_id":"cebpf4jnsgd1na2vs0mg"},{"bike_id":"662ad375-758b-4b98-a8e9-e3999cdef538","system_id":"levelo_inurba_marseille","lat":43.27374,"lon":5.36256,"is_reserved":false,"is_disabled":false,"rental_uris":{"android":"levelo://app?vid=662ad375-758b-4b98-a8e9-e3999cdef538","ios":"levelo://app?vid=662ad375-758b-4b98-a8e9-e3999cdef538"},"vehicle_type_id":"4","last_reported":1748423463,"current_range_meters":6400,"station_id":"ce4bhbh2rcd13ifvqeo0","pricing_plan_id":"cebpf4jnsgd1na2vs0mg"},{"bike_id":"8ea1abb2-7ef4-4498-b3e1-fd488c7951ba","system_id":"levelo_inurba_marseille","lat":43.29981,"lon":5.37172,"is_reserved":false,"is_disabled":false,"rental_uris":{"android":"levelo://app?vid=8ea1abb2-7ef4-4498-b3e1-fd488c7951ba","ios":"levelo://app?vid=8ea1abb2-7ef4-4498-b3e1-fd488c7951ba"},"vehicle_type_id":"4","last_reported":1748423463,"current_range_meters":6000,"station_id":"ce4bgr92rcd13ifvqc7g","pricing_plan_id":"cebpf4jnsgd1na2vs0mg"},{"bike_id":"3e9a7210-8b6c-4bd5-a7c8-07b279ae6218","system_id":"levelo_inurba_marseille","lat":43.31079,"lon":5.42431,"is_reserved":false,"is_disabled":false,"rental_uris":{"android":"levelo://app?vid=3e9a7210-8b6c-4bd5-a7c8-07b279ae6218","ios":"levelo://app?vid=3e9a7210-8b6c-4bd5-a7c8-07b279ae6218"},"vehicle_type_id":"4","last_reported":1748423463,"current_range_meters":6400,"station_id":"ce4bhp92rcd13ifvqhag","pricing_plan_id":"cebpf4jnsgd1na2vs0mg"},{"bike_id":"c2f75e22-6fed-4646-a5c2-8cb463b122f4","system_id":"levelo_inurba_marseille","lat":43.32271,"lon":5.37639,"is_reserved":false,"is_disabled":false,"rental_uris":{"android":"levelo://app?vid=c2f75e22-6fed-4646-a5c2-8cb463b122f4","ios":"levelo://app?vid=c2f75e22-6fed-4646-a5c2-8cb463b122f4"},"vehicle_type_id":"4","last_reported":1748423463,"current_range_meters":6400,"station_id":"","pricing_plan_id":"cebpf4jnsgd1na2vs0mg"},{"bike_id":"91844fe0-3357-4825-9bf4-60dc4895331f","system_id":"levelo_inurba_marseille","lat":43.25939,"lon":5.40875,"is_reserved":false,"is_disabled":false,"rental_uris":{"android":"levelo://app?vid=91844fe0-3357-4825-9bf4-60dc4895331f","ios":"levelo://app?vid=91844fe0-3357-4825-9bf4-60dc4895331f"},"vehicle_type_id":"4","last_reported":1748423463,"current_range_meters":6800,"station_id":"ce4bhm92rcd13ifvqglg","pricing_plan_id":"cebpf4jnsgd1na2vs0mg"},{"bike_id":"772c5575-75e7-4676-a7dc-8f2eb13bec1e","system_id":"levelo_inurba_marseille","lat":43.31347,"lon":5.36704,"is_reserved":false,"is_disabled":false,"rental_uris":{"android":"levelo://app?vid=772c5575-75e7-4676-a7dc-8f2eb13bec1e","ios":"levelo://app?vid=772c5575-75e7-4676-a7dc-8f2eb13bec1e"},"vehicle_type_id":"4","last_reported":1748423463,"current_range_meters":6800,"station_id":"","pricing_plan_id":"cebpf4jnsgd1na2vs0mg"},{"bike_id":"f4dd589b-5b58-470a-a2c9-9de3a4398e71","system_id":"levelo_inurba_marseille","lat":43.22973,"lon":5.35367,"is_reserved":false,"is_disabled":false,"rental_uris":{"android":"levelo://app?vid=f4dd589b-5b58-470a-a2c9-9de3a4398e71","ios":"levelo://app?vid=f4dd589b-5b58-470a-a2c9-9de3a4398e71"},"vehicle_type_id":"4","last_reported":1748423463,"current_range_meters":6800,"station_id":"","pricing_plan_id":"cebpf4jnsgd1na2vs0mg"},{"bike_id":"426c29b1-92ad-4335-8b55-68cacf8b8de0","system_id":"levelo_inurba_marseille","lat":43.27069,"lon":5.42272,"is_reserved":false,"is_disabled":false,"rental_uris":{"android":"levelo://app?vid=426c29b1-92ad-4335-8b55-68cacf8b8de0","ios":"levelo://app?vid=426c29b1-92ad-4335-8b55-68cacf8b8de0"},"vehicle_type_id":"4","last_reported":1748423463,"current_range_meters":6800,"station_id":"ce4bhk92rcd13ifvqgb0","pricing_plan_id":"cebpf4jnsgd1na2vs0mg"},{"bike_id":"c0c61abe-19e1-41d2-a79e-8e6ee851088c","system_id":"levelo_inurba_marseille","lat":43.28571,"lon":5.395,"is_reserved":false,"is_disabled":false,"rental_uris":{"android":"levelo://app?vid=c0c61abe-19e1-41d2-a79e-8e6ee851088c","ios":"levelo://app?vid=c0c61abe-19e1-41d2-a79e-8e6ee851088c"},"vehicle_type_id":"4","last_reported":1748423463,"current_range_meters":6800,"station_id":"ce4bh292rcd13ifvqdg0","pricing_plan_id":"cebpf4jnsgd1na2vs0mg"},{"bike_id":"6901aa21-7c98-4526-95e5-d4a67822cbfd","system_id":"levelo_inurba_marseille","lat":43.27056,"lon":5.40255,"is_reserved":false,"is_disabled":false,"rental_uris":{"android":"levelo://app?vid=6901aa21-7c98-4526-95e5-d4a67822cbfd","ios":"levelo://app?vid=6901aa21-7c98-4526-95e5-d4a67822cbfd"},"vehicle_type_id":"4","last_reported":1748423463,"current_range_meters":6800,"station_id":"ce4bhk92rcd13ifvqgc0","pricing_plan_id":"cebpf4jnsgd1na2vs0mg"},{"bike_id":"61f7f951-1d79-4ee8-b41d-0c0a727d2073","system_id":"levelo_inurba_marseille","lat":43.31693,"lon":5.40471,"is_reserved":false,"is_disabled":false,"rental_uris":{"android":"levelo://app?vid=61f7f951-1d79-4ee8-b41d-0c0a727d2073","ios":"levelo://app?vid=61f7f951-1d79-4ee8-b41d-0c0a727d2073"},"vehicle_type_id":"4","last_reported":1748423463,"current_range_meters":6800,"station_id":"ce4bh012rcd13ifvqd00","pricing_plan_id":"cebpf4jnsgd1na2vs0mg"},{"bike_id":"b68fff3a-9d2c-4595-8ea6-a0c5482c4e8a","system_id":"levelo_inurba_marseille","lat":43.29606,"lon":5.3811,"is_reserved":false,"is_disabled":false,"rental_uris":{"android":"levelo://app?vid=b68fff3a-9d2c-4595-8ea6-a0c5482c4e8a","ios":"levelo://app?vid=b68fff3a-9d2c-4595-8ea6-a0c5482c4e8a"},"vehicle_type_id":"4","last_reported":1748423463,"current_range_meters":6800,"station_id":"ce4bgl12rcd13ifvqbo0","pricing_plan_id":"cebpf4jnsgd1na2vs0mg"},{"bike_id":"96c7438f-01e1-41e8-a9a4-c50c54a22ee3","system_id":"levelo_inurba_marseille","lat":43.25934,"lon":5.40878,"is_reserved":false,"is_disabled":false,"rental_uris":{"android":"levelo://app?vid=96c7438f-01e1-41e8-a9a4-c50c54a22ee3","ios":"levelo://app?vid=96c7438f-01e1-41e8-a9a4-c50c54a22ee3"},"vehicle_type_id":"4","last_reported":1748423463,"current_range_meters":7200,"station_id":"ce4bhm92rcd13ifvqglg","pricing_plan_id":"cebpf4jnsgd1na2vs0mg"},{"bike_id":"132c7f8b-76ba-42df-9d53-6a6fd1beb7b7","system_id":"levelo_inurba_marseille","lat":43.26785,"lon":5.3942,"is_reserved":false,"is_disabled":false,"rental_uris":{"android":"levelo://app?vid=132c7f8b-76ba-42df-9d53-6a6fd1beb7b7","ios":"levelo://app?vid=132c7f8b-76ba-42df-9d53-6a6fd1beb7b7"},"vehicle_type_id":"4","last_reported":1748423463,"current_range_meters":6800,"station_id":"ce4bhh12rcd13ifvqfg0","pricing_plan_id":"cebpf4jnsgd1na2vs0mg"},{"bike_id":"e739c7ef-8e2d-4fa9-a980-e1a32a8c86dd","system_id":"levelo_inurba_marseille","lat":43.26931,"lon":5.38921,"is_reserved":false,"is_disabled":false,"rental_uris":{"android":"levelo://app?vid=e739c7ef-8e2d-4fa9-a980-e1a32a8c86dd","ios":"levelo://app?vid=e739c7ef-8e2d-4fa9-a980-e1a32a8c86dd"},"vehicle_type_id":"4","last_reported":1748423463,"current_range_meters":7200,"station_id":"ce4bhhh2rcd13ifvqfl0","pricing_plan_id":"cebpf4jnsgd1na2vs0mg"},{"bike_id":"43243807-885e-406c-abfe-b3eb7125a494","system_id":"levelo_inurba_marseille","lat":43.33724,"lon":5.39197,"is_reserved":false,"is_disabled":false,"rental_uris":{"android":"levelo://app?vid=43243807-885e-406c-abfe-b3eb7125a494","ios":"levelo://app?vid=43243807-885e-406c-abfe-b3eb7125a494"},"vehicle_type_id":"4","last_reported":1748423463,"current_range_meters":7200,"station_id":"ce4bhr92rcd13ifvqhsg","pricing_plan_id":"cebpf4jnsgd1na2vs0mg"},{"bike_id":"8a8da44b-f0bc-49bf-a97a-1dee19c6a572","system_id":"levelo_inurba_marseille","lat":43.2322,"lon":5.35558,"is_reserved":false,"is_disabled":false,"rental_uris":{"android":"levelo://app?vid=8a8da44b-f0bc-49bf-a97a-1dee19c6a572","ios":"levelo://app?vid=8a8da44b-f0bc-49bf-a97a-1dee19c6a572"},"vehicle_type_id":"4","last_reported":1748423463,"current_range_meters":7200,"station_id":"ce4bhu92rcd13ifvqi70","pricing_plan_id":"cebpf4jnsgd1na2vs0mg"},{"bike_id":"abc174b4-763a-4826-a8a6-3ce384e8f858","system_id":"levelo_inurba_marseille","lat":43.2407,"lon":5.37763,"is_reserved":false,"is_disabled":false,"rental_uris":{"android":"levelo://app?vid=abc174b4-763a-4826-a8a6-3ce384e8f858","ios":"levelo://app?vid=abc174b4-763a-4826-a8a6-3ce384e8f858"},"vehicle_type_id":"4","last_reported":1748423463,"current_range_meters":7200,"station_id":"ce4bhnp2rcd13ifvqgvg","pricing_plan_id":"cebpf4jnsgd1na2vs0mg"},{"bike_id":"1c7b1d0b-0d89-4429-8f9b-925fc523b2ca","system_id":"levelo_inurba_marseille","lat":43.28268,"lon":5.35064,"is_reserved":false,"is_disabled":false,"rental_uris":{"android":"levelo://app?vid=1c7b1d0b-0d89-4429-8f9b-925fc523b2ca","ios":"levelo://app?vid=1c7b1d0b-0d89-4429-8f9b-925fc523b2ca"},"vehicle_type_id":"4","last_reported":1748423463,"current_range_meters":7200,"station_id":"ce4bhbp2rcd13ifvqerg","pricing_plan_id":"cebpf4jnsgd1na2vs0mg"},{"bike_id":"5a0d115a-48ee-43cd-8172-1c0817ce7d9f","system_id":"levelo_inurba_marseille","lat":43.28359,"lon":5.38638,"is_reserved":false,"is_disabled":false,"rental_uris":{"android":"levelo://app?vid=5a0d115a-48ee-43cd-8172-1c0817ce7d9f","ios":"levelo://app?vid=5a0d115a-48ee-43cd-8172-1c0817ce7d9f"},"vehicle_type_id":"4","last_reported":1748423463,"current_range_meters":7200,"station_id":"ce4bh492rcd13ifvqdvg","pricing_plan_id":"cebpf4jnsgd1na2vs0mg"},{"bike_id":"47c28cc5-aa5e-409a-b951-060c049f003e","system_id":"levelo_inurba_marseille","lat":43.26568,"lon":5.39005,"is_reserved":false,"is_disabled":false,"rental_uris":{"android":"levelo://app?vid=47c28cc5-aa5e-409a-b951-060c049f003e","ios":"levelo://app?vid=47c28cc5-aa5e-409a-b951-060c049f003e"},"vehicle_type_id":"4","last_reported":1748423463,"current_range_meters":7200,"station_id":"ce4bhe12rcd13ifvqf30","pricing_plan_id":"cebpf4jnsgd1na2vs0mg"},{"bike_id":"26b8985f-13c2-48a3-a063-6799853d6989","system_id":"levelo_inurba_marseille","lat":43.30929,"lon":5.36847,"is_reserved":false,"is_disabled":false,"rental_uris":{"android":"levelo://app?vid=26b8985f-13c2-48a3-a063-6799853d6989","ios":"levelo://app?vid=26b8985f-13c2-48a3-a063-6799853d6989"},"vehicle_type_id":"4","last_reported":1748423463,"current_range_meters":8000,"station_id":"ce4bgn92rcd13ifvqbvg","pricing_plan_id":"cebpf4jnsgd1na2vs0mg"},{"bike_id":"cab3602a-0bc3-479b-a557-ecf35411506f","system_id":"levelo_inurba_marseille","lat":43.3095,"lon":5.390455,"is_reserved":false,"is_disabled":false,"rental_uris":{"android":"levelo://app?vid=cab3602a-0bc3-479b-a557-ecf35411506f","ios":"levelo://app?vid=cab3602a-0bc3-479b-a557-ecf35411506f"},"vehicle_type_id":"4","last_reported":1748423463,"current_range_meters":8000,"station_id":"ce4bgup2rcd13ifvqco0","pricing_plan_id":"cebpf4jnsgd1na2vs0mg"},{"bike_id":"f1fc7d9d-c4b9-4792-a6dd-176994d380f7","system_id":"levelo_inurba_marseille","lat":43.33025,"lon":5.39052,"is_reserved":false,"is_disabled":false,"rental_uris":{"android":"levelo://app?vid=f1fc7d9d-c4b9-4792-a6dd-176994d380f7","ios":"levelo://app?vid=f1fc7d9d-c4b9-4792-a6dd-176994d380f7"},"vehicle_type_id":"4","last_reported":1748423463,"current_range_meters":8000,"station_id":"ce4bhr92rcd13ifvqhrg","pricing_plan_id":"cebpf4jnsgd1na2vs0mg"},{"bike_id":"1299cbc6-d4d8-46ad-9df9-f42fe3791396","system_id":"levelo_inurba_marseille","lat":43.25927,"lon":5.40845,"is_reserved":false,"is_disabled":false,"rental_uris":{"android":"levelo://app?vid=1299cbc6-d4d8-46ad-9df9-f42fe3791396","ios":"levelo://app?vid=1299cbc6-d4d8-46ad-9df9-f42fe3791396"},"vehicle_type_id":"4","last_reported":1748423463,"current_range_meters":8000,"station_id":"ce4bhm92rcd13ifvqglg","pricing_plan_id":"cebpf4jnsgd1na2vs0mg"},{"bike_id":"1f46cb97-d7ed-4f86-9342-b2c6bea37a62","system_id":"levelo_inurba_marseille","lat":43.26227,"lon":5.40445,"is_reserved":false,"is_disabled":false,"rental_uris":{"android":"levelo://app?vid=1f46cb97-d7ed-4f86-9342-b2c6bea37a62","ios":"levelo://app?vid=1f46cb97-d7ed-4f86-9342-b2c6bea37a62"},"vehicle_type_id":"4","last_reported":1748423463,"current_range_meters":8000,"station_id":"ce4bhmh2rcd13ifvqgmg","pricing_plan_id":"cebpf4jnsgd1na2vs0mg"},{"bike_id":"1cbe82fb-dc79-4fde-8a26-61d80405a644","system_id":"levelo_inurba_marseille","lat":43.28447,"lon":5.39205,"is_reserved":false,"is_disabled":false,"rental_uris":{"android":"levelo://app?vid=1cbe82fb-dc79-4fde-8a26-61d80405a644","ios":"levelo://app?vid=1cbe82fb-dc79-4fde-8a26-61d80405a644"},"vehicle_type_id":"4","last_reported":1748423463,"current_range_meters":8000,"station_id":"ce4bhoh2rcd13ifvqh5g","pricing_plan_id":"cebpf4jnsgd1na2vs0mg"},{"bike_id":"a3ac0e4d-492d-457a-8b5d-3ba549ed986d","system_id":"levelo_inurba_marseille","lat":43.2944,"lon":5.397502,"is_reserved":false,"is_disabled":true,"rental_uris":{"android":"levelo://app?vid=a3ac0e4d-492d-457a-8b5d-3ba549ed986d","ios":"levelo://app?vid=a3ac0e4d-492d-457a-8b5d-3ba549ed986d"},"vehicle_type_id":"4","last_reported":1748423463,"current_range_meters":8400,"station_id":"","pricing_plan_id":"cebpf4jnsgd1na2vs0mg"},{"bike_id":"31eb1c1c-c5a5-4f60-aaa0-7dd8c371696a","system_id":"levelo_inurba_marseille","lat":43.279483,"lon":5.41043,"is_reserved":false,"is_disabled":true,"rental_uris":{"android":"levelo://app?vid=31eb1c1c-c5a5-4f60-aaa0-7dd8c371696a","ios":"levelo://app?vid=31eb1c1c-c5a5-4f60-aaa0-7dd8c371696a"},"vehicle_type_id":"4","last_reported":1748423463,"current_range_meters":8400,"station_id":"ce4bhnp2rcd13ifvqh0g","pricing_plan_id":"cebpf4jnsgd1na2vs0mg"},{"bike_id":"50bf940f-deac-4a07-9325-7d7c9c2a5f73","system_id":"levelo_inurba_marseille","lat":43.25928,"lon":5.40903,"is_reserved":false,"is_disabled":false,"rental_uris":{"android":"levelo://app?vid=50bf940f-deac-4a07-9325-7d7c9c2a5f73","ios":"levelo://app?vid=50bf940f-deac-4a07-9325-7d7c9c2a5f73"},"vehicle_type_id":"4","last_reported":1748423463,"current_range_meters":8400,"station_id":"ce4bhm92rcd13ifvqglg","pricing_plan_id":"cebpf4jnsgd1na2vs0mg"},{"bike_id":"0b1e0258-912b-4b97-aec1-c45a4edb201c","system_id":"levelo_inurba_marseille","lat":43.24802,"lon":5.37456,"is_reserved":false,"is_disabled":false,"rental_uris":{"android":"levelo://app?vid=0b1e0258-912b-4b97-aec1-c45a4edb201c","ios":"levelo://app?vid=0b1e0258-912b-4b97-aec1-c45a4edb201c"},"vehicle_type_id":"4","last_reported":1748423463,"current_range_meters":8400,"station_id":"ce4bhgh2rcd13ifvqfb0","pricing_plan_id":"cebpf4jnsgd1na2vs0mg"},{"bike_id":"630e3090-df9f-4e61-a2d8-b2bbefd032a0","system_id":"levelo_inurba_marseille","lat":43.24612,"lon":5.39272,"is_reserved":false,"is_disabled":false,"rental_uris":{"android":"levelo://app?vid=630e3090-df9f-4e61-a2d8-b2bbefd032a0","ios":"levelo://app?vid=630e3090-df9f-4e61-a2d8-b2bbefd032a0"},"vehicle_type_id":"4","last_reported":1748423463,"current_range_meters":8400,"station_id":"","pricing_plan_id":"cebpf4jnsgd1na2vs0mg"},{"bike_id":"56e76a08-4992-4c27-aa02-94e7ae225e8b","system_id":"levelo_inurba_marseille","lat":43.28266,"lon":5.3506,"is_reserved":false,"is_disabled":false,"rental_uris":{"android":"levelo://app?vid=56e76a08-4992-4c27-aa02-94e7ae225e8b","ios":"levelo://app?vid=56e76a08-4992-4c27-aa02-94e7ae225e8b"},"vehicle_type_id":"4","last_reported":1748423463,"current_range_meters":8400,"station_id":"ce4bhbp2rcd13ifvqerg","pricing_plan_id":"cebpf4jnsgd1na2vs0mg"},{"bike_id":"10d3b10c-92de-4dcc-bd26-49019c4f970e","system_id":"levelo_inurba_marseille","lat":43.30952,"lon":5.39029,"is_reserved":false,"is_disabled":false,"rental_uris":{"android":"levelo://app?vid=10d3b10c-92de-4dcc-bd26-49019c4f970e","ios":"levelo://app?vid=10d3b10c-92de-4dcc-bd26-49019c4f970e"},"vehicle_type_id":"4","last_reported":1748423463,"current_range_meters":8400,"station_id":"ce4bgup2rcd13ifvqco0","pricing_plan_id":"cebpf4jnsgd1na2vs0mg"},{"bike_id":"30927dbe-06ff-412e-8206-a73de5dfafec","system_id":"levelo_inurba_marseille","lat":43.27362,"lon":5.36245,"is_reserved":false,"is_disabled":false,"rental_uris":{"android":"levelo://app?vid=30927dbe-06ff-412e-8206-a73de5dfafec","ios":"levelo://app?vid=30927dbe-06ff-412e-8206-a73de5dfafec"},"vehicle_type_id":"4","last_reported":1748423463,"current_range_meters":8400,"station_id":"ce4bhbh2rcd13ifvqeo0","pricing_plan_id":"cebpf4jnsgd1na2vs0mg"},{"bike_id":"25bfe24a-1443-4e67-abba-447745d72285","system_id":"levelo_inurba_marseille","lat":43.30211,"lon":5.39464,"is_reserved":false,"is_disabled":false,"rental_uris":{"android":"levelo://app?vid=25bfe24a-1443-4e67-abba-447745d72285","ios":"levelo://app?vid=25bfe24a-1443-4e67-abba-447745d72285"},"vehicle_type_id":"4","last_reported":1748423463,"current_range_meters":8400,"station_id":"ce4bh0p2rcd13ifvqd70","pricing_plan_id":"cebpf4jnsgd1na2vs0mg"},{"bike_id":"2a6840db-82a6-48d5-a9c3-77cf7dbd2249","system_id":"levelo_inurba_marseille","lat":43.25866,"lon":5.39895,"is_reserved":false,"is_disabled":false,"rental_uris":{"android":"levelo://app?vid=2a6840db-82a6-48d5-a9c3-77cf7dbd2249","ios":"levelo://app?vid=2a6840db-82a6-48d5-a9c3-77cf7dbd2249"},"vehicle_type_id":"4","last_reported":1748423463,"current_range_meters":8400,"station_id":"ce4bhl92rcd13ifvqghg","pricing_plan_id":"cebpf4jnsgd1na2vs0mg"},{"bike_id":"05df85d0-db73-419c-ae37-3810f0cddc7c","system_id":"levelo_inurba_marseille","lat":43.33036,"lon":5.39027,"is_reserved":false,"is_disabled":false,"rental_uris":{"android":"levelo://app?vid=05df85d0-db73-419c-ae37-3810f0cddc7c","ios":"levelo://app?vid=05df85d0-db73-419c-ae37-3810f0cddc7c"},"vehicle_type_id":"4","last_reported":1748423463,"current_range_meters":8400,"station_id":"ce4bhr92rcd13ifvqhrg","pricing_plan_id":"cebpf4jnsgd1na2vs0mg"},{"bike_id":"ce243f79-97e1-4d08-8264-3b8fc271bfb9","system_id":"levelo_inurba_marseille","lat":43.31304,"lon":5.36752,"is_reserved":false,"is_disabled":false,"rental_uris":{"android":"levelo://app?vid=ce243f79-97e1-4d08-8264-3b8fc271bfb9","ios":"levelo://app?vid=ce243f79-97e1-4d08-8264-3b8fc271bfb9"},"vehicle_type_id":"4","last_reported":1748423463,"current_range_meters":8400,"station_id":"","pricing_plan_id":"cebpf4jnsgd1na2vs0mg"},{"bike_id":"7a65e3be-209f-451a-8d0f-734d6f59b819","system_id":"levelo_inurba_marseille","lat":43.29549,"lon":5.39438,"is_reserved":false,"is_disabled":false,"rental_uris":{"android":"levelo://app?vid=7a65e3be-209f-451a-8d0f-734d6f59b819","ios":"levelo://app?vid=7a65e3be-209f-451a-8d0f-734d6f59b819"},"vehicle_type_id":"4","last_reported":1748423463,"current_range_meters":8800,"station_id":"ce4bh292rcd13ifvqdf0","pricing_plan_id":"cebpf4jnsgd1na2vs0mg"},{"bike_id":"a3a1e2f8-c082-4657-9cf8-ceb282e14a71","system_id":"levelo_inurba_marseille","lat":43.231801,"lon":5.399988,"is_reserved":false,"is_disabled":false,"rental_uris":{"android":"levelo://app?vid=a3a1e2f8-c082-4657-9cf8-ceb282e14a71","ios":"levelo://app?vid=a3a1e2f8-c082-4657-9cf8-ceb282e14a71"},"vehicle_type_id":"4","last_reported":1748423463,"current_range_meters":8800,"station_id":"ce4bhn12rcd13ifvqgqg","pricing_plan_id":"cebpf4jnsgd1na2vs0mg"},{"bike_id":"3e119d5e-b512-4cf4-9e36-46505342d914","system_id":"levelo_inurba_marseille","lat":43.30139,"lon":5.3742,"is_reserved":false,"is_disabled":false,"rental_uris":{"android":"levelo://app?vid=3e119d5e-b512-4cf4-9e36-46505342d914","ios":"levelo://app?vid=3e119d5e-b512-4cf4-9e36-46505342d914"},"vehicle_type_id":"4","last_reported":1748423463,"current_range_meters":8800,"station_id":"ce4bgs92rcd13ifvqcc0","pricing_plan_id":"cebpf4jnsgd1na2vs0mg"},{"bike_id":"2dd60c84-4a09-4628-b902-58bf35f92376","system_id":"levelo_inurba_marseille","lat":43.23145,"lon":5.4372,"is_reserved":false,"is_disabled":false,"rental_uris":{"android":"levelo://app?vid=2dd60c84-4a09-4628-b902-58bf35f92376","ios":"levelo://app?vid=2dd60c84-4a09-4628-b902-58bf35f92376"},"vehicle_type_id":"4","last_reported":1748423463,"current_range_meters":8800,"station_id":"ce4bhmp2rcd13ifvqgog","pricing_plan_id":"cebpf4jnsgd1na2vs0mg"},{"bike_id":"c0ace1fb-ccc0-4ab4-b182-6d36f964f7dc","system_id":"levelo_inurba_marseille","lat":43.30544,"lon":5.36716,"is_reserved":false,"is_disabled":false,"rental_uris":{"android":"levelo://app?vid=c0ace1fb-ccc0-4ab4-b182-6d36f964f7dc","ios":"levelo://app?vid=c0ace1fb-ccc0-4ab4-b182-6d36f964f7dc"},"vehicle_type_id":"4","last_reported":1748423463,"current_range_meters":8800,"station_id":"ce4bgrp2rcd13ifvqc9g","pricing_plan_id":"cebpf4jnsgd1na2vs0mg"},{"bike_id":"1e2d6c9c-32db-4ed5-a7b3-709840a41b25","system_id":"levelo_inurba_marseille","lat":43.28266,"lon":5.35061,"is_reserved":false,"is_disabled":false,"rental_uris":{"android":"levelo://app?vid=1e2d6c9c-32db-4ed5-a7b3-709840a41b25","ios":"levelo://app?vid=1e2d6c9c-32db-4ed5-a7b3-709840a41b25"},"vehicle_type_id":"4","last_reported":1748423463,"current_range_meters":9200,"station_id":"ce4bhbp2rcd13ifvqerg","pricing_plan_id":"cebpf4jnsgd1na2vs0mg"},{"bike_id":"325d7668-c7fa-41b7-83a7-2228af3b0eda","system_id":"levelo_inurba_marseille","lat":43.28265,"lon":5.35065,"is_reserved":false,"is_disabled":false,"rental_uris":{"android":"levelo://app?vid=325d7668-c7fa-41b7-83a7-2228af3b0eda","ios":"levelo://app?vid=325d7668-c7fa-41b7-83a7-2228af3b0eda"},"vehicle_type_id":"4","last_reported":1748423463,"current_range_meters":9200,"station_id":"ce4bhbp2rcd13ifvqerg","pricing_plan_id":"cebpf4jnsgd1na2vs0mg"},{"bike_id":"c19f4746-a3bf-4cf9-8c31-62dd0e7752ba","system_id":"levelo_inurba_marseille","lat":43.274907,"lon":5.42454,"is_reserved":false,"is_disabled":false,"rental_uris":{"android":"levelo://app?vid=c19f4746-a3bf-4cf9-8c31-62dd0e7752ba","ios":"levelo://app?vid=c19f4746-a3bf-4cf9-8c31-62dd0e7752ba"},"vehicle_type_id":"4","last_reported":1748423463,"current_range_meters":9200,"station_id":"ce4bhn92rcd13ifvqgrg","pricing_plan_id":"cebpf4jnsgd1na2vs0mg"},{"bike_id":"054314d5-9d7c-4873-9494-4f42b2677fed","system_id":"levelo_inurba_marseille","lat":43.31701,"lon":5.40459,"is_reserved":false,"is_disabled":false,"rental_uris":{"android":"levelo://app?vid=054314d5-9d7c-4873-9494-4f42b2677fed","ios":"levelo://app?vid=054314d5-9d7c-4873-9494-4f42b2677fed"},"vehicle_type_id":"4","last_reported":1748423463,"current_range_meters":9600,"station_id":"ce4bh012rcd13ifvqd00","pricing_plan_id":"cebpf4jnsgd1na2vs0mg"},{"bike_id":"2924706f-8fc4-44c5-b6aa-deef67174bae","system_id":"levelo_inurba_marseille","lat":43.3014,"lon":5.37416,"is_reserved":false,"is_disabled":false,"rental_uris":{"android":"levelo://app?vid=2924706f-8fc4-44c5-b6aa-deef67174bae","ios":"levelo://app?vid=2924706f-8fc4-44c5-b6aa-deef67174bae"},"vehicle_type_id":"4","last_reported":1748423463,"current_range_meters":9600,"station_id":"ce4bgs92rcd13ifvqcc0","pricing_plan_id":"cebpf4jnsgd1na2vs0mg"},{"bike_id":"613983a6-9ee8-4a91-8419-1e2a4ce18b9d","system_id":"levelo_inurba_marseille","lat":43.31085,"lon":5.42427,"is_reserved":false,"is_disabled":false,"rental_uris":{"android":"levelo://app?vid=613983a6-9ee8-4a91-8419-1e2a4ce18b9d","ios":"levelo://app?vid=613983a6-9ee8-4a91-8419-1e2a4ce18b9d"},"vehicle_type_id":"4","last_reported":1748423463,"current_range_meters":9600,"station_id":"ce4bhp92rcd13ifvqhag","pricing_plan_id":"cebpf4jnsgd1na2vs0mg"},{"bike_id":"81fd252e-9aec-4d99-91d4-42e1c514a805","system_id":"levelo_inurba_marseille","lat":43.27498,"lon":5.42445,"is_reserved":false,"is_disabled":false,"rental_uris":{"android":"levelo://app?vid=81fd252e-9aec-4d99-91d4-42e1c514a805","ios":"levelo://app?vid=81fd252e-9aec-4d99-91d4-42e1c514a805"},"vehicle_type_id":"4","last_reported":1748423463,"current_range_meters":9600,"station_id":"ce4bhn92rcd13ifvqgrg","pricing_plan_id":"cebpf4jnsgd1na2vs0mg"},{"bike_id":"bf14e1fe-82a1-400f-bc30-6a2708d91c30","system_id":"levelo_inurba_marseille","lat":43.30454,"lon":5.37908,"is_reserved":false,"is_disabled":false,"rental_uris":{"android":"levelo://app?vid=bf14e1fe-82a1-400f-bc30-6a2708d91c30","ios":"levelo://app?vid=bf14e1fe-82a1-400f-bc30-6a2708d91c30"},"vehicle_type_id":"4","last_reported":1748423463,"current_range_meters":10000,"station_id":"ce4bgup2rcd13ifvqcn0","pricing_plan_id":"cebpf4jnsgd1na2vs0mg"},{"bike_id":"37255b40-15b6-40bc-b3ab-45ac6fc8ab2c","system_id":"levelo_inurba_marseille","lat":43.29565,"lon":5.37509,"is_reserved":false,"is_disabled":false,"rental_uris":{"android":"levelo://app?vid=37255b40-15b6-40bc-b3ab-45ac6fc8ab2c","ios":"levelo://app?vid=37255b40-15b6-40bc-b3ab-45ac6fc8ab2c"},"vehicle_type_id":"4","last_reported":1748423463,"current_range_meters":10000,"station_id":"ce4bgh92rcd13ifvqb50","pricing_plan_id":"cebpf4jnsgd1na2vs0mg"},{"bike_id":"12a09175-03bd-4689-9626-a2bf629ae6b2","system_id":"levelo_inurba_marseille","lat":43.25862,"lon":5.39902,"is_reserved":false,"is_disabled":false,"rental_uris":{"android":"levelo://app?vid=12a09175-03bd-4689-9626-a2bf629ae6b2","ios":"levelo://app?vid=12a09175-03bd-4689-9626-a2bf629ae6b2"},"vehicle_type_id":"4","last_reported":1748423463,"current_range_meters":10000,"station_id":"ce4bhl92rcd13ifvqghg","pricing_plan_id":"cebpf4jnsgd1na2vs0mg"},{"bike_id":"8df45a8d-3714-43c4-86ff-683eedca0b91","system_id":"levelo_inurba_marseille","lat":43.336067,"lon":5.410347,"is_reserved":false,"is_disabled":false,"rental_uris":{"android":"levelo://app?vid=8df45a8d-3714-43c4-86ff-683eedca0b91","ios":"levelo://app?vid=8df45a8d-3714-43c4-86ff-683eedca0b91"},"vehicle_type_id":"4","last_reported":1748423463,"current_range_meters":10000,"station_id":"ce4bhqh2rcd13ifvqhmg","pricing_plan_id":"cebpf4jnsgd1na2vs0mg"},{"bike_id":"8f6dd6d3-e0f8-4650-980d-96a59985b2f8","system_id":"levelo_inurba_marseille","lat":43.30912,"lon":5.36885,"is_reserved":false,"is_disabled":false,"rental_uris":{"android":"levelo://app?vid=8f6dd6d3-e0f8-4650-980d-96a59985b2f8","ios":"levelo://app?vid=8f6dd6d3-e0f8-4650-980d-96a59985b2f8"},"vehicle_type_id":"4","last_reported":1748423463,"current_range_meters":10000,"station_id":"ce4bgn92rcd13ifvqbvg","pricing_plan_id":"cebpf4jnsgd1na2vs0mg"},{"bike_id":"479a5524-2467-4aa1-b289-89eaaa271d2a","system_id":"levelo_inurba_marseille","lat":43.29567,"lon":5.37515,"is_reserved":false,"is_disabled":false,"rental_uris":{"android":"levelo://app?vid=479a5524-2467-4aa1-b289-89eaaa271d2a","ios":"levelo://app?vid=479a5524-2467-4aa1-b289-89eaaa271d2a"},"vehicle_type_id":"4","last_reported":1748423463,"current_range_meters":10000,"station_id":"ce4bgh92rcd13ifvqb50","pricing_plan_id":"cebpf4jnsgd1na2vs0mg"},{"bike_id":"d64481ab-cd92-4789-b3c3-100830d34711","system_id":"levelo_inurba_marseille","lat":43.30539,"lon":5.36536,"is_reserved":false,"is_disabled":false,"rental_uris":{"android":"levelo://app?vid=d64481ab-cd92-4789-b3c3-100830d34711","ios":"levelo://app?vid=d64481ab-cd92-4789-b3c3-100830d34711"},"vehicle_type_id":"4","last_reported":1748423463,"current_range_meters":10000,"station_id":"ce4bgs12rcd13ifvqcag","pricing_plan_id":"cebpf4jnsgd1na2vs0mg"},{"bike_id":"469bcd25-5d3e-4f4d-ad96-f9a5a7d2b10a","system_id":"levelo_inurba_marseille","lat":43.30543,"lon":5.3655,"is_reserved":false,"is_disabled":false,"rental_uris":{"android":"levelo://app?vid=469bcd25-5d3e-4f4d-ad96-f9a5a7d2b10a","ios":"levelo://app?vid=469bcd25-5d3e-4f4d-ad96-f9a5a7d2b10a"},"vehicle_type_id":"4","last_reported":1748423463,"current_range_meters":10000,"station_id":"ce4bgs12rcd13ifvqcag","pricing_plan_id":"cebpf4jnsgd1na2vs0mg"},{"bike_id":"f0ecbad3-5c56-4efa-84f0-9f2a84b7774d","system_id":"levelo_inurba_marseille","lat":43.322265,"lon":5.384385,"is_reserved":false,"is_disabled":false,"rental_uris":{"android":"levelo://app?vid=f0ecbad3-5c56-4efa-84f0-9f2a84b7774d","ios":"levelo://app?vid=f0ecbad3-5c56-4efa-84f0-9f2a84b7774d"},"vehicle_type_id":"4","last_reported":1748423463,"current_range_meters":10000,"station_id":"","pricing_plan_id":"cebpf4jnsgd1na2vs0mg"},{"bike_id":"54bede42-4556-43ec-9955-1b0479ea4c5a","system_id":"levelo_inurba_marseille","lat":43.286199,"lon":5.35075,"is_reserved":false,"is_disabled":false,"rental_uris":{"android":"levelo://app?vid=54bede42-4556-43ec-9955-1b0479ea4c5a","ios":"levelo://app?vid=54bede42-4556-43ec-9955-1b0479ea4c5a"},"vehicle_type_id":"4","last_reported":1748423463,"current_range_meters":10000,"station_id":"ce4bhch2rcd13ifvqeug","pricing_plan_id":"cebpf4jnsgd1na2vs0mg"},{"bike_id":"a15b2d3e-c90c-4694-a56c-7e8517e8333e","system_id":"levelo_inurba_marseille","lat":43.285729,"lon":5.39492,"is_reserved":false,"is_disabled":false,"rental_uris":{"android":"levelo://app?vid=a15b2d3e-c90c-4694-a56c-7e8517e8333e","ios":"levelo://app?vid=a15b2d3e-c90c-4694-a56c-7e8517e8333e"},"vehicle_type_id":"4","last_reported":1748423463,"current_range_meters":10000,"station_id":"ce4bh292rcd13ifvqdg0","pricing_plan_id":"cebpf4jnsgd1na2vs0mg"},{"bike_id":"3a9291f5-c477-4cee-b455-9884f22b3c92","system_id":"levelo_inurba_marseille","lat":43.29864,"lon":5.39754,"is_reserved":false,"is_disabled":false,"rental_uris":{"android":"levelo://app?vid=3a9291f5-c477-4cee-b455-9884f22b3c92","ios":"levelo://app?vid=3a9291f5-c477-4cee-b455-9884f22b3c92"},"vehicle_type_id":"4","last_reported":1748423463,"current_range_meters":10800,"station_id":"ce4bh0h2rcd13ifvqd50","pricing_plan_id":"cebpf4jnsgd1na2vs0mg"},{"bike_id":"3c56dcd8-9cf2-4351-9731-c84d974aac12","system_id":"levelo_inurba_marseille","lat":43.31235,"lon":5.3686,"is_reserved":false,"is_disabled":false,"rental_uris":{"android":"levelo://app?vid=3c56dcd8-9cf2-4351-9731-c84d974aac12","ios":"levelo://app?vid=3c56dcd8-9cf2-4351-9731-c84d974aac12"},"vehicle_type_id":"4","last_reported":1748423463,"current_range_meters":10800,"station_id":"ce4bgl92rcd13ifvqbq0","pricing_plan_id":"cebpf4jnsgd1na2vs0mg"},{"bike_id":"9ed94f34-a328-46fc-b201-bade39dda6d1","system_id":"levelo_inurba_marseille","lat":43.24999,"lon":5.38936,"is_reserved":false,"is_disabled":false,"rental_uris":{"android":"levelo://app?vid=9ed94f34-a328-46fc-b201-bade39dda6d1","ios":"levelo://app?vid=9ed94f34-a328-46fc-b201-bade39dda6d1"},"vehicle_type_id":"4","last_reported":1748423463,"current_range_meters":10800,"station_id":"ce4bhgp2rcd13ifvqfd0","pricing_plan_id":"cebpf4jnsgd1na2vs0mg"},{"bike_id":"0a0d3781-2f01-4226-bd26-9af790b36eed","system_id":"levelo_inurba_marseille","lat":43.24076,"lon":5.37757,"is_reserved":false,"is_disabled":false,"rental_uris":{"android":"levelo://app?vid=0a0d3781-2f01-4226-bd26-9af790b36eed","ios":"levelo://app?vid=0a0d3781-2f01-4226-bd26-9af790b36eed"},"vehicle_type_id":"4","last_reported":1748423463,"current_range_meters":10800,"station_id":"ce4bhnp2rcd13ifvqgvg","pricing_plan_id":"cebpf4jnsgd1na2vs0mg"},{"bike_id":"9e939973-959e-42d3-9763-8871175c8bc0","system_id":"levelo_inurba_marseille","lat":43.30603,"lon":5.37239,"is_reserved":false,"is_disabled":true,"rental_uris":{"android":"levelo://app?vid=9e939973-959e-42d3-9763-8871175c8bc0","ios":"levelo://app?vid=9e939973-959e-42d3-9763-8871175c8bc0"},"vehicle_type_id":"4","last_reported":1748423463,"current_range_meters":10800,"station_id":"ce4bgqh2rcd13ifvqc4g","pricing_plan_id":"cebpf4jnsgd1na2vs0mg"},{"bike_id":"817d2aef-09ff-4af1-abbf-7e0c48650725","system_id":"levelo_inurba_marseille","lat":43.29824,"lon":5.36285,"is_reserved":false,"is_disabled":false,"rental_uris":{"android":"levelo://app?vid=817d2aef-09ff-4af1-abbf-7e0c48650725","ios":"levelo://app?vid=817d2aef-09ff-4af1-abbf-7e0c48650725"},"vehicle_type_id":"4","last_reported":1748423463,"current_range_meters":10800,"station_id":"ce4bgpp2rcd13ifvqc3g","pricing_plan_id":"cebpf4jnsgd1na2vs0mg"},{"bike_id":"eb15b4a5-8f6e-4b56-a227-f68268c3a3de","system_id":"levelo_inurba_marseille","lat":43.30538,"lon":5.36544,"is_reserved":false,"is_disabled":false,"rental_uris":{"android":"levelo://app?vid=eb15b4a5-8f6e-4b56-a227-f68268c3a3de","ios":"levelo://app?vid=eb15b4a5-8f6e-4b56-a227-f68268c3a3de"},"vehicle_type_id":"4","last_reported":1748423463,"current_range_meters":10800,"station_id":"ce4bgs12rcd13ifvqcag","pricing_plan_id":"cebpf4jnsgd1na2vs0mg"},{"bike_id":"57d5abc9-476c-4e7b-955d-0e2f9fd7ea63","system_id":"levelo_inurba_marseille","lat":43.27052,"lon":5.4026,"is_reserved":false,"is_disabled":false,"rental_uris":{"android":"levelo://app?vid=57d5abc9-476c-4e7b-955d-0e2f9fd7ea63","ios":"levelo://app?vid=57d5abc9-476c-4e7b-955d-0e2f9fd7ea63"},"vehicle_type_id":"4","last_reported":1748423463,"current_range_meters":11200,"station_id":"ce4bhk92rcd13ifvqgc0","pricing_plan_id":"cebpf4jnsgd1na2vs0mg"},{"bike_id":"dd92dbbf-2f51-42b5-bf8d-cc2fe1edd6b4","system_id":"levelo_inurba_marseille","lat":43.3096,"lon":5.39041,"is_reserved":false,"is_disabled":true,"rental_uris":{"android":"levelo://app?vid=dd92dbbf-2f51-42b5-bf8d-cc2fe1edd6b4","ios":"levelo://app?vid=dd92dbbf-2f51-42b5-bf8d-cc2fe1edd6b4"},"vehicle_type_id":"4","last_reported":1748423463,"current_range_meters":11200,"station_id":"ce4bgup2rcd13ifvqco0","pricing_plan_id":"cebpf4jnsgd1na2vs0mg"},{"bike_id":"fd3b8926-9732-4665-beec-b59272be973b","system_id":"levelo_inurba_marseille","lat":43.311956,"lon":5.401896,"is_reserved":false,"is_disabled":false,"rental_uris":{"android":"levelo://app?vid=fd3b8926-9732-4665-beec-b59272be973b","ios":"levelo://app?vid=fd3b8926-9732-4665-beec-b59272be973b"},"vehicle_type_id":"4","last_reported":1748423463,"current_range_meters":11200,"station_id":"","pricing_plan_id":"cebpf4jnsgd1na2vs0mg"},{"bike_id":"69dc6148-e60b-429e-b783-caea0793c35b","system_id":"levelo_inurba_marseille","lat":43.284607,"lon":5.3588,"is_reserved":false,"is_disabled":false,"rental_uris":{"android":"levelo://app?vid=69dc6148-e60b-429e-b783-caea0793c35b","ios":"levelo://app?vid=69dc6148-e60b-429e-b783-caea0793c35b"},"vehicle_type_id":"4","last_reported":1748423463,"current_range_meters":11200,"station_id":"ce4bhah2rcd13ifvqei0","pricing_plan_id":"cebpf4jnsgd1na2vs0mg"},{"bike_id":"e40b21c9-91d9-46b2-95d4-6c86433e9bd7","system_id":"levelo_inurba_marseille","lat":43.27047,"lon":5.40262,"is_reserved":false,"is_disabled":false,"rental_uris":{"android":"levelo://app?vid=e40b21c9-91d9-46b2-95d4-6c86433e9bd7","ios":"levelo://app?vid=e40b21c9-91d9-46b2-95d4-6c86433e9bd7"},"vehicle_type_id":"4","last_reported":1748423463,"current_range_meters":11200,"station_id":"ce4bhk92rcd13ifvqgc0","pricing_plan_id":"cebpf4jnsgd1na2vs0mg"},{"bike_id":"46f1e1a2-421d-4288-9b19-22918bc7cc7f","system_id":"levelo_inurba_marseille","lat":43.23227,"lon":5.35548,"is_reserved":false,"is_disabled":false,"rental_uris":{"android":"levelo://app?vid=46f1e1a2-421d-4288-9b19-22918bc7cc7f","ios":"levelo://app?vid=46f1e1a2-421d-4288-9b19-22918bc7cc7f"},"vehicle_type_id":"4","last_reported":1748423463,"current_range_meters":11200,"station_id":"ce4bhu92rcd13ifvqi70","pricing_plan_id":"cebpf4jnsgd1na2vs0mg"},{"bike_id":"ff2e7846-d058-4f27-a097-2a3f45e7b4df","system_id":"levelo_inurba_marseille","lat":43.31121,"lon":5.36809,"is_reserved":false,"is_disabled":false,"rental_uris":{"android":"levelo://app?vid=ff2e7846-d058-4f27-a097-2a3f45e7b4df","ios":"levelo://app?vid=ff2e7846-d058-4f27-a097-2a3f45e7b4df"},"vehicle_type_id":"4","last_reported":1748423463,"current_range_meters":11200,"station_id":"ce4bgl92rcd13ifvqbq0","pricing_plan_id":"cebpf4jnsgd1na2vs0mg"},{"bike_id":"98377c28-6b3b-4163-9d34-1241df84d81a","system_id":"levelo_inurba_marseille","lat":43.30317,"lon":5.36909,"is_reserved":false,"is_disabled":false,"rental_uris":{"android":"levelo://app?vid=98377c28-6b3b-4163-9d34-1241df84d81a","ios":"levelo://app?vid=98377c28-6b3b-4163-9d34-1241df84d81a"},"vehicle_type_id":"4","last_reported":1748423463,"current_range_meters":11200,"station_id":"ce4bgqh2rcd13ifvqc5g","pricing_plan_id":"cebpf4jnsgd1na2vs0mg"},{"bike_id":"831a1e08-2f2d-4593-b9ab-a476b8afdcf5","system_id":"levelo_inurba_marseille","lat":43.2705,"lon":5.40275,"is_reserved":false,"is_disabled":false,"rental_uris":{"android":"levelo://app?vid=831a1e08-2f2d-4593-b9ab-a476b8afdcf5","ios":"levelo://app?vid=831a1e08-2f2d-4593-b9ab-a476b8afdcf5"},"vehicle_type_id":"4","last_reported":1748423463,"current_range_meters":11200,"station_id":"ce4bhk92rcd13ifvqgc0","pricing_plan_id":"cebpf4jnsgd1na2vs0mg"},{"bike_id":"5c1ec119-2384-46d6-856b-c17ee3b075f7","system_id":"levelo_inurba_marseille","lat":43.25938,"lon":5.40927,"is_reserved":false,"is_disabled":false,"rental_uris":{"android":"levelo://app?vid=5c1ec119-2384-46d6-856b-c17ee3b075f7","ios":"levelo://app?vid=5c1ec119-2384-46d6-856b-c17ee3b075f7"},"vehicle_type_id":"4","last_reported":1748423463,"current_range_meters":11600,"station_id":"ce4bhm92rcd13ifvqglg","pricing_plan_id":"cebpf4jnsgd1na2vs0mg"},{"bike_id":"04d43363-ff81-403c-bbca-b94708fa9e7f","system_id":"levelo_inurba_marseille","lat":43.25934,"lon":5.40903,"is_reserved":false,"is_disabled":false,"rental_uris":{"android":"levelo://app?vid=04d43363-ff81-403c-bbca-b94708fa9e7f","ios":"levelo://app?vid=04d43363-ff81-403c-bbca-b94708fa9e7f"},"vehicle_type_id":"4","last_reported":1748423463,"current_range_meters":11600,"station_id":"ce4bhm92rcd13ifvqglg","pricing_plan_id":"cebpf4jnsgd1na2vs0mg"},{"bike_id":"0bdc5070-5f26-4ca1-ac3d-7b77b08a6314","system_id":"levelo_inurba_marseille","lat":43.23146,"lon":5.43726,"is_reserved":false,"is_disabled":false,"rental_uris":{"android":"levelo://app?vid=0bdc5070-5f26-4ca1-ac3d-7b77b08a6314","ios":"levelo://app?vid=0bdc5070-5f26-4ca1-ac3d-7b77b08a6314"},"vehicle_type_id":"4","last_reported":1748423463,"current_range_meters":11600,"station_id":"ce4bhmp2rcd13ifvqgog","pricing_plan_id":"cebpf4jnsgd1na2vs0mg"},{"bike_id":"1d38d3c7-f215-4a5c-8484-826b21255536","system_id":"levelo_inurba_marseille","lat":43.30129,"lon":5.38782,"is_reserved":false,"is_disabled":false,"rental_uris":{"android":"levelo://app?vid=1d38d3c7-f215-4a5c-8484-826b21255536","ios":"levelo://app?vid=1d38d3c7-f215-4a5c-8484-826b21255536"},"vehicle_type_id":"4","last_reported":1748423463,"current_range_meters":11600,"station_id":"ce4bghh2rcd13ifvqb60","pricing_plan_id":"cebpf4jnsgd1na2vs0mg"},{"bike_id":"27b8534b-fc69-43fc-8e01-2d506e2a70e1","system_id":"levelo_inurba_marseille","lat":43.305535,"lon":5.36534,"is_reserved":false,"is_disabled":false,"rental_uris":{"android":"levelo://app?vid=27b8534b-fc69-43fc-8e01-2d506e2a70e1","ios":"levelo://app?vid=27b8534b-fc69-43fc-8e01-2d506e2a70e1"},"vehicle_type_id":"4","last_reported":1748423463,"current_range_meters":11600,"station_id":"ce4bgs12rcd13ifvqcag","pricing_plan_id":"cebpf4jnsgd1na2vs0mg"},{"bike_id":"a630f929-ff98-4f8c-bdb7-4f8480d804e9","system_id":"levelo_inurba_marseille","lat":43.26572,"lon":5.39004,"is_reserved":false,"is_disabled":false,"rental_uris":{"android":"levelo://app?vid=a630f929-ff98-4f8c-bdb7-4f8480d804e9","ios":"levelo://app?vid=a630f929-ff98-4f8c-bdb7-4f8480d804e9"},"vehicle_type_id":"4","last_reported":1748423463,"current_range_meters":12000,"station_id":"ce4bhe12rcd13ifvqf30","pricing_plan_id":"cebpf4jnsgd1na2vs0mg"},{"bike_id":"66ce27fa-93cf-4af2-b68b-f853af9cec83","system_id":"levelo_inurba_marseille","lat":43.295066,"lon":5.374448,"is_reserved":false,"is_disabled":false,"rental_uris":{"android":"levelo://app?vid=66ce27fa-93cf-4af2-b68b-f853af9cec83","ios":"levelo://app?vid=66ce27fa-93cf-4af2-b68b-f853af9cec83"},"vehicle_type_id":"4","last_reported":1748423463,"current_range_meters":12400,"station_id":"ce4bgh92rcd13ifvqb50","pricing_plan_id":"cebpf4jnsgd1na2vs0mg"},{"bike_id":"a9d7cedb-1bfb-477b-b70e-b0dbd3b1473e","system_id":"levelo_inurba_marseille","lat":43.24178,"lon":5.39724,"is_reserved":false,"is_disabled":false,"rental_uris":{"android":"levelo://app?vid=a9d7cedb-1bfb-477b-b70e-b0dbd3b1473e","ios":"levelo://app?vid=a9d7cedb-1bfb-477b-b70e-b0dbd3b1473e"},"vehicle_type_id":"4","last_reported":1748423463,"current_range_meters":12400,"station_id":"ce4bhn12rcd13ifvqgpg","pricing_plan_id":"cebpf4jnsgd1na2vs0mg"},{"bike_id":"25fe1924-4408-4709-a1de-804f3412a784","system_id":"levelo_inurba_marseille","lat":43.3134,"lon":5.36692,"is_reserved":false,"is_disabled":false,"rental_uris":{"android":"levelo://app?vid=25fe1924-4408-4709-a1de-804f3412a784","ios":"levelo://app?vid=25fe1924-4408-4709-a1de-804f3412a784"},"vehicle_type_id":"4","last_reported":1748423463,"current_range_meters":12400,"station_id":"ce4bgr92rcd13ifvqc6g","pricing_plan_id":"cebpf4jnsgd1na2vs0mg"},{"bike_id":"82ce16bd-fba8-4a5a-9a81-453c2b2434f3","system_id":"levelo_inurba_marseille","lat":43.26499,"lon":5.39552,"is_reserved":false,"is_disabled":false,"rental_uris":{"android":"levelo://app?vid=82ce16bd-fba8-4a5a-9a81-453c2b2434f3","ios":"levelo://app?vid=82ce16bd-fba8-4a5a-9a81-453c2b2434f3"},"vehicle_type_id":"4","last_reported":1748423463,"current_range_meters":12400,"station_id":"ce4bhi12rcd13ifvqfq0","pricing_plan_id":"cebpf4jnsgd1na2vs0mg"},{"bike_id":"44cfeecb-04c8-4253-880d-422c255383ef","system_id":"levelo_inurba_marseille","lat":43.30561,"lon":5.36534,"is_reserved":false,"is_disabled":false,"rental_uris":{"android":"levelo://app?vid=44cfeecb-04c8-4253-880d-422c255383ef","ios":"levelo://app?vid=44cfeecb-04c8-4253-880d-422c255383ef"},"vehicle_type_id":"4","last_reported":1748423463,"current_range_meters":12400,"station_id":"ce4bgs12rcd13ifvqcag","pricing_plan_id":"cebpf4jnsgd1na2vs0mg"},{"bike_id":"d6cddff4-df58-4a72-b485-e4ae983a8230","system_id":"levelo_inurba_marseille","lat":43.33021,"lon":5.39038,"is_reserved":false,"is_disabled":false,"rental_uris":{"android":"levelo://app?vid=d6cddff4-df58-4a72-b485-e4ae983a8230","ios":"levelo://app?vid=d6cddff4-df58-4a72-b485-e4ae983a8230"},"vehicle_type_id":"4","last_reported":1748423463,"current_range_meters":12400,"station_id":"ce4bhr92rcd13ifvqhrg","pricing_plan_id":"cebpf4jnsgd1na2vs0mg"},{"bike_id":"c05d129d-02ec-475b-8cd0-1a45a4e9edbd","system_id":"levelo_inurba_marseille","lat":43.3134,"lon":5.36717,"is_reserved":false,"is_disabled":false,"rental_uris":{"android":"levelo://app?vid=c05d129d-02ec-475b-8cd0-1a45a4e9edbd","ios":"levelo://app?vid=c05d129d-02ec-475b-8cd0-1a45a4e9edbd"},"vehicle_type_id":"4","last_reported":1748423463,"current_range_meters":12800,"station_id":"ce4bgr92rcd13ifvqc6g","pricing_plan_id":"cebpf4jnsgd1na2vs0mg"},{"bike_id":"c9b05085-74c3-43f2-a521-ac8c4d189cee","system_id":"levelo_inurba_marseille","lat":43.28263,"lon":5.35064,"is_reserved":false,"is_disabled":false,"rental_uris":{"android":"levelo://app?vid=c9b05085-74c3-43f2-a521-ac8c4d189cee","ios":"levelo://app?vid=c9b05085-74c3-43f2-a521-ac8c4d189cee"},"vehicle_type_id":"4","last_reported":1748423463,"current_range_meters":12800,"station_id":"ce4bhbp2rcd13ifvqerg","pricing_plan_id":"cebpf4jnsgd1na2vs0mg"},{"bike_id":"4038822b-b7b7-4578-8931-5a007f3945bd","system_id":"levelo_inurba_marseille","lat":43.30955,"lon":5.39051,"is_reserved":false,"is_disabled":true,"rental_uris":{"android":"levelo://app?vid=4038822b-b7b7-4578-8931-5a007f3945bd","ios":"levelo://app?vid=4038822b-b7b7-4578-8931-5a007f3945bd"},"vehicle_type_id":"4","last_reported":1748423463,"current_range_meters":12800,"station_id":"ce4bgup2rcd13ifvqco0","pricing_plan_id":"cebpf4jnsgd1na2vs0mg"},{"bike_id":"6e5e19a9-e40c-4fb1-bff4-825f885ffa82","system_id":"levelo_inurba_marseille","lat":43.27368,"lon":5.36252,"is_reserved":false,"is_disabled":false,"rental_uris":{"android":"levelo://app?vid=6e5e19a9-e40c-4fb1-bff4-825f885ffa82","ios":"levelo://app?vid=6e5e19a9-e40c-4fb1-bff4-825f885ffa82"},"vehicle_type_id":"4","last_reported":1748423463,"current_range_meters":12800,"station_id":"ce4bhbh2rcd13ifvqeo0","pricing_plan_id":"cebpf4jnsgd1na2vs0mg"},{"bike_id":"e736686f-625a-4d9a-a7d4-f55f37278fdb","system_id":"levelo_inurba_marseille","lat":43.294189,"lon":5.386133,"is_reserved":false,"is_disabled":true,"rental_uris":{"android":"levelo://app?vid=e736686f-625a-4d9a-a7d4-f55f37278fdb","ios":"levelo://app?vid=e736686f-625a-4d9a-a7d4-f55f37278fdb"},"vehicle_type_id":"4","last_reported":1748423463,"current_range_meters":12800,"station_id":"ce4bh2h2rcd13ifvqdh0","pricing_plan_id":"cebpf4jnsgd1na2vs0mg"},{"bike_id":"e119dd17-c349-495c-ae07-4f88db41994b","system_id":"levelo_inurba_marseille","lat":43.32373,"lon":5.36719,"is_reserved":false,"is_disabled":false,"rental_uris":{"android":"levelo://app?vid=e119dd17-c349-495c-ae07-4f88db41994b","ios":"levelo://app?vid=e119dd17-c349-495c-ae07-4f88db41994b"},"vehicle_type_id":"4","last_reported":1748423463,"current_range_meters":13600,"station_id":"ce4bhsh2rcd13ifvqi2g","pricing_plan_id":"cebpf4jnsgd1na2vs0mg"},{"bike_id":"5a1b33d7-e981-4fa6-8b32-7906e6204193","system_id":"levelo_inurba_marseille","lat":43.28433,"lon":5.39197,"is_reserved":false,"is_disabled":false,"rental_uris":{"android":"levelo://app?vid=5a1b33d7-e981-4fa6-8b32-7906e6204193","ios":"levelo://app?vid=5a1b33d7-e981-4fa6-8b32-7906e6204193"},"vehicle_type_id":"4","last_reported":1748423463,"current_range_meters":13600,"station_id":"ce4bhoh2rcd13ifvqh5g","pricing_plan_id":"cebpf4jnsgd1na2vs0mg"},{"bike_id":"1abdaf75-f262-423d-9b3f-033318b0b2bf","system_id":"levelo_inurba_marseille","lat":43.28267,"lon":5.35066,"is_reserved":false,"is_disabled":false,"rental_uris":{"android":"levelo://app?vid=1abdaf75-f262-423d-9b3f-033318b0b2bf","ios":"levelo://app?vid=1abdaf75-f262-423d-9b3f-033318b0b2bf"},"vehicle_type_id":"4","last_reported":1748423463,"current_range_meters":14000,"station_id":"ce4bhbp2rcd13ifvqerg","pricing_plan_id":"cebpf4jnsgd1na2vs0mg"},{"bike_id":"593e073c-8b9b-4069-ad38-8495ba0cc9ee","system_id":"levelo_inurba_marseille","lat":43.28936,"lon":5.36642,"is_reserved":false,"is_disabled":false,"rental_uris":{"android":"levelo://app?vid=593e073c-8b9b-4069-ad38-8495ba0cc9ee","ios":"levelo://app?vid=593e073c-8b9b-4069-ad38-8495ba0cc9ee"},"vehicle_type_id":"4","last_reported":1748423463,"current_range_meters":14000,"station_id":"ce4bhap2rcd13ifvqek0","pricing_plan_id":"cebpf4jnsgd1na2vs0mg"},{"bike_id":"041ac944-c333-4899-a965-7e9ac9b2e253","system_id":"levelo_inurba_marseille","lat":43.25933,"lon":5.40909,"is_reserved":false,"is_disabled":false,"rental_uris":{"android":"levelo://app?vid=041ac944-c333-4899-a965-7e9ac9b2e253","ios":"levelo://app?vid=041ac944-c333-4899-a965-7e9ac9b2e253"},"vehicle_type_id":"4","last_reported":1748423463,"current_range_meters":14000,"station_id":"ce4bhm92rcd13ifvqglg","pricing_plan_id":"cebpf4jnsgd1na2vs0mg"},{"bike_id":"54635bce-faa1-4993-90e6-78c7ecd6050a","system_id":"levelo_inurba_marseille","lat":43.30188,"lon":5.36594,"is_reserved":false,"is_disabled":false,"rental_uris":{"android":"levelo://app?vid=54635bce-faa1-4993-90e6-78c7ecd6050a","ios":"levelo://app?vid=54635bce-faa1-4993-90e6-78c7ecd6050a"},"vehicle_type_id":"4","last_reported":1748423463,"current_range_meters":14000,"station_id":"ce4bgrh2rcd13ifvqc8g","pricing_plan_id":"cebpf4jnsgd1na2vs0mg"},{"bike_id":"1fed5cf7-13b7-4dc4-814e-e55c1b74556e","system_id":"levelo_inurba_marseille","lat":43.29272,"lon":5.401127,"is_reserved":false,"is_disabled":true,"rental_uris":{"android":"levelo://app?vid=1fed5cf7-13b7-4dc4-814e-e55c1b74556e","ios":"levelo://app?vid=1fed5cf7-13b7-4dc4-814e-e55c1b74556e"},"vehicle_type_id":"4","last_reported":1748423463,"current_range_meters":14000,"station_id":"ce4bh312rcd13ifvqdk0","pricing_plan_id":"cebpf4jnsgd1na2vs0mg"},{"bike_id":"4dadd5ac-92f7-4cdd-8889-88fd89670188","system_id":"levelo_inurba_marseille","lat":43.30143,"lon":5.37422,"is_reserved":false,"is_disabled":false,"rental_uris":{"android":"levelo://app?vid=4dadd5ac-92f7-4cdd-8889-88fd89670188","ios":"levelo://app?vid=4dadd5ac-92f7-4cdd-8889-88fd89670188"},"vehicle_type_id":"4","last_reported":1748423463,"current_range_meters":14000,"station_id":"ce4bgs92rcd13ifvqcc0","pricing_plan_id":"cebpf4jnsgd1na2vs0mg"},{"bike_id":"472bc919-47fa-4cbe-a337-8af69d9263fe","system_id":"levelo_inurba_marseille","lat":43.23151,"lon":5.4371,"is_reserved":false,"is_disabled":false,"rental_uris":{"android":"levelo://app?vid=472bc919-47fa-4cbe-a337-8af69d9263fe","ios":"levelo://app?vid=472bc919-47fa-4cbe-a337-8af69d9263fe"},"vehicle_type_id":"4","last_reported":1748423463,"current_range_meters":14800,"station_id":"ce4bhmp2rcd13ifvqgog","pricing_plan_id":"cebpf4jnsgd1na2vs0mg"},{"bike_id":"a7ace688-cbe2-4019-94fa-a1ebc22f2017","system_id":"levelo_inurba_marseille","lat":43.24167,"lon":5.36398,"is_reserved":false,"is_disabled":true,"rental_uris":{"android":"levelo://app?vid=a7ace688-cbe2-4019-94fa-a1ebc22f2017","ios":"levelo://app?vid=a7ace688-cbe2-4019-94fa-a1ebc22f2017"},"vehicle_type_id":"4","last_reported":1748423463,"current_range_meters":14400,"station_id":"cpo36qri1sfpv3e86is0","pricing_plan_id":"cebpf4jnsgd1na2vs0mg"},{"bike_id":"8a8e761a-ee9d-4452-b949-ed6336e62ee9","system_id":"levelo_inurba_marseille","lat":43.31431,"lon":5.36645,"is_reserved":false,"is_disabled":false,"rental_uris":{"android":"levelo://app?vid=8a8e761a-ee9d-4452-b949-ed6336e62ee9","ios":"levelo://app?vid=8a8e761a-ee9d-4452-b949-ed6336e62ee9"},"vehicle_type_id":"4","last_reported":1748423463,"current_range_meters":14400,"station_id":"","pricing_plan_id":"cebpf4jnsgd1na2vs0mg"},{"bike_id":"a9c58f99-b262-422b-acc6-8cb6de4d8abf","system_id":"levelo_inurba_marseille","lat":43.29572,"lon":5.37494,"is_reserved":false,"is_disabled":false,"rental_uris":{"android":"levelo://app?vid=a9c58f99-b262-422b-acc6-8cb6de4d8abf","ios":"levelo://app?vid=a9c58f99-b262-422b-acc6-8cb6de4d8abf"},"vehicle_type_id":"4","last_reported":1748423463,"current_range_meters":14400,"station_id":"ce4bgh92rcd13ifvqb50","pricing_plan_id":"cebpf4jnsgd1na2vs0mg"},{"bike_id":"f60fe965-3d4b-4583-bf69-4087ccd60ef3","system_id":"levelo_inurba_marseille","lat":43.25951,"lon":5.40915,"is_reserved":false,"is_disabled":false,"rental_uris":{"android":"levelo://app?vid=f60fe965-3d4b-4583-bf69-4087ccd60ef3","ios":"levelo://app?vid=f60fe965-3d4b-4583-bf69-4087ccd60ef3"},"vehicle_type_id":"4","last_reported":1748423463,"current_range_meters":14400,"station_id":"ce4bhm92rcd13ifvqglg","pricing_plan_id":"cebpf4jnsgd1na2vs0mg"},{"bike_id":"72ac736a-1c4c-4b47-9c48-634dbae1fb52","system_id":"levelo_inurba_marseille","lat":43.26226,"lon":5.40447,"is_reserved":false,"is_disabled":false,"rental_uris":{"android":"levelo://app?vid=72ac736a-1c4c-4b47-9c48-634dbae1fb52","ios":"levelo://app?vid=72ac736a-1c4c-4b47-9c48-634dbae1fb52"},"vehicle_type_id":"4","last_reported":1748423463,"current_range_meters":14400,"station_id":"ce4bhmh2rcd13ifvqgmg","pricing_plan_id":"cebpf4jnsgd1na2vs0mg"},{"bike_id":"6601bc3f-6a6a-4a12-8875-5af1a6b3b6e9","system_id":"levelo_inurba_marseille","lat":43.293158,"lon":5.379669,"is_reserved":false,"is_disabled":false,"rental_uris":{"android":"levelo://app?vid=6601bc3f-6a6a-4a12-8875-5af1a6b3b6e9","ios":"levelo://app?vid=6601bc3f-6a6a-4a12-8875-5af1a6b3b6e9"},"vehicle_type_id":"4","last_reported":1748423463,"current_range_meters":14400,"station_id":"","pricing_plan_id":"cebpf4jnsgd1na2vs0mg"},{"bike_id":"7747b843-d8bb-4e22-aad8-abfae33c4aae","system_id":"levelo_inurba_marseille","lat":43.31549,"lon":5.38681,"is_reserved":false,"is_disabled":false,"rental_uris":{"android":"levelo://app?vid=7747b843-d8bb-4e22-aad8-abfae33c4aae","ios":"levelo://app?vid=7747b843-d8bb-4e22-aad8-abfae33c4aae"},"vehicle_type_id":"4","last_reported":1748423463,"current_range_meters":14400,"station_id":"","pricing_plan_id":"cebpf4jnsgd1na2vs0mg"},{"bike_id":"2482037b-00d9-4113-90a4-3a14dd9d4855","system_id":"levelo_inurba_marseille","lat":43.26232,"lon":5.38784,"is_reserved":false,"is_disabled":false,"rental_uris":{"android":"levelo://app?vid=2482037b-00d9-4113-90a4-3a14dd9d4855","ios":"levelo://app?vid=2482037b-00d9-4113-90a4-3a14dd9d4855"},"vehicle_type_id":"4","last_reported":1748423463,"current_range_meters":14800,"station_id":"","pricing_plan_id":"cebpf4jnsgd1na2vs0mg"},{"bike_id":"e782ca37-6405-42c7-aaa2-a2c2b0f97c12","system_id":"levelo_inurba_marseille","lat":43.24662,"lon":5.38163,"is_reserved":false,"is_disabled":false,"rental_uris":{"android":"levelo://app?vid=e782ca37-6405-42c7-aaa2-a2c2b0f97c12","ios":"levelo://app?vid=e782ca37-6405-42c7-aaa2-a2c2b0f97c12"},"vehicle_type_id":"4","last_reported":1748423463,"current_range_meters":14400,"station_id":"ce4bhih2rcd13ifvqfr0","pricing_plan_id":"cebpf4jnsgd1na2vs0mg"},{"bike_id":"349e7297-179d-46aa-af73-d0772f15795a","system_id":"levelo_inurba_marseille","lat":43.29981,"lon":5.38383,"is_reserved":false,"is_disabled":false,"rental_uris":{"android":"levelo://app?vid=349e7297-179d-46aa-af73-d0772f15795a","ios":"levelo://app?vid=349e7297-179d-46aa-af73-d0772f15795a"},"vehicle_type_id":"4","last_reported":1748423463,"current_range_meters":14800,"station_id":"","pricing_plan_id":"cebpf4jnsgd1na2vs0mg"},{"bike_id":"6ebb6dd7-e028-471a-a254-2363923c0cd9","system_id":"levelo_inurba_marseille","lat":43.32119,"lon":5.36776,"is_reserved":false,"is_disabled":false,"rental_uris":{"android":"levelo://app?vid=6ebb6dd7-e028-471a-a254-2363923c0cd9","ios":"levelo://app?vid=6ebb6dd7-e028-471a-a254-2363923c0cd9"},"vehicle_type_id":"4","last_reported":1748423463,"current_range_meters":14800,"station_id":"ce4bhrh2rcd13ifvqhug","pricing_plan_id":"cebpf4jnsgd1na2vs0mg"},{"bike_id":"4920cc9b-3024-4aaf-80ec-6e71f192aff9","system_id":"levelo_inurba_marseille","lat":43.30531,"lon":5.36701,"is_reserved":false,"is_disabled":false,"rental_uris":{"android":"levelo://app?vid=4920cc9b-3024-4aaf-80ec-6e71f192aff9","ios":"levelo://app?vid=4920cc9b-3024-4aaf-80ec-6e71f192aff9"},"vehicle_type_id":"4","last_reported":1748423463,"current_range_meters":14800,"station_id":"ce4bgrp2rcd13ifvqc9g","pricing_plan_id":"cebpf4jnsgd1na2vs0mg"},{"bike_id":"6c40f433-166f-4242-9b0e-e74b82e41af3","system_id":"levelo_inurba_marseille","lat":43.31102,"lon":5.377607,"is_reserved":false,"is_disabled":true,"rental_uris":{"android":"levelo://app?vid=6c40f433-166f-4242-9b0e-e74b82e41af3","ios":"levelo://app?vid=6c40f433-166f-4242-9b0e-e74b82e41af3"},"vehicle_type_id":"4","last_reported":1748423463,"current_range_meters":14800,"station_id":"ce4bgih2rcd13ifvqba0","pricing_plan_id":"cebpf4jnsgd1na2vs0mg"},{"bike_id":"9cf860cb-0e9a-4053-b3d8-33d9daba913c","system_id":"levelo_inurba_marseille","lat":43.30309,"lon":5.36898,"is_reserved":false,"is_disabled":false,"rental_uris":{"android":"levelo://app?vid=9cf860cb-0e9a-4053-b3d8-33d9daba913c","ios":"levelo://app?vid=9cf860cb-0e9a-4053-b3d8-33d9daba913c"},"vehicle_type_id":"4","last_reported":1748423463,"current_range_meters":15200,"station_id":"ce4bgqh2rcd13ifvqc5g","pricing_plan_id":"cebpf4jnsgd1na2vs0mg"},{"bike_id":"569f5c38-7fc1-4ed5-ac4c-20e43c610d58","system_id":"levelo_inurba_marseille","lat":43.31331,"lon":5.36723,"is_reserved":false,"is_disabled":false,"rental_uris":{"android":"levelo://app?vid=569f5c38-7fc1-4ed5-ac4c-20e43c610d58","ios":"levelo://app?vid=569f5c38-7fc1-4ed5-ac4c-20e43c610d58"},"vehicle_type_id":"4","last_reported":1748423463,"current_range_meters":15200,"station_id":"ce4bgr92rcd13ifvqc6g","pricing_plan_id":"cebpf4jnsgd1na2vs0mg"},{"bike_id":"798b4dd9-09fd-4939-a396-5d8278d045a8","system_id":"levelo_inurba_marseille","lat":43.2821,"lon":5.390639,"is_reserved":false,"is_disabled":false,"rental_uris":{"android":"levelo://app?vid=798b4dd9-09fd-4939-a396-5d8278d045a8","ios":"levelo://app?vid=798b4dd9-09fd-4939-a396-5d8278d045a8"},"vehicle_type_id":"4","last_reported":1748423463,"current_range_meters":15200,"station_id":"","pricing_plan_id":"cebpf4jnsgd1na2vs0mg"},{"bike_id":"490ed5f0-3647-41ec-8cf0-c7f83aca761f","system_id":"levelo_inurba_marseille","lat":43.31478,"lon":5.37307,"is_reserved":false,"is_disabled":false,"rental_uris":{"android":"levelo://app?vid=490ed5f0-3647-41ec-8cf0-c7f83aca761f","ios":"levelo://app?vid=490ed5f0-3647-41ec-8cf0-c7f83aca761f"},"vehicle_type_id":"4","last_reported":1748423463,"current_range_meters":15200,"station_id":"ce4bgt12rcd13ifvqcd0","pricing_plan_id":"cebpf4jnsgd1na2vs0mg"},{"bike_id":"88f0b25b-9fcb-4934-ae2a-80fd3f534b8a","system_id":"levelo_inurba_marseille","lat":43.301896,"lon":5.366015,"is_reserved":false,"is_disabled":false,"rental_uris":{"android":"levelo://app?vid=88f0b25b-9fcb-4934-ae2a-80fd3f534b8a","ios":"levelo://app?vid=88f0b25b-9fcb-4934-ae2a-80fd3f534b8a"},"vehicle_type_id":"4","last_reported":1748423463,"current_range_meters":15200,"station_id":"ce4bgrh2rcd13ifvqc8g","pricing_plan_id":"cebpf4jnsgd1na2vs0mg"},{"bike_id":"8bb868bb-70dd-44ec-ad53-2bb4fd29a0cd","system_id":"levelo_inurba_marseille","lat":43.29908,"lon":5.38133,"is_reserved":false,"is_disabled":false,"rental_uris":{"android":"levelo://app?vid=8bb868bb-70dd-44ec-ad53-2bb4fd29a0cd","ios":"levelo://app?vid=8bb868bb-70dd-44ec-ad53-2bb4fd29a0cd"},"vehicle_type_id":"4","last_reported":1748423463,"current_range_meters":15200,"station_id":"ce4bgj12rcd13ifvqbc0","pricing_plan_id":"cebpf4jnsgd1na2vs0mg"},{"bike_id":"3b07f020-3d8e-47eb-b723-de46e817e2a3","system_id":"levelo_inurba_marseille","lat":43.29756,"lon":5.38383,"is_reserved":false,"is_disabled":false,"rental_uris":{"android":"levelo://app?vid=3b07f020-3d8e-47eb-b723-de46e817e2a3","ios":"levelo://app?vid=3b07f020-3d8e-47eb-b723-de46e817e2a3"},"vehicle_type_id":"4","last_reported":1748423463,"current_range_meters":15200,"station_id":"","pricing_plan_id":"cebpf4jnsgd1na2vs0mg"},{"bike_id":"3865b0a2-6909-4ea2-b648-0ed5dd91b7a2","system_id":"levelo_inurba_marseille","lat":43.22531,"lon":5.34773,"is_reserved":false,"is_disabled":false,"rental_uris":{"android":"levelo://app?vid=3865b0a2-6909-4ea2-b648-0ed5dd91b7a2","ios":"levelo://app?vid=3865b0a2-6909-4ea2-b648-0ed5dd91b7a2"},"vehicle_type_id":"4","last_reported":1748423463,"current_range_meters":15200,"station_id":"","pricing_plan_id":"cebpf4jnsgd1na2vs0mg"},{"bike_id":"241def7b-e43a-498d-9234-9428cc3ad511","system_id":"levelo_inurba_marseille","lat":43.30465,"lon":5.37904,"is_reserved":false,"is_disabled":false,"rental_uris":{"android":"levelo://app?vid=241def7b-e43a-498d-9234-9428cc3ad511","ios":"levelo://app?vid=241def7b-e43a-498d-9234-9428cc3ad511"},"vehicle_type_id":"4","last_reported":1748423463,"current_range_meters":15200,"station_id":"ce4bgup2rcd13ifvqcn0","pricing_plan_id":"cebpf4jnsgd1na2vs0mg"},{"bike_id":"390f3513-6423-4700-8062-c22d5e88cd38","system_id":"levelo_inurba_marseille","lat":43.27375,"lon":5.36255,"is_reserved":false,"is_disabled":false,"rental_uris":{"android":"levelo://app?vid=390f3513-6423-4700-8062-c22d5e88cd38","ios":"levelo://app?vid=390f3513-6423-4700-8062-c22d5e88cd38"},"vehicle_type_id":"4","last_reported":1748423463,"current_range_meters":15200,"station_id":"ce4bhbh2rcd13ifvqeo0","pricing_plan_id":"cebpf4jnsgd1na2vs0mg"},{"bike_id":"89ec9972-15a1-4f07-a0e9-f6fbf2669fcf","system_id":"levelo_inurba_marseille","lat":43.2957,"lon":5.3752,"is_reserved":false,"is_disabled":false,"rental_uris":{"android":"levelo://app?vid=89ec9972-15a1-4f07-a0e9-f6fbf2669fcf","ios":"levelo://app?vid=89ec9972-15a1-4f07-a0e9-f6fbf2669fcf"},"vehicle_type_id":"4","last_reported":1748423463,"current_range_meters":16000,"station_id":"ce4bgh92rcd13ifvqb50","pricing_plan_id":"cebpf4jnsgd1na2vs0mg"},{"bike_id":"68227dac-909a-4d33-ae3c-675538fea8f9","system_id":"levelo_inurba_marseille","lat":43.29101,"lon":5.37156,"is_reserved":false,"is_disabled":false,"rental_uris":{"android":"levelo://app?vid=68227dac-909a-4d33-ae3c-675538fea8f9","ios":"levelo://app?vid=68227dac-909a-4d33-ae3c-675538fea8f9"},"vehicle_type_id":"4","last_reported":1748423463,"current_range_meters":16000,"station_id":"ce4bh5p2rcd13ifvqe4g","pricing_plan_id":"cebpf4jnsgd1na2vs0mg"},{"bike_id":"052bd2f1-6848-4fc6-9829-fd88b39d5681","system_id":"levelo_inurba_marseille","lat":43.29476,"lon":5.39756,"is_reserved":false,"is_disabled":true,"rental_uris":{"android":"levelo://app?vid=052bd2f1-6848-4fc6-9829-fd88b39d5681","ios":"levelo://app?vid=052bd2f1-6848-4fc6-9829-fd88b39d5681"},"vehicle_type_id":"4","last_reported":1748423463,"current_range_meters":16000,"station_id":"ce4bh3h2rcd13ifvqdo0","pricing_plan_id":"cebpf4jnsgd1na2vs0mg"},{"bike_id":"ef77543b-22de-44af-930a-38e7dfe2d4e6","system_id":"levelo_inurba_marseille","lat":43.23185,"lon":5.39996,"is_reserved":false,"is_disabled":false,"rental_uris":{"android":"levelo://app?vid=ef77543b-22de-44af-930a-38e7dfe2d4e6","ios":"levelo://app?vid=ef77543b-22de-44af-930a-38e7dfe2d4e6"},"vehicle_type_id":"4","last_reported":1748423463,"current_range_meters":16000,"station_id":"ce4bhn12rcd13ifvqgqg","pricing_plan_id":"cebpf4jnsgd1na2vs0mg"},{"bike_id":"311697f9-a087-4fb2-8ad7-11c912a1c2e4","system_id":"levelo_inurba_marseille","lat":43.337226,"lon":5.391811,"is_reserved":false,"is_disabled":false,"rental_uris":{"android":"levelo://app?vid=311697f9-a087-4fb2-8ad7-11c912a1c2e4","ios":"levelo://app?vid=311697f9-a087-4fb2-8ad7-11c912a1c2e4"},"vehicle_type_id":"4","last_reported":1748423463,"current_range_meters":16000,"station_id":"ce4bhr92rcd13ifvqhsg","pricing_plan_id":"cebpf4jnsgd1na2vs0mg"},{"bike_id":"01b822e6-d36d-4ef1-a1dd-37657c54904c","system_id":"levelo_inurba_marseille","lat":43.24178,"lon":5.39719,"is_reserved":false,"is_disabled":false,"rental_uris":{"android":"levelo://app?vid=01b822e6-d36d-4ef1-a1dd-37657c54904c","ios":"levelo://app?vid=01b822e6-d36d-4ef1-a1dd-37657c54904c"},"vehicle_type_id":"4","last_reported":1748423463,"current_range_meters":16000,"station_id":"ce4bhn12rcd13ifvqgpg","pricing_plan_id":"cebpf4jnsgd1na2vs0mg"},{"bike_id":"0773a580-f1fe-42b6-bd10-718e7ac7d61a","system_id":"levelo_inurba_marseille","lat":43.28355,"lon":5.38641,"is_reserved":false,"is_disabled":false,"rental_uris":{"android":"levelo://app?vid=0773a580-f1fe-42b6-bd10-718e7ac7d61a","ios":"levelo://app?vid=0773a580-f1fe-42b6-bd10-718e7ac7d61a"},"vehicle_type_id":"4","last_reported":1748423463,"current_range_meters":16000,"station_id":"ce4bh492rcd13ifvqdvg","pricing_plan_id":"cebpf4jnsgd1na2vs0mg"},{"bike_id":"1eaa6970-87e6-44cf-a0f8-48f9464afcf5","system_id":"levelo_inurba_marseille","lat":43.30485,"lon":5.37913,"is_reserved":false,"is_disabled":false,"rental_uris":{"android":"levelo://app?vid=1eaa6970-87e6-44cf-a0f8-48f9464afcf5","ios":"levelo://app?vid=1eaa6970-87e6-44cf-a0f8-48f9464afcf5"},"vehicle_type_id":"4","last_reported":1748423463,"current_range_meters":16000,"station_id":"ce4bgup2rcd13ifvqcn0","pricing_plan_id":"cebpf4jnsgd1na2vs0mg"},{"bike_id":"ea8b9ef2-72d0-4d80-ae6e-3fe817f908dd","system_id":"levelo_inurba_marseille","lat":43.28268,"lon":5.35065,"is_reserved":false,"is_disabled":false,"rental_uris":{"android":"levelo://app?vid=ea8b9ef2-72d0-4d80-ae6e-3fe817f908dd","ios":"levelo://app?vid=ea8b9ef2-72d0-4d80-ae6e-3fe817f908dd"},"vehicle_type_id":"4","last_reported":1748423463,"current_range_meters":16000,"station_id":"ce4bhbp2rcd13ifvqerg","pricing_plan_id":"cebpf4jnsgd1na2vs0mg"},{"bike_id":"7adbd369-f684-4c09-90a5-6bbf2f150346","system_id":"levelo_inurba_marseille","lat":43.3211,"lon":5.36739,"is_reserved":false,"is_disabled":false,"rental_uris":{"android":"levelo://app?vid=7adbd369-f684-4c09-90a5-6bbf2f150346","ios":"levelo://app?vid=7adbd369-f684-4c09-90a5-6bbf2f150346"},"vehicle_type_id":"4","last_reported":1748423463,"current_range_meters":16000,"station_id":"ce4bhrh2rcd13ifvqhug","pricing_plan_id":"cebpf4jnsgd1na2vs0mg"},{"bike_id":"eec255ab-7881-41de-a248-bdcd941fadb7","system_id":"levelo_inurba_marseille","lat":43.245437,"lon":5.39534,"is_reserved":false,"is_disabled":false,"rental_uris":{"android":"levelo://app?vid=eec255ab-7881-41de-a248-bdcd941fadb7","ios":"levelo://app?vid=eec255ab-7881-41de-a248-bdcd941fadb7"},"vehicle_type_id":"4","last_reported":1748423463,"current_range_meters":16000,"station_id":"ce4bhlp2rcd13ifvqgjg","pricing_plan_id":"cebpf4jnsgd1na2vs0mg"},{"bike_id":"efa934d0-6e83-4949-a13f-91a23a45aaa8","system_id":"levelo_inurba_marseille","lat":43.29316,"lon":5.37167,"is_reserved":false,"is_disabled":false,"rental_uris":{"android":"levelo://app?vid=efa934d0-6e83-4949-a13f-91a23a45aaa8","ios":"levelo://app?vid=efa934d0-6e83-4949-a13f-91a23a45aaa8"},"vehicle_type_id":"4","last_reported":1748423463,"current_range_meters":16000,"station_id":"ce4bgh92rcd13ifvqb40","pricing_plan_id":"cebpf4jnsgd1na2vs0mg"},{"bike_id":"da828e34-54b0-4c0c-929b-ec7e7e6d8a1d","system_id":"levelo_inurba_marseille","lat":43.29869,"lon":5.39737,"is_reserved":false,"is_disabled":false,"rental_uris":{"android":"levelo://app?vid=da828e34-54b0-4c0c-929b-ec7e7e6d8a1d","ios":"levelo://app?vid=da828e34-54b0-4c0c-929b-ec7e7e6d8a1d"},"vehicle_type_id":"4","last_reported":1748423463,"current_range_meters":16400,"station_id":"ce4bh0h2rcd13ifvqd50","pricing_plan_id":"cebpf4jnsgd1na2vs0mg"},{"bike_id":"fb882205-3206-46d8-93ad-8e668d86d590","system_id":"levelo_inurba_marseille","lat":43.24643,"lon":5.38188,"is_reserved":false,"is_disabled":false,"rental_uris":{"android":"levelo://app?vid=fb882205-3206-46d8-93ad-8e668d86d590","ios":"levelo://app?vid=fb882205-3206-46d8-93ad-8e668d86d590"},"vehicle_type_id":"4","last_reported":1748423463,"current_range_meters":16400,"station_id":"ce4bhih2rcd13ifvqfr0","pricing_plan_id":"cebpf4jnsgd1na2vs0mg"},{"bike_id":"33f48f82-876a-41ef-8a95-13953b48bc73","system_id":"levelo_inurba_marseille","lat":43.309523,"lon":5.390363,"is_reserved":false,"is_disabled":false,"rental_uris":{"android":"levelo://app?vid=33f48f82-876a-41ef-8a95-13953b48bc73","ios":"levelo://app?vid=33f48f82-876a-41ef-8a95-13953b48bc73"},"vehicle_type_id":"4","last_reported":1748423463,"current_range_meters":16400,"station_id":"ce4bgup2rcd13ifvqco0","pricing_plan_id":"cebpf4jnsgd1na2vs0mg"},{"bike_id":"9f067ec8-e90d-4864-8f2e-1e57ee69d6e7","system_id":"levelo_inurba_marseille","lat":43.31681,"lon":5.40469,"is_reserved":false,"is_disabled":false,"rental_uris":{"android":"levelo://app?vid=9f067ec8-e90d-4864-8f2e-1e57ee69d6e7","ios":"levelo://app?vid=9f067ec8-e90d-4864-8f2e-1e57ee69d6e7"},"vehicle_type_id":"4","last_reported":1748423463,"current_range_meters":16400,"station_id":"ce4bh012rcd13ifvqd00","pricing_plan_id":"cebpf4jnsgd1na2vs0mg"},{"bike_id":"90dbefee-4ee6-4041-a308-082e80136b0e","system_id":"levelo_inurba_marseille","lat":43.28608,"lon":5.351,"is_reserved":false,"is_disabled":false,"rental_uris":{"android":"levelo://app?vid=90dbefee-4ee6-4041-a308-082e80136b0e","ios":"levelo://app?vid=90dbefee-4ee6-4041-a308-082e80136b0e"},"vehicle_type_id":"4","last_reported":1748423463,"current_range_meters":16400,"station_id":"ce4bhch2rcd13ifvqeug","pricing_plan_id":"cebpf4jnsgd1na2vs0mg"},{"bike_id":"de0dd269-938e-4bc2-8a3a-c410f4c9418c","system_id":"levelo_inurba_marseille","lat":43.30464,"lon":5.37901,"is_reserved":false,"is_disabled":false,"rental_uris":{"android":"levelo://app?vid=de0dd269-938e-4bc2-8a3a-c410f4c9418c","ios":"levelo://app?vid=de0dd269-938e-4bc2-8a3a-c410f4c9418c"},"vehicle_type_id":"4","last_reported":1748423463,"current_range_meters":16400,"station_id":"ce4bgup2rcd13ifvqcn0","pricing_plan_id":"cebpf4jnsgd1na2vs0mg"},{"bike_id":"ff4dc2cc-f37b-4153-b851-bb940b7276b8","system_id":"levelo_inurba_marseille","lat":43.29306,"lon":5.37463,"is_reserved":false,"is_disabled":false,"rental_uris":{"android":"levelo://app?vid=ff4dc2cc-f37b-4153-b851-bb940b7276b8","ios":"levelo://app?vid=ff4dc2cc-f37b-4153-b851-bb940b7276b8"},"vehicle_type_id":"4","last_reported":1748423463,"current_range_meters":16000,"station_id":"ce4bgi12rcd13ifvqb70","pricing_plan_id":"cebpf4jnsgd1na2vs0mg"},{"bike_id":"0ad1909c-3e31-4339-93b1-e8cdec2e689f","system_id":"levelo_inurba_marseille","lat":43.33626,"lon":5.40966,"is_reserved":false,"is_disabled":false,"rental_uris":{"android":"levelo://app?vid=0ad1909c-3e31-4339-93b1-e8cdec2e689f","ios":"levelo://app?vid=0ad1909c-3e31-4339-93b1-e8cdec2e689f"},"vehicle_type_id":"4","last_reported":1748423463,"current_range_meters":16400,"station_id":"ce4bhqh2rcd13ifvqhmg","pricing_plan_id":"cebpf4jnsgd1na2vs0mg"},{"bike_id":"de257a1c-421c-4f6d-85d2-66f2b786d5ad","system_id":"levelo_inurba_marseille","lat":43.31217,"lon":5.36907,"is_reserved":false,"is_disabled":true,"rental_uris":{"android":"levelo://app?vid=de257a1c-421c-4f6d-85d2-66f2b786d5ad","ios":"levelo://app?vid=de257a1c-421c-4f6d-85d2-66f2b786d5ad"},"vehicle_type_id":"4","last_reported":1748423463,"current_range_meters":16400,"station_id":"ce4bgl92rcd13ifvqbq0","pricing_plan_id":"cebpf4jnsgd1na2vs0mg"},{"bike_id":"57316597-9a7e-4ecc-9b19-7bc22bad6c89","system_id":"levelo_inurba_marseille","lat":43.24544,"lon":5.39536,"is_reserved":false,"is_disabled":false,"rental_uris":{"android":"levelo://app?vid=57316597-9a7e-4ecc-9b19-7bc22bad6c89","ios":"levelo://app?vid=57316597-9a7e-4ecc-9b19-7bc22bad6c89"},"vehicle_type_id":"4","last_reported":1748423463,"current_range_meters":16400,"station_id":"ce4bhlp2rcd13ifvqgjg","pricing_plan_id":"cebpf4jnsgd1na2vs0mg"},{"bike_id":"f0f976ea-0a5e-4412-852f-b15746da6d43","system_id":"levelo_inurba_marseille","lat":43.303005,"lon":5.368931,"is_reserved":false,"is_disabled":false,"rental_uris":{"android":"levelo://app?vid=f0f976ea-0a5e-4412-852f-b15746da6d43","ios":"levelo://app?vid=f0f976ea-0a5e-4412-852f-b15746da6d43"},"vehicle_type_id":"4","last_reported":1748423463,"current_range_meters":16400,"station_id":"ce4bgqh2rcd13ifvqc5g","pricing_plan_id":"cebpf4jnsgd1na2vs0mg"},{"bike_id":"9d3121f7-7d63-490d-9253-26020e506e26","system_id":"levelo_inurba_marseille","lat":43.29851,"lon":5.39754,"is_reserved":false,"is_disabled":false,"rental_uris":{"android":"levelo://app?vid=9d3121f7-7d63-490d-9253-26020e506e26","ios":"levelo://app?vid=9d3121f7-7d63-490d-9253-26020e506e26"},"vehicle_type_id":"4","last_reported":1748423463,"current_range_meters":16400,"station_id":"ce4bh0h2rcd13ifvqd50","pricing_plan_id":"cebpf4jnsgd1na2vs0mg"},{"bike_id":"c318a54e-8dd7-4acd-b3ce-d6794d991a4d","system_id":"levelo_inurba_marseille","lat":43.28571,"lon":5.39504,"is_reserved":false,"is_disabled":false,"rental_uris":{"android":"levelo://app?vid=c318a54e-8dd7-4acd-b3ce-d6794d991a4d","ios":"levelo://app?vid=c318a54e-8dd7-4acd-b3ce-d6794d991a4d"},"vehicle_type_id":"4","last_reported":1748423463,"current_range_meters":16800,"station_id":"ce4bh292rcd13ifvqdg0","pricing_plan_id":"cebpf4jnsgd1na2vs0mg"},{"bike_id":"9f4589ea-c237-479e-893a-22a38813f6b1","system_id":"levelo_inurba_marseille","lat":43.33028,"lon":5.39037,"is_reserved":false,"is_disabled":false,"rental_uris":{"android":"levelo://app?vid=9f4589ea-c237-479e-893a-22a38813f6b1","ios":"levelo://app?vid=9f4589ea-c237-479e-893a-22a38813f6b1"},"vehicle_type_id":"4","last_reported":1748423463,"current_range_meters":16800,"station_id":"ce4bhr92rcd13ifvqhrg","pricing_plan_id":"cebpf4jnsgd1na2vs0mg"},{"bike_id":"b414e547-f204-4437-af11-325026a934f5","system_id":"levelo_inurba_marseille","lat":43.27056,"lon":5.40257,"is_reserved":false,"is_disabled":false,"rental_uris":{"android":"levelo://app?vid=b414e547-f204-4437-af11-325026a934f5","ios":"levelo://app?vid=b414e547-f204-4437-af11-325026a934f5"},"vehicle_type_id":"4","last_reported":1748423463,"current_range_meters":16800,"station_id":"ce4bhk92rcd13ifvqgc0","pricing_plan_id":"cebpf4jnsgd1na2vs0mg"},{"bike_id":"75eb12b1-db20-4885-b322-03c42bda2db2","system_id":"levelo_inurba_marseille","lat":43.27053,"lon":5.40254,"is_reserved":false,"is_disabled":false,"rental_uris":{"android":"levelo://app?vid=75eb12b1-db20-4885-b322-03c42bda2db2","ios":"levelo://app?vid=75eb12b1-db20-4885-b322-03c42bda2db2"},"vehicle_type_id":"4","last_reported":1748423463,"current_range_meters":16800,"station_id":"ce4bhk92rcd13ifvqgc0","pricing_plan_id":"cebpf4jnsgd1na2vs0mg"},{"bike_id":"b2e483d1-8417-49fc-b5d5-da2183f79552","system_id":"levelo_inurba_marseille","lat":43.21747,"lon":5.34596,"is_reserved":false,"is_disabled":false,"rental_uris":{"android":"levelo://app?vid=b2e483d1-8417-49fc-b5d5-da2183f79552","ios":"levelo://app?vid=b2e483d1-8417-49fc-b5d5-da2183f79552"},"vehicle_type_id":"4","last_reported":1748423463,"current_range_meters":16800,"station_id":"st_cvj6r9ubvosntc0bgbag","pricing_plan_id":"cebpf4jnsgd1na2vs0mg"},{"bike_id":"9f96c977-918e-4d59-937c-78e2d60493ee","system_id":"levelo_inurba_marseille","lat":43.27283,"lon":5.41036,"is_reserved":false,"is_disabled":false,"rental_uris":{"android":"levelo://app?vid=9f96c977-918e-4d59-937c-78e2d60493ee","ios":"levelo://app?vid=9f96c977-918e-4d59-937c-78e2d60493ee"},"vehicle_type_id":"4","last_reported":1748423463,"current_range_meters":16800,"station_id":"","pricing_plan_id":"cebpf4jnsgd1na2vs0mg"},{"bike_id":"f97a7ab2-edce-4b64-8e96-aecebeec33eb","system_id":"levelo_inurba_marseille","lat":43.29873,"lon":5.39732,"is_reserved":false,"is_disabled":false,"rental_uris":{"android":"levelo://app?vid=f97a7ab2-edce-4b64-8e96-aecebeec33eb","ios":"levelo://app?vid=f97a7ab2-edce-4b64-8e96-aecebeec33eb"},"vehicle_type_id":"4","last_reported":1748423463,"current_range_meters":16800,"station_id":"ce4bh0h2rcd13ifvqd50","pricing_plan_id":"cebpf4jnsgd1na2vs0mg"},{"bike_id":"db0c8ab0-b70e-4a0e-a90b-773b708de0de","system_id":"levelo_inurba_marseille","lat":43.2953,"lon":5.37497,"is_reserved":false,"is_disabled":true,"rental_uris":{"android":"levelo://app?vid=db0c8ab0-b70e-4a0e-a90b-773b708de0de","ios":"levelo://app?vid=db0c8ab0-b70e-4a0e-a90b-773b708de0de"},"vehicle_type_id":"4","last_reported":1748423463,"current_range_meters":16800,"station_id":"ce4bgkp2rcd13ifvqbmg","pricing_plan_id":"cebpf4jnsgd1na2vs0mg"},{"bike_id":"7c446326-f0fc-4f7e-8acf-bacf39509c17","system_id":"levelo_inurba_marseille","lat":43.29251,"lon":5.37606,"is_reserved":false,"is_disabled":false,"rental_uris":{"android":"levelo://app?vid=7c446326-f0fc-4f7e-8acf-bacf39509c17","ios":"levelo://app?vid=7c446326-f0fc-4f7e-8acf-bacf39509c17"},"vehicle_type_id":"4","last_reported":1748423463,"current_range_meters":16800,"station_id":"ce4bgi12rcd13ifvqb80","pricing_plan_id":"cebpf4jnsgd1na2vs0mg"},{"bike_id":"5575dfde-2c45-4a53-b989-21c54cc4aae5","system_id":"levelo_inurba_marseille","lat":43.25928,"lon":5.40913,"is_reserved":false,"is_disabled":false,"rental_uris":{"android":"levelo://app?vid=5575dfde-2c45-4a53-b989-21c54cc4aae5","ios":"levelo://app?vid=5575dfde-2c45-4a53-b989-21c54cc4aae5"},"vehicle_type_id":"4","last_reported":1748423463,"current_range_meters":17200,"station_id":"ce4bhm92rcd13ifvqglg","pricing_plan_id":"cebpf4jnsgd1na2vs0mg"},{"bike_id":"a55a4d3b-bee6-4f46-8fff-ea7b7c1b6695","system_id":"levelo_inurba_marseille","lat":43.272,"lon":5.39185,"is_reserved":false,"is_disabled":true,"rental_uris":{"android":"levelo://app?vid=a55a4d3b-bee6-4f46-8fff-ea7b7c1b6695","ios":"levelo://app?vid=a55a4d3b-bee6-4f46-8fff-ea7b7c1b6695"},"vehicle_type_id":"4","last_reported":1748423463,"current_range_meters":17200,"station_id":"ce4bhhp2rcd13ifvqfm0","pricing_plan_id":"cebpf4jnsgd1na2vs0mg"},{"bike_id":"f6d3bcd3-c151-4f58-b1ec-1780465d159f","system_id":"levelo_inurba_marseille","lat":43.298462,"lon":5.36285,"is_reserved":false,"is_disabled":false,"rental_uris":{"android":"levelo://app?vid=f6d3bcd3-c151-4f58-b1ec-1780465d159f","ios":"levelo://app?vid=f6d3bcd3-c151-4f58-b1ec-1780465d159f"},"vehicle_type_id":"4","last_reported":1748423463,"current_range_meters":17200,"station_id":"ce4bgpp2rcd13ifvqc3g","pricing_plan_id":"cebpf4jnsgd1na2vs0mg"},{"bike_id":"d1d03c3f-db17-49fd-b78c-5edf495f9a11","system_id":"levelo_inurba_marseille","lat":43.241761,"lon":5.397228,"is_reserved":false,"is_disabled":false,"rental_uris":{"android":"levelo://app?vid=d1d03c3f-db17-49fd-b78c-5edf495f9a11","ios":"levelo://app?vid=d1d03c3f-db17-49fd-b78c-5edf495f9a11"},"vehicle_type_id":"4","last_reported":1748423463,"current_range_meters":17200,"station_id":"ce4bhn12rcd13ifvqgpg","pricing_plan_id":"cebpf4jnsgd1na2vs0mg"},{"bike_id":"fdabacba-03d4-4143-8295-cf115e9b0c02","system_id":"levelo_inurba_marseille","lat":43.31666,"lon":5.38933,"is_reserved":false,"is_disabled":false,"rental_uris":{"android":"levelo://app?vid=fdabacba-03d4-4143-8295-cf115e9b0c02","ios":"levelo://app?vid=fdabacba-03d4-4143-8295-cf115e9b0c02"},"vehicle_type_id":"4","last_reported":1748423463,"current_range_meters":17200,"station_id":"","pricing_plan_id":"cebpf4jnsgd1na2vs0mg"},{"bike_id":"7b1adf5d-7801-4862-b0df-a50f7c42e9be","system_id":"levelo_inurba_marseille","lat":43.31095,"lon":5.42426,"is_reserved":false,"is_disabled":false,"rental_uris":{"android":"levelo://app?vid=7b1adf5d-7801-4862-b0df-a50f7c42e9be","ios":"levelo://app?vid=7b1adf5d-7801-4862-b0df-a50f7c42e9be"},"vehicle_type_id":"4","last_reported":1748423463,"current_range_meters":17200,"station_id":"ce4bhp92rcd13ifvqhag","pricing_plan_id":"cebpf4jnsgd1na2vs0mg"},{"bike_id":"f1dfc4b9-b140-44e5-998e-83156247cbb5","system_id":"levelo_inurba_marseille","lat":43.2175,"lon":5.34601,"is_reserved":false,"is_disabled":false,"rental_uris":{"android":"levelo://app?vid=f1dfc4b9-b140-44e5-998e-83156247cbb5","ios":"levelo://app?vid=f1dfc4b9-b140-44e5-998e-83156247cbb5"},"vehicle_type_id":"4","last_reported":1748423463,"current_range_meters":17200,"station_id":"","pricing_plan_id":"cebpf4jnsgd1na2vs0mg"},{"bike_id":"ca260ded-c7c2-47f8-8e09-8a74dcde0f9c","system_id":"levelo_inurba_marseille","lat":43.3235,"lon":5.38296,"is_reserved":false,"is_disabled":false,"rental_uris":{"android":"levelo://app?vid=ca260ded-c7c2-47f8-8e09-8a74dcde0f9c","ios":"levelo://app?vid=ca260ded-c7c2-47f8-8e09-8a74dcde0f9c"},"vehicle_type_id":"4","last_reported":1748423463,"current_range_meters":17200,"station_id":"","pricing_plan_id":"cebpf4jnsgd1na2vs0mg"},{"bike_id":"253a54c2-528e-4a2d-8b2b-c9de6760e94f","system_id":"levelo_inurba_marseille","lat":43.27953,"lon":5.38741,"is_reserved":false,"is_disabled":false,"rental_uris":{"android":"levelo://app?vid=253a54c2-528e-4a2d-8b2b-c9de6760e94f","ios":"levelo://app?vid=253a54c2-528e-4a2d-8b2b-c9de6760e94f"},"vehicle_type_id":"4","last_reported":1748423463,"current_range_meters":17200,"station_id":"ce4bhg12rcd13ifvqf80","pricing_plan_id":"cebpf4jnsgd1na2vs0mg"},{"bike_id":"908a4588-afc6-410a-9541-50e923d571d4","system_id":"levelo_inurba_marseille","lat":43.301902,"lon":5.366161,"is_reserved":false,"is_disabled":false,"rental_uris":{"android":"levelo://app?vid=908a4588-afc6-410a-9541-50e923d571d4","ios":"levelo://app?vid=908a4588-afc6-410a-9541-50e923d571d4"},"vehicle_type_id":"4","last_reported":1748423463,"current_range_meters":17600,"station_id":"ce4bgqh2rcd13ifvqc5g","pricing_plan_id":"cebpf4jnsgd1na2vs0mg"},{"bike_id":"79b90bfd-967a-4279-a02a-691b84307985","system_id":"levelo_inurba_marseille","lat":43.303076,"lon":5.369091,"is_reserved":false,"is_disabled":false,"rental_uris":{"android":"levelo://app?vid=79b90bfd-967a-4279-a02a-691b84307985","ios":"levelo://app?vid=79b90bfd-967a-4279-a02a-691b84307985"},"vehicle_type_id":"4","last_reported":1748423463,"current_range_meters":17600,"station_id":"ce4bgqh2rcd13ifvqc5g","pricing_plan_id":"cebpf4jnsgd1na2vs0mg"},{"bike_id":"adf8d08c-1d43-4f68-86f5-b38ccdc9a3d7","system_id":"levelo_inurba_marseille","lat":43.27486,"lon":5.42456,"is_reserved":false,"is_disabled":false,"rental_uris":{"android":"levelo://app?vid=adf8d08c-1d43-4f68-86f5-b38ccdc9a3d7","ios":"levelo://app?vid=adf8d08c-1d43-4f68-86f5-b38ccdc9a3d7"},"vehicle_type_id":"4","last_reported":1748423463,"current_range_meters":17600,"station_id":"ce4bhn92rcd13ifvqgrg","pricing_plan_id":"cebpf4jnsgd1na2vs0mg"},{"bike_id":"0ec86ca8-feb9-4cd5-a606-a06ea433e234","system_id":"levelo_inurba_marseille","lat":43.23149,"lon":5.43716,"is_reserved":false,"is_disabled":false,"rental_uris":{"android":"levelo://app?vid=0ec86ca8-feb9-4cd5-a606-a06ea433e234","ios":"levelo://app?vid=0ec86ca8-feb9-4cd5-a606-a06ea433e234"},"vehicle_type_id":"4","last_reported":1748423463,"current_range_meters":18000,"station_id":"ce4bhmp2rcd13ifvqgog","pricing_plan_id":"cebpf4jnsgd1na2vs0mg"},{"bike_id":"5209eeb7-f00f-4b3f-ba2f-c1fd7db1d768","system_id":"levelo_inurba_marseille","lat":43.26797,"lon":5.39422,"is_reserved":false,"is_disabled":false,"rental_uris":{"android":"levelo://app?vid=5209eeb7-f00f-4b3f-ba2f-c1fd7db1d768","ios":"levelo://app?vid=5209eeb7-f00f-4b3f-ba2f-c1fd7db1d768"},"vehicle_type_id":"4","last_reported":1748423463,"current_range_meters":17600,"station_id":"ce4bhh12rcd13ifvqfg0","pricing_plan_id":"cebpf4jnsgd1na2vs0mg"},{"bike_id":"a6f4aa26-901e-4ea0-8a63-67d0f2f9245f","system_id":"levelo_inurba_marseille","lat":43.3247,"lon":5.3656,"is_reserved":false,"is_disabled":false,"rental_uris":{"android":"levelo://app?vid=a6f4aa26-901e-4ea0-8a63-67d0f2f9245f","ios":"levelo://app?vid=a6f4aa26-901e-4ea0-8a63-67d0f2f9245f"},"vehicle_type_id":"4","last_reported":1748423463,"current_range_meters":17600,"station_id":"ce4bhs12rcd13ifvqhvg","pricing_plan_id":"cebpf4jnsgd1na2vs0mg"},{"bike_id":"b61fb568-ee40-4ff3-bdfc-6ccca9f4d7ec","system_id":"levelo_inurba_marseille","lat":43.2985,"lon":5.36274,"is_reserved":false,"is_disabled":false,"rental_uris":{"android":"levelo://app?vid=b61fb568-ee40-4ff3-bdfc-6ccca9f4d7ec","ios":"levelo://app?vid=b61fb568-ee40-4ff3-bdfc-6ccca9f4d7ec"},"vehicle_type_id":"4","last_reported":1748423463,"current_range_meters":17600,"station_id":"ce4bgpp2rcd13ifvqc3g","pricing_plan_id":"cebpf4jnsgd1na2vs0mg"},{"bike_id":"41ecb8f8-a11f-4cf6-805d-c469794d74d8","system_id":"levelo_inurba_marseille","lat":43.31388,"lon":5.36677,"is_reserved":false,"is_disabled":false,"rental_uris":{"android":"levelo://app?vid=41ecb8f8-a11f-4cf6-805d-c469794d74d8","ios":"levelo://app?vid=41ecb8f8-a11f-4cf6-805d-c469794d74d8"},"vehicle_type_id":"4","last_reported":1748423463,"current_range_meters":17600,"station_id":"ce4bgr92rcd13ifvqc6g","pricing_plan_id":"cebpf4jnsgd1na2vs0mg"},{"bike_id":"435d1a1f-35a7-45ad-ad6b-fa7767471b2e","system_id":"levelo_inurba_marseille","lat":43.330414,"lon":5.390408,"is_reserved":false,"is_disabled":false,"rental_uris":{"android":"levelo://app?vid=435d1a1f-35a7-45ad-ad6b-fa7767471b2e","ios":"levelo://app?vid=435d1a1f-35a7-45ad-ad6b-fa7767471b2e"},"vehicle_type_id":"4","last_reported":1748423463,"current_range_meters":17600,"station_id":"ce4bhr92rcd13ifvqhrg","pricing_plan_id":"cebpf4jnsgd1na2vs0mg"},{"bike_id":"18918d56-0ab0-4bca-b739-0945ea367e66","system_id":"levelo_inurba_marseille","lat":43.25886,"lon":5.40822,"is_reserved":false,"is_disabled":false,"rental_uris":{"android":"levelo://app?vid=18918d56-0ab0-4bca-b739-0945ea367e66","ios":"levelo://app?vid=18918d56-0ab0-4bca-b739-0945ea367e66"},"vehicle_type_id":"4","last_reported":1748423463,"current_range_meters":17600,"station_id":"","pricing_plan_id":"cebpf4jnsgd1na2vs0mg"},{"bike_id":"630d277c-082b-421f-b4b3-52c72b0c06ad","system_id":"levelo_inurba_marseille","lat":43.30952,"lon":5.39039,"is_reserved":false,"is_disabled":false,"rental_uris":{"android":"levelo://app?vid=630d277c-082b-421f-b4b3-52c72b0c06ad","ios":"levelo://app?vid=630d277c-082b-421f-b4b3-52c72b0c06ad"},"vehicle_type_id":"4","last_reported":1748423463,"current_range_meters":17600,"station_id":"ce4bgup2rcd13ifvqco0","pricing_plan_id":"cebpf4jnsgd1na2vs0mg"},{"bike_id":"1430871a-f5fa-4e72-b74f-054a54e1913f","system_id":"levelo_inurba_marseille","lat":43.27496,"lon":5.42453,"is_reserved":false,"is_disabled":false,"rental_uris":{"android":"levelo://app?vid=1430871a-f5fa-4e72-b74f-054a54e1913f","ios":"levelo://app?vid=1430871a-f5fa-4e72-b74f-054a54e1913f"},"vehicle_type_id":"4","last_reported":1748423463,"current_range_meters":18000,"station_id":"ce4bhn92rcd13ifvqgrg","pricing_plan_id":"cebpf4jnsgd1na2vs0mg"},{"bike_id":"d808b072-05d5-4290-808a-ef172b8d6ece","system_id":"levelo_inurba_marseille","lat":43.21748,"lon":5.34608,"is_reserved":false,"is_disabled":true,"rental_uris":{"android":"levelo://app?vid=d808b072-05d5-4290-808a-ef172b8d6ece","ios":"levelo://app?vid=d808b072-05d5-4290-808a-ef172b8d6ece"},"vehicle_type_id":"4","last_reported":1748423463,"current_range_meters":18000,"station_id":"st_cvj6r9ubvosntc0bgbag","pricing_plan_id":"cebpf4jnsgd1na2vs0mg"},{"bike_id":"e904e229-a1f2-420b-a816-82b838d01b78","system_id":"levelo_inurba_marseille","lat":43.28093,"lon":5.37844,"is_reserved":false,"is_disabled":true,"rental_uris":{"android":"levelo://app?vid=e904e229-a1f2-420b-a816-82b838d01b78","ios":"levelo://app?vid=e904e229-a1f2-420b-a816-82b838d01b78"},"vehicle_type_id":"4","last_reported":1748423463,"current_range_meters":18000,"station_id":"ce4bha12rcd13ifvqee0","pricing_plan_id":"cebpf4jnsgd1na2vs0mg"},{"bike_id":"925a20b4-eb21-4d69-a321-03637183500d","system_id":"levelo_inurba_marseille","lat":43.27042,"lon":5.40284,"is_reserved":false,"is_disabled":false,"rental_uris":{"android":"levelo://app?vid=925a20b4-eb21-4d69-a321-03637183500d","ios":"levelo://app?vid=925a20b4-eb21-4d69-a321-03637183500d"},"vehicle_type_id":"4","last_reported":1748423463,"current_range_meters":18000,"station_id":"ce4bhk92rcd13ifvqgc0","pricing_plan_id":"cebpf4jnsgd1na2vs0mg"},{"bike_id":"fedafb8d-be46-4c04-8644-5a3f13b6b1e2","system_id":"levelo_inurba_marseille","lat":43.259349,"lon":5.40903,"is_reserved":false,"is_disabled":false,"rental_uris":{"android":"levelo://app?vid=fedafb8d-be46-4c04-8644-5a3f13b6b1e2","ios":"levelo://app?vid=fedafb8d-be46-4c04-8644-5a3f13b6b1e2"},"vehicle_type_id":"4","last_reported":1748423463,"current_range_meters":18000,"station_id":"ce4bhm92rcd13ifvqglg","pricing_plan_id":"cebpf4jnsgd1na2vs0mg"},{"bike_id":"b2dfbdaa-759c-454e-a93c-ca4abcce02e1","system_id":"levelo_inurba_marseille","lat":43.21749,"lon":5.34593,"is_reserved":false,"is_disabled":false,"rental_uris":{"android":"levelo://app?vid=b2dfbdaa-759c-454e-a93c-ca4abcce02e1","ios":"levelo://app?vid=b2dfbdaa-759c-454e-a93c-ca4abcce02e1"},"vehicle_type_id":"4","last_reported":1748423463,"current_range_meters":18000,"station_id":"","pricing_plan_id":"cebpf4jnsgd1na2vs0mg"},