{"last_updated":1744402279,"ttl":60,"version":"2.2","data":{"bikes":[{"bike_id":"24b95d02-f2c2-44c8-8f9e-bc9d011027a5","system_id":"levelo_inurba_marseille","lat":43.29788,"lon":5.3934,"is_reserved":false,"is_disabled":false,"rental_uris":{"android":"levelo://app?vid=24b95d02-f2c2-44c8-8f9e-bc9d011027a5","ios":"levelo://app?vid=24b95d02-f2c2-44c8-8f9e-bc9d011027a5"},"vehicle_type_id":"4","last_reported":1744402279,"current_range_meters":2800,"station_id":"chh1huq6cuj3fo74tm60","pricing_plan_id":"cebpf4jnsgd1na2vs0mg"},{"bike_id":"a2f108d1-17f4-403a-9df9-f2d925ed8bc6","system_id":"levelo_inurba_marseille","lat":43.27854,"lon":5.39196,"is_reserved":false,"is_disabled":true,"rental_uris":{"android":"levelo://app?vid=a2f108d1-17f4-403a-9df9-f2d925ed8bc6","ios":"levelo://app?vid=a2f108d1-17f4-403a-9df9-f2d925ed8bc6"},"vehicle_type_id":"4","last_reported":1744402279,"current_range_meters":2800,"station_id":"ce4bhjp2rcd13ifvqga0","pricing_plan_id":"cebpf4jnsgd1na2vs0mg"},{"bike_id":"749c3587-166a-48f0-ab66-4806f0cd1a8a","system_id":"levelo_inurba_marseille","lat":43.303284,"lon":5.404286,"is_reserved":false,"is_disabled":false,"rental_uris":{"android":"levelo://app?vid=749c3587-166a-48f0-ab66-4806f0cd1a8a","ios":"levelo://app?vid=749c3587-166a-48f0-ab66-4806f0cd1a8a"},"vehicle_type_id":"4","last_reported":1744402279,"current_range_meters":2800,"station_id":"ce4bhb92rcd13ifvqen0","pricing_plan_id":"cebpf4jnsgd1na2vs0mg"},{"bike_id":"d5019bf5-cf0b-405f-813e-e064eb0ffb33","system_id":"levelo_inurba_marseille","lat":43.30545,"lon":5.3669,"is_reserved":false,"is_disabled":false,"rental_uris":{"android":"levelo://app?vid=d5019bf5-cf0b-405f-813e-e064eb0ffb33","ios":"levelo://app?vid=d5019bf5-cf0b-405f-813e-e064eb0ffb33"},"vehicle_type_id":"4","last_reported":1744402279,"current_range_meters":2800,"station_id":"ce4bgrp2rcd13ifvqc9g","pricing_plan_id":"cebpf4jnsgd1na2vs0mg"},{"bike_id":"16564bc5-3bf8-4cf2-8578-c06c667d7c17","system_id":"levelo_inurba_marseille","lat":43.2941,"lon":5.38626,"is_reserved":false,"is_disabled":false,"rental_uris":{"android":"levelo://app?vid=16564bc5-3bf8-4cf2-8578-c06c667d7c17","ios":"levelo://app?vid=16564bc5-3bf8-4cf2-8578-c06c667d7c17"},"vehicle_type_id":"4","last_reported":1744402279,"current_range_meters":1600,"station_id":"ce4bh2h2rcd13ifvqdh0","pricing_plan_id":"cebpf4jnsgd1na2vs0mg"},{"bike_id":"8876bb6f-718b-4e2b-a641-425e19acc0fc","system_id":"levelo_inurba_marseille","lat":43.27356,"lon":5.4216,"is_reserved":false,"is_disabled":false,"rental_uris":{"android":"levelo://app?vid=8876bb6f-718b-4e2b-a641-425e19acc0fc","ios":"levelo://app?vid=8876bb6f-718b-4e2b-a641-425e19acc0fc"},"vehicle_type_id":"4","last_reported":1744402279,"current_range_meters":2800,"station_id":"","pricing_plan_id":"cebpf4jnsgd1na2vs0mg"},{"bike_id":"e8108cdc-4a3b-4257-bc80-2607cf533fe4","system_id":"levelo_inurba_marseille","lat":43.272072,"lon":5.391791,"is_reserved":false,"is_disabled":false,"rental_uris":{"android":"levelo://app?vid=e8108cdc-4a3b-4257-bc80-2607cf533fe4","ios":"levelo://app?vid=e8108cdc-4a3b-4257-bc80-2607cf533fe4"},"vehicle_type_id":"4","last_reported":1744402279,"current_range_meters":3200,"station_id":"ce4bhhp2rcd13ifvqfm0","pricing_plan_id":"cebpf4jnsgd1na2vs0mg"},{"bike_id":"cf5b9f69-f62c-469a-9c4b-befe7ca438c6","system_id":"levelo_inurba_marseille","lat":43.27961,"lon":5.41711,"is_reserved":false,"is_disabled":true,"rental_uris":{"android":"levelo://app?vid=cf5b9f69-f62c-469a-9c4b-befe7ca438c6","ios":"levelo://app?vid=cf5b9f69-f62c-469a-9c4b-befe7ca438c6"},"vehicle_type_id":"4","last_reported":1744402279,"current_range_meters":3200,"station_id":"","pricing_plan_id":"cebpf4jnsgd1na2vs0mg"},{"bike_id":"b3d0094b-b0ec-4270-90ed-56652ba3feed","system_id":"levelo_inurba_marseille","lat":43.23308,"lon":5.36162,"is_reserved":false,"is_disabled":false,"rental_uris":{"android":"levelo://app?vid=b3d0094b-b0ec-4270-90ed-56652ba3feed","ios":"levelo://app?vid=b3d0094b-b0ec-4270-90ed-56652ba3feed"},"vehicle_type_id":"4","last_reported":1744402279,"current_range_meters":3200,"station_id":"","pricing_plan_id":"cebpf4jnsgd1na2vs0mg"},{"bike_id":"918370ff-77b7-43bf-bc3d-5d6cf320c03c","system_id":"levelo_inurba_marseille","lat":43.29273,"lon":5.40117,"is_reserved":false,"is_disabled":false,"rental_uris":{"android":"levelo://app?vid=918370ff-77b7-43bf-bc3d-5d6cf320c03c","ios":"levelo://app?vid=918370ff-77b7-43bf-bc3d-5d6cf320c03c"},"vehicle_type_id":"4","last_reported":1744402279,"current_range_meters":3200,"station_id":"ce4bh312rcd13ifvqdk0","pricing_plan_id":"cebpf4jnsgd1na2vs0mg"},{"bike_id":"b4762672-9864-416e-98ea-93f8b68de826","system_id":"levelo_inurba_marseille","lat":43.267791,"lon":5.394189,"is_reserved":false,"is_disabled":false,"rental_uris":{"android":"levelo://app?vid=b4762672-9864-416e-98ea-93f8b68de826","ios":"levelo://app?vid=b4762672-9864-416e-98ea-93f8b68de826"},"vehicle_type_id":"4","last_reported":1744402279,"current_range_meters":3200,"station_id":"ce4bhh12rcd13ifvqfg0","pricing_plan_id":"cebpf4jnsgd1na2vs0mg"},{"bike_id":"e171edc6-5af7-49b3-9dfc-f40ebdc3e3ca","system_id":"levelo_inurba_marseille","lat":43.292417,"lon":5.365841,"is_reserved":false,"is_disabled":false,"rental_uris":{"android":"levelo://app?vid=e171edc6-5af7-49b3-9dfc-f40ebdc3e3ca","ios":"levelo://app?vid=e171edc6-5af7-49b3-9dfc-f40ebdc3e3ca"},"vehicle_type_id":"4","last_reported":1744402279,"current_range_meters":3200,"station_id":"ce4bgi12rcd13ifvqb70","pricing_plan_id":"cebpf4jnsgd1na2vs0mg"},{"bike_id":"392f53ad-e8dc-49ed-9f1a-c92f9bc3d277","system_id":"levelo_inurba_marseille","lat":43.29236,"lon":5.40166,"is_reserved":false,"is_disabled":false,"rental_uris":{"android":"levelo://app?vid=392f53ad-e8dc-49ed-9f1a-c92f9bc3d277","ios":"levelo://app?vid=392f53ad-e8dc-49ed-9f1a-c92f9bc3d277"},"vehicle_type_id":"4","last_reported":1744402279,"current_range_meters":3600,"station_id":"ce4bh312rcd13ifvqdk0","pricing_plan_id":"cebpf4jnsgd1na2vs0mg"},{"bike_id":"4d2611ae-c76b-4442-ba80-aa3be23699d8","system_id":"levelo_inurba_marseille","lat":43.272119,"lon":5.391794,"is_reserved":false,"is_disabled":false,"rental_uris":{"android":"levelo://app?vid=4d2611ae-c76b-4442-ba80-aa3be23699d8","ios":"levelo://app?vid=4d2611ae-c76b-4442-ba80-aa3be23699d8"},"vehicle_type_id":"4","last_reported":1744402279,"current_range_meters":3600,"station_id":"ce4bhhp2rcd13ifvqfm0","pricing_plan_id":"cebpf4jnsgd1na2vs0mg"},{"bike_id":"ceffaaa6-ccdb-49b9-84d0-c302879b3d0b","system_id":"levelo_inurba_marseille","lat":43.293,"lon":5.3744,"is_reserved":false,"is_disabled":false,"rental_uris":{"android":"levelo://app?vid=ceffaaa6-ccdb-49b9-84d0-c302879b3d0b","ios":"levelo://app?vid=ceffaaa6-ccdb-49b9-84d0-c302879b3d0b"},"vehicle_type_id":"4","last_reported":1744402279,"current_range_meters":4000,"station_id":"ce4bgi12rcd13ifvqb70","pricing_plan_id":"cebpf4jnsgd1na2vs0mg"},{"bike_id":"c1eba490-b391-4338-b22a-2a3c2b529cfb","system_id":"levelo_inurba_marseille","lat":43.298685,"lon":5.397356,"is_reserved":false,"is_disabled":false,"rental_uris":{"android":"levelo://app?vid=c1eba490-b391-4338-b22a-2a3c2b529cfb","ios":"levelo://app?vid=c1eba490-b391-4338-b22a-2a3c2b529cfb"},"vehicle_type_id":"4","last_reported":1744402279,"current_range_meters":3600,"station_id":"ce4bh0h2rcd13ifvqd50","pricing_plan_id":"cebpf4jnsgd1na2vs0mg"},{"bike_id":"b7624377-6aa1-42b2-92d8-6c4027d45707","system_id":"levelo_inurba_marseille","lat":43.292725,"lon":5.384353,"is_reserved":false,"is_disabled":false,"rental_uris":{"android":"levelo://app?vid=b7624377-6aa1-42b2-92d8-6c4027d45707","ios":"levelo://app?vid=b7624377-6aa1-42b2-92d8-6c4027d45707"},"vehicle_type_id":"4","last_reported":1744402279,"current_range_meters":3600,"station_id":"ce4bh692rcd13ifvqea0","pricing_plan_id":"cebpf4jnsgd1na2vs0mg"},{"bike_id":"5ca7125e-5611-472b-ad5e-9117a8435b67","system_id":"levelo_inurba_marseille","lat":43.29604,"lon":5.38111,"is_reserved":false,"is_disabled":false,"rental_uris":{"android":"levelo://app?vid=5ca7125e-5611-472b-ad5e-9117a8435b67","ios":"levelo://app?vid=5ca7125e-5611-472b-ad5e-9117a8435b67"},"vehicle_type_id":"4","last_reported":1744402279,"current_range_meters":3600,"station_id":"ce4bgl12rcd13ifvqbo0","pricing_plan_id":"cebpf4jnsgd1na2vs0mg"},{"bike_id":"0bee8d19-8e4c-4556-acbc-8fc1c0af0d53","system_id":"levelo_inurba_marseille","lat":43.29423,"lon":5.38617,"is_reserved":false,"is_disabled":false,"rental_uris":{"android":"levelo://app?vid=0bee8d19-8e4c-4556-acbc-8fc1c0af0d53","ios":"levelo://app?vid=0bee8d19-8e4c-4556-acbc-8fc1c0af0d53"},"vehicle_type_id":"4","last_reported":1744402279,"current_range_meters":3600,"station_id":"ce4bh2h2rcd13ifvqdh0","pricing_plan_id":"cebpf4jnsgd1na2vs0mg"},{"bike_id":"1851a16a-349e-4105-8869-bbafb3dcc726","system_id":"levelo_inurba_marseille","lat":43.29412,"lon":5.38606,"is_reserved":false,"is_disabled":false,"rental_uris":{"android":"levelo://app?vid=1851a16a-349e-4105-8869-bbafb3dcc726","ios":"levelo://app?vid=1851a16a-349e-4105-8869-bbafb3dcc726"},"vehicle_type_id":"4","last_reported":1744402279,"current_range_meters":3600,"station_id":"ce4bh2h2rcd13ifvqdh0","pricing_plan_id":"cebpf4jnsgd1na2vs0mg"},{"bike_id":"af1ff58d-50fe-4d97-8383-c1994eb23257","system_id":"levelo_inurba_marseille","lat":43.30899,"lon":5.36846,"is_reserved":false,"is_disabled":false,"rental_uris":{"android":"levelo://app?vid=af1ff58d-50fe-4d97-8383-c1994eb23257","ios":"levelo://app?vid=af1ff58d-50fe-4d97-8383-c1994eb23257"},"vehicle_type_id":"4","last_reported":1744402279,"current_range_meters":3200,"station_id":"ce4bgn92rcd13ifvqbvg","pricing_plan_id":"cebpf4jnsgd1na2vs0mg"},{"bike_id":"f013d591-cf71-4e4b-aaea-42b8b6448226","system_id":"levelo_inurba_marseille","lat":43.28944,"lon":5.3663,"is_reserved":false,"is_disabled":false,"rental_uris":{"android":"levelo://app?vid=f013d591-cf71-4e4b-aaea-42b8b6448226","ios":"levelo://app?vid=f013d591-cf71-4e4b-aaea-42b8b6448226"},"vehicle_type_id":"4","last_reported":1744402279,"current_range_meters":4000,"station_id":"ce4bh3h2rcd13ifvqdo0","pricing_plan_id":"cebpf4jnsgd1na2vs0mg"},{"bike_id":"651398ac-c70b-4ad0-95aa-14f7c75e7554","system_id":"levelo_inurba_marseille","lat":43.27973,"lon":5.41666,"is_reserved":false,"is_disabled":true,"rental_uris":{"android":"levelo://app?vid=651398ac-c70b-4ad0-95aa-14f7c75e7554","ios":"levelo://app?vid=651398ac-c70b-4ad0-95aa-14f7c75e7554"},"vehicle_type_id":"4","last_reported":1744402279,"current_range_meters":4000,"station_id":"ce4bho12rcd13ifvqh1g","pricing_plan_id":"cebpf4jnsgd1na2vs0mg"},{"bike_id":"1c58a324-22e0-4f7d-b86f-bf31df610213","system_id":"levelo_inurba_marseille","lat":43.3234,"lon":5.40618,"is_reserved":false,"is_disabled":false,"rental_uris":{"android":"levelo://app?vid=1c58a324-22e0-4f7d-b86f-bf31df610213","ios":"levelo://app?vid=1c58a324-22e0-4f7d-b86f-bf31df610213"},"vehicle_type_id":"4","last_reported":1744402279,"current_range_meters":4000,"station_id":"ce4bhq92rcd13ifvqhjg","pricing_plan_id":"cebpf4jnsgd1na2vs0mg"},{"bike_id":"343e7184-2e7a-486e-bb26-22f112358d00","system_id":"levelo_inurba_marseille","lat":43.29896,"lon":5.39773,"is_reserved":false,"is_disabled":false,"rental_uris":{"android":"levelo://app?vid=343e7184-2e7a-486e-bb26-22f112358d00","ios":"levelo://app?vid=343e7184-2e7a-486e-bb26-22f112358d00"},"vehicle_type_id":"4","last_reported":1744402279,"current_range_meters":4000,"station_id":"","pricing_plan_id":"cebpf4jnsgd1na2vs0mg"},{"bike_id":"3c54c24f-fd34-4b10-aad6-1f5e2748f340","system_id":"levelo_inurba_marseille","lat":43.30413,"lon":5.4128,"is_reserved":false,"is_disabled":false,"rental_uris":{"android":"levelo://app?vid=3c54c24f-fd34-4b10-aad6-1f5e2748f340","ios":"levelo://app?vid=3c54c24f-fd34-4b10-aad6-1f5e2748f340"},"vehicle_type_id":"4","last_reported":1744402279,"current_range_meters":4000,"station_id":"ce4bhop2rcd13ifvqh8g","pricing_plan_id":"cebpf4jnsgd1na2vs0mg"},{"bike_id":"9acb0c63-d119-4810-94aa-e306fdcee828","system_id":"levelo_inurba_marseille","lat":43.24158,"lon":5.36397,"is_reserved":false,"is_disabled":false,"rental_uris":{"android":"levelo://app?vid=9acb0c63-d119-4810-94aa-e306fdcee828","ios":"levelo://app?vid=9acb0c63-d119-4810-94aa-e306fdcee828"},"vehicle_type_id":"4","last_reported":1744402279,"current_range_meters":4400,"station_id":"cpo36qri1sfpv3e86is0","pricing_plan_id":"cebpf4jnsgd1na2vs0mg"},{"bike_id":"564e540a-3dbd-4f47-aa4e-409da38682fc","system_id":"levelo_inurba_marseille","lat":43.29093,"lon":5.38152,"is_reserved":false,"is_disabled":false,"rental_uris":{"android":"levelo://app?vid=564e540a-3dbd-4f47-aa4e-409da38682fc","ios":"levelo://app?vid=564e540a-3dbd-4f47-aa4e-409da38682fc"},"vehicle_type_id":"4","last_reported":1744402279,"current_range_meters":4400,"station_id":"ce4bh512rcd13ifvqe2g","pricing_plan_id":"cebpf4jnsgd1na2vs0mg"},{"bike_id":"e835c446-1ee4-4d39-9781-e61b25db9d4a","system_id":"levelo_inurba_marseille","lat":43.28564,"lon":5.39502,"is_reserved":false,"is_disabled":false,"rental_uris":{"android":"levelo://app?vid=e835c446-1ee4-4d39-9781-e61b25db9d4a","ios":"levelo://app?vid=e835c446-1ee4-4d39-9781-e61b25db9d4a"},"vehicle_type_id":"4","last_reported":1744402279,"current_range_meters":4400,"station_id":"ce4bh292rcd13ifvqdg0","pricing_plan_id":"cebpf4jnsgd1na2vs0mg"},{"bike_id":"888f2ccb-eb74-4f9a-a0ca-60b560909808","system_id":"levelo_inurba_marseille","lat":43.29413,"lon":5.38627,"is_reserved":false,"is_disabled":false,"rental_uris":{"android":"levelo://app?vid=888f2ccb-eb74-4f9a-a0ca-60b560909808","ios":"levelo://app?vid=888f2ccb-eb74-4f9a-a0ca-60b560909808"},"vehicle_type_id":"4","last_reported":1744402279,"current_range_meters":4400,"station_id":"ce4bh2h2rcd13ifvqdh0","pricing_plan_id":"cebpf4jnsgd1na2vs0mg"},{"bike_id":"88d99b2d-e118-4c68-8eaf-e7819193ec43","system_id":"levelo_inurba_marseille","lat":43.2319,"lon":5.39975,"is_reserved":false,"is_disabled":false,"rental_uris":{"android":"levelo://app?vid=88d99b2d-e118-4c68-8eaf-e7819193ec43","ios":"levelo://app?vid=88d99b2d-e118-4c68-8eaf-e7819193ec43"},"vehicle_type_id":"4","last_reported":1744402279,"current_range_meters":4400,"station_id":"ce4bhn12rcd13ifvqgqg","pricing_plan_id":"cebpf4jnsgd1na2vs0mg"},{"bike_id":"04ecc866-0d35-4a33-86d2-596c93c38445","system_id":"levelo_inurba_marseille","lat":43.30158,"lon":5.38093,"is_reserved":false,"is_disabled":false,"rental_uris":{"android":"levelo://app?vid=04ecc866-0d35-4a33-86d2-596c93c38445","ios":"levelo://app?vid=04ecc866-0d35-4a33-86d2-596c93c38445"},"vehicle_type_id":"4","last_reported":1744402279,"current_range_meters":4800,"station_id":"ce4bgjp2rcd13ifvqbh0","pricing_plan_id":"cebpf4jnsgd1na2vs0mg"},{"bike_id":"15e3897a-cece-423b-8022-7c569361d30a","system_id":"levelo_inurba_marseille","lat":43.30541,"lon":5.36534,"is_reserved":false,"is_disabled":false,"rental_uris":{"android":"levelo://app?vid=15e3897a-cece-423b-8022-7c569361d30a","ios":"levelo://app?vid=15e3897a-cece-423b-8022-7c569361d30a"},"vehicle_type_id":"4","last_reported":1744402279,"current_range_meters":4800,"station_id":"ce4bgs12rcd13ifvqcag","pricing_plan_id":"cebpf4jnsgd1na2vs0mg"},{"bike_id":"631d4ec5-c979-4542-ba8c-e790077f65bf","system_id":"levelo_inurba_marseille","lat":43.30139,"lon":5.38766,"is_reserved":false,"is_disabled":false,"rental_uris":{"android":"levelo://app?vid=631d4ec5-c979-4542-ba8c-e790077f65bf","ios":"levelo://app?vid=631d4ec5-c979-4542-ba8c-e790077f65bf"},"vehicle_type_id":"4","last_reported":1744402279,"current_range_meters":5600,"station_id":"ce4bghh2rcd13ifvqb60","pricing_plan_id":"cebpf4jnsgd1na2vs0mg"},{"bike_id":"113afd11-9db6-47fb-bc1d-cd95f87b9983","system_id":"levelo_inurba_marseille","lat":43.27234,"lon":5.39191,"is_reserved":false,"is_disabled":false,"rental_uris":{"android":"levelo://app?vid=113afd11-9db6-47fb-bc1d-cd95f87b9983","ios":"levelo://app?vid=113afd11-9db6-47fb-bc1d-cd95f87b9983"},"vehicle_type_id":"4","last_reported":1744402279,"current_range_meters":5600,"station_id":"ce4bhhp2rcd13ifvqfm0","pricing_plan_id":"cebpf4jnsgd1na2vs0mg"},{"bike_id":"8f7b9a5c-d862-4371-a997-9c586fbe209c","system_id":"levelo_inurba_marseille","lat":43.289378,"lon":5.366401,"is_reserved":false,"is_disabled":false,"rental_uris":{"android":"levelo://app?vid=8f7b9a5c-d862-4371-a997-9c586fbe209c","ios":"levelo://app?vid=8f7b9a5c-d862-4371-a997-9c586fbe209c"},"vehicle_type_id":"4","last_reported":1744402279,"current_range_meters":5600,"station_id":"ce4bha12rcd13ifvqef0","pricing_plan_id":"cebpf4jnsgd1na2vs0mg"},{"bike_id":"dc41fa68-8653-498f-846c-bb8cf26f3daa","system_id":"levelo_inurba_marseille","lat":43.2807,"lon":5.3966,"is_reserved":false,"is_disabled":false,"rental_uris":{"android":"levelo://app?vid=dc41fa68-8653-498f-846c-bb8cf26f3daa","ios":"levelo://app?vid=dc41fa68-8653-498f-846c-bb8cf26f3daa"},"vehicle_type_id":"4","last_reported":1744402279,"current_range_meters":5600,"station_id":"ce4bho12rcd13ifvqh2g","pricing_plan_id":"cebpf4jnsgd1na2vs0mg"},{"bike_id":"507f5941-2f5a-4b8a-976e-e4e77ddf5051","system_id":"levelo_inurba_marseille","lat":43.30458,"lon":5.37902,"is_reserved":false,"is_disabled":false,"rental_uris":{"android":"levelo://app?vid=507f5941-2f5a-4b8a-976e-e4e77ddf5051","ios":"levelo://app?vid=507f5941-2f5a-4b8a-976e-e4e77ddf5051"},"vehicle_type_id":"4","last_reported":1744402279,"current_range_meters":5600,"station_id":"ce4bgup2rcd13ifvqcn0","pricing_plan_id":"cebpf4jnsgd1na2vs0mg"},{"bike_id":"2ed5c7d9-b9aa-4c00-9bd7-b49433b93362","system_id":"levelo_inurba_marseille","lat":43.29961,"lon":5.38499,"is_reserved":false,"is_disabled":false,"rental_uris":{"android":"levelo://app?vid=2ed5c7d9-b9aa-4c00-9bd7-b49433b93362","ios":"levelo://app?vid=2ed5c7d9-b9aa-4c00-9bd7-b49433b93362"},"vehicle_type_id":"4","last_reported":1744402279,"current_range_meters":5600,"station_id":"ce4bgj92rcd13ifvqbd0","pricing_plan_id":"cebpf4jnsgd1na2vs0mg"},{"bike_id":"33152505-c727-4231-a01f-f74add47508c","system_id":"levelo_inurba_marseille","lat":43.28656,"lon":5.36347,"is_reserved":false,"is_disabled":false,"rental_uris":{"android":"levelo://app?vid=33152505-c727-4231-a01f-f74add47508c","ios":"levelo://app?vid=33152505-c727-4231-a01f-f74add47508c"},"vehicle_type_id":"4","last_reported":1744402279,"current_range_meters":6000,"station_id":"ce4bhah2rcd13ifvqej0","pricing_plan_id":"cebpf4jnsgd1na2vs0mg"},{"bike_id":"1f1931dc-ca45-43df-bb99-8ca2d278bd56","system_id":"levelo_inurba_marseille","lat":43.24193,"lon":5.36386,"is_reserved":false,"is_disabled":false,"rental_uris":{"android":"levelo://app?vid=1f1931dc-ca45-43df-bb99-8ca2d278bd56","ios":"levelo://app?vid=1f1931dc-ca45-43df-bb99-8ca2d278bd56"},"vehicle_type_id":"4","last_reported":1744402279,"current_range_meters":6000,"station_id":"cpo36qri1sfpv3e86is0","pricing_plan_id":"cebpf4jnsgd1na2vs0mg"},{"bike_id":"199cce91-8920-43cf-b5c0-d540b7592375","system_id":"levelo_inurba_marseille","lat":43.29541,"lon":5.38538,"is_reserved":false,"is_disabled":false,"rental_uris":{"android":"levelo://app?vid=199cce91-8920-43cf-b5c0-d540b7592375","ios":"levelo://app?vid=199cce91-8920-43cf-b5c0-d540b7592375"},"vehicle_type_id":"4","last_reported":1744402279,"current_range_meters":6000,"station_id":"ce4bgih2rcd13ifvqba0","pricing_plan_id":"cebpf4jnsgd1na2vs0mg"},{"bike_id":"76624b63-c948-4621-9e44-12162d131d6e","system_id":"levelo_inurba_marseille","lat":43.29028,"lon":5.38634,"is_reserved":false,"is_disabled":false,"rental_uris":{"android":"levelo://app?vid=76624b63-c948-4621-9e44-12162d131d6e","ios":"levelo://app?vid=76624b63-c948-4621-9e44-12162d131d6e"},"vehicle_type_id":"4","last_reported":1744402279,"current_range_meters":6000,"station_id":"ce4bh4p2rcd13ifvqe0g","pricing_plan_id":"cebpf4jnsgd1na2vs0mg"},{"bike_id":"c49aed1a-1324-4637-8160-5b615d00ffc5","system_id":"levelo_inurba_marseille","lat":43.30646,"lon":5.40093,"is_reserved":false,"is_disabled":false,"rental_uris":{"android":"levelo://app?vid=c49aed1a-1324-4637-8160-5b615d00ffc5","ios":"levelo://app?vid=c49aed1a-1324-4637-8160-5b615d00ffc5"},"vehicle_type_id":"4","last_reported":1744402279,"current_range_meters":6000,"station_id":"ce4bh112rcd13ifvqda0","pricing_plan_id":"cebpf4jnsgd1na2vs0mg"},{"bike_id":"686fd76e-6673-40e8-995c-54d8f304cf67","system_id":"levelo_inurba_marseille","lat":43.30637,"lon":5.40086,"is_reserved":false,"is_disabled":false,"rental_uris":{"android":"levelo://app?vid=686fd76e-6673-40e8-995c-54d8f304cf67","ios":"levelo://app?vid=686fd76e-6673-40e8-995c-54d8f304cf67"},"vehicle_type_id":"4","last_reported":1744402279,"current_range_meters":6000,"station_id":"ce4bh112rcd13ifvqda0","pricing_plan_id":"cebpf4jnsgd1na2vs0mg"},{"bike_id":"4ff1679e-bc8e-4761-91df-0343ca65d83d","system_id":"levelo_inurba_marseille","lat":43.24815,"lon":5.37449,"is_reserved":false,"is_disabled":false,"rental_uris":{"android":"levelo://app?vid=4ff1679e-bc8e-4761-91df-0343ca65d83d","ios":"levelo://app?vid=4ff1679e-bc8e-4761-91df-0343ca65d83d"},"vehicle_type_id":"4","last_reported":1744402279,"current_range_meters":6400,"station_id":"ce4bhgh2rcd13ifvqfb0","pricing_plan_id":"cebpf4jnsgd1na2vs0mg"},{"bike_id":"0e4e57a8-94d5-42ec-8bc3-6a5a364dbfa1","system_id":"levelo_inurba_marseille","lat":43.260281,"lon":5.375499,"is_reserved":false,"is_disabled":false,"rental_uris":{"android":"levelo://app?vid=0e4e57a8-94d5-42ec-8bc3-6a5a364dbfa1","ios":"levelo://app?vid=0e4e57a8-94d5-42ec-8bc3-6a5a364dbfa1"},"vehicle_type_id":"4","last_reported":1744402279,"current_range_meters":6800,"station_id":"ce4bhbp2rcd13ifvqerg","pricing_plan_id":"cebpf4jnsgd1na2vs0mg"},{"bike_id":"32726013-757e-4d24-9225-04536f20d299","system_id":"levelo_inurba_marseille","lat":43.2619,"lon":5.3745,"is_reserved":false,"is_disabled":true,"rental_uris":{"android":"levelo://app?vid=32726013-757e-4d24-9225-04536f20d299","ios":"levelo://app?vid=32726013-757e-4d24-9225-04536f20d299"},"vehicle_type_id":"4","last_reported":1744402279,"current_range_meters":6800,"station_id":"ce4bhgp2rcd13ifvqfc0","pricing_plan_id":"cebpf4jnsgd1na2vs0mg"},{"bike_id":"6a42f3f4-6764-40c2-b436-a7fd626a5572","system_id":"levelo_inurba_marseille","lat":43.29719,"lon":5.36602,"is_reserved":false,"is_disabled":false,"rental_uris":{"android":"levelo://app?vid=6a42f3f4-6764-40c2-b436-a7fd626a5572","ios":"levelo://app?vid=6a42f3f4-6764-40c2-b436-a7fd626a5572"},"vehicle_type_id":"4","last_reported":1744402279,"current_range_meters":6800,"station_id":"ce4bgn12rcd13ifvqbt0","pricing_plan_id":"cebpf4jnsgd1na2vs0mg"},{"bike_id":"5e9ba0f6-dd02-4202-812d-3391578044b6","system_id":"levelo_inurba_marseille","lat":43.2962,"lon":5.40594,"is_reserved":false,"is_disabled":false,"rental_uris":{"android":"levelo://app?vid=5e9ba0f6-dd02-4202-812d-3391578044b6","ios":"levelo://app?vid=5e9ba0f6-dd02-4202-812d-3391578044b6"},"vehicle_type_id":"4","last_reported":1744402279,"current_range_meters":6800,"station_id":"ce4bh0h2rcd13ifvqd60","pricing_plan_id":"cebpf4jnsgd1na2vs0mg"},{"bike_id":"a7b22e2e-0c80-4693-ad23-d6caf4917341","system_id":"levelo_inurba_marseille","lat":43.30861,"lon":5.37326,"is_reserved":false,"is_disabled":false,"rental_uris":{"android":"levelo://app?vid=a7b22e2e-0c80-4693-ad23-d6caf4917341","ios":"levelo://app?vid=a7b22e2e-0c80-4693-ad23-d6caf4917341"},"vehicle_type_id":"4","last_reported":1744402279,"current_range_meters":6800,"station_id":"","pricing_plan_id":"cebpf4jnsgd1na2vs0mg"},{"bike_id":"774dcd00-0c06-4c32-a5df-a18149f91d08","system_id":"levelo_inurba_marseille","lat":43.32335,"lon":5.40629,"is_reserved":false,"is_disabled":false,"rental_uris":{"android":"levelo://app?vid=774dcd00-0c06-4c32-a5df-a18149f91d08","ios":"levelo://app?vid=774dcd00-0c06-4c32-a5df-a18149f91d08"},"vehicle_type_id":"4","last_reported":1744402279,"current_range_meters":6800,"station_id":"ce4bhq92rcd13ifvqhjg","pricing_plan_id":"cebpf4jnsgd1na2vs0mg"},{"bike_id":"9b124832-5aac-48fc-ab26-489a32057271","system_id":"levelo_inurba_marseille","lat":43.25482,"lon":5.37666,"is_reserved":false,"is_disabled":true,"rental_uris":{"android":"levelo://app?vid=9b124832-5aac-48fc-ab26-489a32057271","ios":"levelo://app?vid=9b124832-5aac-48fc-ab26-489a32057271"},"vehicle_type_id":"4","last_reported":1744402279,"current_range_meters":6800,"station_id":"ce4bhh12rcd13ifvqff0","pricing_plan_id":"cebpf4jnsgd1na2vs0mg"},{"bike_id":"4606669d-6c0a-4144-a056-b751a3804652","system_id":"levelo_inurba_marseille","lat":43.25491,"lon":5.37647,"is_reserved":false,"is_disabled":false,"rental_uris":{"android":"levelo://app?vid=4606669d-6c0a-4144-a056-b751a3804652","ios":"levelo://app?vid=4606669d-6c0a-4144-a056-b751a3804652"},"vehicle_type_id":"4","last_reported":1744402279,"current_range_meters":6800,"station_id":"ce4bhh12rcd13ifvqff0","pricing_plan_id":"cebpf4jnsgd1na2vs0mg"},{"bike_id":"73cd4812-0241-4f53-b2b0-065d37c86872","system_id":"levelo_inurba_marseille","lat":43.27806,"lon":5.40718,"is_reserved":false,"is_disabled":false,"rental_uris":{"android":"levelo://app?vid=73cd4812-0241-4f53-b2b0-065d37c86872","ios":"levelo://app?vid=73cd4812-0241-4f53-b2b0-065d37c86872"},"vehicle_type_id":"4","last_reported":1744402279,"current_range_meters":7200,"station_id":"ce4bhnh2rcd13ifvqgtg","pricing_plan_id":"cebpf4jnsgd1na2vs0mg"},{"bike_id":"481c4141-55c4-4fd6-9b54-e7357641d3e4","system_id":"levelo_inurba_marseille","lat":43.29402,"lon":5.38623,"is_reserved":false,"is_disabled":false,"rental_uris":{"android":"levelo://app?vid=481c4141-55c4-4fd6-9b54-e7357641d3e4","ios":"levelo://app?vid=481c4141-55c4-4fd6-9b54-e7357641d3e4"},"vehicle_type_id":"4","last_reported":1744402279,"current_range_meters":7200,"station_id":"ce4bh2h2rcd13ifvqdh0","pricing_plan_id":"cebpf4jnsgd1na2vs0mg"},{"bike_id":"5ebb2ac6-5b3a-4fce-a265-72912648d806","system_id":"levelo_inurba_marseille","lat":43.29268,"lon":5.38436,"is_reserved":false,"is_disabled":false,"rental_uris":{"android":"levelo://app?vid=5ebb2ac6-5b3a-4fce-a265-72912648d806","ios":"levelo://app?vid=5ebb2ac6-5b3a-4fce-a265-72912648d806"},"vehicle_type_id":"4","last_reported":1744402279,"current_range_meters":7200,"station_id":"ce4bh692rcd13ifvqea0","pricing_plan_id":"cebpf4jnsgd1na2vs0mg"},{"bike_id":"62c1f836-7b45-44f7-9721-a260943a8081","system_id":"levelo_inurba_marseille","lat":43.27495,"lon":5.42435,"is_reserved":false,"is_disabled":false,"rental_uris":{"android":"levelo://app?vid=62c1f836-7b45-44f7-9721-a260943a8081","ios":"levelo://app?vid=62c1f836-7b45-44f7-9721-a260943a8081"},"vehicle_type_id":"4","last_reported":1744402279,"current_range_meters":7200,"station_id":"ce4bhn92rcd13ifvqgrg","pricing_plan_id":"cebpf4jnsgd1na2vs0mg"},{"bike_id":"1bdd8366-9e0a-40a8-b156-b39046ba5505","system_id":"levelo_inurba_marseille","lat":43.30532,"lon":5.36714,"is_reserved":false,"is_disabled":false,"rental_uris":{"android":"levelo://app?vid=1bdd8366-9e0a-40a8-b156-b39046ba5505","ios":"levelo://app?vid=1bdd8366-9e0a-40a8-b156-b39046ba5505"},"vehicle_type_id":"4","last_reported":1744402279,"current_range_meters":7200,"station_id":"ce4bgrp2rcd13ifvqc9g","pricing_plan_id":"cebpf4jnsgd1na2vs0mg"},{"bike_id":"b3dfb2b2-c3e4-4cc3-aedd-b96d8a79bb3e","system_id":"levelo_inurba_marseille","lat":43.29247,"lon":5.38456,"is_reserved":false,"is_disabled":false,"rental_uris":{"android":"levelo://app?vid=b3dfb2b2-c3e4-4cc3-aedd-b96d8a79bb3e","ios":"levelo://app?vid=b3dfb2b2-c3e4-4cc3-aedd-b96d8a79bb3e"},"vehicle_type_id":"4","last_reported":1744402279,"current_range_meters":7200,"station_id":"ce4bh692rcd13ifvqea0","pricing_plan_id":"cebpf4jnsgd1na2vs0mg"},{"bike_id":"a8827283-5cb2-4c69-8f92-cabeabffb47c","system_id":"levelo_inurba_marseille","lat":43.24159,"lon":5.36396,"is_reserved":false,"is_disabled":false,"rental_uris":{"android":"levelo://app?vid=a8827283-5cb2-4c69-8f92-cabeabffb47c","ios":"levelo://app?vid=a8827283-5cb2-4c69-8f92-cabeabffb47c"},"vehicle_type_id":"4","last_reported":1744402279,"current_range_meters":7200,"station_id":"cpo36qri1sfpv3e86is0","pricing_plan_id":"cebpf4jnsgd1na2vs0mg"},{"bike_id":"8123ef15-3aea-4cee-b9d9-a936fec12aff","system_id":"levelo_inurba_marseille","lat":43.30349,"lon":5.41879,"is_reserved":false,"is_disabled":false,"rental_uris":{"android":"levelo://app?vid=8123ef15-3aea-4cee-b9d9-a936fec12aff","ios":"levelo://app?vid=8123ef15-3aea-4cee-b9d9-a936fec12aff"},"vehicle_type_id":"4","last_reported":1744402279,"current_range_meters":7200,"station_id":"ce4bhop2rcd13ifvqh7g","pricing_plan_id":"cebpf4jnsgd1na2vs0mg"},{"bike_id":"ebb95a0e-81fa-49c9-9564-1efb684f8582","system_id":"levelo_inurba_marseille","lat":43.29258,"lon":5.38453,"is_reserved":false,"is_disabled":false,"rental_uris":{"android":"levelo://app?vid=ebb95a0e-81fa-49c9-9564-1efb684f8582","ios":"levelo://app?vid=ebb95a0e-81fa-49c9-9564-1efb684f8582"},"vehicle_type_id":"4","last_reported":1744402279,"current_range_meters":7200,"station_id":"ce4bh692rcd13ifvqea0","pricing_plan_id":"cebpf4jnsgd1na2vs0mg"},{"bike_id":"5d2ebcad-a123-4505-b30a-472200672de9","system_id":"levelo_inurba_marseille","lat":43.30547,"lon":5.36537,"is_reserved":false,"is_disabled":false,"rental_uris":{"android":"levelo://app?vid=5d2ebcad-a123-4505-b30a-472200672de9","ios":"levelo://app?vid=5d2ebcad-a123-4505-b30a-472200672de9"},"vehicle_type_id":"4","last_reported":1744402279,"current_range_meters":7200,"station_id":"ce4bgs12rcd13ifvqcag","pricing_plan_id":"cebpf4jnsgd1na2vs0mg"},{"bike_id":"a9f344a9-b5c4-4c6f-adc4-6177f6c8159a","system_id":"levelo_inurba_marseille","lat":43.32817,"lon":5.39758,"is_reserved":false,"is_disabled":false,"rental_uris":{"android":"levelo://app?vid=a9f344a9-b5c4-4c6f-adc4-6177f6c8159a","ios":"levelo://app?vid=a9f344a9-b5c4-4c6f-adc4-6177f6c8159a"},"vehicle_type_id":"4","last_reported":1744402279,"current_range_meters":7200,"station_id":"","pricing_plan_id":"cebpf4jnsgd1na2vs0mg"},{"bike_id":"2a90e39c-7239-4da6-993c-c56300ffa8a4","system_id":"levelo_inurba_marseille","lat":43.29719,"lon":5.36616,"is_reserved":false,"is_disabled":false,"rental_uris":{"android":"levelo://app?vid=2a90e39c-7239-4da6-993c-c56300ffa8a4","ios":"levelo://app?vid=2a90e39c-7239-4da6-993c-c56300ffa8a4"},"vehicle_type_id":"4","last_reported":1744402279,"current_range_meters":7200,"station_id":"ce4bgn12rcd13ifvqbt0","pricing_plan_id":"cebpf4jnsgd1na2vs0mg"},{"bike_id":"0efd1ccf-07cd-497d-b725-3d408158b201","system_id":"levelo_inurba_marseille","lat":43.25496,"lon":5.37648,"is_reserved":false,"is_disabled":false,"rental_uris":{"android":"levelo://app?vid=0efd1ccf-07cd-497d-b725-3d408158b201","ios":"levelo://app?vid=0efd1ccf-07cd-497d-b725-3d408158b201"},"vehicle_type_id":"4","last_reported":1744402279,"current_range_meters":7200,"station_id":"ce4bhh12rcd13ifvqff0","pricing_plan_id":"cebpf4jnsgd1na2vs0mg"},{"bike_id":"5f0f62f8-4da5-494c-8775-c4030ec9b1bb","system_id":"levelo_inurba_marseille","lat":43.29416,"lon":5.38623,"is_reserved":false,"is_disabled":false,"rental_uris":{"android":"levelo://app?vid=5f0f62f8-4da5-494c-8775-c4030ec9b1bb","ios":"levelo://app?vid=5f0f62f8-4da5-494c-8775-c4030ec9b1bb"},"vehicle_type_id":"4","last_reported":1744402279,"current_range_meters":7200,"station_id":"ce4bh2h2rcd13ifvqdh0","pricing_plan_id":"cebpf4jnsgd1na2vs0mg"},{"bike_id":"179c36f6-e45f-49d7-bf4c-410ea80375d2","system_id":"levelo_inurba_marseille","lat":43.292976,"lon":5.37448,"is_reserved":false,"is_disabled":false,"rental_uris":{"android":"levelo://app?vid=179c36f6-e45f-49d7-bf4c-410ea80375d2","ios":"levelo://app?vid=179c36f6-e45f-49d7-bf4c-410ea80375d2"},"vehicle_type_id":"4","last_reported":1744402279,"current_range_meters":8000,"station_id":"ce4bh412rcd13ifvqdr0","pricing_plan_id":"cebpf4jnsgd1na2vs0mg"},{"bike_id":"248af2e4-8e28-4bbc-baac-8fd1bc13684e","system_id":"levelo_inurba_marseille","lat":43.28982,"lon":5.38531,"is_reserved":false,"is_disabled":false,"rental_uris":{"android":"levelo://app?vid=248af2e4-8e28-4bbc-baac-8fd1bc13684e","ios":"levelo://app?vid=248af2e4-8e28-4bbc-baac-8fd1bc13684e"},"vehicle_type_id":"4","last_reported":1744402279,"current_range_meters":7200,"station_id":"ce4bh612rcd13ifvqe6g","pricing_plan_id":"cebpf4jnsgd1na2vs0mg"},{"bike_id":"620eeea1-cdaa-4d4a-84b4-5a021ef2a97b","system_id":"levelo_inurba_marseille","lat":43.29427,"lon":5.38614,"is_reserved":false,"is_disabled":false,"rental_uris":{"android":"levelo://app?vid=620eeea1-cdaa-4d4a-84b4-5a021ef2a97b","ios":"levelo://app?vid=620eeea1-cdaa-4d4a-84b4-5a021ef2a97b"},"vehicle_type_id":"4","last_reported":1744402279,"current_range_meters":8000,"station_id":"ce4bh2h2rcd13ifvqdh0","pricing_plan_id":"cebpf4jnsgd1na2vs0mg"},{"bike_id":"17fd4669-fc7f-4f26-9880-33d462aa22ef","system_id":"levelo_inurba_marseille","lat":43.29521,"lon":5.38551,"is_reserved":false,"is_disabled":false,"rental_uris":{"android":"levelo://app?vid=17fd4669-fc7f-4f26-9880-33d462aa22ef","ios":"levelo://app?vid=17fd4669-fc7f-4f26-9880-33d462aa22ef"},"vehicle_type_id":"4","last_reported":1744402279,"current_range_meters":8000,"station_id":"ce4bgih2rcd13ifvqba0","pricing_plan_id":"cebpf4jnsgd1na2vs0mg"},{"bike_id":"e33e0302-c30a-4566-a316-089bd8a16a03","system_id":"levelo_inurba_marseille","lat":43.296062,"lon":5.381382,"is_reserved":false,"is_disabled":false,"rental_uris":{"android":"levelo://app?vid=e33e0302-c30a-4566-a316-089bd8a16a03","ios":"levelo://app?vid=e33e0302-c30a-4566-a316-089bd8a16a03"},"vehicle_type_id":"4","last_reported":1744402279,"current_range_meters":8000,"station_id":"ce4bgm92rcd13ifvqbr0","pricing_plan_id":"cebpf4jnsgd1na2vs0mg"},{"bike_id":"dba3af98-647c-4882-a9d5-08189781a417","system_id":"levelo_inurba_marseille","lat":43.25489,"lon":5.37649,"is_reserved":false,"is_disabled":false,"rental_uris":{"android":"levelo://app?vid=dba3af98-647c-4882-a9d5-08189781a417","ios":"levelo://app?vid=dba3af98-647c-4882-a9d5-08189781a417"},"vehicle_type_id":"4","last_reported":1744402279,"current_range_meters":8000,"station_id":"ce4bhh12rcd13ifvqff0","pricing_plan_id":"cebpf4jnsgd1na2vs0mg"},{"bike_id":"b441ca9c-7ec8-4931-b1af-ff2568ac40d7","system_id":"levelo_inurba_marseille","lat":43.289658,"lon":5.36637,"is_reserved":false,"is_disabled":false,"rental_uris":{"android":"levelo://app?vid=b441ca9c-7ec8-4931-b1af-ff2568ac40d7","ios":"levelo://app?vid=b441ca9c-7ec8-4931-b1af-ff2568ac40d7"},"vehicle_type_id":"4","last_reported":1744402279,"current_range_meters":8000,"station_id":"","pricing_plan_id":"cebpf4jnsgd1na2vs0mg"},{"bike_id":"fc0f5166-3367-40b9-a7bf-b36668984f65","system_id":"levelo_inurba_marseille","lat":43.324797,"lon":5.365667,"is_reserved":false,"is_disabled":false,"rental_uris":{"android":"levelo://app?vid=fc0f5166-3367-40b9-a7bf-b36668984f65","ios":"levelo://app?vid=fc0f5166-3367-40b9-a7bf-b36668984f65"},"vehicle_type_id":"4","last_reported":1744402279,"current_range_meters":7200,"station_id":"ce4bhs12rcd13ifvqhvg","pricing_plan_id":"cebpf4jnsgd1na2vs0mg"},{"bike_id":"0b1db1cf-e33b-4a01-a8dd-490883c5b8d4","system_id":"levelo_inurba_marseille","lat":43.26549,"lon":5.39045,"is_reserved":false,"is_disabled":false,"rental_uris":{"android":"levelo://app?vid=0b1db1cf-e33b-4a01-a8dd-490883c5b8d4","ios":"levelo://app?vid=0b1db1cf-e33b-4a01-a8dd-490883c5b8d4"},"vehicle_type_id":"4","last_reported":1744402279,"current_range_meters":8000,"station_id":"ce4bhe12rcd13ifvqf30","pricing_plan_id":"cebpf4jnsgd1na2vs0mg"},{"bike_id":"29ca4be3-ca71-4e9e-bf10-d7adceca3975","system_id":"levelo_inurba_marseille","lat":43.28954,"lon":5.36622,"is_reserved":false,"is_disabled":false,"rental_uris":{"android":"levelo://app?vid=29ca4be3-ca71-4e9e-bf10-d7adceca3975","ios":"levelo://app?vid=29ca4be3-ca71-4e9e-bf10-d7adceca3975"},"vehicle_type_id":"4","last_reported":1744402279,"current_range_meters":8000,"station_id":"ce4bhap2rcd13ifvqek0","pricing_plan_id":"cebpf4jnsgd1na2vs0mg"},{"bike_id":"de6ecc39-1534-4d0a-9a75-8bc5077ae536","system_id":"levelo_inurba_marseille","lat":43.25498,"lon":5.37643,"is_reserved":false,"is_disabled":false,"rental_uris":{"android":"levelo://app?vid=de6ecc39-1534-4d0a-9a75-8bc5077ae536","ios":"levelo://app?vid=de6ecc39-1534-4d0a-9a75-8bc5077ae536"},"vehicle_type_id":"4","last_reported":1744402279,"current_range_meters":8000,"station_id":"ce4bhh12rcd13ifvqff0","pricing_plan_id":"cebpf4jnsgd1na2vs0mg"},{"bike_id":"422e77b9-d230-4057-8e00-48b967f457a6","system_id":"levelo_inurba_marseille","lat":43.29297,"lon":5.37164,"is_reserved":false,"is_disabled":false,"rental_uris":{"android":"levelo://app?vid=422e77b9-d230-4057-8e00-48b967f457a6","ios":"levelo://app?vid=422e77b9-d230-4057-8e00-48b967f457a6"},"vehicle_type_id":"4","last_reported":1744402279,"current_range_meters":8000,"station_id":"ce4bgh92rcd13ifvqb40","pricing_plan_id":"cebpf4jnsgd1na2vs0mg"},{"bike_id":"424918f8-5f88-4460-8130-e88891f40869","system_id":"levelo_inurba_marseille","lat":43.24806,"lon":5.37461,"is_reserved":false,"is_disabled":false,"rental_uris":{"android":"levelo://app?vid=424918f8-5f88-4460-8130-e88891f40869","ios":"levelo://app?vid=424918f8-5f88-4460-8130-e88891f40869"},"vehicle_type_id":"4","last_reported":1744402279,"current_range_meters":8000,"station_id":"ce4bhgh2rcd13ifvqfb0","pricing_plan_id":"cebpf4jnsgd1na2vs0mg"},{"bike_id":"f6b721a1-7ab7-4c5b-932d-0f416eb30cbd","system_id":"levelo_inurba_marseille","lat":43.2942,"lon":5.38628,"is_reserved":false,"is_disabled":false,"rental_uris":{"android":"levelo://app?vid=f6b721a1-7ab7-4c5b-932d-0f416eb30cbd","ios":"levelo://app?vid=f6b721a1-7ab7-4c5b-932d-0f416eb30cbd"},"vehicle_type_id":"4","last_reported":1744402279,"current_range_meters":8000,"station_id":"ce4bh2h2rcd13ifvqdh0","pricing_plan_id":"cebpf4jnsgd1na2vs0mg"},{"bike_id":"629f5387-f4ea-4ff5-8edc-1026cd3b6fa9","system_id":"levelo_inurba_marseille","lat":43.27985,"lon":5.41648,"is_reserved":false,"is_disabled":false,"rental_uris":{"android":"levelo://app?vid=629f5387-f4ea-4ff5-8edc-1026cd3b6fa9","ios":"levelo://app?vid=629f5387-f4ea-4ff5-8edc-1026cd3b6fa9"},"vehicle_type_id":"4","last_reported":1744402279,"current_range_meters":8000,"station_id":"ce4bho12rcd13ifvqh1g","pricing_plan_id":"cebpf4jnsgd1na2vs0mg"},{"bike_id":"feb05de9-3bcb-466b-8cde-a09a0eae9cb4","system_id":"levelo_inurba_marseille","lat":43.29267,"lon":5.38407,"is_reserved":false,"is_disabled":false,"rental_uris":{"android":"levelo://app?vid=feb05de9-3bcb-466b-8cde-a09a0eae9cb4","ios":"levelo://app?vid=feb05de9-3bcb-466b-8cde-a09a0eae9cb4"},"vehicle_type_id":"4","last_reported":1744402279,"current_range_meters":8400,"station_id":"ce4bh692rcd13ifvqea0","pricing_plan_id":"cebpf4jnsgd1na2vs0mg"},{"bike_id":"744d9e13-4644-4443-baa0-d58aa61dc002","system_id":"levelo_inurba_marseille","lat":43.24806,"lon":5.37456,"is_reserved":false,"is_disabled":false,"rental_uris":{"android":"levelo://app?vid=744d9e13-4644-4443-baa0-d58aa61dc002","ios":"levelo://app?vid=744d9e13-4644-4443-baa0-d58aa61dc002"},"vehicle_type_id":"4","last_reported":1744402279,"current_range_meters":8400,"station_id":"ce4bhgh2rcd13ifvqfb0","pricing_plan_id":"cebpf4jnsgd1na2vs0mg"},{"bike_id":"fa21bfb7-fa09-4e26-aea1-669f04b06ce8","system_id":"levelo_inurba_marseille","lat":43.2952,"lon":5.39042,"is_reserved":false,"is_disabled":false,"rental_uris":{"android":"levelo://app?vid=fa21bfb7-fa09-4e26-aea1-669f04b06ce8","ios":"levelo://app?vid=fa21bfb7-fa09-4e26-aea1-669f04b06ce8"},"vehicle_type_id":"4","last_reported":1744402279,"current_range_meters":8000,"station_id":"ce4bh3p2rcd13ifvqdp0","pricing_plan_id":"cebpf4jnsgd1na2vs0mg"},{"bike_id":"d14db3d6-24b2-40f9-ae28-fea9e6d3036f","system_id":"levelo_inurba_marseille","lat":43.26489,"lon":5.39543,"is_reserved":false,"is_disabled":false,"rental_uris":{"android":"levelo://app?vid=d14db3d6-24b2-40f9-ae28-fea9e6d3036f","ios":"levelo://app?vid=d14db3d6-24b2-40f9-ae28-fea9e6d3036f"},"vehicle_type_id":"4","last_reported":1744402279,"current_range_meters":8400,"station_id":"ce4bhi12rcd13ifvqfq0","pricing_plan_id":"cebpf4jnsgd1na2vs0mg"},{"bike_id":"eab6cbfa-cb8e-47d7-b0d6-226ab7facec7","system_id":"levelo_inurba_marseille","lat":43.317159,"lon":5.424091,"is_reserved":false,"is_disabled":true,"rental_uris":{"android":"levelo://app?vid=eab6cbfa-cb8e-47d7-b0d6-226ab7facec7","ios":"levelo://app?vid=eab6cbfa-cb8e-47d7-b0d6-226ab7facec7"},"vehicle_type_id":"4","last_reported":1744402279,"current_range_meters":8400,"station_id":"ce4bhp92rcd13ifvqhbg","pricing_plan_id":"cebpf4jnsgd1na2vs0mg"},{"bike_id":"820eae00-4001-4b93-98cd-bfbd5fc6ebfe","system_id":"levelo_inurba_marseille","lat":43.26801,"lon":5.40256,"is_reserved":false,"is_disabled":false,"rental_uris":{"android":"levelo://app?vid=820eae00-4001-4b93-98cd-bfbd5fc6ebfe","ios":"levelo://app?vid=820eae00-4001-4b93-98cd-bfbd5fc6ebfe"},"vehicle_type_id":"4","last_reported":1744402279,"current_range_meters":8400,"station_id":"ce501612rcd8frsf0b60","pricing_plan_id":"cebpf4jnsgd1na2vs0mg"},{"bike_id":"3bbb74ad-d656-406a-b153-f2f275de884d","system_id":"levelo_inurba_marseille","lat":43.27563,"lon":5.38424,"is_reserved":false,"is_disabled":false,"rental_uris":{"android":"levelo://app?vid=3bbb74ad-d656-406a-b153-f2f275de884d","ios":"levelo://app?vid=3bbb74ad-d656-406a-b153-f2f275de884d"},"vehicle_type_id":"4","last_reported":1744402279,"current_range_meters":8800,"station_id":"ce4bhh92rcd13ifvqfi0","pricing_plan_id":"cebpf4jnsgd1na2vs0mg"},{"bike_id":"eaee7cab-ffaf-484d-ad23-a2807bbdb072","system_id":"levelo_inurba_marseille","lat":43.29285,"lon":5.38424,"is_reserved":false,"is_disabled":false,"rental_uris":{"android":"levelo://app?vid=eaee7cab-ffaf-484d-ad23-a2807bbdb072","ios":"levelo://app?vid=eaee7cab-ffaf-484d-ad23-a2807bbdb072"},"vehicle_type_id":"4","last_reported":1744402279,"current_range_meters":8800,"station_id":"ce4bh692rcd13ifvqea0","pricing_plan_id":"cebpf4jnsgd1na2vs0mg"},{"bike_id":"e6a9ee71-9aa9-40e0-9afe-897c88fa9571","system_id":"levelo_inurba_marseille","lat":43.24162,"lon":5.36393,"is_reserved":false,"is_disabled":false,"rental_uris":{"android":"levelo://app?vid=e6a9ee71-9aa9-40e0-9afe-897c88fa9571","ios":"levelo://app?vid=e6a9ee71-9aa9-40e0-9afe-897c88fa9571"},"vehicle_type_id":"4","last_reported":1744402279,"current_range_meters":8800,"station_id":"cpo36qri1sfpv3e86is0","pricing_plan_id":"cebpf4jnsgd1na2vs0mg"},{"bike_id":"1dff8f07-6dd7-45ea-a444-7507ddb41759","system_id":"levelo_inurba_marseille","lat":43.29258,"lon":5.38447,"is_reserved":false,"is_disabled":false,"rental_uris":{"android":"levelo://app?vid=1dff8f07-6dd7-45ea-a444-7507ddb41759","ios":"levelo://app?vid=1dff8f07-6dd7-45ea-a444-7507ddb41759"},"vehicle_type_id":"4","last_reported":1744402279,"current_range_meters":9200,"station_id":"ce4bh692rcd13ifvqea0","pricing_plan_id":"cebpf4jnsgd1na2vs0mg"},{"bike_id":"8b4c8d12-5212-410c-bdd4-63122234f668","system_id":"levelo_inurba_marseille","lat":43.22928,"lon":5.35374,"is_reserved":false,"is_disabled":false,"rental_uris":{"android":"levelo://app?vid=8b4c8d12-5212-410c-bdd4-63122234f668","ios":"levelo://app?vid=8b4c8d12-5212-410c-bdd4-63122234f668"},"vehicle_type_id":"4","last_reported":1744402279,"current_range_meters":9200,"station_id":"cpo3532slgdg3j2ikp40","pricing_plan_id":"cebpf4jnsgd1na2vs0mg"},{"bike_id":"168f4d20-218a-4455-8c4d-544d196ed07f","system_id":"levelo_inurba_marseille","lat":43.3014,"lon":5.3808,"is_reserved":false,"is_disabled":false,"rental_uris":{"android":"levelo://app?vid=168f4d20-218a-4455-8c4d-544d196ed07f","ios":"levelo://app?vid=168f4d20-218a-4455-8c4d-544d196ed07f"},"vehicle_type_id":"4","last_reported":1744402279,"current_range_meters":8800,"station_id":"ce4bgjp2rcd13ifvqbh0","pricing_plan_id":"cebpf4jnsgd1na2vs0mg"},{"bike_id":"f838016f-aef8-4c22-9acd-97bf1ca7f34b","system_id":"levelo_inurba_marseille","lat":43.25117,"lon":5.40337,"is_reserved":false,"is_disabled":false,"rental_uris":{"android":"levelo://app?vid=f838016f-aef8-4c22-9acd-97bf1ca7f34b","ios":"levelo://app?vid=f838016f-aef8-4c22-9acd-97bf1ca7f34b"},"vehicle_type_id":"4","last_reported":1744402279,"current_range_meters":4400,"station_id":"ce4bhlh2rcd13ifvqgig","pricing_plan_id":"cebpf4jnsgd1na2vs0mg"},{"bike_id":"70000397-6f58-44e7-bb2d-293d11a360d9","system_id":"levelo_inurba_marseille","lat":43.255,"lon":5.37659,"is_reserved":false,"is_disabled":false,"rental_uris":{"android":"levelo://app?vid=70000397-6f58-44e7-bb2d-293d11a360d9","ios":"levelo://app?vid=70000397-6f58-44e7-bb2d-293d11a360d9"},"vehicle_type_id":"4","last_reported":1744402279,"current_range_meters":9200,"station_id":"ce4bhh12rcd13ifvqff0","pricing_plan_id":"cebpf4jnsgd1na2vs0mg"},{"bike_id":"986be32c-315d-478f-9aac-68a060a6a9bd","system_id":"levelo_inurba_marseille","lat":43.32652,"lon":5.40972,"is_reserved":false,"is_disabled":false,"rental_uris":{"android":"levelo://app?vid=986be32c-315d-478f-9aac-68a060a6a9bd","ios":"levelo://app?vid=986be32c-315d-478f-9aac-68a060a6a9bd"},"vehicle_type_id":"4","last_reported":1744402279,"current_range_meters":9600,"station_id":"ce4bhpp2rcd13ifvqhgg","pricing_plan_id":"cebpf4jnsgd1na2vs0mg"},{"bike_id":"a8fb7889-c5f0-40d5-8854-1a41c2ceb681","system_id":"levelo_inurba_marseille","lat":43.29607,"lon":5.381,"is_reserved":false,"is_disabled":false,"rental_uris":{"android":"levelo://app?vid=a8fb7889-c5f0-40d5-8854-1a41c2ceb681","ios":"levelo://app?vid=a8fb7889-c5f0-40d5-8854-1a41c2ceb681"},"vehicle_type_id":"4","last_reported":1744402279,"current_range_meters":9600,"station_id":"ce4bgl12rcd13ifvqbo0","pricing_plan_id":"cebpf4jnsgd1na2vs0mg"},{"bike_id":"f720b779-dab6-490b-ba7a-4f99672e7781","system_id":"levelo_inurba_marseille","lat":43.29255,"lon":5.38438,"is_reserved":false,"is_disabled":false,"rental_uris":{"android":"levelo://app?vid=f720b779-dab6-490b-ba7a-4f99672e7781","ios":"levelo://app?vid=f720b779-dab6-490b-ba7a-4f99672e7781"},"vehicle_type_id":"4","last_reported":1744402279,"current_range_meters":9600,"station_id":"ce4bh692rcd13ifvqea0","pricing_plan_id":"cebpf4jnsgd1na2vs0mg"},{"bike_id":"8862917b-7516-454b-9eb8-b658f0f3663d","system_id":"levelo_inurba_marseille","lat":43.29255,"lon":5.38443,"is_reserved":false,"is_disabled":false,"rental_uris":{"android":"levelo://app?vid=8862917b-7516-454b-9eb8-b658f0f3663d","ios":"levelo://app?vid=8862917b-7516-454b-9eb8-b658f0f3663d"},"vehicle_type_id":"4","last_reported":1744402279,"current_range_meters":9600,"station_id":"ce4bh692rcd13ifvqea0","pricing_plan_id":"cebpf4jnsgd1na2vs0mg"},{"bike_id":"788921b6-d940-4926-b734-c4dbf07655e0","system_id":"levelo_inurba_marseille","lat":43.29536,"lon":5.38546,"is_reserved":false,"is_disabled":false,"rental_uris":{"android":"levelo://app?vid=788921b6-d940-4926-b734-c4dbf07655e0","ios":"levelo://app?vid=788921b6-d940-4926-b734-c4dbf07655e0"},"vehicle_type_id":"4","last_reported":1744402279,"current_range_meters":9600,"station_id":"ce4bgih2rcd13ifvqba0","pricing_plan_id":"cebpf4jnsgd1na2vs0mg"},{"bike_id":"eb113507-1b5d-4d7a-b91c-d596662895e6","system_id":"levelo_inurba_marseille","lat":43.29545,"lon":5.39391,"is_reserved":false,"is_disabled":false,"rental_uris":{"android":"levelo://app?vid=eb113507-1b5d-4d7a-b91c-d596662895e6","ios":"levelo://app?vid=eb113507-1b5d-4d7a-b91c-d596662895e6"},"vehicle_type_id":"4","last_reported":1744402279,"current_range_meters":9600,"station_id":"ce4bh292rcd13ifvqdf0","pricing_plan_id":"cebpf4jnsgd1na2vs0mg"},{"bike_id":"2e01245a-b7a4-432a-9051-4b66cd3f598d","system_id":"levelo_inurba_marseille","lat":43.30085,"lon":5.39078,"is_reserved":false,"is_disabled":false,"rental_uris":{"android":"levelo://app?vid=2e01245a-b7a4-432a-9051-4b66cd3f598d","ios":"levelo://app?vid=2e01245a-b7a4-432a-9051-4b66cd3f598d"},"vehicle_type_id":"4","last_reported":1744402279,"current_range_meters":9600,"station_id":"ce4bh192rcd13ifvqdb0","pricing_plan_id":"cebpf4jnsgd1na2vs0mg"},{"bike_id":"bac330a6-ef29-42f9-a2be-f40785cea4a5","system_id":"levelo_inurba_marseille","lat":43.29257,"lon":5.38436,"is_reserved":false,"is_disabled":false,"rental_uris":{"android":"levelo://app?vid=bac330a6-ef29-42f9-a2be-f40785cea4a5","ios":"levelo://app?vid=bac330a6-ef29-42f9-a2be-f40785cea4a5"},"vehicle_type_id":"4","last_reported":1744402279,"current_range_meters":9600,"station_id":"ce4bh692rcd13ifvqea0","pricing_plan_id":"cebpf4jnsgd1na2vs0mg"},{"bike_id":"945cf93c-4b92-4260-b338-55b7c3d94987","system_id":"levelo_inurba_marseille","lat":43.30803,"lon":5.43527,"is_reserved":false,"is_disabled":false,"rental_uris":{"android":"levelo://app?vid=945cf93c-4b92-4260-b338-55b7c3d94987","ios":"levelo://app?vid=945cf93c-4b92-4260-b338-55b7c3d94987"},"vehicle_type_id":"4","last_reported":1744402279,"current_range_meters":9200,"station_id":"ce4bhph2rcd13ifvqheg","pricing_plan_id":"cebpf4jnsgd1na2vs0mg"},{"bike_id":"f76d12dc-ebdf-46e3-89d0-897a377cfadf","system_id":"levelo_inurba_marseille","lat":43.29251,"lon":5.38434,"is_reserved":false,"is_disabled":true,"rental_uris":{"android":"levelo://app?vid=f76d12dc-ebdf-46e3-89d0-897a377cfadf","ios":"levelo://app?vid=f76d12dc-ebdf-46e3-89d0-897a377cfadf"},"vehicle_type_id":"4","last_reported":1744402279,"current_range_meters":9600,"station_id":"ce4bh692rcd13ifvqea0","pricing_plan_id":"cebpf4jnsgd1na2vs0mg"},{"bike_id":"d69af9b5-563c-4da2-a80d-9693dc77d065","system_id":"levelo_inurba_marseille","lat":43.30254,"lon":5.4006,"is_reserved":false,"is_disabled":false,"rental_uris":{"android":"levelo://app?vid=d69af9b5-563c-4da2-a80d-9693dc77d065","ios":"levelo://app?vid=d69af9b5-563c-4da2-a80d-9693dc77d065"},"vehicle_type_id":"4","last_reported":1744402279,"current_range_meters":9200,"station_id":"ce4bgvh2rcd13ifvqcs0","pricing_plan_id":"cebpf4jnsgd1na2vs0mg"},{"bike_id":"644b3197-0c32-4343-affc-6a2d9aa1b245","system_id":"levelo_inurba_marseille","lat":43.29527,"lon":5.38549,"is_reserved":false,"is_disabled":false,"rental_uris":{"android":"levelo://app?vid=644b3197-0c32-4343-affc-6a2d9aa1b245","ios":"levelo://app?vid=644b3197-0c32-4343-affc-6a2d9aa1b245"},"vehicle_type_id":"4","last_reported":1744402279,"current_range_meters":9600,"station_id":"ce4bgih2rcd13ifvqba0","pricing_plan_id":"cebpf4jnsgd1na2vs0mg"},{"bike_id":"5cf1eaad-aea4-4688-b45c-e4fa9552fb0f","system_id":"levelo_inurba_marseille","lat":43.30249,"lon":5.40082,"is_reserved":false,"is_disabled":false,"rental_uris":{"android":"levelo://app?vid=5cf1eaad-aea4-4688-b45c-e4fa9552fb0f","ios":"levelo://app?vid=5cf1eaad-aea4-4688-b45c-e4fa9552fb0f"},"vehicle_type_id":"4","last_reported":1744402279,"current_range_meters":10000,"station_id":"ce4bgvh2rcd13ifvqcs0","pricing_plan_id":"cebpf4jnsgd1na2vs0mg"},{"bike_id":"6bc6bc4f-ac3f-4052-a417-885159f10d8d","system_id":"levelo_inurba_marseille","lat":43.29275,"lon":5.38431,"is_reserved":false,"is_disabled":false,"rental_uris":{"android":"levelo://app?vid=6bc6bc4f-ac3f-4052-a417-885159f10d8d","ios":"levelo://app?vid=6bc6bc4f-ac3f-4052-a417-885159f10d8d"},"vehicle_type_id":"4","last_reported":1744402279,"current_range_meters":10000,"station_id":"ce4bh692rcd13ifvqea0","pricing_plan_id":"cebpf4jnsgd1na2vs0mg"},{"bike_id":"e9751933-edee-4513-aee8-c68c0a6d291d","system_id":"levelo_inurba_marseille","lat":43.2942,"lon":5.38616,"is_reserved":false,"is_disabled":false,"rental_uris":{"android":"levelo://app?vid=e9751933-edee-4513-aee8-c68c0a6d291d","ios":"levelo://app?vid=e9751933-edee-4513-aee8-c68c0a6d291d"},"vehicle_type_id":"4","last_reported":1744402279,"current_range_meters":10000,"station_id":"ce4bh2h2rcd13ifvqdh0","pricing_plan_id":"cebpf4jnsgd1na2vs0mg"},{"bike_id":"cc83a7aa-57a1-4769-9137-8531613b4691","system_id":"levelo_inurba_marseille","lat":43.3124,"lon":5.37286,"is_reserved":false,"is_disabled":false,"rental_uris":{"android":"levelo://app?vid=cc83a7aa-57a1-4769-9137-8531613b4691","ios":"levelo://app?vid=cc83a7aa-57a1-4769-9137-8531613b4691"},"vehicle_type_id":"4","last_reported":1744402279,"current_range_meters":10000,"station_id":"","pricing_plan_id":"cebpf4jnsgd1na2vs0mg"},{"bike_id":"cca8df07-226e-484c-9884-f17db96a2ae4","system_id":"levelo_inurba_marseille","lat":43.32336,"lon":5.4062,"is_reserved":false,"is_disabled":false,"rental_uris":{"android":"levelo://app?vid=cca8df07-226e-484c-9884-f17db96a2ae4","ios":"levelo://app?vid=cca8df07-226e-484c-9884-f17db96a2ae4"},"vehicle_type_id":"4","last_reported":1744402279,"current_range_meters":10000,"station_id":"ce4bhq92rcd13ifvqhjg","pricing_plan_id":"cebpf4jnsgd1na2vs0mg"},{"bike_id":"20eb53d5-dc7b-4fbe-a6da-7e0a348438c0","system_id":"levelo_inurba_marseille","lat":43.2791,"lon":5.39598,"is_reserved":false,"is_disabled":true,"rental_uris":{"android":"levelo://app?vid=20eb53d5-dc7b-4fbe-a6da-7e0a348438c0","ios":"levelo://app?vid=20eb53d5-dc7b-4fbe-a6da-7e0a348438c0"},"vehicle_type_id":"4","last_reported":1744402279,"current_range_meters":10000,"station_id":"ce4bhf92rcd13ifvqf40","pricing_plan_id":"cebpf4jnsgd1na2vs0mg"},{"bike_id":"3a857f2f-58ff-4261-8250-bfdb1d655252","system_id":"levelo_inurba_marseille","lat":43.29258,"lon":5.38442,"is_reserved":false,"is_disabled":false,"rental_uris":{"android":"levelo://app?vid=3a857f2f-58ff-4261-8250-bfdb1d655252","ios":"levelo://app?vid=3a857f2f-58ff-4261-8250-bfdb1d655252"},"vehicle_type_id":"4","last_reported":1744402279,"current_range_meters":10000,"station_id":"ce4bh692rcd13ifvqea0","pricing_plan_id":"cebpf4jnsgd1na2vs0mg"},{"bike_id":"94455896-0f19-4fae-bd72-9879f01fcd6e","system_id":"levelo_inurba_marseille","lat":43.29554,"lon":5.42277,"is_reserved":false,"is_disabled":true,"rental_uris":{"android":"levelo://app?vid=94455896-0f19-4fae-bd72-9879f01fcd6e","ios":"levelo://app?vid=94455896-0f19-4fae-bd72-9879f01fcd6e"},"vehicle_type_id":"4","last_reported":1744402279,"current_range_meters":10000,"station_id":"ce4bhph2rcd13ifvqhdg","pricing_plan_id":"cebpf4jnsgd1na2vs0mg"},{"bike_id":"3bb608ed-b5eb-46bf-86c0-74f1d0494f1a","system_id":"levelo_inurba_marseille","lat":43.28576,"lon":5.39493,"is_reserved":false,"is_disabled":false,"rental_uris":{"android":"levelo://app?vid=3bb608ed-b5eb-46bf-86c0-74f1d0494f1a","ios":"levelo://app?vid=3bb608ed-b5eb-46bf-86c0-74f1d0494f1a"},"vehicle_type_id":"4","last_reported":1744402279,"current_range_meters":10000,"station_id":"ce4bh292rcd13ifvqdg0","pricing_plan_id":"cebpf4jnsgd1na2vs0mg"},{"bike_id":"5cbd6920-e86e-449a-9470-bc78d120719f","system_id":"levelo_inurba_marseille","lat":43.29286,"lon":5.38415,"is_reserved":false,"is_disabled":false,"rental_uris":{"android":"levelo://app?vid=5cbd6920-e86e-449a-9470-bc78d120719f","ios":"levelo://app?vid=5cbd6920-e86e-449a-9470-bc78d120719f"},"vehicle_type_id":"4","last_reported":1744402279,"current_range_meters":10000,"station_id":"ce4bh692rcd13ifvqea0","pricing_plan_id":"cebpf4jnsgd1na2vs0mg"},{"bike_id":"df7dcc93-da1a-4854-9050-cdf37f9f7fc2","system_id":"levelo_inurba_marseille","lat":43.29251,"lon":5.38448,"is_reserved":false,"is_disabled":false,"rental_uris":{"android":"levelo://app?vid=df7dcc93-da1a-4854-9050-cdf37f9f7fc2","ios":"levelo://app?vid=df7dcc93-da1a-4854-9050-cdf37f9f7fc2"},"vehicle_type_id":"4","last_reported":1744402279,"current_range_meters":10000,"station_id":"ce4bh692rcd13ifvqea0","pricing_plan_id":"cebpf4jnsgd1na2vs0mg"},{"bike_id":"3d8b087a-08d8-4176-9b8d-35be7b8be73e","system_id":"levelo_inurba_marseille","lat":43.30137,"lon":5.39859,"is_reserved":false,"is_disabled":false,"rental_uris":{"android":"levelo://app?vid=3d8b087a-08d8-4176-9b8d-35be7b8be73e","ios":"levelo://app?vid=3d8b087a-08d8-4176-9b8d-35be7b8be73e"},"vehicle_type_id":"4","last_reported":1744402279,"current_range_meters":9600,"station_id":"ce4bh0h2rcd13ifvqd40","pricing_plan_id":"cebpf4jnsgd1na2vs0mg"},{"bike_id":"a7f8974b-756c-4801-bcd0-4fdfceeb68d4","system_id":"levelo_inurba_marseille","lat":43.30791,"lon":5.3816,"is_reserved":false,"is_disabled":false,"rental_uris":{"android":"levelo://app?vid=a7f8974b-756c-4801-bcd0-4fdfceeb68d4","ios":"levelo://app?vid=a7f8974b-756c-4801-bcd0-4fdfceeb68d4"},"vehicle_type_id":"4","last_reported":1744402279,"current_range_meters":9600,"station_id":"ce4bgt12rcd13ifvqce0","pricing_plan_id":"cebpf4jnsgd1na2vs0mg"},{"bike_id":"4b7f4c69-2454-4c3b-9314-a2b45edc2c66","system_id":"levelo_inurba_marseille","lat":43.29309,"lon":5.37171,"is_reserved":false,"is_disabled":false,"rental_uris":{"android":"levelo://app?vid=4b7f4c69-2454-4c3b-9314-a2b45edc2c66","ios":"levelo://app?vid=4b7f4c69-2454-4c3b-9314-a2b45edc2c66"},"vehicle_type_id":"4","last_reported":1744402279,"current_range_meters":10000,"station_id":"ce4bgh92rcd13ifvqb40","pricing_plan_id":"cebpf4jnsgd1na2vs0mg"},{"bike_id":"5f6afd0d-acb1-4fc1-a5dd-e94f01e1d6f4","system_id":"levelo_inurba_marseille","lat":43.30458,"lon":5.37902,"is_reserved":false,"is_disabled":false,"rental_uris":{"android":"levelo://app?vid=5f6afd0d-acb1-4fc1-a5dd-e94f01e1d6f4","ios":"levelo://app?vid=5f6afd0d-acb1-4fc1-a5dd-e94f01e1d6f4"},"vehicle_type_id":"4","last_reported":1744402279,"current_range_meters":10000,"station_id":"ce4bgup2rcd13ifvqcn0","pricing_plan_id":"cebpf4jnsgd1na2vs0mg"},{"bike_id":"cd13168f-57f4-4f1c-a9bc-ed8566e48e0a","system_id":"levelo_inurba_marseille","lat":43.29533,"lon":5.3855,"is_reserved":false,"is_disabled":false,"rental_uris":{"android":"levelo://app?vid=cd13168f-57f4-4f1c-a9bc-ed8566e48e0a","ios":"levelo://app?vid=cd13168f-57f4-4f1c-a9bc-ed8566e48e0a"},"vehicle_type_id":"4","last_reported":1744402279,"current_range_meters":10800,"station_id":"ce4bgih2rcd13ifvqba0","pricing_plan_id":"cebpf4jnsgd1na2vs0mg"},{"bike_id":"463b41fd-37bb-48c0-a6e4-12f737a3d7cf","system_id":"levelo_inurba_marseille","lat":43.27029,"lon":5.40239,"is_reserved":false,"is_disabled":true,"rental_uris":{"android":"levelo://app?vid=463b41fd-37bb-48c0-a6e4-12f737a3d7cf","ios":"levelo://app?vid=463b41fd-37bb-48c0-a6e4-12f737a3d7cf"},"vehicle_type_id":"4","last_reported":1744402279,"current_range_meters":10800,"station_id":"ce4bhk92rcd13ifvqgc0","pricing_plan_id":"cebpf4jnsgd1na2vs0mg"},{"bike_id":"895d25e6-f40a-4cdd-9146-0936ab5e03f9","system_id":"levelo_inurba_marseille","lat":43.25494,"lon":5.37649,"is_reserved":false,"is_disabled":false,"rental_uris":{"android":"levelo://app?vid=895d25e6-f40a-4cdd-9146-0936ab5e03f9","ios":"levelo://app?vid=895d25e6-f40a-4cdd-9146-0936ab5e03f9"},"vehicle_type_id":"4","last_reported":1744402279,"current_range_meters":10800,"station_id":"ce4bhh12rcd13ifvqff0","pricing_plan_id":"cebpf4jnsgd1na2vs0mg"},{"bike_id":"1d37c72a-2376-4210-9c13-bfa995cd5884","system_id":"levelo_inurba_marseille","lat":43.28104,"lon":5.37841,"is_reserved":false,"is_disabled":false,"rental_uris":{"android":"levelo://app?vid=1d37c72a-2376-4210-9c13-bfa995cd5884","ios":"levelo://app?vid=1d37c72a-2376-4210-9c13-bfa995cd5884"},"vehicle_type_id":"4","last_reported":1744402279,"current_range_meters":10800,"station_id":"ce4bha12rcd13ifvqee0","pricing_plan_id":"cebpf4jnsgd1na2vs0mg"},{"bike_id":"f5fb5c6b-9b77-4d1a-8d94-024c8cda5c6e","system_id":"levelo_inurba_marseille","lat":43.25,"lon":5.38927,"is_reserved":false,"is_disabled":false,"rental_uris":{"android":"levelo://app?vid=f5fb5c6b-9b77-4d1a-8d94-024c8cda5c6e","ios":"levelo://app?vid=f5fb5c6b-9b77-4d1a-8d94-024c8cda5c6e"},"vehicle_type_id":"4","last_reported":1744402279,"current_range_meters":10800,"station_id":"ce4bhgp2rcd13ifvqfd0","pricing_plan_id":"cebpf4jnsgd1na2vs0mg"},{"bike_id":"75a1726b-9625-498f-8d2b-0fbb8e209841","system_id":"levelo_inurba_marseille","lat":43.26799,"lon":5.40252,"is_reserved":false,"is_disabled":false,"rental_uris":{"android":"levelo://app?vid=75a1726b-9625-498f-8d2b-0fbb8e209841","ios":"levelo://app?vid=75a1726b-9625-498f-8d2b-0fbb8e209841"},"vehicle_type_id":"4","last_reported":1744402279,"current_range_meters":10800,"station_id":"ce501612rcd8frsf0b60","pricing_plan_id":"cebpf4jnsgd1na2vs0mg"},{"bike_id":"88c4e869-1901-4fb3-8fdc-4e16dfb62f9e","system_id":"levelo_inurba_marseille","lat":43.30641,"lon":5.4009,"is_reserved":false,"is_disabled":false,"rental_uris":{"android":"levelo://app?vid=88c4e869-1901-4fb3-8fdc-4e16dfb62f9e","ios":"levelo://app?vid=88c4e869-1901-4fb3-8fdc-4e16dfb62f9e"},"vehicle_type_id":"4","last_reported":1744402279,"current_range_meters":10800,"station_id":"ce4bh112rcd13ifvqda0","pricing_plan_id":"cebpf4jnsgd1na2vs0mg"},{"bike_id":"74b58e10-7832-49fc-9441-0aab30fb16ca","system_id":"levelo_inurba_marseille","lat":43.27803,"lon":5.40709,"is_reserved":false,"is_disabled":false,"rental_uris":{"android":"levelo://app?vid=74b58e10-7832-49fc-9441-0aab30fb16ca","ios":"levelo://app?vid=74b58e10-7832-49fc-9441-0aab30fb16ca"},"vehicle_type_id":"4","last_reported":1744402279,"current_range_meters":11200,"station_id":"ce4bhnh2rcd13ifvqgtg","pricing_plan_id":"cebpf4jnsgd1na2vs0mg"},{"bike_id":"36bfc026-b641-4b92-b329-4db9b129a5e9","system_id":"levelo_inurba_marseille","lat":43.29408,"lon":5.38628,"is_reserved":false,"is_disabled":false,"rental_uris":{"android":"levelo://app?vid=36bfc026-b641-4b92-b329-4db9b129a5e9","ios":"levelo://app?vid=36bfc026-b641-4b92-b329-4db9b129a5e9"},"vehicle_type_id":"4","last_reported":1744402279,"current_range_meters":11200,"station_id":"ce4bh2h2rcd13ifvqdh0","pricing_plan_id":"cebpf4jnsgd1na2vs0mg"},{"bike_id":"a46cbe90-5786-4f39-9aef-47ce0b82cebc","system_id":"levelo_inurba_marseille","lat":43.295323,"lon":5.38546,"is_reserved":false,"is_disabled":false,"rental_uris":{"android":"levelo://app?vid=a46cbe90-5786-4f39-9aef-47ce0b82cebc","ios":"levelo://app?vid=a46cbe90-5786-4f39-9aef-47ce0b82cebc"},"vehicle_type_id":"4","last_reported":1744402279,"current_range_meters":11200,"station_id":"ce4bgih2rcd13ifvqba0","pricing_plan_id":"cebpf4jnsgd1na2vs0mg"},{"bike_id":"41fcc547-f15f-4157-8213-6af94cca17a4","system_id":"levelo_inurba_marseille","lat":43.29421,"lon":5.38616,"is_reserved":false,"is_disabled":false,"rental_uris":{"android":"levelo://app?vid=41fcc547-f15f-4157-8213-6af94cca17a4","ios":"levelo://app?vid=41fcc547-f15f-4157-8213-6af94cca17a4"},"vehicle_type_id":"4","last_reported":1744402279,"current_range_meters":11200,"station_id":"ce4bh2h2rcd13ifvqdh0","pricing_plan_id":"cebpf4jnsgd1na2vs0mg"},{"bike_id":"515e38b1-efa8-477a-b6e8-19f7b6379267","system_id":"levelo_inurba_marseille","lat":43.29425,"lon":5.38611,"is_reserved":false,"is_disabled":false,"rental_uris":{"android":"levelo://app?vid=515e38b1-efa8-477a-b6e8-19f7b6379267","ios":"levelo://app?vid=515e38b1-efa8-477a-b6e8-19f7b6379267"},"vehicle_type_id":"4","last_reported":1744402279,"current_range_meters":11200,"station_id":"ce4bh2h2rcd13ifvqdh0","pricing_plan_id":"cebpf4jnsgd1na2vs0mg"},{"bike_id":"e731be2c-11e9-47e9-8d2b-48cf0aa36622","system_id":"levelo_inurba_marseille","lat":43.292527,"lon":5.384459,"is_reserved":false,"is_disabled":false,"rental_uris":{"android":"levelo://app?vid=e731be2c-11e9-47e9-8d2b-48cf0aa36622","ios":"levelo://app?vid=e731be2c-11e9-47e9-8d2b-48cf0aa36622"},"vehicle_type_id":"4","last_reported":1744402279,"current_range_meters":11200,"station_id":"ce4bh692rcd13ifvqea0","pricing_plan_id":"cebpf4jnsgd1na2vs0mg"},{"bike_id":"72adaa87-94dc-4774-aca0-5147bc57bd16","system_id":"levelo_inurba_marseille","lat":43.26025,"lon":5.41733,"is_reserved":false,"is_disabled":false,"rental_uris":{"android":"levelo://app?vid=72adaa87-94dc-4774-aca0-5147bc57bd16","ios":"levelo://app?vid=72adaa87-94dc-4774-aca0-5147bc57bd16"},"vehicle_type_id":"4","last_reported":1744402279,"current_range_meters":11200,"station_id":"","pricing_plan_id":"cebpf4jnsgd1na2vs0mg"},{"bike_id":"3f08cc69-711e-4264-b923-68891203ffa4","system_id":"levelo_inurba_marseille","lat":43.32285,"lon":5.38243,"is_reserved":false,"is_disabled":false,"rental_uris":{"android":"levelo://app?vid=3f08cc69-711e-4264-b923-68891203ffa4","ios":"levelo://app?vid=3f08cc69-711e-4264-b923-68891203ffa4"},"vehicle_type_id":"4","last_reported":1744402279,"current_range_meters":11200,"station_id":"ce4bhr12rcd13ifvqhqg","pricing_plan_id":"cebpf4jnsgd1na2vs0mg"},{"bike_id":"53b68cf3-a9e1-49ee-bb57-de31f65cd5b3","system_id":"levelo_inurba_marseille","lat":43.29875,"lon":5.39739,"is_reserved":false,"is_disabled":false,"rental_uris":{"android":"levelo://app?vid=53b68cf3-a9e1-49ee-bb57-de31f65cd5b3","ios":"levelo://app?vid=53b68cf3-a9e1-49ee-bb57-de31f65cd5b3"},"vehicle_type_id":"4","last_reported":1744402279,"current_range_meters":11200,"station_id":"ce4bh0h2rcd13ifvqd50","pricing_plan_id":"cebpf4jnsgd1na2vs0mg"},{"bike_id":"9b0093a9-79e0-4880-82c2-96b353b4de72","system_id":"levelo_inurba_marseille","lat":43.30323,"lon":5.4047,"is_reserved":false,"is_disabled":true,"rental_uris":{"android":"levelo://app?vid=9b0093a9-79e0-4880-82c2-96b353b4de72","ios":"levelo://app?vid=9b0093a9-79e0-4880-82c2-96b353b4de72"},"vehicle_type_id":"4","last_reported":1744402279,"current_range_meters":11200,"station_id":"ce4bh012rcd13ifvqd10","pricing_plan_id":"cebpf4jnsgd1na2vs0mg"},{"bike_id":"e6b07900-3dae-46db-b900-9312a9da2da0","system_id":"levelo_inurba_marseille","lat":43.29012,"lon":5.38646,"is_reserved":false,"is_disabled":false,"rental_uris":{"android":"levelo://app?vid=e6b07900-3dae-46db-b900-9312a9da2da0","ios":"levelo://app?vid=e6b07900-3dae-46db-b900-9312a9da2da0"},"vehicle_type_id":"4","last_reported":1744402279,"current_range_meters":11600,"station_id":"ce4bh4p2rcd13ifvqe0g","pricing_plan_id":"cebpf4jnsgd1na2vs0mg"},{"bike_id":"49187ea3-d777-461d-9d76-0a343326d075","system_id":"levelo_inurba_marseille","lat":43.29529,"lon":5.38545,"is_reserved":false,"is_disabled":false,"rental_uris":{"android":"levelo://app?vid=49187ea3-d777-461d-9d76-0a343326d075","ios":"levelo://app?vid=49187ea3-d777-461d-9d76-0a343326d075"},"vehicle_type_id":"4","last_reported":1744402279,"current_range_meters":11600,"station_id":"ce4bgih2rcd13ifvqba0","pricing_plan_id":"cebpf4jnsgd1na2vs0mg"},{"bike_id":"6c0af7a8-0d39-48e9-a049-c6c4e6976f89","system_id":"levelo_inurba_marseille","lat":43.26211,"lon":5.37441,"is_reserved":false,"is_disabled":false,"rental_uris":{"android":"levelo://app?vid=6c0af7a8-0d39-48e9-a049-c6c4e6976f89","ios":"levelo://app?vid=6c0af7a8-0d39-48e9-a049-c6c4e6976f89"},"vehicle_type_id":"4","last_reported":1744402279,"current_range_meters":11600,"station_id":"ce4bhgp2rcd13ifvqfc0","pricing_plan_id":"cebpf4jnsgd1na2vs0mg"},{"bike_id":"8bf0111f-7d93-456a-999a-7c95e955de49","system_id":"levelo_inurba_marseille","lat":43.27837,"lon":5.40704,"is_reserved":false,"is_disabled":false,"rental_uris":{"android":"levelo://app?vid=8bf0111f-7d93-456a-999a-7c95e955de49","ios":"levelo://app?vid=8bf0111f-7d93-456a-999a-7c95e955de49"},"vehicle_type_id":"4","last_reported":1744402279,"current_range_meters":11600,"station_id":"ce4bhnh2rcd13ifvqgtg","pricing_plan_id":"cebpf4jnsgd1na2vs0mg"},{"bike_id":"a52d5a87-be36-468b-a219-b655dcd479c9","system_id":"levelo_inurba_marseille","lat":43.29523,"lon":5.38541,"is_reserved":false,"is_disabled":false,"rental_uris":{"android":"levelo://app?vid=a52d5a87-be36-468b-a219-b655dcd479c9","ios":"levelo://app?vid=a52d5a87-be36-468b-a219-b655dcd479c9"},"vehicle_type_id":"4","last_reported":1744402279,"current_range_meters":14000,"station_id":"ce4bgih2rcd13ifvqba0","pricing_plan_id":"cebpf4jnsgd1na2vs0mg"},{"bike_id":"2f68a172-ecaa-467f-ae77-0cae53312bde","system_id":"levelo_inurba_marseille","lat":43.28443,"lon":5.39208,"is_reserved":false,"is_disabled":false,"rental_uris":{"android":"levelo://app?vid=2f68a172-ecaa-467f-ae77-0cae53312bde","ios":"levelo://app?vid=2f68a172-ecaa-467f-ae77-0cae53312bde"},"vehicle_type_id":"4","last_reported":1744402279,"current_range_meters":11200,"station_id":"ce4bho12rcd13ifvqh1g","pricing_plan_id":"cebpf4jnsgd1na2vs0mg"},{"bike_id":"0737e610-1d78-4b5c-a559-f4b668cf61a1","system_id":"levelo_inurba_marseille","lat":43.27992,"lon":5.41654,"is_reserved":false,"is_disabled":false,"rental_uris":{"android":"levelo://app?vid=0737e610-1d78-4b5c-a559-f4b668cf61a1","ios":"levelo://app?vid=0737e610-1d78-4b5c-a559-f4b668cf61a1"},"vehicle_type_id":"4","last_reported":1744402279,"current_range_meters":12000,"station_id":"ce4bho12rcd13ifvqh1g","pricing_plan_id":"cebpf4jnsgd1na2vs0mg"},{"bike_id":"d83056a7-bc1e-47b0-b485-d26f9289027b","system_id":"levelo_inurba_marseille","lat":43.29801,"lon":5.38105,"is_reserved":false,"is_disabled":false,"rental_uris":{"android":"levelo://app?vid=d83056a7-bc1e-47b0-b485-d26f9289027b","ios":"levelo://app?vid=d83056a7-bc1e-47b0-b485-d26f9289027b"},"vehicle_type_id":"4","last_reported":1744402279,"current_range_meters":12000,"station_id":"ce4bgip2rcd13ifvqbb0","pricing_plan_id":"cebpf4jnsgd1na2vs0mg"},{"bike_id":"0bb684bf-fe0c-4e65-b3c6-e51e534abff7","system_id":"levelo_inurba_marseille","lat":43.292566,"lon":5.384353,"is_reserved":false,"is_disabled":false,"rental_uris":{"android":"levelo://app?vid=0bb684bf-fe0c-4e65-b3c6-e51e534abff7","ios":"levelo://app?vid=0bb684bf-fe0c-4e65-b3c6-e51e534abff7"},"vehicle_type_id":"4","last_reported":1744402279,"current_range_meters":12000,"station_id":"ce4bh692rcd13ifvqea0","pricing_plan_id":"cebpf4jnsgd1na2vs0mg"},{"bike_id":"efef4156-e958-4a75-861d-1907f21a82aa","system_id":"levelo_inurba_marseille","lat":43.23963,"lon":5.36633,"is_reserved":false,"is_disabled":false,"rental_uris":{"android":"levelo://app?vid=efef4156-e958-4a75-861d-1907f21a82aa","ios":"levelo://app?vid=efef4156-e958-4a75-861d-1907f21a82aa"},"vehicle_type_id":"4","last_reported":1744402279,"current_range_meters":12000,"station_id":"ce4bhi12rcd13ifvqfp0","pricing_plan_id":"cebpf4jnsgd1na2vs0mg"},{"bike_id":"44ba52ea-1c79-4057-9621-9cc05cdb57b3","system_id":"levelo_inurba_marseille","lat":43.29258,"lon":5.3844,"is_reserved":false,"is_disabled":false,"rental_uris":{"android":"levelo://app?vid=44ba52ea-1c79-4057-9621-9cc05cdb57b3","ios":"levelo://app?vid=44ba52ea-1c79-4057-9621-9cc05cdb57b3"},"vehicle_type_id":"4","last_reported":1744402279,"current_range_meters":12000,"station_id":"ce4bh692rcd13ifvqea0","pricing_plan_id":"cebpf4jnsgd1na2vs0mg"},{"bike_id":"76f6ae46-bcbb-427e-8cee-b48737d41b2b","system_id":"levelo_inurba_marseille","lat":43.29957,"lon":5.38504,"is_reserved":false,"is_disabled":false,"rental_uris":{"android":"levelo://app?vid=76f6ae46-bcbb-427e-8cee-b48737d41b2b","ios":"levelo://app?vid=76f6ae46-bcbb-427e-8cee-b48737d41b2b"},"vehicle_type_id":"4","last_reported":1744402279,"current_range_meters":12000,"station_id":"ce4bgj92rcd13ifvqbd0","pricing_plan_id":"cebpf4jnsgd1na2vs0mg"},{"bike_id":"fa1f0f49-6fb3-44ef-9678-aaf45516df19","system_id":"levelo_inurba_marseille","lat":43.303375,"lon":5.368474,"is_reserved":false,"is_disabled":false,"rental_uris":{"android":"levelo://app?vid=fa1f0f49-6fb3-44ef-9678-aaf45516df19","ios":"levelo://app?vid=fa1f0f49-6fb3-44ef-9678-aaf45516df19"},"vehicle_type_id":"4","last_reported":1744402279,"current_range_meters":11600,"station_id":"ce4bgl92rcd13ifvqbq0","pricing_plan_id":"cebpf4jnsgd1na2vs0mg"},{"bike_id":"f21cce43-7e86-42c4-8a4d-3c922080ab5c","system_id":"levelo_inurba_marseille","lat":43.28943,"lon":5.36619,"is_reserved":false,"is_disabled":true,"rental_uris":{"android":"levelo://app?vid=f21cce43-7e86-42c4-8a4d-3c922080ab5c","ios":"levelo://app?vid=f21cce43-7e86-42c4-8a4d-3c922080ab5c"},"vehicle_type_id":"4","last_reported":1744402279,"current_range_meters":12400,"station_id":"ce4bhap2rcd13ifvqek0","pricing_plan_id":"cebpf4jnsgd1na2vs0mg"},{"bike_id":"4bcdcc82-d58d-4172-b626-a8c82408681c","system_id":"levelo_inurba_marseille","lat":43.31215,"lon":5.36838,"is_reserved":false,"is_disabled":true,"rental_uris":{"android":"levelo://app?vid=4bcdcc82-d58d-4172-b626-a8c82408681c","ios":"levelo://app?vid=4bcdcc82-d58d-4172-b626-a8c82408681c"},"vehicle_type_id":"4","last_reported":1744402279,"current_range_meters":12400,"station_id":"ce4bgl92rcd13ifvqbq0","pricing_plan_id":"cebpf4jnsgd1na2vs0mg"},{"bike_id":"411f282c-b696-41a4-888f-752e1134c529","system_id":"levelo_inurba_marseille","lat":43.26169,"lon":5.37454,"is_reserved":false,"is_disabled":true,"rental_uris":{"android":"levelo://app?vid=411f282c-b696-41a4-888f-752e1134c529","ios":"levelo://app?vid=411f282c-b696-41a4-888f-752e1134c529"},"vehicle_type_id":"4","last_reported":1744402279,"current_range_meters":12400,"station_id":"ce4bhgp2rcd13ifvqfc0","pricing_plan_id":"cebpf4jnsgd1na2vs0mg"},{"bike_id":"c693bef2-928d-434a-bb75-58cc9ede8aa2","system_id":"levelo_inurba_marseille","lat":43.25492,"lon":5.37652,"is_reserved":false,"is_disabled":false,"rental_uris":{"android":"levelo://app?vid=c693bef2-928d-434a-bb75-58cc9ede8aa2","ios":"levelo://app?vid=c693bef2-928d-434a-bb75-58cc9ede8aa2"},"vehicle_type_id":"4","last_reported":1744402279,"current_range_meters":12400,"station_id":"ce4bhh12rcd13ifvqff0","pricing_plan_id":"cebpf4jnsgd1na2vs0mg"},{"bike_id":"8aec15d1-ff49-4179-b83c-f6b55dc5ce12","system_id":"levelo_inurba_marseille","lat":43.294928,"lon":5.386732,"is_reserved":false,"is_disabled":false,"rental_uris":{"android":"levelo://app?vid=8aec15d1-ff49-4179-b83c-f6b55dc5ce12","ios":"levelo://app?vid=8aec15d1-ff49-4179-b83c-f6b55dc5ce12"},"vehicle_type_id":"4","last_reported":1744402279,"current_range_meters":12000,"station_id":"ce4bh0h2rcd13ifvqd40","pricing_plan_id":"cebpf4jnsgd1na2vs0mg"},{"bike_id":"940dfc39-5a30-4875-98ab-6fe2d47a6106","system_id":"levelo_inurba_marseille","lat":43.27675,"lon":5.38863,"is_reserved":false,"is_disabled":true,"rental_uris":{"android":"levelo://app?vid=940dfc39-5a30-4875-98ab-6fe2d47a6106","ios":"levelo://app?vid=940dfc39-5a30-4875-98ab-6fe2d47a6106"},"vehicle_type_id":"4","last_reported":1744402279,"current_range_meters":12800,"station_id":"ce4bhi12rcd13ifvqfo0","pricing_plan_id":"cebpf4jnsgd1na2vs0mg"},{"bike_id":"a37a942f-b267-4448-ae09-569bcee28586","system_id":"levelo_inurba_marseille","lat":43.27996,"lon":5.40007,"is_reserved":false,"is_disabled":false,"rental_uris":{"android":"levelo://app?vid=a37a942f-b267-4448-ae09-569bcee28586","ios":"levelo://app?vid=a37a942f-b267-4448-ae09-569bcee28586"},"vehicle_type_id":"4","last_reported":1744402279,"current_range_meters":12800,"station_id":"ce4bho92rcd13ifvqh4g","pricing_plan_id":"cebpf4jnsgd1na2vs0mg"},{"bike_id":"4c893399-b4ed-40ed-a49f-713da320f269","system_id":"levelo_inurba_marseille","lat":43.29861,"lon":5.37841,"is_reserved":false,"is_disabled":false,"rental_uris":{"android":"levelo://app?vid=4c893399-b4ed-40ed-a49f-713da320f269","ios":"levelo://app?vid=4c893399-b4ed-40ed-a49f-713da320f269"},"vehicle_type_id":"4","last_reported":1744402279,"current_range_meters":12800,"station_id":"","pricing_plan_id":"cebpf4jnsgd1na2vs0mg"},{"bike_id":"baa94301-2739-4a37-a3ac-e89976729731","system_id":"levelo_inurba_marseille","lat":43.2953,"lon":5.38539,"is_reserved":false,"is_disabled":false,"rental_uris":{"android":"levelo://app?vid=baa94301-2739-4a37-a3ac-e89976729731","ios":"levelo://app?vid=baa94301-2739-4a37-a3ac-e89976729731"},"vehicle_type_id":"4","last_reported":1744402279,"current_range_meters":12800,"station_id":"ce4bgih2rcd13ifvqba0","pricing_plan_id":"cebpf4jnsgd1na2vs0mg"},{"bike_id":"e4700417-8cb1-4cae-8ebb-475b91374047","system_id":"levelo_inurba_marseille","lat":43.29628,"lon":5.40606,"is_reserved":false,"is_disabled":false,"rental_uris":{"android":"levelo://app?vid=e4700417-8cb1-4cae-8ebb-475b91374047","ios":"levelo://app?vid=e4700417-8cb1-4cae-8ebb-475b91374047"},"vehicle_type_id":"4","last_reported":1744402279,"current_range_meters":12800,"station_id":"ce4bh0h2rcd13ifvqd60","pricing_plan_id":"cebpf4jnsgd1na2vs0mg"},{"bike_id":"8c58f2fa-99e1-41f8-bf90-9c1648b679b1","system_id":"levelo_inurba_marseille","lat":43.27301,"lon":5.41392,"is_reserved":false,"is_disabled":false,"rental_uris":{"android":"levelo://app?vid=8c58f2fa-99e1-41f8-bf90-9c1648b679b1","ios":"levelo://app?vid=8c58f2fa-99e1-41f8-bf90-9c1648b679b1"},"vehicle_type_id":"4","last_reported":1744402279,"current_range_meters":12800,"station_id":"","pricing_plan_id":"cebpf4jnsgd1na2vs0mg"},{"bike_id":"4bfe69a6-d68b-4e37-ac82-6ebde5d6d355","system_id":"levelo_inurba_marseille","lat":43.29036,"lon":5.3865,"is_reserved":false,"is_disabled":false,"rental_uris":{"android":"levelo://app?vid=4bfe69a6-d68b-4e37-ac82-6ebde5d6d355","ios":"levelo://app?vid=4bfe69a6-d68b-4e37-ac82-6ebde5d6d355"},"vehicle_type_id":"4","last_reported":1744402279,"current_range_meters":13600,"station_id":"ce4bh4p2rcd13ifvqe0g","pricing_plan_id":"cebpf4jnsgd1na2vs0mg"},{"bike_id":"c2d64cd7-0870-4d91-9f06-31ec00c18da9","system_id":"levelo_inurba_marseille","lat":43.29507,"lon":5.37519,"is_reserved":false,"is_disabled":false,"rental_uris":{"android":"levelo://app?vid=c2d64cd7-0870-4d91-9f06-31ec00c18da9","ios":"levelo://app?vid=c2d64cd7-0870-4d91-9f06-31ec00c18da9"},"vehicle_type_id":"4","last_reported":1744402279,"current_range_meters":10800,"station_id":"ce4bgkp2rcd13ifvqbmg","pricing_plan_id":"cebpf4jnsgd1na2vs0mg"},{"bike_id":"32512c24-e776-435e-827c-c1b5b726d1b5","system_id":"levelo_inurba_marseille","lat":43.29418,"lon":5.38619,"is_reserved":false,"is_disabled":false,"rental_uris":{"android":"levelo://app?vid=32512c24-e776-435e-827c-c1b5b726d1b5","ios":"levelo://app?vid=32512c24-e776-435e-827c-c1b5b726d1b5"},"vehicle_type_id":"4","last_reported":1744402279,"current_range_meters":13600,"station_id":"ce4bh2h2rcd13ifvqdh0","pricing_plan_id":"cebpf4jnsgd1na2vs0mg"},{"bike_id":"60420b3f-ea59-4a1d-b84a-b4bc3817220a","system_id":"levelo_inurba_marseille","lat":43.279469,"lon":5.410486,"is_reserved":false,"is_disabled":false,"rental_uris":{"android":"levelo://app?vid=60420b3f-ea59-4a1d-b84a-b4bc3817220a","ios":"levelo://app?vid=60420b3f-ea59-4a1d-b84a-b4bc3817220a"},"vehicle_type_id":"4","last_reported":1744402279,"current_range_meters":13600,"station_id":"ce4bhnp2rcd13ifvqh0g","pricing_plan_id":"cebpf4jnsgd1na2vs0mg"},{"bike_id":"e898566f-a903-4ffd-8f40-4cb930030df5","system_id":"levelo_inurba_marseille","lat":43.29583,"lon":5.38105,"is_reserved":false,"is_disabled":false,"rental_uris":{"android":"levelo://app?vid=e898566f-a903-4ffd-8f40-4cb930030df5","ios":"levelo://app?vid=e898566f-a903-4ffd-8f40-4cb930030df5"},"vehicle_type_id":"4","last_reported":1744402279,"current_range_meters":13600,"station_id":"ce4bgl12rcd13ifvqbo0","pricing_plan_id":"cebpf4jnsgd1na2vs0mg"},{"bike_id":"1db3f027-3907-4a6a-880b-45e50db5828b","system_id":"levelo_inurba_marseille","lat":43.25491,"lon":5.37658,"is_reserved":false,"is_disabled":false,"rental_uris":{"android":"levelo://app?vid=1db3f027-3907-4a6a-880b-45e50db5828b","ios":"levelo://app?vid=1db3f027-3907-4a6a-880b-45e50db5828b"},"vehicle_type_id":"4","last_reported":1744402279,"current_range_meters":13600,"station_id":"ce4bhh12rcd13ifvqff0","pricing_plan_id":"cebpf4jnsgd1na2vs0mg"},{"bike_id":"d38e0e5e-1441-423a-9774-3196b1a1cb17","system_id":"levelo_inurba_marseille","lat":43.300316,"lon":5.399792,"is_reserved":false,"is_disabled":false,"rental_uris":{"android":"levelo://app?vid=d38e0e5e-1441-423a-9774-3196b1a1cb17","ios":"levelo://app?vid=d38e0e5e-1441-423a-9774-3196b1a1cb17"},"vehicle_type_id":"4","last_reported":1744402279,"current_range_meters":13600,"station_id":"","pricing_plan_id":"cebpf4jnsgd1na2vs0mg"},{"bike_id":"51737ed7-e52d-4dd7-9fed-d5b20966219d","system_id":"levelo_inurba_marseille","lat":43.29977,"lon":5.3849,"is_reserved":false,"is_disabled":false,"rental_uris":{"android":"levelo://app?vid=51737ed7-e52d-4dd7-9fed-d5b20966219d","ios":"levelo://app?vid=51737ed7-e52d-4dd7-9fed-d5b20966219d"},"vehicle_type_id":"4","last_reported":1744402279,"current_range_meters":13600,"station_id":"ce4bgj92rcd13ifvqbd0","pricing_plan_id":"cebpf4jnsgd1na2vs0mg"},{"bike_id":"4a0973b0-92a0-41e8-9b0d-a99e944bafe0","system_id":"levelo_inurba_marseille","lat":43.34482,"lon":5.41271,"is_reserved":false,"is_disabled":false,"rental_uris":{"android":"levelo://app?vid=4a0973b0-92a0-41e8-9b0d-a99e944bafe0","ios":"levelo://app?vid=4a0973b0-92a0-41e8-9b0d-a99e944bafe0"},"vehicle_type_id":"4","last_reported":1744402279,"current_range_meters":13600,"station_id":"","pricing_plan_id":"cebpf4jnsgd1na2vs0mg"},{"bike_id":"26152564-6f7d-44e1-b108-6a4513d82c2a","system_id":"levelo_inurba_marseille","lat":43.294235,"lon":5.386265,"is_reserved":false,"is_disabled":false,"rental_uris":{"android":"levelo://app?vid=26152564-6f7d-44e1-b108-6a4513d82c2a","ios":"levelo://app?vid=26152564-6f7d-44e1-b108-6a4513d82c2a"},"vehicle_type_id":"4","last_reported":1744402279,"current_range_meters":13600,"station_id":"ce4bh2h2rcd13ifvqdh0","pricing_plan_id":"cebpf4jnsgd1na2vs0mg"},{"bike_id":"2be87bd9-9312-4b4f-9e0a-6938c7af5cba","system_id":"levelo_inurba_marseille","lat":43.27902,"lon":5.38016,"is_reserved":false,"is_disabled":false,"rental_uris":{"android":"levelo://app?vid=2be87bd9-9312-4b4f-9e0a-6938c7af5cba","ios":"levelo://app?vid=2be87bd9-9312-4b4f-9e0a-6938c7af5cba"},"vehicle_type_id":"4","last_reported":1744402279,"current_range_meters":12800,"station_id":"ce4bhf92rcd13ifvqf50","pricing_plan_id":"cebpf4jnsgd1na2vs0mg"},{"bike_id":"dc89ac0a-e989-4bef-8dd1-f729e31a1396","system_id":"levelo_inurba_marseille","lat":43.30187,"lon":5.36624,"is_reserved":false,"is_disabled":false,"rental_uris":{"android":"levelo://app?vid=dc89ac0a-e989-4bef-8dd1-f729e31a1396","ios":"levelo://app?vid=dc89ac0a-e989-4bef-8dd1-f729e31a1396"},"vehicle_type_id":"4","last_reported":1744402279,"current_range_meters":13600,"station_id":"ce4bgrh2rcd13ifvqc8g","pricing_plan_id":"cebpf4jnsgd1na2vs0mg"},{"bike_id":"d617520b-2b4d-4468-bcb1-176400d2b64b","system_id":"levelo_inurba_marseille","lat":43.27375,"lon":5.36238,"is_reserved":false,"is_disabled":false,"rental_uris":{"android":"levelo://app?vid=d617520b-2b4d-4468-bcb1-176400d2b64b","ios":"levelo://app?vid=d617520b-2b4d-4468-bcb1-176400d2b64b"},"vehicle_type_id":"4","last_reported":1744402279,"current_range_meters":13600,"station_id":"ce4bhbh2rcd13ifvqeo0","pricing_plan_id":"cebpf4jnsgd1na2vs0mg"},{"bike_id":"27e836aa-5012-4b4c-a35c-f1a3cd78effe","system_id":"levelo_inurba_marseille","lat":43.24661,"lon":5.38162,"is_reserved":false,"is_disabled":false,"rental_uris":{"android":"levelo://app?vid=27e836aa-5012-4b4c-a35c-f1a3cd78effe","ios":"levelo://app?vid=27e836aa-5012-4b4c-a35c-f1a3cd78effe"},"vehicle_type_id":"4","last_reported":1744402279,"current_range_meters":13600,"station_id":"ce4bhih2rcd13ifvqfr0","pricing_plan_id":"cebpf4jnsgd1na2vs0mg"},{"bike_id":"bb77639c-bcff-4405-8bdb-9b9b477f9545","system_id":"levelo_inurba_marseille","lat":43.26559,"lon":5.39012,"is_reserved":false,"is_disabled":false,"rental_uris":{"android":"levelo://app?vid=bb77639c-bcff-4405-8bdb-9b9b477f9545","ios":"levelo://app?vid=bb77639c-bcff-4405-8bdb-9b9b477f9545"},"vehicle_type_id":"4","last_reported":1744402279,"current_range_meters":13600,"station_id":"ce4bhe12rcd13ifvqf30","pricing_plan_id":"cebpf4jnsgd1na2vs0mg"},{"bike_id":"d13e48a6-fbb1-4ad8-99ec-0b8afd3a71a1","system_id":"levelo_inurba_marseille","lat":43.28962,"lon":5.37855,"is_reserved":false,"is_disabled":false,"rental_uris":{"android":"levelo://app?vid=d13e48a6-fbb1-4ad8-99ec-0b8afd3a71a1","ios":"levelo://app?vid=d13e48a6-fbb1-4ad8-99ec-0b8afd3a71a1"},"vehicle_type_id":"4","last_reported":1744402279,"current_range_meters":14000,"station_id":"ce4bh9p2rcd13ifvqed0","pricing_plan_id":"cebpf4jnsgd1na2vs0mg"},{"bike_id":"cb44b815-75e3-4b18-a944-ad988708024a","system_id":"levelo_inurba_marseille","lat":43.27207,"lon":5.39176,"is_reserved":false,"is_disabled":false,"rental_uris":{"android":"levelo://app?vid=cb44b815-75e3-4b18-a944-ad988708024a","ios":"levelo://app?vid=cb44b815-75e3-4b18-a944-ad988708024a"},"vehicle_type_id":"4","last_reported":1744402279,"current_range_meters":13600,"station_id":"ce4bhhp2rcd13ifvqfm0","pricing_plan_id":"cebpf4jnsgd1na2vs0mg"},{"bike_id":"d885adc5-16db-460e-8956-6da2742a19cd","system_id":"levelo_inurba_marseille","lat":43.31895,"lon":5.40726,"is_reserved":false,"is_disabled":false,"rental_uris":{"android":"levelo://app?vid=d885adc5-16db-460e-8956-6da2742a19cd","ios":"levelo://app?vid=d885adc5-16db-460e-8956-6da2742a19cd"},"vehicle_type_id":"4","last_reported":1744402279,"current_range_meters":14000,"station_id":"ce4bhq12rcd13ifvqhig","pricing_plan_id":"cebpf4jnsgd1na2vs0mg"},{"bike_id":"4651fc10-fe57-460e-89c6-9ba891098581","system_id":"levelo_inurba_marseille","lat":43.24166,"lon":5.363885,"is_reserved":false,"is_disabled":false,"rental_uris":{"android":"levelo://app?vid=4651fc10-fe57-460e-89c6-9ba891098581","ios":"levelo://app?vid=4651fc10-fe57-460e-89c6-9ba891098581"},"vehicle_type_id":"4","last_reported":1744402279,"current_range_meters":14000,"station_id":"cpo36qri1sfpv3e86is0","pricing_plan_id":"cebpf4jnsgd1na2vs0mg"},{"bike_id":"750597eb-e194-44cb-8c79-1ffe82614dbc","system_id":"levelo_inurba_marseille","lat":43.285098,"lon":5.372572,"is_reserved":false,"is_disabled":false,"rental_uris":{"android":"levelo://app?vid=750597eb-e194-44cb-8c79-1ffe82614dbc","ios":"levelo://app?vid=750597eb-e194-44cb-8c79-1ffe82614dbc"},"vehicle_type_id":"4","last_reported":1744402279,"current_range_meters":14000,"station_id":"ce4bh412rcd13ifvqds0","pricing_plan_id":"cebpf4jnsgd1na2vs0mg"},{"bike_id":"16fd30b1-cad6-4fc5-9de5-c7170be035f0","system_id":"levelo_inurba_marseille","lat":43.25698,"lon":5.41121,"is_reserved":false,"is_disabled":false,"rental_uris":{"android":"levelo://app?vid=16fd30b1-cad6-4fc5-9de5-c7170be035f0","ios":"levelo://app?vid=16fd30b1-cad6-4fc5-9de5-c7170be035f0"},"vehicle_type_id":"4","last_reported":1744402279,"current_range_meters":14000,"station_id":"ce4bhkp2rcd13ifvqgd0","pricing_plan_id":"cebpf4jnsgd1na2vs0mg"},{"bike_id":"343bc764-f545-4870-aa32-f74f09c1bba0","system_id":"levelo_inurba_marseille","lat":43.29261,"lon":5.38435,"is_reserved":false,"is_disabled":false,"rental_uris":{"android":"levelo://app?vid=343bc764-f545-4870-aa32-f74f09c1bba0","ios":"levelo://app?vid=343bc764-f545-4870-aa32-f74f09c1bba0"},"vehicle_type_id":"4","last_reported":1744402279,"current_range_meters":14400,"station_id":"ce4bh692rcd13ifvqea0","pricing_plan_id":"cebpf4jnsgd1na2vs0mg"},{"bike_id":"ef291804-1477-432e-b153-82ea15725418","system_id":"levelo_inurba_marseille","lat":43.33742,"lon":5.37454,"is_reserved":false,"is_disabled":false,"rental_uris":{"android":"levelo://app?vid=ef291804-1477-432e-b153-82ea15725418","ios":"levelo://app?vid=ef291804-1477-432e-b153-82ea15725418"},"vehicle_type_id":"4","last_reported":1744402279,"current_range_meters":14400,"station_id":"","pricing_plan_id":"cebpf4jnsgd1na2vs0mg"},{"bike_id":"ffd15e07-93fa-4c58-969f-cd1e12271959","system_id":"levelo_inurba_marseille","lat":43.2549,"lon":5.37661,"is_reserved":false,"is_disabled":false,"rental_uris":{"android":"levelo://app?vid=ffd15e07-93fa-4c58-969f-cd1e12271959","ios":"levelo://app?vid=ffd15e07-93fa-4c58-969f-cd1e12271959"},"vehicle_type_id":"4","last_reported":1744402279,"current_range_meters":14000,"station_id":"ce4bhh12rcd13ifvqff0","pricing_plan_id":"cebpf4jnsgd1na2vs0mg"},{"bike_id":"df5a1254-a9f6-4eca-b359-0fba72a4a21a","system_id":"levelo_inurba_marseille","lat":43.296997,"lon":5.380401,"is_reserved":false,"is_disabled":false,"rental_uris":{"android":"levelo://app?vid=df5a1254-a9f6-4eca-b359-0fba72a4a21a","ios":"levelo://app?vid=df5a1254-a9f6-4eca-b359-0fba72a4a21a"},"vehicle_type_id":"4","last_reported":1744402279,"current_range_meters":14400,"station_id":"ce4bh092rcd13ifvqd30","pricing_plan_id":"cebpf4jnsgd1na2vs0mg"},{"bike_id":"a6ac1257-bdcf-49f9-ba10-5cb235c6a4e0","system_id":"levelo_inurba_marseille","lat":43.29874,"lon":5.38909,"is_reserved":false,"is_disabled":false,"rental_uris":{"android":"levelo://app?vid=a6ac1257-bdcf-49f9-ba10-5cb235c6a4e0","ios":"levelo://app?vid=a6ac1257-bdcf-49f9-ba10-5cb235c6a4e0"},"vehicle_type_id":"4","last_reported":1744402279,"current_range_meters":14000,"station_id":"ce4bh392rcd13ifvqdl0","pricing_plan_id":"cebpf4jnsgd1na2vs0mg"},{"bike_id":"6a582fb9-1f30-4baf-8a92-7c21d9d8d42c","system_id":"levelo_inurba_marseille","lat":43.2894,"lon":5.39633,"is_reserved":false,"is_disabled":false,"rental_uris":{"android":"levelo://app?vid=6a582fb9-1f30-4baf-8a92-7c21d9d8d42c","ios":"levelo://app?vid=6a582fb9-1f30-4baf-8a92-7c21d9d8d42c"},"vehicle_type_id":"4","last_reported":1744402279,"current_range_meters":14000,"station_id":"ce4bh3h2rcd13ifvqdn0","pricing_plan_id":"cebpf4jnsgd1na2vs0mg"},{"bike_id":"fada94ee-4770-424e-ae84-99e0a30f0067","system_id":"levelo_inurba_marseille","lat":43.24818,"lon":5.37448,"is_reserved":false,"is_disabled":false,"rental_uris":{"android":"levelo://app?vid=fada94ee-4770-424e-ae84-99e0a30f0067","ios":"levelo://app?vid=fada94ee-4770-424e-ae84-99e0a30f0067"},"vehicle_type_id":"4","last_reported":1744402279,"current_range_meters":14800,"station_id":"ce4bhgh2rcd13ifvqfb0","pricing_plan_id":"cebpf4jnsgd1na2vs0mg"},{"bike_id":"2952241a-32ec-48cd-8ddd-c2d897c25a27","system_id":"levelo_inurba_marseille","lat":43.29425,"lon":5.38627,"is_reserved":false,"is_disabled":false,"rental_uris":{"android":"levelo://app?vid=2952241a-32ec-48cd-8ddd-c2d897c25a27","ios":"levelo://app?vid=2952241a-32ec-48cd-8ddd-c2d897c25a27"},"vehicle_type_id":"4","last_reported":1744402279,"current_range_meters":14800,"station_id":"ce4bh2h2rcd13ifvqdh0","pricing_plan_id":"cebpf4jnsgd1na2vs0mg"},{"bike_id":"b54d7fd2-3ff5-4ba0-aaf9-efe73ed021f9","system_id":"levelo_inurba_marseille","lat":43.25493,"lon":5.37646,"is_reserved":false,"is_disabled":false,"rental_uris":{"android":"levelo://app?vid=b54d7fd2-3ff5-4ba0-aaf9-efe73ed021f9","ios":"levelo://app?vid=b54d7fd2-3ff5-4ba0-aaf9-efe73ed021f9"},"vehicle_type_id":"4","last_reported":1744402279,"current_range_meters":14800,"station_id":"ce4bhh12rcd13ifvqff0","pricing_plan_id":"cebpf4jnsgd1na2vs0mg"},{"bike_id":"47c9c160-e3cb-488d-97a6-0cdc1d381adf","system_id":"levelo_inurba_marseille","lat":43.300908,"lon":5.390775,"is_reserved":false,"is_disabled":false,"rental_uris":{"android":"levelo://app?vid=47c9c160-e3cb-488d-97a6-0cdc1d381adf","ios":"levelo://app?vid=47c9c160-e3cb-488d-97a6-0cdc1d381adf"},"vehicle_type_id":"4","last_reported":1744402279,"current_range_meters":14800,"station_id":"ce4bh192rcd13ifvqdb0","pricing_plan_id":"cebpf4jnsgd1na2vs0mg"},{"bike_id":"c9aa49b6-dfff-45a5-aada-a9b66a79c5ac","system_id":"levelo_inurba_marseille","lat":43.24666,"lon":5.38159,"is_reserved":false,"is_disabled":false,"rental_uris":{"android":"levelo://app?vid=c9aa49b6-dfff-45a5-aada-a9b66a79c5ac","ios":"levelo://app?vid=c9aa49b6-dfff-45a5-aada-a9b66a79c5ac"},"vehicle_type_id":"4","last_reported":1744402279,"current_range_meters":15200,"station_id":"ce4bhih2rcd13ifvqfr0","pricing_plan_id":"cebpf4jnsgd1na2vs0mg"},{"bike_id":"f88df56e-ad25-47b9-be86-f578cd84c592","system_id":"levelo_inurba_marseille","lat":43.30543,"lon":5.36727,"is_reserved":false,"is_disabled":false,"rental_uris":{"android":"levelo://app?vid=f88df56e-ad25-47b9-be86-f578cd84c592","ios":"levelo://app?vid=f88df56e-ad25-47b9-be86-f578cd84c592"},"vehicle_type_id":"4","last_reported":1744402279,"current_range_meters":15200,"station_id":"ce4bgrp2rcd13ifvqc9g","pricing_plan_id":"cebpf4jnsgd1na2vs0mg"},{"bike_id":"a0cd8dfb-e03e-4bc5-b175-ce473079b960","system_id":"levelo_inurba_marseille","lat":43.28004,"lon":5.41639,"is_reserved":false,"is_disabled":false,"rental_uris":{"android":"levelo://app?vid=a0cd8dfb-e03e-4bc5-b175-ce473079b960","ios":"levelo://app?vid=a0cd8dfb-e03e-4bc5-b175-ce473079b960"},"vehicle_type_id":"4","last_reported":1744402279,"current_range_meters":16000,"station_id":"ce4bho12rcd13ifvqh1g","pricing_plan_id":"cebpf4jnsgd1na2vs0mg"},{"bike_id":"77c08f5b-cdaa-450a-995a-537a84daa91d","system_id":"levelo_inurba_marseille","lat":43.25506,"lon":5.37642,"is_reserved":false,"is_disabled":false,"rental_uris":{"android":"levelo://app?vid=77c08f5b-cdaa-450a-995a-537a84daa91d","ios":"levelo://app?vid=77c08f5b-cdaa-450a-995a-537a84daa91d"},"vehicle_type_id":"4","last_reported":1744402279,"current_range_meters":15200,"station_id":"ce4bhh12rcd13ifvqff0","pricing_plan_id":"cebpf4jnsgd1na2vs0mg"},{"bike_id":"8b7638a7-6529-404f-9d8d-588b5138f09d","system_id":"levelo_inurba_marseille","lat":43.29259,"lon":5.38449,"is_reserved":false,"is_disabled":false,"rental_uris":{"android":"levelo://app?vid=8b7638a7-6529-404f-9d8d-588b5138f09d","ios":"levelo://app?vid=8b7638a7-6529-404f-9d8d-588b5138f09d"},"vehicle_type_id":"4","last_reported":1744402279,"current_range_meters":15200,"station_id":"ce4bh692rcd13ifvqea0","pricing_plan_id":"cebpf4jnsgd1na2vs0mg"},{"bike_id":"5b77a833-8185-45c2-9fe3-07eb40df54ca","system_id":"levelo_inurba_marseille","lat":43.33995,"lon":5.38057,"is_reserved":false,"is_disabled":false,"rental_uris":{"android":"levelo://app?vid=5b77a833-8185-45c2-9fe3-07eb40df54ca","ios":"levelo://app?vid=5b77a833-8185-45c2-9fe3-07eb40df54ca"},"vehicle_type_id":"4","last_reported":1744402279,"current_range_meters":15200,"station_id":"","pricing_plan_id":"cebpf4jnsgd1na2vs0mg"},{"bike_id":"cfa05593-02c0-4361-b7cb-d147d92b27a4","system_id":"levelo_inurba_marseille","lat":43.24152,"lon":5.36404,"is_reserved":false,"is_disabled":false,"rental_uris":{"android":"levelo://app?vid=cfa05593-02c0-4361-b7cb-d147d92b27a4","ios":"levelo://app?vid=cfa05593-02c0-4361-b7cb-d147d92b27a4"},"vehicle_type_id":"4","last_reported":1744402279,"current_range_meters":16000,"station_id":"cpo36qri1sfpv3e86is0","pricing_plan_id":"cebpf4jnsgd1na2vs0mg"},{"bike_id":"2351f0be-d929-4afc-a4fb-f5021211f618","system_id":"levelo_inurba_marseille","lat":43.30803,"lon":5.43522,"is_reserved":false,"is_disabled":false,"rental_uris":{"android":"levelo://app?vid=2351f0be-d929-4afc-a4fb-f5021211f618","ios":"levelo://app?vid=2351f0be-d929-4afc-a4fb-f5021211f618"},"vehicle_type_id":"4","last_reported":1744402279,"current_range_meters":16000,"station_id":"ce4bhph2rcd13ifvqheg","pricing_plan_id":"cebpf4jnsgd1na2vs0mg"},{"bike_id":"4a70ab6e-bf7a-4e4d-b7c4-45a5deeee70d","system_id":"levelo_inurba_marseille","lat":43.24543,"lon":5.39525,"is_reserved":false,"is_disabled":false,"rental_uris":{"android":"levelo://app?vid=4a70ab6e-bf7a-4e4d-b7c4-45a5deeee70d","ios":"levelo://app?vid=4a70ab6e-bf7a-4e4d-b7c4-45a5deeee70d"},"vehicle_type_id":"4","last_reported":1744402279,"current_range_meters":16000,"station_id":"ce4bhlp2rcd13ifvqgjg","pricing_plan_id":"cebpf4jnsgd1na2vs0mg"},{"bike_id":"030557c9-ced9-4a18-acec-4eff8c4972ce","system_id":"levelo_inurba_marseille","lat":43.29424,"lon":5.38896,"is_reserved":false,"is_disabled":false,"rental_uris":{"android":"levelo://app?vid=030557c9-ced9-4a18-acec-4eff8c4972ce","ios":"levelo://app?vid=030557c9-ced9-4a18-acec-4eff8c4972ce"},"vehicle_type_id":"4","last_reported":1744402279,"current_range_meters":16000,"station_id":"","pricing_plan_id":"cebpf4jnsgd1na2vs0mg"},{"bike_id":"28ce3fc7-24e0-435f-8c79-7d026b4214a5","system_id":"levelo_inurba_marseille","lat":43.29548,"lon":5.38516,"is_reserved":false,"is_disabled":false,"rental_uris":{"android":"levelo://app?vid=28ce3fc7-24e0-435f-8c79-7d026b4214a5","ios":"levelo://app?vid=28ce3fc7-24e0-435f-8c79-7d026b4214a5"},"vehicle_type_id":"4","last_reported":1744402279,"current_range_meters":16000,"station_id":"ce4bgih2rcd13ifvqba0","pricing_plan_id":"cebpf4jnsgd1na2vs0mg"},{"bike_id":"30d662c3-ed3c-4a8e-9abe-7d04dd40a65c","system_id":"levelo_inurba_marseille","lat":43.27298,"lon":5.39094,"is_reserved":false,"is_disabled":false,"rental_uris":{"android":"levelo://app?vid=30d662c3-ed3c-4a8e-9abe-7d04dd40a65c","ios":"levelo://app?vid=30d662c3-ed3c-4a8e-9abe-7d04dd40a65c"},"vehicle_type_id":"4","last_reported":1744402279,"current_range_meters":15200,"station_id":"ce4bhgp2rcd13ifvqfe0","pricing_plan_id":"cebpf4jnsgd1na2vs0mg"},{"bike_id":"0e7bf4ae-5aed-4055-a1f8-96debbb9847e","system_id":"levelo_inurba_marseille","lat":43.2417,"lon":5.36391,"is_reserved":false,"is_disabled":false,"rental_uris":{"android":"levelo://app?vid=0e7bf4ae-5aed-4055-a1f8-96debbb9847e","ios":"levelo://app?vid=0e7bf4ae-5aed-4055-a1f8-96debbb9847e"},"vehicle_type_id":"4","last_reported":1744402279,"current_range_meters":16000,"station_id":"cpo36qri1sfpv3e86is0","pricing_plan_id":"cebpf4jnsgd1na2vs0mg"},{"bike_id":"0ce296a1-77a8-4f25-8c10-715a42e126f2","system_id":"levelo_inurba_marseille","lat":43.294104,"lon":5.38629,"is_reserved":false,"is_disabled":false,"rental_uris":{"android":"levelo://app?vid=0ce296a1-77a8-4f25-8c10-715a42e126f2","ios":"levelo://app?vid=0ce296a1-77a8-4f25-8c10-715a42e126f2"},"vehicle_type_id":"4","last_reported":1744402279,"current_range_meters":16400,"station_id":"ce4bgvp2rcd13ifvqct0","pricing_plan_id":"cebpf4jnsgd1na2vs0mg"},{"bike_id":"f7d1eee0-1715-419d-beac-1b98ec9e62ed","system_id":"levelo_inurba_marseille","lat":43.3094,"lon":5.39047,"is_reserved":false,"is_disabled":true,"rental_uris":{"android":"levelo://app?vid=f7d1eee0-1715-419d-beac-1b98ec9e62ed","ios":"levelo://app?vid=f7d1eee0-1715-419d-beac-1b98ec9e62ed"},"vehicle_type_id":"4","last_reported":1744402279,"current_range_meters":16400,"station_id":"ce4bgup2rcd13ifvqco0","pricing_plan_id":"cebpf4jnsgd1na2vs0mg"},{"bike_id":"80663e12-6b64-446d-88c9-20255bde1a8a","system_id":"levelo_inurba_marseille","lat":43.30899,"lon":5.39499,"is_reserved":false,"is_disabled":true,"rental_uris":{"android":"levelo://app?vid=80663e12-6b64-446d-88c9-20255bde1a8a","ios":"levelo://app?vid=80663e12-6b64-446d-88c9-20255bde1a8a"},"vehicle_type_id":"4","last_reported":1744402279,"current_range_meters":16400,"station_id":"ce4bh012rcd13ifvqcv0","pricing_plan_id":"cebpf4jnsgd1na2vs0mg"},{"bike_id":"206f8eb7-ea81-4318-be06-1008d3f72089","system_id":"levelo_inurba_marseille","lat":43.28931,"lon":5.38412,"is_reserved":false,"is_disabled":false,"rental_uris":{"android":"levelo://app?vid=206f8eb7-ea81-4318-be06-1008d3f72089","ios":"levelo://app?vid=206f8eb7-ea81-4318-be06-1008d3f72089"},"vehicle_type_id":"4","last_reported":1744402279,"current_range_meters":16400,"station_id":"ce4bh612rcd13ifvqe6g","pricing_plan_id":"cebpf4jnsgd1na2vs0mg"},{"bike_id":"b10efb6c-63de-4673-9ba6-ecc63a29dc73","system_id":"levelo_inurba_marseille","lat":43.25504,"lon":5.37656,"is_reserved":false,"is_disabled":false,"rental_uris":{"android":"levelo://app?vid=b10efb6c-63de-4673-9ba6-ecc63a29dc73","ios":"levelo://app?vid=b10efb6c-63de-4673-9ba6-ecc63a29dc73"},"vehicle_type_id":"4","last_reported":1744402279,"current_range_meters":16400,"station_id":"ce4bhh12rcd13ifvqff0","pricing_plan_id":"cebpf4jnsgd1na2vs0mg"},{"bike_id":"c6dad73f-dc44-4f9a-9444-9015129b4e56","system_id":"levelo_inurba_marseille","lat":43.299621,"lon":5.384997,"is_reserved":false,"is_disabled":false,"rental_uris":{"android":"levelo://app?vid=c6dad73f-dc44-4f9a-9444-9015129b4e56","ios":"levelo://app?vid=c6dad73f-dc44-4f9a-9444-9015129b4e56"},"vehicle_type_id":"4","last_reported":1744402279,"current_range_meters":16400,"station_id":"ce4bgg92rcd13ifvqb30","pricing_plan_id":"cebpf4jnsgd1na2vs0mg"},{"bike_id":"22c24209-44bc-4360-b755-afb65ff18171","system_id":"levelo_inurba_marseille","lat":43.29615,"lon":5.38063,"is_reserved":false,"is_disabled":false,"rental_uris":{"android":"levelo://app?vid=22c24209-44bc-4360-b755-afb65ff18171","ios":"levelo://app?vid=22c24209-44bc-4360-b755-afb65ff18171"},"vehicle_type_id":"4","last_reported":1744402279,"current_range_meters":16400,"station_id":"ce4bgl12rcd13ifvqbo0","pricing_plan_id":"cebpf4jnsgd1na2vs0mg"},{"bike_id":"fa0290ae-4845-42fd-8ae9-57ffb7ee0ce9","system_id":"levelo_inurba_marseille","lat":43.29525,"lon":5.38537,"is_reserved":false,"is_disabled":false,"rental_uris":{"android":"levelo://app?vid=fa0290ae-4845-42fd-8ae9-57ffb7ee0ce9","ios":"levelo://app?vid=fa0290ae-4845-42fd-8ae9-57ffb7ee0ce9"},"vehicle_type_id":"4","last_reported":1744402279,"current_range_meters":16400,"station_id":"ce4bgih2rcd13ifvqba0","pricing_plan_id":"cebpf4jnsgd1na2vs0mg"},{"bike_id":"d11c0931-6f75-468d-92a3-6365a4779763","system_id":"levelo_inurba_marseille","lat":43.27419,"lon":5.39415,"is_reserved":false,"is_disabled":false,"rental_uris":{"android":"levelo://app?vid=d11c0931-6f75-468d-92a3-6365a4779763","ios":"levelo://app?vid=d11c0931-6f75-468d-92a3-6365a4779763"},"vehicle_type_id":"4","last_reported":1744402279,"current_range_meters":16400,"station_id":"ce4bhdp2rcd13ifvqf20","pricing_plan_id":"cebpf4jnsgd1na2vs0mg"},{"bike_id":"84498a92-c927-4cdd-bec3-927d0081ea09","system_id":"levelo_inurba_marseille","lat":43.27992,"lon":5.40015,"is_reserved":false,"is_disabled":false,"rental_uris":{"android":"levelo://app?vid=84498a92-c927-4cdd-bec3-927d0081ea09","ios":"levelo://app?vid=84498a92-c927-4cdd-bec3-927d0081ea09"},"vehicle_type_id":"4","last_reported":1744402279,"current_range_meters":16800,"station_id":"ce4bho92rcd13ifvqh4g","pricing_plan_id":"cebpf4jnsgd1na2vs0mg"},