{"last_updated":1753031374,"ttl":60,"version":"2.2","data":{"bikes":[{"bike_id":"53b742a7-31ae-4272-9bba-7740339e2a2f","system_id":"levelo_inurba_marseille","lat":43.33747,"lon":5.37463,"is_reserved":false,"is_disabled":false,"rental_uris":{"android":"levelo://app?vid=53b742a7-31ae-4272-9bba-7740339e2a2f","ios":"levelo://app?vid=53b742a7-31ae-4272-9bba-7740339e2a2f"},"vehicle_type_id":"1","last_reported":1753031375,"current_range_meters":10000,"station_id":"","pricing_plan_id":"cebpf4jnsgd1na2vs0mg"},{"bike_id":"50a3cf4a-51a8-41d6-a722-3110751ce3ed","system_id":"levelo_inurba_marseille","lat":43.282684,"lon":5.35053,"is_reserved":false,"is_disabled":false,"rental_uris":{"android":"levelo://app?vid=50a3cf4a-51a8-41d6-a722-3110751ce3ed","ios":"levelo://app?vid=50a3cf4a-51a8-41d6-a722-3110751ce3ed"},"vehicle_type_id":"4","last_reported":1753031375,"current_range_meters":5600,"station_id":"ce4bhbp2rcd13ifvqerg","pricing_plan_id":"cebpf4jnsgd1na2vs0mg"},{"bike_id":"b97e6b0b-10fe-4047-bba2-56fb41cc1f04","system_id":"levelo_inurba_marseille","lat":43.30595,"lon":5.37227,"is_reserved":false,"is_disabled":false,"rental_uris":{"android":"levelo://app?vid=b97e6b0b-10fe-4047-bba2-56fb41cc1f04","ios":"levelo://app?vid=b97e6b0b-10fe-4047-bba2-56fb41cc1f04"},"vehicle_type_id":"4","last_reported":1753031375,"current_range_meters":3200,"station_id":"ce4bgqh2rcd13ifvqc4g","pricing_plan_id":"cebpf4jnsgd1na2vs0mg"},{"bike_id":"8a8de0eb-d172-4378-9552-544c6cc04c48","system_id":"levelo_inurba_marseille","lat":43.24511,"lon":5.36934,"is_reserved":false,"is_disabled":false,"rental_uris":{"android":"levelo://app?vid=8a8de0eb-d172-4378-9552-544c6cc04c48","ios":"levelo://app?vid=8a8de0eb-d172-4378-9552-544c6cc04c48"},"vehicle_type_id":"4","last_reported":1753031375,"current_range_meters":2800,"station_id":"","pricing_plan_id":"cebpf4jnsgd1na2vs0mg"},{"bike_id":"8d64ee43-edd0-4975-91e3-936413974eb5","system_id":"levelo_inurba_marseille","lat":43.28401,"lon":5.34978,"is_reserved":false,"is_disabled":false,"rental_uris":{"android":"levelo://app?vid=8d64ee43-edd0-4975-91e3-936413974eb5","ios":"levelo://app?vid=8d64ee43-edd0-4975-91e3-936413974eb5"},"vehicle_type_id":"4","last_reported":1753031375,"current_range_meters":3200,"station_id":"ce4bhbh2rcd13ifvqepg","pricing_plan_id":"cebpf4jnsgd1na2vs0mg"},{"bike_id":"be854ba8-3152-4420-97c2-b279c17ba1d1","system_id":"levelo_inurba_marseille","lat":43.26209,"lon":5.37427,"is_reserved":false,"is_disabled":true,"rental_uris":{"android":"levelo://app?vid=be854ba8-3152-4420-97c2-b279c17ba1d1","ios":"levelo://app?vid=be854ba8-3152-4420-97c2-b279c17ba1d1"},"vehicle_type_id":"4","last_reported":1753031375,"current_range_meters":3200,"station_id":"ce4bhgp2rcd13ifvqfc0","pricing_plan_id":"cebpf4jnsgd1na2vs0mg"},{"bike_id":"8575bd07-ed65-4f0f-9468-57895b791288","system_id":"levelo_inurba_marseille","lat":43.26215,"lon":5.37438,"is_reserved":false,"is_disabled":false,"rental_uris":{"android":"levelo://app?vid=8575bd07-ed65-4f0f-9468-57895b791288","ios":"levelo://app?vid=8575bd07-ed65-4f0f-9468-57895b791288"},"vehicle_type_id":"4","last_reported":1753031375,"current_range_meters":3200,"station_id":"ce4bhgp2rcd13ifvqfc0","pricing_plan_id":"cebpf4jnsgd1na2vs0mg"},{"bike_id":"10c69231-7c01-4300-bb70-a19ce561be70","system_id":"levelo_inurba_marseille","lat":43.30597,"lon":5.3936,"is_reserved":false,"is_disabled":false,"rental_uris":{"android":"levelo://app?vid=10c69231-7c01-4300-bb70-a19ce561be70","ios":"levelo://app?vid=10c69231-7c01-4300-bb70-a19ce561be70"},"vehicle_type_id":"4","last_reported":1753031375,"current_range_meters":3200,"station_id":"ce4bh0p2rcd13ifvqd80","pricing_plan_id":"cebpf4jnsgd1na2vs0mg"},{"bike_id":"1b442203-0157-4c53-8156-22903f8e18a1","system_id":"levelo_inurba_marseille","lat":43.21213,"lon":5.35053,"is_reserved":false,"is_disabled":false,"rental_uris":{"android":"levelo://app?vid=1b442203-0157-4c53-8156-22903f8e18a1","ios":"levelo://app?vid=1b442203-0157-4c53-8156-22903f8e18a1"},"vehicle_type_id":"4","last_reported":1753031375,"current_range_meters":3200,"station_id":"st_cvj6sg6p6f1abm77japg","pricing_plan_id":"cebpf4jnsgd1na2vs0mg"},{"bike_id":"c4cdafe5-bde1-4e31-9eee-86d84800657d","system_id":"levelo_inurba_marseille","lat":43.23153,"lon":5.43721,"is_reserved":false,"is_disabled":false,"rental_uris":{"android":"levelo://app?vid=c4cdafe5-bde1-4e31-9eee-86d84800657d","ios":"levelo://app?vid=c4cdafe5-bde1-4e31-9eee-86d84800657d"},"vehicle_type_id":"4","last_reported":1753031375,"current_range_meters":3200,"station_id":"ce4bhmp2rcd13ifvqgog","pricing_plan_id":"cebpf4jnsgd1na2vs0mg"},{"bike_id":"1e1bdada-ed6b-47fb-8d9c-68d057c00107","system_id":"levelo_inurba_marseille","lat":43.27207,"lon":5.39171,"is_reserved":false,"is_disabled":false,"rental_uris":{"android":"levelo://app?vid=1e1bdada-ed6b-47fb-8d9c-68d057c00107","ios":"levelo://app?vid=1e1bdada-ed6b-47fb-8d9c-68d057c00107"},"vehicle_type_id":"4","last_reported":1753031375,"current_range_meters":3200,"station_id":"ce4bhhp2rcd13ifvqfm0","pricing_plan_id":"cebpf4jnsgd1na2vs0mg"},{"bike_id":"c6db0f6a-96fe-4e1d-8ded-c2ef38c9bab4","system_id":"levelo_inurba_marseille","lat":43.305688,"lon":5.418387,"is_reserved":false,"is_disabled":true,"rental_uris":{"android":"levelo://app?vid=c6db0f6a-96fe-4e1d-8ded-c2ef38c9bab4","ios":"levelo://app?vid=c6db0f6a-96fe-4e1d-8ded-c2ef38c9bab4"},"vehicle_type_id":"4","last_reported":1753031375,"current_range_meters":4000,"station_id":"ce4bht12rcd13ifvqi60","pricing_plan_id":"cebpf4jnsgd1na2vs0mg"},{"bike_id":"ae5efc0c-a6b7-4dbd-987d-42289c932a1e","system_id":"levelo_inurba_marseille","lat":43.27219,"lon":5.3918,"is_reserved":false,"is_disabled":false,"rental_uris":{"android":"levelo://app?vid=ae5efc0c-a6b7-4dbd-987d-42289c932a1e","ios":"levelo://app?vid=ae5efc0c-a6b7-4dbd-987d-42289c932a1e"},"vehicle_type_id":"4","last_reported":1753031375,"current_range_meters":3600,"station_id":"ce4bhhp2rcd13ifvqfm0","pricing_plan_id":"cebpf4jnsgd1na2vs0mg"},{"bike_id":"d6466709-0da0-4a79-b851-1937c4bb66d5","system_id":"levelo_inurba_marseille","lat":43.29769,"lon":5.374023,"is_reserved":false,"is_disabled":false,"rental_uris":{"android":"levelo://app?vid=d6466709-0da0-4a79-b851-1937c4bb66d5","ios":"levelo://app?vid=d6466709-0da0-4a79-b851-1937c4bb66d5"},"vehicle_type_id":"4","last_reported":1753031375,"current_range_meters":4000,"station_id":"ce4bgh92rcd13ifvqb50","pricing_plan_id":"cebpf4jnsgd1na2vs0mg"},{"bike_id":"2e532954-91d6-45d0-820d-bd93ef877e83","system_id":"levelo_inurba_marseille","lat":43.303243,"lon":5.394574,"is_reserved":false,"is_disabled":true,"rental_uris":{"android":"levelo://app?vid=2e532954-91d6-45d0-820d-bd93ef877e83","ios":"levelo://app?vid=2e532954-91d6-45d0-820d-bd93ef877e83"},"vehicle_type_id":"4","last_reported":1753031375,"current_range_meters":4000,"station_id":"","pricing_plan_id":"cebpf4jnsgd1na2vs0mg"},{"bike_id":"57bb565d-2136-465a-803d-648474c4a3a7","system_id":"levelo_inurba_marseille","lat":43.33122,"lon":5.35497,"is_reserved":false,"is_disabled":false,"rental_uris":{"android":"levelo://app?vid=57bb565d-2136-465a-803d-648474c4a3a7","ios":"levelo://app?vid=57bb565d-2136-465a-803d-648474c4a3a7"},"vehicle_type_id":"4","last_reported":1753031375,"current_range_meters":4400,"station_id":"","pricing_plan_id":"cebpf4jnsgd1na2vs0mg"},{"bike_id":"bb1be16b-26dd-4f60-be3f-cd8a6342cde2","system_id":"levelo_inurba_marseille","lat":43.295715,"lon":5.399672,"is_reserved":false,"is_disabled":false,"rental_uris":{"android":"levelo://app?vid=bb1be16b-26dd-4f60-be3f-cd8a6342cde2","ios":"levelo://app?vid=bb1be16b-26dd-4f60-be3f-cd8a6342cde2"},"vehicle_type_id":"4","last_reported":1753031375,"current_range_meters":4800,"station_id":"ce4bh312rcd13ifvqdj0","pricing_plan_id":"cebpf4jnsgd1na2vs0mg"},{"bike_id":"8d5f13da-d5c2-4387-bab5-9a759b98851d","system_id":"levelo_inurba_marseille","lat":43.255792,"lon":5.382301,"is_reserved":false,"is_disabled":true,"rental_uris":{"android":"levelo://app?vid=8d5f13da-d5c2-4387-bab5-9a759b98851d","ios":"levelo://app?vid=8d5f13da-d5c2-4387-bab5-9a759b98851d"},"vehicle_type_id":"4","last_reported":1753031375,"current_range_meters":6000,"station_id":"ce4bhih2rcd13ifvqfs0","pricing_plan_id":"cebpf4jnsgd1na2vs0mg"},{"bike_id":"0c32de23-f780-4101-a9d0-8908426772e9","system_id":"levelo_inurba_marseille","lat":43.27998,"lon":5.41664,"is_reserved":false,"is_disabled":false,"rental_uris":{"android":"levelo://app?vid=0c32de23-f780-4101-a9d0-8908426772e9","ios":"levelo://app?vid=0c32de23-f780-4101-a9d0-8908426772e9"},"vehicle_type_id":"4","last_reported":1753031375,"current_range_meters":6000,"station_id":"ce4bho12rcd13ifvqh1g","pricing_plan_id":"cebpf4jnsgd1na2vs0mg"},{"bike_id":"0708673d-6317-4381-af3f-303a188e9d2b","system_id":"levelo_inurba_marseille","lat":43.303545,"lon":5.418805,"is_reserved":false,"is_disabled":false,"rental_uris":{"android":"levelo://app?vid=0708673d-6317-4381-af3f-303a188e9d2b","ios":"levelo://app?vid=0708673d-6317-4381-af3f-303a188e9d2b"},"vehicle_type_id":"4","last_reported":1753031375,"current_range_meters":6400,"station_id":"ce4bhop2rcd13ifvqh7g","pricing_plan_id":"cebpf4jnsgd1na2vs0mg"},{"bike_id":"4000978c-75c0-4297-9227-f158eb426b15","system_id":"levelo_inurba_marseille","lat":43.28624,"lon":5.35111,"is_reserved":false,"is_disabled":false,"rental_uris":{"android":"levelo://app?vid=4000978c-75c0-4297-9227-f158eb426b15","ios":"levelo://app?vid=4000978c-75c0-4297-9227-f158eb426b15"},"vehicle_type_id":"4","last_reported":1753031375,"current_range_meters":6400,"station_id":"","pricing_plan_id":"cebpf4jnsgd1na2vs0mg"},{"bike_id":"2d5426b7-c5ef-4761-9a4a-28e19dac621a","system_id":"levelo_inurba_marseille","lat":43.30423,"lon":5.41267,"is_reserved":false,"is_disabled":true,"rental_uris":{"android":"levelo://app?vid=2d5426b7-c5ef-4761-9a4a-28e19dac621a","ios":"levelo://app?vid=2d5426b7-c5ef-4761-9a4a-28e19dac621a"},"vehicle_type_id":"4","last_reported":1753031375,"current_range_meters":6400,"station_id":"ce4bhop2rcd13ifvqh8g","pricing_plan_id":"cebpf4jnsgd1na2vs0mg"},{"bike_id":"e9a601a6-80c4-4f15-8c92-73b9fb0ab368","system_id":"levelo_inurba_marseille","lat":43.23195,"lon":5.35549,"is_reserved":false,"is_disabled":false,"rental_uris":{"android":"levelo://app?vid=e9a601a6-80c4-4f15-8c92-73b9fb0ab368","ios":"levelo://app?vid=e9a601a6-80c4-4f15-8c92-73b9fb0ab368"},"vehicle_type_id":"4","last_reported":1753031375,"current_range_meters":6400,"station_id":"ce4bhu92rcd13ifvqi70","pricing_plan_id":"cebpf4jnsgd1na2vs0mg"},{"bike_id":"6f18ab1b-0c74-47b1-bed8-837677176207","system_id":"levelo_inurba_marseille","lat":43.320429,"lon":5.409437,"is_reserved":false,"is_disabled":true,"rental_uris":{"android":"levelo://app?vid=6f18ab1b-0c74-47b1-bed8-837677176207","ios":"levelo://app?vid=6f18ab1b-0c74-47b1-bed8-837677176207"},"vehicle_type_id":"4","last_reported":1753031375,"current_range_meters":6400,"station_id":"","pricing_plan_id":"cebpf4jnsgd1na2vs0mg"},{"bike_id":"475b9799-8c28-49d7-a2bd-b989a871d401","system_id":"levelo_inurba_marseille","lat":43.240742,"lon":5.377536,"is_reserved":false,"is_disabled":true,"rental_uris":{"android":"levelo://app?vid=475b9799-8c28-49d7-a2bd-b989a871d401","ios":"levelo://app?vid=475b9799-8c28-49d7-a2bd-b989a871d401"},"vehicle_type_id":"4","last_reported":1753031375,"current_range_meters":6800,"station_id":"ce4bhnp2rcd13ifvqgvg","pricing_plan_id":"cebpf4jnsgd1na2vs0mg"},{"bike_id":"20d0a925-4dfb-42df-b649-1e8d4e3cc5aa","system_id":"levelo_inurba_marseille","lat":43.30883,"lon":5.37181,"is_reserved":false,"is_disabled":false,"rental_uris":{"android":"levelo://app?vid=20d0a925-4dfb-42df-b649-1e8d4e3cc5aa","ios":"levelo://app?vid=20d0a925-4dfb-42df-b649-1e8d4e3cc5aa"},"vehicle_type_id":"4","last_reported":1753031375,"current_range_meters":6800,"station_id":"ce4bguh2rcd13ifvqckg","pricing_plan_id":"cebpf4jnsgd1na2vs0mg"},{"bike_id":"066101a4-f3de-4b97-a9ac-2d824d8906d3","system_id":"levelo_inurba_marseille","lat":43.26232,"lon":5.4045,"is_reserved":false,"is_disabled":false,"rental_uris":{"android":"levelo://app?vid=066101a4-f3de-4b97-a9ac-2d824d8906d3","ios":"levelo://app?vid=066101a4-f3de-4b97-a9ac-2d824d8906d3"},"vehicle_type_id":"4","last_reported":1753031375,"current_range_meters":6800,"station_id":"ce4bhmh2rcd13ifvqgmg","pricing_plan_id":"cebpf4jnsgd1na2vs0mg"},{"bike_id":"fb943774-326e-4933-a7dc-04434b798778","system_id":"levelo_inurba_marseille","lat":43.2964,"lon":5.40591,"is_reserved":false,"is_disabled":false,"rental_uris":{"android":"levelo://app?vid=fb943774-326e-4933-a7dc-04434b798778","ios":"levelo://app?vid=fb943774-326e-4933-a7dc-04434b798778"},"vehicle_type_id":"4","last_reported":1753031375,"current_range_meters":6800,"station_id":"ce4bh0h2rcd13ifvqd60","pricing_plan_id":"cebpf4jnsgd1na2vs0mg"},{"bike_id":"2ec508b9-2498-4f6f-acc2-7141f640f308","system_id":"levelo_inurba_marseille","lat":43.30175,"lon":5.36614,"is_reserved":false,"is_disabled":false,"rental_uris":{"android":"levelo://app?vid=2ec508b9-2498-4f6f-acc2-7141f640f308","ios":"levelo://app?vid=2ec508b9-2498-4f6f-acc2-7141f640f308"},"vehicle_type_id":"4","last_reported":1753031375,"current_range_meters":7200,"station_id":"ce4bgrh2rcd13ifvqc8g","pricing_plan_id":"cebpf4jnsgd1na2vs0mg"},{"bike_id":"6bf82663-a5ca-41ac-b568-8e8c1e381f1c","system_id":"levelo_inurba_marseille","lat":43.299286,"lon":5.372252,"is_reserved":false,"is_disabled":false,"rental_uris":{"android":"levelo://app?vid=6bf82663-a5ca-41ac-b568-8e8c1e381f1c","ios":"levelo://app?vid=6bf82663-a5ca-41ac-b568-8e8c1e381f1c"},"vehicle_type_id":"4","last_reported":1753031375,"current_range_meters":7200,"station_id":"ce4bgr92rcd13ifvqc7g","pricing_plan_id":"cebpf4jnsgd1na2vs0mg"},{"bike_id":"11a43a3e-2d75-4df3-ba59-43e1875d5f3e","system_id":"levelo_inurba_marseille","lat":43.24173,"lon":5.36392,"is_reserved":false,"is_disabled":true,"rental_uris":{"android":"levelo://app?vid=11a43a3e-2d75-4df3-ba59-43e1875d5f3e","ios":"levelo://app?vid=11a43a3e-2d75-4df3-ba59-43e1875d5f3e"},"vehicle_type_id":"4","last_reported":1753031375,"current_range_meters":7200,"station_id":"cpo36qri1sfpv3e86is0","pricing_plan_id":"cebpf4jnsgd1na2vs0mg"},{"bike_id":"0b760dec-2c9e-4e12-99bc-009a8922bec0","system_id":"levelo_inurba_marseille","lat":43.29797,"lon":5.38097,"is_reserved":false,"is_disabled":false,"rental_uris":{"android":"levelo://app?vid=0b760dec-2c9e-4e12-99bc-009a8922bec0","ios":"levelo://app?vid=0b760dec-2c9e-4e12-99bc-009a8922bec0"},"vehicle_type_id":"4","last_reported":1753031375,"current_range_meters":7200,"station_id":"ce4bgip2rcd13ifvqbb0","pricing_plan_id":"cebpf4jnsgd1na2vs0mg"},{"bike_id":"00a1d794-250a-4e37-9b84-a4983ef54e2e","system_id":"levelo_inurba_marseille","lat":43.28029,"lon":5.36937,"is_reserved":false,"is_disabled":true,"rental_uris":{"android":"levelo://app?vid=00a1d794-250a-4e37-9b84-a4983ef54e2e","ios":"levelo://app?vid=00a1d794-250a-4e37-9b84-a4983ef54e2e"},"vehicle_type_id":"4","last_reported":1753031375,"current_range_meters":8000,"station_id":"ce4bha12rcd13ifvqef0","pricing_plan_id":"cebpf4jnsgd1na2vs0mg"},{"bike_id":"0d1a74c2-cf29-4b33-9483-9cdc91bbabb4","system_id":"levelo_inurba_marseille","lat":43.23163,"lon":5.43699,"is_reserved":false,"is_disabled":false,"rental_uris":{"android":"levelo://app?vid=0d1a74c2-cf29-4b33-9483-9cdc91bbabb4","ios":"levelo://app?vid=0d1a74c2-cf29-4b33-9483-9cdc91bbabb4"},"vehicle_type_id":"4","last_reported":1753031375,"current_range_meters":8000,"station_id":"ce4bhmp2rcd13ifvqgog","pricing_plan_id":"cebpf4jnsgd1na2vs0mg"},{"bike_id":"46c0d38a-9977-4060-9fed-46c424d18612","system_id":"levelo_inurba_marseille","lat":43.27614,"lon":5.36105,"is_reserved":false,"is_disabled":false,"rental_uris":{"android":"levelo://app?vid=46c0d38a-9977-4060-9fed-46c424d18612","ios":"levelo://app?vid=46c0d38a-9977-4060-9fed-46c424d18612"},"vehicle_type_id":"4","last_reported":1753031375,"current_range_meters":7200,"station_id":"ce4bgj92rcd13ifvqbe0","pricing_plan_id":"cebpf4jnsgd1na2vs0mg"},{"bike_id":"7d2a9874-afbd-4579-9e72-b0335f7552f0","system_id":"levelo_inurba_marseille","lat":43.29257,"lon":5.40904,"is_reserved":false,"is_disabled":false,"rental_uris":{"android":"levelo://app?vid=7d2a9874-afbd-4579-9e72-b0335f7552f0","ios":"levelo://app?vid=7d2a9874-afbd-4579-9e72-b0335f7552f0"},"vehicle_type_id":"4","last_reported":1753031375,"current_range_meters":8000,"station_id":"ce4bh192rcd13ifvqdc0","pricing_plan_id":"cebpf4jnsgd1na2vs0mg"},{"bike_id":"e512fb4c-f100-4e53-b83f-774a0c7b9e8d","system_id":"levelo_inurba_marseille","lat":43.31712,"lon":5.37739,"is_reserved":false,"is_disabled":false,"rental_uris":{"android":"levelo://app?vid=e512fb4c-f100-4e53-b83f-774a0c7b9e8d","ios":"levelo://app?vid=e512fb4c-f100-4e53-b83f-774a0c7b9e8d"},"vehicle_type_id":"4","last_reported":1753031375,"current_range_meters":7200,"station_id":"ce4bgth2rcd13ifvqch0","pricing_plan_id":"cebpf4jnsgd1na2vs0mg"},{"bike_id":"ae6ef1f0-2b2e-431e-af77-b08c94a38bfc","system_id":"levelo_inurba_marseille","lat":43.29597,"lon":5.38624,"is_reserved":false,"is_disabled":false,"rental_uris":{"android":"levelo://app?vid=ae6ef1f0-2b2e-431e-af77-b08c94a38bfc","ios":"levelo://app?vid=ae6ef1f0-2b2e-431e-af77-b08c94a38bfc"},"vehicle_type_id":"4","last_reported":1753031375,"current_range_meters":8400,"station_id":"","pricing_plan_id":"cebpf4jnsgd1na2vs0mg"},{"bike_id":"b6ddbbc4-72fb-4fbf-b211-0ca09fedeceb","system_id":"levelo_inurba_marseille","lat":43.28458,"lon":5.39193,"is_reserved":false,"is_disabled":false,"rental_uris":{"android":"levelo://app?vid=b6ddbbc4-72fb-4fbf-b211-0ca09fedeceb","ios":"levelo://app?vid=b6ddbbc4-72fb-4fbf-b211-0ca09fedeceb"},"vehicle_type_id":"4","last_reported":1753031375,"current_range_meters":8400,"station_id":"ce4bhoh2rcd13ifvqh5g","pricing_plan_id":"cebpf4jnsgd1na2vs0mg"},{"bike_id":"94c07cb2-0943-4d24-99f2-97bdab47aa3f","system_id":"levelo_inurba_marseille","lat":43.337444,"lon":5.374475,"is_reserved":false,"is_disabled":false,"rental_uris":{"android":"levelo://app?vid=94c07cb2-0943-4d24-99f2-97bdab47aa3f","ios":"levelo://app?vid=94c07cb2-0943-4d24-99f2-97bdab47aa3f"},"vehicle_type_id":"4","last_reported":1753031375,"current_range_meters":8400,"station_id":"","pricing_plan_id":"cebpf4jnsgd1na2vs0mg"},{"bike_id":"357617c4-81bd-42b5-aeef-522021f2d098","system_id":"levelo_inurba_marseille","lat":43.28346,"lon":5.381,"is_reserved":false,"is_disabled":false,"rental_uris":{"android":"levelo://app?vid=357617c4-81bd-42b5-aeef-522021f2d098","ios":"levelo://app?vid=357617c4-81bd-42b5-aeef-522021f2d098"},"vehicle_type_id":"4","last_reported":1753031375,"current_range_meters":8800,"station_id":"ce4bh412rcd13ifvqdr0","pricing_plan_id":"cebpf4jnsgd1na2vs0mg"},{"bike_id":"dee6628b-f370-478a-a4db-32c84542aee7","system_id":"levelo_inurba_marseille","lat":43.330489,"lon":5.389836,"is_reserved":false,"is_disabled":false,"rental_uris":{"android":"levelo://app?vid=dee6628b-f370-478a-a4db-32c84542aee7","ios":"levelo://app?vid=dee6628b-f370-478a-a4db-32c84542aee7"},"vehicle_type_id":"4","last_reported":1753031375,"current_range_meters":8800,"station_id":"","pricing_plan_id":"cebpf4jnsgd1na2vs0mg"},{"bike_id":"ffa7140d-95be-4da9-9493-5eca75611912","system_id":"levelo_inurba_marseille","lat":43.29845,"lon":5.36269,"is_reserved":false,"is_disabled":false,"rental_uris":{"android":"levelo://app?vid=ffa7140d-95be-4da9-9493-5eca75611912","ios":"levelo://app?vid=ffa7140d-95be-4da9-9493-5eca75611912"},"vehicle_type_id":"4","last_reported":1753031375,"current_range_meters":8800,"station_id":"ce4bgpp2rcd13ifvqc3g","pricing_plan_id":"cebpf4jnsgd1na2vs0mg"},{"bike_id":"dbe3f53f-5cf1-428e-b135-1e976ecdd9e1","system_id":"levelo_inurba_marseille","lat":43.229295,"lon":5.353761,"is_reserved":false,"is_disabled":true,"rental_uris":{"android":"levelo://app?vid=dbe3f53f-5cf1-428e-b135-1e976ecdd9e1","ios":"levelo://app?vid=dbe3f53f-5cf1-428e-b135-1e976ecdd9e1"},"vehicle_type_id":"4","last_reported":1753031375,"current_range_meters":8800,"station_id":"","pricing_plan_id":"cebpf4jnsgd1na2vs0mg"},{"bike_id":"4e333118-ead7-4370-ad26-ee478245e20e","system_id":"levelo_inurba_marseille","lat":43.289385,"lon":5.366432,"is_reserved":false,"is_disabled":false,"rental_uris":{"android":"levelo://app?vid=4e333118-ead7-4370-ad26-ee478245e20e","ios":"levelo://app?vid=4e333118-ead7-4370-ad26-ee478245e20e"},"vehicle_type_id":"4","last_reported":1753031375,"current_range_meters":8800,"station_id":"ce4bhap2rcd13ifvqek0","pricing_plan_id":"cebpf4jnsgd1na2vs0mg"},{"bike_id":"08b24c21-1120-4c99-a4f7-13ed7e7f8414","system_id":"levelo_inurba_marseille","lat":43.28931,"lon":5.36634,"is_reserved":false,"is_disabled":false,"rental_uris":{"android":"levelo://app?vid=08b24c21-1120-4c99-a4f7-13ed7e7f8414","ios":"levelo://app?vid=08b24c21-1120-4c99-a4f7-13ed7e7f8414"},"vehicle_type_id":"4","last_reported":1753031375,"current_range_meters":9200,"station_id":"ce4bhap2rcd13ifvqek0","pricing_plan_id":"cebpf4jnsgd1na2vs0mg"},{"bike_id":"e9cb3fa7-bc1f-4d92-b65d-e730b4ad333c","system_id":"levelo_inurba_marseille","lat":43.31712,"lon":5.4046,"is_reserved":false,"is_disabled":false,"rental_uris":{"android":"levelo://app?vid=e9cb3fa7-bc1f-4d92-b65d-e730b4ad333c","ios":"levelo://app?vid=e9cb3fa7-bc1f-4d92-b65d-e730b4ad333c"},"vehicle_type_id":"4","last_reported":1753031375,"current_range_meters":9200,"station_id":"ce4bh012rcd13ifvqd00","pricing_plan_id":"cebpf4jnsgd1na2vs0mg"},{"bike_id":"b14e2806-1337-4688-afd4-db7f93fd045e","system_id":"levelo_inurba_marseille","lat":43.28491,"lon":5.3858,"is_reserved":false,"is_disabled":false,"rental_uris":{"android":"levelo://app?vid=b14e2806-1337-4688-afd4-db7f93fd045e","ios":"levelo://app?vid=b14e2806-1337-4688-afd4-db7f93fd045e"},"vehicle_type_id":"4","last_reported":1753031375,"current_range_meters":9200,"station_id":"ce4bh8p2rcd13ifvqeb0","pricing_plan_id":"cebpf4jnsgd1na2vs0mg"},{"bike_id":"b3fde368-b69c-4212-8aa8-24a31a57c2fc","system_id":"levelo_inurba_marseille","lat":43.2985,"lon":5.36287,"is_reserved":false,"is_disabled":false,"rental_uris":{"android":"levelo://app?vid=b3fde368-b69c-4212-8aa8-24a31a57c2fc","ios":"levelo://app?vid=b3fde368-b69c-4212-8aa8-24a31a57c2fc"},"vehicle_type_id":"4","last_reported":1753031375,"current_range_meters":9600,"station_id":"ce4bgpp2rcd13ifvqc3g","pricing_plan_id":"cebpf4jnsgd1na2vs0mg"},{"bike_id":"0fd02cf6-67fb-4589-807f-241dd50b7e1a","system_id":"levelo_inurba_marseille","lat":43.29922,"lon":5.43655,"is_reserved":false,"is_disabled":true,"rental_uris":{"android":"levelo://app?vid=0fd02cf6-67fb-4589-807f-241dd50b7e1a","ios":"levelo://app?vid=0fd02cf6-67fb-4589-807f-241dd50b7e1a"},"vehicle_type_id":"4","last_reported":1753031375,"current_range_meters":9600,"station_id":"ce4bhpp2rcd13ifvqhfg","pricing_plan_id":"cebpf4jnsgd1na2vs0mg"},{"bike_id":"c5d7ccc9-1cdd-45f8-96a3-b44436e8fef7","system_id":"levelo_inurba_marseille","lat":43.29305,"lon":5.37164,"is_reserved":false,"is_disabled":false,"rental_uris":{"android":"levelo://app?vid=c5d7ccc9-1cdd-45f8-96a3-b44436e8fef7","ios":"levelo://app?vid=c5d7ccc9-1cdd-45f8-96a3-b44436e8fef7"},"vehicle_type_id":"4","last_reported":1753031375,"current_range_meters":9200,"station_id":"ce4bgh92rcd13ifvqb40","pricing_plan_id":"cebpf4jnsgd1na2vs0mg"},{"bike_id":"325a9bd4-689b-40d4-ac71-6046cd4890a5","system_id":"levelo_inurba_marseille","lat":43.28941,"lon":5.364,"is_reserved":false,"is_disabled":true,"rental_uris":{"android":"levelo://app?vid=325a9bd4-689b-40d4-ac71-6046cd4890a5","ios":"levelo://app?vid=325a9bd4-689b-40d4-ac71-6046cd4890a5"},"vehicle_type_id":"4","last_reported":1753031375,"current_range_meters":9600,"station_id":"","pricing_plan_id":"cebpf4jnsgd1na2vs0mg"},{"bike_id":"2b661d69-ead6-4dc9-9d7c-c1b25644c87f","system_id":"levelo_inurba_marseille","lat":43.29168,"lon":5.37164,"is_reserved":false,"is_disabled":false,"rental_uris":{"android":"levelo://app?vid=2b661d69-ead6-4dc9-9d7c-c1b25644c87f","ios":"levelo://app?vid=2b661d69-ead6-4dc9-9d7c-c1b25644c87f"},"vehicle_type_id":"4","last_reported":1753031375,"current_range_meters":9600,"station_id":"ce4bha92rcd13ifvqeh0","pricing_plan_id":"cebpf4jnsgd1na2vs0mg"},{"bike_id":"b459dbf8-cc28-4d76-92f2-c84376ecf550","system_id":"levelo_inurba_marseille","lat":43.25225,"lon":5.37877,"is_reserved":false,"is_disabled":false,"rental_uris":{"android":"levelo://app?vid=b459dbf8-cc28-4d76-92f2-c84376ecf550","ios":"levelo://app?vid=b459dbf8-cc28-4d76-92f2-c84376ecf550"},"vehicle_type_id":"4","last_reported":1753031375,"current_range_meters":38800,"station_id":"ce4bhbh2rcd13ifvqeo0","pricing_plan_id":"cebpf4jnsgd1na2vs0mg"},{"bike_id":"cbdcd63e-c995-46bb-b10e-1c5d9796f11e","system_id":"levelo_inurba_marseille","lat":43.33725,"lon":5.39196,"is_reserved":false,"is_disabled":false,"rental_uris":{"android":"levelo://app?vid=cbdcd63e-c995-46bb-b10e-1c5d9796f11e","ios":"levelo://app?vid=cbdcd63e-c995-46bb-b10e-1c5d9796f11e"},"vehicle_type_id":"4","last_reported":1753031375,"current_range_meters":10000,"station_id":"ce4bhr92rcd13ifvqhsg","pricing_plan_id":"cebpf4jnsgd1na2vs0mg"},{"bike_id":"e3087560-3b85-4c60-aae4-bddc09ecfda4","system_id":"levelo_inurba_marseille","lat":43.25869,"lon":5.39894,"is_reserved":false,"is_disabled":false,"rental_uris":{"android":"levelo://app?vid=e3087560-3b85-4c60-aae4-bddc09ecfda4","ios":"levelo://app?vid=e3087560-3b85-4c60-aae4-bddc09ecfda4"},"vehicle_type_id":"4","last_reported":1753031375,"current_range_meters":10000,"station_id":"ce4bhl92rcd13ifvqghg","pricing_plan_id":"cebpf4jnsgd1na2vs0mg"},{"bike_id":"cf9f7b6f-b252-45aa-bd41-e7b8a5947e88","system_id":"levelo_inurba_marseille","lat":43.2694,"lon":5.40284,"is_reserved":false,"is_disabled":true,"rental_uris":{"android":"levelo://app?vid=cf9f7b6f-b252-45aa-bd41-e7b8a5947e88","ios":"levelo://app?vid=cf9f7b6f-b252-45aa-bd41-e7b8a5947e88"},"vehicle_type_id":"4","last_reported":1753031375,"current_range_meters":10000,"station_id":"cjm6bp8fraef2m0cb0m0","pricing_plan_id":"cebpf4jnsgd1na2vs0mg"},{"bike_id":"2f7b9cdf-b6c7-4492-81a2-2bd894f35745","system_id":"levelo_inurba_marseille","lat":43.23084,"lon":5.35496,"is_reserved":false,"is_disabled":true,"rental_uris":{"android":"levelo://app?vid=2f7b9cdf-b6c7-4492-81a2-2bd894f35745","ios":"levelo://app?vid=2f7b9cdf-b6c7-4492-81a2-2bd894f35745"},"vehicle_type_id":"4","last_reported":1753031375,"current_range_meters":10000,"station_id":"cpo3342slgdg3j2ifvpg","pricing_plan_id":"cebpf4jnsgd1na2vs0mg"},{"bike_id":"cbd7089c-9d2d-42db-a268-faaaa69d7343","system_id":"levelo_inurba_marseille","lat":43.262295,"lon":5.37435,"is_reserved":false,"is_disabled":true,"rental_uris":{"android":"levelo://app?vid=cbd7089c-9d2d-42db-a268-faaaa69d7343","ios":"levelo://app?vid=cbd7089c-9d2d-42db-a268-faaaa69d7343"},"vehicle_type_id":"4","last_reported":1753031375,"current_range_meters":10000,"station_id":"","pricing_plan_id":"cebpf4jnsgd1na2vs0mg"},{"bike_id":"0e12b2b2-d3f2-49ab-adf9-62f565868244","system_id":"levelo_inurba_marseille","lat":43.32001,"lon":5.38143,"is_reserved":false,"is_disabled":false,"rental_uris":{"android":"levelo://app?vid=0e12b2b2-d3f2-49ab-adf9-62f565868244","ios":"levelo://app?vid=0e12b2b2-d3f2-49ab-adf9-62f565868244"},"vehicle_type_id":"4","last_reported":1753031375,"current_range_meters":10000,"station_id":"ce4bhr12rcd13ifvqhpg","pricing_plan_id":"cebpf4jnsgd1na2vs0mg"},{"bike_id":"7da69f3d-17ea-45bd-8065-f715d544d5a5","system_id":"levelo_inurba_marseille","lat":43.27099,"lon":5.42253,"is_reserved":false,"is_disabled":false,"rental_uris":{"android":"levelo://app?vid=7da69f3d-17ea-45bd-8065-f715d544d5a5","ios":"levelo://app?vid=7da69f3d-17ea-45bd-8065-f715d544d5a5"},"vehicle_type_id":"4","last_reported":1753031375,"current_range_meters":10800,"station_id":"ce4bhk92rcd13ifvqgb0","pricing_plan_id":"cebpf4jnsgd1na2vs0mg"},{"bike_id":"3581e735-186c-4f7c-a905-f7969175be88","system_id":"levelo_inurba_marseille","lat":43.322865,"lon":5.382903,"is_reserved":false,"is_disabled":false,"rental_uris":{"android":"levelo://app?vid=3581e735-186c-4f7c-a905-f7969175be88","ios":"levelo://app?vid=3581e735-186c-4f7c-a905-f7969175be88"},"vehicle_type_id":"4","last_reported":1753031375,"current_range_meters":10800,"station_id":"ce4bhr12rcd13ifvqhqg","pricing_plan_id":"cebpf4jnsgd1na2vs0mg"},{"bike_id":"892e06aa-05f6-415f-96f6-13455b0802de","system_id":"levelo_inurba_marseille","lat":43.29584,"lon":5.37497,"is_reserved":false,"is_disabled":true,"rental_uris":{"android":"levelo://app?vid=892e06aa-05f6-415f-96f6-13455b0802de","ios":"levelo://app?vid=892e06aa-05f6-415f-96f6-13455b0802de"},"vehicle_type_id":"4","last_reported":1753031375,"current_range_meters":10800,"station_id":"ce4bgh92rcd13ifvqb50","pricing_plan_id":"cebpf4jnsgd1na2vs0mg"},{"bike_id":"bb85a4a4-a225-465a-affa-c50a877f0398","system_id":"levelo_inurba_marseille","lat":43.30597,"lon":5.37211,"is_reserved":false,"is_disabled":false,"rental_uris":{"android":"levelo://app?vid=bb85a4a4-a225-465a-affa-c50a877f0398","ios":"levelo://app?vid=bb85a4a4-a225-465a-affa-c50a877f0398"},"vehicle_type_id":"4","last_reported":1753031375,"current_range_meters":10800,"station_id":"ce4bgqh2rcd13ifvqc4g","pricing_plan_id":"cebpf4jnsgd1na2vs0mg"},{"bike_id":"15247077-a670-4248-9aa9-6ad5d15250cf","system_id":"levelo_inurba_marseille","lat":43.24803,"lon":5.37453,"is_reserved":false,"is_disabled":false,"rental_uris":{"android":"levelo://app?vid=15247077-a670-4248-9aa9-6ad5d15250cf","ios":"levelo://app?vid=15247077-a670-4248-9aa9-6ad5d15250cf"},"vehicle_type_id":"4","last_reported":1753031375,"current_range_meters":10800,"station_id":"ce4bhgh2rcd13ifvqfb0","pricing_plan_id":"cebpf4jnsgd1na2vs0mg"},{"bike_id":"e696a534-79c4-4990-81e6-06e5041b3d48","system_id":"levelo_inurba_marseille","lat":43.29637,"lon":5.40589,"is_reserved":false,"is_disabled":false,"rental_uris":{"android":"levelo://app?vid=e696a534-79c4-4990-81e6-06e5041b3d48","ios":"levelo://app?vid=e696a534-79c4-4990-81e6-06e5041b3d48"},"vehicle_type_id":"4","last_reported":1753031375,"current_range_meters":10800,"station_id":"ce4bh0h2rcd13ifvqd60","pricing_plan_id":"cebpf4jnsgd1na2vs0mg"},{"bike_id":"cce52197-3b64-41da-a9e9-d658a67d6b48","system_id":"levelo_inurba_marseille","lat":43.30798,"lon":5.43512,"is_reserved":false,"is_disabled":false,"rental_uris":{"android":"levelo://app?vid=cce52197-3b64-41da-a9e9-d658a67d6b48","ios":"levelo://app?vid=cce52197-3b64-41da-a9e9-d658a67d6b48"},"vehicle_type_id":"4","last_reported":1753031375,"current_range_meters":11200,"station_id":"ce4bhph2rcd13ifvqheg","pricing_plan_id":"cebpf4jnsgd1na2vs0mg"},{"bike_id":"f87dcee8-4d6b-40cf-a303-0c9a77f91cd0","system_id":"levelo_inurba_marseille","lat":43.31757,"lon":5.39002,"is_reserved":false,"is_disabled":false,"rental_uris":{"android":"levelo://app?vid=f87dcee8-4d6b-40cf-a303-0c9a77f91cd0","ios":"levelo://app?vid=f87dcee8-4d6b-40cf-a303-0c9a77f91cd0"},"vehicle_type_id":"4","last_reported":1753031375,"current_range_meters":10800,"station_id":"ce4bhqp2rcd13ifvqhng","pricing_plan_id":"cebpf4jnsgd1na2vs0mg"},{"bike_id":"e4c89c5d-526b-4575-a9c8-1237dab7d7b8","system_id":"levelo_inurba_marseille","lat":43.22923,"lon":5.35331,"is_reserved":false,"is_disabled":false,"rental_uris":{"android":"levelo://app?vid=e4c89c5d-526b-4575-a9c8-1237dab7d7b8","ios":"levelo://app?vid=e4c89c5d-526b-4575-a9c8-1237dab7d7b8"},"vehicle_type_id":"4","last_reported":1753031375,"current_range_meters":11200,"station_id":"cpo3532slgdg3j2ikp40","pricing_plan_id":"cebpf4jnsgd1na2vs0mg"},{"bike_id":"a6de290b-5c15-427b-bc37-8301607e1735","system_id":"levelo_inurba_marseille","lat":43.337444,"lon":5.374475,"is_reserved":false,"is_disabled":false,"rental_uris":{"android":"levelo://app?vid=a6de290b-5c15-427b-bc37-8301607e1735","ios":"levelo://app?vid=a6de290b-5c15-427b-bc37-8301607e1735"},"vehicle_type_id":"4","last_reported":1753031375,"current_range_meters":11200,"station_id":"","pricing_plan_id":"cebpf4jnsgd1na2vs0mg"},{"bike_id":"4268961c-8e3c-4bac-891f-a8846cba533f","system_id":"levelo_inurba_marseille","lat":43.32477,"lon":5.3656,"is_reserved":false,"is_disabled":false,"rental_uris":{"android":"levelo://app?vid=4268961c-8e3c-4bac-891f-a8846cba533f","ios":"levelo://app?vid=4268961c-8e3c-4bac-891f-a8846cba533f"},"vehicle_type_id":"4","last_reported":1753031375,"current_range_meters":11200,"station_id":"ce4bhs12rcd13ifvqhvg","pricing_plan_id":"cebpf4jnsgd1na2vs0mg"},{"bike_id":"3d52bec0-b7cc-45e1-a509-d3d9b13491ce","system_id":"levelo_inurba_marseille","lat":43.29929,"lon":5.3654,"is_reserved":false,"is_disabled":false,"rental_uris":{"android":"levelo://app?vid=3d52bec0-b7cc-45e1-a509-d3d9b13491ce","ios":"levelo://app?vid=3d52bec0-b7cc-45e1-a509-d3d9b13491ce"},"vehicle_type_id":"4","last_reported":1753031375,"current_range_meters":11200,"station_id":"ce4bgm92rcd13ifvqbr0","pricing_plan_id":"cebpf4jnsgd1na2vs0mg"},{"bike_id":"47573925-9b13-4d9d-80ab-092c0620ae70","system_id":"levelo_inurba_marseille","lat":43.21194,"lon":5.35081,"is_reserved":false,"is_disabled":false,"rental_uris":{"android":"levelo://app?vid=47573925-9b13-4d9d-80ab-092c0620ae70","ios":"levelo://app?vid=47573925-9b13-4d9d-80ab-092c0620ae70"},"vehicle_type_id":"4","last_reported":1753031375,"current_range_meters":11200,"station_id":"st_cvj6sg6p6f1abm77japg","pricing_plan_id":"cebpf4jnsgd1na2vs0mg"},{"bike_id":"00ab1491-02a3-4588-94f4-88a0c814c7f3","system_id":"levelo_inurba_marseille","lat":43.3014,"lon":5.37407,"is_reserved":false,"is_disabled":false,"rental_uris":{"android":"levelo://app?vid=00ab1491-02a3-4588-94f4-88a0c814c7f3","ios":"levelo://app?vid=00ab1491-02a3-4588-94f4-88a0c814c7f3"},"vehicle_type_id":"4","last_reported":1753031375,"current_range_meters":11600,"station_id":"ce4bgs92rcd13ifvqcc0","pricing_plan_id":"cebpf4jnsgd1na2vs0mg"},{"bike_id":"ac141403-2eff-454e-8bd1-3d400d40ed2b","system_id":"levelo_inurba_marseille","lat":43.33139,"lon":5.40009,"is_reserved":false,"is_disabled":false,"rental_uris":{"android":"levelo://app?vid=ac141403-2eff-454e-8bd1-3d400d40ed2b","ios":"levelo://app?vid=ac141403-2eff-454e-8bd1-3d400d40ed2b"},"vehicle_type_id":"4","last_reported":1753031375,"current_range_meters":11600,"station_id":"","pricing_plan_id":"cebpf4jnsgd1na2vs0mg"},{"bike_id":"0cb2c80a-7457-4a4a-ad92-f0361b5225d6","system_id":"levelo_inurba_marseille","lat":43.2441,"lon":5.3741,"is_reserved":false,"is_disabled":false,"rental_uris":{"android":"levelo://app?vid=0cb2c80a-7457-4a4a-ad92-f0361b5225d6","ios":"levelo://app?vid=0cb2c80a-7457-4a4a-ad92-f0361b5225d6"},"vehicle_type_id":"4","last_reported":1753031375,"current_range_meters":11600,"station_id":"","pricing_plan_id":"cebpf4jnsgd1na2vs0mg"},{"bike_id":"7a2e1cf8-de90-4b24-ade1-9d8b3a17f052","system_id":"levelo_inurba_marseille","lat":43.25191,"lon":5.37579,"is_reserved":false,"is_disabled":false,"rental_uris":{"android":"levelo://app?vid=7a2e1cf8-de90-4b24-ade1-9d8b3a17f052","ios":"levelo://app?vid=7a2e1cf8-de90-4b24-ade1-9d8b3a17f052"},"vehicle_type_id":"4","last_reported":1753031375,"current_range_meters":11600,"station_id":"","pricing_plan_id":"cebpf4jnsgd1na2vs0mg"},{"bike_id":"7545b5d5-9059-40aa-b8a5-88e8bad6672e","system_id":"levelo_inurba_marseille","lat":43.23972,"lon":5.36628,"is_reserved":false,"is_disabled":false,"rental_uris":{"android":"levelo://app?vid=7545b5d5-9059-40aa-b8a5-88e8bad6672e","ios":"levelo://app?vid=7545b5d5-9059-40aa-b8a5-88e8bad6672e"},"vehicle_type_id":"4","last_reported":1753031375,"current_range_meters":11600,"station_id":"ce4bhi12rcd13ifvqfp0","pricing_plan_id":"cebpf4jnsgd1na2vs0mg"},{"bike_id":"b9d2f6b1-2316-4e08-a5d8-0d15d3bb3c6d","system_id":"levelo_inurba_marseille","lat":43.27417,"lon":5.38828,"is_reserved":false,"is_disabled":false,"rental_uris":{"android":"levelo://app?vid=b9d2f6b1-2316-4e08-a5d8-0d15d3bb3c6d","ios":"levelo://app?vid=b9d2f6b1-2316-4e08-a5d8-0d15d3bb3c6d"},"vehicle_type_id":"4","last_reported":1753031375,"current_range_meters":11600,"station_id":"","pricing_plan_id":"cebpf4jnsgd1na2vs0mg"},{"bike_id":"0e2ec675-9e3d-467d-9111-80716e5c2fcc","system_id":"levelo_inurba_marseille","lat":43.26184,"lon":5.37456,"is_reserved":false,"is_disabled":false,"rental_uris":{"android":"levelo://app?vid=0e2ec675-9e3d-467d-9111-80716e5c2fcc","ios":"levelo://app?vid=0e2ec675-9e3d-467d-9111-80716e5c2fcc"},"vehicle_type_id":"4","last_reported":1753031375,"current_range_meters":11600,"station_id":"ce4bhgp2rcd13ifvqfc0","pricing_plan_id":"cebpf4jnsgd1na2vs0mg"},{"bike_id":"bb4d36af-8f0a-465c-bb69-fc19c2370243","system_id":"levelo_inurba_marseille","lat":43.30595,"lon":5.37218,"is_reserved":false,"is_disabled":false,"rental_uris":{"android":"levelo://app?vid=bb4d36af-8f0a-465c-bb69-fc19c2370243","ios":"levelo://app?vid=bb4d36af-8f0a-465c-bb69-fc19c2370243"},"vehicle_type_id":"4","last_reported":1753031375,"current_range_meters":9600,"station_id":"ce4bgqh2rcd13ifvqc4g","pricing_plan_id":"cebpf4jnsgd1na2vs0mg"},{"bike_id":"0bd2c5e9-9e80-40e8-89dd-c273ae04dcee","system_id":"levelo_inurba_marseille","lat":43.26214,"lon":5.37437,"is_reserved":false,"is_disabled":false,"rental_uris":{"android":"levelo://app?vid=0bd2c5e9-9e80-40e8-89dd-c273ae04dcee","ios":"levelo://app?vid=0bd2c5e9-9e80-40e8-89dd-c273ae04dcee"},"vehicle_type_id":"4","last_reported":1753031375,"current_range_meters":11600,"station_id":"ce4bhgp2rcd13ifvqfc0","pricing_plan_id":"cebpf4jnsgd1na2vs0mg"},{"bike_id":"d25b3b74-1eb0-48d4-998a-10d14228da57","system_id":"levelo_inurba_marseille","lat":43.29709,"lon":5.36823,"is_reserved":false,"is_disabled":false,"rental_uris":{"android":"levelo://app?vid=d25b3b74-1eb0-48d4-998a-10d14228da57","ios":"levelo://app?vid=d25b3b74-1eb0-48d4-998a-10d14228da57"},"vehicle_type_id":"4","last_reported":1753031375,"current_range_meters":12000,"station_id":"","pricing_plan_id":"cebpf4jnsgd1na2vs0mg"},{"bike_id":"c73632e8-4465-4c72-b81e-a38974e4b1a5","system_id":"levelo_inurba_marseille","lat":43.284088,"lon":5.34986,"is_reserved":false,"is_disabled":false,"rental_uris":{"android":"levelo://app?vid=c73632e8-4465-4c72-b81e-a38974e4b1a5","ios":"levelo://app?vid=c73632e8-4465-4c72-b81e-a38974e4b1a5"},"vehicle_type_id":"4","last_reported":1753031375,"current_range_meters":12000,"station_id":"ce4bhbh2rcd13ifvqepg","pricing_plan_id":"cebpf4jnsgd1na2vs0mg"},{"bike_id":"218a227e-c64f-4f98-8a22-59cb1cdfd846","system_id":"levelo_inurba_marseille","lat":43.24072,"lon":5.377,"is_reserved":false,"is_disabled":true,"rental_uris":{"android":"levelo://app?vid=218a227e-c64f-4f98-8a22-59cb1cdfd846","ios":"levelo://app?vid=218a227e-c64f-4f98-8a22-59cb1cdfd846"},"vehicle_type_id":"4","last_reported":1753031375,"current_range_meters":12400,"station_id":"ce4bhnp2rcd13ifvqgvg","pricing_plan_id":"cebpf4jnsgd1na2vs0mg"},{"bike_id":"fa06e38c-58b9-4aea-bcf5-74a645703fd3","system_id":"levelo_inurba_marseille","lat":43.28718,"lon":5.39981,"is_reserved":false,"is_disabled":true,"rental_uris":{"android":"levelo://app?vid=fa06e38c-58b9-4aea-bcf5-74a645703fd3","ios":"levelo://app?vid=fa06e38c-58b9-4aea-bcf5-74a645703fd3"},"vehicle_type_id":"4","last_reported":1753031375,"current_range_meters":12400,"station_id":"ce4bho92rcd13ifvqh3g","pricing_plan_id":"cebpf4jnsgd1na2vs0mg"},{"bike_id":"beb14892-a851-4f8e-b873-cbd3d15ad0a9","system_id":"levelo_inurba_marseille","lat":43.23773,"lon":5.36197,"is_reserved":false,"is_disabled":false,"rental_uris":{"android":"levelo://app?vid=beb14892-a851-4f8e-b873-cbd3d15ad0a9","ios":"levelo://app?vid=beb14892-a851-4f8e-b873-cbd3d15ad0a9"},"vehicle_type_id":"4","last_reported":1753031375,"current_range_meters":12400,"station_id":"","pricing_plan_id":"cebpf4jnsgd1na2vs0mg"},{"bike_id":"f4741480-4e8c-4750-891a-6bdf6e909918","system_id":"levelo_inurba_marseille","lat":43.297476,"lon":5.3722,"is_reserved":false,"is_disabled":false,"rental_uris":{"android":"levelo://app?vid=f4741480-4e8c-4750-891a-6bdf6e909918","ios":"levelo://app?vid=f4741480-4e8c-4750-891a-6bdf6e909918"},"vehicle_type_id":"4","last_reported":1753031375,"current_range_meters":12400,"station_id":"ce4bgk12rcd13ifvqbj0","pricing_plan_id":"cebpf4jnsgd1na2vs0mg"},{"bike_id":"386d72cf-db57-4a92-97d6-7579d8b04383","system_id":"levelo_inurba_marseille","lat":43.29937,"lon":5.36544,"is_reserved":false,"is_disabled":false,"rental_uris":{"android":"levelo://app?vid=386d72cf-db57-4a92-97d6-7579d8b04383","ios":"levelo://app?vid=386d72cf-db57-4a92-97d6-7579d8b04383"},"vehicle_type_id":"4","last_reported":1753031375,"current_range_meters":12400,"station_id":"ce4bgm92rcd13ifvqbr0","pricing_plan_id":"cebpf4jnsgd1na2vs0mg"},{"bike_id":"20597f8e-6c1b-4a51-9e3f-8ecf88381375","system_id":"levelo_inurba_marseille","lat":43.30294,"lon":5.39188,"is_reserved":false,"is_disabled":true,"rental_uris":{"android":"levelo://app?vid=20597f8e-6c1b-4a51-9e3f-8ecf88381375","ios":"levelo://app?vid=20597f8e-6c1b-4a51-9e3f-8ecf88381375"},"vehicle_type_id":"4","last_reported":1753031375,"current_range_meters":12400,"station_id":"ce4bgkh2rcd13ifvqbk0","pricing_plan_id":"cebpf4jnsgd1na2vs0mg"},{"bike_id":"25e998a2-cacd-44ec-850d-00a810d24b12","system_id":"levelo_inurba_marseille","lat":43.22935,"lon":5.35374,"is_reserved":false,"is_disabled":false,"rental_uris":{"android":"levelo://app?vid=25e998a2-cacd-44ec-850d-00a810d24b12","ios":"levelo://app?vid=25e998a2-cacd-44ec-850d-00a810d24b12"},"vehicle_type_id":"4","last_reported":1753031375,"current_range_meters":12400,"station_id":"cpo3532slgdg3j2ikp40","pricing_plan_id":"cebpf4jnsgd1na2vs0mg"},{"bike_id":"aec805fc-d403-4c4e-99dc-56a20cef0ed1","system_id":"levelo_inurba_marseille","lat":43.28427,"lon":5.34989,"is_reserved":false,"is_disabled":false,"rental_uris":{"android":"levelo://app?vid=aec805fc-d403-4c4e-99dc-56a20cef0ed1","ios":"levelo://app?vid=aec805fc-d403-4c4e-99dc-56a20cef0ed1"},"vehicle_type_id":"4","last_reported":1753031375,"current_range_meters":12400,"station_id":"ce4bhbh2rcd13ifvqepg","pricing_plan_id":"cebpf4jnsgd1na2vs0mg"},{"bike_id":"95b5bcfa-54af-48c0-bd18-8f73f959ce2b","system_id":"levelo_inurba_marseille","lat":43.31935,"lon":5.37313,"is_reserved":false,"is_disabled":false,"rental_uris":{"android":"levelo://app?vid=95b5bcfa-54af-48c0-bd18-8f73f959ce2b","ios":"levelo://app?vid=95b5bcfa-54af-48c0-bd18-8f73f959ce2b"},"vehicle_type_id":"4","last_reported":1753031375,"current_range_meters":12400,"station_id":"","pricing_plan_id":"cebpf4jnsgd1na2vs0mg"},{"bike_id":"df4ce287-966a-4b2d-bb49-1d3cd9d4f67b","system_id":"levelo_inurba_marseille","lat":43.29893,"lon":5.38894,"is_reserved":false,"is_disabled":false,"rental_uris":{"android":"levelo://app?vid=df4ce287-966a-4b2d-bb49-1d3cd9d4f67b","ios":"levelo://app?vid=df4ce287-966a-4b2d-bb49-1d3cd9d4f67b"},"vehicle_type_id":"4","last_reported":1753031375,"current_range_meters":12400,"station_id":"ce4bh392rcd13ifvqdl0","pricing_plan_id":"cebpf4jnsgd1na2vs0mg"},{"bike_id":"9cc371a2-7c5d-4315-8fb5-724e3f50e0e8","system_id":"levelo_inurba_marseille","lat":43.23062,"lon":5.35489,"is_reserved":false,"is_disabled":false,"rental_uris":{"android":"levelo://app?vid=9cc371a2-7c5d-4315-8fb5-724e3f50e0e8","ios":"levelo://app?vid=9cc371a2-7c5d-4315-8fb5-724e3f50e0e8"},"vehicle_type_id":"4","last_reported":1753031375,"current_range_meters":12400,"station_id":"cpo3342slgdg3j2ifvpg","pricing_plan_id":"cebpf4jnsgd1na2vs0mg"},{"bike_id":"87b7400a-8907-4e0b-99b9-443fe1d8211a","system_id":"levelo_inurba_marseille","lat":43.30194,"lon":5.36622,"is_reserved":false,"is_disabled":false,"rental_uris":{"android":"levelo://app?vid=87b7400a-8907-4e0b-99b9-443fe1d8211a","ios":"levelo://app?vid=87b7400a-8907-4e0b-99b9-443fe1d8211a"},"vehicle_type_id":"4","last_reported":1753031375,"current_range_meters":12400,"station_id":"ce4bgrh2rcd13ifvqc8g","pricing_plan_id":"cebpf4jnsgd1na2vs0mg"},{"bike_id":"ec56498c-7315-46d2-8779-4f1d12c61dba","system_id":"levelo_inurba_marseille","lat":43.26727,"lon":5.37842,"is_reserved":false,"is_disabled":false,"rental_uris":{"android":"levelo://app?vid=ec56498c-7315-46d2-8779-4f1d12c61dba","ios":"levelo://app?vid=ec56498c-7315-46d2-8779-4f1d12c61dba"},"vehicle_type_id":"4","last_reported":1753031375,"current_range_meters":12800,"station_id":"","pricing_plan_id":"cebpf4jnsgd1na2vs0mg"},{"bike_id":"6789b762-f196-445e-bb29-e123221133e7","system_id":"levelo_inurba_marseille","lat":43.32349,"lon":5.4061,"is_reserved":false,"is_disabled":false,"rental_uris":{"android":"levelo://app?vid=6789b762-f196-445e-bb29-e123221133e7","ios":"levelo://app?vid=6789b762-f196-445e-bb29-e123221133e7"},"vehicle_type_id":"4","last_reported":1753031375,"current_range_meters":12800,"station_id":"ce4bhq92rcd13ifvqhjg","pricing_plan_id":"cebpf4jnsgd1na2vs0mg"},{"bike_id":"1661f89c-aca8-4e87-b3e6-ae2aeab60a39","system_id":"levelo_inurba_marseille","lat":43.30176,"lon":5.36618,"is_reserved":false,"is_disabled":false,"rental_uris":{"android":"levelo://app?vid=1661f89c-aca8-4e87-b3e6-ae2aeab60a39","ios":"levelo://app?vid=1661f89c-aca8-4e87-b3e6-ae2aeab60a39"},"vehicle_type_id":"4","last_reported":1753031375,"current_range_meters":12400,"station_id":"ce4bgrh2rcd13ifvqc8g","pricing_plan_id":"cebpf4jnsgd1na2vs0mg"},{"bike_id":"07cdfafc-f31d-475e-b196-66c066928703","system_id":"levelo_inurba_marseille","lat":43.25557,"lon":5.38181,"is_reserved":false,"is_disabled":false,"rental_uris":{"android":"levelo://app?vid=07cdfafc-f31d-475e-b196-66c066928703","ios":"levelo://app?vid=07cdfafc-f31d-475e-b196-66c066928703"},"vehicle_type_id":"4","last_reported":1753031375,"current_range_meters":12800,"station_id":"ce4bhih2rcd13ifvqfs0","pricing_plan_id":"cebpf4jnsgd1na2vs0mg"},{"bike_id":"1e8b1880-264c-4b77-bf82-6c996a6dc688","system_id":"levelo_inurba_marseille","lat":43.21225,"lon":5.35054,"is_reserved":false,"is_disabled":false,"rental_uris":{"android":"levelo://app?vid=1e8b1880-264c-4b77-bf82-6c996a6dc688","ios":"levelo://app?vid=1e8b1880-264c-4b77-bf82-6c996a6dc688"},"vehicle_type_id":"4","last_reported":1753031375,"current_range_meters":12800,"station_id":"","pricing_plan_id":"cebpf4jnsgd1na2vs0mg"},{"bike_id":"df7246bd-516a-4834-9abf-3ae8d7f7d2df","system_id":"levelo_inurba_marseille","lat":43.23203,"lon":5.35543,"is_reserved":false,"is_disabled":false,"rental_uris":{"android":"levelo://app?vid=df7246bd-516a-4834-9abf-3ae8d7f7d2df","ios":"levelo://app?vid=df7246bd-516a-4834-9abf-3ae8d7f7d2df"},"vehicle_type_id":"4","last_reported":1753031375,"current_range_meters":12800,"station_id":"ce4bhu92rcd13ifvqi70","pricing_plan_id":"cebpf4jnsgd1na2vs0mg"},{"bike_id":"95ec675e-a4b4-4094-9b6e-eaf01346ee1c","system_id":"levelo_inurba_marseille","lat":43.28678,"lon":5.38658,"is_reserved":false,"is_disabled":false,"rental_uris":{"android":"levelo://app?vid=95ec675e-a4b4-4094-9b6e-eaf01346ee1c","ios":"levelo://app?vid=95ec675e-a4b4-4094-9b6e-eaf01346ee1c"},"vehicle_type_id":"4","last_reported":1753031375,"current_range_meters":12400,"station_id":"ce4bh492rcd13ifvqdug","pricing_plan_id":"cebpf4jnsgd1na2vs0mg"},{"bike_id":"299ec8a6-d5a7-41ea-8121-1c7f792257d2","system_id":"levelo_inurba_marseille","lat":43.27372,"lon":5.36226,"is_reserved":false,"is_disabled":true,"rental_uris":{"android":"levelo://app?vid=299ec8a6-d5a7-41ea-8121-1c7f792257d2","ios":"levelo://app?vid=299ec8a6-d5a7-41ea-8121-1c7f792257d2"},"vehicle_type_id":"4","last_reported":1753031375,"current_range_meters":13600,"station_id":"ce4bhbh2rcd13ifvqeo0","pricing_plan_id":"cebpf4jnsgd1na2vs0mg"},{"bike_id":"21e62e63-044a-44e8-bc1b-e67fc981497b","system_id":"levelo_inurba_marseille","lat":43.28289,"lon":5.35073,"is_reserved":false,"is_disabled":false,"rental_uris":{"android":"levelo://app?vid=21e62e63-044a-44e8-bc1b-e67fc981497b","ios":"levelo://app?vid=21e62e63-044a-44e8-bc1b-e67fc981497b"},"vehicle_type_id":"4","last_reported":1753031375,"current_range_meters":13600,"station_id":"ce4bhbp2rcd13ifvqerg","pricing_plan_id":"cebpf4jnsgd1na2vs0mg"},{"bike_id":"f3e1b16a-b6f6-4cfe-8bb4-8dd6fa8ee51a","system_id":"levelo_inurba_marseille","lat":43.25497,"lon":5.37647,"is_reserved":false,"is_disabled":false,"rental_uris":{"android":"levelo://app?vid=f3e1b16a-b6f6-4cfe-8bb4-8dd6fa8ee51a","ios":"levelo://app?vid=f3e1b16a-b6f6-4cfe-8bb4-8dd6fa8ee51a"},"vehicle_type_id":"4","last_reported":1753031375,"current_range_meters":13600,"station_id":"ce4bhh12rcd13ifvqff0","pricing_plan_id":"cebpf4jnsgd1na2vs0mg"},{"bike_id":"8421688a-c494-4d66-ab48-1b5108e9abf9","system_id":"levelo_inurba_marseille","lat":43.23208,"lon":5.35561,"is_reserved":false,"is_disabled":false,"rental_uris":{"android":"levelo://app?vid=8421688a-c494-4d66-ab48-1b5108e9abf9","ios":"levelo://app?vid=8421688a-c494-4d66-ab48-1b5108e9abf9"},"vehicle_type_id":"4","last_reported":1753031375,"current_range_meters":13600,"station_id":"ce4bhu92rcd13ifvqi70","pricing_plan_id":"cebpf4jnsgd1na2vs0mg"},{"bike_id":"f4147de2-521e-448a-b67a-6644601dd0b9","system_id":"levelo_inurba_marseille","lat":43.29554,"lon":5.42291,"is_reserved":false,"is_disabled":false,"rental_uris":{"android":"levelo://app?vid=f4147de2-521e-448a-b67a-6644601dd0b9","ios":"levelo://app?vid=f4147de2-521e-448a-b67a-6644601dd0b9"},"vehicle_type_id":"4","last_reported":1753031375,"current_range_meters":14000,"station_id":"ce4bhph2rcd13ifvqhdg","pricing_plan_id":"cebpf4jnsgd1na2vs0mg"},{"bike_id":"82b5e066-4346-457a-b234-a6f3bac443dc","system_id":"levelo_inurba_marseille","lat":43.28274,"lon":5.35053,"is_reserved":false,"is_disabled":false,"rental_uris":{"android":"levelo://app?vid=82b5e066-4346-457a-b234-a6f3bac443dc","ios":"levelo://app?vid=82b5e066-4346-457a-b234-a6f3bac443dc"},"vehicle_type_id":"4","last_reported":1753031375,"current_range_meters":14000,"station_id":"ce4bhbp2rcd13ifvqerg","pricing_plan_id":"cebpf4jnsgd1na2vs0mg"},{"bike_id":"67efc980-29c5-4297-8709-44c439d8e1c7","system_id":"levelo_inurba_marseille","lat":43.30538,"lon":5.36555,"is_reserved":false,"is_disabled":false,"rental_uris":{"android":"levelo://app?vid=67efc980-29c5-4297-8709-44c439d8e1c7","ios":"levelo://app?vid=67efc980-29c5-4297-8709-44c439d8e1c7"},"vehicle_type_id":"4","last_reported":1753031375,"current_range_meters":14000,"station_id":"ce4bgs12rcd13ifvqcag","pricing_plan_id":"cebpf4jnsgd1na2vs0mg"},{"bike_id":"96793585-b370-4499-97b5-55297e845c8f","system_id":"levelo_inurba_marseille","lat":43.2178,"lon":5.3459,"is_reserved":false,"is_disabled":true,"rental_uris":{"android":"levelo://app?vid=96793585-b370-4499-97b5-55297e845c8f","ios":"levelo://app?vid=96793585-b370-4499-97b5-55297e845c8f"},"vehicle_type_id":"4","last_reported":1753031375,"current_range_meters":14000,"station_id":"st_cvj6r9ubvosntc0bgbag","pricing_plan_id":"cebpf4jnsgd1na2vs0mg"},{"bike_id":"d3aca52a-4e64-461a-8fd1-e9a035bafbdf","system_id":"levelo_inurba_marseille","lat":43.257213,"lon":5.411019,"is_reserved":false,"is_disabled":false,"rental_uris":{"android":"levelo://app?vid=d3aca52a-4e64-461a-8fd1-e9a035bafbdf","ios":"levelo://app?vid=d3aca52a-4e64-461a-8fd1-e9a035bafbdf"},"vehicle_type_id":"4","last_reported":1753031375,"current_range_meters":14000,"station_id":"","pricing_plan_id":"cebpf4jnsgd1na2vs0mg"},{"bike_id":"7988183c-a382-4df8-bfe0-44c34ab63148","system_id":"levelo_inurba_marseille","lat":43.24703,"lon":5.38134,"is_reserved":false,"is_disabled":false,"rental_uris":{"android":"levelo://app?vid=7988183c-a382-4df8-bfe0-44c34ab63148","ios":"levelo://app?vid=7988183c-a382-4df8-bfe0-44c34ab63148"},"vehicle_type_id":"4","last_reported":1753031375,"current_range_meters":14000,"station_id":"","pricing_plan_id":"cebpf4jnsgd1na2vs0mg"},{"bike_id":"c9695da4-3048-4cfc-83f0-62c3fac1ccbe","system_id":"levelo_inurba_marseille","lat":43.23053,"lon":5.35488,"is_reserved":false,"is_disabled":true,"rental_uris":{"android":"levelo://app?vid=c9695da4-3048-4cfc-83f0-62c3fac1ccbe","ios":"levelo://app?vid=c9695da4-3048-4cfc-83f0-62c3fac1ccbe"},"vehicle_type_id":"4","last_reported":1753031375,"current_range_meters":14400,"station_id":"cpo3342slgdg3j2ifvpg","pricing_plan_id":"cebpf4jnsgd1na2vs0mg"},{"bike_id":"eb240428-00e7-472b-91f5-4bf4c52fb633","system_id":"levelo_inurba_marseille","lat":43.26214,"lon":5.37925,"is_reserved":false,"is_disabled":true,"rental_uris":{"android":"levelo://app?vid=eb240428-00e7-472b-91f5-4bf4c52fb633","ios":"levelo://app?vid=eb240428-00e7-472b-91f5-4bf4c52fb633"},"vehicle_type_id":"4","last_reported":1753031375,"current_range_meters":14400,"station_id":"ce4bhjp2rcd13ifvqg90","pricing_plan_id":"cebpf4jnsgd1na2vs0mg"},{"bike_id":"a61dcce2-1eb3-444f-8c30-fdb609e21138","system_id":"levelo_inurba_marseille","lat":43.23578,"lon":5.36136,"is_reserved":false,"is_disabled":false,"rental_uris":{"android":"levelo://app?vid=a61dcce2-1eb3-444f-8c30-fdb609e21138","ios":"levelo://app?vid=a61dcce2-1eb3-444f-8c30-fdb609e21138"},"vehicle_type_id":"4","last_reported":1753031375,"current_range_meters":14800,"station_id":"","pricing_plan_id":"cebpf4jnsgd1na2vs0mg"},{"bike_id":"84c929e7-6af9-49b9-abff-20e807338985","system_id":"levelo_inurba_marseille","lat":43.24388,"lon":5.3706,"is_reserved":false,"is_disabled":false,"rental_uris":{"android":"levelo://app?vid=84c929e7-6af9-49b9-abff-20e807338985","ios":"levelo://app?vid=84c929e7-6af9-49b9-abff-20e807338985"},"vehicle_type_id":"4","last_reported":1753031375,"current_range_meters":14800,"station_id":"ce4bhhh2rcd13ifvqfk0","pricing_plan_id":"cebpf4jnsgd1na2vs0mg"},{"bike_id":"244f48c7-3796-4d3c-8757-eeebc8337e76","system_id":"levelo_inurba_marseille","lat":43.28417,"lon":5.34975,"is_reserved":false,"is_disabled":false,"rental_uris":{"android":"levelo://app?vid=244f48c7-3796-4d3c-8757-eeebc8337e76","ios":"levelo://app?vid=244f48c7-3796-4d3c-8757-eeebc8337e76"},"vehicle_type_id":"4","last_reported":1753031375,"current_range_meters":14800,"station_id":"ce4bhbh2rcd13ifvqepg","pricing_plan_id":"cebpf4jnsgd1na2vs0mg"},{"bike_id":"27db1ad3-2947-41e8-8ab4-a42a02cc25df","system_id":"levelo_inurba_marseille","lat":43.28284,"lon":5.35059,"is_reserved":false,"is_disabled":false,"rental_uris":{"android":"levelo://app?vid=27db1ad3-2947-41e8-8ab4-a42a02cc25df","ios":"levelo://app?vid=27db1ad3-2947-41e8-8ab4-a42a02cc25df"},"vehicle_type_id":"4","last_reported":1753031375,"current_range_meters":14800,"station_id":"ce4bhbp2rcd13ifvqerg","pricing_plan_id":"cebpf4jnsgd1na2vs0mg"},{"bike_id":"4eaddabb-0dc2-4a46-9691-55c808840481","system_id":"levelo_inurba_marseille","lat":43.28432,"lon":5.34973,"is_reserved":false,"is_disabled":false,"rental_uris":{"android":"levelo://app?vid=4eaddabb-0dc2-4a46-9691-55c808840481","ios":"levelo://app?vid=4eaddabb-0dc2-4a46-9691-55c808840481"},"vehicle_type_id":"4","last_reported":1753031375,"current_range_meters":14800,"station_id":"ce4bhbh2rcd13ifvqepg","pricing_plan_id":"cebpf4jnsgd1na2vs0mg"},{"bike_id":"9a1109a4-f27a-4945-8b23-81862e789c4b","system_id":"levelo_inurba_marseille","lat":43.284636,"lon":5.358877,"is_reserved":false,"is_disabled":false,"rental_uris":{"android":"levelo://app?vid=9a1109a4-f27a-4945-8b23-81862e789c4b","ios":"levelo://app?vid=9a1109a4-f27a-4945-8b23-81862e789c4b"},"vehicle_type_id":"4","last_reported":1753031375,"current_range_meters":14800,"station_id":"ce4bhah2rcd13ifvqei0","pricing_plan_id":"cebpf4jnsgd1na2vs0mg"},{"bike_id":"053762ef-2967-4c03-83aa-9c21c06b9aed","system_id":"levelo_inurba_marseille","lat":43.24081,"lon":5.3773,"is_reserved":false,"is_disabled":false,"rental_uris":{"android":"levelo://app?vid=053762ef-2967-4c03-83aa-9c21c06b9aed","ios":"levelo://app?vid=053762ef-2967-4c03-83aa-9c21c06b9aed"},"vehicle_type_id":"4","last_reported":1753031375,"current_range_meters":14800,"station_id":"ce4bhnp2rcd13ifvqgvg","pricing_plan_id":"cebpf4jnsgd1na2vs0mg"},{"bike_id":"ff2c165e-5b5b-40b7-9ef9-0c664fd09a94","system_id":"levelo_inurba_marseille","lat":43.29018,"lon":5.38605,"is_reserved":false,"is_disabled":true,"rental_uris":{"android":"levelo://app?vid=ff2c165e-5b5b-40b7-9ef9-0c664fd09a94","ios":"levelo://app?vid=ff2c165e-5b5b-40b7-9ef9-0c664fd09a94"},"vehicle_type_id":"4","last_reported":1753031375,"current_range_meters":14800,"station_id":"ce4bh4p2rcd13ifvqe0g","pricing_plan_id":"cebpf4jnsgd1na2vs0mg"},{"bike_id":"991080c6-f716-4814-957a-957645a20cb5","system_id":"levelo_inurba_marseille","lat":43.28436,"lon":5.34978,"is_reserved":false,"is_disabled":false,"rental_uris":{"android":"levelo://app?vid=991080c6-f716-4814-957a-957645a20cb5","ios":"levelo://app?vid=991080c6-f716-4814-957a-957645a20cb5"},"vehicle_type_id":"4","last_reported":1753031375,"current_range_meters":14800,"station_id":"ce4bhbh2rcd13ifvqepg","pricing_plan_id":"cebpf4jnsgd1na2vs0mg"},{"bike_id":"f335eb8b-f2b0-48df-963c-2425602f9038","system_id":"levelo_inurba_marseille","lat":43.270044,"lon":5.401204,"is_reserved":false,"is_disabled":true,"rental_uris":{"android":"levelo://app?vid=f335eb8b-f2b0-48df-963c-2425602f9038","ios":"levelo://app?vid=f335eb8b-f2b0-48df-963c-2425602f9038"},"vehicle_type_id":"4","last_reported":1753031375,"current_range_meters":15200,"station_id":"","pricing_plan_id":"cebpf4jnsgd1na2vs0mg"},{"bike_id":"ace48f5e-3699-45a3-bafa-d39f0186d12e","system_id":"levelo_inurba_marseille","lat":43.21759,"lon":5.34594,"is_reserved":false,"is_disabled":false,"rental_uris":{"android":"levelo://app?vid=ace48f5e-3699-45a3-bafa-d39f0186d12e","ios":"levelo://app?vid=ace48f5e-3699-45a3-bafa-d39f0186d12e"},"vehicle_type_id":"4","last_reported":1753031375,"current_range_meters":15200,"station_id":"st_cvj6r9ubvosntc0bgbag","pricing_plan_id":"cebpf4jnsgd1na2vs0mg"},{"bike_id":"8b70e333-db95-4dad-9f25-3f58617e52f2","system_id":"levelo_inurba_marseille","lat":43.299038,"lon":5.436655,"is_reserved":false,"is_disabled":false,"rental_uris":{"android":"levelo://app?vid=8b70e333-db95-4dad-9f25-3f58617e52f2","ios":"levelo://app?vid=8b70e333-db95-4dad-9f25-3f58617e52f2"},"vehicle_type_id":"4","last_reported":1753031375,"current_range_meters":15200,"station_id":"ce4bhpp2rcd13ifvqhfg","pricing_plan_id":"cebpf4jnsgd1na2vs0mg"},{"bike_id":"2aaf6c04-fb81-480b-a931-ab066f38afc9","system_id":"levelo_inurba_marseille","lat":43.28403,"lon":5.37501,"is_reserved":false,"is_disabled":false,"rental_uris":{"android":"levelo://app?vid=2aaf6c04-fb81-480b-a931-ab066f38afc9","ios":"levelo://app?vid=2aaf6c04-fb81-480b-a931-ab066f38afc9"},"vehicle_type_id":"4","last_reported":1753031375,"current_range_meters":16000,"station_id":"ce4bh412rcd13ifvqds0","pricing_plan_id":"cebpf4jnsgd1na2vs0mg"},{"bike_id":"ff304561-c8ce-4ac1-9008-9c7fa7a2d85b","system_id":"levelo_inurba_marseille","lat":43.29266,"lon":5.38424,"is_reserved":false,"is_disabled":true,"rental_uris":{"android":"levelo://app?vid=ff304561-c8ce-4ac1-9008-9c7fa7a2d85b","ios":"levelo://app?vid=ff304561-c8ce-4ac1-9008-9c7fa7a2d85b"},"vehicle_type_id":"4","last_reported":1753031375,"current_range_meters":16000,"station_id":"ce4bh692rcd13ifvqea0","pricing_plan_id":"cebpf4jnsgd1na2vs0mg"},{"bike_id":"bbef9b10-8d07-4bcf-bbd9-b288f9919f56","system_id":"levelo_inurba_marseille","lat":43.24671,"lon":5.38156,"is_reserved":false,"is_disabled":false,"rental_uris":{"android":"levelo://app?vid=bbef9b10-8d07-4bcf-bbd9-b288f9919f56","ios":"levelo://app?vid=bbef9b10-8d07-4bcf-bbd9-b288f9919f56"},"vehicle_type_id":"4","last_reported":1753031375,"current_range_meters":15200,"station_id":"ce4bhih2rcd13ifvqfr0","pricing_plan_id":"cebpf4jnsgd1na2vs0mg"},{"bike_id":"c1e6057c-ff5a-4477-a9f1-93444a633642","system_id":"levelo_inurba_marseille","lat":43.27186,"lon":5.3901,"is_reserved":false,"is_disabled":false,"rental_uris":{"android":"levelo://app?vid=c1e6057c-ff5a-4477-a9f1-93444a633642","ios":"levelo://app?vid=c1e6057c-ff5a-4477-a9f1-93444a633642"},"vehicle_type_id":"4","last_reported":1753031375,"current_range_meters":16000,"station_id":"","pricing_plan_id":"cebpf4jnsgd1na2vs0mg"},{"bike_id":"aa7039ed-31a0-4747-a640-e94f3558d15e","system_id":"levelo_inurba_marseille","lat":43.22503,"lon":5.34774,"is_reserved":false,"is_disabled":true,"rental_uris":{"android":"levelo://app?vid=aa7039ed-31a0-4747-a640-e94f3558d15e","ios":"levelo://app?vid=aa7039ed-31a0-4747-a640-e94f3558d15e"},"vehicle_type_id":"4","last_reported":1753031375,"current_range_meters":16000,"station_id":"","pricing_plan_id":"cebpf4jnsgd1na2vs0mg"},{"bike_id":"cb331a89-56a6-4651-9865-7241cd4ca587","system_id":"levelo_inurba_marseille","lat":43.324828,"lon":5.365776,"is_reserved":false,"is_disabled":false,"rental_uris":{"android":"levelo://app?vid=cb331a89-56a6-4651-9865-7241cd4ca587","ios":"levelo://app?vid=cb331a89-56a6-4651-9865-7241cd4ca587"},"vehicle_type_id":"4","last_reported":1753031375,"current_range_meters":16000,"station_id":"ce4bhs12rcd13ifvqhvg","pricing_plan_id":"cebpf4jnsgd1na2vs0mg"},{"bike_id":"5ccf6fcb-646f-4acf-9fbc-c7f16de7c973","system_id":"levelo_inurba_marseille","lat":43.32647,"lon":5.42344,"is_reserved":false,"is_disabled":false,"rental_uris":{"android":"levelo://app?vid=5ccf6fcb-646f-4acf-9fbc-c7f16de7c973","ios":"levelo://app?vid=5ccf6fcb-646f-4acf-9fbc-c7f16de7c973"},"vehicle_type_id":"4","last_reported":1753031375,"current_range_meters":16000,"station_id":"","pricing_plan_id":"cebpf4jnsgd1na2vs0mg"},{"bike_id":"57d73d40-2b0a-41c2-9e0b-4660f8f321c6","system_id":"levelo_inurba_marseille","lat":43.23075,"lon":5.35481,"is_reserved":false,"is_disabled":false,"rental_uris":{"android":"levelo://app?vid=57d73d40-2b0a-41c2-9e0b-4660f8f321c6","ios":"levelo://app?vid=57d73d40-2b0a-41c2-9e0b-4660f8f321c6"},"vehicle_type_id":"4","last_reported":1753031375,"current_range_meters":16000,"station_id":"cpo3342slgdg3j2ifvpg","pricing_plan_id":"cebpf4jnsgd1na2vs0mg"},{"bike_id":"341eec4e-ddcf-4f75-95c6-ecd84ef432ec","system_id":"levelo_inurba_marseille","lat":43.22938,"lon":5.35339,"is_reserved":false,"is_disabled":false,"rental_uris":{"android":"levelo://app?vid=341eec4e-ddcf-4f75-95c6-ecd84ef432ec","ios":"levelo://app?vid=341eec4e-ddcf-4f75-95c6-ecd84ef432ec"},"vehicle_type_id":"4","last_reported":1753031375,"current_range_meters":16400,"station_id":"cpo3532slgdg3j2ikp40","pricing_plan_id":"cebpf4jnsgd1na2vs0mg"},{"bike_id":"b862303e-1b88-4ff6-923a-6de878d2c4e1","system_id":"levelo_inurba_marseille","lat":43.270773,"lon":5.422763,"is_reserved":false,"is_disabled":false,"rental_uris":{"android":"levelo://app?vid=b862303e-1b88-4ff6-923a-6de878d2c4e1","ios":"levelo://app?vid=b862303e-1b88-4ff6-923a-6de878d2c4e1"},"vehicle_type_id":"4","last_reported":1753031375,"current_range_meters":16400,"station_id":"ce4bhk92rcd13ifvqgb0","pricing_plan_id":"cebpf4jnsgd1na2vs0mg"},{"bike_id":"4c8283f7-9214-4f90-b93f-b371d5ff3abb","system_id":"levelo_inurba_marseille","lat":43.21193,"lon":5.35072,"is_reserved":false,"is_disabled":false,"rental_uris":{"android":"levelo://app?vid=4c8283f7-9214-4f90-b93f-b371d5ff3abb","ios":"levelo://app?vid=4c8283f7-9214-4f90-b93f-b371d5ff3abb"},"vehicle_type_id":"4","last_reported":1753031375,"current_range_meters":16400,"station_id":"st_cvj6sg6p6f1abm77japg","pricing_plan_id":"cebpf4jnsgd1na2vs0mg"},{"bike_id":"f3f581c3-7fd6-46b6-b25c-df950de01306","system_id":"levelo_inurba_marseille","lat":43.28704,"lon":5.39969,"is_reserved":false,"is_disabled":true,"rental_uris":{"android":"levelo://app?vid=f3f581c3-7fd6-46b6-b25c-df950de01306","ios":"levelo://app?vid=f3f581c3-7fd6-46b6-b25c-df950de01306"},"vehicle_type_id":"4","last_reported":1753031375,"current_range_meters":16400,"station_id":"ce4bho92rcd13ifvqh3g","pricing_plan_id":"cebpf4jnsgd1na2vs0mg"},{"bike_id":"09b10ad6-483c-4054-8e5a-265c9665e9d7","system_id":"levelo_inurba_marseille","lat":43.259176,"lon":5.408949,"is_reserved":false,"is_disabled":false,"rental_uris":{"android":"levelo://app?vid=09b10ad6-483c-4054-8e5a-265c9665e9d7","ios":"levelo://app?vid=09b10ad6-483c-4054-8e5a-265c9665e9d7"},"vehicle_type_id":"4","last_reported":1753031375,"current_range_meters":16400,"station_id":"ce4bhm92rcd13ifvqglg","pricing_plan_id":"cebpf4jnsgd1na2vs0mg"},{"bike_id":"53cb4f43-b1af-4efe-9f40-e0338804f4d4","system_id":"levelo_inurba_marseille","lat":43.31297,"lon":5.39014,"is_reserved":false,"is_disabled":false,"rental_uris":{"android":"levelo://app?vid=53cb4f43-b1af-4efe-9f40-e0338804f4d4","ios":"levelo://app?vid=53cb4f43-b1af-4efe-9f40-e0338804f4d4"},"vehicle_type_id":"4","last_reported":1753031375,"current_range_meters":16400,"station_id":"","pricing_plan_id":"cebpf4jnsgd1na2vs0mg"},{"bike_id":"4c40b2af-d959-403d-a695-e22d3976eddc","system_id":"levelo_inurba_marseille","lat":43.27368,"lon":5.36245,"is_reserved":false,"is_disabled":false,"rental_uris":{"android":"levelo://app?vid=4c40b2af-d959-403d-a695-e22d3976eddc","ios":"levelo://app?vid=4c40b2af-d959-403d-a695-e22d3976eddc"},"vehicle_type_id":"4","last_reported":1753031375,"current_range_meters":16400,"station_id":"ce4bhbh2rcd13ifvqeo0","pricing_plan_id":"cebpf4jnsgd1na2vs0mg"},{"bike_id":"1e4d59b2-fb51-4154-9d5c-ed2bcb0ac7cb","system_id":"levelo_inurba_marseille","lat":43.30195,"lon":5.36642,"is_reserved":false,"is_disabled":false,"rental_uris":{"android":"levelo://app?vid=1e4d59b2-fb51-4154-9d5c-ed2bcb0ac7cb","ios":"levelo://app?vid=1e4d59b2-fb51-4154-9d5c-ed2bcb0ac7cb"},"vehicle_type_id":"4","last_reported":1753031375,"current_range_meters":16400,"station_id":"ce4bgrh2rcd13ifvqc8g","pricing_plan_id":"cebpf4jnsgd1na2vs0mg"},{"bike_id":"e491260c-0931-41e0-8ec2-c00cead8dfe0","system_id":"levelo_inurba_marseille","lat":43.284161,"lon":5.349844,"is_reserved":false,"is_disabled":false,"rental_uris":{"android":"levelo://app?vid=e491260c-0931-41e0-8ec2-c00cead8dfe0","ios":"levelo://app?vid=e491260c-0931-41e0-8ec2-c00cead8dfe0"},"vehicle_type_id":"4","last_reported":1753031375,"current_range_meters":16400,"station_id":"ce4bhbh2rcd13ifvqepg","pricing_plan_id":"cebpf4jnsgd1na2vs0mg"},{"bike_id":"03772b11-05f4-48cd-b352-479340b3f53c","system_id":"levelo_inurba_marseille","lat":43.2848,"lon":5.38443,"is_reserved":false,"is_disabled":true,"rental_uris":{"android":"levelo://app?vid=03772b11-05f4-48cd-b352-479340b3f53c","ios":"levelo://app?vid=03772b11-05f4-48cd-b352-479340b3f53c"},"vehicle_type_id":"4","last_reported":1753031375,"current_range_meters":16400,"station_id":"ce4bh512rcd13ifvqe3g","pricing_plan_id":"cebpf4jnsgd1na2vs0mg"},{"bike_id":"42752829-3ee2-4e84-849d-429017304915","system_id":"levelo_inurba_marseille","lat":43.28518,"lon":5.35901,"is_reserved":false,"is_disabled":true,"rental_uris":{"android":"levelo://app?vid=42752829-3ee2-4e84-849d-429017304915","ios":"levelo://app?vid=42752829-3ee2-4e84-849d-429017304915"},"vehicle_type_id":"4","last_reported":1753031375,"current_range_meters":16400,"station_id":"ce4bhah2rcd13ifvqei0","pricing_plan_id":"cebpf4jnsgd1na2vs0mg"},{"bike_id":"3a0ad0b3-730c-4b6f-afc8-d25401cb7d69","system_id":"levelo_inurba_marseille","lat":43.24646,"lon":5.382,"is_reserved":false,"is_disabled":false,"rental_uris":{"android":"levelo://app?vid=3a0ad0b3-730c-4b6f-afc8-d25401cb7d69","ios":"levelo://app?vid=3a0ad0b3-730c-4b6f-afc8-d25401cb7d69"},"vehicle_type_id":"4","last_reported":1753031375,"current_range_meters":16400,"station_id":"ce4bhih2rcd13ifvqfr0","pricing_plan_id":"cebpf4jnsgd1na2vs0mg"},{"bike_id":"483e3a7f-88bb-4db7-9086-de63b6691d71","system_id":"levelo_inurba_marseille","lat":43.32288,"lon":5.3825,"is_reserved":false,"is_disabled":false,"rental_uris":{"android":"levelo://app?vid=483e3a7f-88bb-4db7-9086-de63b6691d71","ios":"levelo://app?vid=483e3a7f-88bb-4db7-9086-de63b6691d71"},"vehicle_type_id":"4","last_reported":1753031375,"current_range_meters":16000,"station_id":"ce4bhr12rcd13ifvqhqg","pricing_plan_id":"cebpf4jnsgd1na2vs0mg"},{"bike_id":"4355836e-ae99-4039-b85f-c4e239c9dca5","system_id":"levelo_inurba_marseille","lat":43.29905,"lon":5.43672,"is_reserved":false,"is_disabled":false,"rental_uris":{"android":"levelo://app?vid=4355836e-ae99-4039-b85f-c4e239c9dca5","ios":"levelo://app?vid=4355836e-ae99-4039-b85f-c4e239c9dca5"},"vehicle_type_id":"4","last_reported":1753031375,"current_range_meters":16800,"station_id":"ce4bhpp2rcd13ifvqhfg","pricing_plan_id":"cebpf4jnsgd1na2vs0mg"},{"bike_id":"6e9a1427-dc9c-43d9-92e2-3c03a7d4d52f","system_id":"levelo_inurba_marseille","lat":43.3315,"lon":5.38154,"is_reserved":false,"is_disabled":false,"rental_uris":{"android":"levelo://app?vid=6e9a1427-dc9c-43d9-92e2-3c03a7d4d52f","ios":"levelo://app?vid=6e9a1427-dc9c-43d9-92e2-3c03a7d4d52f"},"vehicle_type_id":"4","last_reported":1753031375,"current_range_meters":16800,"station_id":"","pricing_plan_id":"cebpf4jnsgd1na2vs0mg"},{"bike_id":"35f72585-80fb-483f-afbd-54992e0039e3","system_id":"levelo_inurba_marseille","lat":43.29277,"lon":5.36839,"is_reserved":false,"is_disabled":false,"rental_uris":{"android":"levelo://app?vid=35f72585-80fb-483f-afbd-54992e0039e3","ios":"levelo://app?vid=35f72585-80fb-483f-afbd-54992e0039e3"},"vehicle_type_id":"4","last_reported":1753031375,"current_range_meters":16800,"station_id":"ce4bhbp2rcd13ifvqesg","pricing_plan_id":"cebpf4jnsgd1na2vs0mg"},{"bike_id":"041c03e8-36b1-4fa1-b33f-946da94fa6a5","system_id":"levelo_inurba_marseille","lat":43.29007,"lon":5.356131,"is_reserved":false,"is_disabled":false,"rental_uris":{"android":"levelo://app?vid=041c03e8-36b1-4fa1-b33f-946da94fa6a5","ios":"levelo://app?vid=041c03e8-36b1-4fa1-b33f-946da94fa6a5"},"vehicle_type_id":"4","last_reported":1753031375,"current_range_meters":16800,"station_id":"ce4bhb92rcd13ifvqen0","pricing_plan_id":"cebpf4jnsgd1na2vs0mg"},{"bike_id":"adf0ea27-5f89-4663-85c3-5bbce17f36b2","system_id":"levelo_inurba_marseille","lat":43.23202,"lon":5.35548,"is_reserved":false,"is_disabled":false,"rental_uris":{"android":"levelo://app?vid=adf0ea27-5f89-4663-85c3-5bbce17f36b2","ios":"levelo://app?vid=adf0ea27-5f89-4663-85c3-5bbce17f36b2"},"vehicle_type_id":"4","last_reported":1753031375,"current_range_meters":16800,"station_id":"ce4bhu92rcd13ifvqi70","pricing_plan_id":"cebpf4jnsgd1na2vs0mg"},{"bike_id":"7f9b5c78-32c7-42dd-b86b-2a9dd5a857ae","system_id":"levelo_inurba_marseille","lat":43.27171,"lon":5.40994,"is_reserved":false,"is_disabled":false,"rental_uris":{"android":"levelo://app?vid=7f9b5c78-32c7-42dd-b86b-2a9dd5a857ae","ios":"levelo://app?vid=7f9b5c78-32c7-42dd-b86b-2a9dd5a857ae"},"vehicle_type_id":"4","last_reported":1753031375,"current_range_meters":16800,"station_id":"ce4bhl12rcd13ifvqgf0","pricing_plan_id":"cebpf4jnsgd1na2vs0mg"},{"bike_id":"1a393bea-55d1-43a8-b4f2-f4ed7af21936","system_id":"levelo_inurba_marseille","lat":43.2719,"lon":5.40973,"is_reserved":false,"is_disabled":false,"rental_uris":{"android":"levelo://app?vid=1a393bea-55d1-43a8-b4f2-f4ed7af21936","ios":"levelo://app?vid=1a393bea-55d1-43a8-b4f2-f4ed7af21936"},"vehicle_type_id":"4","last_reported":1753031375,"current_range_meters":16800,"station_id":"ce4bhl12rcd13ifvqgf0","pricing_plan_id":"cebpf4jnsgd1na2vs0mg"},{"bike_id":"8979afbb-d831-492b-8bd1-2b5d774796f7","system_id":"levelo_inurba_marseille","lat":43.27036,"lon":5.42264,"is_reserved":false,"is_disabled":false,"rental_uris":{"android":"levelo://app?vid=8979afbb-d831-492b-8bd1-2b5d774796f7","ios":"levelo://app?vid=8979afbb-d831-492b-8bd1-2b5d774796f7"},"vehicle_type_id":"4","last_reported":1753031375,"current_range_meters":16800,"station_id":"ce4bhk92rcd13ifvqgb0","pricing_plan_id":"cebpf4jnsgd1na2vs0mg"},{"bike_id":"ad7e1be5-ae3a-4dc5-a0fa-e561b2f32d9c","system_id":"levelo_inurba_marseille","lat":43.30333,"lon":5.404476,"is_reserved":false,"is_disabled":false,"rental_uris":{"android":"levelo://app?vid=ad7e1be5-ae3a-4dc5-a0fa-e561b2f32d9c","ios":"levelo://app?vid=ad7e1be5-ae3a-4dc5-a0fa-e561b2f32d9c"},"vehicle_type_id":"4","last_reported":1753031375,"current_range_meters":16800,"station_id":"ce4bh012rcd13ifvqd10","pricing_plan_id":"cebpf4jnsgd1na2vs0mg"},{"bike_id":"db971c70-6d0e-4de3-9900-700e14395d76","system_id":"levelo_inurba_marseille","lat":43.29058,"lon":5.37164,"is_reserved":false,"is_disabled":false,"rental_uris":{"android":"levelo://app?vid=db971c70-6d0e-4de3-9900-700e14395d76","ios":"levelo://app?vid=db971c70-6d0e-4de3-9900-700e14395d76"},"vehicle_type_id":"4","last_reported":1753031375,"current_range_meters":16800,"station_id":"ce4bh5p2rcd13ifvqe4g","pricing_plan_id":"cebpf4jnsgd1na2vs0mg"},{"bike_id":"214ebb64-5c54-486c-8b17-0aca639525e0","system_id":"levelo_inurba_marseille","lat":43.30885,"lon":5.39638,"is_reserved":false,"is_disabled":false,"rental_uris":{"android":"levelo://app?vid=214ebb64-5c54-486c-8b17-0aca639525e0","ios":"levelo://app?vid=214ebb64-5c54-486c-8b17-0aca639525e0"},"vehicle_type_id":"4","last_reported":1753031375,"current_range_meters":16800,"station_id":"ce4bh012rcd13ifvqcv0","pricing_plan_id":"cebpf4jnsgd1na2vs0mg"},{"bike_id":"de9a47b5-edea-465f-9387-34f73bc29d46","system_id":"levelo_inurba_marseille","lat":43.22953,"lon":5.35348,"is_reserved":false,"is_disabled":false,"rental_uris":{"android":"levelo://app?vid=de9a47b5-edea-465f-9387-34f73bc29d46","ios":"levelo://app?vid=de9a47b5-edea-465f-9387-34f73bc29d46"},"vehicle_type_id":"4","last_reported":1753031375,"current_range_meters":16800,"station_id":"cpo3532slgdg3j2ikp40","pricing_plan_id":"cebpf4jnsgd1na2vs0mg"},{"bike_id":"45f484f7-f884-4bb2-b999-0e689bd9e672","system_id":"levelo_inurba_marseille","lat":43.273817,"lon":5.362556,"is_reserved":false,"is_disabled":false,"rental_uris":{"android":"levelo://app?vid=45f484f7-f884-4bb2-b999-0e689bd9e672","ios":"levelo://app?vid=45f484f7-f884-4bb2-b999-0e689bd9e672"},"vehicle_type_id":"4","last_reported":1753031375,"current_range_meters":16800,"station_id":"ce4bhbh2rcd13ifvqeo0","pricing_plan_id":"cebpf4jnsgd1na2vs0mg"},{"bike_id":"63b0b856-af33-4970-b22e-c07117f2395e","system_id":"levelo_inurba_marseille","lat":43.211893,"lon":5.35071,"is_reserved":false,"is_disabled":false,"rental_uris":{"android":"levelo://app?vid=63b0b856-af33-4970-b22e-c07117f2395e","ios":"levelo://app?vid=63b0b856-af33-4970-b22e-c07117f2395e"},"vehicle_type_id":"4","last_reported":1753031375,"current_range_meters":16800,"station_id":"st_cvj6sg6p6f1abm77japg","pricing_plan_id":"cebpf4jnsgd1na2vs0mg"},{"bike_id":"1705f469-72b3-4b6b-a3ab-684dfcba22ca","system_id":"levelo_inurba_marseille","lat":43.26565,"lon":5.39005,"is_reserved":false,"is_disabled":true,"rental_uris":{"android":"levelo://app?vid=1705f469-72b3-4b6b-a3ab-684dfcba22ca","ios":"levelo://app?vid=1705f469-72b3-4b6b-a3ab-684dfcba22ca"},"vehicle_type_id":"4","last_reported":1753031375,"current_range_meters":16800,"station_id":"ce4bhe12rcd13ifvqf30","pricing_plan_id":"cebpf4jnsgd1na2vs0mg"},{"bike_id":"43e703c6-9907-49a0-ac06-2809026f4383","system_id":"levelo_inurba_marseille","lat":43.22496,"lon":5.34776,"is_reserved":false,"is_disabled":false,"rental_uris":{"android":"levelo://app?vid=43e703c6-9907-49a0-ac06-2809026f4383","ios":"levelo://app?vid=43e703c6-9907-49a0-ac06-2809026f4383"},"vehicle_type_id":"4","last_reported":1753031375,"current_range_meters":16800,"station_id":"st_cvj5dfep6f1abm77gieg","pricing_plan_id":"cebpf4jnsgd1na2vs0mg"},{"bike_id":"34b554c8-aaf1-4365-be93-3ca6c12a2962","system_id":"levelo_inurba_marseille","lat":43.24176,"lon":5.363957,"is_reserved":false,"is_disabled":false,"rental_uris":{"android":"levelo://app?vid=34b554c8-aaf1-4365-be93-3ca6c12a2962","ios":"levelo://app?vid=34b554c8-aaf1-4365-be93-3ca6c12a2962"},"vehicle_type_id":"4","last_reported":1753031375,"current_range_meters":17200,"station_id":"cpo36qri1sfpv3e86is0","pricing_plan_id":"cebpf4jnsgd1na2vs0mg"},{"bike_id":"d007a63b-662c-4b54-b17f-51fadf0cd81e","system_id":"levelo_inurba_marseille","lat":43.22938,"lon":5.35356,"is_reserved":false,"is_disabled":false,"rental_uris":{"android":"levelo://app?vid=d007a63b-662c-4b54-b17f-51fadf0cd81e","ios":"levelo://app?vid=d007a63b-662c-4b54-b17f-51fadf0cd81e"},"vehicle_type_id":"4","last_reported":1753031375,"current_range_meters":17200,"station_id":"cpo3532slgdg3j2ikp40","pricing_plan_id":"cebpf4jnsgd1na2vs0mg"},{"bike_id":"ce0787d3-d1a1-4750-9916-b2af3abc58e6","system_id":"levelo_inurba_marseille","lat":43.24177,"lon":5.39723,"is_reserved":false,"is_disabled":false,"rental_uris":{"android":"levelo://app?vid=ce0787d3-d1a1-4750-9916-b2af3abc58e6","ios":"levelo://app?vid=ce0787d3-d1a1-4750-9916-b2af3abc58e6"},"vehicle_type_id":"4","last_reported":1753031375,"current_range_meters":17600,"station_id":"ce4bhn12rcd13ifvqgpg","pricing_plan_id":"cebpf4jnsgd1na2vs0mg"},{"bike_id":"01ef6f38-0cb9-4831-9c9a-0f76f326e484","system_id":"levelo_inurba_marseille","lat":43.29002,"lon":5.35599,"is_reserved":false,"is_disabled":true,"rental_uris":{"android":"levelo://app?vid=01ef6f38-0cb9-4831-9c9a-0f76f326e484","ios":"levelo://app?vid=01ef6f38-0cb9-4831-9c9a-0f76f326e484"},"vehicle_type_id":"4","last_reported":1753031375,"current_range_meters":17200,"station_id":"ce4bhb92rcd13ifvqen0","pricing_plan_id":"cebpf4jnsgd1na2vs0mg"},{"bike_id":"06fcaf41-a3b3-4096-a515-28545e82af83","system_id":"levelo_inurba_marseille","lat":43.229284,"lon":5.353717,"is_reserved":false,"is_disabled":false,"rental_uris":{"android":"levelo://app?vid=06fcaf41-a3b3-4096-a515-28545e82af83","ios":"levelo://app?vid=06fcaf41-a3b3-4096-a515-28545e82af83"},"vehicle_type_id":"4","last_reported":1753031375,"current_range_meters":17200,"station_id":"cpo3532slgdg3j2ikp40","pricing_plan_id":"cebpf4jnsgd1na2vs0mg"},{"bike_id":"3d36c590-bfb3-4f3d-a821-3b0275041fa7","system_id":"levelo_inurba_marseille","lat":43.30443,"lon":5.41297,"is_reserved":false,"is_disabled":false,"rental_uris":{"android":"levelo://app?vid=3d36c590-bfb3-4f3d-a821-3b0275041fa7","ios":"levelo://app?vid=3d36c590-bfb3-4f3d-a821-3b0275041fa7"},"vehicle_type_id":"4","last_reported":1753031375,"current_range_meters":17200,"station_id":"ce4bhop2rcd13ifvqh8g","pricing_plan_id":"cebpf4jnsgd1na2vs0mg"},{"bike_id":"d2d1c201-411c-4923-b2a6-57ae834be776","system_id":"levelo_inurba_marseille","lat":43.23063,"lon":5.35486,"is_reserved":false,"is_disabled":false,"rental_uris":{"android":"levelo://app?vid=d2d1c201-411c-4923-b2a6-57ae834be776","ios":"levelo://app?vid=d2d1c201-411c-4923-b2a6-57ae834be776"},"vehicle_type_id":"4","last_reported":1753031375,"current_range_meters":17200,"station_id":"cpo3342slgdg3j2ifvpg","pricing_plan_id":"cebpf4jnsgd1na2vs0mg"},{"bike_id":"dbdb1cb6-deab-4cf3-be81-aae4753dd0bd","system_id":"levelo_inurba_marseille","lat":43.22531,"lon":5.3476,"is_reserved":false,"is_disabled":false,"rental_uris":{"android":"levelo://app?vid=dbdb1cb6-deab-4cf3-be81-aae4753dd0bd","ios":"levelo://app?vid=dbdb1cb6-deab-4cf3-be81-aae4753dd0bd"},"vehicle_type_id":"4","last_reported":1753031375,"current_range_meters":17200,"station_id":"st_cvj5dfep6f1abm77gieg","pricing_plan_id":"cebpf4jnsgd1na2vs0mg"},{"bike_id":"d2a9ef2a-3ecf-454e-ac8d-c81b3a196753","system_id":"levelo_inurba_marseille","lat":43.28623,"lon":5.3822,"is_reserved":false,"is_disabled":false,"rental_uris":{"android":"levelo://app?vid=d2a9ef2a-3ecf-454e-ac8d-c81b3a196753","ios":"levelo://app?vid=d2a9ef2a-3ecf-454e-ac8d-c81b3a196753"},"vehicle_type_id":"4","last_reported":1753031375,"current_range_meters":17200,"station_id":"","pricing_plan_id":"cebpf4jnsgd1na2vs0mg"},{"bike_id":"841226dc-d800-4af0-adb4-d3fc7c7cf8e8","system_id":"levelo_inurba_marseille","lat":43.29552,"lon":5.42298,"is_reserved":false,"is_disabled":true,"rental_uris":{"android":"levelo://app?vid=841226dc-d800-4af0-adb4-d3fc7c7cf8e8","ios":"levelo://app?vid=841226dc-d800-4af0-adb4-d3fc7c7cf8e8"},"vehicle_type_id":"4","last_reported":1753031375,"current_range_meters":17200,"station_id":"ce4bhph2rcd13ifvqhdg","pricing_plan_id":"cebpf4jnsgd1na2vs0mg"},{"bike_id":"86034328-b502-49e8-be1c-6931ad90e79c","system_id":"levelo_inurba_marseille","lat":43.28435,"lon":5.34985,"is_reserved":false,"is_disabled":false,"rental_uris":{"android":"levelo://app?vid=86034328-b502-49e8-be1c-6931ad90e79c","ios":"levelo://app?vid=86034328-b502-49e8-be1c-6931ad90e79c"},"vehicle_type_id":"4","last_reported":1753031375,"current_range_meters":17200,"station_id":"ce4bhbh2rcd13ifvqepg","pricing_plan_id":"cebpf4jnsgd1na2vs0mg"},{"bike_id":"b7d86614-3689-4859-822c-85c27a8e06d5","system_id":"levelo_inurba_marseille","lat":43.27072,"lon":5.4228,"is_reserved":false,"is_disabled":false,"rental_uris":{"android":"levelo://app?vid=b7d86614-3689-4859-822c-85c27a8e06d5","ios":"levelo://app?vid=b7d86614-3689-4859-822c-85c27a8e06d5"},"vehicle_type_id":"4","last_reported":1753031375,"current_range_meters":17200,"station_id":"ce4bhk92rcd13ifvqgb0","pricing_plan_id":"cebpf4jnsgd1na2vs0mg"},{"bike_id":"4287834d-b69b-4fde-8b01-fc10a4229b6d","system_id":"levelo_inurba_marseille","lat":43.25875,"lon":5.39895,"is_reserved":false,"is_disabled":false,"rental_uris":{"android":"levelo://app?vid=4287834d-b69b-4fde-8b01-fc10a4229b6d","ios":"levelo://app?vid=4287834d-b69b-4fde-8b01-fc10a4229b6d"},"vehicle_type_id":"4","last_reported":1753031375,"current_range_meters":17200,"station_id":"ce4bhl92rcd13ifvqghg","pricing_plan_id":"cebpf4jnsgd1na2vs0mg"},{"bike_id":"874cf807-ac6e-49e3-9129-8ff7fe0ade2d","system_id":"levelo_inurba_marseille","lat":43.29001,"lon":5.3561,"is_reserved":false,"is_disabled":false,"rental_uris":{"android":"levelo://app?vid=874cf807-ac6e-49e3-9129-8ff7fe0ade2d","ios":"levelo://app?vid=874cf807-ac6e-49e3-9129-8ff7fe0ade2d"},"vehicle_type_id":"4","last_reported":1753031375,"current_range_meters":17600,"station_id":"ce4bhb92rcd13ifvqen0","pricing_plan_id":"cebpf4jnsgd1na2vs0mg"},{"bike_id":"730b33a7-fc15-4896-9d82-e3ffc8e37908","system_id":"levelo_inurba_marseille","lat":43.22503,"lon":5.34774,"is_reserved":false,"is_disabled":false,"rental_uris":{"android":"levelo://app?vid=730b33a7-fc15-4896-9d82-e3ffc8e37908","ios":"levelo://app?vid=730b33a7-fc15-4896-9d82-e3ffc8e37908"},"vehicle_type_id":"4","last_reported":1753031375,"current_range_meters":17600,"station_id":"st_cvj5dfep6f1abm77gieg","pricing_plan_id":"cebpf4jnsgd1na2vs0mg"},{"bike_id":"584ca77e-3f2d-4bc6-a9da-e13eb6cb5327","system_id":"levelo_inurba_marseille","lat":43.28621,"lon":5.35096,"is_reserved":false,"is_disabled":false,"rental_uris":{"android":"levelo://app?vid=584ca77e-3f2d-4bc6-a9da-e13eb6cb5327","ios":"levelo://app?vid=584ca77e-3f2d-4bc6-a9da-e13eb6cb5327"},"vehicle_type_id":"4","last_reported":1753031375,"current_range_meters":17600,"station_id":"ce4bhch2rcd13ifvqeug","pricing_plan_id":"cebpf4jnsgd1na2vs0mg"},{"bike_id":"ffbd24cd-d101-4ceb-b74b-b64034c470c0","system_id":"levelo_inurba_marseille","lat":43.26195,"lon":5.37451,"is_reserved":false,"is_disabled":false,"rental_uris":{"android":"levelo://app?vid=ffbd24cd-d101-4ceb-b74b-b64034c470c0","ios":"levelo://app?vid=ffbd24cd-d101-4ceb-b74b-b64034c470c0"},"vehicle_type_id":"4","last_reported":1753031375,"current_range_meters":17600,"station_id":"ce4bhgp2rcd13ifvqfc0","pricing_plan_id":"cebpf4jnsgd1na2vs0mg"},{"bike_id":"33796b3a-191c-41ac-8620-e3367ad83092","system_id":"levelo_inurba_marseille","lat":43.30139,"lon":5.39854,"is_reserved":false,"is_disabled":false,"rental_uris":{"android":"levelo://app?vid=33796b3a-191c-41ac-8620-e3367ad83092","ios":"levelo://app?vid=33796b3a-191c-41ac-8620-e3367ad83092"},"vehicle_type_id":"4","last_reported":1753031375,"current_range_meters":17600,"station_id":"ce4bh0h2rcd13ifvqd40","pricing_plan_id":"cebpf4jnsgd1na2vs0mg"},{"bike_id":"7e111aaf-0c84-4893-8fbe-f32d417885bf","system_id":"levelo_inurba_marseille","lat":43.28,"lon":5.40015,"is_reserved":false,"is_disabled":false,"rental_uris":{"android":"levelo://app?vid=7e111aaf-0c84-4893-8fbe-f32d417885bf","ios":"levelo://app?vid=7e111aaf-0c84-4893-8fbe-f32d417885bf"},"vehicle_type_id":"4","last_reported":1753031375,"current_range_meters":17600,"station_id":"ce4bho92rcd13ifvqh4g","pricing_plan_id":"cebpf4jnsgd1na2vs0mg"},{"bike_id":"d100812f-9e77-4b3a-a11b-18211b570584","system_id":"levelo_inurba_marseille","lat":43.32476,"lon":5.36565,"is_reserved":false,"is_disabled":false,"rental_uris":{"android":"levelo://app?vid=d100812f-9e77-4b3a-a11b-18211b570584","ios":"levelo://app?vid=d100812f-9e77-4b3a-a11b-18211b570584"},"vehicle_type_id":"4","last_reported":1753031375,"current_range_meters":17600,"station_id":"ce4bhs12rcd13ifvqhvg","pricing_plan_id":"cebpf4jnsgd1na2vs0mg"},{"bike_id":"c47c4612-aa9a-40e0-9a78-5da247b20688","system_id":"levelo_inurba_marseille","lat":43.22506,"lon":5.34778,"is_reserved":false,"is_disabled":false,"rental_uris":{"android":"levelo://app?vid=c47c4612-aa9a-40e0-9a78-5da247b20688","ios":"levelo://app?vid=c47c4612-aa9a-40e0-9a78-5da247b20688"},"vehicle_type_id":"4","last_reported":1753031375,"current_range_meters":17600,"station_id":"st_cvj5dfep6f1abm77gieg","pricing_plan_id":"cebpf4jnsgd1na2vs0mg"},{"bike_id":"6f3055b0-fed8-44a0-a015-90f7c20bcf46","system_id":"levelo_inurba_marseille","lat":43.22905,"lon":5.34958,"is_reserved":false,"is_disabled":false,"rental_uris":{"android":"levelo://app?vid=6f3055b0-fed8-44a0-a015-90f7c20bcf46","ios":"levelo://app?vid=6f3055b0-fed8-44a0-a015-90f7c20bcf46"},"vehicle_type_id":"4","last_reported":1753031375,"current_range_meters":17600,"station_id":"","pricing_plan_id":"cebpf4jnsgd1na2vs0mg"},{"bike_id":"c6f13c59-2793-4a1e-87aa-6f0d71252623","system_id":"levelo_inurba_marseille","lat":43.2992,"lon":5.43657,"is_reserved":false,"is_disabled":false,"rental_uris":{"android":"levelo://app?vid=c6f13c59-2793-4a1e-87aa-6f0d71252623","ios":"levelo://app?vid=c6f13c59-2793-4a1e-87aa-6f0d71252623"},"vehicle_type_id":"4","last_reported":1753031375,"current_range_meters":18000,"station_id":"ce4bhpp2rcd13ifvqhfg","pricing_plan_id":"cebpf4jnsgd1na2vs0mg"},{"bike_id":"b2a298e9-19e9-4d30-9a09-a4722cdf6a7b","system_id":"levelo_inurba_marseille","lat":43.21187,"lon":5.35066,"is_reserved":false,"is_disabled":false,"rental_uris":{"android":"levelo://app?vid=b2a298e9-19e9-4d30-9a09-a4722cdf6a7b","ios":"levelo://app?vid=b2a298e9-19e9-4d30-9a09-a4722cdf6a7b"},"vehicle_type_id":"4","last_reported":1753031375,"current_range_meters":18800,"station_id":"st_cvj6sg6p6f1abm77japg","pricing_plan_id":"cebpf4jnsgd1na2vs0mg"},{"bike_id":"4e406d72-8bc2-49a7-82db-f65f755f787e","system_id":"levelo_inurba_marseille","lat":43.31225,"lon":5.36857,"is_reserved":false,"is_disabled":false,"rental_uris":{"android":"levelo://app?vid=4e406d72-8bc2-49a7-82db-f65f755f787e","ios":"levelo://app?vid=4e406d72-8bc2-49a7-82db-f65f755f787e"},"vehicle_type_id":"4","last_reported":1753031375,"current_range_meters":18000,"station_id":"ce4bgl92rcd13ifvqbq0","pricing_plan_id":"cebpf4jnsgd1na2vs0mg"},{"bike_id":"09ef74df-d08a-4205-8464-939efb2d13c0","system_id":"levelo_inurba_marseille","lat":43.30131,"lon":5.39851,"is_reserved":false,"is_disabled":false,"rental_uris":{"android":"levelo://app?vid=09ef74df-d08a-4205-8464-939efb2d13c0","ios":"levelo://app?vid=09ef74df-d08a-4205-8464-939efb2d13c0"},"vehicle_type_id":"4","last_reported":1753031375,"current_range_meters":18000,"station_id":"ce4bh0h2rcd13ifvqd40","pricing_plan_id":"cebpf4jnsgd1na2vs0mg"},{"bike_id":"1c37a6c0-7fed-49e2-8fd4-2d775c26b7b0","system_id":"levelo_inurba_marseille","lat":43.2319,"lon":5.3554,"is_reserved":false,"is_disabled":false,"rental_uris":{"android":"levelo://app?vid=1c37a6c0-7fed-49e2-8fd4-2d775c26b7b0","ios":"levelo://app?vid=1c37a6c0-7fed-49e2-8fd4-2d775c26b7b0"},"vehicle_type_id":"4","last_reported":1753031375,"current_range_meters":18000,"station_id":"ce4bhu92rcd13ifvqi70","pricing_plan_id":"cebpf4jnsgd1na2vs0mg"},{"bike_id":"5ba10e11-b75e-4abf-a76d-2587642a56fb","system_id":"levelo_inurba_marseille","lat":43.28412,"lon":5.34988,"is_reserved":false,"is_disabled":false,"rental_uris":{"android":"levelo://app?vid=5ba10e11-b75e-4abf-a76d-2587642a56fb","ios":"levelo://app?vid=5ba10e11-b75e-4abf-a76d-2587642a56fb"},"vehicle_type_id":"4","last_reported":1753031375,"current_range_meters":18000,"station_id":"ce4bhbh2rcd13ifvqepg","pricing_plan_id":"cebpf4jnsgd1na2vs0mg"},{"bike_id":"01a6439e-90e5-4115-835e-a0ccc0d13e10","system_id":"levelo_inurba_marseille","lat":43.28273,"lon":5.35056,"is_reserved":false,"is_disabled":false,"rental_uris":{"android":"levelo://app?vid=01a6439e-90e5-4115-835e-a0ccc0d13e10","ios":"levelo://app?vid=01a6439e-90e5-4115-835e-a0ccc0d13e10"},"vehicle_type_id":"4","last_reported":1753031375,"current_range_meters":18000,"station_id":"ce4bhbp2rcd13ifvqerg","pricing_plan_id":"cebpf4jnsgd1na2vs0mg"},{"bike_id":"474ac65d-bd8b-4629-a217-92eff3842408","system_id":"levelo_inurba_marseille","lat":43.29383,"lon":5.37859,"is_reserved":false,"is_disabled":true,"rental_uris":{"android":"levelo://app?vid=474ac65d-bd8b-4629-a217-92eff3842408","ios":"levelo://app?vid=474ac65d-bd8b-4629-a217-92eff3842408"},"vehicle_type_id":"4","last_reported":1753031375,"current_range_meters":18000,"station_id":"ce4bgjh2rcd13ifvqbf0","pricing_plan_id":"cebpf4jnsgd1na2vs0mg"},{"bike_id":"e1bcf554-c3ac-44ba-8021-c344751ec654","system_id":"levelo_inurba_marseille","lat":43.32285,"lon":5.382745,"is_reserved":false,"is_disabled":false,"rental_uris":{"android":"levelo://app?vid=e1bcf554-c3ac-44ba-8021-c344751ec654","ios":"levelo://app?vid=e1bcf554-c3ac-44ba-8021-c344751ec654"},"vehicle_type_id":"4","last_reported":1753031375,"current_range_meters":18000,"station_id":"ce4bhr12rcd13ifvqhqg","pricing_plan_id":"cebpf4jnsgd1na2vs0mg"},{"bike_id":"299ff7f7-5864-4139-af32-da7a1975186d","system_id":"levelo_inurba_marseille","lat":43.225087,"lon":5.347867,"is_reserved":false,"is_disabled":false,"rental_uris":{"android":"levelo://app?vid=299ff7f7-5864-4139-af32-da7a1975186d","ios":"levelo://app?vid=299ff7f7-5864-4139-af32-da7a1975186d"},"vehicle_type_id":"4","last_reported":1753031375,"current_range_meters":18000,"station_id":"","pricing_plan_id":"cebpf4jnsgd1na2vs0mg"},{"bike_id":"42337587-056e-41cf-bae0-5fd5d441ba24","system_id":"levelo_inurba_marseille","lat":43.2593,"lon":5.40869,"is_reserved":false,"is_disabled":false,"rental_uris":{"android":"levelo://app?vid=42337587-056e-41cf-bae0-5fd5d441ba24","ios":"levelo://app?vid=42337587-056e-41cf-bae0-5fd5d441ba24"},"vehicle_type_id":"4","last_reported":1753031375,"current_range_meters":18000,"station_id":"ce4bhm92rcd13ifvqglg","pricing_plan_id":"cebpf4jnsgd1na2vs0mg"},{"bike_id":"de035642-eed1-42aa-b7d6-f006663c350b","system_id":"levelo_inurba_marseille","lat":43.27855,"lon":5.35445,"is_reserved":false,"is_disabled":false,"rental_uris":{"android":"levelo://app?vid=de035642-eed1-42aa-b7d6-f006663c350b","ios":"levelo://app?vid=de035642-eed1-42aa-b7d6-f006663c350b"},"vehicle_type_id":"4","last_reported":1753031375,"current_range_meters":18000,"station_id":"","pricing_plan_id":"cebpf4jnsgd1na2vs0mg"},{"bike_id":"3527e5ec-8e88-4544-ab6a-55654224d928","system_id":"levelo_inurba_marseille","lat":43.23071,"lon":5.35484,"is_reserved":false,"is_disabled":false,"rental_uris":{"android":"levelo://app?vid=3527e5ec-8e88-4544-ab6a-55654224d928","ios":"levelo://app?vid=3527e5ec-8e88-4544-ab6a-55654224d928"},"vehicle_type_id":"4","last_reported":1753031375,"current_range_meters":18000,"station_id":"cpo3342slgdg3j2ifvpg","pricing_plan_id":"cebpf4jnsgd1na2vs0mg"},{"bike_id":"dcf40150-e945-416f-8f27-006fe6a6617f","system_id":"levelo_inurba_marseille","lat":43.27496,"lon":5.42446,"is_reserved":false,"is_disabled":false,"rental_uris":{"android":"levelo://app?vid=dcf40150-e945-416f-8f27-006fe6a6617f","ios":"levelo://app?vid=dcf40150-e945-416f-8f27-006fe6a6617f"},"vehicle_type_id":"4","last_reported":1753031375,"current_range_meters":17600,"station_id":"ce4bhn92rcd13ifvqgrg","pricing_plan_id":"cebpf4jnsgd1na2vs0mg"},{"bike_id":"0ab5edff-8724-4c93-922c-a841549140d2","system_id":"levelo_inurba_marseille","lat":43.22517,"lon":5.3477,"is_reserved":false,"is_disabled":false,"rental_uris":{"android":"levelo://app?vid=0ab5edff-8724-4c93-922c-a841549140d2","ios":"levelo://app?vid=0ab5edff-8724-4c93-922c-a841549140d2"},"vehicle_type_id":"4","last_reported":1753031375,"current_range_meters":18000,"station_id":"st_cvj5dfep6f1abm77gieg","pricing_plan_id":"cebpf4jnsgd1na2vs0mg"},{"bike_id":"9e110f9c-c4c0-40b9-bea6-7601542f9cd7","system_id":"levelo_inurba_marseille","lat":43.2317,"lon":5.35502,"is_reserved":false,"is_disabled":false,"rental_uris":{"android":"levelo://app?vid=9e110f9c-c4c0-40b9-bea6-7601542f9cd7","ios":"levelo://app?vid=9e110f9c-c4c0-40b9-bea6-7601542f9cd7"},"vehicle_type_id":"4","last_reported":1753031375,"current_range_meters":18000,"station_id":"ce4bhu92rcd13ifvqi70","pricing_plan_id":"cebpf4jnsgd1na2vs0mg"},{"bike_id":"f6d85f93-b45d-4ca0-9490-50f6c9c24b88","system_id":"levelo_inurba_marseille","lat":43.211963,"lon":5.350709,"is_reserved":false,"is_disabled":false,"rental_uris":{"android":"levelo://app?vid=f6d85f93-b45d-4ca0-9490-50f6c9c24b88","ios":"levelo://app?vid=f6d85f93-b45d-4ca0-9490-50f6c9c24b88"},"vehicle_type_id":"4","last_reported":1753031375,"current_range_meters":18800,"station_id":"st_cvj6sg6p6f1abm77japg","pricing_plan_id":"cebpf4jnsgd1na2vs0mg"},{"bike_id":"551976cf-01df-4655-b8b6-f004d6681f19","system_id":"levelo_inurba_marseille","lat":43.2706,"lon":5.40272,"is_reserved":false,"is_disabled":true,"rental_uris":{"android":"levelo://app?vid=551976cf-01df-4655-b8b6-f004d6681f19","ios":"levelo://app?vid=551976cf-01df-4655-b8b6-f004d6681f19"},"vehicle_type_id":"4","last_reported":1753031375,"current_range_meters":19200,"station_id":"ce4bhk92rcd13ifvqgc0","pricing_plan_id":"cebpf4jnsgd1na2vs0mg"},{"bike_id":"19665075-1169-45a7-af41-9f1c346d2c17","system_id":"levelo_inurba_marseille","lat":43.2395,"lon":5.3663,"is_reserved":false,"is_disabled":true,"rental_uris":{"android":"levelo://app?vid=19665075-1169-45a7-af41-9f1c346d2c17","ios":"levelo://app?vid=19665075-1169-45a7-af41-9f1c346d2c17"},"vehicle_type_id":"4","last_reported":1753031375,"current_range_meters":18800,"station_id":"ce4bhi12rcd13ifvqfp0","pricing_plan_id":"cebpf4jnsgd1na2vs0mg"},{"bike_id":"31b5aeb1-cb4d-4e04-a667-58080f70a32f","system_id":"levelo_inurba_marseille","lat":43.23159,"lon":5.43734,"is_reserved":false,"is_disabled":false,"rental_uris":{"android":"levelo://app?vid=31b5aeb1-cb4d-4e04-a667-58080f70a32f","ios":"levelo://app?vid=31b5aeb1-cb4d-4e04-a667-58080f70a32f"},"vehicle_type_id":"4","last_reported":1753031375,"current_range_meters":18000,"station_id":"ce4bhmp2rcd13ifvqgog","pricing_plan_id":"cebpf4jnsgd1na2vs0mg"},{"bike_id":"5c7cfd38-807b-4bef-9c5d-c2f0c95ce8df","system_id":"levelo_inurba_marseille","lat":43.23072,"lon":5.35459,"is_reserved":false,"is_disabled":false,"rental_uris":{"android":"levelo://app?vid=5c7cfd38-807b-4bef-9c5d-c2f0c95ce8df","ios":"levelo://app?vid=5c7cfd38-807b-4bef-9c5d-c2f0c95ce8df"},"vehicle_type_id":"4","last_reported":1753031375,"current_range_meters":18800,"station_id":"cpo3342slgdg3j2ifvpg","pricing_plan_id":"cebpf4jnsgd1na2vs0mg"},{"bike_id":"91e6b946-9b50-4635-be71-8a60ea48500d","system_id":"levelo_inurba_marseille","lat":43.248056,"lon":5.374595,"is_reserved":false,"is_disabled":false,"rental_uris":{"android":"levelo://app?vid=91e6b946-9b50-4635-be71-8a60ea48500d","ios":"levelo://app?vid=91e6b946-9b50-4635-be71-8a60ea48500d"},"vehicle_type_id":"4","last_reported":1753031375,"current_range_meters":18800,"station_id":"ce4bhgh2rcd13ifvqfb0","pricing_plan_id":"cebpf4jnsgd1na2vs0mg"},{"bike_id":"b456876d-88a5-419f-91d5-7ff0369393e2","system_id":"levelo_inurba_marseille","lat":43.22531,"lon":5.34752,"is_reserved":false,"is_disabled":false,"rental_uris":{"android":"levelo://app?vid=b456876d-88a5-419f-91d5-7ff0369393e2","ios":"levelo://app?vid=b456876d-88a5-419f-91d5-7ff0369393e2"},"vehicle_type_id":"4","last_reported":1753031375,"current_range_meters":18800,"station_id":"st_cvj5dfep6f1abm77gieg","pricing_plan_id":"cebpf4jnsgd1na2vs0mg"},{"bike_id":"9730fae3-5668-4fa8-aa98-3189373117fb","system_id":"levelo_inurba_marseille","lat":43.229371,"lon":5.353821,"is_reserved":false,"is_disabled":false,"rental_uris":{"android":"levelo://app?vid=9730fae3-5668-4fa8-aa98-3189373117fb","ios":"levelo://app?vid=9730fae3-5668-4fa8-aa98-3189373117fb"},"vehicle_type_id":"4","last_reported":1753031375,"current_range_meters":18800,"station_id":"cpo3532slgdg3j2ikp40","pricing_plan_id":"cebpf4jnsgd1na2vs0mg"},{"bike_id":"e1d03f0c-d835-4cf2-8aa1-84b014b3aaa6","system_id":"levelo_inurba_marseille","lat":43.22509,"lon":5.34783,"is_reserved":false,"is_disabled":false,"rental_uris":{"android":"levelo://app?vid=e1d03f0c-d835-4cf2-8aa1-84b014b3aaa6","ios":"levelo://app?vid=e1d03f0c-d835-4cf2-8aa1-84b014b3aaa6"},"vehicle_type_id":"4","last_reported":1753031375,"current_range_meters":18800,"station_id":"st_cvj5dfep6f1abm77gieg","pricing_plan_id":"cebpf4jnsgd1na2vs0mg"},{"bike_id":"d7060d40-dae2-4ead-b4d8-da5f60783438","system_id":"levelo_inurba_marseille","lat":43.2367,"lon":5.40181,"is_reserved":false,"is_disabled":false,"rental_uris":{"android":"levelo://app?vid=d7060d40-dae2-4ead-b4d8-da5f60783438","ios":"levelo://app?vid=d7060d40-dae2-4ead-b4d8-da5f60783438"},"vehicle_type_id":"4","last_reported":1753031375,"current_range_meters":18800,"station_id":"","pricing_plan_id":"cebpf4jnsgd1na2vs0mg"},{"bike_id":"ac49738a-4d4f-43d3-9c67-46980e61ae95","system_id":"levelo_inurba_marseille","lat":43.31715,"lon":5.37643,"is_reserved":false,"is_disabled":false,"rental_uris":{"android":"levelo://app?vid=ac49738a-4d4f-43d3-9c67-46980e61ae95","ios":"levelo://app?vid=ac49738a-4d4f-43d3-9c67-46980e61ae95"},"vehicle_type_id":"4","last_reported":1753031375,"current_range_meters":18800,"station_id":"","pricing_plan_id":"cebpf4jnsgd1na2vs0mg"},{"bike_id":"434a7f35-04fa-4b73-998c-c063702d1322","system_id":"levelo_inurba_marseille","lat":43.28427,"lon":5.34987,"is_reserved":false,"is_disabled":false,"rental_uris":{"android":"levelo://app?vid=434a7f35-04fa-4b73-998c-c063702d1322","ios":"levelo://app?vid=434a7f35-04fa-4b73-998c-c063702d1322"},"vehicle_type_id":"4","last_reported":1753031375,"current_range_meters":19200,"station_id":"ce4bhbh2rcd13ifvqepg","pricing_plan_id":"cebpf4jnsgd1na2vs0mg"},{"bike_id":"5f697139-66cc-4961-86fa-e49e9718248a","system_id":"levelo_inurba_marseille","lat":43.28421,"lon":5.349906,"is_reserved":false,"is_disabled":false,"rental_uris":{"android":"levelo://app?vid=5f697139-66cc-4961-86fa-e49e9718248a","ios":"levelo://app?vid=5f697139-66cc-4961-86fa-e49e9718248a"},"vehicle_type_id":"4","last_reported":1753031375,"current_range_meters":19200,"station_id":"ce4bhbh2rcd13ifvqepg","pricing_plan_id":"cebpf4jnsgd1na2vs0mg"},{"bike_id":"3f2839da-f13c-4d4b-b88f-41513ab28be2","system_id":"levelo_inurba_marseille","lat":43.301342,"lon":5.398634,"is_reserved":false,"is_disabled":false,"rental_uris":{"android":"levelo://app?vid=3f2839da-f13c-4d4b-b88f-41513ab28be2","ios":"levelo://app?vid=3f2839da-f13c-4d4b-b88f-41513ab28be2"},"vehicle_type_id":"4","last_reported":1753031375,"current_range_meters":19200,"station_id":"ce4bh0h2rcd13ifvqd40","pricing_plan_id":"cebpf4jnsgd1na2vs0mg"},{"bike_id":"ebd43c10-1ae4-4e4c-b0bd-6b5fb4f3f3dc","system_id":"levelo_inurba_marseille","lat":43.29021,"lon":5.35916,"is_reserved":false,"is_disabled":false,"rental_uris":{"android":"levelo://app?vid=ebd43c10-1ae4-4e4c-b0bd-6b5fb4f3f3dc","ios":"levelo://app?vid=ebd43c10-1ae4-4e4c-b0bd-6b5fb4f3f3dc"},"vehicle_type_id":"4","last_reported":1753031375,"current_range_meters":19200,"station_id":"ce4bha92rcd13ifvqeg0","pricing_plan_id":"cebpf4jnsgd1na2vs0mg"},{"bike_id":"2202d4e1-43b2-495b-89e8-e4d9f8d5cf6b","system_id":"levelo_inurba_marseille","lat":43.211939,"lon":5.350757,"is_reserved":false,"is_disabled":false,"rental_uris":{"android":"levelo://app?vid=2202d4e1-43b2-495b-89e8-e4d9f8d5cf6b","ios":"levelo://app?vid=2202d4e1-43b2-495b-89e8-e4d9f8d5cf6b"},"vehicle_type_id":"4","last_reported":1753031375,"current_range_meters":19200,"station_id":"st_cvj6sg6p6f1abm77japg","pricing_plan_id":"cebpf4jnsgd1na2vs0mg"},{"bike_id":"c695f162-6b42-40d7-8780-ed224e75f8e8","system_id":"levelo_inurba_marseille","lat":43.22813,"lon":5.34956,"is_reserved":false,"is_disabled":false,"rental_uris":{"android":"levelo://app?vid=c695f162-6b42-40d7-8780-ed224e75f8e8","ios":"levelo://app?vid=c695f162-6b42-40d7-8780-ed224e75f8e8"},"vehicle_type_id":"4","last_reported":1753031375,"current_range_meters":19200,"station_id":"","pricing_plan_id":"cebpf4jnsgd1na2vs0mg"},{"bike_id":"7f65ce50-53c3-4a03-9179-831deed16192","system_id":"levelo_inurba_marseille","lat":43.2318,"lon":5.35522,"is_reserved":false,"is_disabled":false,"rental_uris":{"android":"levelo://app?vid=7f65ce50-53c3-4a03-9179-831deed16192","ios":"levelo://app?vid=7f65ce50-53c3-4a03-9179-831deed16192"},"vehicle_type_id":"4","last_reported":1753031375,"current_range_meters":19200,"station_id":"ce4bhu92rcd13ifvqi70","pricing_plan_id":"cebpf4jnsgd1na2vs0mg"},