{"last_updated":1747383282,"ttl":60,"version":"2.2","data":{"bikes":[{"bike_id":"c0b9fd4f-e181-46ce-b0bf-f5119973334f","system_id":"levelo_inurba_marseille","lat":43.33771,"lon":5.37424,"is_reserved":false,"is_disabled":false,"rental_uris":{"android":"levelo://app?vid=c0b9fd4f-e181-46ce-b0bf-f5119973334f","ios":"levelo://app?vid=c0b9fd4f-e181-46ce-b0bf-f5119973334f"},"vehicle_type_id":"4","last_reported":1747383282,"current_range_meters":11200,"station_id":"","pricing_plan_id":"cebpf4jnsgd1na2vs0mg"},{"bike_id":"fc2577e7-1497-425b-9d4f-ab8d7dc843c6","system_id":"levelo_inurba_marseille","lat":43.33771,"lon":5.37485,"is_reserved":false,"is_disabled":true,"rental_uris":{"android":"levelo://app?vid=fc2577e7-1497-425b-9d4f-ab8d7dc843c6","ios":"levelo://app?vid=fc2577e7-1497-425b-9d4f-ab8d7dc843c6"},"vehicle_type_id":"4","last_reported":1747383282,"current_range_meters":0,"station_id":"","pricing_plan_id":"cebpf4jnsgd1na2vs0mg"},{"bike_id":"ce4325af-2448-4172-bdec-81d552ee0b62","system_id":"levelo_inurba_marseille","lat":43.26157,"lon":5.42016,"is_reserved":false,"is_disabled":true,"rental_uris":{"android":"levelo://app?vid=ce4325af-2448-4172-bdec-81d552ee0b62","ios":"levelo://app?vid=ce4325af-2448-4172-bdec-81d552ee0b62"},"vehicle_type_id":"4","last_reported":1747383282,"current_range_meters":0,"station_id":"","pricing_plan_id":"cebpf4jnsgd1na2vs0mg"},{"bike_id":"e62a2c8b-ebd4-4592-ae0f-ff5560db0b84","system_id":"levelo_inurba_marseille","lat":43.24677,"lon":5.39955,"is_reserved":false,"is_disabled":true,"rental_uris":{"android":"levelo://app?vid=e62a2c8b-ebd4-4592-ae0f-ff5560db0b84","ios":"levelo://app?vid=e62a2c8b-ebd4-4592-ae0f-ff5560db0b84"},"vehicle_type_id":"4","last_reported":1747383282,"current_range_meters":0,"station_id":"","pricing_plan_id":"cebpf4jnsgd1na2vs0mg"},{"bike_id":"2b8fbf5f-4106-421b-bd48-29543ccb14db","system_id":"levelo_inurba_marseille","lat":43.23702,"lon":5.3627,"is_reserved":false,"is_disabled":true,"rental_uris":{"android":"levelo://app?vid=2b8fbf5f-4106-421b-bd48-29543ccb14db","ios":"levelo://app?vid=2b8fbf5f-4106-421b-bd48-29543ccb14db"},"vehicle_type_id":"4","last_reported":1747383282,"current_range_meters":0,"station_id":"","pricing_plan_id":"cebpf4jnsgd1na2vs0mg"},{"bike_id":"5de4311e-acc0-4747-9be3-06bcfa4d137e","system_id":"levelo_inurba_marseille","lat":43.31981,"lon":5.38704,"is_reserved":false,"is_disabled":true,"rental_uris":{"android":"levelo://app?vid=5de4311e-acc0-4747-9be3-06bcfa4d137e","ios":"levelo://app?vid=5de4311e-acc0-4747-9be3-06bcfa4d137e"},"vehicle_type_id":"4","last_reported":1747383282,"current_range_meters":0,"station_id":"","pricing_plan_id":"cebpf4jnsgd1na2vs0mg"},{"bike_id":"ad4822f5-dceb-440b-9bcb-6cfc5e9af24d","system_id":"levelo_inurba_marseille","lat":43.337444,"lon":5.374475,"is_reserved":false,"is_disabled":true,"rental_uris":{"android":"levelo://app?vid=ad4822f5-dceb-440b-9bcb-6cfc5e9af24d","ios":"levelo://app?vid=ad4822f5-dceb-440b-9bcb-6cfc5e9af24d"},"vehicle_type_id":"4","last_reported":1747383282,"current_range_meters":0,"station_id":"","pricing_plan_id":"cebpf4jnsgd1na2vs0mg"},{"bike_id":"792567c6-0442-4011-aff0-9c05e25deb48","system_id":"levelo_inurba_marseille","lat":43.337444,"lon":5.374475,"is_reserved":false,"is_disabled":true,"rental_uris":{"android":"levelo://app?vid=792567c6-0442-4011-aff0-9c05e25deb48","ios":"levelo://app?vid=792567c6-0442-4011-aff0-9c05e25deb48"},"vehicle_type_id":"4","last_reported":1747383282,"current_range_meters":0,"station_id":"","pricing_plan_id":"cebpf4jnsgd1na2vs0mg"},{"bike_id":"2a5dafaf-54ec-4df0-8510-39053ad2d582","system_id":"levelo_inurba_marseille","lat":43.3317,"lon":5.39205,"is_reserved":false,"is_disabled":true,"rental_uris":{"android":"levelo://app?vid=2a5dafaf-54ec-4df0-8510-39053ad2d582","ios":"levelo://app?vid=2a5dafaf-54ec-4df0-8510-39053ad2d582"},"vehicle_type_id":"4","last_reported":1747383282,"current_range_meters":0,"station_id":"","pricing_plan_id":"cebpf4jnsgd1na2vs0mg"},{"bike_id":"0fd4bff8-7683-40d4-b0ae-c129cdc72cba","system_id":"levelo_inurba_marseille","lat":43.30743,"lon":5.4046,"is_reserved":false,"is_disabled":true,"rental_uris":{"android":"levelo://app?vid=0fd4bff8-7683-40d4-b0ae-c129cdc72cba","ios":"levelo://app?vid=0fd4bff8-7683-40d4-b0ae-c129cdc72cba"},"vehicle_type_id":"4","last_reported":1747383282,"current_range_meters":0,"station_id":"","pricing_plan_id":"cebpf4jnsgd1na2vs0mg"},{"bike_id":"7151ab6f-0639-4f2b-b11e-3e42a79e149e","system_id":"levelo_inurba_marseille","lat":43.30141,"lon":5.38071,"is_reserved":false,"is_disabled":true,"rental_uris":{"android":"levelo://app?vid=7151ab6f-0639-4f2b-b11e-3e42a79e149e","ios":"levelo://app?vid=7151ab6f-0639-4f2b-b11e-3e42a79e149e"},"vehicle_type_id":"4","last_reported":1747383282,"current_range_meters":0,"station_id":"ce4bgjp2rcd13ifvqbh0","pricing_plan_id":"cebpf4jnsgd1na2vs0mg"},{"bike_id":"baf3d633-87d2-45e7-a805-05d345f3159c","system_id":"levelo_inurba_marseille","lat":43.309263,"lon":5.401423,"is_reserved":false,"is_disabled":true,"rental_uris":{"android":"levelo://app?vid=baf3d633-87d2-45e7-a805-05d345f3159c","ios":"levelo://app?vid=baf3d633-87d2-45e7-a805-05d345f3159c"},"vehicle_type_id":"4","last_reported":1747383282,"current_range_meters":0,"station_id":"ce4bgvp2rcd13ifvqct0","pricing_plan_id":"cebpf4jnsgd1na2vs0mg"},{"bike_id":"346bda2e-fd81-48a4-914f-38eb3157b0db","system_id":"levelo_inurba_marseille","lat":43.298686,"lon":5.397301,"is_reserved":false,"is_disabled":true,"rental_uris":{"android":"levelo://app?vid=346bda2e-fd81-48a4-914f-38eb3157b0db","ios":"levelo://app?vid=346bda2e-fd81-48a4-914f-38eb3157b0db"},"vehicle_type_id":"4","last_reported":1747383282,"current_range_meters":0,"station_id":"ce4bh0h2rcd13ifvqd50","pricing_plan_id":"cebpf4jnsgd1na2vs0mg"},{"bike_id":"837d36b0-fc67-44ec-b0f4-ccd939e50307","system_id":"levelo_inurba_marseille","lat":43.287163,"lon":5.379352,"is_reserved":false,"is_disabled":true,"rental_uris":{"android":"levelo://app?vid=837d36b0-fc67-44ec-b0f4-ccd939e50307","ios":"levelo://app?vid=837d36b0-fc67-44ec-b0f4-ccd939e50307"},"vehicle_type_id":"4","last_reported":1747383282,"current_range_meters":0,"station_id":"ce4bh9p2rcd13ifvqec0","pricing_plan_id":"cebpf4jnsgd1na2vs0mg"},{"bike_id":"d07757ea-b235-4a46-8f94-2295a329b1fc","system_id":"levelo_inurba_marseille","lat":43.28036,"lon":5.36937,"is_reserved":false,"is_disabled":true,"rental_uris":{"android":"levelo://app?vid=d07757ea-b235-4a46-8f94-2295a329b1fc","ios":"levelo://app?vid=d07757ea-b235-4a46-8f94-2295a329b1fc"},"vehicle_type_id":"4","last_reported":1747383282,"current_range_meters":0,"station_id":"ce4bha12rcd13ifvqef0","pricing_plan_id":"cebpf4jnsgd1na2vs0mg"},{"bike_id":"165f7e17-b816-423a-a9c0-5326d1b36e58","system_id":"levelo_inurba_marseille","lat":43.29166,"lon":5.37162,"is_reserved":false,"is_disabled":true,"rental_uris":{"android":"levelo://app?vid=165f7e17-b816-423a-a9c0-5326d1b36e58","ios":"levelo://app?vid=165f7e17-b816-423a-a9c0-5326d1b36e58"},"vehicle_type_id":"4","last_reported":1747383282,"current_range_meters":0,"station_id":"ce4bha92rcd13ifvqeh0","pricing_plan_id":"cebpf4jnsgd1na2vs0mg"},{"bike_id":"514250ee-340b-409a-a1bb-b75ee82738e8","system_id":"levelo_inurba_marseille","lat":43.2846,"lon":5.35905,"is_reserved":false,"is_disabled":true,"rental_uris":{"android":"levelo://app?vid=514250ee-340b-409a-a1bb-b75ee82738e8","ios":"levelo://app?vid=514250ee-340b-409a-a1bb-b75ee82738e8"},"vehicle_type_id":"4","last_reported":1747383282,"current_range_meters":0,"station_id":"ce4bhah2rcd13ifvqei0","pricing_plan_id":"cebpf4jnsgd1na2vs0mg"},{"bike_id":"c9b05462-a95e-4c0a-accb-08136f75d75b","system_id":"levelo_inurba_marseille","lat":43.284615,"lon":5.35886,"is_reserved":false,"is_disabled":true,"rental_uris":{"android":"levelo://app?vid=c9b05462-a95e-4c0a-accb-08136f75d75b","ios":"levelo://app?vid=c9b05462-a95e-4c0a-accb-08136f75d75b"},"vehicle_type_id":"4","last_reported":1747383282,"current_range_meters":0,"station_id":"ce4bhah2rcd13ifvqei0","pricing_plan_id":"cebpf4jnsgd1na2vs0mg"},{"bike_id":"e4420758-5207-4d51-a67b-ca84f9c3eda6","system_id":"levelo_inurba_marseille","lat":43.2927,"lon":5.36839,"is_reserved":false,"is_disabled":true,"rental_uris":{"android":"levelo://app?vid=e4420758-5207-4d51-a67b-ca84f9c3eda6","ios":"levelo://app?vid=e4420758-5207-4d51-a67b-ca84f9c3eda6"},"vehicle_type_id":"4","last_reported":1747383282,"current_range_meters":0,"station_id":"ce4bhbp2rcd13ifvqesg","pricing_plan_id":"cebpf4jnsgd1na2vs0mg"},{"bike_id":"845db46f-0de8-42d3-af6a-4ad282877a52","system_id":"levelo_inurba_marseille","lat":43.23964,"lon":5.36632,"is_reserved":false,"is_disabled":true,"rental_uris":{"android":"levelo://app?vid=845db46f-0de8-42d3-af6a-4ad282877a52","ios":"levelo://app?vid=845db46f-0de8-42d3-af6a-4ad282877a52"},"vehicle_type_id":"4","last_reported":1747383282,"current_range_meters":0,"station_id":"ce4bhi12rcd13ifvqfp0","pricing_plan_id":"cebpf4jnsgd1na2vs0mg"},{"bike_id":"3a32cb19-f3b5-40ea-8e56-2cba8e6a22b9","system_id":"levelo_inurba_marseille","lat":43.29601,"lon":5.38067,"is_reserved":false,"is_disabled":true,"rental_uris":{"android":"levelo://app?vid=3a32cb19-f3b5-40ea-8e56-2cba8e6a22b9","ios":"levelo://app?vid=3a32cb19-f3b5-40ea-8e56-2cba8e6a22b9"},"vehicle_type_id":"4","last_reported":1747383282,"current_range_meters":400,"station_id":"ce4bgl12rcd13ifvqbo0","pricing_plan_id":"cebpf4jnsgd1na2vs0mg"},{"bike_id":"defeb2d6-a3ba-4112-9b87-70dc47f355ca","system_id":"levelo_inurba_marseille","lat":43.309228,"lon":5.401465,"is_reserved":false,"is_disabled":true,"rental_uris":{"android":"levelo://app?vid=defeb2d6-a3ba-4112-9b87-70dc47f355ca","ios":"levelo://app?vid=defeb2d6-a3ba-4112-9b87-70dc47f355ca"},"vehicle_type_id":"4","last_reported":1747383282,"current_range_meters":400,"station_id":"ce4bgvp2rcd13ifvqct0","pricing_plan_id":"cebpf4jnsgd1na2vs0mg"},{"bike_id":"5ea8acd0-9747-4063-b2d7-ac143ecf4a74","system_id":"levelo_inurba_marseille","lat":43.323631,"lon":5.388715,"is_reserved":false,"is_disabled":true,"rental_uris":{"android":"levelo://app?vid=5ea8acd0-9747-4063-b2d7-ac143ecf4a74","ios":"levelo://app?vid=5ea8acd0-9747-4063-b2d7-ac143ecf4a74"},"vehicle_type_id":"4","last_reported":1747383282,"current_range_meters":400,"station_id":"ce4bhqp2rcd13ifvqhog","pricing_plan_id":"cebpf4jnsgd1na2vs0mg"},{"bike_id":"a73d127f-5b1e-4c85-b09d-7b4a39558bb7","system_id":"levelo_inurba_marseille","lat":43.29871,"lon":5.38367,"is_reserved":false,"is_disabled":true,"rental_uris":{"android":"levelo://app?vid=a73d127f-5b1e-4c85-b09d-7b4a39558bb7","ios":"levelo://app?vid=a73d127f-5b1e-4c85-b09d-7b4a39558bb7"},"vehicle_type_id":"4","last_reported":1747383282,"current_range_meters":800,"station_id":"","pricing_plan_id":"cebpf4jnsgd1na2vs0mg"},{"bike_id":"3529bc53-624c-405d-ac68-85a36d6b7633","system_id":"levelo_inurba_marseille","lat":43.29711,"lon":5.36604,"is_reserved":false,"is_disabled":true,"rental_uris":{"android":"levelo://app?vid=3529bc53-624c-405d-ac68-85a36d6b7633","ios":"levelo://app?vid=3529bc53-624c-405d-ac68-85a36d6b7633"},"vehicle_type_id":"4","last_reported":1747383282,"current_range_meters":800,"station_id":"ce4bgn12rcd13ifvqbt0","pricing_plan_id":"cebpf4jnsgd1na2vs0mg"},{"bike_id":"93ab074b-3a3b-48cd-b240-db693e376c93","system_id":"levelo_inurba_marseille","lat":43.29977,"lon":5.37186,"is_reserved":false,"is_disabled":true,"rental_uris":{"android":"levelo://app?vid=93ab074b-3a3b-48cd-b240-db693e376c93","ios":"levelo://app?vid=93ab074b-3a3b-48cd-b240-db693e376c93"},"vehicle_type_id":"4","last_reported":1747383282,"current_range_meters":800,"station_id":"ce4bgr92rcd13ifvqc7g","pricing_plan_id":"cebpf4jnsgd1na2vs0mg"},{"bike_id":"f1c97c9d-a76a-4cd8-a3b7-c3133e512c5a","system_id":"levelo_inurba_marseille","lat":43.28919,"lon":5.36641,"is_reserved":false,"is_disabled":true,"rental_uris":{"android":"levelo://app?vid=f1c97c9d-a76a-4cd8-a3b7-c3133e512c5a","ios":"levelo://app?vid=f1c97c9d-a76a-4cd8-a3b7-c3133e512c5a"},"vehicle_type_id":"4","last_reported":1747383282,"current_range_meters":800,"station_id":"ce4bhap2rcd13ifvqek0","pricing_plan_id":"cebpf4jnsgd1na2vs0mg"},{"bike_id":"1dc04bb6-c23e-4d20-b6fc-152bd86dde0d","system_id":"levelo_inurba_marseille","lat":43.32652,"lon":5.40999,"is_reserved":false,"is_disabled":true,"rental_uris":{"android":"levelo://app?vid=1dc04bb6-c23e-4d20-b6fc-152bd86dde0d","ios":"levelo://app?vid=1dc04bb6-c23e-4d20-b6fc-152bd86dde0d"},"vehicle_type_id":"4","last_reported":1747383282,"current_range_meters":800,"station_id":"ce4bhpp2rcd13ifvqhgg","pricing_plan_id":"cebpf4jnsgd1na2vs0mg"},{"bike_id":"0b329d0f-303d-422d-b317-f0a9f989a83b","system_id":"levelo_inurba_marseille","lat":43.33604,"lon":5.41034,"is_reserved":false,"is_disabled":true,"rental_uris":{"android":"levelo://app?vid=0b329d0f-303d-422d-b317-f0a9f989a83b","ios":"levelo://app?vid=0b329d0f-303d-422d-b317-f0a9f989a83b"},"vehicle_type_id":"4","last_reported":1747383282,"current_range_meters":800,"station_id":"ce4bhqh2rcd13ifvqhmg","pricing_plan_id":"cebpf4jnsgd1na2vs0mg"},{"bike_id":"5ad2c78b-3dab-442c-93d8-454433d1e279","system_id":"levelo_inurba_marseille","lat":43.29516,"lon":5.37515,"is_reserved":false,"is_disabled":true,"rental_uris":{"android":"levelo://app?vid=5ad2c78b-3dab-442c-93d8-454433d1e279","ios":"levelo://app?vid=5ad2c78b-3dab-442c-93d8-454433d1e279"},"vehicle_type_id":"4","last_reported":1747383282,"current_range_meters":1200,"station_id":"ce4bgkp2rcd13ifvqbmg","pricing_plan_id":"cebpf4jnsgd1na2vs0mg"},{"bike_id":"d9adb32d-7d7b-4dea-97fb-978958f0d711","system_id":"levelo_inurba_marseille","lat":43.31483,"lon":5.37303,"is_reserved":false,"is_disabled":true,"rental_uris":{"android":"levelo://app?vid=d9adb32d-7d7b-4dea-97fb-978958f0d711","ios":"levelo://app?vid=d9adb32d-7d7b-4dea-97fb-978958f0d711"},"vehicle_type_id":"4","last_reported":1747383282,"current_range_meters":1200,"station_id":"ce4bgt12rcd13ifvqcd0","pricing_plan_id":"cebpf4jnsgd1na2vs0mg"},{"bike_id":"fe099644-59e4-438f-a009-e4740039a77d","system_id":"levelo_inurba_marseille","lat":43.308,"lon":5.38155,"is_reserved":false,"is_disabled":true,"rental_uris":{"android":"levelo://app?vid=fe099644-59e4-438f-a009-e4740039a77d","ios":"levelo://app?vid=fe099644-59e4-438f-a009-e4740039a77d"},"vehicle_type_id":"4","last_reported":1747383282,"current_range_meters":1200,"station_id":"ce4bgt12rcd13ifvqce0","pricing_plan_id":"cebpf4jnsgd1na2vs0mg"},{"bike_id":"bc58f8f1-f18d-4b14-9bc2-022b7fb68f58","system_id":"levelo_inurba_marseille","lat":43.28665,"lon":5.38666,"is_reserved":false,"is_disabled":true,"rental_uris":{"android":"levelo://app?vid=bc58f8f1-f18d-4b14-9bc2-022b7fb68f58","ios":"levelo://app?vid=bc58f8f1-f18d-4b14-9bc2-022b7fb68f58"},"vehicle_type_id":"4","last_reported":1747383282,"current_range_meters":1200,"station_id":"ce4bh492rcd13ifvqdug","pricing_plan_id":"cebpf4jnsgd1na2vs0mg"},{"bike_id":"393753b1-1133-49d2-b45a-e125923009e6","system_id":"levelo_inurba_marseille","lat":43.28479,"lon":5.38553,"is_reserved":false,"is_disabled":true,"rental_uris":{"android":"levelo://app?vid=393753b1-1133-49d2-b45a-e125923009e6","ios":"levelo://app?vid=393753b1-1133-49d2-b45a-e125923009e6"},"vehicle_type_id":"4","last_reported":1747383282,"current_range_meters":1200,"station_id":"ce4bh8p2rcd13ifvqeb0","pricing_plan_id":"cebpf4jnsgd1na2vs0mg"},{"bike_id":"717ca886-5679-413c-98f5-1666f24124c9","system_id":"levelo_inurba_marseille","lat":43.24082,"lon":5.37749,"is_reserved":false,"is_disabled":true,"rental_uris":{"android":"levelo://app?vid=717ca886-5679-413c-98f5-1666f24124c9","ios":"levelo://app?vid=717ca886-5679-413c-98f5-1666f24124c9"},"vehicle_type_id":"4","last_reported":1747383282,"current_range_meters":1200,"station_id":"ce4bhnp2rcd13ifvqgvg","pricing_plan_id":"cebpf4jnsgd1na2vs0mg"},{"bike_id":"6a39a2a9-7221-42a8-8f8f-94a38a8c9b73","system_id":"levelo_inurba_marseille","lat":43.325504,"lon":5.414268,"is_reserved":false,"is_disabled":true,"rental_uris":{"android":"levelo://app?vid=6a39a2a9-7221-42a8-8f8f-94a38a8c9b73","ios":"levelo://app?vid=6a39a2a9-7221-42a8-8f8f-94a38a8c9b73"},"vehicle_type_id":"4","last_reported":1747383282,"current_range_meters":1200,"station_id":"ce4bhq12rcd13ifvqhhg","pricing_plan_id":"cebpf4jnsgd1na2vs0mg"},{"bike_id":"643d806f-04b0-4404-b7e0-20b22a2c5299","system_id":"levelo_inurba_marseille","lat":43.33601,"lon":5.41036,"is_reserved":false,"is_disabled":true,"rental_uris":{"android":"levelo://app?vid=643d806f-04b0-4404-b7e0-20b22a2c5299","ios":"levelo://app?vid=643d806f-04b0-4404-b7e0-20b22a2c5299"},"vehicle_type_id":"4","last_reported":1747383282,"current_range_meters":1200,"station_id":"ce4bhqh2rcd13ifvqhmg","pricing_plan_id":"cebpf4jnsgd1na2vs0mg"},{"bike_id":"f9e7d873-88bb-4f94-a0d6-3fcae7d05021","system_id":"levelo_inurba_marseille","lat":43.30814,"lon":5.369997,"is_reserved":false,"is_disabled":true,"rental_uris":{"android":"levelo://app?vid=f9e7d873-88bb-4f94-a0d6-3fcae7d05021","ios":"levelo://app?vid=f9e7d873-88bb-4f94-a0d6-3fcae7d05021"},"vehicle_type_id":"4","last_reported":1747383282,"current_range_meters":1600,"station_id":"","pricing_plan_id":"cebpf4jnsgd1na2vs0mg"},{"bike_id":"508a462f-929b-4c76-811f-869f846f7f66","system_id":"levelo_inurba_marseille","lat":43.29275,"lon":5.37614,"is_reserved":false,"is_disabled":true,"rental_uris":{"android":"levelo://app?vid=508a462f-929b-4c76-811f-869f846f7f66","ios":"levelo://app?vid=508a462f-929b-4c76-811f-869f846f7f66"},"vehicle_type_id":"4","last_reported":1747383282,"current_range_meters":1600,"station_id":"ce4bgi12rcd13ifvqb80","pricing_plan_id":"cebpf4jnsgd1na2vs0mg"},{"bike_id":"04b20528-a4c8-4f9d-8015-dac2644c1d1a","system_id":"levelo_inurba_marseille","lat":43.30545,"lon":5.36558,"is_reserved":false,"is_disabled":true,"rental_uris":{"android":"levelo://app?vid=04b20528-a4c8-4f9d-8015-dac2644c1d1a","ios":"levelo://app?vid=04b20528-a4c8-4f9d-8015-dac2644c1d1a"},"vehicle_type_id":"4","last_reported":1747383282,"current_range_meters":1600,"station_id":"ce4bgs12rcd13ifvqcag","pricing_plan_id":"cebpf4jnsgd1na2vs0mg"},{"bike_id":"874493c1-ab8f-41e7-874d-da87fa86281e","system_id":"levelo_inurba_marseille","lat":43.289792,"lon":5.378384,"is_reserved":false,"is_disabled":true,"rental_uris":{"android":"levelo://app?vid=874493c1-ab8f-41e7-874d-da87fa86281e","ios":"levelo://app?vid=874493c1-ab8f-41e7-874d-da87fa86281e"},"vehicle_type_id":"4","last_reported":1747383282,"current_range_meters":1600,"station_id":"ce4bh9p2rcd13ifvqed0","pricing_plan_id":"cebpf4jnsgd1na2vs0mg"},{"bike_id":"aa8baf82-bc49-498b-842b-69b5285a08ca","system_id":"levelo_inurba_marseille","lat":43.27071,"lon":5.42268,"is_reserved":false,"is_disabled":true,"rental_uris":{"android":"levelo://app?vid=aa8baf82-bc49-498b-842b-69b5285a08ca","ios":"levelo://app?vid=aa8baf82-bc49-498b-842b-69b5285a08ca"},"vehicle_type_id":"4","last_reported":1747383282,"current_range_meters":1600,"station_id":"ce4bhk92rcd13ifvqgb0","pricing_plan_id":"cebpf4jnsgd1na2vs0mg"},{"bike_id":"72978535-bd43-4324-87c6-8a9e829acc61","system_id":"levelo_inurba_marseille","lat":43.24076,"lon":5.37754,"is_reserved":false,"is_disabled":true,"rental_uris":{"android":"levelo://app?vid=72978535-bd43-4324-87c6-8a9e829acc61","ios":"levelo://app?vid=72978535-bd43-4324-87c6-8a9e829acc61"},"vehicle_type_id":"4","last_reported":1747383282,"current_range_meters":1600,"station_id":"ce4bhnp2rcd13ifvqgvg","pricing_plan_id":"cebpf4jnsgd1na2vs0mg"},{"bike_id":"dc746c13-39a8-477c-86ad-fd3ff784a704","system_id":"levelo_inurba_marseille","lat":43.28614,"lon":5.35104,"is_reserved":false,"is_disabled":true,"rental_uris":{"android":"levelo://app?vid=dc746c13-39a8-477c-86ad-fd3ff784a704","ios":"levelo://app?vid=dc746c13-39a8-477c-86ad-fd3ff784a704"},"vehicle_type_id":"4","last_reported":1747383282,"current_range_meters":2000,"station_id":"ce4bhch2rcd13ifvqeug","pricing_plan_id":"cebpf4jnsgd1na2vs0mg"},{"bike_id":"ea752e19-10dc-4414-a3cf-8aef16f04bdd","system_id":"levelo_inurba_marseille","lat":43.303087,"lon":5.368957,"is_reserved":false,"is_disabled":false,"rental_uris":{"android":"levelo://app?vid=ea752e19-10dc-4414-a3cf-8aef16f04bdd","ios":"levelo://app?vid=ea752e19-10dc-4414-a3cf-8aef16f04bdd"},"vehicle_type_id":"4","last_reported":1747383282,"current_range_meters":2800,"station_id":"ce4bgqh2rcd13ifvqc5g","pricing_plan_id":"cebpf4jnsgd1na2vs0mg"},{"bike_id":"7abda7c7-db3c-4838-b8f4-8d4c84905e22","system_id":"levelo_inurba_marseille","lat":43.31372,"lon":5.36708,"is_reserved":false,"is_disabled":false,"rental_uris":{"android":"levelo://app?vid=7abda7c7-db3c-4838-b8f4-8d4c84905e22","ios":"levelo://app?vid=7abda7c7-db3c-4838-b8f4-8d4c84905e22"},"vehicle_type_id":"4","last_reported":1747383282,"current_range_meters":3200,"station_id":"ce4bgr92rcd13ifvqc6g","pricing_plan_id":"cebpf4jnsgd1na2vs0mg"},{"bike_id":"876f52dc-9adf-43c1-892f-24641de75b92","system_id":"levelo_inurba_marseille","lat":43.30949,"lon":5.39033,"is_reserved":false,"is_disabled":false,"rental_uris":{"android":"levelo://app?vid=876f52dc-9adf-43c1-892f-24641de75b92","ios":"levelo://app?vid=876f52dc-9adf-43c1-892f-24641de75b92"},"vehicle_type_id":"4","last_reported":1747383282,"current_range_meters":3200,"station_id":"ce4bgup2rcd13ifvqco0","pricing_plan_id":"cebpf4jnsgd1na2vs0mg"},{"bike_id":"b2325095-6768-4e02-b23f-981e5830af73","system_id":"levelo_inurba_marseille","lat":43.28714,"lon":5.37946,"is_reserved":false,"is_disabled":false,"rental_uris":{"android":"levelo://app?vid=b2325095-6768-4e02-b23f-981e5830af73","ios":"levelo://app?vid=b2325095-6768-4e02-b23f-981e5830af73"},"vehicle_type_id":"4","last_reported":1747383282,"current_range_meters":3200,"station_id":"ce4bh9p2rcd13ifvqec0","pricing_plan_id":"cebpf4jnsgd1na2vs0mg"},{"bike_id":"27243ec2-04f9-4fcc-aa72-79cdcf968642","system_id":"levelo_inurba_marseille","lat":43.32487,"lon":5.36544,"is_reserved":false,"is_disabled":false,"rental_uris":{"android":"levelo://app?vid=27243ec2-04f9-4fcc-aa72-79cdcf968642","ios":"levelo://app?vid=27243ec2-04f9-4fcc-aa72-79cdcf968642"},"vehicle_type_id":"4","last_reported":1747383282,"current_range_meters":3200,"station_id":"ce4bhs12rcd13ifvqhvg","pricing_plan_id":"cebpf4jnsgd1na2vs0mg"},{"bike_id":"1801e4c0-ef56-412e-9f5f-4e9a7d6eadf8","system_id":"levelo_inurba_marseille","lat":43.31382,"lon":5.36684,"is_reserved":false,"is_disabled":false,"rental_uris":{"android":"levelo://app?vid=1801e4c0-ef56-412e-9f5f-4e9a7d6eadf8","ios":"levelo://app?vid=1801e4c0-ef56-412e-9f5f-4e9a7d6eadf8"},"vehicle_type_id":"4","last_reported":1747383282,"current_range_meters":3600,"station_id":"","pricing_plan_id":"cebpf4jnsgd1na2vs0mg"},{"bike_id":"fed06cf5-f5f2-4809-91f1-074e851a4497","system_id":"levelo_inurba_marseille","lat":43.24181,"lon":5.39696,"is_reserved":false,"is_disabled":false,"rental_uris":{"android":"levelo://app?vid=fed06cf5-f5f2-4809-91f1-074e851a4497","ios":"levelo://app?vid=fed06cf5-f5f2-4809-91f1-074e851a4497"},"vehicle_type_id":"4","last_reported":1747383282,"current_range_meters":3600,"station_id":"ce4bhn12rcd13ifvqgpg","pricing_plan_id":"cebpf4jnsgd1na2vs0mg"},{"bike_id":"6379fadf-e6a9-4548-bd24-45ccc5153b54","system_id":"levelo_inurba_marseille","lat":43.23791,"lon":5.38349,"is_reserved":false,"is_disabled":false,"rental_uris":{"android":"levelo://app?vid=6379fadf-e6a9-4548-bd24-45ccc5153b54","ios":"levelo://app?vid=6379fadf-e6a9-4548-bd24-45ccc5153b54"},"vehicle_type_id":"4","last_reported":1747383282,"current_range_meters":4000,"station_id":"","pricing_plan_id":"cebpf4jnsgd1na2vs0mg"},{"bike_id":"20ce05a8-aff2-4d2a-af87-be516040e39d","system_id":"levelo_inurba_marseille","lat":43.29349,"lon":5.37854,"is_reserved":false,"is_disabled":false,"rental_uris":{"android":"levelo://app?vid=20ce05a8-aff2-4d2a-af87-be516040e39d","ios":"levelo://app?vid=20ce05a8-aff2-4d2a-af87-be516040e39d"},"vehicle_type_id":"4","last_reported":1747383282,"current_range_meters":4000,"station_id":"ce4bgjh2rcd13ifvqbf0","pricing_plan_id":"cebpf4jnsgd1na2vs0mg"},{"bike_id":"cfdcd123-8e6b-4155-8dad-c63984aa9c2d","system_id":"levelo_inurba_marseille","lat":43.29369,"lon":5.37857,"is_reserved":false,"is_disabled":false,"rental_uris":{"android":"levelo://app?vid=cfdcd123-8e6b-4155-8dad-c63984aa9c2d","ios":"levelo://app?vid=cfdcd123-8e6b-4155-8dad-c63984aa9c2d"},"vehicle_type_id":"4","last_reported":1747383282,"current_range_meters":4000,"station_id":"ce4bgjh2rcd13ifvqbf0","pricing_plan_id":"cebpf4jnsgd1na2vs0mg"},{"bike_id":"7c8f521d-cc47-4e4c-b437-3d18a54c312e","system_id":"levelo_inurba_marseille","lat":43.3137,"lon":5.36688,"is_reserved":false,"is_disabled":false,"rental_uris":{"android":"levelo://app?vid=7c8f521d-cc47-4e4c-b437-3d18a54c312e","ios":"levelo://app?vid=7c8f521d-cc47-4e4c-b437-3d18a54c312e"},"vehicle_type_id":"4","last_reported":1747383282,"current_range_meters":4000,"station_id":"ce4bgr92rcd13ifvqc6g","pricing_plan_id":"cebpf4jnsgd1na2vs0mg"},{"bike_id":"c52484e6-1630-45aa-a1c4-77197d870f5f","system_id":"levelo_inurba_marseille","lat":43.2592,"lon":5.40901,"is_reserved":false,"is_disabled":false,"rental_uris":{"android":"levelo://app?vid=c52484e6-1630-45aa-a1c4-77197d870f5f","ios":"levelo://app?vid=c52484e6-1630-45aa-a1c4-77197d870f5f"},"vehicle_type_id":"4","last_reported":1747383282,"current_range_meters":4000,"station_id":"ce4bhm92rcd13ifvqglg","pricing_plan_id":"cebpf4jnsgd1na2vs0mg"},{"bike_id":"d1e11a51-7a71-43b3-bba6-a678e60422b8","system_id":"levelo_inurba_marseille","lat":43.28715,"lon":5.37942,"is_reserved":false,"is_disabled":false,"rental_uris":{"android":"levelo://app?vid=d1e11a51-7a71-43b3-bba6-a678e60422b8","ios":"levelo://app?vid=d1e11a51-7a71-43b3-bba6-a678e60422b8"},"vehicle_type_id":"4","last_reported":1747383282,"current_range_meters":4400,"station_id":"ce4bh9p2rcd13ifvqec0","pricing_plan_id":"cebpf4jnsgd1na2vs0mg"},{"bike_id":"e2e2487b-8a81-4022-b36a-6aa7a6726e87","system_id":"levelo_inurba_marseille","lat":43.24184,"lon":5.39723,"is_reserved":false,"is_disabled":false,"rental_uris":{"android":"levelo://app?vid=e2e2487b-8a81-4022-b36a-6aa7a6726e87","ios":"levelo://app?vid=e2e2487b-8a81-4022-b36a-6aa7a6726e87"},"vehicle_type_id":"4","last_reported":1747383282,"current_range_meters":4400,"station_id":"ce4bhn12rcd13ifvqgpg","pricing_plan_id":"cebpf4jnsgd1na2vs0mg"},{"bike_id":"9ccaea7a-e77e-4018-b5c0-33f9638ffd9d","system_id":"levelo_inurba_marseille","lat":43.31346,"lon":5.367288,"is_reserved":false,"is_disabled":false,"rental_uris":{"android":"levelo://app?vid=9ccaea7a-e77e-4018-b5c0-33f9638ffd9d","ios":"levelo://app?vid=9ccaea7a-e77e-4018-b5c0-33f9638ffd9d"},"vehicle_type_id":"4","last_reported":1747383282,"current_range_meters":4800,"station_id":"ce4bgr92rcd13ifvqc6g","pricing_plan_id":"cebpf4jnsgd1na2vs0mg"},{"bike_id":"ae9c61a3-1cfa-4301-a87d-e1a343e034e8","system_id":"levelo_inurba_marseille","lat":43.287157,"lon":5.379323,"is_reserved":false,"is_disabled":false,"rental_uris":{"android":"levelo://app?vid=ae9c61a3-1cfa-4301-a87d-e1a343e034e8","ios":"levelo://app?vid=ae9c61a3-1cfa-4301-a87d-e1a343e034e8"},"vehicle_type_id":"4","last_reported":1747383282,"current_range_meters":4800,"station_id":"ce4bh9p2rcd13ifvqec0","pricing_plan_id":"cebpf4jnsgd1na2vs0mg"},{"bike_id":"18e2ab6e-8fae-4f1f-b9c7-a4adc527cf67","system_id":"levelo_inurba_marseille","lat":43.33013,"lon":5.37988,"is_reserved":false,"is_disabled":false,"rental_uris":{"android":"levelo://app?vid=18e2ab6e-8fae-4f1f-b9c7-a4adc527cf67","ios":"levelo://app?vid=18e2ab6e-8fae-4f1f-b9c7-a4adc527cf67"},"vehicle_type_id":"4","last_reported":1747383282,"current_range_meters":5600,"station_id":"","pricing_plan_id":"cebpf4jnsgd1na2vs0mg"},{"bike_id":"397d5254-fac8-4530-a7ad-5d9d6232b007","system_id":"levelo_inurba_marseille","lat":43.29369,"lon":5.37852,"is_reserved":false,"is_disabled":false,"rental_uris":{"android":"levelo://app?vid=397d5254-fac8-4530-a7ad-5d9d6232b007","ios":"levelo://app?vid=397d5254-fac8-4530-a7ad-5d9d6232b007"},"vehicle_type_id":"4","last_reported":1747383282,"current_range_meters":5600,"station_id":"ce4bgjh2rcd13ifvqbf0","pricing_plan_id":"cebpf4jnsgd1na2vs0mg"},{"bike_id":"ad622190-7249-4fb8-bfc2-e07ca2cbb04e","system_id":"levelo_inurba_marseille","lat":43.30548,"lon":5.36715,"is_reserved":false,"is_disabled":false,"rental_uris":{"android":"levelo://app?vid=ad622190-7249-4fb8-bfc2-e07ca2cbb04e","ios":"levelo://app?vid=ad622190-7249-4fb8-bfc2-e07ca2cbb04e"},"vehicle_type_id":"4","last_reported":1747383282,"current_range_meters":5600,"station_id":"ce4bgrp2rcd13ifvqc9g","pricing_plan_id":"cebpf4jnsgd1na2vs0mg"},{"bike_id":"58a773b6-d300-4890-a9d2-bea6a1be8ea1","system_id":"levelo_inurba_marseille","lat":43.25934,"lon":5.40903,"is_reserved":false,"is_disabled":false,"rental_uris":{"android":"levelo://app?vid=58a773b6-d300-4890-a9d2-bea6a1be8ea1","ios":"levelo://app?vid=58a773b6-d300-4890-a9d2-bea6a1be8ea1"},"vehicle_type_id":"4","last_reported":1747383282,"current_range_meters":5600,"station_id":"ce4bhm92rcd13ifvqglg","pricing_plan_id":"cebpf4jnsgd1na2vs0mg"},{"bike_id":"f752227c-3df6-44d5-abd3-4a633d5341e0","system_id":"levelo_inurba_marseille","lat":43.22926,"lon":5.35373,"is_reserved":false,"is_disabled":false,"rental_uris":{"android":"levelo://app?vid=f752227c-3df6-44d5-abd3-4a633d5341e0","ios":"levelo://app?vid=f752227c-3df6-44d5-abd3-4a633d5341e0"},"vehicle_type_id":"4","last_reported":1747383282,"current_range_meters":5600,"station_id":"cpo3532slgdg3j2ikp40","pricing_plan_id":"cebpf4jnsgd1na2vs0mg"},{"bike_id":"5f4bd172-047e-471b-bbb1-00ad3fd148e7","system_id":"levelo_inurba_marseille","lat":43.304565,"lon":5.379091,"is_reserved":false,"is_disabled":false,"rental_uris":{"android":"levelo://app?vid=5f4bd172-047e-471b-bbb1-00ad3fd148e7","ios":"levelo://app?vid=5f4bd172-047e-471b-bbb1-00ad3fd148e7"},"vehicle_type_id":"4","last_reported":1747383282,"current_range_meters":6000,"station_id":"ce4bgup2rcd13ifvqcn0","pricing_plan_id":"cebpf4jnsgd1na2vs0mg"},{"bike_id":"a3f5657d-5fc1-4349-af34-1328afd7e3ba","system_id":"levelo_inurba_marseille","lat":43.30941,"lon":5.3903,"is_reserved":false,"is_disabled":false,"rental_uris":{"android":"levelo://app?vid=a3f5657d-5fc1-4349-af34-1328afd7e3ba","ios":"levelo://app?vid=a3f5657d-5fc1-4349-af34-1328afd7e3ba"},"vehicle_type_id":"4","last_reported":1747383282,"current_range_meters":6000,"station_id":"ce4bgup2rcd13ifvqco0","pricing_plan_id":"cebpf4jnsgd1na2vs0mg"},{"bike_id":"544aa4bd-aa64-4bf1-b24b-439686d9b278","system_id":"levelo_inurba_marseille","lat":43.3361,"lon":5.41038,"is_reserved":false,"is_disabled":false,"rental_uris":{"android":"levelo://app?vid=544aa4bd-aa64-4bf1-b24b-439686d9b278","ios":"levelo://app?vid=544aa4bd-aa64-4bf1-b24b-439686d9b278"},"vehicle_type_id":"4","last_reported":1747383282,"current_range_meters":6000,"station_id":"ce4bhqh2rcd13ifvqhmg","pricing_plan_id":"cebpf4jnsgd1na2vs0mg"},{"bike_id":"77603730-c053-45a9-a2ac-bd57c48156b9","system_id":"levelo_inurba_marseille","lat":43.31358,"lon":5.36721,"is_reserved":false,"is_disabled":false,"rental_uris":{"android":"levelo://app?vid=77603730-c053-45a9-a2ac-bd57c48156b9","ios":"levelo://app?vid=77603730-c053-45a9-a2ac-bd57c48156b9"},"vehicle_type_id":"4","last_reported":1747383282,"current_range_meters":6400,"station_id":"ce4bgr92rcd13ifvqc6g","pricing_plan_id":"cebpf4jnsgd1na2vs0mg"},{"bike_id":"e2758fec-18f2-4ba0-8014-e4e50d4e3d92","system_id":"levelo_inurba_marseille","lat":43.23147,"lon":5.4371,"is_reserved":false,"is_disabled":false,"rental_uris":{"android":"levelo://app?vid=e2758fec-18f2-4ba0-8014-e4e50d4e3d92","ios":"levelo://app?vid=e2758fec-18f2-4ba0-8014-e4e50d4e3d92"},"vehicle_type_id":"4","last_reported":1747383282,"current_range_meters":6400,"station_id":"ce4bhmp2rcd13ifvqgog","pricing_plan_id":"cebpf4jnsgd1na2vs0mg"},{"bike_id":"b7cb570d-77f5-48d9-be33-70291761d5d7","system_id":"levelo_inurba_marseille","lat":43.2119,"lon":5.35072,"is_reserved":false,"is_disabled":false,"rental_uris":{"android":"levelo://app?vid=b7cb570d-77f5-48d9-be33-70291761d5d7","ios":"levelo://app?vid=b7cb570d-77f5-48d9-be33-70291761d5d7"},"vehicle_type_id":"4","last_reported":1747383282,"current_range_meters":6400,"station_id":"st_cvj6sg6p6f1abm77japg","pricing_plan_id":"cebpf4jnsgd1na2vs0mg"},{"bike_id":"1bfa7e3b-9098-4c0e-bf9e-bd3fb163f44d","system_id":"levelo_inurba_marseille","lat":43.29023,"lon":5.38116,"is_reserved":false,"is_disabled":false,"rental_uris":{"android":"levelo://app?vid=1bfa7e3b-9098-4c0e-bf9e-bd3fb163f44d","ios":"levelo://app?vid=1bfa7e3b-9098-4c0e-bf9e-bd3fb163f44d"},"vehicle_type_id":"4","last_reported":1747383282,"current_range_meters":6800,"station_id":"ce4bh4p2rcd13ifvqe1g","pricing_plan_id":"cebpf4jnsgd1na2vs0mg"},{"bike_id":"561549a2-798d-4052-830a-279630f71645","system_id":"levelo_inurba_marseille","lat":43.28408,"lon":5.355175,"is_reserved":false,"is_disabled":false,"rental_uris":{"android":"levelo://app?vid=561549a2-798d-4052-830a-279630f71645","ios":"levelo://app?vid=561549a2-798d-4052-830a-279630f71645"},"vehicle_type_id":"4","last_reported":1747383282,"current_range_meters":7200,"station_id":"","pricing_plan_id":"cebpf4jnsgd1na2vs0mg"},{"bike_id":"2764acc9-c665-41a9-a199-944b0d629fb3","system_id":"levelo_inurba_marseille","lat":43.30534,"lon":5.36716,"is_reserved":false,"is_disabled":false,"rental_uris":{"android":"levelo://app?vid=2764acc9-c665-41a9-a199-944b0d629fb3","ios":"levelo://app?vid=2764acc9-c665-41a9-a199-944b0d629fb3"},"vehicle_type_id":"4","last_reported":1747383282,"current_range_meters":7200,"station_id":"ce4bgrp2rcd13ifvqc9g","pricing_plan_id":"cebpf4jnsgd1na2vs0mg"},{"bike_id":"f3e0c628-780f-4f3c-a76a-dd2700b8cd34","system_id":"levelo_inurba_marseille","lat":43.30306,"lon":5.37723,"is_reserved":false,"is_disabled":false,"rental_uris":{"android":"levelo://app?vid=f3e0c628-780f-4f3c-a76a-dd2700b8cd34","ios":"levelo://app?vid=f3e0c628-780f-4f3c-a76a-dd2700b8cd34"},"vehicle_type_id":"4","last_reported":1747383282,"current_range_meters":7200,"station_id":"ce4bguh2rcd13ifvqcj0","pricing_plan_id":"cebpf4jnsgd1na2vs0mg"},{"bike_id":"117f21eb-62a9-4e83-b045-c6cccbb0d825","system_id":"levelo_inurba_marseille","lat":43.24177,"lon":5.39728,"is_reserved":false,"is_disabled":false,"rental_uris":{"android":"levelo://app?vid=117f21eb-62a9-4e83-b045-c6cccbb0d825","ios":"levelo://app?vid=117f21eb-62a9-4e83-b045-c6cccbb0d825"},"vehicle_type_id":"4","last_reported":1747383282,"current_range_meters":7200,"station_id":"ce4bhn12rcd13ifvqgpg","pricing_plan_id":"cebpf4jnsgd1na2vs0mg"},{"bike_id":"4bd95dd4-5a24-44de-a831-b973d64ace32","system_id":"levelo_inurba_marseille","lat":43.31086,"lon":5.42429,"is_reserved":false,"is_disabled":false,"rental_uris":{"android":"levelo://app?vid=4bd95dd4-5a24-44de-a831-b973d64ace32","ios":"levelo://app?vid=4bd95dd4-5a24-44de-a831-b973d64ace32"},"vehicle_type_id":"4","last_reported":1747383282,"current_range_meters":7200,"station_id":"ce4bhp92rcd13ifvqhag","pricing_plan_id":"cebpf4jnsgd1na2vs0mg"},{"bike_id":"a99d0364-ff28-4339-ad31-10b73d24b14e","system_id":"levelo_inurba_marseille","lat":43.32072,"lon":5.4155,"is_reserved":false,"is_disabled":false,"rental_uris":{"android":"levelo://app?vid=a99d0364-ff28-4339-ad31-10b73d24b14e","ios":"levelo://app?vid=a99d0364-ff28-4339-ad31-10b73d24b14e"},"vehicle_type_id":"4","last_reported":1747383282,"current_range_meters":7200,"station_id":"ce4bhq92rcd13ifvqhkg","pricing_plan_id":"cebpf4jnsgd1na2vs0mg"},{"bike_id":"614a6166-1760-4980-853c-86035facd777","system_id":"levelo_inurba_marseille","lat":43.33226,"lon":5.38033,"is_reserved":false,"is_disabled":false,"rental_uris":{"android":"levelo://app?vid=614a6166-1760-4980-853c-86035facd777","ios":"levelo://app?vid=614a6166-1760-4980-853c-86035facd777"},"vehicle_type_id":"4","last_reported":1747383282,"current_range_meters":8000,"station_id":"","pricing_plan_id":"cebpf4jnsgd1na2vs0mg"},{"bike_id":"74df6918-8bca-4ae3-be0b-3004a637dd11","system_id":"levelo_inurba_marseille","lat":43.31385,"lon":5.36681,"is_reserved":false,"is_disabled":false,"rental_uris":{"android":"levelo://app?vid=74df6918-8bca-4ae3-be0b-3004a637dd11","ios":"levelo://app?vid=74df6918-8bca-4ae3-be0b-3004a637dd11"},"vehicle_type_id":"4","last_reported":1747383282,"current_range_meters":8000,"station_id":"","pricing_plan_id":"cebpf4jnsgd1na2vs0mg"},{"bike_id":"33b99298-247d-4795-93a2-a6ae976edfb1","system_id":"levelo_inurba_marseille","lat":43.30424,"lon":5.39739,"is_reserved":false,"is_disabled":false,"rental_uris":{"android":"levelo://app?vid=33b99298-247d-4795-93a2-a6ae976edfb1","ios":"levelo://app?vid=33b99298-247d-4795-93a2-a6ae976edfb1"},"vehicle_type_id":"4","last_reported":1747383282,"current_range_meters":8000,"station_id":"ce4bh092rcd13ifvqd20","pricing_plan_id":"cebpf4jnsgd1na2vs0mg"},{"bike_id":"5e44318e-c81b-40fa-a1e0-a3496e01cf39","system_id":"levelo_inurba_marseille","lat":43.23145,"lon":5.43716,"is_reserved":false,"is_disabled":false,"rental_uris":{"android":"levelo://app?vid=5e44318e-c81b-40fa-a1e0-a3496e01cf39","ios":"levelo://app?vid=5e44318e-c81b-40fa-a1e0-a3496e01cf39"},"vehicle_type_id":"4","last_reported":1747383282,"current_range_meters":8000,"station_id":"ce4bhmp2rcd13ifvqgog","pricing_plan_id":"cebpf4jnsgd1na2vs0mg"},{"bike_id":"1e68c884-7599-4b1d-9ee3-43521a53a137","system_id":"levelo_inurba_marseille","lat":43.27491,"lon":5.42459,"is_reserved":false,"is_disabled":false,"rental_uris":{"android":"levelo://app?vid=1e68c884-7599-4b1d-9ee3-43521a53a137","ios":"levelo://app?vid=1e68c884-7599-4b1d-9ee3-43521a53a137"},"vehicle_type_id":"4","last_reported":1747383282,"current_range_meters":8000,"station_id":"ce4bhn92rcd13ifvqgrg","pricing_plan_id":"cebpf4jnsgd1na2vs0mg"},{"bike_id":"f3df5321-3765-4743-9245-69cea3d0230a","system_id":"levelo_inurba_marseille","lat":43.3236,"lon":5.38898,"is_reserved":false,"is_disabled":false,"rental_uris":{"android":"levelo://app?vid=f3df5321-3765-4743-9245-69cea3d0230a","ios":"levelo://app?vid=f3df5321-3765-4743-9245-69cea3d0230a"},"vehicle_type_id":"4","last_reported":1747383282,"current_range_meters":8000,"station_id":"ce4bhqp2rcd13ifvqhog","pricing_plan_id":"cebpf4jnsgd1na2vs0mg"},{"bike_id":"2d868c7d-1773-4908-befa-cd0aaed09d96","system_id":"levelo_inurba_marseille","lat":43.32364,"lon":5.38869,"is_reserved":false,"is_disabled":false,"rental_uris":{"android":"levelo://app?vid=2d868c7d-1773-4908-befa-cd0aaed09d96","ios":"levelo://app?vid=2d868c7d-1773-4908-befa-cd0aaed09d96"},"vehicle_type_id":"4","last_reported":1747383282,"current_range_meters":8000,"station_id":"ce4bhqp2rcd13ifvqhog","pricing_plan_id":"cebpf4jnsgd1na2vs0mg"},{"bike_id":"b2d49357-e00f-4afd-8409-93894b7274fa","system_id":"levelo_inurba_marseille","lat":43.32096,"lon":5.36795,"is_reserved":false,"is_disabled":false,"rental_uris":{"android":"levelo://app?vid=b2d49357-e00f-4afd-8409-93894b7274fa","ios":"levelo://app?vid=b2d49357-e00f-4afd-8409-93894b7274fa"},"vehicle_type_id":"4","last_reported":1747383282,"current_range_meters":8000,"station_id":"ce4bhrh2rcd13ifvqhug","pricing_plan_id":"cebpf4jnsgd1na2vs0mg"},{"bike_id":"7f4fc273-1360-4a47-aa6f-29da663bd116","system_id":"levelo_inurba_marseille","lat":43.248906,"lon":5.394139,"is_reserved":false,"is_disabled":false,"rental_uris":{"android":"levelo://app?vid=7f4fc273-1360-4a47-aa6f-29da663bd116","ios":"levelo://app?vid=7f4fc273-1360-4a47-aa6f-29da663bd116"},"vehicle_type_id":"4","last_reported":1747383282,"current_range_meters":8400,"station_id":"","pricing_plan_id":"cebpf4jnsgd1na2vs0mg"},{"bike_id":"4e716133-12bd-48ef-8462-cdade112f10c","system_id":"levelo_inurba_marseille","lat":43.27137,"lon":5.40014,"is_reserved":false,"is_disabled":false,"rental_uris":{"android":"levelo://app?vid=4e716133-12bd-48ef-8462-cdade112f10c","ios":"levelo://app?vid=4e716133-12bd-48ef-8462-cdade112f10c"},"vehicle_type_id":"4","last_reported":1747383282,"current_range_meters":8400,"station_id":"","pricing_plan_id":"cebpf4jnsgd1na2vs0mg"},{"bike_id":"0077f398-56b6-43bb-8eeb-9798d08de05c","system_id":"levelo_inurba_marseille","lat":43.309417,"lon":5.37268,"is_reserved":false,"is_disabled":false,"rental_uris":{"android":"levelo://app?vid=0077f398-56b6-43bb-8eeb-9798d08de05c","ios":"levelo://app?vid=0077f398-56b6-43bb-8eeb-9798d08de05c"},"vehicle_type_id":"4","last_reported":1747383282,"current_range_meters":8400,"station_id":"","pricing_plan_id":"cebpf4jnsgd1na2vs0mg"},{"bike_id":"66f7c9e7-57f3-4b5a-934e-baf9a34e5e1f","system_id":"levelo_inurba_marseille","lat":43.29842,"lon":5.36268,"is_reserved":false,"is_disabled":false,"rental_uris":{"android":"levelo://app?vid=66f7c9e7-57f3-4b5a-934e-baf9a34e5e1f","ios":"levelo://app?vid=66f7c9e7-57f3-4b5a-934e-baf9a34e5e1f"},"vehicle_type_id":"4","last_reported":1747383282,"current_range_meters":8400,"station_id":"ce4bgpp2rcd13ifvqc3g","pricing_plan_id":"cebpf4jnsgd1na2vs0mg"},{"bike_id":"06e8af1d-69ce-405b-8a05-74223376b4d0","system_id":"levelo_inurba_marseille","lat":43.3027,"lon":5.37711,"is_reserved":false,"is_disabled":false,"rental_uris":{"android":"levelo://app?vid=06e8af1d-69ce-405b-8a05-74223376b4d0","ios":"levelo://app?vid=06e8af1d-69ce-405b-8a05-74223376b4d0"},"vehicle_type_id":"4","last_reported":1747383282,"current_range_meters":8400,"station_id":"ce4bguh2rcd13ifvqcj0","pricing_plan_id":"cebpf4jnsgd1na2vs0mg"},{"bike_id":"c27fb682-4960-4672-b3ba-7f3c3f771b64","system_id":"levelo_inurba_marseille","lat":43.30949,"lon":5.3907,"is_reserved":false,"is_disabled":false,"rental_uris":{"android":"levelo://app?vid=c27fb682-4960-4672-b3ba-7f3c3f771b64","ios":"levelo://app?vid=c27fb682-4960-4672-b3ba-7f3c3f771b64"},"vehicle_type_id":"4","last_reported":1747383282,"current_range_meters":8400,"station_id":"ce4bgup2rcd13ifvqco0","pricing_plan_id":"cebpf4jnsgd1na2vs0mg"},{"bike_id":"57e994b2-8252-4cc6-a548-eba1f5a30d7c","system_id":"levelo_inurba_marseille","lat":43.25929,"lon":5.40906,"is_reserved":false,"is_disabled":false,"rental_uris":{"android":"levelo://app?vid=57e994b2-8252-4cc6-a548-eba1f5a30d7c","ios":"levelo://app?vid=57e994b2-8252-4cc6-a548-eba1f5a30d7c"},"vehicle_type_id":"4","last_reported":1747383282,"current_range_meters":8400,"station_id":"ce4bhm92rcd13ifvqglg","pricing_plan_id":"cebpf4jnsgd1na2vs0mg"},{"bike_id":"743b5fae-cf5b-481e-816f-2286df1be972","system_id":"levelo_inurba_marseille","lat":43.24187,"lon":5.39737,"is_reserved":false,"is_disabled":false,"rental_uris":{"android":"levelo://app?vid=743b5fae-cf5b-481e-816f-2286df1be972","ios":"levelo://app?vid=743b5fae-cf5b-481e-816f-2286df1be972"},"vehicle_type_id":"4","last_reported":1747383282,"current_range_meters":8400,"station_id":"ce4bhn12rcd13ifvqgpg","pricing_plan_id":"cebpf4jnsgd1na2vs0mg"},{"bike_id":"f768f02c-a770-46ed-b9fb-ed1e435a3c0f","system_id":"levelo_inurba_marseille","lat":43.32943,"lon":5.39008,"is_reserved":false,"is_disabled":false,"rental_uris":{"android":"levelo://app?vid=f768f02c-a770-46ed-b9fb-ed1e435a3c0f","ios":"levelo://app?vid=f768f02c-a770-46ed-b9fb-ed1e435a3c0f"},"vehicle_type_id":"4","last_reported":1747383282,"current_range_meters":8800,"station_id":"","pricing_plan_id":"cebpf4jnsgd1na2vs0mg"},{"bike_id":"1f468169-d47d-490d-a6f8-f4b41963ffa8","system_id":"levelo_inurba_marseille","lat":43.28941,"lon":5.396248,"is_reserved":false,"is_disabled":false,"rental_uris":{"android":"levelo://app?vid=1f468169-d47d-490d-a6f8-f4b41963ffa8","ios":"levelo://app?vid=1f468169-d47d-490d-a6f8-f4b41963ffa8"},"vehicle_type_id":"4","last_reported":1747383282,"current_range_meters":8800,"station_id":"ce4bh3h2rcd13ifvqdn0","pricing_plan_id":"cebpf4jnsgd1na2vs0mg"},{"bike_id":"c8a6e77b-f4ea-4016-9f2b-6041dd751ed2","system_id":"levelo_inurba_marseille","lat":43.2835,"lon":5.38103,"is_reserved":false,"is_disabled":false,"rental_uris":{"android":"levelo://app?vid=c8a6e77b-f4ea-4016-9f2b-6041dd751ed2","ios":"levelo://app?vid=c8a6e77b-f4ea-4016-9f2b-6041dd751ed2"},"vehicle_type_id":"4","last_reported":1747383282,"current_range_meters":8800,"station_id":"ce4bh412rcd13ifvqdr0","pricing_plan_id":"cebpf4jnsgd1na2vs0mg"},{"bike_id":"fe332535-2139-4fef-a6e9-dc00a916f895","system_id":"levelo_inurba_marseille","lat":43.28969,"lon":5.37836,"is_reserved":false,"is_disabled":false,"rental_uris":{"android":"levelo://app?vid=fe332535-2139-4fef-a6e9-dc00a916f895","ios":"levelo://app?vid=fe332535-2139-4fef-a6e9-dc00a916f895"},"vehicle_type_id":"4","last_reported":1747383282,"current_range_meters":8800,"station_id":"ce4bh9p2rcd13ifvqed0","pricing_plan_id":"cebpf4jnsgd1na2vs0mg"},{"bike_id":"6f0e701e-1493-4927-935a-d96883e07112","system_id":"levelo_inurba_marseille","lat":43.26681,"lon":5.38272,"is_reserved":false,"is_disabled":false,"rental_uris":{"android":"levelo://app?vid=6f0e701e-1493-4927-935a-d96883e07112","ios":"levelo://app?vid=6f0e701e-1493-4927-935a-d96883e07112"},"vehicle_type_id":"4","last_reported":1747383282,"current_range_meters":8800,"station_id":"ce4bhg92rcd13ifvqf90","pricing_plan_id":"cebpf4jnsgd1na2vs0mg"},{"bike_id":"632ffc35-3a5e-4dda-861e-517e896a461f","system_id":"levelo_inurba_marseille","lat":43.23966,"lon":5.36626,"is_reserved":false,"is_disabled":false,"rental_uris":{"android":"levelo://app?vid=632ffc35-3a5e-4dda-861e-517e896a461f","ios":"levelo://app?vid=632ffc35-3a5e-4dda-861e-517e896a461f"},"vehicle_type_id":"4","last_reported":1747383282,"current_range_meters":8800,"station_id":"ce4bhi12rcd13ifvqfp0","pricing_plan_id":"cebpf4jnsgd1na2vs0mg"},{"bike_id":"f8708533-c882-424d-919c-8da02599e742","system_id":"levelo_inurba_marseille","lat":43.32369,"lon":5.38886,"is_reserved":false,"is_disabled":false,"rental_uris":{"android":"levelo://app?vid=f8708533-c882-424d-919c-8da02599e742","ios":"levelo://app?vid=f8708533-c882-424d-919c-8da02599e742"},"vehicle_type_id":"4","last_reported":1747383282,"current_range_meters":8800,"station_id":"ce4bhqp2rcd13ifvqhog","pricing_plan_id":"cebpf4jnsgd1na2vs0mg"},{"bike_id":"3ab4992b-cb45-49bc-a568-e451731622f8","system_id":"levelo_inurba_marseille","lat":43.28673,"lon":5.38663,"is_reserved":false,"is_disabled":false,"rental_uris":{"android":"levelo://app?vid=3ab4992b-cb45-49bc-a568-e451731622f8","ios":"levelo://app?vid=3ab4992b-cb45-49bc-a568-e451731622f8"},"vehicle_type_id":"4","last_reported":1747383282,"current_range_meters":9200,"station_id":"ce4bh492rcd13ifvqdug","pricing_plan_id":"cebpf4jnsgd1na2vs0mg"},{"bike_id":"31bedb95-5fc4-4b24-91b1-10c9cd7506c0","system_id":"levelo_inurba_marseille","lat":43.25833,"lon":5.3942,"is_reserved":false,"is_disabled":false,"rental_uris":{"android":"levelo://app?vid=31bedb95-5fc4-4b24-91b1-10c9cd7506c0","ios":"levelo://app?vid=31bedb95-5fc4-4b24-91b1-10c9cd7506c0"},"vehicle_type_id":"4","last_reported":1747383282,"current_range_meters":9200,"station_id":"ce4bhip2rcd13ifvqft0","pricing_plan_id":"cebpf4jnsgd1na2vs0mg"},{"bike_id":"ab4e5a85-0ffe-4a65-9b04-ab3547a82031","system_id":"levelo_inurba_marseille","lat":43.24177,"lon":5.39733,"is_reserved":false,"is_disabled":false,"rental_uris":{"android":"levelo://app?vid=ab4e5a85-0ffe-4a65-9b04-ab3547a82031","ios":"levelo://app?vid=ab4e5a85-0ffe-4a65-9b04-ab3547a82031"},"vehicle_type_id":"4","last_reported":1747383282,"current_range_meters":9200,"station_id":"ce4bhn12rcd13ifvqgpg","pricing_plan_id":"cebpf4jnsgd1na2vs0mg"},{"bike_id":"253ad97e-efa9-4530-b082-6a7bf31d9808","system_id":"levelo_inurba_marseille","lat":43.27497,"lon":5.42429,"is_reserved":false,"is_disabled":false,"rental_uris":{"android":"levelo://app?vid=253ad97e-efa9-4530-b082-6a7bf31d9808","ios":"levelo://app?vid=253ad97e-efa9-4530-b082-6a7bf31d9808"},"vehicle_type_id":"4","last_reported":1747383282,"current_range_meters":9200,"station_id":"ce4bhn92rcd13ifvqgrg","pricing_plan_id":"cebpf4jnsgd1na2vs0mg"},{"bike_id":"01638126-3c79-4aa8-b344-42085231ebd4","system_id":"levelo_inurba_marseille","lat":43.34133,"lon":5.40913,"is_reserved":false,"is_disabled":false,"rental_uris":{"android":"levelo://app?vid=01638126-3c79-4aa8-b344-42085231ebd4","ios":"levelo://app?vid=01638126-3c79-4aa8-b344-42085231ebd4"},"vehicle_type_id":"4","last_reported":1747383282,"current_range_meters":9200,"station_id":"ce4bhqh2rcd13ifvqhlg","pricing_plan_id":"cebpf4jnsgd1na2vs0mg"},{"bike_id":"e64e4484-2db6-41f4-beb8-e0c0ae1263cd","system_id":"levelo_inurba_marseille","lat":43.285178,"lon":5.430344,"is_reserved":false,"is_disabled":false,"rental_uris":{"android":"levelo://app?vid=e64e4484-2db6-41f4-beb8-e0c0ae1263cd","ios":"levelo://app?vid=e64e4484-2db6-41f4-beb8-e0c0ae1263cd"},"vehicle_type_id":"4","last_reported":1747383282,"current_range_meters":10000,"station_id":"","pricing_plan_id":"cebpf4jnsgd1na2vs0mg"},{"bike_id":"f8e4732a-2ecf-431c-8f66-abc7aabb8aa1","system_id":"levelo_inurba_marseille","lat":43.32951,"lon":5.38993,"is_reserved":false,"is_disabled":false,"rental_uris":{"android":"levelo://app?vid=f8e4732a-2ecf-431c-8f66-abc7aabb8aa1","ios":"levelo://app?vid=f8e4732a-2ecf-431c-8f66-abc7aabb8aa1"},"vehicle_type_id":"4","last_reported":1747383282,"current_range_meters":10000,"station_id":"","pricing_plan_id":"cebpf4jnsgd1na2vs0mg"},{"bike_id":"171ffb92-379d-45c6-9478-8912d6da486c","system_id":"levelo_inurba_marseille","lat":43.30541,"lon":5.36718,"is_reserved":false,"is_disabled":false,"rental_uris":{"android":"levelo://app?vid=171ffb92-379d-45c6-9478-8912d6da486c","ios":"levelo://app?vid=171ffb92-379d-45c6-9478-8912d6da486c"},"vehicle_type_id":"4","last_reported":1747383282,"current_range_meters":10000,"station_id":"ce4bgrp2rcd13ifvqc9g","pricing_plan_id":"cebpf4jnsgd1na2vs0mg"},{"bike_id":"687cf68a-49aa-4258-b09f-3cafca60faa7","system_id":"levelo_inurba_marseille","lat":43.33604,"lon":5.41029,"is_reserved":false,"is_disabled":false,"rental_uris":{"android":"levelo://app?vid=687cf68a-49aa-4258-b09f-3cafca60faa7","ios":"levelo://app?vid=687cf68a-49aa-4258-b09f-3cafca60faa7"},"vehicle_type_id":"4","last_reported":1747383282,"current_range_meters":10000,"station_id":"ce4bhqh2rcd13ifvqhmg","pricing_plan_id":"cebpf4jnsgd1na2vs0mg"},{"bike_id":"3b75eeb1-7108-4491-bd25-6e09b8749c4e","system_id":"levelo_inurba_marseille","lat":43.289388,"lon":5.366334,"is_reserved":false,"is_disabled":false,"rental_uris":{"android":"levelo://app?vid=3b75eeb1-7108-4491-bd25-6e09b8749c4e","ios":"levelo://app?vid=3b75eeb1-7108-4491-bd25-6e09b8749c4e"},"vehicle_type_id":"4","last_reported":1747383282,"current_range_meters":10800,"station_id":"ce4bhap2rcd13ifvqek0","pricing_plan_id":"cebpf4jnsgd1na2vs0mg"},{"bike_id":"62b982c7-0779-4d9d-b25e-70b6ecdaf1bc","system_id":"levelo_inurba_marseille","lat":43.250045,"lon":5.389245,"is_reserved":false,"is_disabled":false,"rental_uris":{"android":"levelo://app?vid=62b982c7-0779-4d9d-b25e-70b6ecdaf1bc","ios":"levelo://app?vid=62b982c7-0779-4d9d-b25e-70b6ecdaf1bc"},"vehicle_type_id":"4","last_reported":1747383282,"current_range_meters":10800,"station_id":"ce4bhgp2rcd13ifvqfd0","pricing_plan_id":"cebpf4jnsgd1na2vs0mg"},{"bike_id":"2c6ec7e7-ded9-4916-9df6-3deb51ccaee8","system_id":"levelo_inurba_marseille","lat":43.23963,"lon":5.36628,"is_reserved":false,"is_disabled":false,"rental_uris":{"android":"levelo://app?vid=2c6ec7e7-ded9-4916-9df6-3deb51ccaee8","ios":"levelo://app?vid=2c6ec7e7-ded9-4916-9df6-3deb51ccaee8"},"vehicle_type_id":"4","last_reported":1747383282,"current_range_meters":10800,"station_id":"ce4bhi12rcd13ifvqfp0","pricing_plan_id":"cebpf4jnsgd1na2vs0mg"},{"bike_id":"5879f203-1394-47e0-9f75-7c405ac331f5","system_id":"levelo_inurba_marseille","lat":43.32364,"lon":5.38891,"is_reserved":false,"is_disabled":false,"rental_uris":{"android":"levelo://app?vid=5879f203-1394-47e0-9f75-7c405ac331f5","ios":"levelo://app?vid=5879f203-1394-47e0-9f75-7c405ac331f5"},"vehicle_type_id":"4","last_reported":1747383282,"current_range_meters":10800,"station_id":"ce4bhqp2rcd13ifvqhog","pricing_plan_id":"cebpf4jnsgd1na2vs0mg"},{"bike_id":"c30371cf-1d8b-4f75-a394-e35d2ab17ace","system_id":"levelo_inurba_marseille","lat":43.30186,"lon":5.36607,"is_reserved":false,"is_disabled":false,"rental_uris":{"android":"levelo://app?vid=c30371cf-1d8b-4f75-a394-e35d2ab17ace","ios":"levelo://app?vid=c30371cf-1d8b-4f75-a394-e35d2ab17ace"},"vehicle_type_id":"4","last_reported":1747383282,"current_range_meters":11200,"station_id":"ce4bgrh2rcd13ifvqc8g","pricing_plan_id":"cebpf4jnsgd1na2vs0mg"},{"bike_id":"2c42c95b-81c8-4472-b133-956248a6315a","system_id":"levelo_inurba_marseille","lat":43.30184,"lon":5.36615,"is_reserved":false,"is_disabled":false,"rental_uris":{"android":"levelo://app?vid=2c42c95b-81c8-4472-b133-956248a6315a","ios":"levelo://app?vid=2c42c95b-81c8-4472-b133-956248a6315a"},"vehicle_type_id":"4","last_reported":1747383282,"current_range_meters":11200,"station_id":"ce4bgrh2rcd13ifvqc8g","pricing_plan_id":"cebpf4jnsgd1na2vs0mg"},{"bike_id":"d18e9458-ffae-4c77-8534-0f5ba6bf3744","system_id":"levelo_inurba_marseille","lat":43.30461,"lon":5.37921,"is_reserved":false,"is_disabled":false,"rental_uris":{"android":"levelo://app?vid=d18e9458-ffae-4c77-8534-0f5ba6bf3744","ios":"levelo://app?vid=d18e9458-ffae-4c77-8534-0f5ba6bf3744"},"vehicle_type_id":"4","last_reported":1747383282,"current_range_meters":11200,"station_id":"ce4bgup2rcd13ifvqcn0","pricing_plan_id":"cebpf4jnsgd1na2vs0mg"},{"bike_id":"63de20dc-9d1a-4854-bb4b-80a6f4d99a87","system_id":"levelo_inurba_marseille","lat":43.2872,"lon":5.3793,"is_reserved":false,"is_disabled":false,"rental_uris":{"android":"levelo://app?vid=63de20dc-9d1a-4854-bb4b-80a6f4d99a87","ios":"levelo://app?vid=63de20dc-9d1a-4854-bb4b-80a6f4d99a87"},"vehicle_type_id":"4","last_reported":1747383282,"current_range_meters":11200,"station_id":"ce4bh9p2rcd13ifvqec0","pricing_plan_id":"cebpf4jnsgd1na2vs0mg"},{"bike_id":"39678e92-f596-4081-929d-dbeb93e94a43","system_id":"levelo_inurba_marseille","lat":43.28977,"lon":5.37839,"is_reserved":false,"is_disabled":false,"rental_uris":{"android":"levelo://app?vid=39678e92-f596-4081-929d-dbeb93e94a43","ios":"levelo://app?vid=39678e92-f596-4081-929d-dbeb93e94a43"},"vehicle_type_id":"4","last_reported":1747383282,"current_range_meters":11200,"station_id":"ce4bh9p2rcd13ifvqed0","pricing_plan_id":"cebpf4jnsgd1na2vs0mg"},{"bike_id":"2cb40f1e-6b34-4793-ab1a-4121f2cb60ed","system_id":"levelo_inurba_marseille","lat":43.2898,"lon":5.37853,"is_reserved":false,"is_disabled":false,"rental_uris":{"android":"levelo://app?vid=2cb40f1e-6b34-4793-ab1a-4121f2cb60ed","ios":"levelo://app?vid=2cb40f1e-6b34-4793-ab1a-4121f2cb60ed"},"vehicle_type_id":"4","last_reported":1747383282,"current_range_meters":11200,"station_id":"ce4bh9p2rcd13ifvqed0","pricing_plan_id":"cebpf4jnsgd1na2vs0mg"},{"bike_id":"dcd53af0-e8e7-42be-be84-fb96f2a0f012","system_id":"levelo_inurba_marseille","lat":43.24802,"lon":5.37452,"is_reserved":false,"is_disabled":false,"rental_uris":{"android":"levelo://app?vid=dcd53af0-e8e7-42be-be84-fb96f2a0f012","ios":"levelo://app?vid=dcd53af0-e8e7-42be-be84-fb96f2a0f012"},"vehicle_type_id":"4","last_reported":1747383282,"current_range_meters":11200,"station_id":"ce4bhgh2rcd13ifvqfb0","pricing_plan_id":"cebpf4jnsgd1na2vs0mg"},{"bike_id":"8712bc13-ca42-43ce-8d32-c7f7683ef437","system_id":"levelo_inurba_marseille","lat":43.24079,"lon":5.37751,"is_reserved":false,"is_disabled":false,"rental_uris":{"android":"levelo://app?vid=8712bc13-ca42-43ce-8d32-c7f7683ef437","ios":"levelo://app?vid=8712bc13-ca42-43ce-8d32-c7f7683ef437"},"vehicle_type_id":"4","last_reported":1747383282,"current_range_meters":11200,"station_id":"ce4bhnp2rcd13ifvqgvg","pricing_plan_id":"cebpf4jnsgd1na2vs0mg"},{"bike_id":"39c7c348-baf3-417a-8df3-30f456f5c866","system_id":"levelo_inurba_marseille","lat":43.321113,"lon":5.367804,"is_reserved":false,"is_disabled":false,"rental_uris":{"android":"levelo://app?vid=39c7c348-baf3-417a-8df3-30f456f5c866","ios":"levelo://app?vid=39c7c348-baf3-417a-8df3-30f456f5c866"},"vehicle_type_id":"4","last_reported":1747383282,"current_range_meters":11600,"station_id":"ce4bhrh2rcd13ifvqhug","pricing_plan_id":"cebpf4jnsgd1na2vs0mg"},{"bike_id":"a488853e-8708-42f9-a9f1-40f4dc62e03d","system_id":"levelo_inurba_marseille","lat":43.30568,"lon":5.37282,"is_reserved":false,"is_disabled":false,"rental_uris":{"android":"levelo://app?vid=a488853e-8708-42f9-a9f1-40f4dc62e03d","ios":"levelo://app?vid=a488853e-8708-42f9-a9f1-40f4dc62e03d"},"vehicle_type_id":"4","last_reported":1747383282,"current_range_meters":12000,"station_id":"","pricing_plan_id":"cebpf4jnsgd1na2vs0mg"},{"bike_id":"906c1dd6-dcce-4701-9b6a-ab6a467ccdad","system_id":"levelo_inurba_marseille","lat":43.30954,"lon":5.39039,"is_reserved":false,"is_disabled":false,"rental_uris":{"android":"levelo://app?vid=906c1dd6-dcce-4701-9b6a-ab6a467ccdad","ios":"levelo://app?vid=906c1dd6-dcce-4701-9b6a-ab6a467ccdad"},"vehicle_type_id":"4","last_reported":1747383282,"current_range_meters":12000,"station_id":"ce4bgup2rcd13ifvqco0","pricing_plan_id":"cebpf4jnsgd1na2vs0mg"},{"bike_id":"4c69767d-2649-49f1-8c0e-3b06591f2e05","system_id":"levelo_inurba_marseille","lat":43.26787,"lon":5.39415,"is_reserved":false,"is_disabled":false,"rental_uris":{"android":"levelo://app?vid=4c69767d-2649-49f1-8c0e-3b06591f2e05","ios":"levelo://app?vid=4c69767d-2649-49f1-8c0e-3b06591f2e05"},"vehicle_type_id":"4","last_reported":1747383282,"current_range_meters":12000,"station_id":"ce4bhh12rcd13ifvqfg0","pricing_plan_id":"cebpf4jnsgd1na2vs0mg"},{"bike_id":"0eb7b7cb-714b-43d0-9b62-3f1a0dab1aeb","system_id":"levelo_inurba_marseille","lat":43.32537,"lon":5.41426,"is_reserved":false,"is_disabled":false,"rental_uris":{"android":"levelo://app?vid=0eb7b7cb-714b-43d0-9b62-3f1a0dab1aeb","ios":"levelo://app?vid=0eb7b7cb-714b-43d0-9b62-3f1a0dab1aeb"},"vehicle_type_id":"4","last_reported":1747383282,"current_range_meters":12000,"station_id":"ce4bhq12rcd13ifvqhhg","pricing_plan_id":"cebpf4jnsgd1na2vs0mg"},{"bike_id":"c4b6ef2b-2ff1-42ac-b20b-b51381b25190","system_id":"levelo_inurba_marseille","lat":43.29231,"lon":5.3606,"is_reserved":false,"is_disabled":false,"rental_uris":{"android":"levelo://app?vid=c4b6ef2b-2ff1-42ac-b20b-b51381b25190","ios":"levelo://app?vid=c4b6ef2b-2ff1-42ac-b20b-b51381b25190"},"vehicle_type_id":"4","last_reported":1747383282,"current_range_meters":12400,"station_id":"ce4bhbh2rcd13ifvqeqg","pricing_plan_id":"cebpf4jnsgd1na2vs0mg"},{"bike_id":"8dc9cc90-8c14-4d08-9bb3-ce4198def33f","system_id":"levelo_inurba_marseille","lat":43.27493,"lon":5.42454,"is_reserved":false,"is_disabled":false,"rental_uris":{"android":"levelo://app?vid=8dc9cc90-8c14-4d08-9bb3-ce4198def33f","ios":"levelo://app?vid=8dc9cc90-8c14-4d08-9bb3-ce4198def33f"},"vehicle_type_id":"4","last_reported":1747383282,"current_range_meters":12400,"station_id":"ce4bhn92rcd13ifvqgrg","pricing_plan_id":"cebpf4jnsgd1na2vs0mg"},{"bike_id":"c13caba9-80eb-480c-b850-136a11de562b","system_id":"levelo_inurba_marseille","lat":43.32475,"lon":5.36556,"is_reserved":false,"is_disabled":false,"rental_uris":{"android":"levelo://app?vid=c13caba9-80eb-480c-b850-136a11de562b","ios":"levelo://app?vid=c13caba9-80eb-480c-b850-136a11de562b"},"vehicle_type_id":"4","last_reported":1747383282,"current_range_meters":12400,"station_id":"ce4bhs12rcd13ifvqhvg","pricing_plan_id":"cebpf4jnsgd1na2vs0mg"},{"bike_id":"6d886103-344e-431a-ac80-7f62879d2f7c","system_id":"levelo_inurba_marseille","lat":43.22914,"lon":5.35394,"is_reserved":false,"is_disabled":false,"rental_uris":{"android":"levelo://app?vid=6d886103-344e-431a-ac80-7f62879d2f7c","ios":"levelo://app?vid=6d886103-344e-431a-ac80-7f62879d2f7c"},"vehicle_type_id":"4","last_reported":1747383282,"current_range_meters":12400,"station_id":"cpo3532slgdg3j2ikp40","pricing_plan_id":"cebpf4jnsgd1na2vs0mg"},{"bike_id":"765e0cfb-c888-4327-a53d-5a7e4b9b7d45","system_id":"levelo_inurba_marseille","lat":43.31351,"lon":5.36703,"is_reserved":false,"is_disabled":false,"rental_uris":{"android":"levelo://app?vid=765e0cfb-c888-4327-a53d-5a7e4b9b7d45","ios":"levelo://app?vid=765e0cfb-c888-4327-a53d-5a7e4b9b7d45"},"vehicle_type_id":"4","last_reported":1747383282,"current_range_meters":12800,"station_id":"ce4bgr92rcd13ifvqc6g","pricing_plan_id":"cebpf4jnsgd1na2vs0mg"},{"bike_id":"cf394fd3-0f00-4830-b52b-f2557e9c5f2f","system_id":"levelo_inurba_marseille","lat":43.30538,"lon":5.36535,"is_reserved":false,"is_disabled":false,"rental_uris":{"android":"levelo://app?vid=cf394fd3-0f00-4830-b52b-f2557e9c5f2f","ios":"levelo://app?vid=cf394fd3-0f00-4830-b52b-f2557e9c5f2f"},"vehicle_type_id":"4","last_reported":1747383282,"current_range_meters":12800,"station_id":"ce4bgs12rcd13ifvqcag","pricing_plan_id":"cebpf4jnsgd1na2vs0mg"},{"bike_id":"11deabd2-b906-40b7-a13a-e70023106965","system_id":"levelo_inurba_marseille","lat":43.28972,"lon":5.3783,"is_reserved":false,"is_disabled":false,"rental_uris":{"android":"levelo://app?vid=11deabd2-b906-40b7-a13a-e70023106965","ios":"levelo://app?vid=11deabd2-b906-40b7-a13a-e70023106965"},"vehicle_type_id":"4","last_reported":1747383282,"current_range_meters":12800,"station_id":"ce4bh9p2rcd13ifvqed0","pricing_plan_id":"cebpf4jnsgd1na2vs0mg"},{"bike_id":"c5c57cf2-2dd2-49a7-9f6a-f3616a3907d1","system_id":"levelo_inurba_marseille","lat":43.26665,"lon":5.38278,"is_reserved":false,"is_disabled":false,"rental_uris":{"android":"levelo://app?vid=c5c57cf2-2dd2-49a7-9f6a-f3616a3907d1","ios":"levelo://app?vid=c5c57cf2-2dd2-49a7-9f6a-f3616a3907d1"},"vehicle_type_id":"4","last_reported":1747383282,"current_range_meters":12800,"station_id":"ce4bhg92rcd13ifvqf90","pricing_plan_id":"cebpf4jnsgd1na2vs0mg"},{"bike_id":"29542e64-d92f-4831-8961-ae7f1c7739a9","system_id":"levelo_inurba_marseille","lat":43.27058,"lon":5.40255,"is_reserved":false,"is_disabled":false,"rental_uris":{"android":"levelo://app?vid=29542e64-d92f-4831-8961-ae7f1c7739a9","ios":"levelo://app?vid=29542e64-d92f-4831-8961-ae7f1c7739a9"},"vehicle_type_id":"4","last_reported":1747383282,"current_range_meters":12800,"station_id":"ce4bhk92rcd13ifvqgc0","pricing_plan_id":"cebpf4jnsgd1na2vs0mg"},{"bike_id":"31b1bbbc-1f9f-4412-8a54-d827432c06cc","system_id":"levelo_inurba_marseille","lat":43.28143,"lon":5.42651,"is_reserved":false,"is_disabled":false,"rental_uris":{"android":"levelo://app?vid=31b1bbbc-1f9f-4412-8a54-d827432c06cc","ios":"levelo://app?vid=31b1bbbc-1f9f-4412-8a54-d827432c06cc"},"vehicle_type_id":"4","last_reported":1747383282,"current_range_meters":12800,"station_id":"ce4bhnh2rcd13ifvqgug","pricing_plan_id":"cebpf4jnsgd1na2vs0mg"},{"bike_id":"04beda66-f6ee-4096-aff6-d05c6c8e9f02","system_id":"levelo_inurba_marseille","lat":43.31368,"lon":5.38492,"is_reserved":false,"is_disabled":false,"rental_uris":{"android":"levelo://app?vid=04beda66-f6ee-4096-aff6-d05c6c8e9f02","ios":"levelo://app?vid=04beda66-f6ee-4096-aff6-d05c6c8e9f02"},"vehicle_type_id":"4","last_reported":1747383282,"current_range_meters":13600,"station_id":"ce4bgt92rcd13ifvqcf0","pricing_plan_id":"cebpf4jnsgd1na2vs0mg"},{"bike_id":"8ea9feae-8777-4e64-aba7-b7454736bd17","system_id":"levelo_inurba_marseille","lat":43.2905,"lon":5.37148,"is_reserved":false,"is_disabled":false,"rental_uris":{"android":"levelo://app?vid=8ea9feae-8777-4e64-aba7-b7454736bd17","ios":"levelo://app?vid=8ea9feae-8777-4e64-aba7-b7454736bd17"},"vehicle_type_id":"4","last_reported":1747383282,"current_range_meters":13600,"station_id":"ce4bh5p2rcd13ifvqe4g","pricing_plan_id":"cebpf4jnsgd1na2vs0mg"},{"bike_id":"1db6c517-7099-4c77-8c61-1e8fc58743bb","system_id":"levelo_inurba_marseille","lat":43.27566,"lon":5.38424,"is_reserved":false,"is_disabled":false,"rental_uris":{"android":"levelo://app?vid=1db6c517-7099-4c77-8c61-1e8fc58743bb","ios":"levelo://app?vid=1db6c517-7099-4c77-8c61-1e8fc58743bb"},"vehicle_type_id":"4","last_reported":1747383282,"current_range_meters":13600,"station_id":"ce4bhh92rcd13ifvqfi0","pricing_plan_id":"cebpf4jnsgd1na2vs0mg"},{"bike_id":"b7d5064e-5920-4e13-932d-c3c4180184ff","system_id":"levelo_inurba_marseille","lat":43.31756,"lon":5.39013,"is_reserved":false,"is_disabled":false,"rental_uris":{"android":"levelo://app?vid=b7d5064e-5920-4e13-932d-c3c4180184ff","ios":"levelo://app?vid=b7d5064e-5920-4e13-932d-c3c4180184ff"},"vehicle_type_id":"4","last_reported":1747383282,"current_range_meters":13600,"station_id":"ce4bhqp2rcd13ifvqhng","pricing_plan_id":"cebpf4jnsgd1na2vs0mg"},{"bike_id":"2a56cf36-d3fb-4a41-8ebc-23f0abc6d7f1","system_id":"levelo_inurba_marseille","lat":43.21189,"lon":5.35078,"is_reserved":false,"is_disabled":false,"rental_uris":{"android":"levelo://app?vid=2a56cf36-d3fb-4a41-8ebc-23f0abc6d7f1","ios":"levelo://app?vid=2a56cf36-d3fb-4a41-8ebc-23f0abc6d7f1"},"vehicle_type_id":"4","last_reported":1747383282,"current_range_meters":13600,"station_id":"st_cvj6sg6p6f1abm77japg","pricing_plan_id":"cebpf4jnsgd1na2vs0mg"},{"bike_id":"8c3c45c9-d1ca-4a7e-b858-e4cf9b6f095f","system_id":"levelo_inurba_marseille","lat":43.28228,"lon":5.40286,"is_reserved":false,"is_disabled":false,"rental_uris":{"android":"levelo://app?vid=8c3c45c9-d1ca-4a7e-b858-e4cf9b6f095f","ios":"levelo://app?vid=8c3c45c9-d1ca-4a7e-b858-e4cf9b6f095f"},"vehicle_type_id":"4","last_reported":1747383282,"current_range_meters":14000,"station_id":"","pricing_plan_id":"cebpf4jnsgd1na2vs0mg"},{"bike_id":"78635f2e-59c6-4d16-b3e6-84cbb033e470","system_id":"levelo_inurba_marseille","lat":43.29524,"lon":5.37507,"is_reserved":false,"is_disabled":false,"rental_uris":{"android":"levelo://app?vid=78635f2e-59c6-4d16-b3e6-84cbb033e470","ios":"levelo://app?vid=78635f2e-59c6-4d16-b3e6-84cbb033e470"},"vehicle_type_id":"4","last_reported":1747383282,"current_range_meters":14000,"station_id":"ce4bgkp2rcd13ifvqbmg","pricing_plan_id":"cebpf4jnsgd1na2vs0mg"},{"bike_id":"1635926f-1a23-4ec0-af4a-8d7fffec80ee","system_id":"levelo_inurba_marseille","lat":43.26552,"lon":5.37285,"is_reserved":false,"is_disabled":false,"rental_uris":{"android":"levelo://app?vid=1635926f-1a23-4ec0-af4a-8d7fffec80ee","ios":"levelo://app?vid=1635926f-1a23-4ec0-af4a-8d7fffec80ee"},"vehicle_type_id":"4","last_reported":1747383282,"current_range_meters":14000,"station_id":"ce4bhg12rcd13ifvqf70","pricing_plan_id":"cebpf4jnsgd1na2vs0mg"},{"bike_id":"d19aac3a-da93-41d1-8c45-8e9176daaa1d","system_id":"levelo_inurba_marseille","lat":43.21743,"lon":5.3461,"is_reserved":false,"is_disabled":false,"rental_uris":{"android":"levelo://app?vid=d19aac3a-da93-41d1-8c45-8e9176daaa1d","ios":"levelo://app?vid=d19aac3a-da93-41d1-8c45-8e9176daaa1d"},"vehicle_type_id":"4","last_reported":1747383282,"current_range_meters":14000,"station_id":"st_cvj6r9ubvosntc0bgbag","pricing_plan_id":"cebpf4jnsgd1na2vs0mg"},{"bike_id":"0c24d09f-ee1b-4d83-af33-562b6b2ca194","system_id":"levelo_inurba_marseille","lat":43.32367,"lon":5.38881,"is_reserved":false,"is_disabled":false,"rental_uris":{"android":"levelo://app?vid=0c24d09f-ee1b-4d83-af33-562b6b2ca194","ios":"levelo://app?vid=0c24d09f-ee1b-4d83-af33-562b6b2ca194"},"vehicle_type_id":"4","last_reported":1747383282,"current_range_meters":14400,"station_id":"ce4bhqp2rcd13ifvqhog","pricing_plan_id":"cebpf4jnsgd1na2vs0mg"},{"bike_id":"88378c0e-4dd9-4f14-b2c9-5746129a3668","system_id":"levelo_inurba_marseille","lat":43.3248,"lon":5.36568,"is_reserved":false,"is_disabled":false,"rental_uris":{"android":"levelo://app?vid=88378c0e-4dd9-4f14-b2c9-5746129a3668","ios":"levelo://app?vid=88378c0e-4dd9-4f14-b2c9-5746129a3668"},"vehicle_type_id":"4","last_reported":1747383282,"current_range_meters":14800,"station_id":"ce4bhs12rcd13ifvqhvg","pricing_plan_id":"cebpf4jnsgd1na2vs0mg"},{"bike_id":"225d88a7-bbb1-45c7-845f-1fd1816815a2","system_id":"levelo_inurba_marseille","lat":43.346897,"lon":5.3453,"is_reserved":false,"is_disabled":false,"rental_uris":{"android":"levelo://app?vid=225d88a7-bbb1-45c7-845f-1fd1816815a2","ios":"levelo://app?vid=225d88a7-bbb1-45c7-845f-1fd1816815a2"},"vehicle_type_id":"4","last_reported":1747383282,"current_range_meters":15200,"station_id":"","pricing_plan_id":"cebpf4jnsgd1na2vs0mg"},{"bike_id":"0153766c-27c1-4d93-8771-53d2d9390dfd","system_id":"levelo_inurba_marseille","lat":43.298676,"lon":5.397248,"is_reserved":false,"is_disabled":false,"rental_uris":{"android":"levelo://app?vid=0153766c-27c1-4d93-8771-53d2d9390dfd","ios":"levelo://app?vid=0153766c-27c1-4d93-8771-53d2d9390dfd"},"vehicle_type_id":"4","last_reported":1747383282,"current_range_meters":15200,"station_id":"ce4bh0h2rcd13ifvqd50","pricing_plan_id":"cebpf4jnsgd1na2vs0mg"},{"bike_id":"3f5f493b-d85d-4cb4-a725-c975a9988227","system_id":"levelo_inurba_marseille","lat":43.25731,"lon":5.41107,"is_reserved":false,"is_disabled":false,"rental_uris":{"android":"levelo://app?vid=3f5f493b-d85d-4cb4-a725-c975a9988227","ios":"levelo://app?vid=3f5f493b-d85d-4cb4-a725-c975a9988227"},"vehicle_type_id":"4","last_reported":1747383282,"current_range_meters":15200,"station_id":"ce4bhkp2rcd13ifvqgd0","pricing_plan_id":"cebpf4jnsgd1na2vs0mg"},{"bike_id":"2afe07c9-417f-4b2a-b4cf-115a063ee7e8","system_id":"levelo_inurba_marseille","lat":43.25942,"lon":5.40902,"is_reserved":false,"is_disabled":false,"rental_uris":{"android":"levelo://app?vid=2afe07c9-417f-4b2a-b4cf-115a063ee7e8","ios":"levelo://app?vid=2afe07c9-417f-4b2a-b4cf-115a063ee7e8"},"vehicle_type_id":"4","last_reported":1747383282,"current_range_meters":15200,"station_id":"ce4bhm92rcd13ifvqglg","pricing_plan_id":"cebpf4jnsgd1na2vs0mg"},{"bike_id":"4c50a1f4-9b8f-4402-81a6-4b92fac2f424","system_id":"levelo_inurba_marseille","lat":43.32365,"lon":5.367658,"is_reserved":false,"is_disabled":false,"rental_uris":{"android":"levelo://app?vid=4c50a1f4-9b8f-4402-81a6-4b92fac2f424","ios":"levelo://app?vid=4c50a1f4-9b8f-4402-81a6-4b92fac2f424"},"vehicle_type_id":"4","last_reported":1747383282,"current_range_meters":15200,"station_id":"ce4bhsh2rcd13ifvqi2g","pricing_plan_id":"cebpf4jnsgd1na2vs0mg"},{"bike_id":"6d812bb8-7c84-4b9d-aa7e-2e32f2e0ab84","system_id":"levelo_inurba_marseille","lat":43.23946,"lon":5.3756,"is_reserved":false,"is_disabled":false,"rental_uris":{"android":"levelo://app?vid=6d812bb8-7c84-4b9d-aa7e-2e32f2e0ab84","ios":"levelo://app?vid=6d812bb8-7c84-4b9d-aa7e-2e32f2e0ab84"},"vehicle_type_id":"4","last_reported":1747383282,"current_range_meters":16000,"station_id":"","pricing_plan_id":"cebpf4jnsgd1na2vs0mg"},{"bike_id":"f6b1ac8c-0b4b-4667-936b-f156b38baa0d","system_id":"levelo_inurba_marseille","lat":43.29268,"lon":5.37634,"is_reserved":false,"is_disabled":false,"rental_uris":{"android":"levelo://app?vid=f6b1ac8c-0b4b-4667-936b-f156b38baa0d","ios":"levelo://app?vid=f6b1ac8c-0b4b-4667-936b-f156b38baa0d"},"vehicle_type_id":"4","last_reported":1747383282,"current_range_meters":16000,"station_id":"ce4bgi12rcd13ifvqb80","pricing_plan_id":"cebpf4jnsgd1na2vs0mg"},{"bike_id":"11be072a-37e3-4a8d-8e8f-7ae0bd6431fa","system_id":"levelo_inurba_marseille","lat":43.30418,"lon":5.39741,"is_reserved":false,"is_disabled":false,"rental_uris":{"android":"levelo://app?vid=11be072a-37e3-4a8d-8e8f-7ae0bd6431fa","ios":"levelo://app?vid=11be072a-37e3-4a8d-8e8f-7ae0bd6431fa"},"vehicle_type_id":"4","last_reported":1747383282,"current_range_meters":16000,"station_id":"ce4bh092rcd13ifvqd20","pricing_plan_id":"cebpf4jnsgd1na2vs0mg"},{"bike_id":"41a4d37d-f9a8-4373-bcf9-7eb88dfeb2f3","system_id":"levelo_inurba_marseille","lat":43.29096,"lon":5.38131,"is_reserved":false,"is_disabled":false,"rental_uris":{"android":"levelo://app?vid=41a4d37d-f9a8-4373-bcf9-7eb88dfeb2f3","ios":"levelo://app?vid=41a4d37d-f9a8-4373-bcf9-7eb88dfeb2f3"},"vehicle_type_id":"4","last_reported":1747383282,"current_range_meters":16000,"station_id":"ce4bh512rcd13ifvqe2g","pricing_plan_id":"cebpf4jnsgd1na2vs0mg"},{"bike_id":"aa53c5b9-c9b8-4906-989e-6e49a1f5abe6","system_id":"levelo_inurba_marseille","lat":43.22964,"lon":5.35362,"is_reserved":false,"is_disabled":false,"rental_uris":{"android":"levelo://app?vid=aa53c5b9-c9b8-4906-989e-6e49a1f5abe6","ios":"levelo://app?vid=aa53c5b9-c9b8-4906-989e-6e49a1f5abe6"},"vehicle_type_id":"4","last_reported":1747383282,"current_range_meters":16000,"station_id":"cpo3532slgdg3j2ikp40","pricing_plan_id":"cebpf4jnsgd1na2vs0mg"},{"bike_id":"54a1a73b-9f7a-414c-a48f-eeace73bd9b0","system_id":"levelo_inurba_marseille","lat":43.22498,"lon":5.34786,"is_reserved":false,"is_disabled":false,"rental_uris":{"android":"levelo://app?vid=54a1a73b-9f7a-414c-a48f-eeace73bd9b0","ios":"levelo://app?vid=54a1a73b-9f7a-414c-a48f-eeace73bd9b0"},"vehicle_type_id":"4","last_reported":1747383282,"current_range_meters":16000,"station_id":"st_cvj5dfep6f1abm77gieg","pricing_plan_id":"cebpf4jnsgd1na2vs0mg"},{"bike_id":"66ccfa18-429b-44cd-90d8-f22c903e3e64","system_id":"levelo_inurba_marseille","lat":43.30948,"lon":5.39032,"is_reserved":false,"is_disabled":false,"rental_uris":{"android":"levelo://app?vid=66ccfa18-429b-44cd-90d8-f22c903e3e64","ios":"levelo://app?vid=66ccfa18-429b-44cd-90d8-f22c903e3e64"},"vehicle_type_id":"4","last_reported":1747383282,"current_range_meters":16400,"station_id":"ce4bgup2rcd13ifvqco0","pricing_plan_id":"cebpf4jnsgd1na2vs0mg"},{"bike_id":"12eedbb5-c962-4310-8c8a-dbd2a87f99cb","system_id":"levelo_inurba_marseille","lat":43.2827,"lon":5.35061,"is_reserved":false,"is_disabled":false,"rental_uris":{"android":"levelo://app?vid=12eedbb5-c962-4310-8c8a-dbd2a87f99cb","ios":"levelo://app?vid=12eedbb5-c962-4310-8c8a-dbd2a87f99cb"},"vehicle_type_id":"4","last_reported":1747383282,"current_range_meters":16400,"station_id":"ce4bhbp2rcd13ifvqerg","pricing_plan_id":"cebpf4jnsgd1na2vs0mg"},{"bike_id":"da66c5e5-6e35-4104-b407-ba7ff49a5057","system_id":"levelo_inurba_marseille","lat":43.23184,"lon":5.39994,"is_reserved":false,"is_disabled":false,"rental_uris":{"android":"levelo://app?vid=da66c5e5-6e35-4104-b407-ba7ff49a5057","ios":"levelo://app?vid=da66c5e5-6e35-4104-b407-ba7ff49a5057"},"vehicle_type_id":"4","last_reported":1747383282,"current_range_meters":16400,"station_id":"ce4bhn12rcd13ifvqgqg","pricing_plan_id":"cebpf4jnsgd1na2vs0mg"},{"bike_id":"bf2d43d5-d1b0-4787-8d18-25df80908b08","system_id":"levelo_inurba_marseille","lat":43.32488,"lon":5.36581,"is_reserved":false,"is_disabled":false,"rental_uris":{"android":"levelo://app?vid=bf2d43d5-d1b0-4787-8d18-25df80908b08","ios":"levelo://app?vid=bf2d43d5-d1b0-4787-8d18-25df80908b08"},"vehicle_type_id":"4","last_reported":1747383282,"current_range_meters":16400,"station_id":"ce4bhs12rcd13ifvqhvg","pricing_plan_id":"cebpf4jnsgd1na2vs0mg"},{"bike_id":"54c80718-1468-47f9-9877-bc44f5940722","system_id":"levelo_inurba_marseille","lat":43.211919,"lon":5.350734,"is_reserved":false,"is_disabled":false,"rental_uris":{"android":"levelo://app?vid=54c80718-1468-47f9-9877-bc44f5940722","ios":"levelo://app?vid=54c80718-1468-47f9-9877-bc44f5940722"},"vehicle_type_id":"4","last_reported":1747383282,"current_range_meters":16400,"station_id":"st_cvj6sg6p6f1abm77japg","pricing_plan_id":"cebpf4jnsgd1na2vs0mg"},{"bike_id":"3c6fff0b-daa4-4366-af9c-f61608012df8","system_id":"levelo_inurba_marseille","lat":43.31074,"lon":5.3836,"is_reserved":false,"is_disabled":false,"rental_uris":{"android":"levelo://app?vid=3c6fff0b-daa4-4366-af9c-f61608012df8","ios":"levelo://app?vid=3c6fff0b-daa4-4366-af9c-f61608012df8"},"vehicle_type_id":"4","last_reported":1747383282,"current_range_meters":16800,"station_id":"ce4bgv92rcd13ifvqcr0","pricing_plan_id":"cebpf4jnsgd1na2vs0mg"},{"bike_id":"49f9f98a-e03c-4325-a3ed-7d51b5664386","system_id":"levelo_inurba_marseille","lat":43.291,"lon":5.38144,"is_reserved":false,"is_disabled":false,"rental_uris":{"android":"levelo://app?vid=49f9f98a-e03c-4325-a3ed-7d51b5664386","ios":"levelo://app?vid=49f9f98a-e03c-4325-a3ed-7d51b5664386"},"vehicle_type_id":"4","last_reported":1747383282,"current_range_meters":16800,"station_id":"ce4bh512rcd13ifvqe2g","pricing_plan_id":"cebpf4jnsgd1na2vs0mg"},{"bike_id":"fb691759-c1d0-4bca-b625-bfe47a6ceed7","system_id":"levelo_inurba_marseille","lat":43.29187,"lon":5.382152,"is_reserved":false,"is_disabled":false,"rental_uris":{"android":"levelo://app?vid=fb691759-c1d0-4bca-b625-bfe47a6ceed7","ios":"levelo://app?vid=fb691759-c1d0-4bca-b625-bfe47a6ceed7"},"vehicle_type_id":"4","last_reported":1747383282,"current_range_meters":17200,"station_id":"","pricing_plan_id":"cebpf4jnsgd1na2vs0mg"},{"bike_id":"e8e1a0f2-0f5b-4b21-8a9e-6f087a0db53f","system_id":"levelo_inurba_marseille","lat":43.29581,"lon":5.36737,"is_reserved":false,"is_disabled":false,"rental_uris":{"android":"levelo://app?vid=e8e1a0f2-0f5b-4b21-8a9e-6f087a0db53f","ios":"levelo://app?vid=e8e1a0f2-0f5b-4b21-8a9e-6f087a0db53f"},"vehicle_type_id":"4","last_reported":1747383282,"current_range_meters":17200,"station_id":"ce4bgph2rcd13ifvqc2g","pricing_plan_id":"cebpf4jnsgd1na2vs0mg"},{"bike_id":"c58c6b33-474b-48af-b423-9f612dd30818","system_id":"levelo_inurba_marseille","lat":43.28351,"lon":5.38104,"is_reserved":false,"is_disabled":false,"rental_uris":{"android":"levelo://app?vid=c58c6b33-474b-48af-b423-9f612dd30818","ios":"levelo://app?vid=c58c6b33-474b-48af-b423-9f612dd30818"},"vehicle_type_id":"4","last_reported":1747383282,"current_range_meters":17200,"station_id":"ce4bh412rcd13ifvqdr0","pricing_plan_id":"cebpf4jnsgd1na2vs0mg"},{"bike_id":"b9f045af-185c-4cff-90cb-7c7a36860ef7","system_id":"levelo_inurba_marseille","lat":43.26567,"lon":5.39008,"is_reserved":false,"is_disabled":false,"rental_uris":{"android":"levelo://app?vid=b9f045af-185c-4cff-90cb-7c7a36860ef7","ios":"levelo://app?vid=b9f045af-185c-4cff-90cb-7c7a36860ef7"},"vehicle_type_id":"4","last_reported":1747383282,"current_range_meters":17200,"station_id":"ce4bhe12rcd13ifvqf30","pricing_plan_id":"cebpf4jnsgd1na2vs0mg"},{"bike_id":"d65e5f85-49ae-4937-b3c6-688d54739a8a","system_id":"levelo_inurba_marseille","lat":43.27208,"lon":5.39185,"is_reserved":false,"is_disabled":false,"rental_uris":{"android":"levelo://app?vid=d65e5f85-49ae-4937-b3c6-688d54739a8a","ios":"levelo://app?vid=d65e5f85-49ae-4937-b3c6-688d54739a8a"},"vehicle_type_id":"4","last_reported":1747383282,"current_range_meters":17200,"station_id":"ce4bhhp2rcd13ifvqfm0","pricing_plan_id":"cebpf4jnsgd1na2vs0mg"},{"bike_id":"d9cf0daf-2b8c-44c0-ad88-67a126aa883b","system_id":"levelo_inurba_marseille","lat":43.25927,"lon":5.40909,"is_reserved":false,"is_disabled":false,"rental_uris":{"android":"levelo://app?vid=d9cf0daf-2b8c-44c0-ad88-67a126aa883b","ios":"levelo://app?vid=d9cf0daf-2b8c-44c0-ad88-67a126aa883b"},"vehicle_type_id":"4","last_reported":1747383282,"current_range_meters":17200,"station_id":"ce4bhm92rcd13ifvqglg","pricing_plan_id":"cebpf4jnsgd1na2vs0mg"},{"bike_id":"16748ab3-36ff-4772-bfcc-45d7b9aee659","system_id":"levelo_inurba_marseille","lat":43.27494,"lon":5.42458,"is_reserved":false,"is_disabled":false,"rental_uris":{"android":"levelo://app?vid=16748ab3-36ff-4772-bfcc-45d7b9aee659","ios":"levelo://app?vid=16748ab3-36ff-4772-bfcc-45d7b9aee659"},"vehicle_type_id":"4","last_reported":1747383282,"current_range_meters":17200,"station_id":"ce4bhn92rcd13ifvqgrg","pricing_plan_id":"cebpf4jnsgd1na2vs0mg"},{"bike_id":"6ee860e6-5e4e-4f65-9301-9807d55e4a11","system_id":"levelo_inurba_marseille","lat":43.27498,"lon":5.42446,"is_reserved":false,"is_disabled":false,"rental_uris":{"android":"levelo://app?vid=6ee860e6-5e4e-4f65-9301-9807d55e4a11","ios":"levelo://app?vid=6ee860e6-5e4e-4f65-9301-9807d55e4a11"},"vehicle_type_id":"4","last_reported":1747383282,"current_range_meters":17200,"station_id":"ce4bhn92rcd13ifvqgrg","pricing_plan_id":"cebpf4jnsgd1na2vs0mg"},{"bike_id":"98106b70-6f8a-476d-962a-f2bed2e52f0a","system_id":"levelo_inurba_marseille","lat":43.32125,"lon":5.36778,"is_reserved":false,"is_disabled":false,"rental_uris":{"android":"levelo://app?vid=98106b70-6f8a-476d-962a-f2bed2e52f0a","ios":"levelo://app?vid=98106b70-6f8a-476d-962a-f2bed2e52f0a"},"vehicle_type_id":"4","last_reported":1747383282,"current_range_meters":17200,"station_id":"ce4bhrh2rcd13ifvqhug","pricing_plan_id":"cebpf4jnsgd1na2vs0mg"},{"bike_id":"c8a38f2f-aa6b-4b35-a189-77439d458a3a","system_id":"levelo_inurba_marseille","lat":43.28501,"lon":5.38936,"is_reserved":false,"is_disabled":false,"rental_uris":{"android":"levelo://app?vid=c8a38f2f-aa6b-4b35-a189-77439d458a3a","ios":"levelo://app?vid=c8a38f2f-aa6b-4b35-a189-77439d458a3a"},"vehicle_type_id":"4","last_reported":1747383282,"current_range_meters":17600,"station_id":"","pricing_plan_id":"cebpf4jnsgd1na2vs0mg"},{"bike_id":"786fa5e7-e1b5-4809-bf1e-c8607de40f42","system_id":"levelo_inurba_marseille","lat":43.30153,"lon":5.38085,"is_reserved":false,"is_disabled":false,"rental_uris":{"android":"levelo://app?vid=786fa5e7-e1b5-4809-bf1e-c8607de40f42","ios":"levelo://app?vid=786fa5e7-e1b5-4809-bf1e-c8607de40f42"},"vehicle_type_id":"4","last_reported":1747383282,"current_range_meters":17600,"station_id":"ce4bgjp2rcd13ifvqbh0","pricing_plan_id":"cebpf4jnsgd1na2vs0mg"},{"bike_id":"0a555982-422d-4cad-bf03-d9fc99bb97a7","system_id":"levelo_inurba_marseille","lat":43.31344,"lon":5.36717,"is_reserved":false,"is_disabled":false,"rental_uris":{"android":"levelo://app?vid=0a555982-422d-4cad-bf03-d9fc99bb97a7","ios":"levelo://app?vid=0a555982-422d-4cad-bf03-d9fc99bb97a7"},"vehicle_type_id":"4","last_reported":1747383282,"current_range_meters":17600,"station_id":"ce4bgr92rcd13ifvqc6g","pricing_plan_id":"cebpf4jnsgd1na2vs0mg"},{"bike_id":"378a7921-5898-46a8-8657-6e9394ac1efb","system_id":"levelo_inurba_marseille","lat":43.30939,"lon":5.39036,"is_reserved":false,"is_disabled":false,"rental_uris":{"android":"levelo://app?vid=378a7921-5898-46a8-8657-6e9394ac1efb","ios":"levelo://app?vid=378a7921-5898-46a8-8657-6e9394ac1efb"},"vehicle_type_id":"4","last_reported":1747383282,"current_range_meters":17600,"station_id":"ce4bgup2rcd13ifvqco0","pricing_plan_id":"cebpf4jnsgd1na2vs0mg"},{"bike_id":"32c09e45-af22-4f88-9e69-77e728f17339","system_id":"levelo_inurba_marseille","lat":43.29866,"lon":5.39708,"is_reserved":false,"is_disabled":false,"rental_uris":{"android":"levelo://app?vid=32c09e45-af22-4f88-9e69-77e728f17339","ios":"levelo://app?vid=32c09e45-af22-4f88-9e69-77e728f17339"},"vehicle_type_id":"4","last_reported":1747383282,"current_range_meters":17600,"station_id":"ce4bh0h2rcd13ifvqd50","pricing_plan_id":"cebpf4jnsgd1na2vs0mg"},{"bike_id":"d1a82e80-5e0c-4cd4-9dc4-90bf658da68f","system_id":"levelo_inurba_marseille","lat":43.23964,"lon":5.3663,"is_reserved":false,"is_disabled":false,"rental_uris":{"android":"levelo://app?vid=d1a82e80-5e0c-4cd4-9dc4-90bf658da68f","ios":"levelo://app?vid=d1a82e80-5e0c-4cd4-9dc4-90bf658da68f"},"vehicle_type_id":"4","last_reported":1747383282,"current_range_meters":17600,"station_id":"ce4bhi12rcd13ifvqfp0","pricing_plan_id":"cebpf4jnsgd1na2vs0mg"},{"bike_id":"b3bd186a-ae2a-4408-aab9-c24e5fe41ca9","system_id":"levelo_inurba_marseille","lat":43.27514,"lon":5.42432,"is_reserved":false,"is_disabled":false,"rental_uris":{"android":"levelo://app?vid=b3bd186a-ae2a-4408-aab9-c24e5fe41ca9","ios":"levelo://app?vid=b3bd186a-ae2a-4408-aab9-c24e5fe41ca9"},"vehicle_type_id":"4","last_reported":1747383282,"current_range_meters":17600,"station_id":"ce4bhn92rcd13ifvqgrg","pricing_plan_id":"cebpf4jnsgd1na2vs0mg"},{"bike_id":"007f087c-c3f7-4b0d-bcc0-1d9d45e1ec16","system_id":"levelo_inurba_marseille","lat":43.23579,"lon":5.4034,"is_reserved":false,"is_disabled":false,"rental_uris":{"android":"levelo://app?vid=007f087c-c3f7-4b0d-bcc0-1d9d45e1ec16","ios":"levelo://app?vid=007f087c-c3f7-4b0d-bcc0-1d9d45e1ec16"},"vehicle_type_id":"4","last_reported":1747383282,"current_range_meters":18000,"station_id":"","pricing_plan_id":"cebpf4jnsgd1na2vs0mg"},{"bike_id":"bd73e106-8904-4073-a041-8d9e4933c9df","system_id":"levelo_inurba_marseille","lat":43.24583,"lon":5.39004,"is_reserved":false,"is_disabled":false,"rental_uris":{"android":"levelo://app?vid=bd73e106-8904-4073-a041-8d9e4933c9df","ios":"levelo://app?vid=bd73e106-8904-4073-a041-8d9e4933c9df"},"vehicle_type_id":"4","last_reported":1747383282,"current_range_meters":18000,"station_id":"","pricing_plan_id":"cebpf4jnsgd1na2vs0mg"},{"bike_id":"46588226-5f81-4d94-808b-a5f22279f587","system_id":"levelo_inurba_marseille","lat":43.26189,"lon":5.37931,"is_reserved":false,"is_disabled":false,"rental_uris":{"android":"levelo://app?vid=46588226-5f81-4d94-808b-a5f22279f587","ios":"levelo://app?vid=46588226-5f81-4d94-808b-a5f22279f587"},"vehicle_type_id":"4","last_reported":1747383282,"current_range_meters":18000,"station_id":"ce4bhjp2rcd13ifvqg90","pricing_plan_id":"cebpf4jnsgd1na2vs0mg"},{"bike_id":"eb315ca9-8b37-4a65-969b-3363bd5f25ab","system_id":"levelo_inurba_marseille","lat":43.27493,"lon":5.42454,"is_reserved":false,"is_disabled":false,"rental_uris":{"android":"levelo://app?vid=eb315ca9-8b37-4a65-969b-3363bd5f25ab","ios":"levelo://app?vid=eb315ca9-8b37-4a65-969b-3363bd5f25ab"},"vehicle_type_id":"4","last_reported":1747383282,"current_range_meters":18000,"station_id":"ce4bhn92rcd13ifvqgrg","pricing_plan_id":"cebpf4jnsgd1na2vs0mg"},{"bike_id":"0b024457-9163-476e-8e28-42011b1ade8c","system_id":"levelo_inurba_marseille","lat":43.32653,"lon":5.40995,"is_reserved":false,"is_disabled":false,"rental_uris":{"android":"levelo://app?vid=0b024457-9163-476e-8e28-42011b1ade8c","ios":"levelo://app?vid=0b024457-9163-476e-8e28-42011b1ade8c"},"vehicle_type_id":"4","last_reported":1747383282,"current_range_meters":18000,"station_id":"ce4bhpp2rcd13ifvqhgg","pricing_plan_id":"cebpf4jnsgd1na2vs0mg"},{"bike_id":"0b4dab94-79cc-49be-8085-fb2124a86407","system_id":"levelo_inurba_marseille","lat":43.32111,"lon":5.36767,"is_reserved":false,"is_disabled":false,"rental_uris":{"android":"levelo://app?vid=0b4dab94-79cc-49be-8085-fb2124a86407","ios":"levelo://app?vid=0b4dab94-79cc-49be-8085-fb2124a86407"},"vehicle_type_id":"4","last_reported":1747383282,"current_range_meters":18000,"station_id":"ce4bhrh2rcd13ifvqhug","pricing_plan_id":"cebpf4jnsgd1na2vs0mg"},{"bike_id":"22e14dce-44fe-4f30-91e8-87139397b6e5","system_id":"levelo_inurba_marseille","lat":43.31401,"lon":5.36654,"is_reserved":false,"is_disabled":false,"rental_uris":{"android":"levelo://app?vid=22e14dce-44fe-4f30-91e8-87139397b6e5","ios":"levelo://app?vid=22e14dce-44fe-4f30-91e8-87139397b6e5"},"vehicle_type_id":"4","last_reported":1747383282,"current_range_meters":18800,"station_id":"","pricing_plan_id":"cebpf4jnsgd1na2vs0mg"},{"bike_id":"d4a68f67-accc-4132-becd-c45a42937a18","system_id":"levelo_inurba_marseille","lat":43.29265,"lon":5.37627,"is_reserved":false,"is_disabled":false,"rental_uris":{"android":"levelo://app?vid=d4a68f67-accc-4132-becd-c45a42937a18","ios":"levelo://app?vid=d4a68f67-accc-4132-becd-c45a42937a18"},"vehicle_type_id":"4","last_reported":1747383282,"current_range_meters":18800,"station_id":"ce4bgi12rcd13ifvqb80","pricing_plan_id":"cebpf4jnsgd1na2vs0mg"},{"bike_id":"7a99acd3-9c77-47d4-b47b-a121e87eb503","system_id":"levelo_inurba_marseille","lat":43.29522,"lon":5.37511,"is_reserved":false,"is_disabled":false,"rental_uris":{"android":"levelo://app?vid=7a99acd3-9c77-47d4-b47b-a121e87eb503","ios":"levelo://app?vid=7a99acd3-9c77-47d4-b47b-a121e87eb503"},"vehicle_type_id":"4","last_reported":1747383282,"current_range_meters":18800,"station_id":"ce4bgkp2rcd13ifvqbmg","pricing_plan_id":"cebpf4jnsgd1na2vs0mg"},{"bike_id":"f22f0044-5500-4b5d-a379-9fdd5840e60c","system_id":"levelo_inurba_marseille","lat":43.31359,"lon":5.36692,"is_reserved":false,"is_disabled":false,"rental_uris":{"android":"levelo://app?vid=f22f0044-5500-4b5d-a379-9fdd5840e60c","ios":"levelo://app?vid=f22f0044-5500-4b5d-a379-9fdd5840e60c"},"vehicle_type_id":"4","last_reported":1747383282,"current_range_meters":18800,"station_id":"ce4bgr92rcd13ifvqc6g","pricing_plan_id":"cebpf4jnsgd1na2vs0mg"},{"bike_id":"d77e3d28-20ab-4945-bbeb-50b176d7e13e","system_id":"levelo_inurba_marseille","lat":43.30947,"lon":5.39048,"is_reserved":false,"is_disabled":false,"rental_uris":{"android":"levelo://app?vid=d77e3d28-20ab-4945-bbeb-50b176d7e13e","ios":"levelo://app?vid=d77e3d28-20ab-4945-bbeb-50b176d7e13e"},"vehicle_type_id":"4","last_reported":1747383282,"current_range_meters":18800,"station_id":"ce4bgup2rcd13ifvqco0","pricing_plan_id":"cebpf4jnsgd1na2vs0mg"},{"bike_id":"81ce395a-ca1c-43fa-b284-1ab7159452ff","system_id":"levelo_inurba_marseille","lat":43.25937,"lon":5.40906,"is_reserved":false,"is_disabled":false,"rental_uris":{"android":"levelo://app?vid=81ce395a-ca1c-43fa-b284-1ab7159452ff","ios":"levelo://app?vid=81ce395a-ca1c-43fa-b284-1ab7159452ff"},"vehicle_type_id":"4","last_reported":1747383282,"current_range_meters":18800,"station_id":"ce4bhm92rcd13ifvqglg","pricing_plan_id":"cebpf4jnsgd1na2vs0mg"},{"bike_id":"9b7ad114-f9b9-470b-8df9-e92decdb49ff","system_id":"levelo_inurba_marseille","lat":43.24167,"lon":5.36393,"is_reserved":false,"is_disabled":false,"rental_uris":{"android":"levelo://app?vid=9b7ad114-f9b9-470b-8df9-e92decdb49ff","ios":"levelo://app?vid=9b7ad114-f9b9-470b-8df9-e92decdb49ff"},"vehicle_type_id":"4","last_reported":1747383282,"current_range_meters":18800,"station_id":"cpo36qri1sfpv3e86is0","pricing_plan_id":"cebpf4jnsgd1na2vs0mg"},{"bike_id":"e782fc22-d184-462d-b318-a1459f1a259b","system_id":"levelo_inurba_marseille","lat":43.308917,"lon":5.371941,"is_reserved":false,"is_disabled":false,"rental_uris":{"android":"levelo://app?vid=e782fc22-d184-462d-b318-a1459f1a259b","ios":"levelo://app?vid=e782fc22-d184-462d-b318-a1459f1a259b"},"vehicle_type_id":"4","last_reported":1747383282,"current_range_meters":19200,"station_id":"ce4bguh2rcd13ifvqckg","pricing_plan_id":"cebpf4jnsgd1na2vs0mg"},{"bike_id":"027a5079-b6e7-4b17-bf99-7b89a8d2787c","system_id":"levelo_inurba_marseille","lat":43.3095,"lon":5.39029,"is_reserved":false,"is_disabled":false,"rental_uris":{"android":"levelo://app?vid=027a5079-b6e7-4b17-bf99-7b89a8d2787c","ios":"levelo://app?vid=027a5079-b6e7-4b17-bf99-7b89a8d2787c"},"vehicle_type_id":"4","last_reported":1747383282,"current_range_meters":19200,"station_id":"ce4bgup2rcd13ifvqco0","pricing_plan_id":"cebpf4jnsgd1na2vs0mg"},{"bike_id":"cb1d7e43-3f54-4ca4-b7bc-d2c867dfb02e","system_id":"levelo_inurba_marseille","lat":43.25018,"lon":5.38937,"is_reserved":false,"is_disabled":false,"rental_uris":{"android":"levelo://app?vid=cb1d7e43-3f54-4ca4-b7bc-d2c867dfb02e","ios":"levelo://app?vid=cb1d7e43-3f54-4ca4-b7bc-d2c867dfb02e"},"vehicle_type_id":"4","last_reported":1747383282,"current_range_meters":19200,"station_id":"ce4bhgp2rcd13ifvqfd0","pricing_plan_id":"cebpf4jnsgd1na2vs0mg"},{"bike_id":"04df6050-579e-4541-bc25-d4c6eae57064","system_id":"levelo_inurba_marseille","lat":43.267848,"lon":5.394135,"is_reserved":false,"is_disabled":false,"rental_uris":{"android":"levelo://app?vid=04df6050-579e-4541-bc25-d4c6eae57064","ios":"levelo://app?vid=04df6050-579e-4541-bc25-d4c6eae57064"},"vehicle_type_id":"4","last_reported":1747383282,"current_range_meters":19200,"station_id":"ce4bhh12rcd13ifvqfg0","pricing_plan_id":"cebpf4jnsgd1na2vs0mg"},{"bike_id":"036e8916-6407-486a-aad8-29dda7fd5bdc","system_id":"levelo_inurba_marseille","lat":43.29556,"lon":5.42292,"is_reserved":false,"is_disabled":false,"rental_uris":{"android":"levelo://app?vid=036e8916-6407-486a-aad8-29dda7fd5bdc","ios":"levelo://app?vid=036e8916-6407-486a-aad8-29dda7fd5bdc"},"vehicle_type_id":"4","last_reported":1747383282,"current_range_meters":19200,"station_id":"ce4bhph2rcd13ifvqhdg","pricing_plan_id":"cebpf4jnsgd1na2vs0mg"},{"bike_id":"59ea7871-10e0-492f-b997-e9d6c8445afa","system_id":"levelo_inurba_marseille","lat":43.304641,"lon":5.379101,"is_reserved":false,"is_disabled":false,"rental_uris":{"android":"levelo://app?vid=59ea7871-10e0-492f-b997-e9d6c8445afa","ios":"levelo://app?vid=59ea7871-10e0-492f-b997-e9d6c8445afa"},"vehicle_type_id":"4","last_reported":1747383282,"current_range_meters":19600,"station_id":"ce4bgup2rcd13ifvqcn0","pricing_plan_id":"cebpf4jnsgd1na2vs0mg"},{"bike_id":"729898cb-0991-4fd7-b56f-ac111f9e7cd5","system_id":"levelo_inurba_marseille","lat":43.27314,"lon":5.39079,"is_reserved":false,"is_disabled":false,"rental_uris":{"android":"levelo://app?vid=729898cb-0991-4fd7-b56f-ac111f9e7cd5","ios":"levelo://app?vid=729898cb-0991-4fd7-b56f-ac111f9e7cd5"},"vehicle_type_id":"4","last_reported":1747383282,"current_range_meters":19600,"station_id":"ce4bhgp2rcd13ifvqfe0","pricing_plan_id":"cebpf4jnsgd1na2vs0mg"},{"bike_id":"103460c1-aadb-4db5-b9d2-7029281e2264","system_id":"levelo_inurba_marseille","lat":43.25707,"lon":5.411,"is_reserved":false,"is_disabled":false,"rental_uris":{"android":"levelo://app?vid=103460c1-aadb-4db5-b9d2-7029281e2264","ios":"levelo://app?vid=103460c1-aadb-4db5-b9d2-7029281e2264"},"vehicle_type_id":"4","last_reported":1747383282,"current_range_meters":19600,"station_id":"ce4bhkp2rcd13ifvqgd0","pricing_plan_id":"cebpf4jnsgd1na2vs0mg"},{"bike_id":"f2e7d33a-2bdd-4009-b36d-c3c80d162a97","system_id":"levelo_inurba_marseille","lat":43.231497,"lon":5.43716,"is_reserved":false,"is_disabled":false,"rental_uris":{"android":"levelo://app?vid=f2e7d33a-2bdd-4009-b36d-c3c80d162a97","ios":"levelo://app?vid=f2e7d33a-2bdd-4009-b36d-c3c80d162a97"},"vehicle_type_id":"4","last_reported":1747383282,"current_range_meters":19600,"station_id":"ce4bhmp2rcd13ifvqgog","pricing_plan_id":"cebpf4jnsgd1na2vs0mg"},{"bike_id":"b49c46e4-b02a-4fb6-a939-e8eee6f4a650","system_id":"levelo_inurba_marseille","lat":43.241787,"lon":5.397312,"is_reserved":false,"is_disabled":false,"rental_uris":{"android":"levelo://app?vid=b49c46e4-b02a-4fb6-a939-e8eee6f4a650","ios":"levelo://app?vid=b49c46e4-b02a-4fb6-a939-e8eee6f4a650"},"vehicle_type_id":"4","last_reported":1747383282,"current_range_meters":19600,"station_id":"ce4bhn12rcd13ifvqgpg","pricing_plan_id":"cebpf4jnsgd1na2vs0mg"},{"bike_id":"38ce5e0c-09aa-4a00-a8c8-dd59c1bdb95e","system_id":"levelo_inurba_marseille","lat":43.32537,"lon":5.41425,"is_reserved":false,"is_disabled":false,"rental_uris":{"android":"levelo://app?vid=38ce5e0c-09aa-4a00-a8c8-dd59c1bdb95e","ios":"levelo://app?vid=38ce5e0c-09aa-4a00-a8c8-dd59c1bdb95e"},"vehicle_type_id":"4","last_reported":1747383282,"current_range_meters":19600,"station_id":"ce4bhq12rcd13ifvqhhg","pricing_plan_id":"cebpf4jnsgd1na2vs0mg"},{"bike_id":"46576045-65e8-4382-872d-0c67c8b2931a","system_id":"levelo_inurba_marseille","lat":43.24159,"lon":5.36392,"is_reserved":false,"is_disabled":false,"rental_uris":{"android":"levelo://app?vid=46576045-65e8-4382-872d-0c67c8b2931a","ios":"levelo://app?vid=46576045-65e8-4382-872d-0c67c8b2931a"},"vehicle_type_id":"4","last_reported":1747383282,"current_range_meters":19600,"station_id":"cpo36qri1sfpv3e86is0","pricing_plan_id":"cebpf4jnsgd1na2vs0mg"},{"bike_id":"edc72cea-d180-4ad0-ac15-174cb489800d","system_id":"levelo_inurba_marseille","lat":43.30465,"lon":5.379,"is_reserved":false,"is_disabled":false,"rental_uris":{"android":"levelo://app?vid=edc72cea-d180-4ad0-ac15-174cb489800d","ios":"levelo://app?vid=edc72cea-d180-4ad0-ac15-174cb489800d"},"vehicle_type_id":"4","last_reported":1747383282,"current_range_meters":20000,"station_id":"ce4bgup2rcd13ifvqcn0","pricing_plan_id":"cebpf4jnsgd1na2vs0mg"},{"bike_id":"8b880dbe-5c2a-42d5-a6bc-37f21a205781","system_id":"levelo_inurba_marseille","lat":43.29042,"lon":5.3996,"is_reserved":false,"is_disabled":false,"rental_uris":{"android":"levelo://app?vid=8b880dbe-5c2a-42d5-a6bc-37f21a205781","ios":"levelo://app?vid=8b880dbe-5c2a-42d5-a6bc-37f21a205781"},"vehicle_type_id":"4","last_reported":1747383282,"current_range_meters":20000,"station_id":"ce4bh392rcd13ifvqdm0","pricing_plan_id":"cebpf4jnsgd1na2vs0mg"},{"bike_id":"51daeae1-fe65-4c44-abcf-7fea3fda608d","system_id":"levelo_inurba_marseille","lat":43.28355,"lon":5.38109,"is_reserved":false,"is_disabled":false,"rental_uris":{"android":"levelo://app?vid=51daeae1-fe65-4c44-abcf-7fea3fda608d","ios":"levelo://app?vid=51daeae1-fe65-4c44-abcf-7fea3fda608d"},"vehicle_type_id":"4","last_reported":1747383282,"current_range_meters":20000,"station_id":"ce4bh412rcd13ifvqdr0","pricing_plan_id":"cebpf4jnsgd1na2vs0mg"},{"bike_id":"f88e40df-3372-4956-8b7f-2165fb44445a","system_id":"levelo_inurba_marseille","lat":43.2621,"lon":5.37443,"is_reserved":false,"is_disabled":false,"rental_uris":{"android":"levelo://app?vid=f88e40df-3372-4956-8b7f-2165fb44445a","ios":"levelo://app?vid=f88e40df-3372-4956-8b7f-2165fb44445a"},"vehicle_type_id":"4","last_reported":1747383282,"current_range_meters":20000,"station_id":"ce4bhgp2rcd13ifvqfc0","pricing_plan_id":"cebpf4jnsgd1na2vs0mg"},{"bike_id":"b9ae2f91-81dd-45a6-9a26-d76e1430a421","system_id":"levelo_inurba_marseille","lat":43.33603,"lon":5.41031,"is_reserved":false,"is_disabled":false,"rental_uris":{"android":"levelo://app?vid=b9ae2f91-81dd-45a6-9a26-d76e1430a421","ios":"levelo://app?vid=b9ae2f91-81dd-45a6-9a26-d76e1430a421"},"vehicle_type_id":"4","last_reported":1747383282,"current_range_meters":20000,"station_id":"ce4bhqh2rcd13ifvqhmg","pricing_plan_id":"cebpf4jnsgd1na2vs0mg"},{"bike_id":"512db903-9559-40c7-8902-6a98e3c8c53c","system_id":"levelo_inurba_marseille","lat":43.32926,"lon":5.38986,"is_reserved":false,"is_disabled":false,"rental_uris":{"android":"levelo://app?vid=512db903-9559-40c7-8902-6a98e3c8c53c","ios":"levelo://app?vid=512db903-9559-40c7-8902-6a98e3c8c53c"},"vehicle_type_id":"4","last_reported":1747383282,"current_range_meters":20400,"station_id":"","pricing_plan_id":"cebpf4jnsgd1na2vs0mg"},{"bike_id":"028c765a-9c3a-411e-8b55-8ebfe40be73f","system_id":"levelo_inurba_marseille","lat":43.30532,"lon":5.36698,"is_reserved":false,"is_disabled":false,"rental_uris":{"android":"levelo://app?vid=028c765a-9c3a-411e-8b55-8ebfe40be73f","ios":"levelo://app?vid=028c765a-9c3a-411e-8b55-8ebfe40be73f"},"vehicle_type_id":"4","last_reported":1747383282,"current_range_meters":20400,"station_id":"ce4bgrp2rcd13ifvqc9g","pricing_plan_id":"cebpf4jnsgd1na2vs0mg"},{"bike_id":"9d31e0cd-bcae-4bfe-a634-7c1fa1820081","system_id":"levelo_inurba_marseille","lat":43.30958,"lon":5.39055,"is_reserved":false,"is_disabled":false,"rental_uris":{"android":"levelo://app?vid=9d31e0cd-bcae-4bfe-a634-7c1fa1820081","ios":"levelo://app?vid=9d31e0cd-bcae-4bfe-a634-7c1fa1820081"},"vehicle_type_id":"4","last_reported":1747383282,"current_range_meters":20400,"station_id":"ce4bgup2rcd13ifvqco0","pricing_plan_id":"cebpf4jnsgd1na2vs0mg"},{"bike_id":"aa144835-f7f9-448f-b4d8-06cc0e94485c","system_id":"levelo_inurba_marseille","lat":43.28718,"lon":5.37949,"is_reserved":false,"is_disabled":false,"rental_uris":{"android":"levelo://app?vid=aa144835-f7f9-448f-b4d8-06cc0e94485c","ios":"levelo://app?vid=aa144835-f7f9-448f-b4d8-06cc0e94485c"},"vehicle_type_id":"4","last_reported":1747383282,"current_range_meters":20400,"station_id":"ce4bh9p2rcd13ifvqec0","pricing_plan_id":"cebpf4jnsgd1na2vs0mg"},{"bike_id":"f44d724a-d82c-4910-9bc4-4a0a05acf2f5","system_id":"levelo_inurba_marseille","lat":43.24074,"lon":5.37759,"is_reserved":false,"is_disabled":false,"rental_uris":{"android":"levelo://app?vid=f44d724a-d82c-4910-9bc4-4a0a05acf2f5","ios":"levelo://app?vid=f44d724a-d82c-4910-9bc4-4a0a05acf2f5"},"vehicle_type_id":"4","last_reported":1747383282,"current_range_meters":20400,"station_id":"ce4bhnp2rcd13ifvqgvg","pricing_plan_id":"cebpf4jnsgd1na2vs0mg"},{"bike_id":"538e8350-ef9b-485e-92f8-69ff2ea6ccb7","system_id":"levelo_inurba_marseille","lat":43.32033,"lon":5.41566,"is_reserved":false,"is_disabled":false,"rental_uris":{"android":"levelo://app?vid=538e8350-ef9b-485e-92f8-69ff2ea6ccb7","ios":"levelo://app?vid=538e8350-ef9b-485e-92f8-69ff2ea6ccb7"},"vehicle_type_id":"4","last_reported":1747383282,"current_range_meters":20400,"station_id":"ce4bhq92rcd13ifvqhkg","pricing_plan_id":"cebpf4jnsgd1na2vs0mg"},{"bike_id":"462b5739-db0c-4f45-ab29-842115c77cfe","system_id":"levelo_inurba_marseille","lat":43.28602,"lon":5.37077,"is_reserved":false,"is_disabled":false,"rental_uris":{"android":"levelo://app?vid=462b5739-db0c-4f45-ab29-842115c77cfe","ios":"levelo://app?vid=462b5739-db0c-4f45-ab29-842115c77cfe"},"vehicle_type_id":"4","last_reported":1747383282,"current_range_meters":20400,"station_id":"ce4bht12rcd13ifvqi60","pricing_plan_id":"cebpf4jnsgd1na2vs0mg"},{"bike_id":"df2c8137-0808-4df6-be39-0935b52b408c","system_id":"levelo_inurba_marseille","lat":43.30946,"lon":5.39041,"is_reserved":false,"is_disabled":false,"rental_uris":{"android":"levelo://app?vid=df2c8137-0808-4df6-be39-0935b52b408c","ios":"levelo://app?vid=df2c8137-0808-4df6-be39-0935b52b408c"},"vehicle_type_id":"4","last_reported":1747383282,"current_range_meters":20800,"station_id":"ce4bgup2rcd13ifvqco0","pricing_plan_id":"cebpf4jnsgd1na2vs0mg"},