{"last_updated":1770015329,"ttl":60,"version":"2.2","data":{"bikes":[{"bike_id":"a0ed992f-17ef-4506-a4ab-d07fd8f0eff4","system_id":"levelo_inurba_marseille","lat":43.2551,"lon":5.37648,"is_reserved":false,"is_disabled":false,"rental_uris":{"android":"levelo://app?vid=a0ed992f-17ef-4506-a4ab-d07fd8f0eff4","ios":"levelo://app?vid=a0ed992f-17ef-4506-a4ab-d07fd8f0eff4"},"vehicle_type_id":"4","last_reported":1770015330,"current_range_meters":1200,"station_id":"ce4bhh12rcd13ifvqff0","pricing_plan_id":"cebpf4jnsgd1na2vs0mg"},{"bike_id":"27ee7c2c-779a-4fe8-bbed-098223e005e6","system_id":"levelo_inurba_marseille","lat":43.2826,"lon":5.35098,"is_reserved":false,"is_disabled":false,"rental_uris":{"android":"levelo://app?vid=27ee7c2c-779a-4fe8-bbed-098223e005e6","ios":"levelo://app?vid=27ee7c2c-779a-4fe8-bbed-098223e005e6"},"vehicle_type_id":"4","last_reported":1770015330,"current_range_meters":2800,"station_id":"ce4bhbp2rcd13ifvqerg","pricing_plan_id":"cebpf4jnsgd1na2vs0mg"},{"bike_id":"d66e81b7-ece7-4d6a-a5ee-e851190eea31","system_id":"levelo_inurba_marseille","lat":43.287229,"lon":5.360894,"is_reserved":false,"is_disabled":false,"rental_uris":{"android":"levelo://app?vid=d66e81b7-ece7-4d6a-a5ee-e851190eea31","ios":"levelo://app?vid=d66e81b7-ece7-4d6a-a5ee-e851190eea31"},"vehicle_type_id":"4","last_reported":1770015330,"current_range_meters":2800,"station_id":"cki0cbj6b192h4jlfktg","pricing_plan_id":"cebpf4jnsgd1na2vs0mg"},{"bike_id":"c0aefe3c-480c-475c-8458-7f167f7fca54","system_id":"levelo_inurba_marseille","lat":43.27492,"lon":5.42456,"is_reserved":false,"is_disabled":false,"rental_uris":{"android":"levelo://app?vid=c0aefe3c-480c-475c-8458-7f167f7fca54","ios":"levelo://app?vid=c0aefe3c-480c-475c-8458-7f167f7fca54"},"vehicle_type_id":"4","last_reported":1770015330,"current_range_meters":2800,"station_id":"ce4bhn92rcd13ifvqgrg","pricing_plan_id":"cebpf4jnsgd1na2vs0mg"},{"bike_id":"ff6065a2-0e71-4d35-8eda-c24b991ceb70","system_id":"levelo_inurba_marseille","lat":43.273748,"lon":5.362597,"is_reserved":false,"is_disabled":false,"rental_uris":{"android":"levelo://app?vid=ff6065a2-0e71-4d35-8eda-c24b991ceb70","ios":"levelo://app?vid=ff6065a2-0e71-4d35-8eda-c24b991ceb70"},"vehicle_type_id":"4","last_reported":1770015330,"current_range_meters":2800,"station_id":"ce4bhbh2rcd13ifvqeo0","pricing_plan_id":"cebpf4jnsgd1na2vs0mg"},{"bike_id":"3ba7ff2b-aa75-4edd-a097-2a01468d04db","system_id":"levelo_inurba_marseille","lat":43.240888,"lon":5.377508,"is_reserved":false,"is_disabled":false,"rental_uris":{"android":"levelo://app?vid=3ba7ff2b-aa75-4edd-a097-2a01468d04db","ios":"levelo://app?vid=3ba7ff2b-aa75-4edd-a097-2a01468d04db"},"vehicle_type_id":"4","last_reported":1770015330,"current_range_meters":2800,"station_id":"ce4bhnp2rcd13ifvqgvg","pricing_plan_id":"cebpf4jnsgd1na2vs0mg"},{"bike_id":"847173ba-8a70-446b-a882-864c1eea0020","system_id":"levelo_inurba_marseille","lat":43.24072,"lon":5.37771,"is_reserved":false,"is_disabled":false,"rental_uris":{"android":"levelo://app?vid=847173ba-8a70-446b-a882-864c1eea0020","ios":"levelo://app?vid=847173ba-8a70-446b-a882-864c1eea0020"},"vehicle_type_id":"4","last_reported":1770015330,"current_range_meters":2800,"station_id":"ce4bhnp2rcd13ifvqgvg","pricing_plan_id":"cebpf4jnsgd1na2vs0mg"},{"bike_id":"b7fa2433-10c1-4dd8-931f-26b10f482782","system_id":"levelo_inurba_marseille","lat":43.30145,"lon":5.38093,"is_reserved":false,"is_disabled":false,"rental_uris":{"android":"levelo://app?vid=b7fa2433-10c1-4dd8-931f-26b10f482782","ios":"levelo://app?vid=b7fa2433-10c1-4dd8-931f-26b10f482782"},"vehicle_type_id":"4","last_reported":1770015330,"current_range_meters":2800,"station_id":"ce4bgjp2rcd13ifvqbh0","pricing_plan_id":"cebpf4jnsgd1na2vs0mg"},{"bike_id":"92da173c-fae0-447b-8c97-4ee11824cff1","system_id":"levelo_inurba_marseille","lat":43.27211,"lon":5.39193,"is_reserved":false,"is_disabled":false,"rental_uris":{"android":"levelo://app?vid=92da173c-fae0-447b-8c97-4ee11824cff1","ios":"levelo://app?vid=92da173c-fae0-447b-8c97-4ee11824cff1"},"vehicle_type_id":"4","last_reported":1770015330,"current_range_meters":2800,"station_id":"ce4bhhp2rcd13ifvqfm0","pricing_plan_id":"cebpf4jnsgd1na2vs0mg"},{"bike_id":"2618561d-cd06-4493-b916-9511a3eac222","system_id":"levelo_inurba_marseille","lat":43.27381,"lon":5.36263,"is_reserved":false,"is_disabled":false,"rental_uris":{"android":"levelo://app?vid=2618561d-cd06-4493-b916-9511a3eac222","ios":"levelo://app?vid=2618561d-cd06-4493-b916-9511a3eac222"},"vehicle_type_id":"4","last_reported":1770015330,"current_range_meters":2800,"station_id":"ce4bhbh2rcd13ifvqeo0","pricing_plan_id":"cebpf4jnsgd1na2vs0mg"},{"bike_id":"399c78cb-2b49-4d18-9b0a-80894e512b0d","system_id":"levelo_inurba_marseille","lat":43.26496,"lon":5.3954,"is_reserved":false,"is_disabled":false,"rental_uris":{"android":"levelo://app?vid=399c78cb-2b49-4d18-9b0a-80894e512b0d","ios":"levelo://app?vid=399c78cb-2b49-4d18-9b0a-80894e512b0d"},"vehicle_type_id":"4","last_reported":1770015330,"current_range_meters":2800,"station_id":"ce4bhi12rcd13ifvqfq0","pricing_plan_id":"cebpf4jnsgd1na2vs0mg"},{"bike_id":"70bb81d4-882e-430e-8b73-a07c8138465a","system_id":"levelo_inurba_marseille","lat":43.30464,"lon":5.37907,"is_reserved":false,"is_disabled":false,"rental_uris":{"android":"levelo://app?vid=70bb81d4-882e-430e-8b73-a07c8138465a","ios":"levelo://app?vid=70bb81d4-882e-430e-8b73-a07c8138465a"},"vehicle_type_id":"4","last_reported":1770015330,"current_range_meters":2800,"station_id":"ce4bgup2rcd13ifvqcn0","pricing_plan_id":"cebpf4jnsgd1na2vs0mg"},{"bike_id":"4b538e95-d67b-4c55-8519-1ec597c2ad3f","system_id":"levelo_inurba_marseille","lat":43.240694,"lon":5.37753,"is_reserved":false,"is_disabled":false,"rental_uris":{"android":"levelo://app?vid=4b538e95-d67b-4c55-8519-1ec597c2ad3f","ios":"levelo://app?vid=4b538e95-d67b-4c55-8519-1ec597c2ad3f"},"vehicle_type_id":"4","last_reported":1770015330,"current_range_meters":3200,"station_id":"ce4bhnp2rcd13ifvqgvg","pricing_plan_id":"cebpf4jnsgd1na2vs0mg"},{"bike_id":"8371357f-808b-433e-af93-6e412c9e7b60","system_id":"levelo_inurba_marseille","lat":43.29632,"lon":5.37723,"is_reserved":false,"is_disabled":false,"rental_uris":{"android":"levelo://app?vid=8371357f-808b-433e-af93-6e412c9e7b60","ios":"levelo://app?vid=8371357f-808b-433e-af93-6e412c9e7b60"},"vehicle_type_id":"4","last_reported":1770015330,"current_range_meters":3200,"station_id":"ce4bgi92rcd13ifvqb90","pricing_plan_id":"cebpf4jnsgd1na2vs0mg"},{"bike_id":"417f9fc9-dd46-4855-8e45-cd24c4a69f52","system_id":"levelo_inurba_marseille","lat":43.28942,"lon":5.39639,"is_reserved":false,"is_disabled":false,"rental_uris":{"android":"levelo://app?vid=417f9fc9-dd46-4855-8e45-cd24c4a69f52","ios":"levelo://app?vid=417f9fc9-dd46-4855-8e45-cd24c4a69f52"},"vehicle_type_id":"4","last_reported":1770015330,"current_range_meters":3200,"station_id":"ce4bh3h2rcd13ifvqdn0","pricing_plan_id":"cebpf4jnsgd1na2vs0mg"},{"bike_id":"258359e9-eabe-44de-ae17-2366e7f80992","system_id":"levelo_inurba_marseille","lat":43.30591,"lon":5.39356,"is_reserved":false,"is_disabled":false,"rental_uris":{"android":"levelo://app?vid=258359e9-eabe-44de-ae17-2366e7f80992","ios":"levelo://app?vid=258359e9-eabe-44de-ae17-2366e7f80992"},"vehicle_type_id":"4","last_reported":1770015330,"current_range_meters":3200,"station_id":"ce4bh0p2rcd13ifvqd80","pricing_plan_id":"cebpf4jnsgd1na2vs0mg"},{"bike_id":"e28cd813-c0f1-463d-a579-8998a87473dc","system_id":"levelo_inurba_marseille","lat":43.3126,"lon":5.4019,"is_reserved":false,"is_disabled":false,"rental_uris":{"android":"levelo://app?vid=e28cd813-c0f1-463d-a579-8998a87473dc","ios":"levelo://app?vid=e28cd813-c0f1-463d-a579-8998a87473dc"},"vehicle_type_id":"4","last_reported":1770015330,"current_range_meters":3200,"station_id":"ce4bh092rcd13ifvqd30","pricing_plan_id":"cebpf4jnsgd1na2vs0mg"},{"bike_id":"6e2e9e6b-9180-4489-adb4-62a40596f5aa","system_id":"levelo_inurba_marseille","lat":43.29237,"lon":5.40922,"is_reserved":false,"is_disabled":false,"rental_uris":{"android":"levelo://app?vid=6e2e9e6b-9180-4489-adb4-62a40596f5aa","ios":"levelo://app?vid=6e2e9e6b-9180-4489-adb4-62a40596f5aa"},"vehicle_type_id":"4","last_reported":1770015330,"current_range_meters":3200,"station_id":"ce4bh192rcd13ifvqdc0","pricing_plan_id":"cebpf4jnsgd1na2vs0mg"},{"bike_id":"5c1f8fcd-07ad-4424-81b9-743837db6f9c","system_id":"levelo_inurba_marseille","lat":43.30128,"lon":5.39873,"is_reserved":false,"is_disabled":false,"rental_uris":{"android":"levelo://app?vid=5c1f8fcd-07ad-4424-81b9-743837db6f9c","ios":"levelo://app?vid=5c1f8fcd-07ad-4424-81b9-743837db6f9c"},"vehicle_type_id":"4","last_reported":1770015330,"current_range_meters":3200,"station_id":"ce4bh0h2rcd13ifvqd40","pricing_plan_id":"cebpf4jnsgd1na2vs0mg"},{"bike_id":"6683b936-5f74-4236-9c71-81c279f26420","system_id":"levelo_inurba_marseille","lat":43.25512,"lon":5.376518,"is_reserved":false,"is_disabled":false,"rental_uris":{"android":"levelo://app?vid=6683b936-5f74-4236-9c71-81c279f26420","ios":"levelo://app?vid=6683b936-5f74-4236-9c71-81c279f26420"},"vehicle_type_id":"4","last_reported":1770015330,"current_range_meters":3200,"station_id":"ce4bhh12rcd13ifvqff0","pricing_plan_id":"cebpf4jnsgd1na2vs0mg"},{"bike_id":"ecdd52fd-98df-4ed8-9b9f-16db4fdb1985","system_id":"levelo_inurba_marseille","lat":43.24083,"lon":5.37764,"is_reserved":false,"is_disabled":false,"rental_uris":{"android":"levelo://app?vid=ecdd52fd-98df-4ed8-9b9f-16db4fdb1985","ios":"levelo://app?vid=ecdd52fd-98df-4ed8-9b9f-16db4fdb1985"},"vehicle_type_id":"4","last_reported":1770015330,"current_range_meters":3600,"station_id":"ce4bhnp2rcd13ifvqgvg","pricing_plan_id":"cebpf4jnsgd1na2vs0mg"},{"bike_id":"532f9abd-2211-4ff1-9741-ecbbd0260fa2","system_id":"levelo_inurba_marseille","lat":43.2904,"lon":5.3996,"is_reserved":false,"is_disabled":false,"rental_uris":{"android":"levelo://app?vid=532f9abd-2211-4ff1-9741-ecbbd0260fa2","ios":"levelo://app?vid=532f9abd-2211-4ff1-9741-ecbbd0260fa2"},"vehicle_type_id":"4","last_reported":1770015330,"current_range_meters":3600,"station_id":"ce4bh392rcd13ifvqdm0","pricing_plan_id":"cebpf4jnsgd1na2vs0mg"},{"bike_id":"ddcbae43-31a1-4a2a-a439-401aedcebd53","system_id":"levelo_inurba_marseille","lat":43.28459,"lon":5.35889,"is_reserved":false,"is_disabled":false,"rental_uris":{"android":"levelo://app?vid=ddcbae43-31a1-4a2a-a439-401aedcebd53","ios":"levelo://app?vid=ddcbae43-31a1-4a2a-a439-401aedcebd53"},"vehicle_type_id":"4","last_reported":1770015330,"current_range_meters":3600,"station_id":"ce4bhah2rcd13ifvqei0","pricing_plan_id":"cebpf4jnsgd1na2vs0mg"},{"bike_id":"93e60425-8aae-4f4b-b447-57ef8147db67","system_id":"levelo_inurba_marseille","lat":43.284824,"lon":5.484001,"is_reserved":false,"is_disabled":false,"rental_uris":{"android":"levelo://app?vid=93e60425-8aae-4f4b-b447-57ef8147db67","ios":"levelo://app?vid=93e60425-8aae-4f4b-b447-57ef8147db67"},"vehicle_type_id":"4","last_reported":1770015330,"current_range_meters":3600,"station_id":"","pricing_plan_id":"cebpf4jnsgd1na2vs0mg"},{"bike_id":"1b262235-a4c8-42b2-9b62-c37b9e14300f","system_id":"levelo_inurba_marseille","lat":43.278043,"lon":5.407297,"is_reserved":false,"is_disabled":false,"rental_uris":{"android":"levelo://app?vid=1b262235-a4c8-42b2-9b62-c37b9e14300f","ios":"levelo://app?vid=1b262235-a4c8-42b2-9b62-c37b9e14300f"},"vehicle_type_id":"4","last_reported":1770015330,"current_range_meters":3600,"station_id":"ce4bhnh2rcd13ifvqgtg","pricing_plan_id":"cebpf4jnsgd1na2vs0mg"},{"bike_id":"26bd2557-3046-4212-82fc-da1fdbd42b2c","system_id":"levelo_inurba_marseille","lat":43.28525,"lon":5.44092,"is_reserved":false,"is_disabled":false,"rental_uris":{"android":"levelo://app?vid=26bd2557-3046-4212-82fc-da1fdbd42b2c","ios":"levelo://app?vid=26bd2557-3046-4212-82fc-da1fdbd42b2c"},"vehicle_type_id":"4","last_reported":1770015330,"current_range_meters":3600,"station_id":"st_d3j3df2ikq2c7380ej80","pricing_plan_id":"cebpf4jnsgd1na2vs0mg"},{"bike_id":"e19dcbee-55f5-4a14-8d7c-7f5193d4d389","system_id":"levelo_inurba_marseille","lat":43.27944,"lon":5.41058,"is_reserved":false,"is_disabled":false,"rental_uris":{"android":"levelo://app?vid=e19dcbee-55f5-4a14-8d7c-7f5193d4d389","ios":"levelo://app?vid=e19dcbee-55f5-4a14-8d7c-7f5193d4d389"},"vehicle_type_id":"4","last_reported":1770015330,"current_range_meters":3600,"station_id":"ce4bhnp2rcd13ifvqh0g","pricing_plan_id":"cebpf4jnsgd1na2vs0mg"},{"bike_id":"f8a0ae1c-a37d-4006-8541-a752d1a3cea9","system_id":"levelo_inurba_marseille","lat":43.29648,"lon":5.40158,"is_reserved":false,"is_disabled":false,"rental_uris":{"android":"levelo://app?vid=f8a0ae1c-a37d-4006-8541-a752d1a3cea9","ios":"levelo://app?vid=f8a0ae1c-a37d-4006-8541-a752d1a3cea9"},"vehicle_type_id":"4","last_reported":1770015330,"current_range_meters":3600,"station_id":"","pricing_plan_id":"cebpf4jnsgd1na2vs0mg"},{"bike_id":"0b331fa1-be61-4ee4-8f48-817f3b90db42","system_id":"levelo_inurba_marseille","lat":43.28702,"lon":5.35563,"is_reserved":false,"is_disabled":false,"rental_uris":{"android":"levelo://app?vid=0b331fa1-be61-4ee4-8f48-817f3b90db42","ios":"levelo://app?vid=0b331fa1-be61-4ee4-8f48-817f3b90db42"},"vehicle_type_id":"4","last_reported":1770015330,"current_range_meters":3600,"station_id":"","pricing_plan_id":"cebpf4jnsgd1na2vs0mg"},{"bike_id":"c16bbffc-3f7b-4299-aa6c-4c3611fa54d9","system_id":"levelo_inurba_marseille","lat":43.28435,"lon":5.39057,"is_reserved":false,"is_disabled":true,"rental_uris":{"android":"levelo://app?vid=c16bbffc-3f7b-4299-aa6c-4c3611fa54d9","ios":"levelo://app?vid=c16bbffc-3f7b-4299-aa6c-4c3611fa54d9"},"vehicle_type_id":"4","last_reported":1770015330,"current_range_meters":4000,"station_id":"","pricing_plan_id":"cebpf4jnsgd1na2vs0mg"},{"bike_id":"3f016251-f617-46a2-8e71-d5c73095e4c4","system_id":"levelo_inurba_marseille","lat":43.28981,"lon":5.3559,"is_reserved":false,"is_disabled":true,"rental_uris":{"android":"levelo://app?vid=3f016251-f617-46a2-8e71-d5c73095e4c4","ios":"levelo://app?vid=3f016251-f617-46a2-8e71-d5c73095e4c4"},"vehicle_type_id":"4","last_reported":1770015330,"current_range_meters":4000,"station_id":"ce4bhb92rcd13ifvqen0","pricing_plan_id":"cebpf4jnsgd1na2vs0mg"},{"bike_id":"5e1c4385-fefc-40d8-9043-9539df7efdd8","system_id":"levelo_inurba_marseille","lat":43.337444,"lon":5.374475,"is_reserved":false,"is_disabled":false,"rental_uris":{"android":"levelo://app?vid=5e1c4385-fefc-40d8-9043-9539df7efdd8","ios":"levelo://app?vid=5e1c4385-fefc-40d8-9043-9539df7efdd8"},"vehicle_type_id":"4","last_reported":1770015330,"current_range_meters":4000,"station_id":"ce4bhbp2rcd13ifvqesg","pricing_plan_id":"cebpf4jnsgd1na2vs0mg"},{"bike_id":"ba1d96b0-32b8-465c-8cae-95618aefc0ee","system_id":"levelo_inurba_marseille","lat":43.28922,"lon":5.38407,"is_reserved":false,"is_disabled":true,"rental_uris":{"android":"levelo://app?vid=ba1d96b0-32b8-465c-8cae-95618aefc0ee","ios":"levelo://app?vid=ba1d96b0-32b8-465c-8cae-95618aefc0ee"},"vehicle_type_id":"4","last_reported":1770015330,"current_range_meters":4000,"station_id":"ce4bh612rcd13ifvqe6g","pricing_plan_id":"cebpf4jnsgd1na2vs0mg"},{"bike_id":"7e738f52-a44f-4256-a8de-becf4f90b47d","system_id":"levelo_inurba_marseille","lat":43.27973,"lon":5.38744,"is_reserved":false,"is_disabled":false,"rental_uris":{"android":"levelo://app?vid=7e738f52-a44f-4256-a8de-becf4f90b47d","ios":"levelo://app?vid=7e738f52-a44f-4256-a8de-becf4f90b47d"},"vehicle_type_id":"4","last_reported":1770015330,"current_range_meters":4000,"station_id":"ce4bhg12rcd13ifvqf80","pricing_plan_id":"cebpf4jnsgd1na2vs0mg"},{"bike_id":"767dc731-f365-45e9-b7a0-0144ed9ff9a5","system_id":"levelo_inurba_marseille","lat":43.31272,"lon":5.36863,"is_reserved":false,"is_disabled":false,"rental_uris":{"android":"levelo://app?vid=767dc731-f365-45e9-b7a0-0144ed9ff9a5","ios":"levelo://app?vid=767dc731-f365-45e9-b7a0-0144ed9ff9a5"},"vehicle_type_id":"4","last_reported":1770015330,"current_range_meters":4000,"station_id":"","pricing_plan_id":"cebpf4jnsgd1na2vs0mg"},{"bike_id":"74ac2feb-a7ae-41ed-97e6-16a7d353da55","system_id":"levelo_inurba_marseille","lat":43.248087,"lon":5.374597,"is_reserved":false,"is_disabled":true,"rental_uris":{"android":"levelo://app?vid=74ac2feb-a7ae-41ed-97e6-16a7d353da55","ios":"levelo://app?vid=74ac2feb-a7ae-41ed-97e6-16a7d353da55"},"vehicle_type_id":"4","last_reported":1770015330,"current_range_meters":4000,"station_id":"ce4bhgh2rcd13ifvqfb0","pricing_plan_id":"cebpf4jnsgd1na2vs0mg"},{"bike_id":"92c39e43-0cd4-4171-abec-21e14bf07368","system_id":"levelo_inurba_marseille","lat":43.2558,"lon":5.38231,"is_reserved":false,"is_disabled":false,"rental_uris":{"android":"levelo://app?vid=92c39e43-0cd4-4171-abec-21e14bf07368","ios":"levelo://app?vid=92c39e43-0cd4-4171-abec-21e14bf07368"},"vehicle_type_id":"4","last_reported":1770015330,"current_range_meters":4000,"station_id":"ce4bhih2rcd13ifvqfs0","pricing_plan_id":"cebpf4jnsgd1na2vs0mg"},{"bike_id":"0b595329-88a5-4dab-8a2c-b70bbda22e84","system_id":"levelo_inurba_marseille","lat":43.27972,"lon":5.41029,"is_reserved":false,"is_disabled":false,"rental_uris":{"android":"levelo://app?vid=0b595329-88a5-4dab-8a2c-b70bbda22e84","ios":"levelo://app?vid=0b595329-88a5-4dab-8a2c-b70bbda22e84"},"vehicle_type_id":"4","last_reported":1770015330,"current_range_meters":4000,"station_id":"ce4bhnp2rcd13ifvqh0g","pricing_plan_id":"cebpf4jnsgd1na2vs0mg"},{"bike_id":"b9c62605-4917-4e0a-8a0a-428712ec26e1","system_id":"levelo_inurba_marseille","lat":43.28481,"lon":5.38427,"is_reserved":false,"is_disabled":false,"rental_uris":{"android":"levelo://app?vid=b9c62605-4917-4e0a-8a0a-428712ec26e1","ios":"levelo://app?vid=b9c62605-4917-4e0a-8a0a-428712ec26e1"},"vehicle_type_id":"4","last_reported":1770015330,"current_range_meters":4000,"station_id":"ce4bh512rcd13ifvqe3g","pricing_plan_id":"cebpf4jnsgd1na2vs0mg"},{"bike_id":"e8fa66cc-805c-4ac6-8036-6b85aaeb4d1e","system_id":"levelo_inurba_marseille","lat":43.29841,"lon":5.37602,"is_reserved":false,"is_disabled":false,"rental_uris":{"android":"levelo://app?vid=e8fa66cc-805c-4ac6-8036-6b85aaeb4d1e","ios":"levelo://app?vid=e8fa66cc-805c-4ac6-8036-6b85aaeb4d1e"},"vehicle_type_id":"4","last_reported":1770015330,"current_range_meters":4000,"station_id":"","pricing_plan_id":"cebpf4jnsgd1na2vs0mg"},{"bike_id":"e5b9c854-52bd-4571-9d09-3836aec2957e","system_id":"levelo_inurba_marseille","lat":43.24176,"lon":5.3642,"is_reserved":false,"is_disabled":false,"rental_uris":{"android":"levelo://app?vid=e5b9c854-52bd-4571-9d09-3836aec2957e","ios":"levelo://app?vid=e5b9c854-52bd-4571-9d09-3836aec2957e"},"vehicle_type_id":"4","last_reported":1770015330,"current_range_meters":4000,"station_id":"cpo36qri1sfpv3e86is0","pricing_plan_id":"cebpf4jnsgd1na2vs0mg"},{"bike_id":"e3e986c3-0db0-40fd-a1a5-f07ce5425792","system_id":"levelo_inurba_marseille","lat":43.27336,"lon":5.39106,"is_reserved":false,"is_disabled":true,"rental_uris":{"android":"levelo://app?vid=e3e986c3-0db0-40fd-a1a5-f07ce5425792","ios":"levelo://app?vid=e3e986c3-0db0-40fd-a1a5-f07ce5425792"},"vehicle_type_id":"4","last_reported":1770015330,"current_range_meters":4000,"station_id":"ce4bhgp2rcd13ifvqfe0","pricing_plan_id":"cebpf4jnsgd1na2vs0mg"},{"bike_id":"6f8455de-cdcb-4115-8f9f-1a1c57d7cc8a","system_id":"levelo_inurba_marseille","lat":43.24995,"lon":5.38919,"is_reserved":false,"is_disabled":false,"rental_uris":{"android":"levelo://app?vid=6f8455de-cdcb-4115-8f9f-1a1c57d7cc8a","ios":"levelo://app?vid=6f8455de-cdcb-4115-8f9f-1a1c57d7cc8a"},"vehicle_type_id":"4","last_reported":1770015330,"current_range_meters":4400,"station_id":"ce4bhgp2rcd13ifvqfd0","pricing_plan_id":"cebpf4jnsgd1na2vs0mg"},{"bike_id":"dc68db14-c906-4c81-af24-38ade0c0fe18","system_id":"levelo_inurba_marseille","lat":43.22555,"lon":5.41622,"is_reserved":false,"is_disabled":false,"rental_uris":{"android":"levelo://app?vid=dc68db14-c906-4c81-af24-38ade0c0fe18","ios":"levelo://app?vid=dc68db14-c906-4c81-af24-38ade0c0fe18"},"vehicle_type_id":"4","last_reported":1770015330,"current_range_meters":4400,"station_id":"st_d2o4gvlbi1j2169b742g","pricing_plan_id":"cebpf4jnsgd1na2vs0mg"},{"bike_id":"55821144-4cea-4c88-a4ef-ac2c18f1fa0e","system_id":"levelo_inurba_marseille","lat":43.24063,"lon":5.37768,"is_reserved":false,"is_disabled":false,"rental_uris":{"android":"levelo://app?vid=55821144-4cea-4c88-a4ef-ac2c18f1fa0e","ios":"levelo://app?vid=55821144-4cea-4c88-a4ef-ac2c18f1fa0e"},"vehicle_type_id":"4","last_reported":1770015330,"current_range_meters":4400,"station_id":"ce4bhnp2rcd13ifvqgvg","pricing_plan_id":"cebpf4jnsgd1na2vs0mg"},{"bike_id":"d0ee8c38-72c8-4a11-9f6a-de79eceead1a","system_id":"levelo_inurba_marseille","lat":43.231478,"lon":5.437118,"is_reserved":false,"is_disabled":false,"rental_uris":{"android":"levelo://app?vid=d0ee8c38-72c8-4a11-9f6a-de79eceead1a","ios":"levelo://app?vid=d0ee8c38-72c8-4a11-9f6a-de79eceead1a"},"vehicle_type_id":"4","last_reported":1770015330,"current_range_meters":4400,"station_id":"ce4bhmp2rcd13ifvqgog","pricing_plan_id":"cebpf4jnsgd1na2vs0mg"},{"bike_id":"9e8fb56d-e4f6-4dc8-8711-28c17639d85d","system_id":"levelo_inurba_marseille","lat":43.26215,"lon":5.3744,"is_reserved":false,"is_disabled":false,"rental_uris":{"android":"levelo://app?vid=9e8fb56d-e4f6-4dc8-8711-28c17639d85d","ios":"levelo://app?vid=9e8fb56d-e4f6-4dc8-8711-28c17639d85d"},"vehicle_type_id":"4","last_reported":1770015330,"current_range_meters":4400,"station_id":"ce4bhgp2rcd13ifvqfc0","pricing_plan_id":"cebpf4jnsgd1na2vs0mg"},{"bike_id":"b00753f6-9e43-40ef-9959-628446071746","system_id":"levelo_inurba_marseille","lat":43.278153,"lon":5.407218,"is_reserved":false,"is_disabled":true,"rental_uris":{"android":"levelo://app?vid=b00753f6-9e43-40ef-9959-628446071746","ios":"levelo://app?vid=b00753f6-9e43-40ef-9959-628446071746"},"vehicle_type_id":"4","last_reported":1770015330,"current_range_meters":4400,"station_id":"ce4bhnh2rcd13ifvqgtg","pricing_plan_id":"cebpf4jnsgd1na2vs0mg"},{"bike_id":"0e62852b-4d6a-4dbc-9366-84917867ed9b","system_id":"levelo_inurba_marseille","lat":43.30798,"lon":5.38167,"is_reserved":false,"is_disabled":false,"rental_uris":{"android":"levelo://app?vid=0e62852b-4d6a-4dbc-9366-84917867ed9b","ios":"levelo://app?vid=0e62852b-4d6a-4dbc-9366-84917867ed9b"},"vehicle_type_id":"4","last_reported":1770015330,"current_range_meters":4400,"station_id":"ce4bgt12rcd13ifvqce0","pricing_plan_id":"cebpf4jnsgd1na2vs0mg"},{"bike_id":"e02d6af8-4c72-4cd0-bb53-2529ab0415c1","system_id":"levelo_inurba_marseille","lat":43.2658,"lon":5.39007,"is_reserved":false,"is_disabled":false,"rental_uris":{"android":"levelo://app?vid=e02d6af8-4c72-4cd0-bb53-2529ab0415c1","ios":"levelo://app?vid=e02d6af8-4c72-4cd0-bb53-2529ab0415c1"},"vehicle_type_id":"4","last_reported":1770015330,"current_range_meters":4400,"station_id":"ce4bhe12rcd13ifvqf30","pricing_plan_id":"cebpf4jnsgd1na2vs0mg"},{"bike_id":"7daac408-4780-43dd-9cc8-945818f4b564","system_id":"levelo_inurba_marseille","lat":43.29489,"lon":5.43311,"is_reserved":false,"is_disabled":false,"rental_uris":{"android":"levelo://app?vid=7daac408-4780-43dd-9cc8-945818f4b564","ios":"levelo://app?vid=7daac408-4780-43dd-9cc8-945818f4b564"},"vehicle_type_id":"4","last_reported":1770015330,"current_range_meters":4400,"station_id":"st_d3j5ugp08ojc73fj9d10","pricing_plan_id":"cebpf4jnsgd1na2vs0mg"},{"bike_id":"5b4c0c7a-c0c9-4273-96c2-faded5f9cc26","system_id":"levelo_inurba_marseille","lat":43.27989,"lon":5.41039,"is_reserved":false,"is_disabled":false,"rental_uris":{"android":"levelo://app?vid=5b4c0c7a-c0c9-4273-96c2-faded5f9cc26","ios":"levelo://app?vid=5b4c0c7a-c0c9-4273-96c2-faded5f9cc26"},"vehicle_type_id":"4","last_reported":1770015330,"current_range_meters":4800,"station_id":"ce4bhnp2rcd13ifvqh0g","pricing_plan_id":"cebpf4jnsgd1na2vs0mg"},{"bike_id":"1c1f8539-b1ae-43f7-94e2-f9ba91100b64","system_id":"levelo_inurba_marseille","lat":43.3164,"lon":5.37738,"is_reserved":false,"is_disabled":false,"rental_uris":{"android":"levelo://app?vid=1c1f8539-b1ae-43f7-94e2-f9ba91100b64","ios":"levelo://app?vid=1c1f8539-b1ae-43f7-94e2-f9ba91100b64"},"vehicle_type_id":"4","last_reported":1770015330,"current_range_meters":4800,"station_id":"","pricing_plan_id":"cebpf4jnsgd1na2vs0mg"},{"bike_id":"22f78ece-9f1c-40a4-8d3f-df50ff4521a8","system_id":"levelo_inurba_marseille","lat":43.2656,"lon":5.39014,"is_reserved":false,"is_disabled":false,"rental_uris":{"android":"levelo://app?vid=22f78ece-9f1c-40a4-8d3f-df50ff4521a8","ios":"levelo://app?vid=22f78ece-9f1c-40a4-8d3f-df50ff4521a8"},"vehicle_type_id":"4","last_reported":1770015330,"current_range_meters":4800,"station_id":"ce4bhe12rcd13ifvqf30","pricing_plan_id":"cebpf4jnsgd1na2vs0mg"},{"bike_id":"54e0ff64-435b-46c4-97df-663dd90037bc","system_id":"levelo_inurba_marseille","lat":43.24073,"lon":5.37757,"is_reserved":false,"is_disabled":false,"rental_uris":{"android":"levelo://app?vid=54e0ff64-435b-46c4-97df-663dd90037bc","ios":"levelo://app?vid=54e0ff64-435b-46c4-97df-663dd90037bc"},"vehicle_type_id":"4","last_reported":1770015330,"current_range_meters":4800,"station_id":"ce4bhnp2rcd13ifvqgvg","pricing_plan_id":"cebpf4jnsgd1na2vs0mg"},{"bike_id":"e1b9d24f-2421-486f-a00c-01e9adfdba49","system_id":"levelo_inurba_marseille","lat":43.23197,"lon":5.39982,"is_reserved":false,"is_disabled":false,"rental_uris":{"android":"levelo://app?vid=e1b9d24f-2421-486f-a00c-01e9adfdba49","ios":"levelo://app?vid=e1b9d24f-2421-486f-a00c-01e9adfdba49"},"vehicle_type_id":"4","last_reported":1770015330,"current_range_meters":4800,"station_id":"ce4bhn12rcd13ifvqgqg","pricing_plan_id":"cebpf4jnsgd1na2vs0mg"},{"bike_id":"c4dd406a-0f22-49da-9241-6e2276681cf8","system_id":"levelo_inurba_marseille","lat":43.30932,"lon":5.40145,"is_reserved":false,"is_disabled":false,"rental_uris":{"android":"levelo://app?vid=c4dd406a-0f22-49da-9241-6e2276681cf8","ios":"levelo://app?vid=c4dd406a-0f22-49da-9241-6e2276681cf8"},"vehicle_type_id":"4","last_reported":1770015330,"current_range_meters":5600,"station_id":"ce4bgvp2rcd13ifvqct0","pricing_plan_id":"cebpf4jnsgd1na2vs0mg"},{"bike_id":"4f5d5401-a251-4bec-a1d9-6a46b0771284","system_id":"levelo_inurba_marseille","lat":43.29276,"lon":5.37163,"is_reserved":false,"is_disabled":false,"rental_uris":{"android":"levelo://app?vid=4f5d5401-a251-4bec-a1d9-6a46b0771284","ios":"levelo://app?vid=4f5d5401-a251-4bec-a1d9-6a46b0771284"},"vehicle_type_id":"4","last_reported":1770015330,"current_range_meters":5600,"station_id":"ce4bgh92rcd13ifvqb40","pricing_plan_id":"cebpf4jnsgd1na2vs0mg"},{"bike_id":"09e8f712-2d3f-42c3-8273-19bbaf32447d","system_id":"levelo_inurba_marseille","lat":43.265695,"lon":5.403281,"is_reserved":false,"is_disabled":true,"rental_uris":{"android":"levelo://app?vid=09e8f712-2d3f-42c3-8273-19bbaf32447d","ios":"levelo://app?vid=09e8f712-2d3f-42c3-8273-19bbaf32447d"},"vehicle_type_id":"4","last_reported":1770015330,"current_range_meters":5600,"station_id":"ce4bhmp2rcd13ifvqgng","pricing_plan_id":"cebpf4jnsgd1na2vs0mg"},{"bike_id":"c9f48c9b-8a34-442c-b519-55185a953e4a","system_id":"levelo_inurba_marseille","lat":43.29022,"lon":5.37566,"is_reserved":false,"is_disabled":false,"rental_uris":{"android":"levelo://app?vid=c9f48c9b-8a34-442c-b519-55185a953e4a","ios":"levelo://app?vid=c9f48c9b-8a34-442c-b519-55185a953e4a"},"vehicle_type_id":"4","last_reported":1770015330,"current_range_meters":5600,"station_id":"ce4bh692rcd13ifvqe90","pricing_plan_id":"cebpf4jnsgd1na2vs0mg"},{"bike_id":"e1d85e8f-816e-43e5-832f-fa3bb6c7d9fd","system_id":"levelo_inurba_marseille","lat":43.29787,"lon":5.44072,"is_reserved":false,"is_disabled":false,"rental_uris":{"android":"levelo://app?vid=e1d85e8f-816e-43e5-832f-fa3bb6c7d9fd","ios":"levelo://app?vid=e1d85e8f-816e-43e5-832f-fa3bb6c7d9fd"},"vehicle_type_id":"4","last_reported":1770015330,"current_range_meters":5600,"station_id":"st_d3jp68qikq2c7381ktn0","pricing_plan_id":"cebpf4jnsgd1na2vs0mg"},{"bike_id":"d02a39b5-b9e6-42c0-89cf-ec41b03ef41c","system_id":"levelo_inurba_marseille","lat":43.27377,"lon":5.36259,"is_reserved":false,"is_disabled":false,"rental_uris":{"android":"levelo://app?vid=d02a39b5-b9e6-42c0-89cf-ec41b03ef41c","ios":"levelo://app?vid=d02a39b5-b9e6-42c0-89cf-ec41b03ef41c"},"vehicle_type_id":"4","last_reported":1770015330,"current_range_meters":5600,"station_id":"ce4bhbh2rcd13ifvqeo0","pricing_plan_id":"cebpf4jnsgd1na2vs0mg"},{"bike_id":"282b4c58-6430-4481-adf2-6fc926d2a7c4","system_id":"levelo_inurba_marseille","lat":43.231905,"lon":5.355561,"is_reserved":false,"is_disabled":false,"rental_uris":{"android":"levelo://app?vid=282b4c58-6430-4481-adf2-6fc926d2a7c4","ios":"levelo://app?vid=282b4c58-6430-4481-adf2-6fc926d2a7c4"},"vehicle_type_id":"4","last_reported":1770015330,"current_range_meters":5600,"station_id":"ce4bhu92rcd13ifvqi70","pricing_plan_id":"cebpf4jnsgd1na2vs0mg"},{"bike_id":"bafe06f4-691a-42ad-b544-2647048d76df","system_id":"levelo_inurba_marseille","lat":43.23029,"lon":5.35501,"is_reserved":false,"is_disabled":false,"rental_uris":{"android":"levelo://app?vid=bafe06f4-691a-42ad-b544-2647048d76df","ios":"levelo://app?vid=bafe06f4-691a-42ad-b544-2647048d76df"},"vehicle_type_id":"4","last_reported":1770015330,"current_range_meters":5600,"station_id":"cpo3342slgdg3j2ifvpg","pricing_plan_id":"cebpf4jnsgd1na2vs0mg"},{"bike_id":"064b8bc8-52f1-41a1-98a8-692ee47c9995","system_id":"levelo_inurba_marseille","lat":43.21748,"lon":5.34603,"is_reserved":false,"is_disabled":true,"rental_uris":{"android":"levelo://app?vid=064b8bc8-52f1-41a1-98a8-692ee47c9995","ios":"levelo://app?vid=064b8bc8-52f1-41a1-98a8-692ee47c9995"},"vehicle_type_id":"4","last_reported":1770015330,"current_range_meters":5600,"station_id":"","pricing_plan_id":"cebpf4jnsgd1na2vs0mg"},{"bike_id":"669cbfea-a557-4cea-af48-034865d30cc0","system_id":"levelo_inurba_marseille","lat":43.25343,"lon":5.42181,"is_reserved":false,"is_disabled":true,"rental_uris":{"android":"levelo://app?vid=669cbfea-a557-4cea-af48-034865d30cc0","ios":"levelo://app?vid=669cbfea-a557-4cea-af48-034865d30cc0"},"vehicle_type_id":"4","last_reported":1770015330,"current_range_meters":5600,"station_id":"st_d2m65c5bi1j21697t3ng","pricing_plan_id":"cebpf4jnsgd1na2vs0mg"},{"bike_id":"7970d976-2682-4564-950f-3adb9c5ba56b","system_id":"levelo_inurba_marseille","lat":43.28338,"lon":5.38098,"is_reserved":false,"is_disabled":false,"rental_uris":{"android":"levelo://app?vid=7970d976-2682-4564-950f-3adb9c5ba56b","ios":"levelo://app?vid=7970d976-2682-4564-950f-3adb9c5ba56b"},"vehicle_type_id":"4","last_reported":1770015330,"current_range_meters":5600,"station_id":"ce4bh412rcd13ifvqdr0","pricing_plan_id":"cebpf4jnsgd1na2vs0mg"},{"bike_id":"54c286f5-e08e-4d6c-9f6b-af80fd627709","system_id":"levelo_inurba_marseille","lat":43.29019,"lon":5.38652,"is_reserved":false,"is_disabled":false,"rental_uris":{"android":"levelo://app?vid=54c286f5-e08e-4d6c-9f6b-af80fd627709","ios":"levelo://app?vid=54c286f5-e08e-4d6c-9f6b-af80fd627709"},"vehicle_type_id":"4","last_reported":1770015330,"current_range_meters":5600,"station_id":"ce4bh4p2rcd13ifvqe0g","pricing_plan_id":"cebpf4jnsgd1na2vs0mg"},{"bike_id":"58982c61-2f00-4e02-b620-223b4d372a1d","system_id":"levelo_inurba_marseille","lat":43.2558,"lon":5.38253,"is_reserved":false,"is_disabled":false,"rental_uris":{"android":"levelo://app?vid=58982c61-2f00-4e02-b620-223b4d372a1d","ios":"levelo://app?vid=58982c61-2f00-4e02-b620-223b4d372a1d"},"vehicle_type_id":"4","last_reported":1770015330,"current_range_meters":5600,"station_id":"ce4bhih2rcd13ifvqfs0","pricing_plan_id":"cebpf4jnsgd1na2vs0mg"},{"bike_id":"53336c15-c4a9-4afd-ad5c-4a4cebf6f0c1","system_id":"levelo_inurba_marseille","lat":43.24158,"lon":5.36444,"is_reserved":false,"is_disabled":false,"rental_uris":{"android":"levelo://app?vid=53336c15-c4a9-4afd-ad5c-4a4cebf6f0c1","ios":"levelo://app?vid=53336c15-c4a9-4afd-ad5c-4a4cebf6f0c1"},"vehicle_type_id":"4","last_reported":1770015330,"current_range_meters":5600,"station_id":"cpo36qri1sfpv3e86is0","pricing_plan_id":"cebpf4jnsgd1na2vs0mg"},{"bike_id":"0a1300ad-2f14-46b7-8956-d36a4a430b42","system_id":"levelo_inurba_marseille","lat":43.24798,"lon":5.37451,"is_reserved":false,"is_disabled":false,"rental_uris":{"android":"levelo://app?vid=0a1300ad-2f14-46b7-8956-d36a4a430b42","ios":"levelo://app?vid=0a1300ad-2f14-46b7-8956-d36a4a430b42"},"vehicle_type_id":"4","last_reported":1770015330,"current_range_meters":6000,"station_id":"ce4bhgh2rcd13ifvqfb0","pricing_plan_id":"cebpf4jnsgd1na2vs0mg"},{"bike_id":"d2ee53f1-49b6-44a6-a171-d364ff8162cf","system_id":"levelo_inurba_marseille","lat":43.33367,"lon":5.43135,"is_reserved":false,"is_disabled":false,"rental_uris":{"android":"levelo://app?vid=d2ee53f1-49b6-44a6-a171-d364ff8162cf","ios":"levelo://app?vid=d2ee53f1-49b6-44a6-a171-d364ff8162cf"},"vehicle_type_id":"4","last_reported":1770015330,"current_range_meters":6000,"station_id":"","pricing_plan_id":"cebpf4jnsgd1na2vs0mg"},{"bike_id":"1d75e1a0-8d45-4e83-b58e-250a89f7cb91","system_id":"levelo_inurba_marseille","lat":43.27208,"lon":5.39186,"is_reserved":false,"is_disabled":false,"rental_uris":{"android":"levelo://app?vid=1d75e1a0-8d45-4e83-b58e-250a89f7cb91","ios":"levelo://app?vid=1d75e1a0-8d45-4e83-b58e-250a89f7cb91"},"vehicle_type_id":"4","last_reported":1770015330,"current_range_meters":6000,"station_id":"ce4bhhp2rcd13ifvqfm0","pricing_plan_id":"cebpf4jnsgd1na2vs0mg"},{"bike_id":"f6de560c-fd67-45a0-ba00-93a6ce61a824","system_id":"levelo_inurba_marseille","lat":43.30149,"lon":5.38104,"is_reserved":false,"is_disabled":false,"rental_uris":{"android":"levelo://app?vid=f6de560c-fd67-45a0-ba00-93a6ce61a824","ios":"levelo://app?vid=f6de560c-fd67-45a0-ba00-93a6ce61a824"},"vehicle_type_id":"4","last_reported":1770015330,"current_range_meters":6000,"station_id":"ce4bgjp2rcd13ifvqbh0","pricing_plan_id":"cebpf4jnsgd1na2vs0mg"},{"bike_id":"cec514c3-7ecb-423b-80b5-18639cf7781d","system_id":"levelo_inurba_marseille","lat":43.25642,"lon":5.37646,"is_reserved":false,"is_disabled":false,"rental_uris":{"android":"levelo://app?vid=cec514c3-7ecb-423b-80b5-18639cf7781d","ios":"levelo://app?vid=cec514c3-7ecb-423b-80b5-18639cf7781d"},"vehicle_type_id":"4","last_reported":1770015330,"current_range_meters":6000,"station_id":"","pricing_plan_id":"cebpf4jnsgd1na2vs0mg"},{"bike_id":"15f38625-14a2-40fd-bec6-91fdb6960c8c","system_id":"levelo_inurba_marseille","lat":43.287727,"lon":5.390478,"is_reserved":false,"is_disabled":false,"rental_uris":{"android":"levelo://app?vid=15f38625-14a2-40fd-bec6-91fdb6960c8c","ios":"levelo://app?vid=15f38625-14a2-40fd-bec6-91fdb6960c8c"},"vehicle_type_id":"4","last_reported":1770015330,"current_range_meters":6000,"station_id":"","pricing_plan_id":"cebpf4jnsgd1na2vs0mg"},{"bike_id":"b9a9097f-13d0-49a9-bb46-6f5237ccc9ec","system_id":"levelo_inurba_marseille","lat":43.27376,"lon":5.3626,"is_reserved":false,"is_disabled":false,"rental_uris":{"android":"levelo://app?vid=b9a9097f-13d0-49a9-bb46-6f5237ccc9ec","ios":"levelo://app?vid=b9a9097f-13d0-49a9-bb46-6f5237ccc9ec"},"vehicle_type_id":"4","last_reported":1770015330,"current_range_meters":6000,"station_id":"ce4bhbh2rcd13ifvqeo0","pricing_plan_id":"cebpf4jnsgd1na2vs0mg"},{"bike_id":"2f6a34fb-afaa-42b6-bf68-d635027cef03","system_id":"levelo_inurba_marseille","lat":43.30149,"lon":5.38082,"is_reserved":false,"is_disabled":false,"rental_uris":{"android":"levelo://app?vid=2f6a34fb-afaa-42b6-bf68-d635027cef03","ios":"levelo://app?vid=2f6a34fb-afaa-42b6-bf68-d635027cef03"},"vehicle_type_id":"4","last_reported":1770015330,"current_range_meters":6000,"station_id":"ce4bgjp2rcd13ifvqbh0","pricing_plan_id":"cebpf4jnsgd1na2vs0mg"},{"bike_id":"d1a4c207-5791-4015-8c48-e9fcda8077be","system_id":"levelo_inurba_marseille","lat":43.331579,"lon":5.376901,"is_reserved":false,"is_disabled":false,"rental_uris":{"android":"levelo://app?vid=d1a4c207-5791-4015-8c48-e9fcda8077be","ios":"levelo://app?vid=d1a4c207-5791-4015-8c48-e9fcda8077be"},"vehicle_type_id":"4","last_reported":1770015330,"current_range_meters":6400,"station_id":"st_d46cu089ee8s73dldbu0","pricing_plan_id":"cebpf4jnsgd1na2vs0mg"},{"bike_id":"eae001be-3b34-469f-b5f5-7615da95a4ed","system_id":"levelo_inurba_marseille","lat":43.27824,"lon":5.40726,"is_reserved":false,"is_disabled":false,"rental_uris":{"android":"levelo://app?vid=eae001be-3b34-469f-b5f5-7615da95a4ed","ios":"levelo://app?vid=eae001be-3b34-469f-b5f5-7615da95a4ed"},"vehicle_type_id":"4","last_reported":1770015330,"current_range_meters":6400,"station_id":"ce4bhnh2rcd13ifvqgtg","pricing_plan_id":"cebpf4jnsgd1na2vs0mg"},{"bike_id":"55392003-6bce-4df2-a517-2db7a8819d4b","system_id":"levelo_inurba_marseille","lat":43.2835,"lon":5.38115,"is_reserved":false,"is_disabled":false,"rental_uris":{"android":"levelo://app?vid=55392003-6bce-4df2-a517-2db7a8819d4b","ios":"levelo://app?vid=55392003-6bce-4df2-a517-2db7a8819d4b"},"vehicle_type_id":"4","last_reported":1770015330,"current_range_meters":6400,"station_id":"ce4bh412rcd13ifvqdr0","pricing_plan_id":"cebpf4jnsgd1na2vs0mg"},{"bike_id":"d431d2dc-fe64-4d55-be3e-18b6291747e9","system_id":"levelo_inurba_marseille","lat":43.23048,"lon":5.35522,"is_reserved":false,"is_disabled":false,"rental_uris":{"android":"levelo://app?vid=d431d2dc-fe64-4d55-be3e-18b6291747e9","ios":"levelo://app?vid=d431d2dc-fe64-4d55-be3e-18b6291747e9"},"vehicle_type_id":"4","last_reported":1770015330,"current_range_meters":6400,"station_id":"cpo3342slgdg3j2ifvpg","pricing_plan_id":"cebpf4jnsgd1na2vs0mg"},{"bike_id":"8d19955e-e09c-4b47-a6e3-ae607dbe5088","system_id":"levelo_inurba_marseille","lat":43.26226,"lon":5.3747,"is_reserved":false,"is_disabled":true,"rental_uris":{"android":"levelo://app?vid=8d19955e-e09c-4b47-a6e3-ae607dbe5088","ios":"levelo://app?vid=8d19955e-e09c-4b47-a6e3-ae607dbe5088"},"vehicle_type_id":"4","last_reported":1770015330,"current_range_meters":6400,"station_id":"","pricing_plan_id":"cebpf4jnsgd1na2vs0mg"},{"bike_id":"9b29af17-42f6-4fef-abd8-e6494db620bf","system_id":"levelo_inurba_marseille","lat":43.29532,"lon":5.375,"is_reserved":false,"is_disabled":false,"rental_uris":{"android":"levelo://app?vid=9b29af17-42f6-4fef-abd8-e6494db620bf","ios":"levelo://app?vid=9b29af17-42f6-4fef-abd8-e6494db620bf"},"vehicle_type_id":"4","last_reported":1770015330,"current_range_meters":6400,"station_id":"ce4bgkp2rcd13ifvqbmg","pricing_plan_id":"cebpf4jnsgd1na2vs0mg"},{"bike_id":"461a2893-efc2-4e09-ab9d-8da8c86d5332","system_id":"levelo_inurba_marseille","lat":43.24986,"lon":5.38961,"is_reserved":false,"is_disabled":false,"rental_uris":{"android":"levelo://app?vid=461a2893-efc2-4e09-ab9d-8da8c86d5332","ios":"levelo://app?vid=461a2893-efc2-4e09-ab9d-8da8c86d5332"},"vehicle_type_id":"4","last_reported":1770015330,"current_range_meters":6400,"station_id":"ce4bhgp2rcd13ifvqfd0","pricing_plan_id":"cebpf4jnsgd1na2vs0mg"},{"bike_id":"fff7e7d9-a5a2-4648-8c64-acd8db891467","system_id":"levelo_inurba_marseille","lat":43.262261,"lon":5.404513,"is_reserved":false,"is_disabled":true,"rental_uris":{"android":"levelo://app?vid=fff7e7d9-a5a2-4648-8c64-acd8db891467","ios":"levelo://app?vid=fff7e7d9-a5a2-4648-8c64-acd8db891467"},"vehicle_type_id":"4","last_reported":1770015330,"current_range_meters":6400,"station_id":"ce4bhmh2rcd13ifvqgmg","pricing_plan_id":"cebpf4jnsgd1na2vs0mg"},{"bike_id":"112a8256-29c2-4432-a56e-1e2167337ef9","system_id":"levelo_inurba_marseille","lat":43.25717,"lon":5.41115,"is_reserved":false,"is_disabled":false,"rental_uris":{"android":"levelo://app?vid=112a8256-29c2-4432-a56e-1e2167337ef9","ios":"levelo://app?vid=112a8256-29c2-4432-a56e-1e2167337ef9"},"vehicle_type_id":"4","last_reported":1770015330,"current_range_meters":6400,"station_id":"ce4bhkp2rcd13ifvqgd0","pricing_plan_id":"cebpf4jnsgd1na2vs0mg"},{"bike_id":"934c3ee0-4ca8-4f75-bda1-aa61f44468cd","system_id":"levelo_inurba_marseille","lat":43.29036,"lon":5.38653,"is_reserved":false,"is_disabled":false,"rental_uris":{"android":"levelo://app?vid=934c3ee0-4ca8-4f75-bda1-aa61f44468cd","ios":"levelo://app?vid=934c3ee0-4ca8-4f75-bda1-aa61f44468cd"},"vehicle_type_id":"4","last_reported":1770015330,"current_range_meters":6400,"station_id":"ce4bh4p2rcd13ifvqe0g","pricing_plan_id":"cebpf4jnsgd1na2vs0mg"},{"bike_id":"2b052603-1775-4258-80ad-ae63b6286ef5","system_id":"levelo_inurba_marseille","lat":43.29754,"lon":5.35923,"is_reserved":false,"is_disabled":true,"rental_uris":{"android":"levelo://app?vid=2b052603-1775-4258-80ad-ae63b6286ef5","ios":"levelo://app?vid=2b052603-1775-4258-80ad-ae63b6286ef5"},"vehicle_type_id":"4","last_reported":1770015330,"current_range_meters":6400,"station_id":"","pricing_plan_id":"cebpf4jnsgd1na2vs0mg"},{"bike_id":"231e54e6-7161-4587-916f-33b52f42e31e","system_id":"levelo_inurba_marseille","lat":43.284538,"lon":5.358933,"is_reserved":false,"is_disabled":false,"rental_uris":{"android":"levelo://app?vid=231e54e6-7161-4587-916f-33b52f42e31e","ios":"levelo://app?vid=231e54e6-7161-4587-916f-33b52f42e31e"},"vehicle_type_id":"4","last_reported":1770015330,"current_range_meters":6400,"station_id":"ce4bhah2rcd13ifvqei0","pricing_plan_id":"cebpf4jnsgd1na2vs0mg"},{"bike_id":"5a46f343-f8c0-4bd7-9859-14e3ca910ba6","system_id":"levelo_inurba_marseille","lat":43.2947,"lon":5.43332,"is_reserved":false,"is_disabled":false,"rental_uris":{"android":"levelo://app?vid=5a46f343-f8c0-4bd7-9859-14e3ca910ba6","ios":"levelo://app?vid=5a46f343-f8c0-4bd7-9859-14e3ca910ba6"},"vehicle_type_id":"4","last_reported":1770015330,"current_range_meters":6400,"station_id":"st_d3j5ugp08ojc73fj9d10","pricing_plan_id":"cebpf4jnsgd1na2vs0mg"},{"bike_id":"48defe86-fd01-4bdf-bb58-0b96240d5da2","system_id":"levelo_inurba_marseille","lat":43.28474,"lon":5.48404,"is_reserved":false,"is_disabled":false,"rental_uris":{"android":"levelo://app?vid=48defe86-fd01-4bdf-bb58-0b96240d5da2","ios":"levelo://app?vid=48defe86-fd01-4bdf-bb58-0b96240d5da2"},"vehicle_type_id":"4","last_reported":1770015330,"current_range_meters":6400,"station_id":"st_d3svhcjqgbts73a3dn0g","pricing_plan_id":"cebpf4jnsgd1na2vs0mg"},{"bike_id":"6c94202a-4136-4846-9508-d1abc0aa6eac","system_id":"levelo_inurba_marseille","lat":43.29293,"lon":5.36844,"is_reserved":false,"is_disabled":false,"rental_uris":{"android":"levelo://app?vid=6c94202a-4136-4846-9508-d1abc0aa6eac","ios":"levelo://app?vid=6c94202a-4136-4846-9508-d1abc0aa6eac"},"vehicle_type_id":"4","last_reported":1770015330,"current_range_meters":6800,"station_id":"ce4bhbp2rcd13ifvqesg","pricing_plan_id":"cebpf4jnsgd1na2vs0mg"},{"bike_id":"b38789cc-18dd-40d1-ae76-cc4e95e9c6fd","system_id":"levelo_inurba_marseille","lat":43.31362,"lon":5.36705,"is_reserved":false,"is_disabled":false,"rental_uris":{"android":"levelo://app?vid=b38789cc-18dd-40d1-ae76-cc4e95e9c6fd","ios":"levelo://app?vid=b38789cc-18dd-40d1-ae76-cc4e95e9c6fd"},"vehicle_type_id":"4","last_reported":1770015330,"current_range_meters":6800,"station_id":"ce4bgr92rcd13ifvqc6g","pricing_plan_id":"cebpf4jnsgd1na2vs0mg"},{"bike_id":"1a4b9768-6805-4fcf-a998-58224cace0f7","system_id":"levelo_inurba_marseille","lat":43.25118,"lon":5.4031,"is_reserved":false,"is_disabled":false,"rental_uris":{"android":"levelo://app?vid=1a4b9768-6805-4fcf-a998-58224cace0f7","ios":"levelo://app?vid=1a4b9768-6805-4fcf-a998-58224cace0f7"},"vehicle_type_id":"4","last_reported":1770015330,"current_range_meters":6800,"station_id":"ce4bhlh2rcd13ifvqgig","pricing_plan_id":"cebpf4jnsgd1na2vs0mg"},{"bike_id":"2f272f9d-bafe-4a44-a2e3-105574c73c4b","system_id":"levelo_inurba_marseille","lat":43.24188,"lon":5.39739,"is_reserved":false,"is_disabled":false,"rental_uris":{"android":"levelo://app?vid=2f272f9d-bafe-4a44-a2e3-105574c73c4b","ios":"levelo://app?vid=2f272f9d-bafe-4a44-a2e3-105574c73c4b"},"vehicle_type_id":"4","last_reported":1770015330,"current_range_meters":6800,"station_id":"ce4bhn12rcd13ifvqgpg","pricing_plan_id":"cebpf4jnsgd1na2vs0mg"},{"bike_id":"b38f12ea-bc6e-424c-ba2f-3c0bd470c96e","system_id":"levelo_inurba_marseille","lat":43.291828,"lon":5.372389,"is_reserved":false,"is_disabled":false,"rental_uris":{"android":"levelo://app?vid=b38f12ea-bc6e-424c-ba2f-3c0bd470c96e","ios":"levelo://app?vid=b38f12ea-bc6e-424c-ba2f-3c0bd470c96e"},"vehicle_type_id":"4","last_reported":1770015330,"current_range_meters":6800,"station_id":"ce4bha92rcd13ifvqeh0","pricing_plan_id":"cebpf4jnsgd1na2vs0mg"},{"bike_id":"b8b94943-9f85-4dce-9193-e4086fb48a3d","system_id":"levelo_inurba_marseille","lat":43.28216,"lon":5.39059,"is_reserved":false,"is_disabled":false,"rental_uris":{"android":"levelo://app?vid=b8b94943-9f85-4dce-9193-e4086fb48a3d","ios":"levelo://app?vid=b8b94943-9f85-4dce-9193-e4086fb48a3d"},"vehicle_type_id":"4","last_reported":1770015330,"current_range_meters":6800,"station_id":"ce4bhn92rcd13ifvqgsg","pricing_plan_id":"cebpf4jnsgd1na2vs0mg"},{"bike_id":"d64baf67-1a62-4b86-9aae-88e7781f3b30","system_id":"levelo_inurba_marseille","lat":43.231869,"lon":5.39992,"is_reserved":false,"is_disabled":false,"rental_uris":{"android":"levelo://app?vid=d64baf67-1a62-4b86-9aae-88e7781f3b30","ios":"levelo://app?vid=d64baf67-1a62-4b86-9aae-88e7781f3b30"},"vehicle_type_id":"4","last_reported":1770015330,"current_range_meters":6800,"station_id":"ce4bhn12rcd13ifvqgqg","pricing_plan_id":"cebpf4jnsgd1na2vs0mg"},{"bike_id":"4d614b31-2487-459c-80b4-20568895cab0","system_id":"levelo_inurba_marseille","lat":43.2403,"lon":5.37793,"is_reserved":false,"is_disabled":true,"rental_uris":{"android":"levelo://app?vid=4d614b31-2487-459c-80b4-20568895cab0","ios":"levelo://app?vid=4d614b31-2487-459c-80b4-20568895cab0"},"vehicle_type_id":"4","last_reported":1770015330,"current_range_meters":6800,"station_id":"ce4bhnp2rcd13ifvqgvg","pricing_plan_id":"cebpf4jnsgd1na2vs0mg"},{"bike_id":"4c50b102-00aa-40e2-83bd-5e90d2e54b17","system_id":"levelo_inurba_marseille","lat":43.27993,"lon":5.39994,"is_reserved":false,"is_disabled":false,"rental_uris":{"android":"levelo://app?vid=4c50b102-00aa-40e2-83bd-5e90d2e54b17","ios":"levelo://app?vid=4c50b102-00aa-40e2-83bd-5e90d2e54b17"},"vehicle_type_id":"4","last_reported":1770015330,"current_range_meters":6800,"station_id":"ce4bho92rcd13ifvqh4g","pricing_plan_id":"cebpf4jnsgd1na2vs0mg"},{"bike_id":"1d871e15-87dd-49cd-870e-4c3cf09f339c","system_id":"levelo_inurba_marseille","lat":43.2379,"lon":5.366328,"is_reserved":false,"is_disabled":false,"rental_uris":{"android":"levelo://app?vid=1d871e15-87dd-49cd-870e-4c3cf09f339c","ios":"levelo://app?vid=1d871e15-87dd-49cd-870e-4c3cf09f339c"},"vehicle_type_id":"4","last_reported":1770015330,"current_range_meters":6800,"station_id":"st_d3nk18o9ro0c73en2l3g","pricing_plan_id":"cebpf4jnsgd1na2vs0mg"},{"bike_id":"cc15c741-b789-4619-bb15-d01163161379","system_id":"levelo_inurba_marseille","lat":43.31054,"lon":5.39321,"is_reserved":false,"is_disabled":false,"rental_uris":{"android":"levelo://app?vid=cc15c741-b789-4619-bb15-d01163161379","ios":"levelo://app?vid=cc15c741-b789-4619-bb15-d01163161379"},"vehicle_type_id":"4","last_reported":1770015330,"current_range_meters":6800,"station_id":"","pricing_plan_id":"cebpf4jnsgd1na2vs0mg"},{"bike_id":"6632b7eb-39fd-4ac6-ab18-a3a8fd79732f","system_id":"levelo_inurba_marseille","lat":43.314,"lon":5.37044,"is_reserved":false,"is_disabled":false,"rental_uris":{"android":"levelo://app?vid=6632b7eb-39fd-4ac6-ab18-a3a8fd79732f","ios":"levelo://app?vid=6632b7eb-39fd-4ac6-ab18-a3a8fd79732f"},"vehicle_type_id":"4","last_reported":1770015330,"current_range_meters":6800,"station_id":"","pricing_plan_id":"cebpf4jnsgd1na2vs0mg"},{"bike_id":"fb770f52-ce98-4cd4-aae7-0a310d77081f","system_id":"levelo_inurba_marseille","lat":43.28865,"lon":5.42516,"is_reserved":false,"is_disabled":true,"rental_uris":{"android":"levelo://app?vid=fb770f52-ce98-4cd4-aae7-0a310d77081f","ios":"levelo://app?vid=fb770f52-ce98-4cd4-aae7-0a310d77081f"},"vehicle_type_id":"4","last_reported":1770015330,"current_range_meters":6800,"station_id":"st_d3b462108ojc7389ooeg","pricing_plan_id":"cebpf4jnsgd1na2vs0mg"},{"bike_id":"fb4a42e6-4b95-4d29-93ec-2fbab2cfeec3","system_id":"levelo_inurba_marseille","lat":43.30154,"lon":5.38089,"is_reserved":false,"is_disabled":false,"rental_uris":{"android":"levelo://app?vid=fb4a42e6-4b95-4d29-93ec-2fbab2cfeec3","ios":"levelo://app?vid=fb4a42e6-4b95-4d29-93ec-2fbab2cfeec3"},"vehicle_type_id":"4","last_reported":1770015330,"current_range_meters":6800,"station_id":"ce4bgjp2rcd13ifvqbh0","pricing_plan_id":"cebpf4jnsgd1na2vs0mg"},{"bike_id":"4734432b-a019-498c-855d-9a81f0d722ec","system_id":"levelo_inurba_marseille","lat":43.325013,"lon":5.383013,"is_reserved":false,"is_disabled":false,"rental_uris":{"android":"levelo://app?vid=4734432b-a019-498c-855d-9a81f0d722ec","ios":"levelo://app?vid=4734432b-a019-498c-855d-9a81f0d722ec"},"vehicle_type_id":"4","last_reported":1770015330,"current_range_meters":6800,"station_id":"st_d4asgbiv49dc73anf9m0","pricing_plan_id":"cebpf4jnsgd1na2vs0mg"},{"bike_id":"76695816-489b-4401-ac2a-0147df0088c5","system_id":"levelo_inurba_marseille","lat":43.30461,"lon":5.37911,"is_reserved":false,"is_disabled":true,"rental_uris":{"android":"levelo://app?vid=76695816-489b-4401-ac2a-0147df0088c5","ios":"levelo://app?vid=76695816-489b-4401-ac2a-0147df0088c5"},"vehicle_type_id":"4","last_reported":1770015330,"current_range_meters":7200,"station_id":"ce4bgup2rcd13ifvqcn0","pricing_plan_id":"cebpf4jnsgd1na2vs0mg"},{"bike_id":"94cbe5a1-172e-4cc9-bb27-f3369919b100","system_id":"levelo_inurba_marseille","lat":43.240918,"lon":5.377381,"is_reserved":false,"is_disabled":false,"rental_uris":{"android":"levelo://app?vid=94cbe5a1-172e-4cc9-bb27-f3369919b100","ios":"levelo://app?vid=94cbe5a1-172e-4cc9-bb27-f3369919b100"},"vehicle_type_id":"4","last_reported":1770015330,"current_range_meters":7200,"station_id":"ce4bhnp2rcd13ifvqgvg","pricing_plan_id":"cebpf4jnsgd1na2vs0mg"},{"bike_id":"c908c76d-5841-48a6-bd50-48ef6a9cf886","system_id":"levelo_inurba_marseille","lat":43.3247,"lon":5.38291,"is_reserved":false,"is_disabled":false,"rental_uris":{"android":"levelo://app?vid=c908c76d-5841-48a6-bd50-48ef6a9cf886","ios":"levelo://app?vid=c908c76d-5841-48a6-bd50-48ef6a9cf886"},"vehicle_type_id":"4","last_reported":1770015330,"current_range_meters":7200,"station_id":"st_d4asgbiv49dc73anf9m0","pricing_plan_id":"cebpf4jnsgd1na2vs0mg"},{"bike_id":"e09e2717-153b-489f-b446-f480f14d97b2","system_id":"levelo_inurba_marseille","lat":43.27936,"lon":5.41037,"is_reserved":false,"is_disabled":false,"rental_uris":{"android":"levelo://app?vid=e09e2717-153b-489f-b446-f480f14d97b2","ios":"levelo://app?vid=e09e2717-153b-489f-b446-f480f14d97b2"},"vehicle_type_id":"4","last_reported":1770015330,"current_range_meters":7200,"station_id":"ce4bhnp2rcd13ifvqh0g","pricing_plan_id":"cebpf4jnsgd1na2vs0mg"},{"bike_id":"915f07f8-71e8-442d-9fd7-f7e4f42ace83","system_id":"levelo_inurba_marseille","lat":43.23811,"lon":5.36657,"is_reserved":false,"is_disabled":false,"rental_uris":{"android":"levelo://app?vid=915f07f8-71e8-442d-9fd7-f7e4f42ace83","ios":"levelo://app?vid=915f07f8-71e8-442d-9fd7-f7e4f42ace83"},"vehicle_type_id":"4","last_reported":1770015330,"current_range_meters":7200,"station_id":"st_d3nk18o9ro0c73en2l3g","pricing_plan_id":"cebpf4jnsgd1na2vs0mg"},{"bike_id":"7c0d9424-4c16-451a-a5e1-26585d6883f7","system_id":"levelo_inurba_marseille","lat":43.28861,"lon":5.42513,"is_reserved":false,"is_disabled":false,"rental_uris":{"android":"levelo://app?vid=7c0d9424-4c16-451a-a5e1-26585d6883f7","ios":"levelo://app?vid=7c0d9424-4c16-451a-a5e1-26585d6883f7"},"vehicle_type_id":"4","last_reported":1770015330,"current_range_meters":7200,"station_id":"st_d3b462108ojc7389ooeg","pricing_plan_id":"cebpf4jnsgd1na2vs0mg"},{"bike_id":"4b39f1cc-8d5c-4330-8483-0300616cf7c0","system_id":"levelo_inurba_marseille","lat":43.240624,"lon":5.363669,"is_reserved":false,"is_disabled":false,"rental_uris":{"android":"levelo://app?vid=4b39f1cc-8d5c-4330-8483-0300616cf7c0","ios":"levelo://app?vid=4b39f1cc-8d5c-4330-8483-0300616cf7c0"},"vehicle_type_id":"4","last_reported":1770015330,"current_range_meters":7200,"station_id":"","pricing_plan_id":"cebpf4jnsgd1na2vs0mg"},{"bike_id":"da1cc9b1-3b64-490a-b8d8-fe9a47834cfd","system_id":"levelo_inurba_marseille","lat":43.27973,"lon":5.38723,"is_reserved":false,"is_disabled":false,"rental_uris":{"android":"levelo://app?vid=da1cc9b1-3b64-490a-b8d8-fe9a47834cfd","ios":"levelo://app?vid=da1cc9b1-3b64-490a-b8d8-fe9a47834cfd"},"vehicle_type_id":"4","last_reported":1770015330,"current_range_meters":7200,"station_id":"ce4bhg12rcd13ifvqf80","pricing_plan_id":"cebpf4jnsgd1na2vs0mg"},{"bike_id":"c727b0e5-6d02-4d30-8ab7-176d38c9e150","system_id":"levelo_inurba_marseille","lat":43.317193,"lon":5.423934,"is_reserved":false,"is_disabled":false,"rental_uris":{"android":"levelo://app?vid=c727b0e5-6d02-4d30-8ab7-176d38c9e150","ios":"levelo://app?vid=c727b0e5-6d02-4d30-8ab7-176d38c9e150"},"vehicle_type_id":"4","last_reported":1770015330,"current_range_meters":7200,"station_id":"ce4bhp92rcd13ifvqhbg","pricing_plan_id":"cebpf4jnsgd1na2vs0mg"},{"bike_id":"f34b59e1-4e39-4af3-a25b-ab4cbda4d328","system_id":"levelo_inurba_marseille","lat":43.247723,"lon":5.374225,"is_reserved":false,"is_disabled":false,"rental_uris":{"android":"levelo://app?vid=f34b59e1-4e39-4af3-a25b-ab4cbda4d328","ios":"levelo://app?vid=f34b59e1-4e39-4af3-a25b-ab4cbda4d328"},"vehicle_type_id":"4","last_reported":1770015330,"current_range_meters":7200,"station_id":"","pricing_plan_id":"cebpf4jnsgd1na2vs0mg"},{"bike_id":"ead9d525-178d-43f7-b202-498aac541976","system_id":"levelo_inurba_marseille","lat":43.22571,"lon":5.4164,"is_reserved":false,"is_disabled":false,"rental_uris":{"android":"levelo://app?vid=ead9d525-178d-43f7-b202-498aac541976","ios":"levelo://app?vid=ead9d525-178d-43f7-b202-498aac541976"},"vehicle_type_id":"4","last_reported":1770015330,"current_range_meters":7200,"station_id":"st_d2o4gvlbi1j2169b742g","pricing_plan_id":"cebpf4jnsgd1na2vs0mg"},{"bike_id":"3a58788c-4a23-4531-9872-db4b04a34512","system_id":"levelo_inurba_marseille","lat":43.25005,"lon":5.38902,"is_reserved":false,"is_disabled":false,"rental_uris":{"android":"levelo://app?vid=3a58788c-4a23-4531-9872-db4b04a34512","ios":"levelo://app?vid=3a58788c-4a23-4531-9872-db4b04a34512"},"vehicle_type_id":"4","last_reported":1770015330,"current_range_meters":7200,"station_id":"ce4bhgp2rcd13ifvqfd0","pricing_plan_id":"cebpf4jnsgd1na2vs0mg"},{"bike_id":"647e8c67-198d-4317-8b12-fb4881b15010","system_id":"levelo_inurba_marseille","lat":43.29776,"lon":5.36456,"is_reserved":false,"is_disabled":false,"rental_uris":{"android":"levelo://app?vid=647e8c67-198d-4317-8b12-fb4881b15010","ios":"levelo://app?vid=647e8c67-198d-4317-8b12-fb4881b15010"},"vehicle_type_id":"4","last_reported":1770015330,"current_range_meters":7200,"station_id":"","pricing_plan_id":"cebpf4jnsgd1na2vs0mg"},{"bike_id":"6c3426f5-e732-40e9-8997-b65a3a5be2e8","system_id":"levelo_inurba_marseille","lat":43.29562,"lon":5.3751,"is_reserved":false,"is_disabled":false,"rental_uris":{"android":"levelo://app?vid=6c3426f5-e732-40e9-8997-b65a3a5be2e8","ios":"levelo://app?vid=6c3426f5-e732-40e9-8997-b65a3a5be2e8"},"vehicle_type_id":"4","last_reported":1770015330,"current_range_meters":7200,"station_id":"ce4bgh92rcd13ifvqb50","pricing_plan_id":"cebpf4jnsgd1na2vs0mg"},{"bike_id":"598c3be9-e516-4a68-8ee3-e84cf24002f9","system_id":"levelo_inurba_marseille","lat":43.250126,"lon":5.389163,"is_reserved":false,"is_disabled":true,"rental_uris":{"android":"levelo://app?vid=598c3be9-e516-4a68-8ee3-e84cf24002f9","ios":"levelo://app?vid=598c3be9-e516-4a68-8ee3-e84cf24002f9"},"vehicle_type_id":"4","last_reported":1770015330,"current_range_meters":7200,"station_id":"ce4bhgp2rcd13ifvqfd0","pricing_plan_id":"cebpf4jnsgd1na2vs0mg"},{"bike_id":"297d13dc-a8fe-4c7e-ab4e-c67c01d72bc9","system_id":"levelo_inurba_marseille","lat":43.26682,"lon":5.3827,"is_reserved":false,"is_disabled":false,"rental_uris":{"android":"levelo://app?vid=297d13dc-a8fe-4c7e-ab4e-c67c01d72bc9","ios":"levelo://app?vid=297d13dc-a8fe-4c7e-ab4e-c67c01d72bc9"},"vehicle_type_id":"4","last_reported":1770015330,"current_range_meters":8000,"station_id":"ce4bhg92rcd13ifvqf90","pricing_plan_id":"cebpf4jnsgd1na2vs0mg"},{"bike_id":"83954c91-b1be-419e-85e2-be05d774291d","system_id":"levelo_inurba_marseille","lat":43.24045,"lon":5.37762,"is_reserved":false,"is_disabled":false,"rental_uris":{"android":"levelo://app?vid=83954c91-b1be-419e-85e2-be05d774291d","ios":"levelo://app?vid=83954c91-b1be-419e-85e2-be05d774291d"},"vehicle_type_id":"4","last_reported":1770015330,"current_range_meters":8000,"station_id":"ce4bhnp2rcd13ifvqgvg","pricing_plan_id":"cebpf4jnsgd1na2vs0mg"},{"bike_id":"78f87509-7a97-4d09-86ee-cdbe34d59bc6","system_id":"levelo_inurba_marseille","lat":43.24825,"lon":5.3848,"is_reserved":false,"is_disabled":false,"rental_uris":{"android":"levelo://app?vid=78f87509-7a97-4d09-86ee-cdbe34d59bc6","ios":"levelo://app?vid=78f87509-7a97-4d09-86ee-cdbe34d59bc6"},"vehicle_type_id":"4","last_reported":1770015330,"current_range_meters":8000,"station_id":"","pricing_plan_id":"cebpf4jnsgd1na2vs0mg"},{"bike_id":"1545cd89-bbb9-4c2f-9c00-5d7efc5486bd","system_id":"levelo_inurba_marseille","lat":43.284787,"lon":5.385627,"is_reserved":false,"is_disabled":false,"rental_uris":{"android":"levelo://app?vid=1545cd89-bbb9-4c2f-9c00-5d7efc5486bd","ios":"levelo://app?vid=1545cd89-bbb9-4c2f-9c00-5d7efc5486bd"},"vehicle_type_id":"4","last_reported":1770015330,"current_range_meters":8000,"station_id":"ce4bh8p2rcd13ifvqeb0","pricing_plan_id":"cebpf4jnsgd1na2vs0mg"},{"bike_id":"2d538e38-1b37-4b8e-bd2e-7d47bdc6040e","system_id":"levelo_inurba_marseille","lat":43.290326,"lon":5.375566,"is_reserved":false,"is_disabled":true,"rental_uris":{"android":"levelo://app?vid=2d538e38-1b37-4b8e-bd2e-7d47bdc6040e","ios":"levelo://app?vid=2d538e38-1b37-4b8e-bd2e-7d47bdc6040e"},"vehicle_type_id":"4","last_reported":1770015330,"current_range_meters":8000,"station_id":"ce4bh692rcd13ifvqe90","pricing_plan_id":"cebpf4jnsgd1na2vs0mg"},{"bike_id":"7339baea-42a7-44c8-866b-b3318d7a94e4","system_id":"levelo_inurba_marseille","lat":43.31045,"lon":5.37183,"is_reserved":false,"is_disabled":false,"rental_uris":{"android":"levelo://app?vid=7339baea-42a7-44c8-866b-b3318d7a94e4","ios":"levelo://app?vid=7339baea-42a7-44c8-866b-b3318d7a94e4"},"vehicle_type_id":"4","last_reported":1770015330,"current_range_meters":8000,"station_id":"st_d4kl2rp97mjs73e7tdfg","pricing_plan_id":"cebpf4jnsgd1na2vs0mg"},{"bike_id":"9793b84d-9eb4-4d22-8eec-fae4bbb0768d","system_id":"levelo_inurba_marseille","lat":43.2794,"lon":5.41041,"is_reserved":false,"is_disabled":false,"rental_uris":{"android":"levelo://app?vid=9793b84d-9eb4-4d22-8eec-fae4bbb0768d","ios":"levelo://app?vid=9793b84d-9eb4-4d22-8eec-fae4bbb0768d"},"vehicle_type_id":"4","last_reported":1770015330,"current_range_meters":8000,"station_id":"ce4bhnp2rcd13ifvqh0g","pricing_plan_id":"cebpf4jnsgd1na2vs0mg"},{"bike_id":"df56c3cd-b8f3-4331-9204-6cdae907a930","system_id":"levelo_inurba_marseille","lat":43.29975,"lon":5.37192,"is_reserved":false,"is_disabled":true,"rental_uris":{"android":"levelo://app?vid=df56c3cd-b8f3-4331-9204-6cdae907a930","ios":"levelo://app?vid=df56c3cd-b8f3-4331-9204-6cdae907a930"},"vehicle_type_id":"4","last_reported":1770015330,"current_range_meters":8000,"station_id":"ce4bgr92rcd13ifvqc7g","pricing_plan_id":"cebpf4jnsgd1na2vs0mg"},{"bike_id":"80f86e00-c283-4a17-a19a-e4aecae6582f","system_id":"levelo_inurba_marseille","lat":43.29181,"lon":5.39301,"is_reserved":false,"is_disabled":true,"rental_uris":{"android":"levelo://app?vid=80f86e00-c283-4a17-a19a-e4aecae6582f","ios":"levelo://app?vid=80f86e00-c283-4a17-a19a-e4aecae6582f"},"vehicle_type_id":"4","last_reported":1770015330,"current_range_meters":8000,"station_id":"ce4bh192rcd13ifvqdd0","pricing_plan_id":"cebpf4jnsgd1na2vs0mg"},{"bike_id":"4c8d6559-5c0e-4c38-8c22-f1ad5781fe43","system_id":"levelo_inurba_marseille","lat":43.29272,"lon":5.40132,"is_reserved":false,"is_disabled":false,"rental_uris":{"android":"levelo://app?vid=4c8d6559-5c0e-4c38-8c22-f1ad5781fe43","ios":"levelo://app?vid=4c8d6559-5c0e-4c38-8c22-f1ad5781fe43"},"vehicle_type_id":"4","last_reported":1770015330,"current_range_meters":8000,"station_id":"ce4bh312rcd13ifvqdk0","pricing_plan_id":"cebpf4jnsgd1na2vs0mg"},{"bike_id":"9113ed34-4eae-4a17-a7d2-71a7b76f8d6a","system_id":"levelo_inurba_marseille","lat":43.25937,"lon":5.40909,"is_reserved":false,"is_disabled":false,"rental_uris":{"android":"levelo://app?vid=9113ed34-4eae-4a17-a7d2-71a7b76f8d6a","ios":"levelo://app?vid=9113ed34-4eae-4a17-a7d2-71a7b76f8d6a"},"vehicle_type_id":"4","last_reported":1770015330,"current_range_meters":8000,"station_id":"ce4bhm92rcd13ifvqglg","pricing_plan_id":"cebpf4jnsgd1na2vs0mg"},{"bike_id":"7cb4d92c-ddfd-4673-939d-de19e5a92bf3","system_id":"levelo_inurba_marseille","lat":43.30154,"lon":5.38093,"is_reserved":false,"is_disabled":false,"rental_uris":{"android":"levelo://app?vid=7cb4d92c-ddfd-4673-939d-de19e5a92bf3","ios":"levelo://app?vid=7cb4d92c-ddfd-4673-939d-de19e5a92bf3"},"vehicle_type_id":"4","last_reported":1770015330,"current_range_meters":8000,"station_id":"ce4bgjp2rcd13ifvqbh0","pricing_plan_id":"cebpf4jnsgd1na2vs0mg"},{"bike_id":"04a5a56a-3b29-44bb-97a5-7e1195da1eb0","system_id":"levelo_inurba_marseille","lat":43.25096,"lon":5.39501,"is_reserved":false,"is_disabled":false,"rental_uris":{"android":"levelo://app?vid=04a5a56a-3b29-44bb-97a5-7e1195da1eb0","ios":"levelo://app?vid=04a5a56a-3b29-44bb-97a5-7e1195da1eb0"},"vehicle_type_id":"4","last_reported":1770015330,"current_range_meters":8000,"station_id":"ce4bhm12rcd13ifvqgkg","pricing_plan_id":"cebpf4jnsgd1na2vs0mg"},{"bike_id":"fcc56630-d6aa-427a-9b6b-6381e911d09d","system_id":"levelo_inurba_marseille","lat":43.27934,"lon":5.4103,"is_reserved":false,"is_disabled":false,"rental_uris":{"android":"levelo://app?vid=fcc56630-d6aa-427a-9b6b-6381e911d09d","ios":"levelo://app?vid=fcc56630-d6aa-427a-9b6b-6381e911d09d"},"vehicle_type_id":"4","last_reported":1770015330,"current_range_meters":8400,"station_id":"ce4bhnp2rcd13ifvqh0g","pricing_plan_id":"cebpf4jnsgd1na2vs0mg"},{"bike_id":"383629b2-73f2-4b1e-9cf1-7119fdaec39e","system_id":"levelo_inurba_marseille","lat":43.27381,"lon":5.36268,"is_reserved":false,"is_disabled":false,"rental_uris":{"android":"levelo://app?vid=383629b2-73f2-4b1e-9cf1-7119fdaec39e","ios":"levelo://app?vid=383629b2-73f2-4b1e-9cf1-7119fdaec39e"},"vehicle_type_id":"4","last_reported":1770015330,"current_range_meters":8400,"station_id":"ce4bhbh2rcd13ifvqeo0","pricing_plan_id":"cebpf4jnsgd1na2vs0mg"},{"bike_id":"42f3911a-939e-4889-9561-3c06517c8f7e","system_id":"levelo_inurba_marseille","lat":43.26777,"lon":5.39445,"is_reserved":false,"is_disabled":true,"rental_uris":{"android":"levelo://app?vid=42f3911a-939e-4889-9561-3c06517c8f7e","ios":"levelo://app?vid=42f3911a-939e-4889-9561-3c06517c8f7e"},"vehicle_type_id":"4","last_reported":1770015330,"current_range_meters":8400,"station_id":"ce4bhh12rcd13ifvqfg0","pricing_plan_id":"cebpf4jnsgd1na2vs0mg"},{"bike_id":"7ac53e7b-4a27-4aab-9631-08495b8cb3e9","system_id":"levelo_inurba_marseille","lat":43.29522,"lon":5.3745,"is_reserved":false,"is_disabled":true,"rental_uris":{"android":"levelo://app?vid=7ac53e7b-4a27-4aab-9631-08495b8cb3e9","ios":"levelo://app?vid=7ac53e7b-4a27-4aab-9631-08495b8cb3e9"},"vehicle_type_id":"4","last_reported":1770015330,"current_range_meters":8400,"station_id":"ce4bgkp2rcd13ifvqbmg","pricing_plan_id":"cebpf4jnsgd1na2vs0mg"},{"bike_id":"6727a572-a551-4eb0-a695-8a672aba5c03","system_id":"levelo_inurba_marseille","lat":43.28214,"lon":5.39062,"is_reserved":false,"is_disabled":false,"rental_uris":{"android":"levelo://app?vid=6727a572-a551-4eb0-a695-8a672aba5c03","ios":"levelo://app?vid=6727a572-a551-4eb0-a695-8a672aba5c03"},"vehicle_type_id":"4","last_reported":1770015330,"current_range_meters":8400,"station_id":"ce4bhn92rcd13ifvqgsg","pricing_plan_id":"cebpf4jnsgd1na2vs0mg"},{"bike_id":"35321c53-c7e0-4ca6-b81e-4e15b9397397","system_id":"levelo_inurba_marseille","lat":43.30317,"lon":5.40457,"is_reserved":false,"is_disabled":false,"rental_uris":{"android":"levelo://app?vid=35321c53-c7e0-4ca6-b81e-4e15b9397397","ios":"levelo://app?vid=35321c53-c7e0-4ca6-b81e-4e15b9397397"},"vehicle_type_id":"4","last_reported":1770015330,"current_range_meters":8400,"station_id":"ce4bh012rcd13ifvqd10","pricing_plan_id":"cebpf4jnsgd1na2vs0mg"},{"bike_id":"3b9c8f3e-f433-4f76-92cb-a9ab1b517dc0","system_id":"levelo_inurba_marseille","lat":43.28796,"lon":5.3791,"is_reserved":false,"is_disabled":false,"rental_uris":{"android":"levelo://app?vid=3b9c8f3e-f433-4f76-92cb-a9ab1b517dc0","ios":"levelo://app?vid=3b9c8f3e-f433-4f76-92cb-a9ab1b517dc0"},"vehicle_type_id":"4","last_reported":1770015330,"current_range_meters":8400,"station_id":"","pricing_plan_id":"cebpf4jnsgd1na2vs0mg"},{"bike_id":"adddaa60-d055-4421-b10f-573a435d7714","system_id":"levelo_inurba_marseille","lat":43.25476,"lon":5.37653,"is_reserved":false,"is_disabled":false,"rental_uris":{"android":"levelo://app?vid=adddaa60-d055-4421-b10f-573a435d7714","ios":"levelo://app?vid=adddaa60-d055-4421-b10f-573a435d7714"},"vehicle_type_id":"4","last_reported":1770015330,"current_range_meters":8400,"station_id":"ce4bhh12rcd13ifvqff0","pricing_plan_id":"cebpf4jnsgd1na2vs0mg"},{"bike_id":"27dcb8fb-bc37-437e-8d8b-62fa0efb4197","system_id":"levelo_inurba_marseille","lat":43.28415,"lon":5.34936,"is_reserved":false,"is_disabled":false,"rental_uris":{"android":"levelo://app?vid=27dcb8fb-bc37-437e-8d8b-62fa0efb4197","ios":"levelo://app?vid=27dcb8fb-bc37-437e-8d8b-62fa0efb4197"},"vehicle_type_id":"4","last_reported":1770015330,"current_range_meters":8400,"station_id":"ce4bhbh2rcd13ifvqepg","pricing_plan_id":"cebpf4jnsgd1na2vs0mg"},{"bike_id":"e73a6b18-e6bd-4af3-92ae-5f38381bf229","system_id":"levelo_inurba_marseille","lat":43.301485,"lon":5.374048,"is_reserved":false,"is_disabled":false,"rental_uris":{"android":"levelo://app?vid=e73a6b18-e6bd-4af3-92ae-5f38381bf229","ios":"levelo://app?vid=e73a6b18-e6bd-4af3-92ae-5f38381bf229"},"vehicle_type_id":"4","last_reported":1770015330,"current_range_meters":8400,"station_id":"ce4bgs92rcd13ifvqcc0","pricing_plan_id":"cebpf4jnsgd1na2vs0mg"},{"bike_id":"180da0d1-bd60-4b3f-a4d6-ad95d36df675","system_id":"levelo_inurba_marseille","lat":43.231964,"lon":5.355425,"is_reserved":false,"is_disabled":false,"rental_uris":{"android":"levelo://app?vid=180da0d1-bd60-4b3f-a4d6-ad95d36df675","ios":"levelo://app?vid=180da0d1-bd60-4b3f-a4d6-ad95d36df675"},"vehicle_type_id":"4","last_reported":1770015330,"current_range_meters":8400,"station_id":"ce4bhu92rcd13ifvqi70","pricing_plan_id":"cebpf4jnsgd1na2vs0mg"},{"bike_id":"20e5a6ab-b7c2-47d7-a8a2-b30b7e3c699b","system_id":"levelo_inurba_marseille","lat":43.28481,"lon":5.48404,"is_reserved":false,"is_disabled":false,"rental_uris":{"android":"levelo://app?vid=20e5a6ab-b7c2-47d7-a8a2-b30b7e3c699b","ios":"levelo://app?vid=20e5a6ab-b7c2-47d7-a8a2-b30b7e3c699b"},"vehicle_type_id":"4","last_reported":1770015330,"current_range_meters":8400,"station_id":"st_d3svhcjqgbts73a3dn0g","pricing_plan_id":"cebpf4jnsgd1na2vs0mg"},{"bike_id":"99dddc00-3a20-4168-ad6f-6dc651f3de86","system_id":"levelo_inurba_marseille","lat":43.30528,"lon":5.36713,"is_reserved":false,"is_disabled":false,"rental_uris":{"android":"levelo://app?vid=99dddc00-3a20-4168-ad6f-6dc651f3de86","ios":"levelo://app?vid=99dddc00-3a20-4168-ad6f-6dc651f3de86"},"vehicle_type_id":"4","last_reported":1770015330,"current_range_meters":8400,"station_id":"ce4bgrp2rcd13ifvqc9g","pricing_plan_id":"cebpf4jnsgd1na2vs0mg"},{"bike_id":"0a47085f-904d-47e0-a19a-1bde1ea42e8a","system_id":"levelo_inurba_marseille","lat":43.29041,"lon":5.39961,"is_reserved":false,"is_disabled":false,"rental_uris":{"android":"levelo://app?vid=0a47085f-904d-47e0-a19a-1bde1ea42e8a","ios":"levelo://app?vid=0a47085f-904d-47e0-a19a-1bde1ea42e8a"},"vehicle_type_id":"4","last_reported":1770015330,"current_range_meters":8800,"station_id":"ce4bh392rcd13ifvqdm0","pricing_plan_id":"cebpf4jnsgd1na2vs0mg"},{"bike_id":"a7a08982-a4b3-4165-befb-342335e20b0b","system_id":"levelo_inurba_marseille","lat":43.23785,"lon":5.36629,"is_reserved":false,"is_disabled":false,"rental_uris":{"android":"levelo://app?vid=a7a08982-a4b3-4165-befb-342335e20b0b","ios":"levelo://app?vid=a7a08982-a4b3-4165-befb-342335e20b0b"},"vehicle_type_id":"4","last_reported":1770015330,"current_range_meters":8800,"station_id":"st_d3nk18o9ro0c73en2l3g","pricing_plan_id":"cebpf4jnsgd1na2vs0mg"},{"bike_id":"5d0d47a8-756c-475a-969a-b713ee9b7b0d","system_id":"levelo_inurba_marseille","lat":43.31066,"lon":5.39338,"is_reserved":false,"is_disabled":false,"rental_uris":{"android":"levelo://app?vid=5d0d47a8-756c-475a-969a-b713ee9b7b0d","ios":"levelo://app?vid=5d0d47a8-756c-475a-969a-b713ee9b7b0d"},"vehicle_type_id":"4","last_reported":1770015330,"current_range_meters":8800,"station_id":"","pricing_plan_id":"cebpf4jnsgd1na2vs0mg"},{"bike_id":"62af0ab7-05b6-4f47-9cdb-5da8f9fcdec4","system_id":"levelo_inurba_marseille","lat":43.2256,"lon":5.41642,"is_reserved":false,"is_disabled":false,"rental_uris":{"android":"levelo://app?vid=62af0ab7-05b6-4f47-9cdb-5da8f9fcdec4","ios":"levelo://app?vid=62af0ab7-05b6-4f47-9cdb-5da8f9fcdec4"},"vehicle_type_id":"4","last_reported":1770015330,"current_range_meters":8800,"station_id":"st_d2o4gvlbi1j2169b742g","pricing_plan_id":"cebpf4jnsgd1na2vs0mg"},{"bike_id":"22baf9fe-221d-4a36-8efa-991ae1dccb97","system_id":"levelo_inurba_marseille","lat":43.24999,"lon":5.38934,"is_reserved":false,"is_disabled":false,"rental_uris":{"android":"levelo://app?vid=22baf9fe-221d-4a36-8efa-991ae1dccb97","ios":"levelo://app?vid=22baf9fe-221d-4a36-8efa-991ae1dccb97"},"vehicle_type_id":"4","last_reported":1770015330,"current_range_meters":8800,"station_id":"ce4bhgp2rcd13ifvqfd0","pricing_plan_id":"cebpf4jnsgd1na2vs0mg"},{"bike_id":"61c60e02-8ed5-49e9-90c2-04146b3fff6a","system_id":"levelo_inurba_marseille","lat":43.33157,"lon":5.37688,"is_reserved":false,"is_disabled":false,"rental_uris":{"android":"levelo://app?vid=61c60e02-8ed5-49e9-90c2-04146b3fff6a","ios":"levelo://app?vid=61c60e02-8ed5-49e9-90c2-04146b3fff6a"},"vehicle_type_id":"4","last_reported":1770015330,"current_range_meters":8800,"station_id":"st_d46cu089ee8s73dldbu0","pricing_plan_id":"cebpf4jnsgd1na2vs0mg"},{"bike_id":"11669f92-a768-40e3-968e-23d92654a864","system_id":"levelo_inurba_marseille","lat":43.2796,"lon":5.40997,"is_reserved":false,"is_disabled":false,"rental_uris":{"android":"levelo://app?vid=11669f92-a768-40e3-968e-23d92654a864","ios":"levelo://app?vid=11669f92-a768-40e3-968e-23d92654a864"},"vehicle_type_id":"4","last_reported":1770015330,"current_range_meters":8800,"station_id":"","pricing_plan_id":"cebpf4jnsgd1na2vs0mg"},{"bike_id":"7a63607e-d6c9-438d-9bdb-3315ab1e4a40","system_id":"levelo_inurba_marseille","lat":43.28085,"lon":5.39682,"is_reserved":false,"is_disabled":false,"rental_uris":{"android":"levelo://app?vid=7a63607e-d6c9-438d-9bdb-3315ab1e4a40","ios":"levelo://app?vid=7a63607e-d6c9-438d-9bdb-3315ab1e4a40"},"vehicle_type_id":"4","last_reported":1770015330,"current_range_meters":8800,"station_id":"ce4bho12rcd13ifvqh2g","pricing_plan_id":"cebpf4jnsgd1na2vs0mg"},{"bike_id":"8774adf0-091c-4acb-a18a-0b7f970d22ca","system_id":"levelo_inurba_marseille","lat":43.29877,"lon":5.38439,"is_reserved":false,"is_disabled":false,"rental_uris":{"android":"levelo://app?vid=8774adf0-091c-4acb-a18a-0b7f970d22ca","ios":"levelo://app?vid=8774adf0-091c-4acb-a18a-0b7f970d22ca"},"vehicle_type_id":"4","last_reported":1770015330,"current_range_meters":8800,"station_id":"","pricing_plan_id":"cebpf4jnsgd1na2vs0mg"},{"bike_id":"3063f827-fa63-4911-85d8-b0f9548db5f5","system_id":"levelo_inurba_marseille","lat":43.29781,"lon":5.3711,"is_reserved":false,"is_disabled":false,"rental_uris":{"android":"levelo://app?vid=3063f827-fa63-4911-85d8-b0f9548db5f5","ios":"levelo://app?vid=3063f827-fa63-4911-85d8-b0f9548db5f5"},"vehicle_type_id":"4","last_reported":1770015330,"current_range_meters":8800,"station_id":"ce4bgop2rcd13ifvqc1g","pricing_plan_id":"cebpf4jnsgd1na2vs0mg"},{"bike_id":"83e69128-718d-4874-b6d5-45981017f22e","system_id":"levelo_inurba_marseille","lat":43.3019,"lon":5.38076,"is_reserved":false,"is_disabled":false,"rental_uris":{"android":"levelo://app?vid=83e69128-718d-4874-b6d5-45981017f22e","ios":"levelo://app?vid=83e69128-718d-4874-b6d5-45981017f22e"},"vehicle_type_id":"4","last_reported":1770015330,"current_range_meters":8800,"station_id":"","pricing_plan_id":"cebpf4jnsgd1na2vs0mg"},{"bike_id":"f2748036-3c4c-4f63-bbed-aebdbbcc7cf4","system_id":"levelo_inurba_marseille","lat":43.29017,"lon":5.3872,"is_reserved":false,"is_disabled":false,"rental_uris":{"android":"levelo://app?vid=f2748036-3c4c-4f63-bbed-aebdbbcc7cf4","ios":"levelo://app?vid=f2748036-3c4c-4f63-bbed-aebdbbcc7cf4"},"vehicle_type_id":"4","last_reported":1770015330,"current_range_meters":8800,"station_id":"","pricing_plan_id":"cebpf4jnsgd1na2vs0mg"},{"bike_id":"0326d62d-a870-4c65-ac20-66cf6ef6ff3b","system_id":"levelo_inurba_marseille","lat":43.310786,"lon":5.375113,"is_reserved":false,"is_disabled":false,"rental_uris":{"android":"levelo://app?vid=0326d62d-a870-4c65-ac20-66cf6ef6ff3b","ios":"levelo://app?vid=0326d62d-a870-4c65-ac20-66cf6ef6ff3b"},"vehicle_type_id":"4","last_reported":1770015330,"current_range_meters":8800,"station_id":"","pricing_plan_id":"cebpf4jnsgd1na2vs0mg"},{"bike_id":"cd51f784-a77c-4831-b04b-afe6fd280c95","system_id":"levelo_inurba_marseille","lat":43.23206,"lon":5.35552,"is_reserved":false,"is_disabled":false,"rental_uris":{"android":"levelo://app?vid=cd51f784-a77c-4831-b04b-afe6fd280c95","ios":"levelo://app?vid=cd51f784-a77c-4831-b04b-afe6fd280c95"},"vehicle_type_id":"4","last_reported":1770015330,"current_range_meters":8800,"station_id":"ce4bhu92rcd13ifvqi70","pricing_plan_id":"cebpf4jnsgd1na2vs0mg"},{"bike_id":"656ecee7-adf7-4c69-a3a2-9e88fd566fec","system_id":"levelo_inurba_marseille","lat":43.28159,"lon":5.42641,"is_reserved":false,"is_disabled":false,"rental_uris":{"android":"levelo://app?vid=656ecee7-adf7-4c69-a3a2-9e88fd566fec","ios":"levelo://app?vid=656ecee7-adf7-4c69-a3a2-9e88fd566fec"},"vehicle_type_id":"4","last_reported":1770015330,"current_range_meters":8800,"station_id":"ce4bhnh2rcd13ifvqgug","pricing_plan_id":"cebpf4jnsgd1na2vs0mg"},{"bike_id":"9fff0643-071c-436a-8cfd-837b6e92089a","system_id":"levelo_inurba_marseille","lat":43.259276,"lon":5.408921,"is_reserved":false,"is_disabled":false,"rental_uris":{"android":"levelo://app?vid=9fff0643-071c-436a-8cfd-837b6e92089a","ios":"levelo://app?vid=9fff0643-071c-436a-8cfd-837b6e92089a"},"vehicle_type_id":"4","last_reported":1770015330,"current_range_meters":8800,"station_id":"ce4bhm92rcd13ifvqglg","pricing_plan_id":"cebpf4jnsgd1na2vs0mg"},{"bike_id":"0550b606-8fb9-45cb-8c21-c87d61f49274","system_id":"levelo_inurba_marseille","lat":43.29795,"lon":5.3811,"is_reserved":false,"is_disabled":false,"rental_uris":{"android":"levelo://app?vid=0550b606-8fb9-45cb-8c21-c87d61f49274","ios":"levelo://app?vid=0550b606-8fb9-45cb-8c21-c87d61f49274"},"vehicle_type_id":"4","last_reported":1770015330,"current_range_meters":9200,"station_id":"ce4bgip2rcd13ifvqbb0","pricing_plan_id":"cebpf4jnsgd1na2vs0mg"},{"bike_id":"9c1d71a5-6ad9-4960-8def-7dcb248b2872","system_id":"levelo_inurba_marseille","lat":43.248108,"lon":5.374622,"is_reserved":false,"is_disabled":false,"rental_uris":{"android":"levelo://app?vid=9c1d71a5-6ad9-4960-8def-7dcb248b2872","ios":"levelo://app?vid=9c1d71a5-6ad9-4960-8def-7dcb248b2872"},"vehicle_type_id":"4","last_reported":1770015330,"current_range_meters":9200,"station_id":"ce4bhgh2rcd13ifvqfb0","pricing_plan_id":"cebpf4jnsgd1na2vs0mg"},{"bike_id":"a4a78e26-f7cc-42fe-a5d9-4836263a9354","system_id":"levelo_inurba_marseille","lat":43.33148,"lon":5.37679,"is_reserved":false,"is_disabled":false,"rental_uris":{"android":"levelo://app?vid=a4a78e26-f7cc-42fe-a5d9-4836263a9354","ios":"levelo://app?vid=a4a78e26-f7cc-42fe-a5d9-4836263a9354"},"vehicle_type_id":"4","last_reported":1770015330,"current_range_meters":9200,"station_id":"st_d46cu089ee8s73dldbu0","pricing_plan_id":"cebpf4jnsgd1na2vs0mg"},{"bike_id":"3ef65dfb-54d4-469d-946a-35ac1380b0ff","system_id":"levelo_inurba_marseille","lat":43.27369,"lon":5.36254,"is_reserved":false,"is_disabled":false,"rental_uris":{"android":"levelo://app?vid=3ef65dfb-54d4-469d-946a-35ac1380b0ff","ios":"levelo://app?vid=3ef65dfb-54d4-469d-946a-35ac1380b0ff"},"vehicle_type_id":"4","last_reported":1770015330,"current_range_meters":9200,"station_id":"ce4bhbh2rcd13ifvqeo0","pricing_plan_id":"cebpf4jnsgd1na2vs0mg"},{"bike_id":"2ebe3d1a-eb9d-4119-9eb6-9d700362d893","system_id":"levelo_inurba_marseille","lat":43.24174,"lon":5.39732,"is_reserved":false,"is_disabled":false,"rental_uris":{"android":"levelo://app?vid=2ebe3d1a-eb9d-4119-9eb6-9d700362d893","ios":"levelo://app?vid=2ebe3d1a-eb9d-4119-9eb6-9d700362d893"},"vehicle_type_id":"4","last_reported":1770015330,"current_range_meters":9200,"station_id":"ce4bhn12rcd13ifvqgpg","pricing_plan_id":"cebpf4jnsgd1na2vs0mg"},{"bike_id":"450d125b-db69-4dd8-9efc-f1b0ec2c3479","system_id":"levelo_inurba_marseille","lat":43.231518,"lon":5.437239,"is_reserved":false,"is_disabled":false,"rental_uris":{"android":"levelo://app?vid=450d125b-db69-4dd8-9efc-f1b0ec2c3479","ios":"levelo://app?vid=450d125b-db69-4dd8-9efc-f1b0ec2c3479"},"vehicle_type_id":"4","last_reported":1770015330,"current_range_meters":9200,"station_id":"ce4bhmp2rcd13ifvqgog","pricing_plan_id":"cebpf4jnsgd1na2vs0mg"},{"bike_id":"771ea2bc-bf93-42aa-8bb5-10cd9d180578","system_id":"levelo_inurba_marseille","lat":43.33535,"lon":5.37474,"is_reserved":false,"is_disabled":false,"rental_uris":{"android":"levelo://app?vid=771ea2bc-bf93-42aa-8bb5-10cd9d180578","ios":"levelo://app?vid=771ea2bc-bf93-42aa-8bb5-10cd9d180578"},"vehicle_type_id":"4","last_reported":1770015330,"current_range_meters":9200,"station_id":"st_d46tts09ee8s73dlu43g","pricing_plan_id":"cebpf4jnsgd1na2vs0mg"},{"bike_id":"57016c78-5e28-46f3-8ca0-5d2de4ee2733","system_id":"levelo_inurba_marseille","lat":43.30259,"lon":5.37719,"is_reserved":false,"is_disabled":false,"rental_uris":{"android":"levelo://app?vid=57016c78-5e28-46f3-8ca0-5d2de4ee2733","ios":"levelo://app?vid=57016c78-5e28-46f3-8ca0-5d2de4ee2733"},"vehicle_type_id":"4","last_reported":1770015330,"current_range_meters":9200,"station_id":"ce4bguh2rcd13ifvqcj0","pricing_plan_id":"cebpf4jnsgd1na2vs0mg"},{"bike_id":"4500c96f-e45a-477e-87fd-dc1e306eb7ef","system_id":"levelo_inurba_marseille","lat":43.292524,"lon":5.409081,"is_reserved":false,"is_disabled":false,"rental_uris":{"android":"levelo://app?vid=4500c96f-e45a-477e-87fd-dc1e306eb7ef","ios":"levelo://app?vid=4500c96f-e45a-477e-87fd-dc1e306eb7ef"},"vehicle_type_id":"4","last_reported":1770015330,"current_range_meters":9200,"station_id":"ce4bh192rcd13ifvqdc0","pricing_plan_id":"cebpf4jnsgd1na2vs0mg"},{"bike_id":"5fd56762-7b7c-4271-9de2-7b895b74202c","system_id":"levelo_inurba_marseille","lat":43.28425,"lon":5.34996,"is_reserved":false,"is_disabled":false,"rental_uris":{"android":"levelo://app?vid=5fd56762-7b7c-4271-9de2-7b895b74202c","ios":"levelo://app?vid=5fd56762-7b7c-4271-9de2-7b895b74202c"},"vehicle_type_id":"4","last_reported":1770015330,"current_range_meters":9200,"station_id":"ce4bhbh2rcd13ifvqepg","pricing_plan_id":"cebpf4jnsgd1na2vs0mg"},{"bike_id":"a1b1805c-8410-4392-bb5d-9cb7c461adf3","system_id":"levelo_inurba_marseille","lat":43.29782,"lon":5.38094,"is_reserved":false,"is_disabled":true,"rental_uris":{"android":"levelo://app?vid=a1b1805c-8410-4392-bb5d-9cb7c461adf3","ios":"levelo://app?vid=a1b1805c-8410-4392-bb5d-9cb7c461adf3"},"vehicle_type_id":"4","last_reported":1770015330,"current_range_meters":9200,"station_id":"ce4bgip2rcd13ifvqbb0","pricing_plan_id":"cebpf4jnsgd1na2vs0mg"},{"bike_id":"a414b5eb-b922-4aba-8753-3f3cfbfb10da","system_id":"levelo_inurba_marseille","lat":43.289383,"lon":5.363953,"is_reserved":false,"is_disabled":false,"rental_uris":{"android":"levelo://app?vid=a414b5eb-b922-4aba-8753-3f3cfbfb10da","ios":"levelo://app?vid=a414b5eb-b922-4aba-8753-3f3cfbfb10da"},"vehicle_type_id":"4","last_reported":1770015330,"current_range_meters":9200,"station_id":"ce4bhc92rcd13ifvqetg","pricing_plan_id":"cebpf4jnsgd1na2vs0mg"},{"bike_id":"58977562-1567-4d50-83f8-5538e0cea511","system_id":"levelo_inurba_marseille","lat":43.2419,"lon":5.39734,"is_reserved":false,"is_disabled":false,"rental_uris":{"android":"levelo://app?vid=58977562-1567-4d50-83f8-5538e0cea511","ios":"levelo://app?vid=58977562-1567-4d50-83f8-5538e0cea511"},"vehicle_type_id":"4","last_reported":1770015330,"current_range_meters":9200,"station_id":"ce4bhn12rcd13ifvqgpg","pricing_plan_id":"cebpf4jnsgd1na2vs0mg"},{"bike_id":"a4548633-c611-4940-9123-b16ed88397ec","system_id":"levelo_inurba_marseille","lat":43.2796,"lon":5.41643,"is_reserved":false,"is_disabled":false,"rental_uris":{"android":"levelo://app?vid=a4548633-c611-4940-9123-b16ed88397ec","ios":"levelo://app?vid=a4548633-c611-4940-9123-b16ed88397ec"},"vehicle_type_id":"4","last_reported":1770015330,"current_range_meters":9200,"station_id":"ce4bho12rcd13ifvqh1g","pricing_plan_id":"cebpf4jnsgd1na2vs0mg"},{"bike_id":"ac5c9602-e433-4a2b-8091-d027da8b9fa6","system_id":"levelo_inurba_marseille","lat":43.23189,"lon":5.4,"is_reserved":false,"is_disabled":false,"rental_uris":{"android":"levelo://app?vid=ac5c9602-e433-4a2b-8091-d027da8b9fa6","ios":"levelo://app?vid=ac5c9602-e433-4a2b-8091-d027da8b9fa6"},"vehicle_type_id":"4","last_reported":1770015330,"current_range_meters":9200,"station_id":"ce4bhn12rcd13ifvqgqg","pricing_plan_id":"cebpf4jnsgd1na2vs0mg"},{"bike_id":"c062aa34-fffd-40cf-8dc3-ef00546731c9","system_id":"levelo_inurba_marseille","lat":43.31274,"lon":5.37761,"is_reserved":false,"is_disabled":false,"rental_uris":{"android":"levelo://app?vid=c062aa34-fffd-40cf-8dc3-ef00546731c9","ios":"levelo://app?vid=c062aa34-fffd-40cf-8dc3-ef00546731c9"},"vehicle_type_id":"4","last_reported":1770015330,"current_range_meters":9200,"station_id":"","pricing_plan_id":"cebpf4jnsgd1na2vs0mg"},{"bike_id":"2d60ab74-e596-4c7f-a0fb-86b7ca4a7bcd","system_id":"levelo_inurba_marseille","lat":43.315576,"lon":5.38788,"is_reserved":false,"is_disabled":false,"rental_uris":{"android":"levelo://app?vid=2d60ab74-e596-4c7f-a0fb-86b7ca4a7bcd","ios":"levelo://app?vid=2d60ab74-e596-4c7f-a0fb-86b7ca4a7bcd"},"vehicle_type_id":"4","last_reported":1770015330,"current_range_meters":9200,"station_id":"","pricing_plan_id":"cebpf4jnsgd1na2vs0mg"},{"bike_id":"0161be71-5acc-4bef-a661-add8f18169dc","system_id":"levelo_inurba_marseille","lat":43.29899,"lon":5.43661,"is_reserved":false,"is_disabled":false,"rental_uris":{"android":"levelo://app?vid=0161be71-5acc-4bef-a661-add8f18169dc","ios":"levelo://app?vid=0161be71-5acc-4bef-a661-add8f18169dc"},"vehicle_type_id":"4","last_reported":1770015330,"current_range_meters":9200,"station_id":"ce4bhpp2rcd13ifvqhfg","pricing_plan_id":"cebpf4jnsgd1na2vs0mg"},{"bike_id":"7ea469f1-f16e-4924-a213-85ca76ef9bcc","system_id":"levelo_inurba_marseille","lat":43.29793,"lon":5.38088,"is_reserved":false,"is_disabled":false,"rental_uris":{"android":"levelo://app?vid=7ea469f1-f16e-4924-a213-85ca76ef9bcc","ios":"levelo://app?vid=7ea469f1-f16e-4924-a213-85ca76ef9bcc"},"vehicle_type_id":"4","last_reported":1770015330,"current_range_meters":9600,"station_id":"ce4bgip2rcd13ifvqbb0","pricing_plan_id":"cebpf4jnsgd1na2vs0mg"},{"bike_id":"f2b46649-f2d2-4dab-a524-4025b198537f","system_id":"levelo_inurba_marseille","lat":43.297609,"lon":5.427738,"is_reserved":false,"is_disabled":false,"rental_uris":{"android":"levelo://app?vid=f2b46649-f2d2-4dab-a524-4025b198537f","ios":"levelo://app?vid=f2b46649-f2d2-4dab-a524-4025b198537f"},"vehicle_type_id":"4","last_reported":1770015330,"current_range_meters":9600,"station_id":"st_d3md5207bmas73dh9klg","pricing_plan_id":"cebpf4jnsgd1na2vs0mg"},{"bike_id":"fe970b02-de84-4bcc-81f9-caba0c2c63f8","system_id":"levelo_inurba_marseille","lat":43.28576,"lon":5.39495,"is_reserved":false,"is_disabled":false,"rental_uris":{"android":"levelo://app?vid=fe970b02-de84-4bcc-81f9-caba0c2c63f8","ios":"levelo://app?vid=fe970b02-de84-4bcc-81f9-caba0c2c63f8"},"vehicle_type_id":"4","last_reported":1770015330,"current_range_meters":9600,"station_id":"ce4bh292rcd13ifvqdg0","pricing_plan_id":"cebpf4jnsgd1na2vs0mg"},{"bike_id":"1b46784a-1250-4910-bf43-38f5cf56ddbe","system_id":"levelo_inurba_marseille","lat":43.29019,"lon":5.38633,"is_reserved":false,"is_disabled":false,"rental_uris":{"android":"levelo://app?vid=1b46784a-1250-4910-bf43-38f5cf56ddbe","ios":"levelo://app?vid=1b46784a-1250-4910-bf43-38f5cf56ddbe"},"vehicle_type_id":"4","last_reported":1770015330,"current_range_meters":9600,"station_id":"ce4bh4p2rcd13ifvqe0g","pricing_plan_id":"cebpf4jnsgd1na2vs0mg"},{"bike_id":"f4bef384-efce-4dfc-97cd-21cc8e160d07","system_id":"levelo_inurba_marseille","lat":43.31709,"lon":5.42408,"is_reserved":false,"is_disabled":false,"rental_uris":{"android":"levelo://app?vid=f4bef384-efce-4dfc-97cd-21cc8e160d07","ios":"levelo://app?vid=f4bef384-efce-4dfc-97cd-21cc8e160d07"},"vehicle_type_id":"4","last_reported":1770015330,"current_range_meters":9600,"station_id":"ce4bhp92rcd13ifvqhbg","pricing_plan_id":"cebpf4jnsgd1na2vs0mg"},{"bike_id":"323d455e-1d16-4169-8fb6-56b32451f73f","system_id":"levelo_inurba_marseille","lat":43.27174,"lon":5.40995,"is_reserved":false,"is_disabled":false,"rental_uris":{"android":"levelo://app?vid=323d455e-1d16-4169-8fb6-56b32451f73f","ios":"levelo://app?vid=323d455e-1d16-4169-8fb6-56b32451f73f"},"vehicle_type_id":"4","last_reported":1770015330,"current_range_meters":9600,"station_id":"ce4bhl12rcd13ifvqgf0","pricing_plan_id":"cebpf4jnsgd1na2vs0mg"},{"bike_id":"04a8a4f3-cb0e-40fa-8971-35e8142e372a","system_id":"levelo_inurba_marseille","lat":43.309553,"lon":5.390203,"is_reserved":false,"is_disabled":false,"rental_uris":{"android":"levelo://app?vid=04a8a4f3-cb0e-40fa-8971-35e8142e372a","ios":"levelo://app?vid=04a8a4f3-cb0e-40fa-8971-35e8142e372a"},"vehicle_type_id":"4","last_reported":1770015330,"current_range_meters":9600,"station_id":"ce4bgup2rcd13ifvqco0","pricing_plan_id":"cebpf4jnsgd1na2vs0mg"},{"bike_id":"08b20334-3e9e-45da-98e2-403d0460dda8","system_id":"levelo_inurba_marseille","lat":43.23199,"lon":5.35543,"is_reserved":false,"is_disabled":false,"rental_uris":{"android":"levelo://app?vid=08b20334-3e9e-45da-98e2-403d0460dda8","ios":"levelo://app?vid=08b20334-3e9e-45da-98e2-403d0460dda8"},"vehicle_type_id":"4","last_reported":1770015330,"current_range_meters":9600,"station_id":"ce4bhu92rcd13ifvqi70","pricing_plan_id":"cebpf4jnsgd1na2vs0mg"},{"bike_id":"07fcb62c-1f31-4e36-b994-3d6f02e04e4b","system_id":"levelo_inurba_marseille","lat":43.25506,"lon":5.37669,"is_reserved":false,"is_disabled":false,"rental_uris":{"android":"levelo://app?vid=07fcb62c-1f31-4e36-b994-3d6f02e04e4b","ios":"levelo://app?vid=07fcb62c-1f31-4e36-b994-3d6f02e04e4b"},"vehicle_type_id":"4","last_reported":1770015330,"current_range_meters":9600,"station_id":"ce4bhh12rcd13ifvqff0","pricing_plan_id":"cebpf4jnsgd1na2vs0mg"},{"bike_id":"90ba5afa-5575-45ce-af95-476a5d039955","system_id":"levelo_inurba_marseille","lat":43.257233,"lon":5.411078,"is_reserved":false,"is_disabled":false,"rental_uris":{"android":"levelo://app?vid=90ba5afa-5575-45ce-af95-476a5d039955","ios":"levelo://app?vid=90ba5afa-5575-45ce-af95-476a5d039955"},"vehicle_type_id":"4","last_reported":1770015330,"current_range_meters":9600,"station_id":"ce4bhkp2rcd13ifvqgd0","pricing_plan_id":"cebpf4jnsgd1na2vs0mg"},{"bike_id":"35d94a0f-357e-446c-83b3-bb33d706aded","system_id":"levelo_inurba_marseille","lat":43.2838,"lon":5.375231,"is_reserved":false,"is_disabled":false,"rental_uris":{"android":"levelo://app?vid=35d94a0f-357e-446c-83b3-bb33d706aded","ios":"levelo://app?vid=35d94a0f-357e-446c-83b3-bb33d706aded"},"vehicle_type_id":"4","last_reported":1770015330,"current_range_meters":9600,"station_id":"ce4bh412rcd13ifvqds0","pricing_plan_id":"cebpf4jnsgd1na2vs0mg"},{"bike_id":"6aa7757c-0cdb-4859-803b-ab932dc20b74","system_id":"levelo_inurba_marseille","lat":43.28703,"lon":5.40045,"is_reserved":false,"is_disabled":true,"rental_uris":{"android":"levelo://app?vid=6aa7757c-0cdb-4859-803b-ab932dc20b74","ios":"levelo://app?vid=6aa7757c-0cdb-4859-803b-ab932dc20b74"},"vehicle_type_id":"4","last_reported":1770015330,"current_range_meters":9600,"station_id":"ce4bho92rcd13ifvqh3g","pricing_plan_id":"cebpf4jnsgd1na2vs0mg"},{"bike_id":"81ae8bd1-f2ab-4703-acf8-57dfe12da164","system_id":"levelo_inurba_marseille","lat":43.28259,"lon":5.35116,"is_reserved":false,"is_disabled":false,"rental_uris":{"android":"levelo://app?vid=81ae8bd1-f2ab-4703-acf8-57dfe12da164","ios":"levelo://app?vid=81ae8bd1-f2ab-4703-acf8-57dfe12da164"},"vehicle_type_id":"4","last_reported":1770015330,"current_range_meters":10000,"station_id":"","pricing_plan_id":"cebpf4jnsgd1na2vs0mg"},{"bike_id":"2fa2c29c-1079-447f-9840-16848f1eaa54","system_id":"levelo_inurba_marseille","lat":43.29735,"lon":5.37838,"is_reserved":false,"is_disabled":false,"rental_uris":{"android":"levelo://app?vid=2fa2c29c-1079-447f-9840-16848f1eaa54","ios":"levelo://app?vid=2fa2c29c-1079-447f-9840-16848f1eaa54"},"vehicle_type_id":"4","last_reported":1770015330,"current_range_meters":10000,"station_id":"","pricing_plan_id":"cebpf4jnsgd1na2vs0mg"},{"bike_id":"1ffbf4c6-ed2a-4597-a740-6d4a84e10707","system_id":"levelo_inurba_marseille","lat":43.27841,"lon":5.40697,"is_reserved":false,"is_disabled":false,"rental_uris":{"android":"levelo://app?vid=1ffbf4c6-ed2a-4597-a740-6d4a84e10707","ios":"levelo://app?vid=1ffbf4c6-ed2a-4597-a740-6d4a84e10707"},"vehicle_type_id":"4","last_reported":1770015330,"current_range_meters":10000,"station_id":"ce4bhnh2rcd13ifvqgtg","pricing_plan_id":"cebpf4jnsgd1na2vs0mg"},{"bike_id":"b63ac0c5-b7be-4ace-b026-b2c969c1980e","system_id":"levelo_inurba_marseille","lat":43.29043,"lon":5.38606,"is_reserved":false,"is_disabled":false,"rental_uris":{"android":"levelo://app?vid=b63ac0c5-b7be-4ace-b026-b2c969c1980e","ios":"levelo://app?vid=b63ac0c5-b7be-4ace-b026-b2c969c1980e"},"vehicle_type_id":"4","last_reported":1770015330,"current_range_meters":10000,"station_id":"ce4bh4p2rcd13ifvqe0g","pricing_plan_id":"cebpf4jnsgd1na2vs0mg"},{"bike_id":"7bfa4b57-17f3-4ffb-906e-4ac6f600d95b","system_id":"levelo_inurba_marseille","lat":43.29894,"lon":5.43677,"is_reserved":false,"is_disabled":false,"rental_uris":{"android":"levelo://app?vid=7bfa4b57-17f3-4ffb-906e-4ac6f600d95b","ios":"levelo://app?vid=7bfa4b57-17f3-4ffb-906e-4ac6f600d95b"},"vehicle_type_id":"4","last_reported":1770015330,"current_range_meters":10000,"station_id":"ce4bhpp2rcd13ifvqhfg","pricing_plan_id":"cebpf4jnsgd1na2vs0mg"},{"bike_id":"d4bf8785-cb22-4a86-9d62-28ab8e6abbd6","system_id":"levelo_inurba_marseille","lat":43.24994,"lon":5.38935,"is_reserved":false,"is_disabled":false,"rental_uris":{"android":"levelo://app?vid=d4bf8785-cb22-4a86-9d62-28ab8e6abbd6","ios":"levelo://app?vid=d4bf8785-cb22-4a86-9d62-28ab8e6abbd6"},"vehicle_type_id":"4","last_reported":1770015330,"current_range_meters":10000,"station_id":"ce4bhgp2rcd13ifvqfd0","pricing_plan_id":"cebpf4jnsgd1na2vs0mg"},{"bike_id":"ef903d51-677b-488d-9872-d74cc6c82cbd","system_id":"levelo_inurba_marseille","lat":43.25113,"lon":5.40298,"is_reserved":false,"is_disabled":false,"rental_uris":{"android":"levelo://app?vid=ef903d51-677b-488d-9872-d74cc6c82cbd","ios":"levelo://app?vid=ef903d51-677b-488d-9872-d74cc6c82cbd"},"vehicle_type_id":"4","last_reported":1770015330,"current_range_meters":10000,"station_id":"ce4bhlh2rcd13ifvqgig","pricing_plan_id":"cebpf4jnsgd1na2vs0mg"},{"bike_id":"7e56f932-026d-49fe-bed4-dda636cd9cb8","system_id":"levelo_inurba_marseille","lat":43.248,"lon":5.37481,"is_reserved":false,"is_disabled":false,"rental_uris":{"android":"levelo://app?vid=7e56f932-026d-49fe-bed4-dda636cd9cb8","ios":"levelo://app?vid=7e56f932-026d-49fe-bed4-dda636cd9cb8"},"vehicle_type_id":"4","last_reported":1770015330,"current_range_meters":10000,"station_id":"ce4bhgh2rcd13ifvqfb0","pricing_plan_id":"cebpf4jnsgd1na2vs0mg"},{"bike_id":"d65e7611-55ca-42ca-909a-fde8278b5659","system_id":"levelo_inurba_marseille","lat":43.21206,"lon":5.35075,"is_reserved":false,"is_disabled":true,"rental_uris":{"android":"levelo://app?vid=d65e7611-55ca-42ca-909a-fde8278b5659","ios":"levelo://app?vid=d65e7611-55ca-42ca-909a-fde8278b5659"},"vehicle_type_id":"4","last_reported":1770015330,"current_range_meters":10000,"station_id":"st_cvj6sg6p6f1abm77japg","pricing_plan_id":"cebpf4jnsgd1na2vs0mg"},{"bike_id":"bff22768-2cde-4a3f-98d2-4af19e4efeec","system_id":"levelo_inurba_marseille","lat":43.31065,"lon":5.37161,"is_reserved":false,"is_disabled":false,"rental_uris":{"android":"levelo://app?vid=bff22768-2cde-4a3f-98d2-4af19e4efeec","ios":"levelo://app?vid=bff22768-2cde-4a3f-98d2-4af19e4efeec"},"vehicle_type_id":"4","last_reported":1770015330,"current_range_meters":10000,"station_id":"st_d4kl2rp97mjs73e7tdfg","pricing_plan_id":"cebpf4jnsgd1na2vs0mg"},{"bike_id":"7a016736-1fb9-4e88-87a2-eb13f71c2c15","system_id":"levelo_inurba_marseille","lat":43.29031,"lon":5.38639,"is_reserved":false,"is_disabled":false,"rental_uris":{"android":"levelo://app?vid=7a016736-1fb9-4e88-87a2-eb13f71c2c15","ios":"levelo://app?vid=7a016736-1fb9-4e88-87a2-eb13f71c2c15"},"vehicle_type_id":"4","last_reported":1770015330,"current_range_meters":10000,"station_id":"ce4bh4p2rcd13ifvqe0g","pricing_plan_id":"cebpf4jnsgd1na2vs0mg"},{"bike_id":"00aa65f2-b269-417d-9516-05011b7ebc65","system_id":"levelo_inurba_marseille","lat":43.28479,"lon":5.38422,"is_reserved":false,"is_disabled":false,"rental_uris":{"android":"levelo://app?vid=00aa65f2-b269-417d-9516-05011b7ebc65","ios":"levelo://app?vid=00aa65f2-b269-417d-9516-05011b7ebc65"},"vehicle_type_id":"4","last_reported":1770015330,"current_range_meters":10000,"station_id":"ce4bh512rcd13ifvqe3g","pricing_plan_id":"cebpf4jnsgd1na2vs0mg"},{"bike_id":"5704d325-44da-4640-841e-d73cfa2e6959","system_id":"levelo_inurba_marseille","lat":43.31189,"lon":5.38038,"is_reserved":false,"is_disabled":false,"rental_uris":{"android":"levelo://app?vid=5704d325-44da-4640-841e-d73cfa2e6959","ios":"levelo://app?vid=5704d325-44da-4640-841e-d73cfa2e6959"},"vehicle_type_id":"4","last_reported":1770015330,"current_range_meters":10000,"station_id":"","pricing_plan_id":"cebpf4jnsgd1na2vs0mg"},{"bike_id":"39a54037-8b2e-4d03-89d2-c8ae001cb3df","system_id":"levelo_inurba_marseille","lat":43.31548,"lon":5.38016,"is_reserved":false,"is_disabled":false,"rental_uris":{"android":"levelo://app?vid=39a54037-8b2e-4d03-89d2-c8ae001cb3df","ios":"levelo://app?vid=39a54037-8b2e-4d03-89d2-c8ae001cb3df"},"vehicle_type_id":"4","last_reported":1770015330,"current_range_meters":10000,"station_id":"ce4bhsp2rcd13ifvqi50","pricing_plan_id":"cebpf4jnsgd1na2vs0mg"},{"bike_id":"71152f12-286e-42a6-8f55-eb19f9e283b7","system_id":"levelo_inurba_marseille","lat":43.29449,"lon":5.43312,"is_reserved":false,"is_disabled":false,"rental_uris":{"android":"levelo://app?vid=71152f12-286e-42a6-8f55-eb19f9e283b7","ios":"levelo://app?vid=71152f12-286e-42a6-8f55-eb19f9e283b7"},"vehicle_type_id":"4","last_reported":1770015330,"current_range_meters":10000,"station_id":"st_d3j5ugp08ojc73fj9d10","pricing_plan_id":"cebpf4jnsgd1na2vs0mg"},{"bike_id":"b4da3c95-9f92-4d98-9243-d1a099fbcabf","system_id":"levelo_inurba_marseille","lat":43.249928,"lon":5.389375,"is_reserved":false,"is_disabled":false,"rental_uris":{"android":"levelo://app?vid=b4da3c95-9f92-4d98-9243-d1a099fbcabf","ios":"levelo://app?vid=b4da3c95-9f92-4d98-9243-d1a099fbcabf"},"vehicle_type_id":"4","last_reported":1770015330,"current_range_meters":10800,"station_id":"ce4bhgp2rcd13ifvqfd0","pricing_plan_id":"cebpf4jnsgd1na2vs0mg"},{"bike_id":"b5254e56-348c-4608-91ee-e4d864da32b9","system_id":"levelo_inurba_marseille","lat":43.3132,"lon":5.39663,"is_reserved":false,"is_disabled":false,"rental_uris":{"android":"levelo://app?vid=b5254e56-348c-4608-91ee-e4d864da32b9","ios":"levelo://app?vid=b5254e56-348c-4608-91ee-e4d864da32b9"},"vehicle_type_id":"4","last_reported":1770015330,"current_range_meters":10800,"station_id":"ce4bgvp2rcd13ifvqcu0","pricing_plan_id":"cebpf4jnsgd1na2vs0mg"},{"bike_id":"e7dcc4b0-8a3f-49a7-9e7e-a0d6247bcf9d","system_id":"levelo_inurba_marseille","lat":43.286616,"lon":5.386688,"is_reserved":false,"is_disabled":true,"rental_uris":{"android":"levelo://app?vid=e7dcc4b0-8a3f-49a7-9e7e-a0d6247bcf9d","ios":"levelo://app?vid=e7dcc4b0-8a3f-49a7-9e7e-a0d6247bcf9d"},"vehicle_type_id":"4","last_reported":1770015330,"current_range_meters":10800,"station_id":"ce4bh492rcd13ifvqdug","pricing_plan_id":"cebpf4jnsgd1na2vs0mg"},{"bike_id":"d558498a-1807-4f91-8353-20e8d8d914a0","system_id":"levelo_inurba_marseille","lat":43.31353,"lon":5.38543,"is_reserved":false,"is_disabled":false,"rental_uris":{"android":"levelo://app?vid=d558498a-1807-4f91-8353-20e8d8d914a0","ios":"levelo://app?vid=d558498a-1807-4f91-8353-20e8d8d914a0"},"vehicle_type_id":"4","last_reported":1770015330,"current_range_meters":10800,"station_id":"ce4bgt92rcd13ifvqcf0","pricing_plan_id":"cebpf4jnsgd1na2vs0mg"},{"bike_id":"bdc8f3f1-7191-4554-b1d6-3542e00caa57","system_id":"levelo_inurba_marseille","lat":43.284196,"lon":5.349778,"is_reserved":false,"is_disabled":false,"rental_uris":{"android":"levelo://app?vid=bdc8f3f1-7191-4554-b1d6-3542e00caa57","ios":"levelo://app?vid=bdc8f3f1-7191-4554-b1d6-3542e00caa57"},"vehicle_type_id":"4","last_reported":1770015330,"current_range_meters":10800,"station_id":"ce4bhbh2rcd13ifvqepg","pricing_plan_id":"cebpf4jnsgd1na2vs0mg"},{"bike_id":"e125effe-867f-4979-a6cf-c39437316782","system_id":"levelo_inurba_marseille","lat":43.24079,"lon":5.37749,"is_reserved":false,"is_disabled":false,"rental_uris":{"android":"levelo://app?vid=e125effe-867f-4979-a6cf-c39437316782","ios":"levelo://app?vid=e125effe-867f-4979-a6cf-c39437316782"},"vehicle_type_id":"4","last_reported":1770015330,"current_range_meters":10800,"station_id":"ce4bhnp2rcd13ifvqgvg","pricing_plan_id":"cebpf4jnsgd1na2vs0mg"},{"bike_id":"5049f44b-a994-41e4-85c4-2776528ca057","system_id":"levelo_inurba_marseille","lat":43.26579,"lon":5.37281,"is_reserved":false,"is_disabled":true,"rental_uris":{"android":"levelo://app?vid=5049f44b-a994-41e4-85c4-2776528ca057","ios":"levelo://app?vid=5049f44b-a994-41e4-85c4-2776528ca057"},"vehicle_type_id":"4","last_reported":1770015330,"current_range_meters":10800,"station_id":"ce4bhg12rcd13ifvqf70","pricing_plan_id":"cebpf4jnsgd1na2vs0mg"},{"bike_id":"44bc0922-0ab7-4f50-9c0b-fccdf7341e39","system_id":"levelo_inurba_marseille","lat":43.2828,"lon":5.38589,"is_reserved":false,"is_disabled":false,"rental_uris":{"android":"levelo://app?vid=44bc0922-0ab7-4f50-9c0b-fccdf7341e39","ios":"levelo://app?vid=44bc0922-0ab7-4f50-9c0b-fccdf7341e39"},"vehicle_type_id":"4","last_reported":1770015330,"current_range_meters":10800,"station_id":"","pricing_plan_id":"cebpf4jnsgd1na2vs0mg"},{"bike_id":"1c862d84-25b5-4bcd-a442-030289de526e","system_id":"levelo_inurba_marseille","lat":43.28621,"lon":5.35083,"is_reserved":false,"is_disabled":false,"rental_uris":{"android":"levelo://app?vid=1c862d84-25b5-4bcd-a442-030289de526e","ios":"levelo://app?vid=1c862d84-25b5-4bcd-a442-030289de526e"},"vehicle_type_id":"4","last_reported":1770015330,"current_range_meters":10800,"station_id":"ce4bhch2rcd13ifvqeug","pricing_plan_id":"cebpf4jnsgd1na2vs0mg"},{"bike_id":"5c72c468-07ac-4f16-a1ca-3114f0d95ee1","system_id":"levelo_inurba_marseille","lat":43.30328,"lon":5.40416,"is_reserved":false,"is_disabled":false,"rental_uris":{"android":"levelo://app?vid=5c72c468-07ac-4f16-a1ca-3114f0d95ee1","ios":"levelo://app?vid=5c72c468-07ac-4f16-a1ca-3114f0d95ee1"},"vehicle_type_id":"4","last_reported":1770015330,"current_range_meters":10800,"station_id":"ce4bh012rcd13ifvqd10","pricing_plan_id":"cebpf4jnsgd1na2vs0mg"},{"bike_id":"8b55ad69-a230-4d3b-a96d-842db4c25815","system_id":"levelo_inurba_marseille","lat":43.28464,"lon":5.3586,"is_reserved":false,"is_disabled":false,"rental_uris":{"android":"levelo://app?vid=8b55ad69-a230-4d3b-a96d-842db4c25815","ios":"levelo://app?vid=8b55ad69-a230-4d3b-a96d-842db4c25815"},"vehicle_type_id":"4","last_reported":1770015330,"current_range_meters":10800,"station_id":"ce4bhah2rcd13ifvqei0","pricing_plan_id":"cebpf4jnsgd1na2vs0mg"},