{"last_updated":1729692516,"ttl":60,"version":"2.2","data":{"bikes":[{"bike_id":"1ba4fac4-2099-4987-b572-7bda99a09ac0","system_id":"levelo_inurba_marseille","lat":43.27626,"lon":5.36114,"is_reserved":false,"is_disabled":false,"rental_uris":{"android":"levelo://app?vid=1ba4fac4-2099-4987-b572-7bda99a09ac0","ios":"levelo://app?vid=1ba4fac4-2099-4987-b572-7bda99a09ac0"},"vehicle_type_id":"4","last_reported":1729692517,"current_range_meters":8400,"station_id":"ce4bgj92rcd13ifvqbe0","pricing_plan_id":"cebpf4jnsgd1na2vs0mg"},{"bike_id":"a79a7ae3-b502-4d3b-ba05-7d0a6ea31ad7","system_id":"levelo_inurba_marseille","lat":43.29795,"lon":5.38094,"is_reserved":false,"is_disabled":false,"rental_uris":{"android":"levelo://app?vid=a79a7ae3-b502-4d3b-ba05-7d0a6ea31ad7","ios":"levelo://app?vid=a79a7ae3-b502-4d3b-ba05-7d0a6ea31ad7"},"vehicle_type_id":"4","last_reported":1729692517,"current_range_meters":30400,"station_id":"ce4bgip2rcd13ifvqbb0","pricing_plan_id":"cebpf4jnsgd1na2vs0mg"},{"bike_id":"9c841582-1b4a-4f92-b1d8-04977f5b940a","system_id":"levelo_inurba_marseille","lat":43.31323,"lon":5.3969,"is_reserved":false,"is_disabled":false,"rental_uris":{"android":"levelo://app?vid=9c841582-1b4a-4f92-b1d8-04977f5b940a","ios":"levelo://app?vid=9c841582-1b4a-4f92-b1d8-04977f5b940a"},"vehicle_type_id":"4","last_reported":1729692517,"current_range_meters":38000,"station_id":"ce4bgvp2rcd13ifvqcu0","pricing_plan_id":"cebpf4jnsgd1na2vs0mg"},{"bike_id":"94505a83-b206-4db0-aff0-8f5678e8c521","system_id":"levelo_inurba_marseille","lat":43.24074,"lon":5.37754,"is_reserved":false,"is_disabled":false,"rental_uris":{"android":"levelo://app?vid=94505a83-b206-4db0-aff0-8f5678e8c521","ios":"levelo://app?vid=94505a83-b206-4db0-aff0-8f5678e8c521"},"vehicle_type_id":"4","last_reported":1729692517,"current_range_meters":16800,"station_id":"ce4bhnp2rcd13ifvqgvg","pricing_plan_id":"cebpf4jnsgd1na2vs0mg"},{"bike_id":"4c9b9970-09a7-42c1-87e7-96ac9b677c2f","system_id":"levelo_inurba_marseille","lat":43.2953,"lon":5.39042,"is_reserved":false,"is_disabled":false,"rental_uris":{"android":"levelo://app?vid=4c9b9970-09a7-42c1-87e7-96ac9b677c2f","ios":"levelo://app?vid=4c9b9970-09a7-42c1-87e7-96ac9b677c2f"},"vehicle_type_id":"4","last_reported":1729692517,"current_range_meters":18000,"station_id":"ce4bh3p2rcd13ifvqdp0","pricing_plan_id":"cebpf4jnsgd1na2vs0mg"},{"bike_id":"064c4cf1-968c-4c8f-a2ac-547b8078fd03","system_id":"levelo_inurba_marseille","lat":43.29967,"lon":5.38495,"is_reserved":false,"is_disabled":false,"rental_uris":{"android":"levelo://app?vid=064c4cf1-968c-4c8f-a2ac-547b8078fd03","ios":"levelo://app?vid=064c4cf1-968c-4c8f-a2ac-547b8078fd03"},"vehicle_type_id":"4","last_reported":1729692517,"current_range_meters":15200,"station_id":"ce4bgj92rcd13ifvqbd0","pricing_plan_id":"cebpf4jnsgd1na2vs0mg"},{"bike_id":"a2eb78bd-5f8b-41e1-a180-2207bf3ed7c0","system_id":"levelo_inurba_marseille","lat":43.301461,"lon":5.37416,"is_reserved":false,"is_disabled":false,"rental_uris":{"android":"levelo://app?vid=a2eb78bd-5f8b-41e1-a180-2207bf3ed7c0","ios":"levelo://app?vid=a2eb78bd-5f8b-41e1-a180-2207bf3ed7c0"},"vehicle_type_id":"4","last_reported":1729692517,"current_range_meters":36800,"station_id":"ce4bhb12rcd13ifvqel0","pricing_plan_id":"cebpf4jnsgd1na2vs0mg"},{"bike_id":"da2545c0-1aa1-4252-83b4-6c3657ee2a36","system_id":"levelo_inurba_marseille","lat":43.29545,"lon":5.42278,"is_reserved":false,"is_disabled":false,"rental_uris":{"android":"levelo://app?vid=da2545c0-1aa1-4252-83b4-6c3657ee2a36","ios":"levelo://app?vid=da2545c0-1aa1-4252-83b4-6c3657ee2a36"},"vehicle_type_id":"4","last_reported":1729692517,"current_range_meters":28400,"station_id":"ce4bhph2rcd13ifvqhdg","pricing_plan_id":"cebpf4jnsgd1na2vs0mg"},{"bike_id":"b149ce4e-51e1-44d1-a677-e09dc3311ba7","system_id":"levelo_inurba_marseille","lat":43.24389,"lon":5.37052,"is_reserved":false,"is_disabled":false,"rental_uris":{"android":"levelo://app?vid=b149ce4e-51e1-44d1-a677-e09dc3311ba7","ios":"levelo://app?vid=b149ce4e-51e1-44d1-a677-e09dc3311ba7"},"vehicle_type_id":"4","last_reported":1729692517,"current_range_meters":39200,"station_id":"ce4bhhh2rcd13ifvqfk0","pricing_plan_id":"cebpf4jnsgd1na2vs0mg"},{"bike_id":"a581c9ee-de6c-4ca2-adce-d873a10f1b7c","system_id":"levelo_inurba_marseille","lat":43.24078,"lon":5.37745,"is_reserved":false,"is_disabled":false,"rental_uris":{"android":"levelo://app?vid=a581c9ee-de6c-4ca2-adce-d873a10f1b7c","ios":"levelo://app?vid=a581c9ee-de6c-4ca2-adce-d873a10f1b7c"},"vehicle_type_id":"4","last_reported":1729692517,"current_range_meters":10800,"station_id":"ce4bhnp2rcd13ifvqgvg","pricing_plan_id":"cebpf4jnsgd1na2vs0mg"},{"bike_id":"950cbcd5-63d2-4116-ad72-a2fc677b930e","system_id":"levelo_inurba_marseille","lat":43.29906,"lon":5.38151,"is_reserved":false,"is_disabled":false,"rental_uris":{"android":"levelo://app?vid=950cbcd5-63d2-4116-ad72-a2fc677b930e","ios":"levelo://app?vid=950cbcd5-63d2-4116-ad72-a2fc677b930e"},"vehicle_type_id":"4","last_reported":1729692517,"current_range_meters":34800,"station_id":"ce4bgj12rcd13ifvqbc0","pricing_plan_id":"cebpf4jnsgd1na2vs0mg"},{"bike_id":"23f6a80e-01a1-45d3-90db-23cad2a6029d","system_id":"levelo_inurba_marseille","lat":43.3199,"lon":5.38154,"is_reserved":false,"is_disabled":false,"rental_uris":{"android":"levelo://app?vid=23f6a80e-01a1-45d3-90db-23cad2a6029d","ios":"levelo://app?vid=23f6a80e-01a1-45d3-90db-23cad2a6029d"},"vehicle_type_id":"4","last_reported":1729692517,"current_range_meters":19600,"station_id":"ce4bhr12rcd13ifvqhpg","pricing_plan_id":"cebpf4jnsgd1na2vs0mg"},{"bike_id":"61f6cbe3-d9eb-4f33-935f-edbcd14942c8","system_id":"levelo_inurba_marseille","lat":43.24073,"lon":5.37747,"is_reserved":false,"is_disabled":false,"rental_uris":{"android":"levelo://app?vid=61f6cbe3-d9eb-4f33-935f-edbcd14942c8","ios":"levelo://app?vid=61f6cbe3-d9eb-4f33-935f-edbcd14942c8"},"vehicle_type_id":"4","last_reported":1729692517,"current_range_meters":38800,"station_id":"ce4bhnp2rcd13ifvqgvg","pricing_plan_id":"cebpf4jnsgd1na2vs0mg"},{"bike_id":"9413d072-e380-41d2-8dd9-7098a859ea7d","system_id":"levelo_inurba_marseille","lat":43.29193,"lon":5.39337,"is_reserved":false,"is_disabled":false,"rental_uris":{"android":"levelo://app?vid=9413d072-e380-41d2-8dd9-7098a859ea7d","ios":"levelo://app?vid=9413d072-e380-41d2-8dd9-7098a859ea7d"},"vehicle_type_id":"4","last_reported":1729692517,"current_range_meters":37600,"station_id":"ce4bh192rcd13ifvqdd0","pricing_plan_id":"cebpf4jnsgd1na2vs0mg"},{"bike_id":"759b0871-5a63-4dff-a146-e249b09130f3","system_id":"levelo_inurba_marseille","lat":43.29621,"lon":5.37171,"is_reserved":false,"is_disabled":false,"rental_uris":{"android":"levelo://app?vid=759b0871-5a63-4dff-a146-e249b09130f3","ios":"levelo://app?vid=759b0871-5a63-4dff-a146-e249b09130f3"},"vehicle_type_id":"4","last_reported":1729692517,"current_range_meters":9600,"station_id":"ce4bgnh2rcd13ifvqc0g","pricing_plan_id":"cebpf4jnsgd1na2vs0mg"},{"bike_id":"5751f2d0-cc91-48ad-85e6-c3ffc69194b3","system_id":"levelo_inurba_marseille","lat":43.27969,"lon":5.38731,"is_reserved":false,"is_disabled":false,"rental_uris":{"android":"levelo://app?vid=5751f2d0-cc91-48ad-85e6-c3ffc69194b3","ios":"levelo://app?vid=5751f2d0-cc91-48ad-85e6-c3ffc69194b3"},"vehicle_type_id":"4","last_reported":1729692517,"current_range_meters":30800,"station_id":"ce4bhg12rcd13ifvqf80","pricing_plan_id":"cebpf4jnsgd1na2vs0mg"},{"bike_id":"bc5570b0-116e-480f-9df3-7a8dff091c99","system_id":"levelo_inurba_marseille","lat":43.24077,"lon":5.37752,"is_reserved":false,"is_disabled":false,"rental_uris":{"android":"levelo://app?vid=bc5570b0-116e-480f-9df3-7a8dff091c99","ios":"levelo://app?vid=bc5570b0-116e-480f-9df3-7a8dff091c99"},"vehicle_type_id":"4","last_reported":1729692517,"current_range_meters":38800,"station_id":"ce4bhnp2rcd13ifvqgvg","pricing_plan_id":"cebpf4jnsgd1na2vs0mg"},{"bike_id":"5b08dc95-155b-4574-af8d-aaba3d4b3d59","system_id":"levelo_inurba_marseille","lat":43.26779,"lon":5.39413,"is_reserved":false,"is_disabled":false,"rental_uris":{"android":"levelo://app?vid=5b08dc95-155b-4574-af8d-aaba3d4b3d59","ios":"levelo://app?vid=5b08dc95-155b-4574-af8d-aaba3d4b3d59"},"vehicle_type_id":"4","last_reported":1729692517,"current_range_meters":22000,"station_id":"ce4bhh12rcd13ifvqfg0","pricing_plan_id":"cebpf4jnsgd1na2vs0mg"},{"bike_id":"ea6aeb14-5c14-479d-963a-1d7130056f6f","system_id":"levelo_inurba_marseille","lat":43.29895,"lon":5.3815,"is_reserved":false,"is_disabled":false,"rental_uris":{"android":"levelo://app?vid=ea6aeb14-5c14-479d-963a-1d7130056f6f","ios":"levelo://app?vid=ea6aeb14-5c14-479d-963a-1d7130056f6f"},"vehicle_type_id":"4","last_reported":1729692517,"current_range_meters":14800,"station_id":"ce4bgj12rcd13ifvqbc0","pricing_plan_id":"cebpf4jnsgd1na2vs0mg"},{"bike_id":"209dfcd0-bbf0-47f4-bec8-d5965ae6fff4","system_id":"levelo_inurba_marseille","lat":43.29795,"lon":5.3811,"is_reserved":false,"is_disabled":false,"rental_uris":{"android":"levelo://app?vid=209dfcd0-bbf0-47f4-bec8-d5965ae6fff4","ios":"levelo://app?vid=209dfcd0-bbf0-47f4-bec8-d5965ae6fff4"},"vehicle_type_id":"4","last_reported":1729692517,"current_range_meters":30800,"station_id":"ce4bgip2rcd13ifvqbb0","pricing_plan_id":"cebpf4jnsgd1na2vs0mg"},{"bike_id":"a5ec7780-e589-447b-8005-db28cb3e4830","system_id":"levelo_inurba_marseille","lat":43.28497,"lon":5.38562,"is_reserved":false,"is_disabled":false,"rental_uris":{"android":"levelo://app?vid=a5ec7780-e589-447b-8005-db28cb3e4830","ios":"levelo://app?vid=a5ec7780-e589-447b-8005-db28cb3e4830"},"vehicle_type_id":"4","last_reported":1729692517,"current_range_meters":38400,"station_id":"ce4bh8p2rcd13ifvqeb0","pricing_plan_id":"cebpf4jnsgd1na2vs0mg"},{"bike_id":"e9243ab1-f283-42d0-bcc5-655ea73eca58","system_id":"levelo_inurba_marseille","lat":43.28433,"lon":5.39198,"is_reserved":false,"is_disabled":false,"rental_uris":{"android":"levelo://app?vid=e9243ab1-f283-42d0-bcc5-655ea73eca58","ios":"levelo://app?vid=e9243ab1-f283-42d0-bcc5-655ea73eca58"},"vehicle_type_id":"4","last_reported":1729692517,"current_range_meters":26000,"station_id":"ce4bhoh2rcd13ifvqh5g","pricing_plan_id":"cebpf4jnsgd1na2vs0mg"},{"bike_id":"8b3c0faf-6685-4f0c-bcad-67675bd23c19","system_id":"levelo_inurba_marseille","lat":43.31708,"lon":5.4371,"is_reserved":false,"is_disabled":false,"rental_uris":{"android":"levelo://app?vid=8b3c0faf-6685-4f0c-bcad-67675bd23c19","ios":"levelo://app?vid=8b3c0faf-6685-4f0c-bcad-67675bd23c19"},"vehicle_type_id":"4","last_reported":1729692517,"current_range_meters":27200,"station_id":"ce4bhp92rcd13ifvqhcg","pricing_plan_id":"cebpf4jnsgd1na2vs0mg"},{"bike_id":"361637d6-8e3a-447f-9c56-ec481d037196","system_id":"levelo_inurba_marseille","lat":43.26949,"lon":5.38623,"is_reserved":false,"is_disabled":false,"rental_uris":{"android":"levelo://app?vid=361637d6-8e3a-447f-9c56-ec481d037196","ios":"levelo://app?vid=361637d6-8e3a-447f-9c56-ec481d037196"},"vehicle_type_id":"4","last_reported":1729692517,"current_range_meters":38800,"station_id":"ce4bhh92rcd13ifvqfh0","pricing_plan_id":"cebpf4jnsgd1na2vs0mg"},{"bike_id":"69bfec52-838f-439d-a124-9f89f6d8a323","system_id":"levelo_inurba_marseille","lat":43.29194,"lon":5.39309,"is_reserved":false,"is_disabled":false,"rental_uris":{"android":"levelo://app?vid=69bfec52-838f-439d-a124-9f89f6d8a323","ios":"levelo://app?vid=69bfec52-838f-439d-a124-9f89f6d8a323"},"vehicle_type_id":"4","last_reported":1729692517,"current_range_meters":32000,"station_id":"ce4bh192rcd13ifvqdd0","pricing_plan_id":"cebpf4jnsgd1na2vs0mg"},{"bike_id":"277c6240-4b00-4913-bd18-561260d0febe","system_id":"levelo_inurba_marseille","lat":43.29194,"lon":5.39333,"is_reserved":false,"is_disabled":false,"rental_uris":{"android":"levelo://app?vid=277c6240-4b00-4913-bd18-561260d0febe","ios":"levelo://app?vid=277c6240-4b00-4913-bd18-561260d0febe"},"vehicle_type_id":"4","last_reported":1729692517,"current_range_meters":15200,"station_id":"ce4bh192rcd13ifvqdd0","pricing_plan_id":"cebpf4jnsgd1na2vs0mg"},{"bike_id":"5c449356-4ac4-4d08-a405-c433fbe21a80","system_id":"levelo_inurba_marseille","lat":43.33737,"lon":5.37458,"is_reserved":false,"is_disabled":false,"rental_uris":{"android":"levelo://app?vid=5c449356-4ac4-4d08-a405-c433fbe21a80","ios":"levelo://app?vid=5c449356-4ac4-4d08-a405-c433fbe21a80"},"vehicle_type_id":"4","last_reported":1729692517,"current_range_meters":28800,"station_id":"","pricing_plan_id":"cebpf4jnsgd1na2vs0mg"},{"bike_id":"4082ab57-a069-4ff7-b7b9-3d3b1281e792","system_id":"levelo_inurba_marseille","lat":43.2871,"lon":5.39986,"is_reserved":false,"is_disabled":false,"rental_uris":{"android":"levelo://app?vid=4082ab57-a069-4ff7-b7b9-3d3b1281e792","ios":"levelo://app?vid=4082ab57-a069-4ff7-b7b9-3d3b1281e792"},"vehicle_type_id":"4","last_reported":1729692517,"current_range_meters":36800,"station_id":"ce4bho92rcd13ifvqh3g","pricing_plan_id":"cebpf4jnsgd1na2vs0mg"},{"bike_id":"5beee760-8f13-406a-8087-0f037c588a4e","system_id":"levelo_inurba_marseille","lat":43.29456,"lon":5.39729,"is_reserved":false,"is_disabled":false,"rental_uris":{"android":"levelo://app?vid=5beee760-8f13-406a-8087-0f037c588a4e","ios":"levelo://app?vid=5beee760-8f13-406a-8087-0f037c588a4e"},"vehicle_type_id":"4","last_reported":1729692517,"current_range_meters":28800,"station_id":"ce4bh192rcd13ifvqdb0","pricing_plan_id":"cebpf4jnsgd1na2vs0mg"},{"bike_id":"530f3de5-0666-4848-a0bc-b2ca8214ca41","system_id":"levelo_inurba_marseille","lat":43.30902,"lon":5.37199,"is_reserved":false,"is_disabled":false,"rental_uris":{"android":"levelo://app?vid=530f3de5-0666-4848-a0bc-b2ca8214ca41","ios":"levelo://app?vid=530f3de5-0666-4848-a0bc-b2ca8214ca41"},"vehicle_type_id":"4","last_reported":1729692517,"current_range_meters":4000,"station_id":"ce4bguh2rcd13ifvqckg","pricing_plan_id":"cebpf4jnsgd1na2vs0mg"},{"bike_id":"871fdd79-6f90-4ca3-a478-379c88c8d018","system_id":"levelo_inurba_marseille","lat":43.29543,"lon":5.37502,"is_reserved":false,"is_disabled":false,"rental_uris":{"android":"levelo://app?vid=871fdd79-6f90-4ca3-a478-379c88c8d018","ios":"levelo://app?vid=871fdd79-6f90-4ca3-a478-379c88c8d018"},"vehicle_type_id":"4","last_reported":1729692517,"current_range_meters":38800,"station_id":"ce4bgkp2rcd13ifvqbmg","pricing_plan_id":"cebpf4jnsgd1na2vs0mg"},{"bike_id":"afa93300-f37e-4cf9-ba93-89c9e807434b","system_id":"levelo_inurba_marseille","lat":43.28151,"lon":5.42643,"is_reserved":false,"is_disabled":false,"rental_uris":{"android":"levelo://app?vid=afa93300-f37e-4cf9-ba93-89c9e807434b","ios":"levelo://app?vid=afa93300-f37e-4cf9-ba93-89c9e807434b"},"vehicle_type_id":"4","last_reported":1729692517,"current_range_meters":3600,"station_id":"ce4bhnh2rcd13ifvqgug","pricing_plan_id":"cebpf4jnsgd1na2vs0mg"},{"bike_id":"0c6b11eb-50a7-4dc0-bff2-d8026011ec1d","system_id":"levelo_inurba_marseille","lat":43.24389,"lon":5.37057,"is_reserved":false,"is_disabled":false,"rental_uris":{"android":"levelo://app?vid=0c6b11eb-50a7-4dc0-bff2-d8026011ec1d","ios":"levelo://app?vid=0c6b11eb-50a7-4dc0-bff2-d8026011ec1d"},"vehicle_type_id":"4","last_reported":1729692517,"current_range_meters":38800,"station_id":"ce4bhhh2rcd13ifvqfk0","pricing_plan_id":"cebpf4jnsgd1na2vs0mg"},{"bike_id":"3571e33e-08e7-4c65-bcb7-4ff4abd18ba6","system_id":"levelo_inurba_marseille","lat":43.24165,"lon":5.36407,"is_reserved":false,"is_disabled":false,"rental_uris":{"android":"levelo://app?vid=3571e33e-08e7-4c65-bcb7-4ff4abd18ba6","ios":"levelo://app?vid=3571e33e-08e7-4c65-bcb7-4ff4abd18ba6"},"vehicle_type_id":"4","last_reported":1729692517,"current_range_meters":19200,"station_id":"cpo36qri1sfpv3e86is0","pricing_plan_id":"cebpf4jnsgd1na2vs0mg"},{"bike_id":"fbff0ca7-076b-493b-9140-d4fea10850e5","system_id":"levelo_inurba_marseille","lat":43.2795,"lon":5.41035,"is_reserved":false,"is_disabled":false,"rental_uris":{"android":"levelo://app?vid=fbff0ca7-076b-493b-9140-d4fea10850e5","ios":"levelo://app?vid=fbff0ca7-076b-493b-9140-d4fea10850e5"},"vehicle_type_id":"4","last_reported":1729692517,"current_range_meters":36400,"station_id":"ce4bhnp2rcd13ifvqh0g","pricing_plan_id":"cebpf4jnsgd1na2vs0mg"},{"bike_id":"c769be1b-4262-45e1-ae17-91133a0a1d6c","system_id":"levelo_inurba_marseille","lat":43.3053,"lon":5.36659,"is_reserved":false,"is_disabled":false,"rental_uris":{"android":"levelo://app?vid=c769be1b-4262-45e1-ae17-91133a0a1d6c","ios":"levelo://app?vid=c769be1b-4262-45e1-ae17-91133a0a1d6c"},"vehicle_type_id":"4","last_reported":1729692517,"current_range_meters":11600,"station_id":"","pricing_plan_id":"cebpf4jnsgd1na2vs0mg"},{"bike_id":"4882a116-5452-4f97-bdbd-13df4cccb9d6","system_id":"levelo_inurba_marseille","lat":43.30606,"lon":5.37243,"is_reserved":false,"is_disabled":false,"rental_uris":{"android":"levelo://app?vid=4882a116-5452-4f97-bdbd-13df4cccb9d6","ios":"levelo://app?vid=4882a116-5452-4f97-bdbd-13df4cccb9d6"},"vehicle_type_id":"4","last_reported":1729692517,"current_range_meters":28800,"station_id":"ce4bgqh2rcd13ifvqc4g","pricing_plan_id":"cebpf4jnsgd1na2vs0mg"},{"bike_id":"14faa0d7-0d75-4feb-b3a9-2fc09e338b27","system_id":"levelo_inurba_marseille","lat":43.30542,"lon":5.36706,"is_reserved":false,"is_disabled":false,"rental_uris":{"android":"levelo://app?vid=14faa0d7-0d75-4feb-b3a9-2fc09e338b27","ios":"levelo://app?vid=14faa0d7-0d75-4feb-b3a9-2fc09e338b27"},"vehicle_type_id":"4","last_reported":1729692517,"current_range_meters":24400,"station_id":"ce4bgrp2rcd13ifvqc9g","pricing_plan_id":"cebpf4jnsgd1na2vs0mg"},{"bike_id":"23bab4d6-78d3-4d58-b9ba-f315bdd64cfa","system_id":"levelo_inurba_marseille","lat":43.28727,"lon":5.37944,"is_reserved":false,"is_disabled":false,"rental_uris":{"android":"levelo://app?vid=23bab4d6-78d3-4d58-b9ba-f315bdd64cfa","ios":"levelo://app?vid=23bab4d6-78d3-4d58-b9ba-f315bdd64cfa"},"vehicle_type_id":"4","last_reported":1729692517,"current_range_meters":38400,"station_id":"ce4bh9p2rcd13ifvqec0","pricing_plan_id":"cebpf4jnsgd1na2vs0mg"},{"bike_id":"0ee9c4d7-f07b-416d-a1f3-31ebfe564483","system_id":"levelo_inurba_marseille","lat":43.2319,"lon":5.39991,"is_reserved":false,"is_disabled":false,"rental_uris":{"android":"levelo://app?vid=0ee9c4d7-f07b-416d-a1f3-31ebfe564483","ios":"levelo://app?vid=0ee9c4d7-f07b-416d-a1f3-31ebfe564483"},"vehicle_type_id":"4","last_reported":1729692517,"current_range_meters":36000,"station_id":"ce4bhn12rcd13ifvqgqg","pricing_plan_id":"cebpf4jnsgd1na2vs0mg"},{"bike_id":"71ea797b-da06-4327-92dc-47c13ec265e2","system_id":"levelo_inurba_marseille","lat":43.30545,"lon":5.36536,"is_reserved":false,"is_disabled":false,"rental_uris":{"android":"levelo://app?vid=71ea797b-da06-4327-92dc-47c13ec265e2","ios":"levelo://app?vid=71ea797b-da06-4327-92dc-47c13ec265e2"},"vehicle_type_id":"4","last_reported":1729692517,"current_range_meters":38000,"station_id":"ce4bgs12rcd13ifvqcag","pricing_plan_id":"cebpf4jnsgd1na2vs0mg"},{"bike_id":"93f636f8-56f7-41de-b313-6a0046392223","system_id":"levelo_inurba_marseille","lat":43.28368,"lon":5.38624,"is_reserved":false,"is_disabled":false,"rental_uris":{"android":"levelo://app?vid=93f636f8-56f7-41de-b313-6a0046392223","ios":"levelo://app?vid=93f636f8-56f7-41de-b313-6a0046392223"},"vehicle_type_id":"4","last_reported":1729692517,"current_range_meters":36000,"station_id":"ce4bh492rcd13ifvqdvg","pricing_plan_id":"cebpf4jnsgd1na2vs0mg"},{"bike_id":"6c5a986d-c7a7-4457-9491-fce636ec0fcf","system_id":"levelo_inurba_marseille","lat":43.29536,"lon":5.39199,"is_reserved":false,"is_disabled":false,"rental_uris":{"android":"levelo://app?vid=6c5a986d-c7a7-4457-9491-fce636ec0fcf","ios":"levelo://app?vid=6c5a986d-c7a7-4457-9491-fce636ec0fcf"},"vehicle_type_id":"4","last_reported":1729692517,"current_range_meters":28800,"station_id":"ce4bh312rcd13ifvqdk0","pricing_plan_id":"cebpf4jnsgd1na2vs0mg"},{"bike_id":"1abaf0d1-5f30-4dd5-aee2-e577a6c14ede","system_id":"levelo_inurba_marseille","lat":43.301526,"lon":5.380738,"is_reserved":false,"is_disabled":false,"rental_uris":{"android":"levelo://app?vid=1abaf0d1-5f30-4dd5-aee2-e577a6c14ede","ios":"levelo://app?vid=1abaf0d1-5f30-4dd5-aee2-e577a6c14ede"},"vehicle_type_id":"4","last_reported":1729692517,"current_range_meters":4800,"station_id":"ce4bh2h2rcd13ifvqdh0","pricing_plan_id":"cebpf4jnsgd1na2vs0mg"},{"bike_id":"60701c45-5664-4c73-ae6b-d0efb1e5a3d5","system_id":"levelo_inurba_marseille","lat":43.29571,"lon":5.3753,"is_reserved":false,"is_disabled":false,"rental_uris":{"android":"levelo://app?vid=60701c45-5664-4c73-ae6b-d0efb1e5a3d5","ios":"levelo://app?vid=60701c45-5664-4c73-ae6b-d0efb1e5a3d5"},"vehicle_type_id":"4","last_reported":1729692517,"current_range_meters":13600,"station_id":"ce4bgh92rcd13ifvqb50","pricing_plan_id":"cebpf4jnsgd1na2vs0mg"},{"bike_id":"44354070-3524-4525-8b97-4bde360111a4","system_id":"levelo_inurba_marseille","lat":43.29686,"lon":5.37293,"is_reserved":false,"is_disabled":false,"rental_uris":{"android":"levelo://app?vid=44354070-3524-4525-8b97-4bde360111a4","ios":"levelo://app?vid=44354070-3524-4525-8b97-4bde360111a4"},"vehicle_type_id":"4","last_reported":1729692517,"current_range_meters":14800,"station_id":"ce4bgk12rcd13ifvqbj0","pricing_plan_id":"cebpf4jnsgd1na2vs0mg"},{"bike_id":"1cb174cd-3fb3-4205-a8cf-644b9483f0cb","system_id":"levelo_inurba_marseille","lat":43.23181,"lon":5.3999,"is_reserved":false,"is_disabled":false,"rental_uris":{"android":"levelo://app?vid=1cb174cd-3fb3-4205-a8cf-644b9483f0cb","ios":"levelo://app?vid=1cb174cd-3fb3-4205-a8cf-644b9483f0cb"},"vehicle_type_id":"4","last_reported":1729692517,"current_range_meters":9600,"station_id":"ce4bhn12rcd13ifvqgqg","pricing_plan_id":"cebpf4jnsgd1na2vs0mg"},{"bike_id":"eed0bb81-1059-4a62-978f-40ddaaec815e","system_id":"levelo_inurba_marseille","lat":43.29778,"lon":5.37109,"is_reserved":false,"is_disabled":false,"rental_uris":{"android":"levelo://app?vid=eed0bb81-1059-4a62-978f-40ddaaec815e","ios":"levelo://app?vid=eed0bb81-1059-4a62-978f-40ddaaec815e"},"vehicle_type_id":"4","last_reported":1729692517,"current_range_meters":39200,"station_id":"ce4bgop2rcd13ifvqc1g","pricing_plan_id":"cebpf4jnsgd1na2vs0mg"},{"bike_id":"1786e6f3-e6fa-4812-bd59-dee9b5495362","system_id":"levelo_inurba_marseille","lat":43.25728,"lon":5.41124,"is_reserved":false,"is_disabled":false,"rental_uris":{"android":"levelo://app?vid=1786e6f3-e6fa-4812-bd59-dee9b5495362","ios":"levelo://app?vid=1786e6f3-e6fa-4812-bd59-dee9b5495362"},"vehicle_type_id":"4","last_reported":1729692517,"current_range_meters":36800,"station_id":"ce4bhkp2rcd13ifvqgd0","pricing_plan_id":"cebpf4jnsgd1na2vs0mg"},{"bike_id":"5513ceb3-5471-4974-8f9e-dc94e1341c0f","system_id":"levelo_inurba_marseille","lat":43.29418,"lon":5.38631,"is_reserved":false,"is_disabled":false,"rental_uris":{"android":"levelo://app?vid=5513ceb3-5471-4974-8f9e-dc94e1341c0f","ios":"levelo://app?vid=5513ceb3-5471-4974-8f9e-dc94e1341c0f"},"vehicle_type_id":"4","last_reported":1729692517,"current_range_meters":28000,"station_id":"ce4bh2h2rcd13ifvqdh0","pricing_plan_id":"cebpf4jnsgd1na2vs0mg"},{"bike_id":"85336e0f-6f86-4f33-81ba-fc2818ccca3d","system_id":"levelo_inurba_marseille","lat":43.28838,"lon":5.35761,"is_reserved":false,"is_disabled":false,"rental_uris":{"android":"levelo://app?vid=85336e0f-6f86-4f33-81ba-fc2818ccca3d","ios":"levelo://app?vid=85336e0f-6f86-4f33-81ba-fc2818ccca3d"},"vehicle_type_id":"4","last_reported":1729692517,"current_range_meters":14000,"station_id":"cki0cbj6b192h4jlfktg","pricing_plan_id":"cebpf4jnsgd1na2vs0mg"},{"bike_id":"1eee1df5-bac5-47c8-bcf6-bf7a49b7a513","system_id":"levelo_inurba_marseille","lat":43.2984,"lon":5.36265,"is_reserved":false,"is_disabled":false,"rental_uris":{"android":"levelo://app?vid=1eee1df5-bac5-47c8-bcf6-bf7a49b7a513","ios":"levelo://app?vid=1eee1df5-bac5-47c8-bcf6-bf7a49b7a513"},"vehicle_type_id":"4","last_reported":1729692517,"current_range_meters":23200,"station_id":"ce4bgpp2rcd13ifvqc3g","pricing_plan_id":"cebpf4jnsgd1na2vs0mg"},{"bike_id":"98809efd-d966-43b2-afb4-49ed10965dcc","system_id":"levelo_inurba_marseille","lat":43.29937,"lon":5.36519,"is_reserved":false,"is_disabled":false,"rental_uris":{"android":"levelo://app?vid=98809efd-d966-43b2-afb4-49ed10965dcc","ios":"levelo://app?vid=98809efd-d966-43b2-afb4-49ed10965dcc"},"vehicle_type_id":"4","last_reported":1729692517,"current_range_meters":38800,"station_id":"ce4bgm92rcd13ifvqbr0","pricing_plan_id":"cebpf4jnsgd1na2vs0mg"},{"bike_id":"efe0556a-354f-4881-a68e-dd954c084992","system_id":"levelo_inurba_marseille","lat":43.27221,"lon":5.39195,"is_reserved":false,"is_disabled":false,"rental_uris":{"android":"levelo://app?vid=efe0556a-354f-4881-a68e-dd954c084992","ios":"levelo://app?vid=efe0556a-354f-4881-a68e-dd954c084992"},"vehicle_type_id":"4","last_reported":1729692517,"current_range_meters":32000,"station_id":"ce4bhhp2rcd13ifvqfm0","pricing_plan_id":"cebpf4jnsgd1na2vs0mg"},{"bike_id":"5386afc8-bc33-4a52-bb4e-d60c7f7fbfe9","system_id":"levelo_inurba_marseille","lat":43.25579,"lon":5.38225,"is_reserved":false,"is_disabled":false,"rental_uris":{"android":"levelo://app?vid=5386afc8-bc33-4a52-bb4e-d60c7f7fbfe9","ios":"levelo://app?vid=5386afc8-bc33-4a52-bb4e-d60c7f7fbfe9"},"vehicle_type_id":"4","last_reported":1729692517,"current_range_meters":36400,"station_id":"ce4bhih2rcd13ifvqfs0","pricing_plan_id":"cebpf4jnsgd1na2vs0mg"},{"bike_id":"95fee7e6-545f-489f-9112-f7df4d5c732c","system_id":"levelo_inurba_marseille","lat":43.31115,"lon":5.37775,"is_reserved":false,"is_disabled":false,"rental_uris":{"android":"levelo://app?vid=95fee7e6-545f-489f-9112-f7df4d5c732c","ios":"levelo://app?vid=95fee7e6-545f-489f-9112-f7df4d5c732c"},"vehicle_type_id":"4","last_reported":1729692517,"current_range_meters":38400,"station_id":"ce4bgt92rcd13ifvqcg0","pricing_plan_id":"cebpf4jnsgd1na2vs0mg"},{"bike_id":"c48193ad-323d-4674-805b-10a37a0e912b","system_id":"levelo_inurba_marseille","lat":43.29266,"lon":5.38433,"is_reserved":false,"is_disabled":false,"rental_uris":{"android":"levelo://app?vid=c48193ad-323d-4674-805b-10a37a0e912b","ios":"levelo://app?vid=c48193ad-323d-4674-805b-10a37a0e912b"},"vehicle_type_id":"4","last_reported":1729692517,"current_range_meters":24400,"station_id":"ce4bh692rcd13ifvqea0","pricing_plan_id":"cebpf4jnsgd1na2vs0mg"},{"bike_id":"d00b30a2-86fa-40d6-923a-16a6fb33dce8","system_id":"levelo_inurba_marseille","lat":43.2919,"lon":5.39308,"is_reserved":false,"is_disabled":false,"rental_uris":{"android":"levelo://app?vid=d00b30a2-86fa-40d6-923a-16a6fb33dce8","ios":"levelo://app?vid=d00b30a2-86fa-40d6-923a-16a6fb33dce8"},"vehicle_type_id":"4","last_reported":1729692517,"current_range_meters":36800,"station_id":"ce4bh192rcd13ifvqdd0","pricing_plan_id":"cebpf4jnsgd1na2vs0mg"},{"bike_id":"8487a3e6-8a12-4a47-8277-0d4988a4cd52","system_id":"levelo_inurba_marseille","lat":43.27053,"lon":5.40263,"is_reserved":false,"is_disabled":false,"rental_uris":{"android":"levelo://app?vid=8487a3e6-8a12-4a47-8277-0d4988a4cd52","ios":"levelo://app?vid=8487a3e6-8a12-4a47-8277-0d4988a4cd52"},"vehicle_type_id":"4","last_reported":1729692517,"current_range_meters":13600,"station_id":"ce4bhk92rcd13ifvqgc0","pricing_plan_id":"cebpf4jnsgd1na2vs0mg"},{"bike_id":"3e41417e-0b0c-4908-8670-c6d49ee292be","system_id":"levelo_inurba_marseille","lat":43.33779,"lon":5.37437,"is_reserved":false,"is_disabled":false,"rental_uris":{"android":"levelo://app?vid=3e41417e-0b0c-4908-8670-c6d49ee292be","ios":"levelo://app?vid=3e41417e-0b0c-4908-8670-c6d49ee292be"},"vehicle_type_id":"4","last_reported":1729692517,"current_range_meters":36800,"station_id":"","pricing_plan_id":"cebpf4jnsgd1na2vs0mg"},{"bike_id":"c0577493-6fdf-4288-93e2-1efb6212ffea","system_id":"levelo_inurba_marseille","lat":43.33021,"lon":5.39041,"is_reserved":false,"is_disabled":false,"rental_uris":{"android":"levelo://app?vid=c0577493-6fdf-4288-93e2-1efb6212ffea","ios":"levelo://app?vid=c0577493-6fdf-4288-93e2-1efb6212ffea"},"vehicle_type_id":"4","last_reported":1729692517,"current_range_meters":39200,"station_id":"ce4bhr92rcd13ifvqhrg","pricing_plan_id":"cebpf4jnsgd1na2vs0mg"},{"bike_id":"056ce170-be58-4841-8c8d-b76440abc31c","system_id":"levelo_inurba_marseille","lat":43.27679,"lon":5.38879,"is_reserved":false,"is_disabled":false,"rental_uris":{"android":"levelo://app?vid=056ce170-be58-4841-8c8d-b76440abc31c","ios":"levelo://app?vid=056ce170-be58-4841-8c8d-b76440abc31c"},"vehicle_type_id":"4","last_reported":1729692517,"current_range_meters":27200,"station_id":"ce4bhi12rcd13ifvqfo0","pricing_plan_id":"cebpf4jnsgd1na2vs0mg"},{"bike_id":"41d88964-dd53-43d5-850f-b9cd331ca310","system_id":"levelo_inurba_marseille","lat":43.25821,"lon":5.3943,"is_reserved":false,"is_disabled":false,"rental_uris":{"android":"levelo://app?vid=41d88964-dd53-43d5-850f-b9cd331ca310","ios":"levelo://app?vid=41d88964-dd53-43d5-850f-b9cd331ca310"},"vehicle_type_id":"4","last_reported":1729692517,"current_range_meters":17200,"station_id":"ce4bhip2rcd13ifvqft0","pricing_plan_id":"cebpf4jnsgd1na2vs0mg"},{"bike_id":"f5a53045-f9b0-4183-9fc6-73b35736d031","system_id":"levelo_inurba_marseille","lat":43.30293,"lon":5.37705,"is_reserved":false,"is_disabled":false,"rental_uris":{"android":"levelo://app?vid=f5a53045-f9b0-4183-9fc6-73b35736d031","ios":"levelo://app?vid=f5a53045-f9b0-4183-9fc6-73b35736d031"},"vehicle_type_id":"4","last_reported":1729692517,"current_range_meters":39200,"station_id":"ce4bguh2rcd13ifvqcj0","pricing_plan_id":"cebpf4jnsgd1na2vs0mg"},{"bike_id":"cbe10c03-fb85-436f-9ae4-c9a8a717f05b","system_id":"levelo_inurba_marseille","lat":43.31222,"lon":5.36848,"is_reserved":false,"is_disabled":false,"rental_uris":{"android":"levelo://app?vid=cbe10c03-fb85-436f-9ae4-c9a8a717f05b","ios":"levelo://app?vid=cbe10c03-fb85-436f-9ae4-c9a8a717f05b"},"vehicle_type_id":"4","last_reported":1729692517,"current_range_meters":38400,"station_id":"ce4bgl92rcd13ifvqbq0","pricing_plan_id":"cebpf4jnsgd1na2vs0mg"},{"bike_id":"8c21a646-e407-4d61-9538-182ced2a93a9","system_id":"levelo_inurba_marseille","lat":43.268,"lon":5.4026,"is_reserved":false,"is_disabled":false,"rental_uris":{"android":"levelo://app?vid=8c21a646-e407-4d61-9538-182ced2a93a9","ios":"levelo://app?vid=8c21a646-e407-4d61-9538-182ced2a93a9"},"vehicle_type_id":"4","last_reported":1729692517,"current_range_meters":24000,"station_id":"ce501612rcd8frsf0b60","pricing_plan_id":"cebpf4jnsgd1na2vs0mg"},{"bike_id":"414914c2-b327-4400-b964-fe55e5b17269","system_id":"levelo_inurba_marseille","lat":43.2721,"lon":5.39182,"is_reserved":false,"is_disabled":false,"rental_uris":{"android":"levelo://app?vid=414914c2-b327-4400-b964-fe55e5b17269","ios":"levelo://app?vid=414914c2-b327-4400-b964-fe55e5b17269"},"vehicle_type_id":"4","last_reported":1729692517,"current_range_meters":8800,"station_id":"ce4bhhp2rcd13ifvqfm0","pricing_plan_id":"cebpf4jnsgd1na2vs0mg"},{"bike_id":"e4c01e63-57c9-42fd-abc8-1eaf29405462","system_id":"levelo_inurba_marseille","lat":43.28713,"lon":5.37391,"is_reserved":false,"is_disabled":false,"rental_uris":{"android":"levelo://app?vid=e4c01e63-57c9-42fd-abc8-1eaf29405462","ios":"levelo://app?vid=e4c01e63-57c9-42fd-abc8-1eaf29405462"},"vehicle_type_id":"4","last_reported":1729692517,"current_range_meters":24400,"station_id":"ce4bh3p2rcd13ifvqdq0","pricing_plan_id":"cebpf4jnsgd1na2vs0mg"},{"bike_id":"95483d55-6676-426a-9b35-531d8cb5c448","system_id":"levelo_inurba_marseille","lat":43.32658,"lon":5.4099,"is_reserved":false,"is_disabled":false,"rental_uris":{"android":"levelo://app?vid=95483d55-6676-426a-9b35-531d8cb5c448","ios":"levelo://app?vid=95483d55-6676-426a-9b35-531d8cb5c448"},"vehicle_type_id":"4","last_reported":1729692517,"current_range_meters":37600,"station_id":"ce4bhpp2rcd13ifvqhgg","pricing_plan_id":"cebpf4jnsgd1na2vs0mg"},{"bike_id":"66efd872-f411-4b85-a4d6-63b2d32ff392","system_id":"levelo_inurba_marseille","lat":43.292,"lon":5.35802,"is_reserved":false,"is_disabled":false,"rental_uris":{"android":"levelo://app?vid=66efd872-f411-4b85-a4d6-63b2d32ff392","ios":"levelo://app?vid=66efd872-f411-4b85-a4d6-63b2d32ff392"},"vehicle_type_id":"4","last_reported":1729692517,"current_range_meters":27200,"station_id":"ce4bhb12rcd13ifvqel0","pricing_plan_id":"cebpf4jnsgd1na2vs0mg"},{"bike_id":"6f2c7702-52d4-415b-afa4-f805ba0ddbd0","system_id":"levelo_inurba_marseille","lat":43.31118,"lon":5.37777,"is_reserved":false,"is_disabled":false,"rental_uris":{"android":"levelo://app?vid=6f2c7702-52d4-415b-afa4-f805ba0ddbd0","ios":"levelo://app?vid=6f2c7702-52d4-415b-afa4-f805ba0ddbd0"},"vehicle_type_id":"4","last_reported":1729692517,"current_range_meters":24400,"station_id":"ce4bgt92rcd13ifvqcg0","pricing_plan_id":"cebpf4jnsgd1na2vs0mg"},{"bike_id":"f909380b-42c8-426c-bc58-38b8ee3d4113","system_id":"levelo_inurba_marseille","lat":43.30144,"lon":5.38773,"is_reserved":false,"is_disabled":false,"rental_uris":{"android":"levelo://app?vid=f909380b-42c8-426c-bc58-38b8ee3d4113","ios":"levelo://app?vid=f909380b-42c8-426c-bc58-38b8ee3d4113"},"vehicle_type_id":"4","last_reported":1729692517,"current_range_meters":34000,"station_id":"ce4bghh2rcd13ifvqb60","pricing_plan_id":"cebpf4jnsgd1na2vs0mg"},{"bike_id":"bdc10d94-19c7-4af1-bf5c-9b96cea2302d","system_id":"levelo_inurba_marseille","lat":43.33021,"lon":5.39039,"is_reserved":false,"is_disabled":false,"rental_uris":{"android":"levelo://app?vid=bdc10d94-19c7-4af1-bf5c-9b96cea2302d","ios":"levelo://app?vid=bdc10d94-19c7-4af1-bf5c-9b96cea2302d"},"vehicle_type_id":"4","last_reported":1729692517,"current_range_meters":37600,"station_id":"ce4bhr92rcd13ifvqhrg","pricing_plan_id":"cebpf4jnsgd1na2vs0mg"},{"bike_id":"52f95e33-56b7-4f95-bce7-7fd2e7f6cd16","system_id":"levelo_inurba_marseille","lat":43.32579,"lon":5.42413,"is_reserved":false,"is_disabled":false,"rental_uris":{"android":"levelo://app?vid=52f95e33-56b7-4f95-bce7-7fd2e7f6cd16","ios":"levelo://app?vid=52f95e33-56b7-4f95-bce7-7fd2e7f6cd16"},"vehicle_type_id":"4","last_reported":1729692517,"current_range_meters":28800,"station_id":"","pricing_plan_id":"cebpf4jnsgd1na2vs0mg"},{"bike_id":"26f903ce-b7d3-42f5-9cdc-b9284b7745bd","system_id":"levelo_inurba_marseille","lat":43.2963,"lon":5.40605,"is_reserved":false,"is_disabled":false,"rental_uris":{"android":"levelo://app?vid=26f903ce-b7d3-42f5-9cdc-b9284b7745bd","ios":"levelo://app?vid=26f903ce-b7d3-42f5-9cdc-b9284b7745bd"},"vehicle_type_id":"4","last_reported":1729692517,"current_range_meters":38400,"station_id":"ce4bh0h2rcd13ifvqd60","pricing_plan_id":"cebpf4jnsgd1na2vs0mg"},{"bike_id":"2df57d9c-b025-4fc9-a0c0-a69158eb59f3","system_id":"levelo_inurba_marseille","lat":43.32111,"lon":5.36777,"is_reserved":false,"is_disabled":false,"rental_uris":{"android":"levelo://app?vid=2df57d9c-b025-4fc9-a0c0-a69158eb59f3","ios":"levelo://app?vid=2df57d9c-b025-4fc9-a0c0-a69158eb59f3"},"vehicle_type_id":"4","last_reported":1729692517,"current_range_meters":18800,"station_id":"ce4bhrh2rcd13ifvqhug","pricing_plan_id":"cebpf4jnsgd1na2vs0mg"},{"bike_id":"53d78d43-790e-42e4-9da9-6899a6ba8441","system_id":"levelo_inurba_marseille","lat":43.321127,"lon":5.367761,"is_reserved":false,"is_disabled":false,"rental_uris":{"android":"levelo://app?vid=53d78d43-790e-42e4-9da9-6899a6ba8441","ios":"levelo://app?vid=53d78d43-790e-42e4-9da9-6899a6ba8441"},"vehicle_type_id":"4","last_reported":1729692517,"current_range_meters":24400,"station_id":"ce4bhrh2rcd13ifvqhug","pricing_plan_id":"cebpf4jnsgd1na2vs0mg"},{"bike_id":"2aed6180-6005-4955-bf48-a992fd562d7e","system_id":"levelo_inurba_marseille","lat":43.30157,"lon":5.38097,"is_reserved":false,"is_disabled":false,"rental_uris":{"android":"levelo://app?vid=2aed6180-6005-4955-bf48-a992fd562d7e","ios":"levelo://app?vid=2aed6180-6005-4955-bf48-a992fd562d7e"},"vehicle_type_id":"4","last_reported":1729692517,"current_range_meters":17200,"station_id":"ce4bgjp2rcd13ifvqbh0","pricing_plan_id":"cebpf4jnsgd1na2vs0mg"},{"bike_id":"1d354c04-f7ed-4747-a0ab-f334fd64349a","system_id":"levelo_inurba_marseille","lat":43.26783,"lon":5.3942,"is_reserved":false,"is_disabled":false,"rental_uris":{"android":"levelo://app?vid=1d354c04-f7ed-4747-a0ab-f334fd64349a","ios":"levelo://app?vid=1d354c04-f7ed-4747-a0ab-f334fd64349a"},"vehicle_type_id":"4","last_reported":1729692517,"current_range_meters":30400,"station_id":"ce4bhh12rcd13ifvqfg0","pricing_plan_id":"cebpf4jnsgd1na2vs0mg"},{"bike_id":"503eae7b-f707-4851-92c5-aabb28d72da5","system_id":"levelo_inurba_marseille","lat":43.29617,"lon":5.37727,"is_reserved":false,"is_disabled":false,"rental_uris":{"android":"levelo://app?vid=503eae7b-f707-4851-92c5-aabb28d72da5","ios":"levelo://app?vid=503eae7b-f707-4851-92c5-aabb28d72da5"},"vehicle_type_id":"4","last_reported":1729692517,"current_range_meters":27200,"station_id":"ce4bgi92rcd13ifvqb90","pricing_plan_id":"cebpf4jnsgd1na2vs0mg"},{"bike_id":"06dd2ee9-7252-4e6e-a9d1-15a17d7a2cf0","system_id":"levelo_inurba_marseille","lat":43.30533,"lon":5.36535,"is_reserved":false,"is_disabled":false,"rental_uris":{"android":"levelo://app?vid=06dd2ee9-7252-4e6e-a9d1-15a17d7a2cf0","ios":"levelo://app?vid=06dd2ee9-7252-4e6e-a9d1-15a17d7a2cf0"},"vehicle_type_id":"4","last_reported":1729692517,"current_range_meters":14400,"station_id":"ce4bgs12rcd13ifvqcag","pricing_plan_id":"cebpf4jnsgd1na2vs0mg"},{"bike_id":"55da0b18-0d3d-47f9-acd3-b75661839685","system_id":"levelo_inurba_marseille","lat":43.29024,"lon":5.38141,"is_reserved":false,"is_disabled":false,"rental_uris":{"android":"levelo://app?vid=55da0b18-0d3d-47f9-acd3-b75661839685","ios":"levelo://app?vid=55da0b18-0d3d-47f9-acd3-b75661839685"},"vehicle_type_id":"4","last_reported":1729692517,"current_range_meters":12400,"station_id":"ce4bh4p2rcd13ifvqe1g","pricing_plan_id":"cebpf4jnsgd1na2vs0mg"},{"bike_id":"d11144d8-7dc9-4cd6-a909-199a15988c11","system_id":"levelo_inurba_marseille","lat":43.27323,"lon":5.39093,"is_reserved":false,"is_disabled":false,"rental_uris":{"android":"levelo://app?vid=d11144d8-7dc9-4cd6-a909-199a15988c11","ios":"levelo://app?vid=d11144d8-7dc9-4cd6-a909-199a15988c11"},"vehicle_type_id":"4","last_reported":1729692517,"current_range_meters":16400,"station_id":"ce4bhgp2rcd13ifvqfe0","pricing_plan_id":"cebpf4jnsgd1na2vs0mg"},{"bike_id":"1f49394c-4868-45e7-9d84-9fb5cef866de","system_id":"levelo_inurba_marseille","lat":43.29135,"lon":5.37943,"is_reserved":false,"is_disabled":false,"rental_uris":{"android":"levelo://app?vid=1f49394c-4868-45e7-9d84-9fb5cef866de","ios":"levelo://app?vid=1f49394c-4868-45e7-9d84-9fb5cef866de"},"vehicle_type_id":"4","last_reported":1729692517,"current_range_meters":35600,"station_id":"ce4bh9p2rcd13ifvqec0","pricing_plan_id":"cebpf4jnsgd1na2vs0mg"},{"bike_id":"6dd69329-5579-4944-b6a8-e4932f66ff5c","system_id":"levelo_inurba_marseille","lat":43.316864,"lon":5.404733,"is_reserved":false,"is_disabled":false,"rental_uris":{"android":"levelo://app?vid=6dd69329-5579-4944-b6a8-e4932f66ff5c","ios":"levelo://app?vid=6dd69329-5579-4944-b6a8-e4932f66ff5c"},"vehicle_type_id":"4","last_reported":1729692517,"current_range_meters":13600,"station_id":"ce4bh012rcd13ifvqd00","pricing_plan_id":"cebpf4jnsgd1na2vs0mg"},{"bike_id":"be9773f2-0210-449f-bdb9-515efac7263f","system_id":"levelo_inurba_marseille","lat":43.31326,"lon":5.39695,"is_reserved":false,"is_disabled":false,"rental_uris":{"android":"levelo://app?vid=be9773f2-0210-449f-bdb9-515efac7263f","ios":"levelo://app?vid=be9773f2-0210-449f-bdb9-515efac7263f"},"vehicle_type_id":"4","last_reported":1729692517,"current_range_meters":39200,"station_id":"ce4bgvp2rcd13ifvqcu0","pricing_plan_id":"cebpf4jnsgd1na2vs0mg"},{"bike_id":"b7393e49-91da-4125-a929-c292a93434a4","system_id":"levelo_inurba_marseille","lat":43.24076,"lon":5.37745,"is_reserved":false,"is_disabled":false,"rental_uris":{"android":"levelo://app?vid=b7393e49-91da-4125-a929-c292a93434a4","ios":"levelo://app?vid=b7393e49-91da-4125-a929-c292a93434a4"},"vehicle_type_id":"4","last_reported":1729692517,"current_range_meters":23200,"station_id":"ce4bhnp2rcd13ifvqgvg","pricing_plan_id":"cebpf4jnsgd1na2vs0mg"},{"bike_id":"f437f324-6469-4f55-acf7-1bfdbcb14ca1","system_id":"levelo_inurba_marseille","lat":43.311556,"lon":5.386991,"is_reserved":false,"is_disabled":false,"rental_uris":{"android":"levelo://app?vid=f437f324-6469-4f55-acf7-1bfdbcb14ca1","ios":"levelo://app?vid=f437f324-6469-4f55-acf7-1bfdbcb14ca1"},"vehicle_type_id":"4","last_reported":1729692517,"current_range_meters":4800,"station_id":"ce4bgt92rcd13ifvqcf0","pricing_plan_id":"cebpf4jnsgd1na2vs0mg"},{"bike_id":"63d0b8ed-0f2c-4b55-b689-2c877a34bdc1","system_id":"levelo_inurba_marseille","lat":43.2919,"lon":5.39321,"is_reserved":false,"is_disabled":false,"rental_uris":{"android":"levelo://app?vid=63d0b8ed-0f2c-4b55-b689-2c877a34bdc1","ios":"levelo://app?vid=63d0b8ed-0f2c-4b55-b689-2c877a34bdc1"},"vehicle_type_id":"4","last_reported":1729692517,"current_range_meters":28000,"station_id":"ce4bh192rcd13ifvqdd0","pricing_plan_id":"cebpf4jnsgd1na2vs0mg"},{"bike_id":"0e7198cd-7129-4c46-995a-a820dcd7ee47","system_id":"levelo_inurba_marseille","lat":43.26927,"lon":5.38914,"is_reserved":false,"is_disabled":false,"rental_uris":{"android":"levelo://app?vid=0e7198cd-7129-4c46-995a-a820dcd7ee47","ios":"levelo://app?vid=0e7198cd-7129-4c46-995a-a820dcd7ee47"},"vehicle_type_id":"4","last_reported":1729692517,"current_range_meters":34000,"station_id":"ce4bhhh2rcd13ifvqfl0","pricing_plan_id":"cebpf4jnsgd1na2vs0mg"},{"bike_id":"9639bebd-201e-4b55-9187-2633b106e19c","system_id":"levelo_inurba_marseille","lat":43.3302,"lon":5.39034,"is_reserved":false,"is_disabled":false,"rental_uris":{"android":"levelo://app?vid=9639bebd-201e-4b55-9187-2633b106e19c","ios":"levelo://app?vid=9639bebd-201e-4b55-9187-2633b106e19c"},"vehicle_type_id":"4","last_reported":1729692517,"current_range_meters":39200,"station_id":"ce4bhr92rcd13ifvqhrg","pricing_plan_id":"cebpf4jnsgd1na2vs0mg"},{"bike_id":"99ae1072-103e-401d-afba-fb62ba57af61","system_id":"levelo_inurba_marseille","lat":43.2873,"lon":5.36088,"is_reserved":false,"is_disabled":false,"rental_uris":{"android":"levelo://app?vid=99ae1072-103e-401d-afba-fb62ba57af61","ios":"levelo://app?vid=99ae1072-103e-401d-afba-fb62ba57af61"},"vehicle_type_id":"4","last_reported":1729692517,"current_range_meters":24000,"station_id":"cki0cbj6b192h4jlfktg","pricing_plan_id":"cebpf4jnsgd1na2vs0mg"},{"bike_id":"0471d980-d6ba-4639-bdc1-f6f4f95ced4d","system_id":"levelo_inurba_marseille","lat":43.275613,"lon":5.359799,"is_reserved":false,"is_disabled":false,"rental_uris":{"android":"levelo://app?vid=0471d980-d6ba-4639-bdc1-f6f4f95ced4d","ios":"levelo://app?vid=0471d980-d6ba-4639-bdc1-f6f4f95ced4d"},"vehicle_type_id":"4","last_reported":1729692517,"current_range_meters":10000,"station_id":"ce4bhah2rcd13ifvqei0","pricing_plan_id":"cebpf4jnsgd1na2vs0mg"},{"bike_id":"18838cb4-8403-47c3-a296-5ce5399c6ba1","system_id":"levelo_inurba_marseille","lat":43.28612,"lon":5.37058,"is_reserved":false,"is_disabled":false,"rental_uris":{"android":"levelo://app?vid=18838cb4-8403-47c3-a296-5ce5399c6ba1","ios":"levelo://app?vid=18838cb4-8403-47c3-a296-5ce5399c6ba1"},"vehicle_type_id":"4","last_reported":1729692517,"current_range_meters":16000,"station_id":"ce4bht12rcd13ifvqi60","pricing_plan_id":"cebpf4jnsgd1na2vs0mg"},{"bike_id":"ae2ce2d4-fc19-4d51-989f-983c86c83842","system_id":"levelo_inurba_marseille","lat":43.3302,"lon":5.39041,"is_reserved":false,"is_disabled":false,"rental_uris":{"android":"levelo://app?vid=ae2ce2d4-fc19-4d51-989f-983c86c83842","ios":"levelo://app?vid=ae2ce2d4-fc19-4d51-989f-983c86c83842"},"vehicle_type_id":"4","last_reported":1729692517,"current_range_meters":39200,"station_id":"ce4bhr92rcd13ifvqhrg","pricing_plan_id":"cebpf4jnsgd1na2vs0mg"},{"bike_id":"26544c47-13ba-40a0-affa-6c9daa374698","system_id":"levelo_inurba_marseille","lat":43.31458,"lon":5.3738,"is_reserved":false,"is_disabled":false,"rental_uris":{"android":"levelo://app?vid=26544c47-13ba-40a0-affa-6c9daa374698","ios":"levelo://app?vid=26544c47-13ba-40a0-affa-6c9daa374698"},"vehicle_type_id":"4","last_reported":1729692517,"current_range_meters":38800,"station_id":"","pricing_plan_id":"cebpf4jnsgd1na2vs0mg"},{"bike_id":"c2ce141d-6e76-44dc-931b-253d09157587","system_id":"levelo_inurba_marseille","lat":43.24999,"lon":5.38933,"is_reserved":false,"is_disabled":false,"rental_uris":{"android":"levelo://app?vid=c2ce141d-6e76-44dc-931b-253d09157587","ios":"levelo://app?vid=c2ce141d-6e76-44dc-931b-253d09157587"},"vehicle_type_id":"4","last_reported":1729692517,"current_range_meters":37600,"station_id":"ce4bhgp2rcd13ifvqfd0","pricing_plan_id":"cebpf4jnsgd1na2vs0mg"},{"bike_id":"b36c5089-d3ef-4701-824b-f60255113841","system_id":"levelo_inurba_marseille","lat":43.33759,"lon":5.37443,"is_reserved":false,"is_disabled":false,"rental_uris":{"android":"levelo://app?vid=b36c5089-d3ef-4701-824b-f60255113841","ios":"levelo://app?vid=b36c5089-d3ef-4701-824b-f60255113841"},"vehicle_type_id":"4","last_reported":1729692517,"current_range_meters":38400,"station_id":"","pricing_plan_id":"cebpf4jnsgd1na2vs0mg"},{"bike_id":"96984c27-f0c4-4478-90f9-ffcf849a3347","system_id":"levelo_inurba_marseille","lat":43.29263,"lon":5.40912,"is_reserved":false,"is_disabled":false,"rental_uris":{"android":"levelo://app?vid=96984c27-f0c4-4478-90f9-ffcf849a3347","ios":"levelo://app?vid=96984c27-f0c4-4478-90f9-ffcf849a3347"},"vehicle_type_id":"4","last_reported":1729692517,"current_range_meters":23200,"station_id":"ce4bh192rcd13ifvqdc0","pricing_plan_id":"cebpf4jnsgd1na2vs0mg"},{"bike_id":"005222e6-3f57-462e-980c-0c87063d00fa","system_id":"levelo_inurba_marseille","lat":43.31084,"lon":5.38364,"is_reserved":false,"is_disabled":false,"rental_uris":{"android":"levelo://app?vid=005222e6-3f57-462e-980c-0c87063d00fa","ios":"levelo://app?vid=005222e6-3f57-462e-980c-0c87063d00fa"},"vehicle_type_id":"4","last_reported":1729692517,"current_range_meters":17600,"station_id":"ce4bgv92rcd13ifvqcr0","pricing_plan_id":"cebpf4jnsgd1na2vs0mg"},{"bike_id":"f5ede32b-5e29-4acd-8154-16151d063f45","system_id":"levelo_inurba_marseille","lat":43.29911,"lon":5.38139,"is_reserved":false,"is_disabled":false,"rental_uris":{"android":"levelo://app?vid=f5ede32b-5e29-4acd-8154-16151d063f45","ios":"levelo://app?vid=f5ede32b-5e29-4acd-8154-16151d063f45"},"vehicle_type_id":"4","last_reported":1729692517,"current_range_meters":37600,"station_id":"ce4bgj12rcd13ifvqbc0","pricing_plan_id":"cebpf4jnsgd1na2vs0mg"},{"bike_id":"7a942e2e-3f89-41b6-aa6e-24f40537faa3","system_id":"levelo_inurba_marseille","lat":43.25828,"lon":5.39429,"is_reserved":false,"is_disabled":false,"rental_uris":{"android":"levelo://app?vid=7a942e2e-3f89-41b6-aa6e-24f40537faa3","ios":"levelo://app?vid=7a942e2e-3f89-41b6-aa6e-24f40537faa3"},"vehicle_type_id":"4","last_reported":1729692517,"current_range_meters":6000,"station_id":"ce4bhip2rcd13ifvqft0","pricing_plan_id":"cebpf4jnsgd1na2vs0mg"},{"bike_id":"d0a2447a-a990-4228-bf62-fb82770be87b","system_id":"levelo_inurba_marseille","lat":43.29791,"lon":5.37105,"is_reserved":false,"is_disabled":false,"rental_uris":{"android":"levelo://app?vid=d0a2447a-a990-4228-bf62-fb82770be87b","ios":"levelo://app?vid=d0a2447a-a990-4228-bf62-fb82770be87b"},"vehicle_type_id":"4","last_reported":1729692517,"current_range_meters":36800,"station_id":"ce4bgop2rcd13ifvqc1g","pricing_plan_id":"cebpf4jnsgd1na2vs0mg"},{"bike_id":"2aa60c72-6956-49c9-8279-e13909d4a923","system_id":"levelo_inurba_marseille","lat":43.31486,"lon":5.37303,"is_reserved":false,"is_disabled":false,"rental_uris":{"android":"levelo://app?vid=2aa60c72-6956-49c9-8279-e13909d4a923","ios":"levelo://app?vid=2aa60c72-6956-49c9-8279-e13909d4a923"},"vehicle_type_id":"4","last_reported":1729692517,"current_range_meters":37600,"station_id":"ce4bgt12rcd13ifvqcd0","pricing_plan_id":"cebpf4jnsgd1na2vs0mg"},{"bike_id":"b5658527-983a-4163-9ca8-d5baffd03c1a","system_id":"levelo_inurba_marseille","lat":43.30332,"lon":5.40428,"is_reserved":false,"is_disabled":false,"rental_uris":{"android":"levelo://app?vid=b5658527-983a-4163-9ca8-d5baffd03c1a","ios":"levelo://app?vid=b5658527-983a-4163-9ca8-d5baffd03c1a"},"vehicle_type_id":"4","last_reported":1729692517,"current_range_meters":12800,"station_id":"ce4bh012rcd13ifvqd10","pricing_plan_id":"cebpf4jnsgd1na2vs0mg"},{"bike_id":"f483f593-b27a-45bc-a949-0596e90322bd","system_id":"levelo_inurba_marseille","lat":43.30557,"lon":5.36525,"is_reserved":false,"is_disabled":false,"rental_uris":{"android":"levelo://app?vid=f483f593-b27a-45bc-a949-0596e90322bd","ios":"levelo://app?vid=f483f593-b27a-45bc-a949-0596e90322bd"},"vehicle_type_id":"4","last_reported":1729692517,"current_range_meters":5600,"station_id":"ce4bgs12rcd13ifvqcag","pricing_plan_id":"cebpf4jnsgd1na2vs0mg"},{"bike_id":"927a9ca0-9f48-493a-8d09-f98c0f0c1f2a","system_id":"levelo_inurba_marseille","lat":43.26807,"lon":5.40262,"is_reserved":false,"is_disabled":false,"rental_uris":{"android":"levelo://app?vid=927a9ca0-9f48-493a-8d09-f98c0f0c1f2a","ios":"levelo://app?vid=927a9ca0-9f48-493a-8d09-f98c0f0c1f2a"},"vehicle_type_id":"4","last_reported":1729692517,"current_range_meters":39200,"station_id":"ce501612rcd8frsf0b60","pricing_plan_id":"cebpf4jnsgd1na2vs0mg"},{"bike_id":"f08adf56-3656-4832-b8b5-be891df678fc","system_id":"levelo_inurba_marseille","lat":43.29798,"lon":5.3809,"is_reserved":false,"is_disabled":false,"rental_uris":{"android":"levelo://app?vid=f08adf56-3656-4832-b8b5-be891df678fc","ios":"levelo://app?vid=f08adf56-3656-4832-b8b5-be891df678fc"},"vehicle_type_id":"4","last_reported":1729692517,"current_range_meters":4000,"station_id":"ce4bgip2rcd13ifvqbb0","pricing_plan_id":"cebpf4jnsgd1na2vs0mg"},{"bike_id":"945ad10d-c951-4d28-b5ae-c14a3ffa3ffe","system_id":"levelo_inurba_marseille","lat":43.30536,"lon":5.36701,"is_reserved":false,"is_disabled":false,"rental_uris":{"android":"levelo://app?vid=945ad10d-c951-4d28-b5ae-c14a3ffa3ffe","ios":"levelo://app?vid=945ad10d-c951-4d28-b5ae-c14a3ffa3ffe"},"vehicle_type_id":"4","last_reported":1729692517,"current_range_meters":39200,"station_id":"ce4bgrp2rcd13ifvqc9g","pricing_plan_id":"cebpf4jnsgd1na2vs0mg"},{"bike_id":"e8a88410-dafc-44fc-9302-8a9ea29a82fa","system_id":"levelo_inurba_marseille","lat":43.24078,"lon":5.3776,"is_reserved":false,"is_disabled":false,"rental_uris":{"android":"levelo://app?vid=e8a88410-dafc-44fc-9302-8a9ea29a82fa","ios":"levelo://app?vid=e8a88410-dafc-44fc-9302-8a9ea29a82fa"},"vehicle_type_id":"4","last_reported":1729692517,"current_range_meters":7200,"station_id":"ce4bhnp2rcd13ifvqgvg","pricing_plan_id":"cebpf4jnsgd1na2vs0mg"},{"bike_id":"184b0eb9-d9a4-42d2-bdec-6087e7423df5","system_id":"levelo_inurba_marseille","lat":43.29262,"lon":5.40917,"is_reserved":false,"is_disabled":false,"rental_uris":{"android":"levelo://app?vid=184b0eb9-d9a4-42d2-bdec-6087e7423df5","ios":"levelo://app?vid=184b0eb9-d9a4-42d2-bdec-6087e7423df5"},"vehicle_type_id":"4","last_reported":1729692517,"current_range_meters":39200,"station_id":"ce4bh192rcd13ifvqdc0","pricing_plan_id":"cebpf4jnsgd1na2vs0mg"},{"bike_id":"a521c087-18c7-447f-8e24-cf248805e64a","system_id":"levelo_inurba_marseille","lat":43.27684,"lon":5.38908,"is_reserved":false,"is_disabled":false,"rental_uris":{"android":"levelo://app?vid=a521c087-18c7-447f-8e24-cf248805e64a","ios":"levelo://app?vid=a521c087-18c7-447f-8e24-cf248805e64a"},"vehicle_type_id":"4","last_reported":1729692517,"current_range_meters":26800,"station_id":"ce4bhi12rcd13ifvqfo0","pricing_plan_id":"cebpf4jnsgd1na2vs0mg"},{"bike_id":"7d9bae66-75c0-414c-b6e5-1dae4af5c1cb","system_id":"levelo_inurba_marseille","lat":43.22929,"lon":5.35377,"is_reserved":false,"is_disabled":false,"rental_uris":{"android":"levelo://app?vid=7d9bae66-75c0-414c-b6e5-1dae4af5c1cb","ios":"levelo://app?vid=7d9bae66-75c0-414c-b6e5-1dae4af5c1cb"},"vehicle_type_id":"4","last_reported":1729692517,"current_range_meters":36800,"station_id":"cpo3532slgdg3j2ikp40","pricing_plan_id":"cebpf4jnsgd1na2vs0mg"},{"bike_id":"4e276d42-566f-4f66-b5ef-13abb1b4295a","system_id":"levelo_inurba_marseille","lat":43.30132,"lon":5.38786,"is_reserved":false,"is_disabled":false,"rental_uris":{"android":"levelo://app?vid=4e276d42-566f-4f66-b5ef-13abb1b4295a","ios":"levelo://app?vid=4e276d42-566f-4f66-b5ef-13abb1b4295a"},"vehicle_type_id":"4","last_reported":1729692517,"current_range_meters":16000,"station_id":"ce4bghh2rcd13ifvqb60","pricing_plan_id":"cebpf4jnsgd1na2vs0mg"},{"bike_id":"267525ef-daab-467b-8b3f-6fd722aebbfe","system_id":"levelo_inurba_marseille","lat":43.28405,"lon":5.37533,"is_reserved":false,"is_disabled":false,"rental_uris":{"android":"levelo://app?vid=267525ef-daab-467b-8b3f-6fd722aebbfe","ios":"levelo://app?vid=267525ef-daab-467b-8b3f-6fd722aebbfe"},"vehicle_type_id":"4","last_reported":1729692517,"current_range_meters":10800,"station_id":"ce4bh412rcd13ifvqds0","pricing_plan_id":"cebpf4jnsgd1na2vs0mg"},{"bike_id":"e48368c0-94b3-4b99-b196-7496a6c0293a","system_id":"levelo_inurba_marseille","lat":43.31074,"lon":5.38351,"is_reserved":false,"is_disabled":false,"rental_uris":{"android":"levelo://app?vid=e48368c0-94b3-4b99-b196-7496a6c0293a","ios":"levelo://app?vid=e48368c0-94b3-4b99-b196-7496a6c0293a"},"vehicle_type_id":"4","last_reported":1729692517,"current_range_meters":26000,"station_id":"ce4bgv92rcd13ifvqcr0","pricing_plan_id":"cebpf4jnsgd1na2vs0mg"},{"bike_id":"6a7c559a-999e-4fbe-bf60-29024c235332","system_id":"levelo_inurba_marseille","lat":43.308912,"lon":5.371946,"is_reserved":false,"is_disabled":false,"rental_uris":{"android":"levelo://app?vid=6a7c559a-999e-4fbe-bf60-29024c235332","ios":"levelo://app?vid=6a7c559a-999e-4fbe-bf60-29024c235332"},"vehicle_type_id":"4","last_reported":1729692517,"current_range_meters":33600,"station_id":"ce4bguh2rcd13ifvqckg","pricing_plan_id":"cebpf4jnsgd1na2vs0mg"},{"bike_id":"65e94b75-881b-4359-9a15-ae580e16bc18","system_id":"levelo_inurba_marseille","lat":43.30531,"lon":5.36709,"is_reserved":false,"is_disabled":false,"rental_uris":{"android":"levelo://app?vid=65e94b75-881b-4359-9a15-ae580e16bc18","ios":"levelo://app?vid=65e94b75-881b-4359-9a15-ae580e16bc18"},"vehicle_type_id":"4","last_reported":1729692517,"current_range_meters":38400,"station_id":"ce4bgrp2rcd13ifvqc9g","pricing_plan_id":"cebpf4jnsgd1na2vs0mg"},{"bike_id":"f3bcae91-c388-4c54-9f03-56e0f2ade2bd","system_id":"levelo_inurba_marseille","lat":43.309477,"lon":5.390407,"is_reserved":false,"is_disabled":false,"rental_uris":{"android":"levelo://app?vid=f3bcae91-c388-4c54-9f03-56e0f2ade2bd","ios":"levelo://app?vid=f3bcae91-c388-4c54-9f03-56e0f2ade2bd"},"vehicle_type_id":"4","last_reported":1729692517,"current_range_meters":12800,"station_id":"ce4bgup2rcd13ifvqco0","pricing_plan_id":"cebpf4jnsgd1na2vs0mg"},{"bike_id":"927e91b0-95e6-4b72-8f68-fa39bc0b4f1c","system_id":"levelo_inurba_marseille","lat":43.292603,"lon":5.363553,"is_reserved":false,"is_disabled":false,"rental_uris":{"android":"levelo://app?vid=927e91b0-95e6-4b72-8f68-fa39bc0b4f1c","ios":"levelo://app?vid=927e91b0-95e6-4b72-8f68-fa39bc0b4f1c"},"vehicle_type_id":"4","last_reported":1729692517,"current_range_meters":25600,"station_id":"ce4bgh92rcd13ifvqb40","pricing_plan_id":"cebpf4jnsgd1na2vs0mg"},{"bike_id":"71e9a8a1-e25b-4beb-a3a3-0dbc8f98e9ca","system_id":"levelo_inurba_marseille","lat":43.33765,"lon":5.37436,"is_reserved":false,"is_disabled":false,"rental_uris":{"android":"levelo://app?vid=71e9a8a1-e25b-4beb-a3a3-0dbc8f98e9ca","ios":"levelo://app?vid=71e9a8a1-e25b-4beb-a3a3-0dbc8f98e9ca"},"vehicle_type_id":"4","last_reported":1729692517,"current_range_meters":38800,"station_id":"","pricing_plan_id":"cebpf4jnsgd1na2vs0mg"},{"bike_id":"4f6e48e1-d18c-4ef1-8739-6f3d76585a44","system_id":"levelo_inurba_marseille","lat":43.25004,"lon":5.38933,"is_reserved":false,"is_disabled":false,"rental_uris":{"android":"levelo://app?vid=4f6e48e1-d18c-4ef1-8739-6f3d76585a44","ios":"levelo://app?vid=4f6e48e1-d18c-4ef1-8739-6f3d76585a44"},"vehicle_type_id":"4","last_reported":1729692517,"current_range_meters":34800,"station_id":"ce4bhgp2rcd13ifvqfd0","pricing_plan_id":"cebpf4jnsgd1na2vs0mg"},{"bike_id":"c803187e-448f-4d8d-ad3a-ff36110a20d0","system_id":"levelo_inurba_marseille","lat":43.31357,"lon":5.36697,"is_reserved":false,"is_disabled":false,"rental_uris":{"android":"levelo://app?vid=c803187e-448f-4d8d-ad3a-ff36110a20d0","ios":"levelo://app?vid=c803187e-448f-4d8d-ad3a-ff36110a20d0"},"vehicle_type_id":"4","last_reported":1729692517,"current_range_meters":38800,"station_id":"ce4bgr92rcd13ifvqc6g","pricing_plan_id":"cebpf4jnsgd1na2vs0mg"},{"bike_id":"2332a86d-76aa-40d7-be95-65822e2a089b","system_id":"levelo_inurba_marseille","lat":43.305869,"lon":5.396914,"is_reserved":false,"is_disabled":false,"rental_uris":{"android":"levelo://app?vid=2332a86d-76aa-40d7-be95-65822e2a089b","ios":"levelo://app?vid=2332a86d-76aa-40d7-be95-65822e2a089b"},"vehicle_type_id":"4","last_reported":1729692517,"current_range_meters":24400,"station_id":"ce4bgkh2rcd13ifvqbl0","pricing_plan_id":"cebpf4jnsgd1na2vs0mg"},{"bike_id":"ba14fd94-df7d-4375-bc3c-4b43231ffd5b","system_id":"levelo_inurba_marseille","lat":43.28454,"lon":5.35889,"is_reserved":false,"is_disabled":false,"rental_uris":{"android":"levelo://app?vid=ba14fd94-df7d-4375-bc3c-4b43231ffd5b","ios":"levelo://app?vid=ba14fd94-df7d-4375-bc3c-4b43231ffd5b"},"vehicle_type_id":"4","last_reported":1729692517,"current_range_meters":17600,"station_id":"ce4bhah2rcd13ifvqei0","pricing_plan_id":"cebpf4jnsgd1na2vs0mg"},{"bike_id":"f4081b57-5292-412b-af63-f0b72c332691","system_id":"levelo_inurba_marseille","lat":43.24172,"lon":5.36398,"is_reserved":false,"is_disabled":false,"rental_uris":{"android":"levelo://app?vid=f4081b57-5292-412b-af63-f0b72c332691","ios":"levelo://app?vid=f4081b57-5292-412b-af63-f0b72c332691"},"vehicle_type_id":"4","last_reported":1729692517,"current_range_meters":28800,"station_id":"cpo36qri1sfpv3e86is0","pricing_plan_id":"cebpf4jnsgd1na2vs0mg"},{"bike_id":"8a2dd17a-483c-452c-ab34-1ed74942d8d5","system_id":"levelo_inurba_marseille","lat":43.28155,"lon":5.42651,"is_reserved":false,"is_disabled":false,"rental_uris":{"android":"levelo://app?vid=8a2dd17a-483c-452c-ab34-1ed74942d8d5","ios":"levelo://app?vid=8a2dd17a-483c-452c-ab34-1ed74942d8d5"},"vehicle_type_id":"4","last_reported":1729692517,"current_range_meters":36800,"station_id":"ce4bhnh2rcd13ifvqgug","pricing_plan_id":"cebpf4jnsgd1na2vs0mg"},{"bike_id":"b48f8c2d-a05e-4cee-bf57-4525735200ad","system_id":"levelo_inurba_marseille","lat":43.2668,"lon":5.38263,"is_reserved":false,"is_disabled":false,"rental_uris":{"android":"levelo://app?vid=b48f8c2d-a05e-4cee-bf57-4525735200ad","ios":"levelo://app?vid=b48f8c2d-a05e-4cee-bf57-4525735200ad"},"vehicle_type_id":"4","last_reported":1729692517,"current_range_meters":38800,"station_id":"ce4bhg92rcd13ifvqf90","pricing_plan_id":"cebpf4jnsgd1na2vs0mg"},{"bike_id":"cd64c581-a978-4647-a931-fa19e9d80067","system_id":"levelo_inurba_marseille","lat":43.29615,"lon":5.37726,"is_reserved":false,"is_disabled":false,"rental_uris":{"android":"levelo://app?vid=cd64c581-a978-4647-a931-fa19e9d80067","ios":"levelo://app?vid=cd64c581-a978-4647-a931-fa19e9d80067"},"vehicle_type_id":"4","last_reported":1729692517,"current_range_meters":38800,"station_id":"ce4bgi92rcd13ifvqb90","pricing_plan_id":"cebpf4jnsgd1na2vs0mg"},{"bike_id":"e637874e-66d3-486d-8483-c432b93967e0","system_id":"levelo_inurba_marseille","lat":43.29689,"lon":5.37298,"is_reserved":false,"is_disabled":false,"rental_uris":{"android":"levelo://app?vid=e637874e-66d3-486d-8483-c432b93967e0","ios":"levelo://app?vid=e637874e-66d3-486d-8483-c432b93967e0"},"vehicle_type_id":"4","last_reported":1729692517,"current_range_meters":34800,"station_id":"ce4bgk12rcd13ifvqbj0","pricing_plan_id":"cebpf4jnsgd1na2vs0mg"},{"bike_id":"0e13864d-4d4b-42d1-bce3-43a4f40843b2","system_id":"levelo_inurba_marseille","lat":43.265,"lon":5.39538,"is_reserved":false,"is_disabled":false,"rental_uris":{"android":"levelo://app?vid=0e13864d-4d4b-42d1-bce3-43a4f40843b2","ios":"levelo://app?vid=0e13864d-4d4b-42d1-bce3-43a4f40843b2"},"vehicle_type_id":"4","last_reported":1729692517,"current_range_meters":33600,"station_id":"ce4bhi12rcd13ifvqfq0","pricing_plan_id":"cebpf4jnsgd1na2vs0mg"},{"bike_id":"c8ddd79b-886c-46e4-ae75-30d616cfec90","system_id":"levelo_inurba_marseille","lat":43.23184,"lon":5.39987,"is_reserved":false,"is_disabled":false,"rental_uris":{"android":"levelo://app?vid=c8ddd79b-886c-46e4-ae75-30d616cfec90","ios":"levelo://app?vid=c8ddd79b-886c-46e4-ae75-30d616cfec90"},"vehicle_type_id":"4","last_reported":1729692517,"current_range_meters":9200,"station_id":"ce4bhn12rcd13ifvqgqg","pricing_plan_id":"cebpf4jnsgd1na2vs0mg"},{"bike_id":"4cc31e6b-44f7-4f7a-bad5-d77b1b4983b3","system_id":"levelo_inurba_marseille","lat":43.22933,"lon":5.35377,"is_reserved":false,"is_disabled":false,"rental_uris":{"android":"levelo://app?vid=4cc31e6b-44f7-4f7a-bad5-d77b1b4983b3","ios":"levelo://app?vid=4cc31e6b-44f7-4f7a-bad5-d77b1b4983b3"},"vehicle_type_id":"4","last_reported":1729692517,"current_range_meters":17200,"station_id":"cpo3532slgdg3j2ikp40","pricing_plan_id":"cebpf4jnsgd1na2vs0mg"},{"bike_id":"9d8e5c51-58e3-4421-aadc-16760ae2bbad","system_id":"levelo_inurba_marseille","lat":43.26567,"lon":5.39008,"is_reserved":false,"is_disabled":false,"rental_uris":{"android":"levelo://app?vid=9d8e5c51-58e3-4421-aadc-16760ae2bbad","ios":"levelo://app?vid=9d8e5c51-58e3-4421-aadc-16760ae2bbad"},"vehicle_type_id":"4","last_reported":1729692517,"current_range_meters":8000,"station_id":"ce4bhe12rcd13ifvqf30","pricing_plan_id":"cebpf4jnsgd1na2vs0mg"},{"bike_id":"7e92a427-2734-4446-aaa7-8f213486ccc7","system_id":"levelo_inurba_marseille","lat":43.26213,"lon":5.37442,"is_reserved":false,"is_disabled":false,"rental_uris":{"android":"levelo://app?vid=7e92a427-2734-4446-aaa7-8f213486ccc7","ios":"levelo://app?vid=7e92a427-2734-4446-aaa7-8f213486ccc7"},"vehicle_type_id":"4","last_reported":1729692517,"current_range_meters":4000,"station_id":"ce4bhgp2rcd13ifvqfc0","pricing_plan_id":"cebpf4jnsgd1na2vs0mg"},{"bike_id":"a09d3ed0-8acb-4972-b4bc-094c51ba4d0b","system_id":"levelo_inurba_marseille","lat":43.28359,"lon":5.381,"is_reserved":false,"is_disabled":false,"rental_uris":{"android":"levelo://app?vid=a09d3ed0-8acb-4972-b4bc-094c51ba4d0b","ios":"levelo://app?vid=a09d3ed0-8acb-4972-b4bc-094c51ba4d0b"},"vehicle_type_id":"4","last_reported":1729692517,"current_range_meters":14800,"station_id":"ce4bh412rcd13ifvqdr0","pricing_plan_id":"cebpf4jnsgd1na2vs0mg"},{"bike_id":"0f308afc-ecb0-4e40-ae66-250dfb504868","system_id":"levelo_inurba_marseille","lat":43.30594,"lon":5.39359,"is_reserved":false,"is_disabled":false,"rental_uris":{"android":"levelo://app?vid=0f308afc-ecb0-4e40-ae66-250dfb504868","ios":"levelo://app?vid=0f308afc-ecb0-4e40-ae66-250dfb504868"},"vehicle_type_id":"4","last_reported":1729692517,"current_range_meters":38000,"station_id":"ce4bh0p2rcd13ifvqd80","pricing_plan_id":"cebpf4jnsgd1na2vs0mg"},{"bike_id":"bdb5f1e3-126d-499e-a835-1843a92a834a","system_id":"levelo_inurba_marseille","lat":43.27372,"lon":5.36261,"is_reserved":false,"is_disabled":false,"rental_uris":{"android":"levelo://app?vid=bdb5f1e3-126d-499e-a835-1843a92a834a","ios":"levelo://app?vid=bdb5f1e3-126d-499e-a835-1843a92a834a"},"vehicle_type_id":"4","last_reported":1729692517,"current_range_meters":17200,"station_id":"ce4bhbh2rcd13ifvqeo0","pricing_plan_id":"cebpf4jnsgd1na2vs0mg"},{"bike_id":"dd408a1b-ebf8-4821-97ae-2380768db906","system_id":"levelo_inurba_marseille","lat":43.29532,"lon":5.38545,"is_reserved":false,"is_disabled":false,"rental_uris":{"android":"levelo://app?vid=dd408a1b-ebf8-4821-97ae-2380768db906","ios":"levelo://app?vid=dd408a1b-ebf8-4821-97ae-2380768db906"},"vehicle_type_id":"4","last_reported":1729692517,"current_range_meters":19600,"station_id":"ce4bgih2rcd13ifvqba0","pricing_plan_id":"cebpf4jnsgd1na2vs0mg"},{"bike_id":"1cbc7b35-b324-438f-be9f-be6f4116c049","system_id":"levelo_inurba_marseille","lat":43.29204,"lon":5.39328,"is_reserved":false,"is_disabled":false,"rental_uris":{"android":"levelo://app?vid=1cbc7b35-b324-438f-be9f-be6f4116c049","ios":"levelo://app?vid=1cbc7b35-b324-438f-be9f-be6f4116c049"},"vehicle_type_id":"4","last_reported":1729692517,"current_range_meters":16000,"station_id":"ce4bh192rcd13ifvqdd0","pricing_plan_id":"cebpf4jnsgd1na2vs0mg"},{"bike_id":"1799daef-05f3-419e-bbe3-51a6b4575a5c","system_id":"levelo_inurba_marseille","lat":43.28297,"lon":5.40836,"is_reserved":false,"is_disabled":false,"rental_uris":{"android":"levelo://app?vid=1799daef-05f3-419e-bbe3-51a6b4575a5c","ios":"levelo://app?vid=1799daef-05f3-419e-bbe3-51a6b4575a5c"},"vehicle_type_id":"4","last_reported":1729692517,"current_range_meters":13600,"station_id":"","pricing_plan_id":"cebpf4jnsgd1na2vs0mg"},{"bike_id":"958e1bfb-9f82-4431-8f89-1aea9645e31e","system_id":"levelo_inurba_marseille","lat":43.29635,"lon":5.37152,"is_reserved":false,"is_disabled":false,"rental_uris":{"android":"levelo://app?vid=958e1bfb-9f82-4431-8f89-1aea9645e31e","ios":"levelo://app?vid=958e1bfb-9f82-4431-8f89-1aea9645e31e"},"vehicle_type_id":"4","last_reported":1729692517,"current_range_meters":31200,"station_id":"ce4bgnh2rcd13ifvqc0g","pricing_plan_id":"cebpf4jnsgd1na2vs0mg"},{"bike_id":"2565f549-1514-4594-91dc-a253fb81a619","system_id":"levelo_inurba_marseille","lat":43.26955,"lon":5.38626,"is_reserved":false,"is_disabled":false,"rental_uris":{"android":"levelo://app?vid=2565f549-1514-4594-91dc-a253fb81a619","ios":"levelo://app?vid=2565f549-1514-4594-91dc-a253fb81a619"},"vehicle_type_id":"4","last_reported":1729692517,"current_range_meters":34800,"station_id":"ce4bhh92rcd13ifvqfh0","pricing_plan_id":"cebpf4jnsgd1na2vs0mg"},{"bike_id":"0dc5fd65-6c08-45fc-b9d0-c856107da224","system_id":"levelo_inurba_marseille","lat":43.29579,"lon":5.36742,"is_reserved":false,"is_disabled":false,"rental_uris":{"android":"levelo://app?vid=0dc5fd65-6c08-45fc-b9d0-c856107da224","ios":"levelo://app?vid=0dc5fd65-6c08-45fc-b9d0-c856107da224"},"vehicle_type_id":"4","last_reported":1729692517,"current_range_meters":27200,"station_id":"ce4bgph2rcd13ifvqc2g","pricing_plan_id":"cebpf4jnsgd1na2vs0mg"},{"bike_id":"1b8d756a-6cfa-44c8-a092-11e1f2fbde22","system_id":"levelo_inurba_marseille","lat":43.291,"lon":5.38143,"is_reserved":false,"is_disabled":false,"rental_uris":{"android":"levelo://app?vid=1b8d756a-6cfa-44c8-a092-11e1f2fbde22","ios":"levelo://app?vid=1b8d756a-6cfa-44c8-a092-11e1f2fbde22"},"vehicle_type_id":"4","last_reported":1729692517,"current_range_meters":22000,"station_id":"ce4bh512rcd13ifvqe2g","pricing_plan_id":"cebpf4jnsgd1na2vs0mg"},{"bike_id":"70c0db28-8045-42ba-a534-2532b86d3455","system_id":"levelo_inurba_marseille","lat":43.22932,"lon":5.35374,"is_reserved":false,"is_disabled":false,"rental_uris":{"android":"levelo://app?vid=70c0db28-8045-42ba-a534-2532b86d3455","ios":"levelo://app?vid=70c0db28-8045-42ba-a534-2532b86d3455"},"vehicle_type_id":"4","last_reported":1729692517,"current_range_meters":17200,"station_id":"cpo3532slgdg3j2ikp40","pricing_plan_id":"cebpf4jnsgd1na2vs0mg"},{"bike_id":"4d1a11ee-db0c-4e2a-82c9-8915dd38422c","system_id":"levelo_inurba_marseille","lat":43.2926,"lon":5.40903,"is_reserved":false,"is_disabled":false,"rental_uris":{"android":"levelo://app?vid=4d1a11ee-db0c-4e2a-82c9-8915dd38422c","ios":"levelo://app?vid=4d1a11ee-db0c-4e2a-82c9-8915dd38422c"},"vehicle_type_id":"4","last_reported":1729692517,"current_range_meters":24000,"station_id":"ce4bh192rcd13ifvqdc0","pricing_plan_id":"cebpf4jnsgd1na2vs0mg"},{"bike_id":"aaef2d09-85f1-4711-93ea-ffc9a1eddbab","system_id":"levelo_inurba_marseille","lat":43.27984,"lon":5.40011,"is_reserved":false,"is_disabled":false,"rental_uris":{"android":"levelo://app?vid=aaef2d09-85f1-4711-93ea-ffc9a1eddbab","ios":"levelo://app?vid=aaef2d09-85f1-4711-93ea-ffc9a1eddbab"},"vehicle_type_id":"4","last_reported":1729692517,"current_range_meters":6000,"station_id":"ce4bho92rcd13ifvqh4g","pricing_plan_id":"cebpf4jnsgd1na2vs0mg"},{"bike_id":"fe269560-e2b9-488b-9e4b-72beadfad0e4","system_id":"levelo_inurba_marseille","lat":43.30281,"lon":5.37705,"is_reserved":false,"is_disabled":false,"rental_uris":{"android":"levelo://app?vid=fe269560-e2b9-488b-9e4b-72beadfad0e4","ios":"levelo://app?vid=fe269560-e2b9-488b-9e4b-72beadfad0e4"},"vehicle_type_id":"4","last_reported":1729692517,"current_range_meters":39200,"station_id":"ce4bguh2rcd13ifvqcj0","pricing_plan_id":"cebpf4jnsgd1na2vs0mg"},{"bike_id":"ec54b109-0e3e-40ca-a3d7-432d7a998283","system_id":"levelo_inurba_marseille","lat":43.29802,"lon":5.40402,"is_reserved":false,"is_disabled":false,"rental_uris":{"android":"levelo://app?vid=ec54b109-0e3e-40ca-a3d7-432d7a998283","ios":"levelo://app?vid=ec54b109-0e3e-40ca-a3d7-432d7a998283"},"vehicle_type_id":"4","last_reported":1729692517,"current_range_meters":28800,"station_id":"ce4bh112rcd13ifvqd90","pricing_plan_id":"cebpf4jnsgd1na2vs0mg"},{"bike_id":"f6b459b1-6063-4638-bf7f-bba1142b2a2c","system_id":"levelo_inurba_marseille","lat":43.2848,"lon":5.3841,"is_reserved":false,"is_disabled":false,"rental_uris":{"android":"levelo://app?vid=f6b459b1-6063-4638-bf7f-bba1142b2a2c","ios":"levelo://app?vid=f6b459b1-6063-4638-bf7f-bba1142b2a2c"},"vehicle_type_id":"4","last_reported":1729692517,"current_range_meters":39200,"station_id":"ce4bh512rcd13ifvqe3g","pricing_plan_id":"cebpf4jnsgd1na2vs0mg"},{"bike_id":"c8c77899-367c-494a-983d-8bcc157151a3","system_id":"levelo_inurba_marseille","lat":43.3372,"lon":5.39182,"is_reserved":false,"is_disabled":false,"rental_uris":{"android":"levelo://app?vid=c8c77899-367c-494a-983d-8bcc157151a3","ios":"levelo://app?vid=c8c77899-367c-494a-983d-8bcc157151a3"},"vehicle_type_id":"4","last_reported":1729692517,"current_range_meters":37600,"station_id":"ce4bhr92rcd13ifvqhsg","pricing_plan_id":"cebpf4jnsgd1na2vs0mg"},{"bike_id":"a958dd6f-1a6f-40c9-8eaf-bfef55877b0e","system_id":"levelo_inurba_marseille","lat":43.26685,"lon":5.38276,"is_reserved":false,"is_disabled":false,"rental_uris":{"android":"levelo://app?vid=a958dd6f-1a6f-40c9-8eaf-bfef55877b0e","ios":"levelo://app?vid=a958dd6f-1a6f-40c9-8eaf-bfef55877b0e"},"vehicle_type_id":"4","last_reported":1729692517,"current_range_meters":22800,"station_id":"ce4bhg92rcd13ifvqf90","pricing_plan_id":"cebpf4jnsgd1na2vs0mg"},{"bike_id":"6ce9344b-2a35-4b68-83a1-33981f2e1634","system_id":"levelo_inurba_marseille","lat":43.28484,"lon":5.38434,"is_reserved":false,"is_disabled":false,"rental_uris":{"android":"levelo://app?vid=6ce9344b-2a35-4b68-83a1-33981f2e1634","ios":"levelo://app?vid=6ce9344b-2a35-4b68-83a1-33981f2e1634"},"vehicle_type_id":"4","last_reported":1729692517,"current_range_meters":31200,"station_id":"ce4bh512rcd13ifvqe3g","pricing_plan_id":"cebpf4jnsgd1na2vs0mg"},{"bike_id":"479e076c-d68e-49c2-9bf3-be3029539778","system_id":"levelo_inurba_marseille","lat":43.2721,"lon":5.39179,"is_reserved":false,"is_disabled":false,"rental_uris":{"android":"levelo://app?vid=479e076c-d68e-49c2-9bf3-be3029539778","ios":"levelo://app?vid=479e076c-d68e-49c2-9bf3-be3029539778"},"vehicle_type_id":"4","last_reported":1729692517,"current_range_meters":14800,"station_id":"ce4bhhp2rcd13ifvqfm0","pricing_plan_id":"cebpf4jnsgd1na2vs0mg"},{"bike_id":"e61f83e6-7b6c-46cd-a3ed-4571e1937882","system_id":"levelo_inurba_marseille","lat":43.30551,"lon":5.36538,"is_reserved":false,"is_disabled":false,"rental_uris":{"android":"levelo://app?vid=e61f83e6-7b6c-46cd-a3ed-4571e1937882","ios":"levelo://app?vid=e61f83e6-7b6c-46cd-a3ed-4571e1937882"},"vehicle_type_id":"4","last_reported":1729692517,"current_range_meters":40000,"station_id":"ce4bgs12rcd13ifvqcag","pricing_plan_id":"cebpf4jnsgd1na2vs0mg"},{"bike_id":"fe0c1667-3129-4691-b0be-bf3c9e4fe21c","system_id":"levelo_inurba_marseille","lat":43.28701,"lon":5.37388,"is_reserved":false,"is_disabled":false,"rental_uris":{"android":"levelo://app?vid=fe0c1667-3129-4691-b0be-bf3c9e4fe21c","ios":"levelo://app?vid=fe0c1667-3129-4691-b0be-bf3c9e4fe21c"},"vehicle_type_id":"4","last_reported":1729692517,"current_range_meters":3200,"station_id":"ce4bh3p2rcd13ifvqdq0","pricing_plan_id":"cebpf4jnsgd1na2vs0mg"},{"bike_id":"48c189de-efde-4f10-a571-92eb2b19abbf","system_id":"levelo_inurba_marseille","lat":43.23181,"lon":5.39988,"is_reserved":false,"is_disabled":false,"rental_uris":{"android":"levelo://app?vid=48c189de-efde-4f10-a571-92eb2b19abbf","ios":"levelo://app?vid=48c189de-efde-4f10-a571-92eb2b19abbf"},"vehicle_type_id":"4","last_reported":1729692517,"current_range_meters":16800,"station_id":"ce4bhn12rcd13ifvqgqg","pricing_plan_id":"cebpf4jnsgd1na2vs0mg"},{"bike_id":"d04a0a7b-a14a-4fa4-ae16-ffa470dfd5e1","system_id":"levelo_inurba_marseille","lat":43.32535,"lon":5.41445,"is_reserved":false,"is_disabled":false,"rental_uris":{"android":"levelo://app?vid=d04a0a7b-a14a-4fa4-ae16-ffa470dfd5e1","ios":"levelo://app?vid=d04a0a7b-a14a-4fa4-ae16-ffa470dfd5e1"},"vehicle_type_id":"4","last_reported":1729692517,"current_range_meters":8000,"station_id":"ce4bhq12rcd13ifvqhhg","pricing_plan_id":"cebpf4jnsgd1na2vs0mg"},{"bike_id":"2d518012-362a-4896-97f9-9f22687d9d9c","system_id":"levelo_inurba_marseille","lat":43.30939,"lon":5.40144,"is_reserved":false,"is_disabled":false,"rental_uris":{"android":"levelo://app?vid=2d518012-362a-4896-97f9-9f22687d9d9c","ios":"levelo://app?vid=2d518012-362a-4896-97f9-9f22687d9d9c"},"vehicle_type_id":"4","last_reported":1729692517,"current_range_meters":8000,"station_id":"ce4bgvp2rcd13ifvqct0","pricing_plan_id":"cebpf4jnsgd1na2vs0mg"},{"bike_id":"c4c55d71-c8b4-4492-a7cd-2be5724c8305","system_id":"levelo_inurba_marseille","lat":43.29965,"lon":5.38499,"is_reserved":false,"is_disabled":false,"rental_uris":{"android":"levelo://app?vid=c4c55d71-c8b4-4492-a7cd-2be5724c8305","ios":"levelo://app?vid=c4c55d71-c8b4-4492-a7cd-2be5724c8305"},"vehicle_type_id":"4","last_reported":1729692517,"current_range_meters":36800,"station_id":"ce4bgj92rcd13ifvqbd0","pricing_plan_id":"cebpf4jnsgd1na2vs0mg"},{"bike_id":"d2b9eb75-4525-4217-bdaa-68f49a6b507a","system_id":"levelo_inurba_marseille","lat":43.3127,"lon":5.40158,"is_reserved":false,"is_disabled":false,"rental_uris":{"android":"levelo://app?vid=d2b9eb75-4525-4217-bdaa-68f49a6b507a","ios":"levelo://app?vid=d2b9eb75-4525-4217-bdaa-68f49a6b507a"},"vehicle_type_id":"4","last_reported":1729692517,"current_range_meters":20400,"station_id":"ce4bh092rcd13ifvqd30","pricing_plan_id":"cebpf4jnsgd1na2vs0mg"},{"bike_id":"26ebd71f-7bc7-4bad-bbb2-6d15881ecc4c","system_id":"levelo_inurba_marseille","lat":43.30664,"lon":5.39482,"is_reserved":false,"is_disabled":false,"rental_uris":{"android":"levelo://app?vid=26ebd71f-7bc7-4bad-bbb2-6d15881ecc4c","ios":"levelo://app?vid=26ebd71f-7bc7-4bad-bbb2-6d15881ecc4c"},"vehicle_type_id":"4","last_reported":1729692517,"current_range_meters":26800,"station_id":"","pricing_plan_id":"cebpf4jnsgd1na2vs0mg"},{"bike_id":"fb70c97e-1bdb-4715-9b5a-85b60eaf490e","system_id":"levelo_inurba_marseille","lat":43.29928,"lon":5.37478,"is_reserved":false,"is_disabled":false,"rental_uris":{"android":"levelo://app?vid=fb70c97e-1bdb-4715-9b5a-85b60eaf490e","ios":"levelo://app?vid=fb70c97e-1bdb-4715-9b5a-85b60eaf490e"},"vehicle_type_id":"4","last_reported":1729692517,"current_range_meters":38800,"station_id":"ce4bgjh2rcd13ifvqbg0","pricing_plan_id":"cebpf4jnsgd1na2vs0mg"},{"bike_id":"c0a53215-f99d-4c86-b8da-85dea09b544a","system_id":"levelo_inurba_marseille","lat":43.30544,"lon":5.36523,"is_reserved":false,"is_disabled":false,"rental_uris":{"android":"levelo://app?vid=c0a53215-f99d-4c86-b8da-85dea09b544a","ios":"levelo://app?vid=c0a53215-f99d-4c86-b8da-85dea09b544a"},"vehicle_type_id":"4","last_reported":1729692517,"current_range_meters":31200,"station_id":"ce4bgs12rcd13ifvqcag","pricing_plan_id":"cebpf4jnsgd1na2vs0mg"},{"bike_id":"aaad0614-4c94-4c64-ac63-572597431258","system_id":"levelo_inurba_marseille","lat":43.27566,"lon":5.38428,"is_reserved":false,"is_disabled":false,"rental_uris":{"android":"levelo://app?vid=aaad0614-4c94-4c64-ac63-572597431258","ios":"levelo://app?vid=aaad0614-4c94-4c64-ac63-572597431258"},"vehicle_type_id":"4","last_reported":1729692517,"current_range_meters":30800,"station_id":"ce4bhh92rcd13ifvqfi0","pricing_plan_id":"cebpf4jnsgd1na2vs0mg"},{"bike_id":"2d68910a-9b11-4476-88d4-75b4547503f8","system_id":"levelo_inurba_marseille","lat":43.26679,"lon":5.38269,"is_reserved":false,"is_disabled":false,"rental_uris":{"android":"levelo://app?vid=2d68910a-9b11-4476-88d4-75b4547503f8","ios":"levelo://app?vid=2d68910a-9b11-4476-88d4-75b4547503f8"},"vehicle_type_id":"4","last_reported":1729692517,"current_range_meters":32400,"station_id":"ce4bhg92rcd13ifvqf90","pricing_plan_id":"cebpf4jnsgd1na2vs0mg"},{"bike_id":"c3945b60-e38d-4106-8f18-92c7f436cc4f","system_id":"levelo_inurba_marseille","lat":43.33759,"lon":5.37455,"is_reserved":false,"is_disabled":false,"rental_uris":{"android":"levelo://app?vid=c3945b60-e38d-4106-8f18-92c7f436cc4f","ios":"levelo://app?vid=c3945b60-e38d-4106-8f18-92c7f436cc4f"},"vehicle_type_id":"4","last_reported":1729692517,"current_range_meters":27200,"station_id":"","pricing_plan_id":"cebpf4jnsgd1na2vs0mg"},{"bike_id":"2c36932d-2745-4c68-80c0-3ec18d892679","system_id":"levelo_inurba_marseille","lat":43.31337,"lon":5.39691,"is_reserved":false,"is_disabled":false,"rental_uris":{"android":"levelo://app?vid=2c36932d-2745-4c68-80c0-3ec18d892679","ios":"levelo://app?vid=2c36932d-2745-4c68-80c0-3ec18d892679"},"vehicle_type_id":"4","last_reported":1729692517,"current_range_meters":16000,"station_id":"ce4bgvp2rcd13ifvqcu0","pricing_plan_id":"cebpf4jnsgd1na2vs0mg"},{"bike_id":"a4a1ca53-a42a-4089-bad0-87e606b73fc7","system_id":"levelo_inurba_marseille","lat":43.31225,"lon":5.36855,"is_reserved":false,"is_disabled":false,"rental_uris":{"android":"levelo://app?vid=a4a1ca53-a42a-4089-bad0-87e606b73fc7","ios":"levelo://app?vid=a4a1ca53-a42a-4089-bad0-87e606b73fc7"},"vehicle_type_id":"4","last_reported":1729692517,"current_range_meters":22800,"station_id":"ce4bgl92rcd13ifvqbq0","pricing_plan_id":"cebpf4jnsgd1na2vs0mg"},{"bike_id":"444ea86b-1f19-480b-bf73-ce5f3ebfbbab","system_id":"levelo_inurba_marseille","lat":43.28727,"lon":5.36088,"is_reserved":false,"is_disabled":false,"rental_uris":{"android":"levelo://app?vid=444ea86b-1f19-480b-bf73-ce5f3ebfbbab","ios":"levelo://app?vid=444ea86b-1f19-480b-bf73-ce5f3ebfbbab"},"vehicle_type_id":"4","last_reported":1729692517,"current_range_meters":35200,"station_id":"cki0cbj6b192h4jlfktg","pricing_plan_id":"cebpf4jnsgd1na2vs0mg"},{"bike_id":"22de1d97-98d6-41f3-bf16-ab9c4b64aae1","system_id":"levelo_inurba_marseille","lat":43.2903,"lon":5.3814,"is_reserved":false,"is_disabled":false,"rental_uris":{"android":"levelo://app?vid=22de1d97-98d6-41f3-bf16-ab9c4b64aae1","ios":"levelo://app?vid=22de1d97-98d6-41f3-bf16-ab9c4b64aae1"},"vehicle_type_id":"4","last_reported":1729692517,"current_range_meters":16000,"station_id":"ce4bh4p2rcd13ifvqe1g","pricing_plan_id":"cebpf4jnsgd1na2vs0mg"},{"bike_id":"78018770-86ea-4404-8452-ce018255cd17","system_id":"levelo_inurba_marseille","lat":43.22936,"lon":5.3538,"is_reserved":false,"is_disabled":false,"rental_uris":{"android":"levelo://app?vid=78018770-86ea-4404-8452-ce018255cd17","ios":"levelo://app?vid=78018770-86ea-4404-8452-ce018255cd17"},"vehicle_type_id":"4","last_reported":1729692517,"current_range_meters":22400,"station_id":"cpo3532slgdg3j2ikp40","pricing_plan_id":"cebpf4jnsgd1na2vs0mg"},{"bike_id":"f062ffa9-117f-4061-947e-46227fcc5cf4","system_id":"levelo_inurba_marseille","lat":43.25724,"lon":5.41106,"is_reserved":false,"is_disabled":false,"rental_uris":{"android":"levelo://app?vid=f062ffa9-117f-4061-947e-46227fcc5cf4","ios":"levelo://app?vid=f062ffa9-117f-4061-947e-46227fcc5cf4"},"vehicle_type_id":"4","last_reported":1729692517,"current_range_meters":32800,"station_id":"","pricing_plan_id":"cebpf4jnsgd1na2vs0mg"},{"bike_id":"46a05292-202e-4e11-aff2-86d9f9ea8a69","system_id":"levelo_inurba_marseille","lat":43.30533,"lon":5.36536,"is_reserved":false,"is_disabled":false,"rental_uris":{"android":"levelo://app?vid=46a05292-202e-4e11-aff2-86d9f9ea8a69","ios":"levelo://app?vid=46a05292-202e-4e11-aff2-86d9f9ea8a69"},"vehicle_type_id":"4","last_reported":1729692517,"current_range_meters":30800,"station_id":"ce4bgs12rcd13ifvqcag","pricing_plan_id":"cebpf4jnsgd1na2vs0mg"},{"bike_id":"8357f4e5-6211-4af5-bdbc-860213a335d4","system_id":"levelo_inurba_marseille","lat":43.31118,"lon":5.37763,"is_reserved":false,"is_disabled":false,"rental_uris":{"android":"levelo://app?vid=8357f4e5-6211-4af5-bdbc-860213a335d4","ios":"levelo://app?vid=8357f4e5-6211-4af5-bdbc-860213a335d4"},"vehicle_type_id":"4","last_reported":1729692517,"current_range_meters":4800,"station_id":"ce4bgt92rcd13ifvqcg0","pricing_plan_id":"cebpf4jnsgd1na2vs0mg"},{"bike_id":"cec0febb-a5d7-4415-ba6b-dcdc9a65c10b","system_id":"levelo_inurba_marseille","lat":43.30285,"lon":5.37715,"is_reserved":false,"is_disabled":false,"rental_uris":{"android":"levelo://app?vid=cec0febb-a5d7-4415-ba6b-dcdc9a65c10b","ios":"levelo://app?vid=cec0febb-a5d7-4415-ba6b-dcdc9a65c10b"},"vehicle_type_id":"4","last_reported":1729692517,"current_range_meters":39200,"station_id":"ce4bguh2rcd13ifvqcj0","pricing_plan_id":"cebpf4jnsgd1na2vs0mg"},{"bike_id":"be09e01d-7c11-4a7f-89f3-d7b5414ad2b5","system_id":"levelo_inurba_marseille","lat":43.24175,"lon":5.3973,"is_reserved":false,"is_disabled":false,"rental_uris":{"android":"levelo://app?vid=be09e01d-7c11-4a7f-89f3-d7b5414ad2b5","ios":"levelo://app?vid=be09e01d-7c11-4a7f-89f3-d7b5414ad2b5"},"vehicle_type_id":"4","last_reported":1729692517,"current_range_meters":32000,"station_id":"ce4bhn12rcd13ifvqgpg","pricing_plan_id":"cebpf4jnsgd1na2vs0mg"},{"bike_id":"f2fdd284-8b8f-42c3-bed3-7fe2d8fea268","system_id":"levelo_inurba_marseille","lat":43.30911,"lon":5.36851,"is_reserved":false,"is_disabled":false,"rental_uris":{"android":"levelo://app?vid=f2fdd284-8b8f-42c3-bed3-7fe2d8fea268","ios":"levelo://app?vid=f2fdd284-8b8f-42c3-bed3-7fe2d8fea268"},"vehicle_type_id":"4","last_reported":1729692517,"current_range_meters":18000,"station_id":"ce4bgn92rcd13ifvqbvg","pricing_plan_id":"cebpf4jnsgd1na2vs0mg"},{"bike_id":"5a2da8f9-af4e-4ef8-a083-6c33500fc63d","system_id":"levelo_inurba_marseille","lat":43.30549,"lon":5.36708,"is_reserved":false,"is_disabled":false,"rental_uris":{"android":"levelo://app?vid=5a2da8f9-af4e-4ef8-a083-6c33500fc63d","ios":"levelo://app?vid=5a2da8f9-af4e-4ef8-a083-6c33500fc63d"},"vehicle_type_id":"4","last_reported":1729692517,"current_range_meters":12000,"station_id":"ce4bgrp2rcd13ifvqc9g","pricing_plan_id":"cebpf4jnsgd1na2vs0mg"},{"bike_id":"28caec95-9052-4be7-8633-7e810130a315","system_id":"levelo_inurba_marseille","lat":43.28153,"lon":5.42641,"is_reserved":false,"is_disabled":false,"rental_uris":{"android":"levelo://app?vid=28caec95-9052-4be7-8633-7e810130a315","ios":"levelo://app?vid=28caec95-9052-4be7-8633-7e810130a315"},"vehicle_type_id":"4","last_reported":1729692517,"current_range_meters":8400,"station_id":"ce4bhnh2rcd13ifvqgug","pricing_plan_id":"cebpf4jnsgd1na2vs0mg"},{"bike_id":"84e8c94d-7c91-4447-85d5-da974599d608","system_id":"levelo_inurba_marseille","lat":43.29966,"lon":5.38498,"is_reserved":false,"is_disabled":false,"rental_uris":{"android":"levelo://app?vid=84e8c94d-7c91-4447-85d5-da974599d608","ios":"levelo://app?vid=84e8c94d-7c91-4447-85d5-da974599d608"},"vehicle_type_id":"4","last_reported":1729692517,"current_range_meters":38800,"station_id":"ce4bgj92rcd13ifvqbd0","pricing_plan_id":"cebpf4jnsgd1na2vs0mg"},{"bike_id":"247c1539-097b-46dd-8c24-05380c7705d5","system_id":"levelo_inurba_marseille","lat":43.29582,"lon":5.3674,"is_reserved":false,"is_disabled":false,"rental_uris":{"android":"levelo://app?vid=247c1539-097b-46dd-8c24-05380c7705d5","ios":"levelo://app?vid=247c1539-097b-46dd-8c24-05380c7705d5"},"vehicle_type_id":"4","last_reported":1729692517,"current_range_meters":40000,"station_id":"ce4bgph2rcd13ifvqc2g","pricing_plan_id":"cebpf4jnsgd1na2vs0mg"},{"bike_id":"1d3c2354-bb06-46ef-82cb-7b20702826e7","system_id":"levelo_inurba_marseille","lat":43.31355,"lon":5.36709,"is_reserved":false,"is_disabled":false,"rental_uris":{"android":"levelo://app?vid=1d3c2354-bb06-46ef-82cb-7b20702826e7","ios":"levelo://app?vid=1d3c2354-bb06-46ef-82cb-7b20702826e7"},"vehicle_type_id":"4","last_reported":1729692517,"current_range_meters":38800,"station_id":"ce4bgr92rcd13ifvqc6g","pricing_plan_id":"cebpf4jnsgd1na2vs0mg"},{"bike_id":"e0f591a5-4a49-47dc-9aa6-eb75178c5760","system_id":"levelo_inurba_marseille","lat":43.22937,"lon":5.35381,"is_reserved":false,"is_disabled":false,"rental_uris":{"android":"levelo://app?vid=e0f591a5-4a49-47dc-9aa6-eb75178c5760","ios":"levelo://app?vid=e0f591a5-4a49-47dc-9aa6-eb75178c5760"},"vehicle_type_id":"4","last_reported":1729692517,"current_range_meters":36800,"station_id":"cpo3532slgdg3j2ikp40","pricing_plan_id":"cebpf4jnsgd1na2vs0mg"},{"bike_id":"34ec33da-1cf5-4f97-adad-4b9a43f3c610","system_id":"levelo_inurba_marseille","lat":43.27364,"lon":5.36255,"is_reserved":false,"is_disabled":false,"rental_uris":{"android":"levelo://app?vid=34ec33da-1cf5-4f97-adad-4b9a43f3c610","ios":"levelo://app?vid=34ec33da-1cf5-4f97-adad-4b9a43f3c610"},"vehicle_type_id":"4","last_reported":1729692517,"current_range_meters":22000,"station_id":"ce4bhbh2rcd13ifvqeo0","pricing_plan_id":"cebpf4jnsgd1na2vs0mg"},{"bike_id":"3758e8e1-6774-4a6d-8d44-4f39d30cb7cf","system_id":"levelo_inurba_marseille","lat":43.22926,"lon":5.35382,"is_reserved":false,"is_disabled":false,"rental_uris":{"android":"levelo://app?vid=3758e8e1-6774-4a6d-8d44-4f39d30cb7cf","ios":"levelo://app?vid=3758e8e1-6774-4a6d-8d44-4f39d30cb7cf"},"vehicle_type_id":"4","last_reported":1729692517,"current_range_meters":36400,"station_id":"cpo3532slgdg3j2ikp40","pricing_plan_id":"cebpf4jnsgd1na2vs0mg"},{"bike_id":"dfd8c432-d6ea-40d4-b489-0c03121c6d6f","system_id":"levelo_inurba_marseille","lat":43.28041,"lon":5.36943,"is_reserved":false,"is_disabled":false,"rental_uris":{"android":"levelo://app?vid=dfd8c432-d6ea-40d4-b489-0c03121c6d6f","ios":"levelo://app?vid=dfd8c432-d6ea-40d4-b489-0c03121c6d6f"},"vehicle_type_id":"4","last_reported":1729692517,"current_range_meters":34800,"station_id":"ce4bha12rcd13ifvqef0","pricing_plan_id":"cebpf4jnsgd1na2vs0mg"},{"bike_id":"04c8bb0b-1664-419f-b269-5592870b9716","system_id":"levelo_inurba_marseille","lat":43.2844,"lon":5.39192,"is_reserved":false,"is_disabled":false,"rental_uris":{"android":"levelo://app?vid=04c8bb0b-1664-419f-b269-5592870b9716","ios":"levelo://app?vid=04c8bb0b-1664-419f-b269-5592870b9716"},"vehicle_type_id":"4","last_reported":1729692517,"current_range_meters":8400,"station_id":"ce4bhoh2rcd13ifvqh5g","pricing_plan_id":"cebpf4jnsgd1na2vs0mg"},{"bike_id":"946611bd-808f-42aa-8d8e-3a209538d209","system_id":"levelo_inurba_marseille","lat":43.24081,"lon":5.37752,"is_reserved":false,"is_disabled":false,"rental_uris":{"android":"levelo://app?vid=946611bd-808f-42aa-8d8e-3a209538d209","ios":"levelo://app?vid=946611bd-808f-42aa-8d8e-3a209538d209"},"vehicle_type_id":"4","last_reported":1729692517,"current_range_meters":8800,"station_id":"ce4bhnp2rcd13ifvqgvg","pricing_plan_id":"cebpf4jnsgd1na2vs0mg"},{"bike_id":"39556aa9-e1e5-45f9-9ee1-e5414ac4c709","system_id":"levelo_inurba_marseille","lat":43.28577,"lon":5.39491,"is_reserved":false,"is_disabled":false,"rental_uris":{"android":"levelo://app?vid=39556aa9-e1e5-45f9-9ee1-e5414ac4c709","ios":"levelo://app?vid=39556aa9-e1e5-45f9-9ee1-e5414ac4c709"},"vehicle_type_id":"4","last_reported":1729692517,"current_range_meters":15200,"station_id":"ce4bh292rcd13ifvqdg0","pricing_plan_id":"cebpf4jnsgd1na2vs0mg"},{"bike_id":"686d6dc5-6d4f-4e6f-9b13-62214c60b158","system_id":"levelo_inurba_marseille","lat":43.30945,"lon":5.39026,"is_reserved":false,"is_disabled":false,"rental_uris":{"android":"levelo://app?vid=686d6dc5-6d4f-4e6f-9b13-62214c60b158","ios":"levelo://app?vid=686d6dc5-6d4f-4e6f-9b13-62214c60b158"},"vehicle_type_id":"4","last_reported":1729692517,"current_range_meters":36800,"station_id":"ce4bgup2rcd13ifvqco0","pricing_plan_id":"cebpf4jnsgd1na2vs0mg"},{"bike_id":"30874172-f8b0-47de-b0d4-6ebffa113c84","system_id":"levelo_inurba_marseille","lat":43.23201,"lon":5.35547,"is_reserved":false,"is_disabled":false,"rental_uris":{"android":"levelo://app?vid=30874172-f8b0-47de-b0d4-6ebffa113c84","ios":"levelo://app?vid=30874172-f8b0-47de-b0d4-6ebffa113c84"},"vehicle_type_id":"4","last_reported":1729692517,"current_range_meters":27200,"station_id":"ce4bhu92rcd13ifvqi70","pricing_plan_id":"cebpf4jnsgd1na2vs0mg"},{"bike_id":"336cf461-c5c5-411c-9cfc-65722f7632be","system_id":"levelo_inurba_marseille","lat":43.30538,"lon":5.36703,"is_reserved":false,"is_disabled":false,"rental_uris":{"android":"levelo://app?vid=336cf461-c5c5-411c-9cfc-65722f7632be","ios":"levelo://app?vid=336cf461-c5c5-411c-9cfc-65722f7632be"},"vehicle_type_id":"4","last_reported":1729692517,"current_range_meters":26000,"station_id":"ce4bgrp2rcd13ifvqc9g","pricing_plan_id":"cebpf4jnsgd1na2vs0mg"},{"bike_id":"4a7abcc4-a1fa-417b-8ffa-a28e55985c43","system_id":"levelo_inurba_marseille","lat":43.24073,"lon":5.37752,"is_reserved":false,"is_disabled":false,"rental_uris":{"android":"levelo://app?vid=4a7abcc4-a1fa-417b-8ffa-a28e55985c43","ios":"levelo://app?vid=4a7abcc4-a1fa-417b-8ffa-a28e55985c43"},"vehicle_type_id":"4","last_reported":1729692517,"current_range_meters":36800,"station_id":"ce4bhnp2rcd13ifvqgvg","pricing_plan_id":"cebpf4jnsgd1na2vs0mg"},{"bike_id":"b55ea397-7284-4350-9e1c-6726519c5849","system_id":"levelo_inurba_marseille","lat":43.26193,"lon":5.39273,"is_reserved":false,"is_disabled":false,"rental_uris":{"android":"levelo://app?vid=b55ea397-7284-4350-9e1c-6726519c5849","ios":"levelo://app?vid=b55ea397-7284-4350-9e1c-6726519c5849"},"vehicle_type_id":"4","last_reported":1729692517,"current_range_meters":24000,"station_id":"","pricing_plan_id":"cebpf4jnsgd1na2vs0mg"},{"bike_id":"860423a3-40de-4cc8-b02f-36acef0fec79","system_id":"levelo_inurba_marseille","lat":43.27684,"lon":5.38914,"is_reserved":false,"is_disabled":false,"rental_uris":{"android":"levelo://app?vid=860423a3-40de-4cc8-b02f-36acef0fec79","ios":"levelo://app?vid=860423a3-40de-4cc8-b02f-36acef0fec79"},"vehicle_type_id":"4","last_reported":1729692517,"current_range_meters":39200,"station_id":"ce4bhi12rcd13ifvqfo0","pricing_plan_id":"cebpf4jnsgd1na2vs0mg"},{"bike_id":"484db4be-af89-4ce4-b8ca-a131e75b9c7e","system_id":"levelo_inurba_marseille","lat":43.30536,"lon":5.36699,"is_reserved":false,"is_disabled":false,"rental_uris":{"android":"levelo://app?vid=484db4be-af89-4ce4-b8ca-a131e75b9c7e","ios":"levelo://app?vid=484db4be-af89-4ce4-b8ca-a131e75b9c7e"},"vehicle_type_id":"4","last_reported":1729692517,"current_range_meters":39200,"station_id":"ce4bgrp2rcd13ifvqc9g","pricing_plan_id":"cebpf4jnsgd1na2vs0mg"},{"bike_id":"0dde08c2-327e-4c04-afb0-27f16e8979fb","system_id":"levelo_inurba_marseille","lat":43.29986,"lon":5.37185,"is_reserved":false,"is_disabled":false,"rental_uris":{"android":"levelo://app?vid=0dde08c2-327e-4c04-afb0-27f16e8979fb","ios":"levelo://app?vid=0dde08c2-327e-4c04-afb0-27f16e8979fb"},"vehicle_type_id":"4","last_reported":1729692517,"current_range_meters":36000,"station_id":"ce4bgr92rcd13ifvqc7g","pricing_plan_id":"cebpf4jnsgd1na2vs0mg"},{"bike_id":"a9959f25-b536-4caf-b967-9fa6dadb574d","system_id":"levelo_inurba_marseille","lat":43.30016,"lon":5.37982,"is_reserved":false,"is_disabled":false,"rental_uris":{"android":"levelo://app?vid=a9959f25-b536-4caf-b967-9fa6dadb574d","ios":"levelo://app?vid=a9959f25-b536-4caf-b967-9fa6dadb574d"},"vehicle_type_id":"4","last_reported":1729692517,"current_range_meters":19200,"station_id":"","pricing_plan_id":"cebpf4jnsgd1na2vs0mg"},{"bike_id":"351d82db-d8ec-4b7f-ba13-21ccb8fd0552","system_id":"levelo_inurba_marseille","lat":43.26574,"lon":5.39004,"is_reserved":false,"is_disabled":false,"rental_uris":{"android":"levelo://app?vid=351d82db-d8ec-4b7f-ba13-21ccb8fd0552","ios":"levelo://app?vid=351d82db-d8ec-4b7f-ba13-21ccb8fd0552"},"vehicle_type_id":"4","last_reported":1729692517,"current_range_meters":30400,"station_id":"ce4bhe12rcd13ifvqf30","pricing_plan_id":"cebpf4jnsgd1na2vs0mg"},{"bike_id":"fed29e3d-ded9-4536-b5e9-762e6c2a1343","system_id":"levelo_inurba_marseille","lat":43.29959,"lon":5.39197,"is_reserved":false,"is_disabled":false,"rental_uris":{"android":"levelo://app?vid=fed29e3d-ded9-4536-b5e9-762e6c2a1343","ios":"levelo://app?vid=fed29e3d-ded9-4536-b5e9-762e6c2a1343"},"vehicle_type_id":"4","last_reported":1729692517,"current_range_meters":12000,"station_id":"ce4bghh2rcd13ifvqb60","pricing_plan_id":"cebpf4jnsgd1na2vs0mg"},{"bike_id":"fbb5640b-7a55-428a-b976-023a4331cb86","system_id":"levelo_inurba_marseille","lat":43.29613,"lon":5.3773,"is_reserved":false,"is_disabled":false,"rental_uris":{"android":"levelo://app?vid=fbb5640b-7a55-428a-b976-023a4331cb86","ios":"levelo://app?vid=fbb5640b-7a55-428a-b976-023a4331cb86"},"vehicle_type_id":"4","last_reported":1729692517,"current_range_meters":16400,"station_id":"ce4bgi92rcd13ifvqb90","pricing_plan_id":"cebpf4jnsgd1na2vs0mg"},{"bike_id":"4d934c20-af0a-4134-af24-ca947af692a7","system_id":"levelo_inurba_marseille","lat":43.31069,"lon":5.38344,"is_reserved":false,"is_disabled":false,"rental_uris":{"android":"levelo://app?vid=4d934c20-af0a-4134-af24-ca947af692a7","ios":"levelo://app?vid=4d934c20-af0a-4134-af24-ca947af692a7"},"vehicle_type_id":"4","last_reported":1729692517,"current_range_meters":30400,"station_id":"ce4bgv92rcd13ifvqcr0","pricing_plan_id":"cebpf4jnsgd1na2vs0mg"},{"bike_id":"409c7d05-8bd8-48e6-a031-312baafe8037","system_id":"levelo_inurba_marseille","lat":43.2293,"lon":5.35377,"is_reserved":false,"is_disabled":false,"rental_uris":{"android":"levelo://app?vid=409c7d05-8bd8-48e6-a031-312baafe8037","ios":"levelo://app?vid=409c7d05-8bd8-48e6-a031-312baafe8037"},"vehicle_type_id":"4","last_reported":1729692517,"current_range_meters":8000,"station_id":"cpo3532slgdg3j2ikp40","pricing_plan_id":"cebpf4jnsgd1na2vs0mg"},{"bike_id":"75785403-c74a-4e7f-93be-ce09638be4c9","system_id":"levelo_inurba_marseille","lat":43.29261,"lon":5.40919,"is_reserved":false,"is_disabled":false,"rental_uris":{"android":"levelo://app?vid=75785403-c74a-4e7f-93be-ce09638be4c9","ios":"levelo://app?vid=75785403-c74a-4e7f-93be-ce09638be4c9"},"vehicle_type_id":"4","last_reported":1729692517,"current_range_meters":40000,"station_id":"ce4bh192rcd13ifvqdc0","pricing_plan_id":"cebpf4jnsgd1na2vs0mg"},{"bike_id":"61808643-9571-4471-8f8a-eac48365dceb","system_id":"levelo_inurba_marseille","lat":43.23966,"lon":5.36633,"is_reserved":false,"is_disabled":false,"rental_uris":{"android":"levelo://app?vid=61808643-9571-4471-8f8a-eac48365dceb","ios":"levelo://app?vid=61808643-9571-4471-8f8a-eac48365dceb"},"vehicle_type_id":"4","last_reported":1729692517,"current_range_meters":4800,"station_id":"ce4bhi12rcd13ifvqfp0","pricing_plan_id":"cebpf4jnsgd1na2vs0mg"},{"bike_id":"8c79de4e-20bb-43e9-9c15-6c86ce5ce78c","system_id":"levelo_inurba_marseille","lat":43.30292,"lon":5.37696,"is_reserved":false,"is_disabled":false,"rental_uris":{"android":"levelo://app?vid=8c79de4e-20bb-43e9-9c15-6c86ce5ce78c","ios":"levelo://app?vid=8c79de4e-20bb-43e9-9c15-6c86ce5ce78c"},"vehicle_type_id":"4","last_reported":1729692517,"current_range_meters":35600,"station_id":"ce4bguh2rcd13ifvqcj0","pricing_plan_id":"cebpf4jnsgd1na2vs0mg"},{"bike_id":"1044c3e5-0338-4f28-b549-4322a1869f91","system_id":"levelo_inurba_marseille","lat":43.26963,"lon":5.38637,"is_reserved":false,"is_disabled":false,"rental_uris":{"android":"levelo://app?vid=1044c3e5-0338-4f28-b549-4322a1869f91","ios":"levelo://app?vid=1044c3e5-0338-4f28-b549-4322a1869f91"},"vehicle_type_id":"4","last_reported":1729692517,"current_range_meters":37600,"station_id":"ce4bhh92rcd13ifvqfh0","pricing_plan_id":"cebpf4jnsgd1na2vs0mg"},{"bike_id":"c55304c6-2525-40f2-a3a8-bafb98a92289","system_id":"levelo_inurba_marseille","lat":43.29002,"lon":5.35611,"is_reserved":false,"is_disabled":false,"rental_uris":{"android":"levelo://app?vid=c55304c6-2525-40f2-a3a8-bafb98a92289","ios":"levelo://app?vid=c55304c6-2525-40f2-a3a8-bafb98a92289"},"vehicle_type_id":"4","last_reported":1729692517,"current_range_meters":38400,"station_id":"ce4bhb92rcd13ifvqen0","pricing_plan_id":"cebpf4jnsgd1na2vs0mg"},{"bike_id":"7aef475c-5cbd-4a27-bb8f-59662dfd1bbc","system_id":"levelo_inurba_marseille","lat":43.264917,"lon":5.395386,"is_reserved":false,"is_disabled":false,"rental_uris":{"android":"levelo://app?vid=7aef475c-5cbd-4a27-bb8f-59662dfd1bbc","ios":"levelo://app?vid=7aef475c-5cbd-4a27-bb8f-59662dfd1bbc"},"vehicle_type_id":"4","last_reported":1729692517,"current_range_meters":12800,"station_id":"ce4bhi12rcd13ifvqfq0","pricing_plan_id":"cebpf4jnsgd1na2vs0mg"},{"bike_id":"161d9d49-4915-4ebd-b4de-009e94f4f114","system_id":"levelo_inurba_marseille","lat":43.30548,"lon":5.36689,"is_reserved":false,"is_disabled":false,"rental_uris":{"android":"levelo://app?vid=161d9d49-4915-4ebd-b4de-009e94f4f114","ios":"levelo://app?vid=161d9d49-4915-4ebd-b4de-009e94f4f114"},"vehicle_type_id":"4","last_reported":1729692517,"current_range_meters":13600,"station_id":"ce4bgrp2rcd13ifvqc9g","pricing_plan_id":"cebpf4jnsgd1na2vs0mg"},{"bike_id":"9086ab6f-4b0f-40d1-acb2-a8b3250d4f06","system_id":"levelo_inurba_marseille","lat":43.30544,"lon":5.36703,"is_reserved":false,"is_disabled":false,"rental_uris":{"android":"levelo://app?vid=9086ab6f-4b0f-40d1-acb2-a8b3250d4f06","ios":"levelo://app?vid=9086ab6f-4b0f-40d1-acb2-a8b3250d4f06"},"vehicle_type_id":"4","last_reported":1729692517,"current_range_meters":38800,"station_id":"ce4bgrp2rcd13ifvqc9g","pricing_plan_id":"cebpf4jnsgd1na2vs0mg"},{"bike_id":"f206ef0f-6350-4872-bd8e-d7e56e6179d9","system_id":"levelo_inurba_marseille","lat":43.2837,"lon":5.38626,"is_reserved":false,"is_disabled":false,"rental_uris":{"android":"levelo://app?vid=f206ef0f-6350-4872-bd8e-d7e56e6179d9","ios":"levelo://app?vid=f206ef0f-6350-4872-bd8e-d7e56e6179d9"},"vehicle_type_id":"4","last_reported":1729692517,"current_range_meters":36000,"station_id":"ce4bh492rcd13ifvqdvg","pricing_plan_id":"cebpf4jnsgd1na2vs0mg"},{"bike_id":"71bf9bd9-951b-414b-a7ca-7aafdd25de21","system_id":"levelo_inurba_marseille","lat":43.29049,"lon":5.35905,"is_reserved":false,"is_disabled":false,"rental_uris":{"android":"levelo://app?vid=71bf9bd9-951b-414b-a7ca-7aafdd25de21","ios":"levelo://app?vid=71bf9bd9-951b-414b-a7ca-7aafdd25de21"},"vehicle_type_id":"4","last_reported":1729692517,"current_range_meters":25600,"station_id":"ce4bha92rcd13ifvqeg0","pricing_plan_id":"cebpf4jnsgd1na2vs0mg"},{"bike_id":"93acdca4-aebf-4efe-999f-49f6555e53d0","system_id":"levelo_inurba_marseille","lat":43.30596,"lon":5.37216,"is_reserved":false,"is_disabled":false,"rental_uris":{"android":"levelo://app?vid=93acdca4-aebf-4efe-999f-49f6555e53d0","ios":"levelo://app?vid=93acdca4-aebf-4efe-999f-49f6555e53d0"},"vehicle_type_id":"4","last_reported":1729692517,"current_range_meters":28400,"station_id":"ce4bgqh2rcd13ifvqc4g","pricing_plan_id":"cebpf4jnsgd1na2vs0mg"},{"bike_id":"98fc3082-afa5-4668-af1c-ab789718126f","system_id":"levelo_inurba_marseille","lat":43.293696,"lon":5.401318,"is_reserved":false,"is_disabled":false,"rental_uris":{"android":"levelo://app?vid=98fc3082-afa5-4668-af1c-ab789718126f","ios":"levelo://app?vid=98fc3082-afa5-4668-af1c-ab789718126f"},"vehicle_type_id":"4","last_reported":1729692517,"current_range_meters":30400,"station_id":"","pricing_plan_id":"cebpf4jnsgd1na2vs0mg"},{"bike_id":"815dd284-1bd2-4bb9-992a-b2116e2485bc","system_id":"levelo_inurba_marseille","lat":43.32667,"lon":5.36095,"is_reserved":false,"is_disabled":false,"rental_uris":{"android":"levelo://app?vid=815dd284-1bd2-4bb9-992a-b2116e2485bc","ios":"levelo://app?vid=815dd284-1bd2-4bb9-992a-b2116e2485bc"},"vehicle_type_id":"4","last_reported":1729692517,"current_range_meters":28800,"station_id":"","pricing_plan_id":"cebpf4jnsgd1na2vs0mg"},{"bike_id":"c6275880-d301-4fd6-86dc-0e1544c4345e","system_id":"levelo_inurba_marseille","lat":43.29578,"lon":5.36739,"is_reserved":false,"is_disabled":false,"rental_uris":{"android":"levelo://app?vid=c6275880-d301-4fd6-86dc-0e1544c4345e","ios":"levelo://app?vid=c6275880-d301-4fd6-86dc-0e1544c4345e"},"vehicle_type_id":"4","last_reported":1729692517,"current_range_meters":33200,"station_id":"ce4bgph2rcd13ifvqc2g","pricing_plan_id":"cebpf4jnsgd1na2vs0mg"},