{"last_updated":1732907227,"ttl":60,"version":"2.2","data":{"bikes":[{"bike_id":"980d3ff2-140b-4dca-9e6c-dd871702e6a1","system_id":"levelo_inurba_marseille","lat":43.29527,"lon":5.38543,"is_reserved":false,"is_disabled":false,"rental_uris":{"android":"levelo://app?vid=980d3ff2-140b-4dca-9e6c-dd871702e6a1","ios":"levelo://app?vid=980d3ff2-140b-4dca-9e6c-dd871702e6a1"},"vehicle_type_id":"4","last_reported":1732907227,"current_range_meters":32800,"station_id":"ce4bgih2rcd13ifvqba0","pricing_plan_id":"cebpf4jnsgd1na2vs0mg"},{"bike_id":"a6938546-9c24-4db5-ab33-e50997791d9c","system_id":"levelo_inurba_marseille","lat":43.28154,"lon":5.426421,"is_reserved":false,"is_disabled":false,"rental_uris":{"android":"levelo://app?vid=a6938546-9c24-4db5-ab33-e50997791d9c","ios":"levelo://app?vid=a6938546-9c24-4db5-ab33-e50997791d9c"},"vehicle_type_id":"4","last_reported":1732907227,"current_range_meters":38800,"station_id":"ce4bhnh2rcd13ifvqgug","pricing_plan_id":"cebpf4jnsgd1na2vs0mg"},{"bike_id":"92ba1fc5-02a6-4543-b08c-f460a951cba3","system_id":"levelo_inurba_marseille","lat":43.29987,"lon":5.37188,"is_reserved":false,"is_disabled":false,"rental_uris":{"android":"levelo://app?vid=92ba1fc5-02a6-4543-b08c-f460a951cba3","ios":"levelo://app?vid=92ba1fc5-02a6-4543-b08c-f460a951cba3"},"vehicle_type_id":"4","last_reported":1732907227,"current_range_meters":36400,"station_id":"ce4bgr92rcd13ifvqc7g","pricing_plan_id":"cebpf4jnsgd1na2vs0mg"},{"bike_id":"b856c8b4-412d-4c25-bdd4-e6b29aed04cb","system_id":"levelo_inurba_marseille","lat":43.22941,"lon":5.35379,"is_reserved":false,"is_disabled":false,"rental_uris":{"android":"levelo://app?vid=b856c8b4-412d-4c25-bdd4-e6b29aed04cb","ios":"levelo://app?vid=b856c8b4-412d-4c25-bdd4-e6b29aed04cb"},"vehicle_type_id":"4","last_reported":1732907227,"current_range_meters":38800,"station_id":"cpo3532slgdg3j2ikp40","pricing_plan_id":"cebpf4jnsgd1na2vs0mg"},{"bike_id":"d69798dc-7070-4121-8838-6d947231dbb1","system_id":"levelo_inurba_marseille","lat":43.29551,"lon":5.42287,"is_reserved":false,"is_disabled":false,"rental_uris":{"android":"levelo://app?vid=d69798dc-7070-4121-8838-6d947231dbb1","ios":"levelo://app?vid=d69798dc-7070-4121-8838-6d947231dbb1"},"vehicle_type_id":"4","last_reported":1732907227,"current_range_meters":18800,"station_id":"ce4bhph2rcd13ifvqhdg","pricing_plan_id":"cebpf4jnsgd1na2vs0mg"},{"bike_id":"47289022-1e56-4f27-bacf-6a1293c11fed","system_id":"levelo_inurba_marseille","lat":43.29256,"lon":5.38448,"is_reserved":false,"is_disabled":false,"rental_uris":{"android":"levelo://app?vid=47289022-1e56-4f27-bacf-6a1293c11fed","ios":"levelo://app?vid=47289022-1e56-4f27-bacf-6a1293c11fed"},"vehicle_type_id":"4","last_reported":1732907227,"current_range_meters":38800,"station_id":"ce4bh692rcd13ifvqea0","pricing_plan_id":"cebpf4jnsgd1na2vs0mg"},{"bike_id":"40ca90ea-9465-47d2-a08a-277a2591b568","system_id":"levelo_inurba_marseille","lat":43.27915,"lon":5.39579,"is_reserved":false,"is_disabled":true,"rental_uris":{"android":"levelo://app?vid=40ca90ea-9465-47d2-a08a-277a2591b568","ios":"levelo://app?vid=40ca90ea-9465-47d2-a08a-277a2591b568"},"vehicle_type_id":"4","last_reported":1732907227,"current_range_meters":0,"station_id":"ce4bhf92rcd13ifvqf40","pricing_plan_id":"cebpf4jnsgd1na2vs0mg"},{"bike_id":"1d6af00b-a681-4b84-b994-abae3413fe9c","system_id":"levelo_inurba_marseille","lat":43.2799,"lon":5.40025,"is_reserved":false,"is_disabled":false,"rental_uris":{"android":"levelo://app?vid=1d6af00b-a681-4b84-b994-abae3413fe9c","ios":"levelo://app?vid=1d6af00b-a681-4b84-b994-abae3413fe9c"},"vehicle_type_id":"4","last_reported":1732907227,"current_range_meters":36400,"station_id":"ce4bho92rcd13ifvqh4g","pricing_plan_id":"cebpf4jnsgd1na2vs0mg"},{"bike_id":"edb5639e-25fe-4ee3-ab07-5b09d8eb6b3c","system_id":"levelo_inurba_marseille","lat":43.30427,"lon":5.3889,"is_reserved":false,"is_disabled":true,"rental_uris":{"android":"levelo://app?vid=edb5639e-25fe-4ee3-ab07-5b09d8eb6b3c","ios":"levelo://app?vid=edb5639e-25fe-4ee3-ab07-5b09d8eb6b3c"},"vehicle_type_id":"4","last_reported":1732907227,"current_range_meters":30400,"station_id":"ce4bgk12rcd13ifvqbi0","pricing_plan_id":"cebpf4jnsgd1na2vs0mg"},{"bike_id":"d14281c0-bfa7-41e9-9a1b-a7bdc6f168d1","system_id":"levelo_inurba_marseille","lat":43.29529,"lon":5.38543,"is_reserved":false,"is_disabled":false,"rental_uris":{"android":"levelo://app?vid=d14281c0-bfa7-41e9-9a1b-a7bdc6f168d1","ios":"levelo://app?vid=d14281c0-bfa7-41e9-9a1b-a7bdc6f168d1"},"vehicle_type_id":"4","last_reported":1732907227,"current_range_meters":36000,"station_id":"ce4bgih2rcd13ifvqba0","pricing_plan_id":"cebpf4jnsgd1na2vs0mg"},{"bike_id":"7974306f-50f1-4979-96e6-42a3a669c81a","system_id":"levelo_inurba_marseille","lat":43.32002,"lon":5.38166,"is_reserved":false,"is_disabled":false,"rental_uris":{"android":"levelo://app?vid=7974306f-50f1-4979-96e6-42a3a669c81a","ios":"levelo://app?vid=7974306f-50f1-4979-96e6-42a3a669c81a"},"vehicle_type_id":"4","last_reported":1732907227,"current_range_meters":20800,"station_id":"ce4bhr12rcd13ifvqhpg","pricing_plan_id":"cebpf4jnsgd1na2vs0mg"},{"bike_id":"69432302-82b9-499e-b5e0-14f39a8c0809","system_id":"levelo_inurba_marseille","lat":43.28458,"lon":5.35886,"is_reserved":false,"is_disabled":false,"rental_uris":{"android":"levelo://app?vid=69432302-82b9-499e-b5e0-14f39a8c0809","ios":"levelo://app?vid=69432302-82b9-499e-b5e0-14f39a8c0809"},"vehicle_type_id":"4","last_reported":1732907227,"current_range_meters":27200,"station_id":"ce4bhah2rcd13ifvqei0","pricing_plan_id":"cebpf4jnsgd1na2vs0mg"},{"bike_id":"a57cf375-bb68-4ddd-9314-67cf2cdc1270","system_id":"levelo_inurba_marseille","lat":43.28852,"lon":5.35858,"is_reserved":false,"is_disabled":false,"rental_uris":{"android":"levelo://app?vid=a57cf375-bb68-4ddd-9314-67cf2cdc1270","ios":"levelo://app?vid=a57cf375-bb68-4ddd-9314-67cf2cdc1270"},"vehicle_type_id":"4","last_reported":1732907227,"current_range_meters":1600,"station_id":"ce4bhb12rcd13ifvqem0","pricing_plan_id":"cebpf4jnsgd1na2vs0mg"},{"bike_id":"fd697d47-0673-4154-ac86-a4cad6d65499","system_id":"levelo_inurba_marseille","lat":43.27996,"lon":5.40013,"is_reserved":false,"is_disabled":false,"rental_uris":{"android":"levelo://app?vid=fd697d47-0673-4154-ac86-a4cad6d65499","ios":"levelo://app?vid=fd697d47-0673-4154-ac86-a4cad6d65499"},"vehicle_type_id":"4","last_reported":1732907227,"current_range_meters":32400,"station_id":"ce4bho92rcd13ifvqh4g","pricing_plan_id":"cebpf4jnsgd1na2vs0mg"},{"bike_id":"f21bc281-0f44-48ac-bb8e-ddbaef7182e9","system_id":"levelo_inurba_marseille","lat":43.29032,"lon":5.35919,"is_reserved":false,"is_disabled":false,"rental_uris":{"android":"levelo://app?vid=f21bc281-0f44-48ac-bb8e-ddbaef7182e9","ios":"levelo://app?vid=f21bc281-0f44-48ac-bb8e-ddbaef7182e9"},"vehicle_type_id":"4","last_reported":1732907227,"current_range_meters":38400,"station_id":"ce4bha92rcd13ifvqeg0","pricing_plan_id":"cebpf4jnsgd1na2vs0mg"},{"bike_id":"9b9b4866-f123-4e9b-bc92-12f1937e5433","system_id":"levelo_inurba_marseille","lat":43.27182,"lon":5.41004,"is_reserved":false,"is_disabled":false,"rental_uris":{"android":"levelo://app?vid=9b9b4866-f123-4e9b-bc92-12f1937e5433","ios":"levelo://app?vid=9b9b4866-f123-4e9b-bc92-12f1937e5433"},"vehicle_type_id":"4","last_reported":1732907227,"current_range_meters":23200,"station_id":"ce4bhl12rcd13ifvqgf0","pricing_plan_id":"cebpf4jnsgd1na2vs0mg"},{"bike_id":"6afdc93c-08c2-4ad2-b245-20e7b7ed82b5","system_id":"levelo_inurba_marseille","lat":43.3361,"lon":5.41027,"is_reserved":false,"is_disabled":true,"rental_uris":{"android":"levelo://app?vid=6afdc93c-08c2-4ad2-b245-20e7b7ed82b5","ios":"levelo://app?vid=6afdc93c-08c2-4ad2-b245-20e7b7ed82b5"},"vehicle_type_id":"4","last_reported":1732907227,"current_range_meters":0,"station_id":"ce4bhqh2rcd13ifvqhmg","pricing_plan_id":"cebpf4jnsgd1na2vs0mg"},{"bike_id":"3b429824-5471-476f-97ce-421aa555b47f","system_id":"levelo_inurba_marseille","lat":43.27065,"lon":5.42276,"is_reserved":false,"is_disabled":false,"rental_uris":{"android":"levelo://app?vid=3b429824-5471-476f-97ce-421aa555b47f","ios":"levelo://app?vid=3b429824-5471-476f-97ce-421aa555b47f"},"vehicle_type_id":"4","last_reported":1732907227,"current_range_meters":38800,"station_id":"ce4bhk92rcd13ifvqgb0","pricing_plan_id":"cebpf4jnsgd1na2vs0mg"},{"bike_id":"edbfb856-8fd1-471d-99de-753bfd9fb9e0","system_id":"levelo_inurba_marseille","lat":43.29262,"lon":5.38447,"is_reserved":false,"is_disabled":false,"rental_uris":{"android":"levelo://app?vid=edbfb856-8fd1-471d-99de-753bfd9fb9e0","ios":"levelo://app?vid=edbfb856-8fd1-471d-99de-753bfd9fb9e0"},"vehicle_type_id":"4","last_reported":1732907227,"current_range_meters":4000,"station_id":"ce4bh692rcd13ifvqea0","pricing_plan_id":"cebpf4jnsgd1na2vs0mg"},{"bike_id":"edf8c63d-fc66-4d9f-bde1-2d8f5d432520","system_id":"levelo_inurba_marseille","lat":43.29198,"lon":5.3933,"is_reserved":false,"is_disabled":false,"rental_uris":{"android":"levelo://app?vid=edf8c63d-fc66-4d9f-bde1-2d8f5d432520","ios":"levelo://app?vid=edf8c63d-fc66-4d9f-bde1-2d8f5d432520"},"vehicle_type_id":"4","last_reported":1732907227,"current_range_meters":24400,"station_id":"ce4bh192rcd13ifvqdd0","pricing_plan_id":"cebpf4jnsgd1na2vs0mg"},{"bike_id":"d2ba9c46-4dcf-4295-8a72-ccf30082ad89","system_id":"levelo_inurba_marseille","lat":43.30953,"lon":5.39033,"is_reserved":false,"is_disabled":true,"rental_uris":{"android":"levelo://app?vid=d2ba9c46-4dcf-4295-8a72-ccf30082ad89","ios":"levelo://app?vid=d2ba9c46-4dcf-4295-8a72-ccf30082ad89"},"vehicle_type_id":"4","last_reported":1732907227,"current_range_meters":800,"station_id":"ce4bgup2rcd13ifvqco0","pricing_plan_id":"cebpf4jnsgd1na2vs0mg"},{"bike_id":"e4ec682c-74ed-4f43-b174-164e1c652fa0","system_id":"levelo_inurba_marseille","lat":43.29583,"lon":5.37522,"is_reserved":false,"is_disabled":false,"rental_uris":{"android":"levelo://app?vid=e4ec682c-74ed-4f43-b174-164e1c652fa0","ios":"levelo://app?vid=e4ec682c-74ed-4f43-b174-164e1c652fa0"},"vehicle_type_id":"4","last_reported":1732907227,"current_range_meters":3600,"station_id":"ce4bgh92rcd13ifvqb50","pricing_plan_id":"cebpf4jnsgd1na2vs0mg"},{"bike_id":"6f7949e1-de87-4a49-8620-fec27e04447f","system_id":"levelo_inurba_marseille","lat":43.33717,"lon":5.39188,"is_reserved":false,"is_disabled":false,"rental_uris":{"android":"levelo://app?vid=6f7949e1-de87-4a49-8620-fec27e04447f","ios":"levelo://app?vid=6f7949e1-de87-4a49-8620-fec27e04447f"},"vehicle_type_id":"4","last_reported":1732907227,"current_range_meters":30000,"station_id":"ce4bhr92rcd13ifvqhsg","pricing_plan_id":"cebpf4jnsgd1na2vs0mg"},{"bike_id":"79da6e11-068f-4f85-891a-bf5d6033ae1b","system_id":"levelo_inurba_marseille","lat":43.29191,"lon":5.3932,"is_reserved":false,"is_disabled":true,"rental_uris":{"android":"levelo://app?vid=79da6e11-068f-4f85-891a-bf5d6033ae1b","ios":"levelo://app?vid=79da6e11-068f-4f85-891a-bf5d6033ae1b"},"vehicle_type_id":"4","last_reported":1732907227,"current_range_meters":27600,"station_id":"ce4bh192rcd13ifvqdd0","pricing_plan_id":"cebpf4jnsgd1na2vs0mg"},{"bike_id":"ea65bc22-100f-4a7b-a38b-f2659223cf3d","system_id":"levelo_inurba_marseille","lat":43.31994,"lon":5.38166,"is_reserved":false,"is_disabled":false,"rental_uris":{"android":"levelo://app?vid=ea65bc22-100f-4a7b-a38b-f2659223cf3d","ios":"levelo://app?vid=ea65bc22-100f-4a7b-a38b-f2659223cf3d"},"vehicle_type_id":"4","last_reported":1732907227,"current_range_meters":8400,"station_id":"ce4bhr12rcd13ifvqhpg","pricing_plan_id":"cebpf4jnsgd1na2vs0mg"},{"bike_id":"c8e18c54-9b3f-4cd1-ad67-6ca07bf358c8","system_id":"levelo_inurba_marseille","lat":43.33023,"lon":5.39034,"is_reserved":false,"is_disabled":false,"rental_uris":{"android":"levelo://app?vid=c8e18c54-9b3f-4cd1-ad67-6ca07bf358c8","ios":"levelo://app?vid=c8e18c54-9b3f-4cd1-ad67-6ca07bf358c8"},"vehicle_type_id":"4","last_reported":1732907227,"current_range_meters":10800,"station_id":"ce4bhr92rcd13ifvqhrg","pricing_plan_id":"cebpf4jnsgd1na2vs0mg"},{"bike_id":"52453f7b-0ed1-41d7-afd0-bc3b4c847f48","system_id":"levelo_inurba_marseille","lat":43.298673,"lon":5.388968,"is_reserved":false,"is_disabled":false,"rental_uris":{"android":"levelo://app?vid=52453f7b-0ed1-41d7-afd0-bc3b4c847f48","ios":"levelo://app?vid=52453f7b-0ed1-41d7-afd0-bc3b4c847f48"},"vehicle_type_id":"4","last_reported":1732907227,"current_range_meters":8800,"station_id":"ce4bh392rcd13ifvqdl0","pricing_plan_id":"cebpf4jnsgd1na2vs0mg"},{"bike_id":"4250042e-915f-424f-be53-4de8ba4c5761","system_id":"levelo_inurba_marseille","lat":43.30087,"lon":5.3909,"is_reserved":false,"is_disabled":false,"rental_uris":{"android":"levelo://app?vid=4250042e-915f-424f-be53-4de8ba4c5761","ios":"levelo://app?vid=4250042e-915f-424f-be53-4de8ba4c5761"},"vehicle_type_id":"4","last_reported":1732907227,"current_range_meters":15200,"station_id":"ce4bh192rcd13ifvqdb0","pricing_plan_id":"cebpf4jnsgd1na2vs0mg"},{"bike_id":"231a3d6d-4fb6-4efa-8870-1e5ae5e2714f","system_id":"levelo_inurba_marseille","lat":43.29195,"lon":5.35813,"is_reserved":false,"is_disabled":false,"rental_uris":{"android":"levelo://app?vid=231a3d6d-4fb6-4efa-8870-1e5ae5e2714f","ios":"levelo://app?vid=231a3d6d-4fb6-4efa-8870-1e5ae5e2714f"},"vehicle_type_id":"4","last_reported":1732907227,"current_range_meters":39200,"station_id":"ce4bhb12rcd13ifvqel0","pricing_plan_id":"cebpf4jnsgd1na2vs0mg"},{"bike_id":"4709c438-f4af-415a-a919-d27302b75dca","system_id":"levelo_inurba_marseille","lat":43.23194,"lon":5.35553,"is_reserved":false,"is_disabled":false,"rental_uris":{"android":"levelo://app?vid=4709c438-f4af-415a-a919-d27302b75dca","ios":"levelo://app?vid=4709c438-f4af-415a-a919-d27302b75dca"},"vehicle_type_id":"4","last_reported":1732907227,"current_range_meters":38800,"station_id":"ce4bhu92rcd13ifvqi70","pricing_plan_id":"cebpf4jnsgd1na2vs0mg"},{"bike_id":"19d8d449-a0eb-4c0e-9592-0053e853ceac","system_id":"levelo_inurba_marseille","lat":43.330204,"lon":5.39042,"is_reserved":false,"is_disabled":false,"rental_uris":{"android":"levelo://app?vid=19d8d449-a0eb-4c0e-9592-0053e853ceac","ios":"levelo://app?vid=19d8d449-a0eb-4c0e-9592-0053e853ceac"},"vehicle_type_id":"4","last_reported":1732907227,"current_range_meters":37600,"station_id":"ce4bhr92rcd13ifvqhrg","pricing_plan_id":"cebpf4jnsgd1na2vs0mg"},{"bike_id":"d1486dd5-23d4-40bc-bb61-4a3c8126196a","system_id":"levelo_inurba_marseille","lat":43.27368,"lon":5.36256,"is_reserved":false,"is_disabled":true,"rental_uris":{"android":"levelo://app?vid=d1486dd5-23d4-40bc-bb61-4a3c8126196a","ios":"levelo://app?vid=d1486dd5-23d4-40bc-bb61-4a3c8126196a"},"vehicle_type_id":"4","last_reported":1732907227,"current_range_meters":38800,"station_id":"ce4bhbh2rcd13ifvqeo0","pricing_plan_id":"cebpf4jnsgd1na2vs0mg"},{"bike_id":"f0d2a098-7ddb-4601-ae15-20c32e03cbe5","system_id":"levelo_inurba_marseille","lat":43.28185,"lon":5.42626,"is_reserved":false,"is_disabled":false,"rental_uris":{"android":"levelo://app?vid=f0d2a098-7ddb-4601-ae15-20c32e03cbe5","ios":"levelo://app?vid=f0d2a098-7ddb-4601-ae15-20c32e03cbe5"},"vehicle_type_id":"4","last_reported":1732907227,"current_range_meters":26800,"station_id":"ce4bhnh2rcd13ifvqgug","pricing_plan_id":"cebpf4jnsgd1na2vs0mg"},{"bike_id":"5dc9edb1-f8c3-4553-889d-f73c08836757","system_id":"levelo_inurba_marseille","lat":43.32472,"lon":5.36585,"is_reserved":false,"is_disabled":true,"rental_uris":{"android":"levelo://app?vid=5dc9edb1-f8c3-4553-889d-f73c08836757","ios":"levelo://app?vid=5dc9edb1-f8c3-4553-889d-f73c08836757"},"vehicle_type_id":"4","last_reported":1732907227,"current_range_meters":7200,"station_id":"ce4bhs12rcd13ifvqhvg","pricing_plan_id":"cebpf4jnsgd1na2vs0mg"},{"bike_id":"4b5b5f7f-8ad5-41aa-adc9-558b6368ccc1","system_id":"levelo_inurba_marseille","lat":43.29712,"lon":5.36604,"is_reserved":false,"is_disabled":false,"rental_uris":{"android":"levelo://app?vid=4b5b5f7f-8ad5-41aa-adc9-558b6368ccc1","ios":"levelo://app?vid=4b5b5f7f-8ad5-41aa-adc9-558b6368ccc1"},"vehicle_type_id":"4","last_reported":1732907227,"current_range_meters":37600,"station_id":"ce4bgn12rcd13ifvqbt0","pricing_plan_id":"cebpf4jnsgd1na2vs0mg"},{"bike_id":"274a9a9a-d2ad-4d60-ac46-f9f8eb7a761e","system_id":"levelo_inurba_marseille","lat":43.30276,"lon":5.37697,"is_reserved":false,"is_disabled":false,"rental_uris":{"android":"levelo://app?vid=274a9a9a-d2ad-4d60-ac46-f9f8eb7a761e","ios":"levelo://app?vid=274a9a9a-d2ad-4d60-ac46-f9f8eb7a761e"},"vehicle_type_id":"4","last_reported":1732907227,"current_range_meters":38800,"station_id":"ce4bguh2rcd13ifvqcj0","pricing_plan_id":"cebpf4jnsgd1na2vs0mg"},{"bike_id":"df3c2a92-f2ec-4a83-96e1-259ec7d73752","system_id":"levelo_inurba_marseille","lat":43.278357,"lon":5.3922,"is_reserved":false,"is_disabled":false,"rental_uris":{"android":"levelo://app?vid=df3c2a92-f2ec-4a83-96e1-259ec7d73752","ios":"levelo://app?vid=df3c2a92-f2ec-4a83-96e1-259ec7d73752"},"vehicle_type_id":"4","last_reported":1732907227,"current_range_meters":8400,"station_id":"ce4bhjp2rcd13ifvqga0","pricing_plan_id":"cebpf4jnsgd1na2vs0mg"},{"bike_id":"18e7d8d3-9d22-4b86-8e91-a94e41d5c742","system_id":"levelo_inurba_marseille","lat":43.29415,"lon":5.38623,"is_reserved":false,"is_disabled":false,"rental_uris":{"android":"levelo://app?vid=18e7d8d3-9d22-4b86-8e91-a94e41d5c742","ios":"levelo://app?vid=18e7d8d3-9d22-4b86-8e91-a94e41d5c742"},"vehicle_type_id":"4","last_reported":1732907227,"current_range_meters":38400,"station_id":"ce4bh2h2rcd13ifvqdh0","pricing_plan_id":"cebpf4jnsgd1na2vs0mg"},{"bike_id":"ab48ff1d-73d7-44c7-9ef3-0adeaaf25f01","system_id":"levelo_inurba_marseille","lat":43.26941,"lon":5.38923,"is_reserved":false,"is_disabled":true,"rental_uris":{"android":"levelo://app?vid=ab48ff1d-73d7-44c7-9ef3-0adeaaf25f01","ios":"levelo://app?vid=ab48ff1d-73d7-44c7-9ef3-0adeaaf25f01"},"vehicle_type_id":"4","last_reported":1732907227,"current_range_meters":14800,"station_id":"ce4bhhh2rcd13ifvqfl0","pricing_plan_id":"cebpf4jnsgd1na2vs0mg"},{"bike_id":"b67515af-79f9-4f5d-8254-f369d7baa871","system_id":"levelo_inurba_marseille","lat":43.26059,"lon":5.39396,"is_reserved":false,"is_disabled":true,"rental_uris":{"android":"levelo://app?vid=b67515af-79f9-4f5d-8254-f369d7baa871","ios":"levelo://app?vid=b67515af-79f9-4f5d-8254-f369d7baa871"},"vehicle_type_id":"4","last_reported":1732907227,"current_range_meters":0,"station_id":"ce4bhh92rcd13ifvqfj0","pricing_plan_id":"cebpf4jnsgd1na2vs0mg"},{"bike_id":"1782be71-6673-4dd7-a14a-615fd45e4029","system_id":"levelo_inurba_marseille","lat":43.28266,"lon":5.35061,"is_reserved":false,"is_disabled":false,"rental_uris":{"android":"levelo://app?vid=1782be71-6673-4dd7-a14a-615fd45e4029","ios":"levelo://app?vid=1782be71-6673-4dd7-a14a-615fd45e4029"},"vehicle_type_id":"4","last_reported":1732907227,"current_range_meters":9200,"station_id":"ce4bhbp2rcd13ifvqerg","pricing_plan_id":"cebpf4jnsgd1na2vs0mg"},{"bike_id":"a4772fb8-1391-4412-b02d-089826846a05","system_id":"levelo_inurba_marseille","lat":43.29517,"lon":5.39397,"is_reserved":false,"is_disabled":false,"rental_uris":{"android":"levelo://app?vid=a4772fb8-1391-4412-b02d-089826846a05","ios":"levelo://app?vid=a4772fb8-1391-4412-b02d-089826846a05"},"vehicle_type_id":"4","last_reported":1732907227,"current_range_meters":18000,"station_id":"ce4bh292rcd13ifvqdf0","pricing_plan_id":"cebpf4jnsgd1na2vs0mg"},{"bike_id":"94ddd20c-e5b2-4c73-a61a-2ac668abc7d2","system_id":"levelo_inurba_marseille","lat":43.31992,"lon":5.38141,"is_reserved":false,"is_disabled":false,"rental_uris":{"android":"levelo://app?vid=94ddd20c-e5b2-4c73-a61a-2ac668abc7d2","ios":"levelo://app?vid=94ddd20c-e5b2-4c73-a61a-2ac668abc7d2"},"vehicle_type_id":"4","last_reported":1732907227,"current_range_meters":38400,"station_id":"ce4bhr12rcd13ifvqhpg","pricing_plan_id":"cebpf4jnsgd1na2vs0mg"},{"bike_id":"fe2c00d6-fab6-472b-887d-35960cae9038","system_id":"levelo_inurba_marseille","lat":43.25938,"lon":5.40895,"is_reserved":false,"is_disabled":false,"rental_uris":{"android":"levelo://app?vid=fe2c00d6-fab6-472b-887d-35960cae9038","ios":"levelo://app?vid=fe2c00d6-fab6-472b-887d-35960cae9038"},"vehicle_type_id":"4","last_reported":1732907227,"current_range_meters":38800,"station_id":"ce4bhm92rcd13ifvqglg","pricing_plan_id":"cebpf4jnsgd1na2vs0mg"},{"bike_id":"4035e70a-9b35-49ff-8763-9565717e2e74","system_id":"levelo_inurba_marseille","lat":43.28461,"lon":5.35893,"is_reserved":false,"is_disabled":true,"rental_uris":{"android":"levelo://app?vid=4035e70a-9b35-49ff-8763-9565717e2e74","ios":"levelo://app?vid=4035e70a-9b35-49ff-8763-9565717e2e74"},"vehicle_type_id":"4","last_reported":1732907227,"current_range_meters":9200,"station_id":"ce4bhah2rcd13ifvqei0","pricing_plan_id":"cebpf4jnsgd1na2vs0mg"},{"bike_id":"bc749360-3ce4-4dd6-a0ac-83aa82c323a7","system_id":"levelo_inurba_marseille","lat":43.28152,"lon":5.42649,"is_reserved":false,"is_disabled":true,"rental_uris":{"android":"levelo://app?vid=bc749360-3ce4-4dd6-a0ac-83aa82c323a7","ios":"levelo://app?vid=bc749360-3ce4-4dd6-a0ac-83aa82c323a7"},"vehicle_type_id":"4","last_reported":1732907227,"current_range_meters":38000,"station_id":"ce4bhnh2rcd13ifvqgug","pricing_plan_id":"cebpf4jnsgd1na2vs0mg"},{"bike_id":"101ad472-f971-4c7e-9c38-ce207b6a0fe4","system_id":"levelo_inurba_marseille","lat":43.27323,"lon":5.39084,"is_reserved":false,"is_disabled":false,"rental_uris":{"android":"levelo://app?vid=101ad472-f971-4c7e-9c38-ce207b6a0fe4","ios":"levelo://app?vid=101ad472-f971-4c7e-9c38-ce207b6a0fe4"},"vehicle_type_id":"4","last_reported":1732907227,"current_range_meters":16000,"station_id":"ce4bhgp2rcd13ifvqfe0","pricing_plan_id":"cebpf4jnsgd1na2vs0mg"},{"bike_id":"4d4c884f-6933-49c0-8899-f9856d90f44d","system_id":"levelo_inurba_marseille","lat":43.29748,"lon":5.37971,"is_reserved":false,"is_disabled":true,"rental_uris":{"android":"levelo://app?vid=4d4c884f-6933-49c0-8899-f9856d90f44d","ios":"levelo://app?vid=4d4c884f-6933-49c0-8899-f9856d90f44d"},"vehicle_type_id":"4","last_reported":1732907227,"current_range_meters":0,"station_id":"","pricing_plan_id":"cebpf4jnsgd1na2vs0mg"},{"bike_id":"d82dda49-f000-4b9b-bb5a-ab2b369ce3c1","system_id":"levelo_inurba_marseille","lat":43.323395,"lon":5.406267,"is_reserved":false,"is_disabled":true,"rental_uris":{"android":"levelo://app?vid=d82dda49-f000-4b9b-bb5a-ab2b369ce3c1","ios":"levelo://app?vid=d82dda49-f000-4b9b-bb5a-ab2b369ce3c1"},"vehicle_type_id":"4","last_reported":1732907227,"current_range_meters":0,"station_id":"ce4bhq92rcd13ifvqhjg","pricing_plan_id":"cebpf4jnsgd1na2vs0mg"},{"bike_id":"e1f2e25d-ea81-4be7-b2ab-a59567ecd330","system_id":"levelo_inurba_marseille","lat":43.22934,"lon":5.35387,"is_reserved":false,"is_disabled":false,"rental_uris":{"android":"levelo://app?vid=e1f2e25d-ea81-4be7-b2ab-a59567ecd330","ios":"levelo://app?vid=e1f2e25d-ea81-4be7-b2ab-a59567ecd330"},"vehicle_type_id":"4","last_reported":1732907227,"current_range_meters":38000,"station_id":"cpo3532slgdg3j2ikp40","pricing_plan_id":"cebpf4jnsgd1na2vs0mg"},{"bike_id":"02895370-c40c-4c5d-869e-dbb8ac908e5c","system_id":"levelo_inurba_marseille","lat":43.2719,"lon":5.40985,"is_reserved":false,"is_disabled":false,"rental_uris":{"android":"levelo://app?vid=02895370-c40c-4c5d-869e-dbb8ac908e5c","ios":"levelo://app?vid=02895370-c40c-4c5d-869e-dbb8ac908e5c"},"vehicle_type_id":"4","last_reported":1732907227,"current_range_meters":32000,"station_id":"ce4bhl12rcd13ifvqgf0","pricing_plan_id":"cebpf4jnsgd1na2vs0mg"},{"bike_id":"9009be37-c6b1-406b-b0a8-fbab355f715e","system_id":"levelo_inurba_marseille","lat":43.33767,"lon":5.37492,"is_reserved":false,"is_disabled":false,"rental_uris":{"android":"levelo://app?vid=9009be37-c6b1-406b-b0a8-fbab355f715e","ios":"levelo://app?vid=9009be37-c6b1-406b-b0a8-fbab355f715e"},"vehicle_type_id":"4","last_reported":1732907227,"current_range_meters":35600,"station_id":"","pricing_plan_id":"cebpf4jnsgd1na2vs0mg"},{"bike_id":"b4a27723-b2fb-4781-9601-055c6edd55c1","system_id":"levelo_inurba_marseille","lat":43.27055,"lon":5.40267,"is_reserved":false,"is_disabled":true,"rental_uris":{"android":"levelo://app?vid=b4a27723-b2fb-4781-9601-055c6edd55c1","ios":"levelo://app?vid=b4a27723-b2fb-4781-9601-055c6edd55c1"},"vehicle_type_id":"4","last_reported":1732907227,"current_range_meters":0,"station_id":"ce4bhk92rcd13ifvqgc0","pricing_plan_id":"cebpf4jnsgd1na2vs0mg"},{"bike_id":"17d49370-8f12-465c-896e-dffb14fd271d","system_id":"levelo_inurba_marseille","lat":43.31717,"lon":5.43717,"is_reserved":false,"is_disabled":false,"rental_uris":{"android":"levelo://app?vid=17d49370-8f12-465c-896e-dffb14fd271d","ios":"levelo://app?vid=17d49370-8f12-465c-896e-dffb14fd271d"},"vehicle_type_id":"4","last_reported":1732907227,"current_range_meters":4000,"station_id":"ce4bhp92rcd13ifvqhcg","pricing_plan_id":"cebpf4jnsgd1na2vs0mg"},{"bike_id":"d2807836-6000-47ca-b96b-95836404774c","system_id":"levelo_inurba_marseille","lat":43.30223,"lon":5.39394,"is_reserved":false,"is_disabled":true,"rental_uris":{"android":"levelo://app?vid=d2807836-6000-47ca-b96b-95836404774c","ios":"levelo://app?vid=d2807836-6000-47ca-b96b-95836404774c"},"vehicle_type_id":"4","last_reported":1732907227,"current_range_meters":12400,"station_id":"","pricing_plan_id":"cebpf4jnsgd1na2vs0mg"},{"bike_id":"be1ea8ae-bb6c-4cc9-9878-4dd6e7c328d6","system_id":"levelo_inurba_marseille","lat":43.32105,"lon":5.36781,"is_reserved":false,"is_disabled":false,"rental_uris":{"android":"levelo://app?vid=be1ea8ae-bb6c-4cc9-9878-4dd6e7c328d6","ios":"levelo://app?vid=be1ea8ae-bb6c-4cc9-9878-4dd6e7c328d6"},"vehicle_type_id":"4","last_reported":1732907227,"current_range_meters":34800,"station_id":"ce4bhrh2rcd13ifvqhug","pricing_plan_id":"cebpf4jnsgd1na2vs0mg"},{"bike_id":"9589002c-1bab-46c5-9d09-a7efb8d9d194","system_id":"levelo_inurba_marseille","lat":43.28468,"lon":5.34984,"is_reserved":false,"is_disabled":false,"rental_uris":{"android":"levelo://app?vid=9589002c-1bab-46c5-9d09-a7efb8d9d194","ios":"levelo://app?vid=9589002c-1bab-46c5-9d09-a7efb8d9d194"},"vehicle_type_id":"4","last_reported":1732907227,"current_range_meters":14800,"station_id":"","pricing_plan_id":"cebpf4jnsgd1na2vs0mg"},{"bike_id":"fae596ce-658c-4463-9a38-b0efb4e11cc9","system_id":"levelo_inurba_marseille","lat":43.27676,"lon":5.38882,"is_reserved":false,"is_disabled":false,"rental_uris":{"android":"levelo://app?vid=fae596ce-658c-4463-9a38-b0efb4e11cc9","ios":"levelo://app?vid=fae596ce-658c-4463-9a38-b0efb4e11cc9"},"vehicle_type_id":"4","last_reported":1732907227,"current_range_meters":16800,"station_id":"ce4bhi12rcd13ifvqfo0","pricing_plan_id":"cebpf4jnsgd1na2vs0mg"},{"bike_id":"5cc87b7b-e8e2-4f57-bf4a-d5911689f04d","system_id":"levelo_inurba_marseille","lat":43.29254,"lon":5.40295,"is_reserved":false,"is_disabled":false,"rental_uris":{"android":"levelo://app?vid=5cc87b7b-e8e2-4f57-bf4a-d5911689f04d","ios":"levelo://app?vid=5cc87b7b-e8e2-4f57-bf4a-d5911689f04d"},"vehicle_type_id":"4","last_reported":1732907227,"current_range_meters":30000,"station_id":"","pricing_plan_id":"cebpf4jnsgd1na2vs0mg"},{"bike_id":"3c395188-d5ca-4716-a6b0-4ca65274d1df","system_id":"levelo_inurba_marseille","lat":43.30133,"lon":5.39881,"is_reserved":false,"is_disabled":true,"rental_uris":{"android":"levelo://app?vid=3c395188-d5ca-4716-a6b0-4ca65274d1df","ios":"levelo://app?vid=3c395188-d5ca-4716-a6b0-4ca65274d1df"},"vehicle_type_id":"4","last_reported":1732907227,"current_range_meters":8000,"station_id":"ce4bh0h2rcd13ifvqd40","pricing_plan_id":"cebpf4jnsgd1na2vs0mg"},{"bike_id":"77be03dd-3d99-4535-adc0-1c7477c4a3a3","system_id":"levelo_inurba_marseille","lat":43.32287,"lon":5.38274,"is_reserved":false,"is_disabled":false,"rental_uris":{"android":"levelo://app?vid=77be03dd-3d99-4535-adc0-1c7477c4a3a3","ios":"levelo://app?vid=77be03dd-3d99-4535-adc0-1c7477c4a3a3"},"vehicle_type_id":"4","last_reported":1732907227,"current_range_meters":38400,"station_id":"ce4bhr12rcd13ifvqhqg","pricing_plan_id":"cebpf4jnsgd1na2vs0mg"},{"bike_id":"08261947-d8ab-45dd-ad5e-1c551844404c","system_id":"levelo_inurba_marseille","lat":43.29053,"lon":5.3591,"is_reserved":false,"is_disabled":true,"rental_uris":{"android":"levelo://app?vid=08261947-d8ab-45dd-ad5e-1c551844404c","ios":"levelo://app?vid=08261947-d8ab-45dd-ad5e-1c551844404c"},"vehicle_type_id":"4","last_reported":1732907227,"current_range_meters":0,"station_id":"ce4bha92rcd13ifvqeg0","pricing_plan_id":"cebpf4jnsgd1na2vs0mg"},{"bike_id":"75a375c4-1fa8-4596-be99-da65777e06ea","system_id":"levelo_inurba_marseille","lat":43.26555,"lon":5.37287,"is_reserved":false,"is_disabled":false,"rental_uris":{"android":"levelo://app?vid=75a375c4-1fa8-4596-be99-da65777e06ea","ios":"levelo://app?vid=75a375c4-1fa8-4596-be99-da65777e06ea"},"vehicle_type_id":"4","last_reported":1732907227,"current_range_meters":14400,"station_id":"ce4bhg12rcd13ifvqf70","pricing_plan_id":"cebpf4jnsgd1na2vs0mg"},{"bike_id":"b97c3a76-738b-4b7d-b589-66884d0c6da4","system_id":"levelo_inurba_marseille","lat":43.29624,"lon":5.37726,"is_reserved":false,"is_disabled":false,"rental_uris":{"android":"levelo://app?vid=b97c3a76-738b-4b7d-b589-66884d0c6da4","ios":"levelo://app?vid=b97c3a76-738b-4b7d-b589-66884d0c6da4"},"vehicle_type_id":"4","last_reported":1732907227,"current_range_meters":32800,"station_id":"ce4bgi92rcd13ifvqb90","pricing_plan_id":"cebpf4jnsgd1na2vs0mg"},{"bike_id":"df73f0b2-cb2d-448d-9115-927482edea82","system_id":"levelo_inurba_marseille","lat":43.24803,"lon":5.37453,"is_reserved":false,"is_disabled":false,"rental_uris":{"android":"levelo://app?vid=df73f0b2-cb2d-448d-9115-927482edea82","ios":"levelo://app?vid=df73f0b2-cb2d-448d-9115-927482edea82"},"vehicle_type_id":"4","last_reported":1732907227,"current_range_meters":38000,"station_id":"ce4bhgh2rcd13ifvqfb0","pricing_plan_id":"cebpf4jnsgd1na2vs0mg"},{"bike_id":"bb826710-2fdd-4963-aecd-10a780630bc7","system_id":"levelo_inurba_marseille","lat":43.26566,"lon":5.39006,"is_reserved":false,"is_disabled":false,"rental_uris":{"android":"levelo://app?vid=bb826710-2fdd-4963-aecd-10a780630bc7","ios":"levelo://app?vid=bb826710-2fdd-4963-aecd-10a780630bc7"},"vehicle_type_id":"4","last_reported":1732907227,"current_range_meters":13600,"station_id":"ce4bhe12rcd13ifvqf30","pricing_plan_id":"cebpf4jnsgd1na2vs0mg"},{"bike_id":"4aba8748-6c77-48a5-b8ca-3f07c1f9573c","system_id":"levelo_inurba_marseille","lat":43.28159,"lon":5.42654,"is_reserved":false,"is_disabled":false,"rental_uris":{"android":"levelo://app?vid=4aba8748-6c77-48a5-b8ca-3f07c1f9573c","ios":"levelo://app?vid=4aba8748-6c77-48a5-b8ca-3f07c1f9573c"},"vehicle_type_id":"4","last_reported":1732907227,"current_range_meters":9600,"station_id":"ce4bhnh2rcd13ifvqgug","pricing_plan_id":"cebpf4jnsgd1na2vs0mg"},{"bike_id":"e8fa7be1-2407-41a7-b843-e7c70f1917ef","system_id":"levelo_inurba_marseille","lat":43.27608,"lon":5.36111,"is_reserved":false,"is_disabled":true,"rental_uris":{"android":"levelo://app?vid=e8fa7be1-2407-41a7-b843-e7c70f1917ef","ios":"levelo://app?vid=e8fa7be1-2407-41a7-b843-e7c70f1917ef"},"vehicle_type_id":"4","last_reported":1732907227,"current_range_meters":0,"station_id":"ce4bgj92rcd13ifvqbe0","pricing_plan_id":"cebpf4jnsgd1na2vs0mg"},{"bike_id":"92d039f7-ef4f-446f-a1ee-e72a2d771e1f","system_id":"levelo_inurba_marseille","lat":43.23204,"lon":5.39992,"is_reserved":false,"is_disabled":false,"rental_uris":{"android":"levelo://app?vid=92d039f7-ef4f-446f-a1ee-e72a2d771e1f","ios":"levelo://app?vid=92d039f7-ef4f-446f-a1ee-e72a2d771e1f"},"vehicle_type_id":"4","last_reported":1732907227,"current_range_meters":16000,"station_id":"ce4bhn12rcd13ifvqgqg","pricing_plan_id":"cebpf4jnsgd1na2vs0mg"},{"bike_id":"df0dfc86-7540-4a0c-8976-9af5497d0a2c","system_id":"levelo_inurba_marseille","lat":43.337444,"lon":5.374475,"is_reserved":false,"is_disabled":false,"rental_uris":{"android":"levelo://app?vid=df0dfc86-7540-4a0c-8976-9af5497d0a2c","ios":"levelo://app?vid=df0dfc86-7540-4a0c-8976-9af5497d0a2c"},"vehicle_type_id":"4","last_reported":1732907227,"current_range_meters":24800,"station_id":"","pricing_plan_id":"cebpf4jnsgd1na2vs0mg"},{"bike_id":"d6a0ff66-87dd-49de-a09b-bea530d1c972","system_id":"levelo_inurba_marseille","lat":43.25581,"lon":5.38241,"is_reserved":false,"is_disabled":true,"rental_uris":{"android":"levelo://app?vid=d6a0ff66-87dd-49de-a09b-bea530d1c972","ios":"levelo://app?vid=d6a0ff66-87dd-49de-a09b-bea530d1c972"},"vehicle_type_id":"4","last_reported":1732907227,"current_range_meters":31200,"station_id":"ce4bhih2rcd13ifvqfs0","pricing_plan_id":"cebpf4jnsgd1na2vs0mg"},{"bike_id":"b64c6095-9d78-4b69-b855-374d2a38d0a7","system_id":"levelo_inurba_marseille","lat":43.27616,"lon":5.36109,"is_reserved":false,"is_disabled":false,"rental_uris":{"android":"levelo://app?vid=b64c6095-9d78-4b69-b855-374d2a38d0a7","ios":"levelo://app?vid=b64c6095-9d78-4b69-b855-374d2a38d0a7"},"vehicle_type_id":"4","last_reported":1732907227,"current_range_meters":38000,"station_id":"ce4bgj92rcd13ifvqbe0","pricing_plan_id":"cebpf4jnsgd1na2vs0mg"},{"bike_id":"d2ece148-a944-49f3-8bc3-8c2139c4d49d","system_id":"levelo_inurba_marseille","lat":43.2926,"lon":5.40909,"is_reserved":false,"is_disabled":false,"rental_uris":{"android":"levelo://app?vid=d2ece148-a944-49f3-8bc3-8c2139c4d49d","ios":"levelo://app?vid=d2ece148-a944-49f3-8bc3-8c2139c4d49d"},"vehicle_type_id":"4","last_reported":1732907227,"current_range_meters":4800,"station_id":"ce4bh192rcd13ifvqdc0","pricing_plan_id":"cebpf4jnsgd1na2vs0mg"},{"bike_id":"3ca8d527-6c31-4160-8bc9-0dbae13780f9","system_id":"levelo_inurba_marseille","lat":43.28453,"lon":5.35885,"is_reserved":false,"is_disabled":true,"rental_uris":{"android":"levelo://app?vid=3ca8d527-6c31-4160-8bc9-0dbae13780f9","ios":"levelo://app?vid=3ca8d527-6c31-4160-8bc9-0dbae13780f9"},"vehicle_type_id":"4","last_reported":1732907227,"current_range_meters":22400,"station_id":"ce4bhah2rcd13ifvqei0","pricing_plan_id":"cebpf4jnsgd1na2vs0mg"},{"bike_id":"91c8507b-82e0-4ef9-bf26-072dfcfd047a","system_id":"levelo_inurba_marseille","lat":43.25686,"lon":5.41135,"is_reserved":false,"is_disabled":false,"rental_uris":{"android":"levelo://app?vid=91c8507b-82e0-4ef9-bf26-072dfcfd047a","ios":"levelo://app?vid=91c8507b-82e0-4ef9-bf26-072dfcfd047a"},"vehicle_type_id":"4","last_reported":1732907227,"current_range_meters":10800,"station_id":"ce4bhkp2rcd13ifvqgd0","pricing_plan_id":"cebpf4jnsgd1na2vs0mg"},{"bike_id":"a985c880-13b0-471f-be68-7059b51df585","system_id":"levelo_inurba_marseille","lat":43.268068,"lon":5.402638,"is_reserved":false,"is_disabled":true,"rental_uris":{"android":"levelo://app?vid=a985c880-13b0-471f-be68-7059b51df585","ios":"levelo://app?vid=a985c880-13b0-471f-be68-7059b51df585"},"vehicle_type_id":"4","last_reported":1732907227,"current_range_meters":0,"station_id":"ce501612rcd8frsf0b60","pricing_plan_id":"cebpf4jnsgd1na2vs0mg"},{"bike_id":"14bc0bec-05e4-4dd2-822f-e4dd1fdac057","system_id":"levelo_inurba_marseille","lat":43.28148,"lon":5.42638,"is_reserved":false,"is_disabled":false,"rental_uris":{"android":"levelo://app?vid=14bc0bec-05e4-4dd2-822f-e4dd1fdac057","ios":"levelo://app?vid=14bc0bec-05e4-4dd2-822f-e4dd1fdac057"},"vehicle_type_id":"4","last_reported":1732907227,"current_range_meters":38800,"station_id":"ce4bhnh2rcd13ifvqgug","pricing_plan_id":"cebpf4jnsgd1na2vs0mg"},{"bike_id":"4a2be555-d056-454c-bed3-fe781ba86f8e","system_id":"levelo_inurba_marseille","lat":43.25889,"lon":5.39954,"is_reserved":false,"is_disabled":true,"rental_uris":{"android":"levelo://app?vid=4a2be555-d056-454c-bed3-fe781ba86f8e","ios":"levelo://app?vid=4a2be555-d056-454c-bed3-fe781ba86f8e"},"vehicle_type_id":"4","last_reported":1732907227,"current_range_meters":3600,"station_id":"","pricing_plan_id":"cebpf4jnsgd1na2vs0mg"},{"bike_id":"f3cd38b0-0fcb-4b7b-9133-246ce5d64c8c","system_id":"levelo_inurba_marseille","lat":43.279683,"lon":5.387451,"is_reserved":false,"is_disabled":false,"rental_uris":{"android":"levelo://app?vid=f3cd38b0-0fcb-4b7b-9133-246ce5d64c8c","ios":"levelo://app?vid=f3cd38b0-0fcb-4b7b-9133-246ce5d64c8c"},"vehicle_type_id":"4","last_reported":1732907227,"current_range_meters":35600,"station_id":"ce4bhg12rcd13ifvqf80","pricing_plan_id":"cebpf4jnsgd1na2vs0mg"},{"bike_id":"1d0a2fdd-ee43-41f0-b745-b5031ebf151b","system_id":"levelo_inurba_marseille","lat":43.29654,"lon":5.37872,"is_reserved":false,"is_disabled":false,"rental_uris":{"android":"levelo://app?vid=1d0a2fdd-ee43-41f0-b745-b5031ebf151b","ios":"levelo://app?vid=1d0a2fdd-ee43-41f0-b745-b5031ebf151b"},"vehicle_type_id":"4","last_reported":1732907227,"current_range_meters":35200,"station_id":"ce4bgi92rcd13ifvqb90","pricing_plan_id":"cebpf4jnsgd1na2vs0mg"},{"bike_id":"74f23ffc-9be2-4ce9-b233-6490342bcf82","system_id":"levelo_inurba_marseille","lat":43.24166,"lon":5.36395,"is_reserved":false,"is_disabled":false,"rental_uris":{"android":"levelo://app?vid=74f23ffc-9be2-4ce9-b233-6490342bcf82","ios":"levelo://app?vid=74f23ffc-9be2-4ce9-b233-6490342bcf82"},"vehicle_type_id":"4","last_reported":1732907227,"current_range_meters":8400,"station_id":"cpo36qri1sfpv3e86is0","pricing_plan_id":"cebpf4jnsgd1na2vs0mg"},{"bike_id":"149cbc14-0894-4485-abf0-1d0584f14756","system_id":"levelo_inurba_marseille","lat":43.27811,"lon":5.40707,"is_reserved":false,"is_disabled":true,"rental_uris":{"android":"levelo://app?vid=149cbc14-0894-4485-abf0-1d0584f14756","ios":"levelo://app?vid=149cbc14-0894-4485-abf0-1d0584f14756"},"vehicle_type_id":"4","last_reported":1732907227,"current_range_meters":0,"station_id":"ce4bhnh2rcd13ifvqgtg","pricing_plan_id":"cebpf4jnsgd1na2vs0mg"},{"bike_id":"ab0b8c51-d5bf-4ec8-bb12-b73c4d3deb18","system_id":"levelo_inurba_marseille","lat":43.32332,"lon":5.40621,"is_reserved":false,"is_disabled":true,"rental_uris":{"android":"levelo://app?vid=ab0b8c51-d5bf-4ec8-bb12-b73c4d3deb18","ios":"levelo://app?vid=ab0b8c51-d5bf-4ec8-bb12-b73c4d3deb18"},"vehicle_type_id":"4","last_reported":1732907227,"current_range_meters":0,"station_id":"ce4bhq92rcd13ifvqhjg","pricing_plan_id":"cebpf4jnsgd1na2vs0mg"},{"bike_id":"ab265abd-38d2-4726-ac8c-b13de150c1b6","system_id":"levelo_inurba_marseille","lat":43.29069,"lon":5.37163,"is_reserved":false,"is_disabled":true,"rental_uris":{"android":"levelo://app?vid=ab265abd-38d2-4726-ac8c-b13de150c1b6","ios":"levelo://app?vid=ab265abd-38d2-4726-ac8c-b13de150c1b6"},"vehicle_type_id":"4","last_reported":1732907227,"current_range_meters":0,"station_id":"ce4bh5p2rcd13ifvqe4g","pricing_plan_id":"cebpf4jnsgd1na2vs0mg"},{"bike_id":"80ee5806-271f-4b24-a602-2dc27d804313","system_id":"levelo_inurba_marseille","lat":43.32108,"lon":5.36774,"is_reserved":false,"is_disabled":false,"rental_uris":{"android":"levelo://app?vid=80ee5806-271f-4b24-a602-2dc27d804313","ios":"levelo://app?vid=80ee5806-271f-4b24-a602-2dc27d804313"},"vehicle_type_id":"4","last_reported":1732907227,"current_range_meters":13600,"station_id":"ce4bhrh2rcd13ifvqhug","pricing_plan_id":"cebpf4jnsgd1na2vs0mg"},{"bike_id":"a99e441f-fcb3-4edf-8132-a5c34ea369bf","system_id":"levelo_inurba_marseille","lat":43.26945,"lon":5.40251,"is_reserved":false,"is_disabled":true,"rental_uris":{"android":"levelo://app?vid=a99e441f-fcb3-4edf-8132-a5c34ea369bf","ios":"levelo://app?vid=a99e441f-fcb3-4edf-8132-a5c34ea369bf"},"vehicle_type_id":"4","last_reported":1732907227,"current_range_meters":0,"station_id":"cjm6bp8fraef2m0cb0m0","pricing_plan_id":"cebpf4jnsgd1na2vs0mg"},{"bike_id":"b9332862-f6ae-4f1f-b056-94ad2aca1238","system_id":"levelo_inurba_marseille","lat":43.302765,"lon":5.400899,"is_reserved":false,"is_disabled":false,"rental_uris":{"android":"levelo://app?vid=b9332862-f6ae-4f1f-b056-94ad2aca1238","ios":"levelo://app?vid=b9332862-f6ae-4f1f-b056-94ad2aca1238"},"vehicle_type_id":"4","last_reported":1732907227,"current_range_meters":24800,"station_id":"ce4bgvh2rcd13ifvqcs0","pricing_plan_id":"cebpf4jnsgd1na2vs0mg"},{"bike_id":"3032096e-cca7-4267-a12b-d258401708bb","system_id":"levelo_inurba_marseille","lat":43.28034,"lon":5.36943,"is_reserved":false,"is_disabled":true,"rental_uris":{"android":"levelo://app?vid=3032096e-cca7-4267-a12b-d258401708bb","ios":"levelo://app?vid=3032096e-cca7-4267-a12b-d258401708bb"},"vehicle_type_id":"4","last_reported":1732907227,"current_range_meters":400,"station_id":"ce4bha12rcd13ifvqef0","pricing_plan_id":"cebpf4jnsgd1na2vs0mg"},{"bike_id":"f77c946c-c6e5-452b-9a5e-5f2df84b15d2","system_id":"levelo_inurba_marseille","lat":43.30416,"lon":5.39746,"is_reserved":false,"is_disabled":true,"rental_uris":{"android":"levelo://app?vid=f77c946c-c6e5-452b-9a5e-5f2df84b15d2","ios":"levelo://app?vid=f77c946c-c6e5-452b-9a5e-5f2df84b15d2"},"vehicle_type_id":"4","last_reported":1732907227,"current_range_meters":7200,"station_id":"ce4bh092rcd13ifvqd20","pricing_plan_id":"cebpf4jnsgd1na2vs0mg"},{"bike_id":"caec5743-9551-49a1-bc6f-66ea9df752cc","system_id":"levelo_inurba_marseille","lat":43.330284,"lon":5.390366,"is_reserved":false,"is_disabled":false,"rental_uris":{"android":"levelo://app?vid=caec5743-9551-49a1-bc6f-66ea9df752cc","ios":"levelo://app?vid=caec5743-9551-49a1-bc6f-66ea9df752cc"},"vehicle_type_id":"4","last_reported":1732907227,"current_range_meters":35600,"station_id":"ce4bhr92rcd13ifvqhrg","pricing_plan_id":"cebpf4jnsgd1na2vs0mg"},{"bike_id":"636dc1d1-7b2a-4360-947d-c51905bd7880","system_id":"levelo_inurba_marseille","lat":43.31482,"lon":5.37302,"is_reserved":false,"is_disabled":false,"rental_uris":{"android":"levelo://app?vid=636dc1d1-7b2a-4360-947d-c51905bd7880","ios":"levelo://app?vid=636dc1d1-7b2a-4360-947d-c51905bd7880"},"vehicle_type_id":"4","last_reported":1732907227,"current_range_meters":36400,"station_id":"ce4bgt12rcd13ifvqcd0","pricing_plan_id":"cebpf4jnsgd1na2vs0mg"},{"bike_id":"981f5323-76ee-4aff-abdb-308b2ece5ca8","system_id":"levelo_inurba_marseille","lat":43.33724,"lon":5.39186,"is_reserved":false,"is_disabled":false,"rental_uris":{"android":"levelo://app?vid=981f5323-76ee-4aff-abdb-308b2ece5ca8","ios":"levelo://app?vid=981f5323-76ee-4aff-abdb-308b2ece5ca8"},"vehicle_type_id":"4","last_reported":1732907227,"current_range_meters":12400,"station_id":"ce4bhr92rcd13ifvqhsg","pricing_plan_id":"cebpf4jnsgd1na2vs0mg"},{"bike_id":"81d9f7be-c3c6-4233-bf11-948e6f22debc","system_id":"levelo_inurba_marseille","lat":43.32361,"lon":5.38884,"is_reserved":false,"is_disabled":false,"rental_uris":{"android":"levelo://app?vid=81d9f7be-c3c6-4233-bf11-948e6f22debc","ios":"levelo://app?vid=81d9f7be-c3c6-4233-bf11-948e6f22debc"},"vehicle_type_id":"4","last_reported":1732907227,"current_range_meters":36000,"station_id":"ce4bhqp2rcd13ifvqhog","pricing_plan_id":"cebpf4jnsgd1na2vs0mg"},{"bike_id":"def90535-8063-4c54-b688-08f7d163ce9a","system_id":"levelo_inurba_marseille","lat":43.29418,"lon":5.38615,"is_reserved":false,"is_disabled":true,"rental_uris":{"android":"levelo://app?vid=def90535-8063-4c54-b688-08f7d163ce9a","ios":"levelo://app?vid=def90535-8063-4c54-b688-08f7d163ce9a"},"vehicle_type_id":"4","last_reported":1732907227,"current_range_meters":800,"station_id":"ce4bh2h2rcd13ifvqdh0","pricing_plan_id":"cebpf4jnsgd1na2vs0mg"},{"bike_id":"d3eed965-00bf-478f-9914-a4d20a962b89","system_id":"levelo_inurba_marseille","lat":43.26059,"lon":5.39397,"is_reserved":false,"is_disabled":false,"rental_uris":{"android":"levelo://app?vid=d3eed965-00bf-478f-9914-a4d20a962b89","ios":"levelo://app?vid=d3eed965-00bf-478f-9914-a4d20a962b89"},"vehicle_type_id":"4","last_reported":1732907227,"current_range_meters":8000,"station_id":"ce4bhh92rcd13ifvqfj0","pricing_plan_id":"cebpf4jnsgd1na2vs0mg"},{"bike_id":"c9956c97-75f2-4025-87fa-ff577b4193a1","system_id":"levelo_inurba_marseille","lat":43.32353,"lon":5.38881,"is_reserved":false,"is_disabled":false,"rental_uris":{"android":"levelo://app?vid=c9956c97-75f2-4025-87fa-ff577b4193a1","ios":"levelo://app?vid=c9956c97-75f2-4025-87fa-ff577b4193a1"},"vehicle_type_id":"4","last_reported":1732907227,"current_range_meters":37600,"station_id":"ce4bhqp2rcd13ifvqhog","pricing_plan_id":"cebpf4jnsgd1na2vs0mg"},{"bike_id":"29a80c71-9648-4a26-b6c9-5f69092eaa01","system_id":"levelo_inurba_marseille","lat":43.27069,"lon":5.42278,"is_reserved":false,"is_disabled":true,"rental_uris":{"android":"levelo://app?vid=29a80c71-9648-4a26-b6c9-5f69092eaa01","ios":"levelo://app?vid=29a80c71-9648-4a26-b6c9-5f69092eaa01"},"vehicle_type_id":"4","last_reported":1732907227,"current_range_meters":38800,"station_id":"ce4bhk92rcd13ifvqgb0","pricing_plan_id":"cebpf4jnsgd1na2vs0mg"},{"bike_id":"1e600745-8adf-410c-8ba2-15785e0b444e","system_id":"levelo_inurba_marseille","lat":43.29222,"lon":5.36072,"is_reserved":false,"is_disabled":false,"rental_uris":{"android":"levelo://app?vid=1e600745-8adf-410c-8ba2-15785e0b444e","ios":"levelo://app?vid=1e600745-8adf-410c-8ba2-15785e0b444e"},"vehicle_type_id":"4","last_reported":1732907227,"current_range_meters":38800,"station_id":"ce4bhbh2rcd13ifvqeqg","pricing_plan_id":"cebpf4jnsgd1na2vs0mg"},{"bike_id":"2070fbe6-ac18-48cc-977f-1e85fce48b90","system_id":"levelo_inurba_marseille","lat":43.28702,"lon":5.39985,"is_reserved":false,"is_disabled":true,"rental_uris":{"android":"levelo://app?vid=2070fbe6-ac18-48cc-977f-1e85fce48b90","ios":"levelo://app?vid=2070fbe6-ac18-48cc-977f-1e85fce48b90"},"vehicle_type_id":"4","last_reported":1732907227,"current_range_meters":1200,"station_id":"ce4bho92rcd13ifvqh3g","pricing_plan_id":"cebpf4jnsgd1na2vs0mg"},{"bike_id":"5b6140a7-7f65-4ca3-a3f2-419ab04c93da","system_id":"levelo_inurba_marseille","lat":43.22929,"lon":5.35377,"is_reserved":false,"is_disabled":false,"rental_uris":{"android":"levelo://app?vid=5b6140a7-7f65-4ca3-a3f2-419ab04c93da","ios":"levelo://app?vid=5b6140a7-7f65-4ca3-a3f2-419ab04c93da"},"vehicle_type_id":"4","last_reported":1732907227,"current_range_meters":26800,"station_id":"cpo3532slgdg3j2ikp40","pricing_plan_id":"cebpf4jnsgd1na2vs0mg"},{"bike_id":"0174841e-8011-4a7b-bd18-480101bee765","system_id":"levelo_inurba_marseille","lat":43.23961,"lon":5.3663,"is_reserved":false,"is_disabled":true,"rental_uris":{"android":"levelo://app?vid=0174841e-8011-4a7b-bd18-480101bee765","ios":"levelo://app?vid=0174841e-8011-4a7b-bd18-480101bee765"},"vehicle_type_id":"4","last_reported":1732907227,"current_range_meters":0,"station_id":"ce4bhi12rcd13ifvqfp0","pricing_plan_id":"cebpf4jnsgd1na2vs0mg"},{"bike_id":"130394e8-e0e8-4317-a2a9-4c9094949b14","system_id":"levelo_inurba_marseille","lat":43.30265,"lon":5.40085,"is_reserved":false,"is_disabled":false,"rental_uris":{"android":"levelo://app?vid=130394e8-e0e8-4317-a2a9-4c9094949b14","ios":"levelo://app?vid=130394e8-e0e8-4317-a2a9-4c9094949b14"},"vehicle_type_id":"4","last_reported":1732907227,"current_range_meters":30400,"station_id":"ce4bgvh2rcd13ifvqcs0","pricing_plan_id":"cebpf4jnsgd1na2vs0mg"},{"bike_id":"22c1bfd5-2253-4320-9402-cc1277c088c4","system_id":"levelo_inurba_marseille","lat":43.26946,"lon":5.40245,"is_reserved":false,"is_disabled":true,"rental_uris":{"android":"levelo://app?vid=22c1bfd5-2253-4320-9402-cc1277c088c4","ios":"levelo://app?vid=22c1bfd5-2253-4320-9402-cc1277c088c4"},"vehicle_type_id":"4","last_reported":1732907227,"current_range_meters":0,"station_id":"cjm6bp8fraef2m0cb0m0","pricing_plan_id":"cebpf4jnsgd1na2vs0mg"},{"bike_id":"52c5ec48-d9d2-4224-8f63-3b7560e41bcc","system_id":"levelo_inurba_marseille","lat":43.24181,"lon":5.39739,"is_reserved":false,"is_disabled":false,"rental_uris":{"android":"levelo://app?vid=52c5ec48-d9d2-4224-8f63-3b7560e41bcc","ios":"levelo://app?vid=52c5ec48-d9d2-4224-8f63-3b7560e41bcc"},"vehicle_type_id":"4","last_reported":1732907227,"current_range_meters":16800,"station_id":"ce4bhn12rcd13ifvqgpg","pricing_plan_id":"cebpf4jnsgd1na2vs0mg"},{"bike_id":"a233b25b-869e-422b-bf5e-63d3d8ff686f","system_id":"levelo_inurba_marseille","lat":43.3093,"lon":5.40139,"is_reserved":false,"is_disabled":true,"rental_uris":{"android":"levelo://app?vid=a233b25b-869e-422b-bf5e-63d3d8ff686f","ios":"levelo://app?vid=a233b25b-869e-422b-bf5e-63d3d8ff686f"},"vehicle_type_id":"4","last_reported":1732907227,"current_range_meters":24400,"station_id":"ce4bgvp2rcd13ifvqct0","pricing_plan_id":"cebpf4jnsgd1na2vs0mg"},{"bike_id":"68bee3cb-4c6c-479c-b3c1-0afc8b122ec9","system_id":"levelo_inurba_marseille","lat":43.29516,"lon":5.39426,"is_reserved":false,"is_disabled":false,"rental_uris":{"android":"levelo://app?vid=68bee3cb-4c6c-479c-b3c1-0afc8b122ec9","ios":"levelo://app?vid=68bee3cb-4c6c-479c-b3c1-0afc8b122ec9"},"vehicle_type_id":"4","last_reported":1732907227,"current_range_meters":38000,"station_id":"ce4bh292rcd13ifvqdf0","pricing_plan_id":"cebpf4jnsgd1na2vs0mg"},{"bike_id":"759518f4-9f32-4b72-97fe-df61c6c7bd05","system_id":"levelo_inurba_marseille","lat":43.31262,"lon":5.40155,"is_reserved":false,"is_disabled":true,"rental_uris":{"android":"levelo://app?vid=759518f4-9f32-4b72-97fe-df61c6c7bd05","ios":"levelo://app?vid=759518f4-9f32-4b72-97fe-df61c6c7bd05"},"vehicle_type_id":"4","last_reported":1732907227,"current_range_meters":6000,"station_id":"ce4bh092rcd13ifvqd30","pricing_plan_id":"cebpf4jnsgd1na2vs0mg"},{"bike_id":"b7856d06-59ef-4883-83df-f48b71e41fea","system_id":"levelo_inurba_marseille","lat":43.28466,"lon":5.38441,"is_reserved":false,"is_disabled":false,"rental_uris":{"android":"levelo://app?vid=b7856d06-59ef-4883-83df-f48b71e41fea","ios":"levelo://app?vid=b7856d06-59ef-4883-83df-f48b71e41fea"},"vehicle_type_id":"4","last_reported":1732907227,"current_range_meters":28800,"station_id":"ce4bh412rcd13ifvqdr0","pricing_plan_id":"cebpf4jnsgd1na2vs0mg"},{"bike_id":"2d360802-a298-4899-a6a6-965233755926","system_id":"levelo_inurba_marseille","lat":43.29934,"lon":5.3656,"is_reserved":false,"is_disabled":false,"rental_uris":{"android":"levelo://app?vid=2d360802-a298-4899-a6a6-965233755926","ios":"levelo://app?vid=2d360802-a298-4899-a6a6-965233755926"},"vehicle_type_id":"4","last_reported":1732907227,"current_range_meters":22400,"station_id":"ce4bgm92rcd13ifvqbr0","pricing_plan_id":"cebpf4jnsgd1na2vs0mg"},{"bike_id":"ac2a4554-ffe0-4e28-9df7-abf3737df124","system_id":"levelo_inurba_marseille","lat":43.24651,"lon":5.38894,"is_reserved":false,"is_disabled":false,"rental_uris":{"android":"levelo://app?vid=ac2a4554-ffe0-4e28-9df7-abf3737df124","ios":"levelo://app?vid=ac2a4554-ffe0-4e28-9df7-abf3737df124"},"vehicle_type_id":"4","last_reported":1732907227,"current_range_meters":8000,"station_id":"ce4bhg12rcd13ifvqf60","pricing_plan_id":"cebpf4jnsgd1na2vs0mg"},{"bike_id":"0caff41b-b70e-49e6-a03e-4825135eef61","system_id":"levelo_inurba_marseille","lat":43.30137,"lon":5.38779,"is_reserved":false,"is_disabled":false,"rental_uris":{"android":"levelo://app?vid=0caff41b-b70e-49e6-a03e-4825135eef61","ios":"levelo://app?vid=0caff41b-b70e-49e6-a03e-4825135eef61"},"vehicle_type_id":"4","last_reported":1732907227,"current_range_meters":38800,"station_id":"ce4bghh2rcd13ifvqb60","pricing_plan_id":"cebpf4jnsgd1na2vs0mg"},{"bike_id":"a44c4b57-8524-4c77-ac3c-5b6898f2531b","system_id":"levelo_inurba_marseille","lat":43.29704,"lon":5.3769,"is_reserved":false,"is_disabled":false,"rental_uris":{"android":"levelo://app?vid=a44c4b57-8524-4c77-ac3c-5b6898f2531b","ios":"levelo://app?vid=a44c4b57-8524-4c77-ac3c-5b6898f2531b"},"vehicle_type_id":"4","last_reported":1732907227,"current_range_meters":22000,"station_id":"ce4bgkh2rcd13ifvqbl0","pricing_plan_id":"cebpf4jnsgd1na2vs0mg"},{"bike_id":"3cfe4920-4cf7-4723-8041-a22604937057","system_id":"levelo_inurba_marseille","lat":43.31559,"lon":5.38948,"is_reserved":false,"is_disabled":false,"rental_uris":{"android":"levelo://app?vid=3cfe4920-4cf7-4723-8041-a22604937057","ios":"levelo://app?vid=3cfe4920-4cf7-4723-8041-a22604937057"},"vehicle_type_id":"4","last_reported":1732907227,"current_range_meters":30800,"station_id":"","pricing_plan_id":"cebpf4jnsgd1na2vs0mg"},{"bike_id":"157e5a6a-cb07-4aa0-ae08-71d21472f140","system_id":"levelo_inurba_marseille","lat":43.26574,"lon":5.39015,"is_reserved":false,"is_disabled":false,"rental_uris":{"android":"levelo://app?vid=157e5a6a-cb07-4aa0-ae08-71d21472f140","ios":"levelo://app?vid=157e5a6a-cb07-4aa0-ae08-71d21472f140"},"vehicle_type_id":"4","last_reported":1732907227,"current_range_meters":38800,"station_id":"ce4bhe12rcd13ifvqf30","pricing_plan_id":"cebpf4jnsgd1na2vs0mg"},{"bike_id":"f1fb0fab-febb-45c1-ac07-30bb14b749ca","system_id":"levelo_inurba_marseille","lat":43.31709,"lon":5.43708,"is_reserved":false,"is_disabled":false,"rental_uris":{"android":"levelo://app?vid=f1fb0fab-febb-45c1-ac07-30bb14b749ca","ios":"levelo://app?vid=f1fb0fab-febb-45c1-ac07-30bb14b749ca"},"vehicle_type_id":"4","last_reported":1732907227,"current_range_meters":10800,"station_id":"ce4bhp92rcd13ifvqhcg","pricing_plan_id":"cebpf4jnsgd1na2vs0mg"},{"bike_id":"a2691ca6-71ed-47f6-8232-fdeed8fc04d7","system_id":"levelo_inurba_marseille","lat":43.29624,"lon":5.37718,"is_reserved":false,"is_disabled":false,"rental_uris":{"android":"levelo://app?vid=a2691ca6-71ed-47f6-8232-fdeed8fc04d7","ios":"levelo://app?vid=a2691ca6-71ed-47f6-8232-fdeed8fc04d7"},"vehicle_type_id":"4","last_reported":1732907227,"current_range_meters":38400,"station_id":"ce4bgi92rcd13ifvqb90","pricing_plan_id":"cebpf4jnsgd1na2vs0mg"},{"bike_id":"ebe0b104-45f1-4d24-8f97-28bcaadaf1ca","system_id":"levelo_inurba_marseille","lat":43.27054,"lon":5.40258,"is_reserved":false,"is_disabled":true,"rental_uris":{"android":"levelo://app?vid=ebe0b104-45f1-4d24-8f97-28bcaadaf1ca","ios":"levelo://app?vid=ebe0b104-45f1-4d24-8f97-28bcaadaf1ca"},"vehicle_type_id":"4","last_reported":1732907227,"current_range_meters":0,"station_id":"ce4bhk92rcd13ifvqgc0","pricing_plan_id":"cebpf4jnsgd1na2vs0mg"},{"bike_id":"ef6ecbf7-996e-4760-af99-7bb32ba865de","system_id":"levelo_inurba_marseille","lat":43.29248,"lon":5.40912,"is_reserved":false,"is_disabled":true,"rental_uris":{"android":"levelo://app?vid=ef6ecbf7-996e-4760-af99-7bb32ba865de","ios":"levelo://app?vid=ef6ecbf7-996e-4760-af99-7bb32ba865de"},"vehicle_type_id":"4","last_reported":1732907227,"current_range_meters":0,"station_id":"ce4bh192rcd13ifvqdc0","pricing_plan_id":"cebpf4jnsgd1na2vs0mg"},{"bike_id":"2839c06e-dfc6-4bb4-92dd-cd78c43581f0","system_id":"levelo_inurba_marseille","lat":43.23183,"lon":5.35545,"is_reserved":false,"is_disabled":false,"rental_uris":{"android":"levelo://app?vid=2839c06e-dfc6-4bb4-92dd-cd78c43581f0","ios":"levelo://app?vid=2839c06e-dfc6-4bb4-92dd-cd78c43581f0"},"vehicle_type_id":"4","last_reported":1732907227,"current_range_meters":18000,"station_id":"ce4bhu92rcd13ifvqi70","pricing_plan_id":"cebpf4jnsgd1na2vs0mg"},{"bike_id":"2b6b7270-0c2c-407a-9148-b81b19b42f53","system_id":"levelo_inurba_marseille","lat":43.28613,"lon":5.35105,"is_reserved":false,"is_disabled":false,"rental_uris":{"android":"levelo://app?vid=2b6b7270-0c2c-407a-9148-b81b19b42f53","ios":"levelo://app?vid=2b6b7270-0c2c-407a-9148-b81b19b42f53"},"vehicle_type_id":"4","last_reported":1732907227,"current_range_meters":38800,"station_id":"ce4bhch2rcd13ifvqeug","pricing_plan_id":"cebpf4jnsgd1na2vs0mg"},{"bike_id":"1c52c8da-f354-41b5-8690-5dfdecf70dae","system_id":"levelo_inurba_marseille","lat":43.24178,"lon":5.39732,"is_reserved":false,"is_disabled":false,"rental_uris":{"android":"levelo://app?vid=1c52c8da-f354-41b5-8690-5dfdecf70dae","ios":"levelo://app?vid=1c52c8da-f354-41b5-8690-5dfdecf70dae"},"vehicle_type_id":"4","last_reported":1732907227,"current_range_meters":26000,"station_id":"ce4bhn12rcd13ifvqgpg","pricing_plan_id":"cebpf4jnsgd1na2vs0mg"},{"bike_id":"fe1c6c60-0f4f-4b5c-a7ea-9f2ff8347245","system_id":"levelo_inurba_marseille","lat":43.27622,"lon":5.36119,"is_reserved":false,"is_disabled":true,"rental_uris":{"android":"levelo://app?vid=fe1c6c60-0f4f-4b5c-a7ea-9f2ff8347245","ios":"levelo://app?vid=fe1c6c60-0f4f-4b5c-a7ea-9f2ff8347245"},"vehicle_type_id":"4","last_reported":1732907227,"current_range_meters":12800,"station_id":"ce4bgj92rcd13ifvqbe0","pricing_plan_id":"cebpf4jnsgd1na2vs0mg"},{"bike_id":"4abebe2b-dec7-442c-a6a0-da33deb742de","system_id":"levelo_inurba_marseille","lat":43.321096,"lon":5.36767,"is_reserved":false,"is_disabled":false,"rental_uris":{"android":"levelo://app?vid=4abebe2b-dec7-442c-a6a0-da33deb742de","ios":"levelo://app?vid=4abebe2b-dec7-442c-a6a0-da33deb742de"},"vehicle_type_id":"4","last_reported":1732907227,"current_range_meters":38800,"station_id":"ce4bhrh2rcd13ifvqhug","pricing_plan_id":"cebpf4jnsgd1na2vs0mg"},{"bike_id":"ad9cace8-feb2-4b02-96f8-e867dcd9153c","system_id":"levelo_inurba_marseille","lat":43.30246,"lon":5.40072,"is_reserved":false,"is_disabled":true,"rental_uris":{"android":"levelo://app?vid=ad9cace8-feb2-4b02-96f8-e867dcd9153c","ios":"levelo://app?vid=ad9cace8-feb2-4b02-96f8-e867dcd9153c"},"vehicle_type_id":"4","last_reported":1732907227,"current_range_meters":18000,"station_id":"ce4bgvh2rcd13ifvqcs0","pricing_plan_id":"cebpf4jnsgd1na2vs0mg"},{"bike_id":"95e16b67-0d53-4cca-8aaa-2b831d4e43c6","system_id":"levelo_inurba_marseille","lat":43.33021,"lon":5.39036,"is_reserved":false,"is_disabled":false,"rental_uris":{"android":"levelo://app?vid=95e16b67-0d53-4cca-8aaa-2b831d4e43c6","ios":"levelo://app?vid=95e16b67-0d53-4cca-8aaa-2b831d4e43c6"},"vehicle_type_id":"4","last_reported":1732907227,"current_range_meters":34000,"station_id":"ce4bhr92rcd13ifvqhrg","pricing_plan_id":"cebpf4jnsgd1na2vs0mg"},{"bike_id":"213af150-7b2d-4b71-97d1-fe669079e1e6","system_id":"levelo_inurba_marseille","lat":43.27811,"lon":5.40716,"is_reserved":false,"is_disabled":false,"rental_uris":{"android":"levelo://app?vid=213af150-7b2d-4b71-97d1-fe669079e1e6","ios":"levelo://app?vid=213af150-7b2d-4b71-97d1-fe669079e1e6"},"vehicle_type_id":"4","last_reported":1732907227,"current_range_meters":3200,"station_id":"ce4bhnh2rcd13ifvqgtg","pricing_plan_id":"cebpf4jnsgd1na2vs0mg"},{"bike_id":"7c917070-4e17-4df3-9c03-7398499ca6a1","system_id":"levelo_inurba_marseille","lat":43.28483,"lon":5.3841,"is_reserved":false,"is_disabled":true,"rental_uris":{"android":"levelo://app?vid=7c917070-4e17-4df3-9c03-7398499ca6a1","ios":"levelo://app?vid=7c917070-4e17-4df3-9c03-7398499ca6a1"},"vehicle_type_id":"4","last_reported":1732907227,"current_range_meters":0,"station_id":"ce4bh512rcd13ifvqe3g","pricing_plan_id":"cebpf4jnsgd1na2vs0mg"},{"bike_id":"1cc78050-d20a-44c1-b4c2-b56e5266a016","system_id":"levelo_inurba_marseille","lat":43.3014,"lon":5.38784,"is_reserved":false,"is_disabled":false,"rental_uris":{"android":"levelo://app?vid=1cc78050-d20a-44c1-b4c2-b56e5266a016","ios":"levelo://app?vid=1cc78050-d20a-44c1-b4c2-b56e5266a016"},"vehicle_type_id":"4","last_reported":1732907227,"current_range_meters":36000,"station_id":"ce4bghh2rcd13ifvqb60","pricing_plan_id":"cebpf4jnsgd1na2vs0mg"},{"bike_id":"645f24df-a241-4112-b8d1-e4d4c5b8c79f","system_id":"levelo_inurba_marseille","lat":43.24808,"lon":5.3745,"is_reserved":false,"is_disabled":true,"rental_uris":{"android":"levelo://app?vid=645f24df-a241-4112-b8d1-e4d4c5b8c79f","ios":"levelo://app?vid=645f24df-a241-4112-b8d1-e4d4c5b8c79f"},"vehicle_type_id":"4","last_reported":1732907227,"current_range_meters":1200,"station_id":"ce4bhgh2rcd13ifvqfb0","pricing_plan_id":"cebpf4jnsgd1na2vs0mg"},{"bike_id":"cf7a8527-7160-46e9-b215-1a1db2fd180c","system_id":"levelo_inurba_marseille","lat":43.28156,"lon":5.42647,"is_reserved":false,"is_disabled":false,"rental_uris":{"android":"levelo://app?vid=cf7a8527-7160-46e9-b215-1a1db2fd180c","ios":"levelo://app?vid=cf7a8527-7160-46e9-b215-1a1db2fd180c"},"vehicle_type_id":"4","last_reported":1732907227,"current_range_meters":27600,"station_id":"ce4bhnh2rcd13ifvqgug","pricing_plan_id":"cebpf4jnsgd1na2vs0mg"},{"bike_id":"14214f05-32b4-4af1-950d-ee2377f628e8","system_id":"levelo_inurba_marseille","lat":43.29265,"lon":5.38445,"is_reserved":false,"is_disabled":false,"rental_uris":{"android":"levelo://app?vid=14214f05-32b4-4af1-950d-ee2377f628e8","ios":"levelo://app?vid=14214f05-32b4-4af1-950d-ee2377f628e8"},"vehicle_type_id":"4","last_reported":1732907227,"current_range_meters":38800,"station_id":"ce4bh692rcd13ifvqea0","pricing_plan_id":"cebpf4jnsgd1na2vs0mg"},{"bike_id":"b4c94fa1-ca09-422d-a522-cc6afcfecef8","system_id":"levelo_inurba_marseille","lat":43.2997,"lon":5.37183,"is_reserved":false,"is_disabled":false,"rental_uris":{"android":"levelo://app?vid=b4c94fa1-ca09-422d-a522-cc6afcfecef8","ios":"levelo://app?vid=b4c94fa1-ca09-422d-a522-cc6afcfecef8"},"vehicle_type_id":"4","last_reported":1732907227,"current_range_meters":17600,"station_id":"ce4bgr92rcd13ifvqc7g","pricing_plan_id":"cebpf4jnsgd1na2vs0mg"},{"bike_id":"23ae7103-0178-48dd-bfe3-ce91ab33b5ad","system_id":"levelo_inurba_marseille","lat":43.31712,"lon":5.37762,"is_reserved":false,"is_disabled":false,"rental_uris":{"android":"levelo://app?vid=23ae7103-0178-48dd-bfe3-ce91ab33b5ad","ios":"levelo://app?vid=23ae7103-0178-48dd-bfe3-ce91ab33b5ad"},"vehicle_type_id":"4","last_reported":1732907227,"current_range_meters":22400,"station_id":"ce4bgth2rcd13ifvqch0","pricing_plan_id":"cebpf4jnsgd1na2vs0mg"},{"bike_id":"9dd1fc98-a89e-437a-b707-6eb8b3c899e8","system_id":"levelo_inurba_marseille","lat":43.29039,"lon":5.35924,"is_reserved":false,"is_disabled":true,"rental_uris":{"android":"levelo://app?vid=9dd1fc98-a89e-437a-b707-6eb8b3c899e8","ios":"levelo://app?vid=9dd1fc98-a89e-437a-b707-6eb8b3c899e8"},"vehicle_type_id":"4","last_reported":1732907227,"current_range_meters":6400,"station_id":"ce4bha92rcd13ifvqeg0","pricing_plan_id":"cebpf4jnsgd1na2vs0mg"},{"bike_id":"884d8e42-a692-4904-9671-a39a8b81f711","system_id":"levelo_inurba_marseille","lat":43.29252,"lon":5.38439,"is_reserved":false,"is_disabled":false,"rental_uris":{"android":"levelo://app?vid=884d8e42-a692-4904-9671-a39a8b81f711","ios":"levelo://app?vid=884d8e42-a692-4904-9671-a39a8b81f711"},"vehicle_type_id":"4","last_reported":1732907227,"current_range_meters":34800,"station_id":"ce4bh692rcd13ifvqea0","pricing_plan_id":"cebpf4jnsgd1na2vs0mg"},{"bike_id":"785edeeb-3857-454b-9f48-ffbccf20a1ed","system_id":"levelo_inurba_marseille","lat":43.30801,"lon":5.43519,"is_reserved":false,"is_disabled":false,"rental_uris":{"android":"levelo://app?vid=785edeeb-3857-454b-9f48-ffbccf20a1ed","ios":"levelo://app?vid=785edeeb-3857-454b-9f48-ffbccf20a1ed"},"vehicle_type_id":"4","last_reported":1732907227,"current_range_meters":24400,"station_id":"ce4bhph2rcd13ifvqheg","pricing_plan_id":"cebpf4jnsgd1na2vs0mg"},{"bike_id":"972474ef-725b-4cb6-9543-6e866af7c15c","system_id":"levelo_inurba_marseille","lat":43.29254,"lon":5.38451,"is_reserved":false,"is_disabled":false,"rental_uris":{"android":"levelo://app?vid=972474ef-725b-4cb6-9543-6e866af7c15c","ios":"levelo://app?vid=972474ef-725b-4cb6-9543-6e866af7c15c"},"vehicle_type_id":"4","last_reported":1732907227,"current_range_meters":30800,"station_id":"ce4bh692rcd13ifvqea0","pricing_plan_id":"cebpf4jnsgd1na2vs0mg"},{"bike_id":"9c7bc5aa-f6f2-4169-b7f5-5045f326bb96","system_id":"levelo_inurba_marseille","lat":43.31072,"lon":5.38358,"is_reserved":false,"is_disabled":false,"rental_uris":{"android":"levelo://app?vid=9c7bc5aa-f6f2-4169-b7f5-5045f326bb96","ios":"levelo://app?vid=9c7bc5aa-f6f2-4169-b7f5-5045f326bb96"},"vehicle_type_id":"4","last_reported":1732907227,"current_range_meters":25200,"station_id":"ce4bgv92rcd13ifvqcr0","pricing_plan_id":"cebpf4jnsgd1na2vs0mg"},{"bike_id":"a5909545-3e09-4859-9fda-9ffe4e6e4883","system_id":"levelo_inurba_marseille","lat":43.23066,"lon":5.35491,"is_reserved":false,"is_disabled":false,"rental_uris":{"android":"levelo://app?vid=a5909545-3e09-4859-9fda-9ffe4e6e4883","ios":"levelo://app?vid=a5909545-3e09-4859-9fda-9ffe4e6e4883"},"vehicle_type_id":"4","last_reported":1732907227,"current_range_meters":16400,"station_id":"cpo3342slgdg3j2ifvpg","pricing_plan_id":"cebpf4jnsgd1na2vs0mg"},{"bike_id":"c54fa7c9-a127-4d75-ac3d-fe8ea889edd3","system_id":"levelo_inurba_marseille","lat":43.30138,"lon":5.39869,"is_reserved":false,"is_disabled":true,"rental_uris":{"android":"levelo://app?vid=c54fa7c9-a127-4d75-ac3d-fe8ea889edd3","ios":"levelo://app?vid=c54fa7c9-a127-4d75-ac3d-fe8ea889edd3"},"vehicle_type_id":"4","last_reported":1732907227,"current_range_meters":24400,"station_id":"ce4bh0h2rcd13ifvqd40","pricing_plan_id":"cebpf4jnsgd1na2vs0mg"},{"bike_id":"fe405e5a-27b3-443b-a24a-1957046679b0","system_id":"levelo_inurba_marseille","lat":43.27679,"lon":5.38869,"is_reserved":false,"is_disabled":false,"rental_uris":{"android":"levelo://app?vid=fe405e5a-27b3-443b-a24a-1957046679b0","ios":"levelo://app?vid=fe405e5a-27b3-443b-a24a-1957046679b0"},"vehicle_type_id":"4","last_reported":1732907227,"current_range_meters":30000,"station_id":"ce4bhi12rcd13ifvqfo0","pricing_plan_id":"cebpf4jnsgd1na2vs0mg"},{"bike_id":"e6959926-0341-4174-9dfd-91f6ab9287a9","system_id":"levelo_inurba_marseille","lat":43.3171,"lon":5.43712,"is_reserved":false,"is_disabled":false,"rental_uris":{"android":"levelo://app?vid=e6959926-0341-4174-9dfd-91f6ab9287a9","ios":"levelo://app?vid=e6959926-0341-4174-9dfd-91f6ab9287a9"},"vehicle_type_id":"4","last_reported":1732907227,"current_range_meters":24000,"station_id":"ce4bhp92rcd13ifvqhcg","pricing_plan_id":"cebpf4jnsgd1na2vs0mg"},{"bike_id":"3aaf907b-565f-4396-8839-0765d58bd7ab","system_id":"levelo_inurba_marseille","lat":43.3236,"lon":5.38883,"is_reserved":false,"is_disabled":false,"rental_uris":{"android":"levelo://app?vid=3aaf907b-565f-4396-8839-0765d58bd7ab","ios":"levelo://app?vid=3aaf907b-565f-4396-8839-0765d58bd7ab"},"vehicle_type_id":"4","last_reported":1732907227,"current_range_meters":38800,"station_id":"ce4bhqp2rcd13ifvqhog","pricing_plan_id":"cebpf4jnsgd1na2vs0mg"},{"bike_id":"d9b88653-5ac9-4a1a-ac40-c0bbecd3e03b","system_id":"levelo_inurba_marseille","lat":43.30786,"lon":5.37639,"is_reserved":false,"is_disabled":false,"rental_uris":{"android":"levelo://app?vid=d9b88653-5ac9-4a1a-ac40-c0bbecd3e03b","ios":"levelo://app?vid=d9b88653-5ac9-4a1a-ac40-c0bbecd3e03b"},"vehicle_type_id":"4","last_reported":1732907227,"current_range_meters":17600,"station_id":"ce4bgv92rcd13ifvqcq0","pricing_plan_id":"cebpf4jnsgd1na2vs0mg"},{"bike_id":"6c1a02da-172c-4528-b06c-705d8a038836","system_id":"levelo_inurba_marseille","lat":43.28153,"lon":5.42645,"is_reserved":false,"is_disabled":false,"rental_uris":{"android":"levelo://app?vid=6c1a02da-172c-4528-b06c-705d8a038836","ios":"levelo://app?vid=6c1a02da-172c-4528-b06c-705d8a038836"},"vehicle_type_id":"4","last_reported":1732907227,"current_range_meters":8800,"station_id":"ce4bhnh2rcd13ifvqgug","pricing_plan_id":"cebpf4jnsgd1na2vs0mg"},{"bike_id":"dfc91a67-42e5-47d6-a646-21f30d3c44c7","system_id":"levelo_inurba_marseille","lat":43.29281,"lon":5.36851,"is_reserved":false,"is_disabled":false,"rental_uris":{"android":"levelo://app?vid=dfc91a67-42e5-47d6-a646-21f30d3c44c7","ios":"levelo://app?vid=dfc91a67-42e5-47d6-a646-21f30d3c44c7"},"vehicle_type_id":"4","last_reported":1732907227,"current_range_meters":26000,"station_id":"ce4bhbp2rcd13ifvqesg","pricing_plan_id":"cebpf4jnsgd1na2vs0mg"},{"bike_id":"e5951ee3-4a5a-4ebb-b469-096c5188dfa3","system_id":"levelo_inurba_marseille","lat":43.23187,"lon":5.35549,"is_reserved":false,"is_disabled":false,"rental_uris":{"android":"levelo://app?vid=e5951ee3-4a5a-4ebb-b469-096c5188dfa3","ios":"levelo://app?vid=e5951ee3-4a5a-4ebb-b469-096c5188dfa3"},"vehicle_type_id":"4","last_reported":1732907227,"current_range_meters":23200,"station_id":"ce4bhu92rcd13ifvqi70","pricing_plan_id":"cebpf4jnsgd1na2vs0mg"},{"bike_id":"f9a63393-5401-4f98-ae5a-dfbb8291ab6d","system_id":"levelo_inurba_marseille","lat":43.3004,"lon":5.37551,"is_reserved":false,"is_disabled":true,"rental_uris":{"android":"levelo://app?vid=f9a63393-5401-4f98-ae5a-dfbb8291ab6d","ios":"levelo://app?vid=f9a63393-5401-4f98-ae5a-dfbb8291ab6d"},"vehicle_type_id":"4","last_reported":1732907227,"current_range_meters":0,"station_id":"","pricing_plan_id":"cebpf4jnsgd1na2vs0mg"},{"bike_id":"d2300a67-e59d-4c6d-84e8-89c1777cddcc","system_id":"levelo_inurba_marseille","lat":43.31987,"lon":5.38145,"is_reserved":false,"is_disabled":false,"rental_uris":{"android":"levelo://app?vid=d2300a67-e59d-4c6d-84e8-89c1777cddcc","ios":"levelo://app?vid=d2300a67-e59d-4c6d-84e8-89c1777cddcc"},"vehicle_type_id":"4","last_reported":1732907227,"current_range_meters":38000,"station_id":"ce4bhr12rcd13ifvqhpg","pricing_plan_id":"cebpf4jnsgd1na2vs0mg"},{"bike_id":"3d580ca5-d112-4c8e-95a7-363d7cb1df52","system_id":"levelo_inurba_marseille","lat":43.30327,"lon":5.40433,"is_reserved":false,"is_disabled":false,"rental_uris":{"android":"levelo://app?vid=3d580ca5-d112-4c8e-95a7-363d7cb1df52","ios":"levelo://app?vid=3d580ca5-d112-4c8e-95a7-363d7cb1df52"},"vehicle_type_id":"4","last_reported":1732907227,"current_range_meters":9200,"station_id":"ce4bh012rcd13ifvqd10","pricing_plan_id":"cebpf4jnsgd1na2vs0mg"},{"bike_id":"97a3c859-0d72-4bdd-a697-ecfe914a199a","system_id":"levelo_inurba_marseille","lat":43.29186,"lon":5.39321,"is_reserved":false,"is_disabled":false,"rental_uris":{"android":"levelo://app?vid=97a3c859-0d72-4bdd-a697-ecfe914a199a","ios":"levelo://app?vid=97a3c859-0d72-4bdd-a697-ecfe914a199a"},"vehicle_type_id":"4","last_reported":1732907227,"current_range_meters":38800,"station_id":"ce4bh192rcd13ifvqdd0","pricing_plan_id":"cebpf4jnsgd1na2vs0mg"},{"bike_id":"cf35c783-120b-4012-ba11-34a4cdf0481d","system_id":"levelo_inurba_marseille","lat":43.314745,"lon":5.373072,"is_reserved":false,"is_disabled":false,"rental_uris":{"android":"levelo://app?vid=cf35c783-120b-4012-ba11-34a4cdf0481d","ios":"levelo://app?vid=cf35c783-120b-4012-ba11-34a4cdf0481d"},"vehicle_type_id":"4","last_reported":1732907227,"current_range_meters":36800,"station_id":"ce4bgt12rcd13ifvqcd0","pricing_plan_id":"cebpf4jnsgd1na2vs0mg"},{"bike_id":"209edce5-94bd-42b7-894c-233f806592a5","system_id":"levelo_inurba_marseille","lat":43.32361,"lon":5.36758,"is_reserved":false,"is_disabled":false,"rental_uris":{"android":"levelo://app?vid=209edce5-94bd-42b7-894c-233f806592a5","ios":"levelo://app?vid=209edce5-94bd-42b7-894c-233f806592a5"},"vehicle_type_id":"4","last_reported":1732907227,"current_range_meters":32400,"station_id":"ce4bhsh2rcd13ifvqi2g","pricing_plan_id":"cebpf4jnsgd1na2vs0mg"},{"bike_id":"cb90edb8-6b97-4f13-aaf4-7fc553c35336","system_id":"levelo_inurba_marseille","lat":43.31721,"lon":5.37795,"is_reserved":false,"is_disabled":false,"rental_uris":{"android":"levelo://app?vid=cb90edb8-6b97-4f13-aaf4-7fc553c35336","ios":"levelo://app?vid=cb90edb8-6b97-4f13-aaf4-7fc553c35336"},"vehicle_type_id":"4","last_reported":1732907227,"current_range_meters":36800,"station_id":"ce4bgth2rcd13ifvqch0","pricing_plan_id":"cebpf4jnsgd1na2vs0mg"},{"bike_id":"bba82484-d6d2-4eb9-a24b-0fee4128de51","system_id":"levelo_inurba_marseille","lat":43.30142,"lon":5.38793,"is_reserved":false,"is_disabled":true,"rental_uris":{"android":"levelo://app?vid=bba82484-d6d2-4eb9-a24b-0fee4128de51","ios":"levelo://app?vid=bba82484-d6d2-4eb9-a24b-0fee4128de51"},"vehicle_type_id":"4","last_reported":1732907227,"current_range_meters":26000,"station_id":"ce4bghh2rcd13ifvqb60","pricing_plan_id":"cebpf4jnsgd1na2vs0mg"},{"bike_id":"a1de088e-f9bc-437b-86db-027b9d5a0352","system_id":"levelo_inurba_marseille","lat":43.3302,"lon":5.39037,"is_reserved":false,"is_disabled":false,"rental_uris":{"android":"levelo://app?vid=a1de088e-f9bc-437b-86db-027b9d5a0352","ios":"levelo://app?vid=a1de088e-f9bc-437b-86db-027b9d5a0352"},"vehicle_type_id":"4","last_reported":1732907227,"current_range_meters":38800,"station_id":"ce4bhr92rcd13ifvqhrg","pricing_plan_id":"cebpf4jnsgd1na2vs0mg"},{"bike_id":"de8dedfd-c65e-4ce5-b8ec-b5ab34a22a6e","system_id":"levelo_inurba_marseille","lat":43.27068,"lon":5.42282,"is_reserved":false,"is_disabled":true,"rental_uris":{"android":"levelo://app?vid=de8dedfd-c65e-4ce5-b8ec-b5ab34a22a6e","ios":"levelo://app?vid=de8dedfd-c65e-4ce5-b8ec-b5ab34a22a6e"},"vehicle_type_id":"4","last_reported":1732907227,"current_range_meters":38800,"station_id":"ce4bhk92rcd13ifvqgb0","pricing_plan_id":"cebpf4jnsgd1na2vs0mg"},{"bike_id":"38798db8-5bd5-4792-b41b-6f809d1b1c45","system_id":"levelo_inurba_marseille","lat":43.31996,"lon":5.38166,"is_reserved":false,"is_disabled":false,"rental_uris":{"android":"levelo://app?vid=38798db8-5bd5-4792-b41b-6f809d1b1c45","ios":"levelo://app?vid=38798db8-5bd5-4792-b41b-6f809d1b1c45"},"vehicle_type_id":"4","last_reported":1732907227,"current_range_meters":22000,"station_id":"ce4bhr12rcd13ifvqhpg","pricing_plan_id":"cebpf4jnsgd1na2vs0mg"},{"bike_id":"9ec4c689-64d2-4c04-81ad-2bd5c7a03540","system_id":"levelo_inurba_marseille","lat":43.29791,"lon":5.39339,"is_reserved":false,"is_disabled":false,"rental_uris":{"android":"levelo://app?vid=9ec4c689-64d2-4c04-81ad-2bd5c7a03540","ios":"levelo://app?vid=9ec4c689-64d2-4c04-81ad-2bd5c7a03540"},"vehicle_type_id":"4","last_reported":1732907227,"current_range_meters":27600,"station_id":"chh1huq6cuj3fo74tm60","pricing_plan_id":"cebpf4jnsgd1na2vs0mg"},{"bike_id":"aaa1a2be-44d7-4d10-823a-645eb3316cc9","system_id":"levelo_inurba_marseille","lat":43.30323,"lon":5.40437,"is_reserved":false,"is_disabled":false,"rental_uris":{"android":"levelo://app?vid=aaa1a2be-44d7-4d10-823a-645eb3316cc9","ios":"levelo://app?vid=aaa1a2be-44d7-4d10-823a-645eb3316cc9"},"vehicle_type_id":"4","last_reported":1732907227,"current_range_meters":3200,"station_id":"ce4bh012rcd13ifvqd10","pricing_plan_id":"cebpf4jnsgd1na2vs0mg"},{"bike_id":"d1fd7c18-081f-4165-90f6-fbb5157ea749","system_id":"levelo_inurba_marseille","lat":43.2797,"lon":5.38753,"is_reserved":false,"is_disabled":true,"rental_uris":{"android":"levelo://app?vid=d1fd7c18-081f-4165-90f6-fbb5157ea749","ios":"levelo://app?vid=d1fd7c18-081f-4165-90f6-fbb5157ea749"},"vehicle_type_id":"4","last_reported":1732907227,"current_range_meters":0,"station_id":"ce4bhg12rcd13ifvqf80","pricing_plan_id":"cebpf4jnsgd1na2vs0mg"},{"bike_id":"cf002d38-17c9-44fd-9354-c7910c4bd3ff","system_id":"levelo_inurba_marseille","lat":43.33028,"lon":5.39041,"is_reserved":false,"is_disabled":false,"rental_uris":{"android":"levelo://app?vid=cf002d38-17c9-44fd-9354-c7910c4bd3ff","ios":"levelo://app?vid=cf002d38-17c9-44fd-9354-c7910c4bd3ff"},"vehicle_type_id":"4","last_reported":1732907227,"current_range_meters":38000,"station_id":"ce4bhr92rcd13ifvqhrg","pricing_plan_id":"cebpf4jnsgd1na2vs0mg"},{"bike_id":"f591cd44-8c55-4adc-a086-21e1446389b1","system_id":"levelo_inurba_marseille","lat":43.2846,"lon":5.35875,"is_reserved":false,"is_disabled":false,"rental_uris":{"android":"levelo://app?vid=f591cd44-8c55-4adc-a086-21e1446389b1","ios":"levelo://app?vid=f591cd44-8c55-4adc-a086-21e1446389b1"},"vehicle_type_id":"4","last_reported":1732907227,"current_range_meters":24000,"station_id":"ce4bhah2rcd13ifvqei0","pricing_plan_id":"cebpf4jnsgd1na2vs0mg"},{"bike_id":"cb261da6-4840-44c8-b66c-2a0cb568a4ad","system_id":"levelo_inurba_marseille","lat":43.27829,"lon":5.39205,"is_reserved":false,"is_disabled":true,"rental_uris":{"android":"levelo://app?vid=cb261da6-4840-44c8-b66c-2a0cb568a4ad","ios":"levelo://app?vid=cb261da6-4840-44c8-b66c-2a0cb568a4ad"},"vehicle_type_id":"4","last_reported":1732907227,"current_range_meters":9200,"station_id":"ce4bhjp2rcd13ifvqga0","pricing_plan_id":"cebpf4jnsgd1na2vs0mg"},{"bike_id":"43746d86-8a13-4845-9faf-ae69b548d714","system_id":"levelo_inurba_marseille","lat":43.29459,"lon":5.37917,"is_reserved":false,"is_disabled":true,"rental_uris":{"android":"levelo://app?vid=43746d86-8a13-4845-9faf-ae69b548d714","ios":"levelo://app?vid=43746d86-8a13-4845-9faf-ae69b548d714"},"vehicle_type_id":"4","last_reported":1732907227,"current_range_meters":0,"station_id":"","pricing_plan_id":"cebpf4jnsgd1na2vs0mg"},{"bike_id":"697b6605-7c19-4510-beb4-a5a0a4b71d1c","system_id":"levelo_inurba_marseille","lat":43.2418,"lon":5.39731,"is_reserved":false,"is_disabled":false,"rental_uris":{"android":"levelo://app?vid=697b6605-7c19-4510-beb4-a5a0a4b71d1c","ios":"levelo://app?vid=697b6605-7c19-4510-beb4-a5a0a4b71d1c"},"vehicle_type_id":"4","last_reported":1732907227,"current_range_meters":18800,"station_id":"ce4bhn12rcd13ifvqgpg","pricing_plan_id":"cebpf4jnsgd1na2vs0mg"},{"bike_id":"b625b5ed-e429-4c2c-862b-f3c5e8a5223a","system_id":"levelo_inurba_marseille","lat":43.298052,"lon":5.381164,"is_reserved":false,"is_disabled":false,"rental_uris":{"android":"levelo://app?vid=b625b5ed-e429-4c2c-862b-f3c5e8a5223a","ios":"levelo://app?vid=b625b5ed-e429-4c2c-862b-f3c5e8a5223a"},"vehicle_type_id":"4","last_reported":1732907227,"current_range_meters":28000,"station_id":"ce4bgip2rcd13ifvqbb0","pricing_plan_id":"cebpf4jnsgd1na2vs0mg"},{"bike_id":"74421852-7ccf-4359-ae83-4d15c8d11d45","system_id":"levelo_inurba_marseille","lat":43.30501,"lon":5.38079,"is_reserved":false,"is_disabled":false,"rental_uris":{"android":"levelo://app?vid=74421852-7ccf-4359-ae83-4d15c8d11d45","ios":"levelo://app?vid=74421852-7ccf-4359-ae83-4d15c8d11d45"},"vehicle_type_id":"4","last_reported":1732907227,"current_range_meters":38000,"station_id":"","pricing_plan_id":"cebpf4jnsgd1na2vs0mg"},{"bike_id":"dff495ba-6ed7-41cc-8ed0-35e081a47546","system_id":"levelo_inurba_marseille","lat":43.29274,"lon":5.36856,"is_reserved":false,"is_disabled":false,"rental_uris":{"android":"levelo://app?vid=dff495ba-6ed7-41cc-8ed0-35e081a47546","ios":"levelo://app?vid=dff495ba-6ed7-41cc-8ed0-35e081a47546"},"vehicle_type_id":"4","last_reported":1732907227,"current_range_meters":30000,"station_id":"ce4bhbp2rcd13ifvqesg","pricing_plan_id":"cebpf4jnsgd1na2vs0mg"},{"bike_id":"98e2d888-37de-4669-ac4b-97e1a8acaade","system_id":"levelo_inurba_marseille","lat":43.29287,"lon":5.38549,"is_reserved":false,"is_disabled":true,"rental_uris":{"android":"levelo://app?vid=98e2d888-37de-4669-ac4b-97e1a8acaade","ios":"levelo://app?vid=98e2d888-37de-4669-ac4b-97e1a8acaade"},"vehicle_type_id":"4","last_reported":1732907227,"current_range_meters":0,"station_id":"","pricing_plan_id":"cebpf4jnsgd1na2vs0mg"},{"bike_id":"e35099ac-9aa6-44ba-8288-0b49afe61ab6","system_id":"levelo_inurba_marseille","lat":43.292794,"lon":5.368567,"is_reserved":false,"is_disabled":false,"rental_uris":{"android":"levelo://app?vid=e35099ac-9aa6-44ba-8288-0b49afe61ab6","ios":"levelo://app?vid=e35099ac-9aa6-44ba-8288-0b49afe61ab6"},"vehicle_type_id":"4","last_reported":1732907227,"current_range_meters":4800,"station_id":"ce4bhbp2rcd13ifvqesg","pricing_plan_id":"cebpf4jnsgd1na2vs0mg"},{"bike_id":"5365ca4f-9fdc-4e24-9556-5350fa8b84aa","system_id":"levelo_inurba_marseille","lat":43.29707,"lon":5.3769,"is_reserved":false,"is_disabled":false,"rental_uris":{"android":"levelo://app?vid=5365ca4f-9fdc-4e24-9556-5350fa8b84aa","ios":"levelo://app?vid=5365ca4f-9fdc-4e24-9556-5350fa8b84aa"},"vehicle_type_id":"4","last_reported":1732907227,"current_range_meters":10800,"station_id":"ce4bgkh2rcd13ifvqbl0","pricing_plan_id":"cebpf4jnsgd1na2vs0mg"},{"bike_id":"5b4ce1cb-b37a-4eb5-8933-2c21c58932e1","system_id":"levelo_inurba_marseille","lat":43.29005,"lon":5.35612,"is_reserved":false,"is_disabled":false,"rental_uris":{"android":"levelo://app?vid=5b4ce1cb-b37a-4eb5-8933-2c21c58932e1","ios":"levelo://app?vid=5b4ce1cb-b37a-4eb5-8933-2c21c58932e1"},"vehicle_type_id":"4","last_reported":1732907227,"current_range_meters":23200,"station_id":"ce4bhb92rcd13ifvqen0","pricing_plan_id":"cebpf4jnsgd1na2vs0mg"},{"bike_id":"15e24c31-4292-4084-bcd3-e24f0a31685e","system_id":"levelo_inurba_marseille","lat":43.28429,"lon":5.34994,"is_reserved":false,"is_disabled":true,"rental_uris":{"android":"levelo://app?vid=15e24c31-4292-4084-bcd3-e24f0a31685e","ios":"levelo://app?vid=15e24c31-4292-4084-bcd3-e24f0a31685e"},"vehicle_type_id":"4","last_reported":1732907227,"current_range_meters":38000,"station_id":"ce4bhbh2rcd13ifvqepg","pricing_plan_id":"cebpf4jnsgd1na2vs0mg"},{"bike_id":"60bcfd83-20b5-46ea-b55f-3d3dab37186e","system_id":"levelo_inurba_marseille","lat":43.30419,"lon":5.39742,"is_reserved":false,"is_disabled":true,"rental_uris":{"android":"levelo://app?vid=60bcfd83-20b5-46ea-b55f-3d3dab37186e","ios":"levelo://app?vid=60bcfd83-20b5-46ea-b55f-3d3dab37186e"},"vehicle_type_id":"4","last_reported":1732907227,"current_range_meters":0,"station_id":"ce4bh092rcd13ifvqd20","pricing_plan_id":"cebpf4jnsgd1na2vs0mg"},{"bike_id":"cba3eff0-0810-4c45-bba4-8db58b7fab56","system_id":"levelo_inurba_marseille","lat":43.29026,"lon":5.3865,"is_reserved":false,"is_disabled":true,"rental_uris":{"android":"levelo://app?vid=cba3eff0-0810-4c45-bba4-8db58b7fab56","ios":"levelo://app?vid=cba3eff0-0810-4c45-bba4-8db58b7fab56"},"vehicle_type_id":"4","last_reported":1732907227,"current_range_meters":1600,"station_id":"ce4bh4p2rcd13ifvqe0g","pricing_plan_id":"cebpf4jnsgd1na2vs0mg"},{"bike_id":"075f1275-4397-48d9-ae1e-420cb5ad2386","system_id":"levelo_inurba_marseille","lat":43.30212,"lon":5.39481,"is_reserved":false,"is_disabled":false,"rental_uris":{"android":"levelo://app?vid=075f1275-4397-48d9-ae1e-420cb5ad2386","ios":"levelo://app?vid=075f1275-4397-48d9-ae1e-420cb5ad2386"},"vehicle_type_id":"4","last_reported":1732907227,"current_range_meters":13600,"station_id":"ce4bh0p2rcd13ifvqd70","pricing_plan_id":"cebpf4jnsgd1na2vs0mg"},{"bike_id":"9244d9fe-8890-4efa-bf2a-6d9fc44453ad","system_id":"levelo_inurba_marseille","lat":43.26781,"lon":5.39366,"is_reserved":false,"is_disabled":true,"rental_uris":{"android":"levelo://app?vid=9244d9fe-8890-4efa-bf2a-6d9fc44453ad","ios":"levelo://app?vid=9244d9fe-8890-4efa-bf2a-6d9fc44453ad"},"vehicle_type_id":"4","last_reported":1732907227,"current_range_meters":0,"station_id":"ce4bhh12rcd13ifvqfg0","pricing_plan_id":"cebpf4jnsgd1na2vs0mg"},{"bike_id":"1d75ad37-ea34-46cb-9cb3-6b44be2679ce","system_id":"levelo_inurba_marseille","lat":43.31112,"lon":5.3777,"is_reserved":false,"is_disabled":false,"rental_uris":{"android":"levelo://app?vid=1d75ad37-ea34-46cb-9cb3-6b44be2679ce","ios":"levelo://app?vid=1d75ad37-ea34-46cb-9cb3-6b44be2679ce"},"vehicle_type_id":"4","last_reported":1732907227,"current_range_meters":38800,"station_id":"ce4bgt92rcd13ifvqcg0","pricing_plan_id":"cebpf4jnsgd1na2vs0mg"},{"bike_id":"8484b309-8430-42b3-9ebd-b9f48d7b9c66","system_id":"levelo_inurba_marseille","lat":43.27967,"lon":5.38751,"is_reserved":false,"is_disabled":false,"rental_uris":{"android":"levelo://app?vid=8484b309-8430-42b3-9ebd-b9f48d7b9c66","ios":"levelo://app?vid=8484b309-8430-42b3-9ebd-b9f48d7b9c66"},"vehicle_type_id":"4","last_reported":1732907227,"current_range_meters":12400,"station_id":"ce4bhg12rcd13ifvqf80","pricing_plan_id":"cebpf4jnsgd1na2vs0mg"},{"bike_id":"fc4d15f5-6256-45a3-90d6-77bb4c676955","system_id":"levelo_inurba_marseille","lat":43.296284,"lon":5.377877,"is_reserved":false,"is_disabled":true,"rental_uris":{"android":"levelo://app?vid=fc4d15f5-6256-45a3-90d6-77bb4c676955","ios":"levelo://app?vid=fc4d15f5-6256-45a3-90d6-77bb4c676955"},"vehicle_type_id":"4","last_reported":1732907227,"current_range_meters":28000,"station_id":"","pricing_plan_id":"cebpf4jnsgd1na2vs0mg"},{"bike_id":"8a0291f2-ebd3-4755-be2d-09bbcc22d5e3","system_id":"levelo_inurba_marseille","lat":43.28083,"lon":5.39667,"is_reserved":false,"is_disabled":false,"rental_uris":{"android":"levelo://app?vid=8a0291f2-ebd3-4755-be2d-09bbcc22d5e3","ios":"levelo://app?vid=8a0291f2-ebd3-4755-be2d-09bbcc22d5e3"},"vehicle_type_id":"4","last_reported":1732907227,"current_range_meters":5600,"station_id":"ce4bho12rcd13ifvqh2g","pricing_plan_id":"cebpf4jnsgd1na2vs0mg"},{"bike_id":"c88f8730-1176-4717-97e2-17c27b15274f","system_id":"levelo_inurba_marseille","lat":43.231971,"lon":5.355463,"is_reserved":false,"is_disabled":false,"rental_uris":{"android":"levelo://app?vid=c88f8730-1176-4717-97e2-17c27b15274f","ios":"levelo://app?vid=c88f8730-1176-4717-97e2-17c27b15274f"},"vehicle_type_id":"4","last_reported":1732907227,"current_range_meters":38800,"station_id":"ce4bhu92rcd13ifvqi70","pricing_plan_id":"cebpf4jnsgd1na2vs0mg"},{"bike_id":"16d84ca7-553d-40ca-a772-696595dca872","system_id":"levelo_inurba_marseille","lat":43.293,"lon":5.37449,"is_reserved":false,"is_disabled":false,"rental_uris":{"android":"levelo://app?vid=16d84ca7-553d-40ca-a772-696595dca872","ios":"levelo://app?vid=16d84ca7-553d-40ca-a772-696595dca872"},"vehicle_type_id":"4","last_reported":1732907227,"current_range_meters":38800,"station_id":"ce4bgi12rcd13ifvqb70","pricing_plan_id":"cebpf4jnsgd1na2vs0mg"},{"bike_id":"7e0e11d4-c9d5-484b-954b-0013484c3c7c","system_id":"levelo_inurba_marseille","lat":43.29266,"lon":5.38439,"is_reserved":false,"is_disabled":false,"rental_uris":{"android":"levelo://app?vid=7e0e11d4-c9d5-484b-954b-0013484c3c7c","ios":"levelo://app?vid=7e0e11d4-c9d5-484b-954b-0013484c3c7c"},"vehicle_type_id":"4","last_reported":1732907227,"current_range_meters":9200,"station_id":"ce4bh692rcd13ifvqea0","pricing_plan_id":"cebpf4jnsgd1na2vs0mg"},{"bike_id":"5547a441-9653-482c-905c-97a54076438b","system_id":"levelo_inurba_marseille","lat":43.3236,"lon":5.36758,"is_reserved":false,"is_disabled":false,"rental_uris":{"android":"levelo://app?vid=5547a441-9653-482c-905c-97a54076438b","ios":"levelo://app?vid=5547a441-9653-482c-905c-97a54076438b"},"vehicle_type_id":"4","last_reported":1732907227,"current_range_meters":19600,"station_id":"ce4bhsh2rcd13ifvqi2g","pricing_plan_id":"cebpf4jnsgd1na2vs0mg"},{"bike_id":"3104823c-7ebf-4fe4-bf20-affe779d7669","system_id":"levelo_inurba_marseille","lat":43.28154,"lon":5.42633,"is_reserved":false,"is_disabled":false,"rental_uris":{"android":"levelo://app?vid=3104823c-7ebf-4fe4-bf20-affe779d7669","ios":"levelo://app?vid=3104823c-7ebf-4fe4-bf20-affe779d7669"},"vehicle_type_id":"4","last_reported":1732907227,"current_range_meters":9600,"station_id":"ce4bhnh2rcd13ifvqgug","pricing_plan_id":"cebpf4jnsgd1na2vs0mg"},{"bike_id":"bf7f8a9f-e800-4680-93d5-f34913952670","system_id":"levelo_inurba_marseille","lat":43.28719,"lon":5.37943,"is_reserved":false,"is_disabled":false,"rental_uris":{"android":"levelo://app?vid=bf7f8a9f-e800-4680-93d5-f34913952670","ios":"levelo://app?vid=bf7f8a9f-e800-4680-93d5-f34913952670"},"vehicle_type_id":"4","last_reported":1732907227,"current_range_meters":18800,"station_id":"ce4bh9p2rcd13ifvqec0","pricing_plan_id":"cebpf4jnsgd1na2vs0mg"},{"bike_id":"52d3e8d8-44d1-4fce-9570-268e3e88bedc","system_id":"levelo_inurba_marseille","lat":43.2926,"lon":5.40908,"is_reserved":false,"is_disabled":false,"rental_uris":{"android":"levelo://app?vid=52d3e8d8-44d1-4fce-9570-268e3e88bedc","ios":"levelo://app?vid=52d3e8d8-44d1-4fce-9570-268e3e88bedc"},"vehicle_type_id":"4","last_reported":1732907227,"current_range_meters":22400,"station_id":"ce4bh192rcd13ifvqdc0","pricing_plan_id":"cebpf4jnsgd1na2vs0mg"},{"bike_id":"2545b486-f597-4ecd-8508-05df785b0c49","system_id":"levelo_inurba_marseille","lat":43.33021,"lon":5.39048,"is_reserved":false,"is_disabled":false,"rental_uris":{"android":"levelo://app?vid=2545b486-f597-4ecd-8508-05df785b0c49","ios":"levelo://app?vid=2545b486-f597-4ecd-8508-05df785b0c49"},"vehicle_type_id":"4","last_reported":1732907227,"current_range_meters":38800,"station_id":"ce4bhr92rcd13ifvqhrg","pricing_plan_id":"cebpf4jnsgd1na2vs0mg"},{"bike_id":"53832248-7ea6-4cc6-856c-2b60c3f17998","system_id":"levelo_inurba_marseille","lat":43.29549,"lon":5.42282,"is_reserved":false,"is_disabled":true,"rental_uris":{"android":"levelo://app?vid=53832248-7ea6-4cc6-856c-2b60c3f17998","ios":"levelo://app?vid=53832248-7ea6-4cc6-856c-2b60c3f17998"},"vehicle_type_id":"4","last_reported":1732907227,"current_range_meters":38800,"station_id":"ce4bhph2rcd13ifvqhdg","pricing_plan_id":"cebpf4jnsgd1na2vs0mg"},{"bike_id":"5cebcc09-eccd-40f2-bfc1-b016fc226f4d","system_id":"levelo_inurba_marseille","lat":43.29003,"lon":5.35622,"is_reserved":false,"is_disabled":false,"rental_uris":{"android":"levelo://app?vid=5cebcc09-eccd-40f2-bfc1-b016fc226f4d","ios":"levelo://app?vid=5cebcc09-eccd-40f2-bfc1-b016fc226f4d"},"vehicle_type_id":"4","last_reported":1732907227,"current_range_meters":38800,"station_id":"ce4bhb92rcd13ifvqen0","pricing_plan_id":"cebpf4jnsgd1na2vs0mg"},{"bike_id":"1a635077-4f1d-4e20-81fb-3106f48ea355","system_id":"levelo_inurba_marseille","lat":43.23192,"lon":5.40018,"is_reserved":false,"is_disabled":false,"rental_uris":{"android":"levelo://app?vid=1a635077-4f1d-4e20-81fb-3106f48ea355","ios":"levelo://app?vid=1a635077-4f1d-4e20-81fb-3106f48ea355"},"vehicle_type_id":"4","last_reported":1732907227,"current_range_meters":14400,"station_id":"ce4bhn12rcd13ifvqgqg","pricing_plan_id":"cebpf4jnsgd1na2vs0mg"},{"bike_id":"2bba01b8-8b0e-4083-90f8-c4f903c044e1","system_id":"levelo_inurba_marseille","lat":43.2926,"lon":5.38439,"is_reserved":false,"is_disabled":true,"rental_uris":{"android":"levelo://app?vid=2bba01b8-8b0e-4083-90f8-c4f903c044e1","ios":"levelo://app?vid=2bba01b8-8b0e-4083-90f8-c4f903c044e1"},"vehicle_type_id":"4","last_reported":1732907227,"current_range_meters":0,"station_id":"ce4bh692rcd13ifvqea0","pricing_plan_id":"cebpf4jnsgd1na2vs0mg"},{"bike_id":"b5314dd8-8d10-4ce9-80dc-da350ccceea3","system_id":"levelo_inurba_marseille","lat":43.29524,"lon":5.38543,"is_reserved":false,"is_disabled":false,"rental_uris":{"android":"levelo://app?vid=b5314dd8-8d10-4ce9-80dc-da350ccceea3","ios":"levelo://app?vid=b5314dd8-8d10-4ce9-80dc-da350ccceea3"},"vehicle_type_id":"4","last_reported":1732907227,"current_range_meters":25200,"station_id":"ce4bgih2rcd13ifvqba0","pricing_plan_id":"cebpf4jnsgd1na2vs0mg"},{"bike_id":"4b867260-cb98-4880-8ebe-df6bbebf8de6","system_id":"levelo_inurba_marseille","lat":43.27671,"lon":5.38888,"is_reserved":false,"is_disabled":true,"rental_uris":{"android":"levelo://app?vid=4b867260-cb98-4880-8ebe-df6bbebf8de6","ios":"levelo://app?vid=4b867260-cb98-4880-8ebe-df6bbebf8de6"},"vehicle_type_id":"4","last_reported":1732907227,"current_range_meters":0,"station_id":"ce4bhi12rcd13ifvqfo0","pricing_plan_id":"cebpf4jnsgd1na2vs0mg"},{"bike_id":"5a7543de-1826-4285-b8aa-2b626cad753e","system_id":"levelo_inurba_marseille","lat":43.293,"lon":5.37461,"is_reserved":false,"is_disabled":false,"rental_uris":{"android":"levelo://app?vid=5a7543de-1826-4285-b8aa-2b626cad753e","ios":"levelo://app?vid=5a7543de-1826-4285-b8aa-2b626cad753e"},"vehicle_type_id":"4","last_reported":1732907227,"current_range_meters":36800,"station_id":"ce4bgi12rcd13ifvqb70","pricing_plan_id":"cebpf4jnsgd1na2vs0mg"},{"bike_id":"5eb69fdd-4bfd-4d21-abbf-979584105385","system_id":"levelo_inurba_marseille","lat":43.30936,"lon":5.40144,"is_reserved":false,"is_disabled":false,"rental_uris":{"android":"levelo://app?vid=5eb69fdd-4bfd-4d21-abbf-979584105385","ios":"levelo://app?vid=5eb69fdd-4bfd-4d21-abbf-979584105385"},"vehicle_type_id":"4","last_reported":1732907227,"current_range_meters":24800,"station_id":"ce4bgvp2rcd13ifvqct0","pricing_plan_id":"cebpf4jnsgd1na2vs0mg"},{"bike_id":"b49783ba-f63a-4665-b71b-cc1e4271e8ad","system_id":"levelo_inurba_marseille","lat":43.31715,"lon":5.43707,"is_reserved":false,"is_disabled":false,"rental_uris":{"android":"levelo://app?vid=b49783ba-f63a-4665-b71b-cc1e4271e8ad","ios":"levelo://app?vid=b49783ba-f63a-4665-b71b-cc1e4271e8ad"},"vehicle_type_id":"4","last_reported":1732907227,"current_range_meters":39200,"station_id":"ce4bhp92rcd13ifvqhcg","pricing_plan_id":"cebpf4jnsgd1na2vs0mg"},{"bike_id":"6027609c-238a-4ccf-9b15-4fcc94e60646","system_id":"levelo_inurba_marseille","lat":43.29419,"lon":5.38619,"is_reserved":false,"is_disabled":false,"rental_uris":{"android":"levelo://app?vid=6027609c-238a-4ccf-9b15-4fcc94e60646","ios":"levelo://app?vid=6027609c-238a-4ccf-9b15-4fcc94e60646"},"vehicle_type_id":"4","last_reported":1732907227,"current_range_meters":25600,"station_id":"ce4bh2h2rcd13ifvqdh0","pricing_plan_id":"cebpf4jnsgd1na2vs0mg"},{"bike_id":"117c81c6-9683-495a-80ea-c409aec9839a","system_id":"levelo_inurba_marseille","lat":43.24644,"lon":5.38891,"is_reserved":false,"is_disabled":false,"rental_uris":{"android":"levelo://app?vid=117c81c6-9683-495a-80ea-c409aec9839a","ios":"levelo://app?vid=117c81c6-9683-495a-80ea-c409aec9839a"},"vehicle_type_id":"4","last_reported":1732907227,"current_range_meters":2800,"station_id":"ce4bhg12rcd13ifvqf60","pricing_plan_id":"cebpf4jnsgd1na2vs0mg"},{"bike_id":"2853f29b-4ad9-4fc6-a0af-2419821afe19","system_id":"levelo_inurba_marseille","lat":43.33023,"lon":5.3904,"is_reserved":false,"is_disabled":false,"rental_uris":{"android":"levelo://app?vid=2853f29b-4ad9-4fc6-a0af-2419821afe19","ios":"levelo://app?vid=2853f29b-4ad9-4fc6-a0af-2419821afe19"},"vehicle_type_id":"4","last_reported":1732907227,"current_range_meters":38800,"station_id":"ce4bhr92rcd13ifvqhrg","pricing_plan_id":"cebpf4jnsgd1na2vs0mg"},{"bike_id":"a2e4c2f1-b9d0-4d85-a166-68c9c0502eaf","system_id":"levelo_inurba_marseille","lat":43.28044,"lon":5.36947,"is_reserved":false,"is_disabled":false,"rental_uris":{"android":"levelo://app?vid=a2e4c2f1-b9d0-4d85-a166-68c9c0502eaf","ios":"levelo://app?vid=a2e4c2f1-b9d0-4d85-a166-68c9c0502eaf"},"vehicle_type_id":"4","last_reported":1732907227,"current_range_meters":20800,"station_id":"ce4bha12rcd13ifvqef0","pricing_plan_id":"cebpf4jnsgd1na2vs0mg"},{"bike_id":"0e30a3ff-fdcb-44e8-9059-e9a222fad4a1","system_id":"levelo_inurba_marseille","lat":43.31491,"lon":5.37311,"is_reserved":false,"is_disabled":false,"rental_uris":{"android":"levelo://app?vid=0e30a3ff-fdcb-44e8-9059-e9a222fad4a1","ios":"levelo://app?vid=0e30a3ff-fdcb-44e8-9059-e9a222fad4a1"},"vehicle_type_id":"4","last_reported":1732907227,"current_range_meters":37600,"station_id":"ce4bgt12rcd13ifvqcd0","pricing_plan_id":"cebpf4jnsgd1na2vs0mg"},{"bike_id":"a8fe8436-9eaf-4abf-a83a-33c9996ce9cb","system_id":"levelo_inurba_marseille","lat":43.27993,"lon":5.40026,"is_reserved":false,"is_disabled":false,"rental_uris":{"android":"levelo://app?vid=a8fe8436-9eaf-4abf-a83a-33c9996ce9cb","ios":"levelo://app?vid=a8fe8436-9eaf-4abf-a83a-33c9996ce9cb"},"vehicle_type_id":"4","last_reported":1732907227,"current_range_meters":24400,"station_id":"ce4bho92rcd13ifvqh4g","pricing_plan_id":"cebpf4jnsgd1na2vs0mg"},{"bike_id":"0df8c5cd-a817-4729-94f3-d7f67910184c","system_id":"levelo_inurba_marseille","lat":43.23061,"lon":5.35491,"is_reserved":false,"is_disabled":false,"rental_uris":{"android":"levelo://app?vid=0df8c5cd-a817-4729-94f3-d7f67910184c","ios":"levelo://app?vid=0df8c5cd-a817-4729-94f3-d7f67910184c"},"vehicle_type_id":"4","last_reported":1732907227,"current_range_meters":36400,"station_id":"cpo3342slgdg3j2ifvpg","pricing_plan_id":"cebpf4jnsgd1na2vs0mg"},{"bike_id":"9e944db9-d48e-4848-b5fa-4af701aee80b","system_id":"levelo_inurba_marseille","lat":48.80797,"lon":2.40127,"is_reserved":false,"is_disabled":true,"rental_uris":{"android":"levelo://app?vid=9e944db9-d48e-4848-b5fa-4af701aee80b","ios":"levelo://app?vid=9e944db9-d48e-4848-b5fa-4af701aee80b"},"vehicle_type_id":"4","last_reported":1732907227,"current_range_meters":18000,"station_id":"","pricing_plan_id":"cebpf4jnsgd1na2vs0mg"},{"bike_id":"3dd0d32c-da08-43c8-a438-101c891dd7a8","system_id":"levelo_inurba_marseille","lat":43.26679,"lon":5.38272,"is_reserved":false,"is_disabled":true,"rental_uris":{"android":"levelo://app?vid=3dd0d32c-da08-43c8-a438-101c891dd7a8","ios":"levelo://app?vid=3dd0d32c-da08-43c8-a438-101c891dd7a8"},"vehicle_type_id":"4","last_reported":1732907227,"current_range_meters":0,"station_id":"ce4bhg92rcd13ifvqf90","pricing_plan_id":"cebpf4jnsgd1na2vs0mg"},{"bike_id":"e5a949e4-26a7-4b0d-85ed-9548d0681b63","system_id":"levelo_inurba_marseille","lat":43.27899,"lon":5.37991,"is_reserved":false,"is_disabled":true,"rental_uris":{"android":"levelo://app?vid=e5a949e4-26a7-4b0d-85ed-9548d0681b63","ios":"levelo://app?vid=e5a949e4-26a7-4b0d-85ed-9548d0681b63"},"vehicle_type_id":"4","last_reported":1732907227,"current_range_meters":0,"station_id":"ce4bhf92rcd13ifvqf50","pricing_plan_id":"cebpf4jnsgd1na2vs0mg"},{"bike_id":"ce4aca7b-32b5-4d2e-95d1-6fb682004af9","system_id":"levelo_inurba_marseille","lat":43.25824,"lon":5.39432,"is_reserved":false,"is_disabled":false,"rental_uris":{"android":"levelo://app?vid=ce4aca7b-32b5-4d2e-95d1-6fb682004af9","ios":"levelo://app?vid=ce4aca7b-32b5-4d2e-95d1-6fb682004af9"},"vehicle_type_id":"4","last_reported":1732907227,"current_range_meters":38000,"station_id":"ce4bhip2rcd13ifvqft0","pricing_plan_id":"cebpf4jnsgd1na2vs0mg"},{"bike_id":"bbb70a9c-3e6f-47ad-8588-efd51d0cc498","system_id":"levelo_inurba_marseille","lat":43.27181,"lon":5.41,"is_reserved":false,"is_disabled":true,"rental_uris":{"android":"levelo://app?vid=bbb70a9c-3e6f-47ad-8588-efd51d0cc498","ios":"levelo://app?vid=bbb70a9c-3e6f-47ad-8588-efd51d0cc498"},"vehicle_type_id":"4","last_reported":1732907227,"current_range_meters":0,"station_id":"ce4bhl12rcd13ifvqgf0","pricing_plan_id":"cebpf4jnsgd1na2vs0mg"},{"bike_id":"6627c035-92a8-4968-a179-033ae41075c0","system_id":"levelo_inurba_marseille","lat":43.29849,"lon":5.3628,"is_reserved":false,"is_disabled":false,"rental_uris":{"android":"levelo://app?vid=6627c035-92a8-4968-a179-033ae41075c0","ios":"levelo://app?vid=6627c035-92a8-4968-a179-033ae41075c0"},"vehicle_type_id":"4","last_reported":1732907227,"current_range_meters":36800,"station_id":"ce4bgpp2rcd13ifvqc3g","pricing_plan_id":"cebpf4jnsgd1na2vs0mg"},{"bike_id":"42c6e873-4ccb-4dbb-ba4a-fc482c1c461a","system_id":"levelo_inurba_marseille","lat":43.30554,"lon":5.37521,"is_reserved":false,"is_disabled":false,"rental_uris":{"android":"levelo://app?vid=42c6e873-4ccb-4dbb-ba4a-fc482c1c461a","ios":"levelo://app?vid=42c6e873-4ccb-4dbb-ba4a-fc482c1c461a"},"vehicle_type_id":"4","last_reported":1732907227,"current_range_meters":36800,"station_id":"","pricing_plan_id":"cebpf4jnsgd1na2vs0mg"},{"bike_id":"e4becc91-6012-43f1-991c-034ce7e63f38","system_id":"levelo_inurba_marseille","lat":43.23069,"lon":5.35487,"is_reserved":false,"is_disabled":false,"rental_uris":{"android":"levelo://app?vid=e4becc91-6012-43f1-991c-034ce7e63f38","ios":"levelo://app?vid=e4becc91-6012-43f1-991c-034ce7e63f38"},"vehicle_type_id":"4","last_reported":1732907227,"current_range_meters":36000,"station_id":"cpo3342slgdg3j2ifvpg","pricing_plan_id":"cebpf4jnsgd1na2vs0mg"},{"bike_id":"0667ec2b-4b92-45b4-a106-f3b4430e27b5","system_id":"levelo_inurba_marseille","lat":43.32662,"lon":5.40987,"is_reserved":false,"is_disabled":false,"rental_uris":{"android":"levelo://app?vid=0667ec2b-4b92-45b4-a106-f3b4430e27b5","ios":"levelo://app?vid=0667ec2b-4b92-45b4-a106-f3b4430e27b5"},"vehicle_type_id":"4","last_reported":1732907227,"current_range_meters":16000,"station_id":"ce4bhpp2rcd13ifvqhgg","pricing_plan_id":"cebpf4jnsgd1na2vs0mg"},{"bike_id":"16cf32ee-62c9-4527-820f-4c6b6597ec21","system_id":"levelo_inurba_marseille","lat":43.23962,"lon":5.36629,"is_reserved":false,"is_disabled":false,"rental_uris":{"android":"levelo://app?vid=16cf32ee-62c9-4527-820f-4c6b6597ec21","ios":"levelo://app?vid=16cf32ee-62c9-4527-820f-4c6b6597ec21"},"vehicle_type_id":"4","last_reported":1732907227,"current_range_meters":24000,"station_id":"ce4bhi12rcd13ifvqfp0","pricing_plan_id":"cebpf4jnsgd1na2vs0mg"},{"bike_id":"f35ef9db-c813-427b-a915-8167d2213404","system_id":"levelo_inurba_marseille","lat":43.27998,"lon":5.40011,"is_reserved":false,"is_disabled":true,"rental_uris":{"android":"levelo://app?vid=f35ef9db-c813-427b-a915-8167d2213404","ios":"levelo://app?vid=f35ef9db-c813-427b-a915-8167d2213404"},"vehicle_type_id":"4","last_reported":1732907227,"current_range_meters":400,"station_id":"ce4bho92rcd13ifvqh4g","pricing_plan_id":"cebpf4jnsgd1na2vs0mg"},{"bike_id":"19c79683-1c98-4f51-b983-f38b27e85955","system_id":"levelo_inurba_marseille","lat":43.30335,"lon":5.39409,"is_reserved":false,"is_disabled":true,"rental_uris":{"android":"levelo://app?vid=19c79683-1c98-4f51-b983-f38b27e85955","ios":"levelo://app?vid=19c79683-1c98-4f51-b983-f38b27e85955"},"vehicle_type_id":"4","last_reported":1732907227,"current_range_meters":0,"station_id":"","pricing_plan_id":"cebpf4jnsgd1na2vs0mg"},{"bike_id":"fa4f0cc6-14b8-4cd6-a7dc-89668303c244","system_id":"levelo_inurba_marseille","lat":43.27177,"lon":5.40961,"is_reserved":false,"is_disabled":false,"rental_uris":{"android":"levelo://app?vid=fa4f0cc6-14b8-4cd6-a7dc-89668303c244","ios":"levelo://app?vid=fa4f0cc6-14b8-4cd6-a7dc-89668303c244"},"vehicle_type_id":"4","last_reported":1732907227,"current_range_meters":28400,"station_id":"ce4bhl12rcd13ifvqgf0","pricing_plan_id":"cebpf4jnsgd1na2vs0mg"},{"bike_id":"7254bdef-a455-47e2-ab83-c0f290db94bb","system_id":"levelo_inurba_marseille","lat":43.28455,"lon":5.35894,"is_reserved":false,"is_disabled":true,"rental_uris":{"android":"levelo://app?vid=7254bdef-a455-47e2-ab83-c0f290db94bb","ios":"levelo://app?vid=7254bdef-a455-47e2-ab83-c0f290db94bb"},