{"last_updated":1747854484,"ttl":60,"version":"2.2","data":{"bikes":[{"bike_id":"c0b9fd4f-e181-46ce-b0bf-f5119973334f","system_id":"levelo_inurba_marseille","lat":43.33771,"lon":5.37424,"is_reserved":false,"is_disabled":true,"rental_uris":{"android":"levelo://app?vid=c0b9fd4f-e181-46ce-b0bf-f5119973334f","ios":"levelo://app?vid=c0b9fd4f-e181-46ce-b0bf-f5119973334f"},"vehicle_type_id":"4","last_reported":1747854484,"current_range_meters":0,"station_id":"","pricing_plan_id":"cebpf4jnsgd1na2vs0mg"},{"bike_id":"1dec17c8-cbde-4354-8b6c-219f98c89710","system_id":"levelo_inurba_marseille","lat":43.291827,"lon":5.422652,"is_reserved":false,"is_disabled":true,"rental_uris":{"android":"levelo://app?vid=1dec17c8-cbde-4354-8b6c-219f98c89710","ios":"levelo://app?vid=1dec17c8-cbde-4354-8b6c-219f98c89710"},"vehicle_type_id":"4","last_reported":1747854484,"current_range_meters":0,"station_id":"","pricing_plan_id":"cebpf4jnsgd1na2vs0mg"},{"bike_id":"4d4b63f8-c892-4cd8-b099-d41c0ed58ced","system_id":"levelo_inurba_marseille","lat":43.30285,"lon":5.41903,"is_reserved":false,"is_disabled":true,"rental_uris":{"android":"levelo://app?vid=4d4b63f8-c892-4cd8-b099-d41c0ed58ced","ios":"levelo://app?vid=4d4b63f8-c892-4cd8-b099-d41c0ed58ced"},"vehicle_type_id":"4","last_reported":1747854484,"current_range_meters":0,"station_id":"","pricing_plan_id":"cebpf4jnsgd1na2vs0mg"},{"bike_id":"3a6893d1-759e-4cbb-adf6-85ed83b44881","system_id":"levelo_inurba_marseille","lat":43.295405,"lon":5.374945,"is_reserved":false,"is_disabled":true,"rental_uris":{"android":"levelo://app?vid=3a6893d1-759e-4cbb-adf6-85ed83b44881","ios":"levelo://app?vid=3a6893d1-759e-4cbb-adf6-85ed83b44881"},"vehicle_type_id":"4","last_reported":1747854484,"current_range_meters":0,"station_id":"","pricing_plan_id":"cebpf4jnsgd1na2vs0mg"},{"bike_id":"5f708b2e-3b70-4aef-b125-8a06804bfed6","system_id":"levelo_inurba_marseille","lat":43.254457,"lon":5.376614,"is_reserved":false,"is_disabled":true,"rental_uris":{"android":"levelo://app?vid=5f708b2e-3b70-4aef-b125-8a06804bfed6","ios":"levelo://app?vid=5f708b2e-3b70-4aef-b125-8a06804bfed6"},"vehicle_type_id":"4","last_reported":1747854484,"current_range_meters":0,"station_id":"","pricing_plan_id":"cebpf4jnsgd1na2vs0mg"},{"bike_id":"79c4b0e6-719b-4903-ac96-107b5995b617","system_id":"levelo_inurba_marseille","lat":43.23346,"lon":5.35948,"is_reserved":false,"is_disabled":true,"rental_uris":{"android":"levelo://app?vid=79c4b0e6-719b-4903-ac96-107b5995b617","ios":"levelo://app?vid=79c4b0e6-719b-4903-ac96-107b5995b617"},"vehicle_type_id":"4","last_reported":1747854484,"current_range_meters":0,"station_id":"","pricing_plan_id":"cebpf4jnsgd1na2vs0mg"},{"bike_id":"20bee342-4a3f-4f34-940d-bb6cf00d52ae","system_id":"levelo_inurba_marseille","lat":43.26649,"lon":5.38596,"is_reserved":false,"is_disabled":true,"rental_uris":{"android":"levelo://app?vid=20bee342-4a3f-4f34-940d-bb6cf00d52ae","ios":"levelo://app?vid=20bee342-4a3f-4f34-940d-bb6cf00d52ae"},"vehicle_type_id":"4","last_reported":1747854484,"current_range_meters":0,"station_id":"","pricing_plan_id":"cebpf4jnsgd1na2vs0mg"},{"bike_id":"e9dd3aa4-b5e7-4480-926d-d7f537719bfa","system_id":"levelo_inurba_marseille","lat":43.230331,"lon":5.401847,"is_reserved":false,"is_disabled":true,"rental_uris":{"android":"levelo://app?vid=e9dd3aa4-b5e7-4480-926d-d7f537719bfa","ios":"levelo://app?vid=e9dd3aa4-b5e7-4480-926d-d7f537719bfa"},"vehicle_type_id":"4","last_reported":1747854484,"current_range_meters":0,"station_id":"","pricing_plan_id":"cebpf4jnsgd1na2vs0mg"},{"bike_id":"14603e41-b2dd-4757-a53c-2e366aa4f983","system_id":"levelo_inurba_marseille","lat":43.27017,"lon":5.428,"is_reserved":false,"is_disabled":true,"rental_uris":{"android":"levelo://app?vid=14603e41-b2dd-4757-a53c-2e366aa4f983","ios":"levelo://app?vid=14603e41-b2dd-4757-a53c-2e366aa4f983"},"vehicle_type_id":"4","last_reported":1747854484,"current_range_meters":0,"station_id":"","pricing_plan_id":"cebpf4jnsgd1na2vs0mg"},{"bike_id":"1938d977-b730-4491-a262-ff82baf9a32d","system_id":"levelo_inurba_marseille","lat":43.29801,"lon":5.38099,"is_reserved":false,"is_disabled":true,"rental_uris":{"android":"levelo://app?vid=1938d977-b730-4491-a262-ff82baf9a32d","ios":"levelo://app?vid=1938d977-b730-4491-a262-ff82baf9a32d"},"vehicle_type_id":"4","last_reported":1747854484,"current_range_meters":0,"station_id":"ce4bgip2rcd13ifvqbb0","pricing_plan_id":"cebpf4jnsgd1na2vs0mg"},{"bike_id":"32d65e08-5b89-4042-a332-4bba306057f5","system_id":"levelo_inurba_marseille","lat":43.28931,"lon":5.38405,"is_reserved":false,"is_disabled":true,"rental_uris":{"android":"levelo://app?vid=32d65e08-5b89-4042-a332-4bba306057f5","ios":"levelo://app?vid=32d65e08-5b89-4042-a332-4bba306057f5"},"vehicle_type_id":"4","last_reported":1747854484,"current_range_meters":0,"station_id":"ce4bh612rcd13ifvqe6g","pricing_plan_id":"cebpf4jnsgd1na2vs0mg"},{"bike_id":"4cf383dd-d549-4375-af54-3ab2c78fa7ef","system_id":"levelo_inurba_marseille","lat":43.292629,"lon":5.384459,"is_reserved":false,"is_disabled":true,"rental_uris":{"android":"levelo://app?vid=4cf383dd-d549-4375-af54-3ab2c78fa7ef","ios":"levelo://app?vid=4cf383dd-d549-4375-af54-3ab2c78fa7ef"},"vehicle_type_id":"4","last_reported":1747854484,"current_range_meters":0,"station_id":"ce4bh692rcd13ifvqea0","pricing_plan_id":"cebpf4jnsgd1na2vs0mg"},{"bike_id":"79969928-7fc4-4f81-a21d-ad25d2918696","system_id":"levelo_inurba_marseille","lat":43.28091,"lon":5.37839,"is_reserved":false,"is_disabled":true,"rental_uris":{"android":"levelo://app?vid=79969928-7fc4-4f81-a21d-ad25d2918696","ios":"levelo://app?vid=79969928-7fc4-4f81-a21d-ad25d2918696"},"vehicle_type_id":"4","last_reported":1747854484,"current_range_meters":0,"station_id":"ce4bha12rcd13ifvqee0","pricing_plan_id":"cebpf4jnsgd1na2vs0mg"},{"bike_id":"1eec3f70-b026-42be-81d0-0b699c6011f3","system_id":"levelo_inurba_marseille","lat":43.2738,"lon":5.36254,"is_reserved":false,"is_disabled":true,"rental_uris":{"android":"levelo://app?vid=1eec3f70-b026-42be-81d0-0b699c6011f3","ios":"levelo://app?vid=1eec3f70-b026-42be-81d0-0b699c6011f3"},"vehicle_type_id":"4","last_reported":1747854484,"current_range_meters":0,"station_id":"ce4bhbh2rcd13ifvqeo0","pricing_plan_id":"cebpf4jnsgd1na2vs0mg"},{"bike_id":"cf06c055-d4d0-4750-88f9-1350d9318fb8","system_id":"levelo_inurba_marseille","lat":43.26064,"lon":5.39396,"is_reserved":false,"is_disabled":true,"rental_uris":{"android":"levelo://app?vid=cf06c055-d4d0-4750-88f9-1350d9318fb8","ios":"levelo://app?vid=cf06c055-d4d0-4750-88f9-1350d9318fb8"},"vehicle_type_id":"4","last_reported":1747854484,"current_range_meters":0,"station_id":"ce4bhh92rcd13ifvqfj0","pricing_plan_id":"cebpf4jnsgd1na2vs0mg"},{"bike_id":"9a993657-2594-4237-92be-b74331df19eb","system_id":"levelo_inurba_marseille","lat":43.27065,"lon":5.40295,"is_reserved":false,"is_disabled":true,"rental_uris":{"android":"levelo://app?vid=9a993657-2594-4237-92be-b74331df19eb","ios":"levelo://app?vid=9a993657-2594-4237-92be-b74331df19eb"},"vehicle_type_id":"4","last_reported":1747854484,"current_range_meters":0,"station_id":"ce4bhk92rcd13ifvqgc0","pricing_plan_id":"cebpf4jnsgd1na2vs0mg"},{"bike_id":"eb9baf8a-320e-4eae-8a67-0e86281f94df","system_id":"levelo_inurba_marseille","lat":43.25858,"lon":5.39922,"is_reserved":false,"is_disabled":true,"rental_uris":{"android":"levelo://app?vid=eb9baf8a-320e-4eae-8a67-0e86281f94df","ios":"levelo://app?vid=eb9baf8a-320e-4eae-8a67-0e86281f94df"},"vehicle_type_id":"4","last_reported":1747854484,"current_range_meters":0,"station_id":"ce4bhl92rcd13ifvqghg","pricing_plan_id":"cebpf4jnsgd1na2vs0mg"},{"bike_id":"a9672778-069e-4e15-8ad6-66b694742a2b","system_id":"levelo_inurba_marseille","lat":43.27951,"lon":5.41046,"is_reserved":false,"is_disabled":true,"rental_uris":{"android":"levelo://app?vid=a9672778-069e-4e15-8ad6-66b694742a2b","ios":"levelo://app?vid=a9672778-069e-4e15-8ad6-66b694742a2b"},"vehicle_type_id":"4","last_reported":1747854484,"current_range_meters":0,"station_id":"ce4bhnp2rcd13ifvqh0g","pricing_plan_id":"cebpf4jnsgd1na2vs0mg"},{"bike_id":"8b0c2371-0aee-4e98-be54-62bd224e98f7","system_id":"levelo_inurba_marseille","lat":43.279437,"lon":5.410407,"is_reserved":false,"is_disabled":true,"rental_uris":{"android":"levelo://app?vid=8b0c2371-0aee-4e98-be54-62bd224e98f7","ios":"levelo://app?vid=8b0c2371-0aee-4e98-be54-62bd224e98f7"},"vehicle_type_id":"4","last_reported":1747854484,"current_range_meters":0,"station_id":"ce4bhnp2rcd13ifvqh0g","pricing_plan_id":"cebpf4jnsgd1na2vs0mg"},{"bike_id":"30252d66-d61a-4a23-9838-feb52a079f9f","system_id":"levelo_inurba_marseille","lat":43.28432,"lon":5.392,"is_reserved":false,"is_disabled":true,"rental_uris":{"android":"levelo://app?vid=30252d66-d61a-4a23-9838-feb52a079f9f","ios":"levelo://app?vid=30252d66-d61a-4a23-9838-feb52a079f9f"},"vehicle_type_id":"4","last_reported":1747854484,"current_range_meters":0,"station_id":"ce4bhoh2rcd13ifvqh5g","pricing_plan_id":"cebpf4jnsgd1na2vs0mg"},{"bike_id":"8c362cf2-2d82-4928-8b0e-ded056d5048f","system_id":"levelo_inurba_marseille","lat":43.2681,"lon":5.40261,"is_reserved":false,"is_disabled":true,"rental_uris":{"android":"levelo://app?vid=8c362cf2-2d82-4928-8b0e-ded056d5048f","ios":"levelo://app?vid=8c362cf2-2d82-4928-8b0e-ded056d5048f"},"vehicle_type_id":"4","last_reported":1747854484,"current_range_meters":0,"station_id":"ce501612rcd8frsf0b60","pricing_plan_id":"cebpf4jnsgd1na2vs0mg"},{"bike_id":"89e718bd-1565-42f4-8749-5c9ada2aeec1","system_id":"levelo_inurba_marseille","lat":43.27176,"lon":5.40985,"is_reserved":false,"is_disabled":true,"rental_uris":{"android":"levelo://app?vid=89e718bd-1565-42f4-8749-5c9ada2aeec1","ios":"levelo://app?vid=89e718bd-1565-42f4-8749-5c9ada2aeec1"},"vehicle_type_id":"4","last_reported":1747854484,"current_range_meters":400,"station_id":"ce4bhl12rcd13ifvqgf0","pricing_plan_id":"cebpf4jnsgd1na2vs0mg"},{"bike_id":"56c1cc0f-589d-425a-9ee6-aa7ba98cba79","system_id":"levelo_inurba_marseille","lat":43.28608,"lon":5.37064,"is_reserved":false,"is_disabled":true,"rental_uris":{"android":"levelo://app?vid=56c1cc0f-589d-425a-9ee6-aa7ba98cba79","ios":"levelo://app?vid=56c1cc0f-589d-425a-9ee6-aa7ba98cba79"},"vehicle_type_id":"4","last_reported":1747854484,"current_range_meters":400,"station_id":"ce4bht12rcd13ifvqi60","pricing_plan_id":"cebpf4jnsgd1na2vs0mg"},{"bike_id":"c306fa7d-481e-4ae3-9585-ff4c1f5ddcb9","system_id":"levelo_inurba_marseille","lat":43.34989,"lon":5.37948,"is_reserved":false,"is_disabled":true,"rental_uris":{"android":"levelo://app?vid=c306fa7d-481e-4ae3-9585-ff4c1f5ddcb9","ios":"levelo://app?vid=c306fa7d-481e-4ae3-9585-ff4c1f5ddcb9"},"vehicle_type_id":"4","last_reported":1747854484,"current_range_meters":800,"station_id":"","pricing_plan_id":"cebpf4jnsgd1na2vs0mg"},{"bike_id":"c3a89dcd-1445-44e5-b530-5abf3a6d3e84","system_id":"levelo_inurba_marseille","lat":43.24641,"lon":5.38903,"is_reserved":false,"is_disabled":true,"rental_uris":{"android":"levelo://app?vid=c3a89dcd-1445-44e5-b530-5abf3a6d3e84","ios":"levelo://app?vid=c3a89dcd-1445-44e5-b530-5abf3a6d3e84"},"vehicle_type_id":"4","last_reported":1747854484,"current_range_meters":800,"station_id":"ce4bhg12rcd13ifvqf60","pricing_plan_id":"cebpf4jnsgd1na2vs0mg"},{"bike_id":"ba59102a-6c47-4600-bcb9-76e5920c2815","system_id":"levelo_inurba_marseille","lat":43.31344,"lon":5.37205,"is_reserved":false,"is_disabled":true,"rental_uris":{"android":"levelo://app?vid=ba59102a-6c47-4600-bcb9-76e5920c2815","ios":"levelo://app?vid=ba59102a-6c47-4600-bcb9-76e5920c2815"},"vehicle_type_id":"4","last_reported":1747854484,"current_range_meters":1200,"station_id":"","pricing_plan_id":"cebpf4jnsgd1na2vs0mg"},{"bike_id":"a39111fd-a3f3-4752-9e77-1f7e82c0abe7","system_id":"levelo_inurba_marseille","lat":43.25089,"lon":5.3952,"is_reserved":false,"is_disabled":true,"rental_uris":{"android":"levelo://app?vid=a39111fd-a3f3-4752-9e77-1f7e82c0abe7","ios":"levelo://app?vid=a39111fd-a3f3-4752-9e77-1f7e82c0abe7"},"vehicle_type_id":"4","last_reported":1747854484,"current_range_meters":1200,"station_id":"ce4bhm12rcd13ifvqgkg","pricing_plan_id":"cebpf4jnsgd1na2vs0mg"},{"bike_id":"f8b121fc-a3e8-4926-901a-879af1e5eaab","system_id":"levelo_inurba_marseille","lat":43.24189,"lon":5.39746,"is_reserved":false,"is_disabled":true,"rental_uris":{"android":"levelo://app?vid=f8b121fc-a3e8-4926-901a-879af1e5eaab","ios":"levelo://app?vid=f8b121fc-a3e8-4926-901a-879af1e5eaab"},"vehicle_type_id":"4","last_reported":1747854484,"current_range_meters":1200,"station_id":"ce4bhn12rcd13ifvqgpg","pricing_plan_id":"cebpf4jnsgd1na2vs0mg"},{"bike_id":"8f0f531d-6a65-4647-8a6f-baa3d982f42f","system_id":"levelo_inurba_marseille","lat":43.28124,"lon":5.42572,"is_reserved":false,"is_disabled":true,"rental_uris":{"android":"levelo://app?vid=8f0f531d-6a65-4647-8a6f-baa3d982f42f","ios":"levelo://app?vid=8f0f531d-6a65-4647-8a6f-baa3d982f42f"},"vehicle_type_id":"4","last_reported":1747854484,"current_range_meters":1600,"station_id":"","pricing_plan_id":"cebpf4jnsgd1na2vs0mg"},{"bike_id":"a5bcf3ab-5daa-4dec-898b-27b2e944e103","system_id":"levelo_inurba_marseille","lat":43.27304,"lon":5.4102,"is_reserved":false,"is_disabled":true,"rental_uris":{"android":"levelo://app?vid=a5bcf3ab-5daa-4dec-898b-27b2e944e103","ios":"levelo://app?vid=a5bcf3ab-5daa-4dec-898b-27b2e944e103"},"vehicle_type_id":"4","last_reported":1747854484,"current_range_meters":1600,"station_id":"","pricing_plan_id":"cebpf4jnsgd1na2vs0mg"},{"bike_id":"6d03d2f9-ae40-4c15-a980-e40a3c7a7f8e","system_id":"levelo_inurba_marseille","lat":43.28119,"lon":5.3961,"is_reserved":false,"is_disabled":true,"rental_uris":{"android":"levelo://app?vid=6d03d2f9-ae40-4c15-a980-e40a3c7a7f8e","ios":"levelo://app?vid=6d03d2f9-ae40-4c15-a980-e40a3c7a7f8e"},"vehicle_type_id":"4","last_reported":1747854484,"current_range_meters":1600,"station_id":"","pricing_plan_id":"cebpf4jnsgd1na2vs0mg"},{"bike_id":"0603dfc5-1cfc-41a2-949e-a931b4c4c963","system_id":"levelo_inurba_marseille","lat":43.31365,"lon":5.3848,"is_reserved":false,"is_disabled":true,"rental_uris":{"android":"levelo://app?vid=0603dfc5-1cfc-41a2-949e-a931b4c4c963","ios":"levelo://app?vid=0603dfc5-1cfc-41a2-949e-a931b4c4c963"},"vehicle_type_id":"4","last_reported":1747854484,"current_range_meters":1600,"station_id":"ce4bgt92rcd13ifvqcf0","pricing_plan_id":"cebpf4jnsgd1na2vs0mg"},{"bike_id":"d7e232af-6ecf-450f-8df7-a300d80d8bbf","system_id":"levelo_inurba_marseille","lat":43.27948,"lon":5.41048,"is_reserved":false,"is_disabled":true,"rental_uris":{"android":"levelo://app?vid=d7e232af-6ecf-450f-8df7-a300d80d8bbf","ios":"levelo://app?vid=d7e232af-6ecf-450f-8df7-a300d80d8bbf"},"vehicle_type_id":"4","last_reported":1747854484,"current_range_meters":1600,"station_id":"ce4bhnp2rcd13ifvqh0g","pricing_plan_id":"cebpf4jnsgd1na2vs0mg"},{"bike_id":"01b136ea-4cc7-4444-8329-6b48cf83b778","system_id":"levelo_inurba_marseille","lat":43.280023,"lon":5.400085,"is_reserved":false,"is_disabled":true,"rental_uris":{"android":"levelo://app?vid=01b136ea-4cc7-4444-8329-6b48cf83b778","ios":"levelo://app?vid=01b136ea-4cc7-4444-8329-6b48cf83b778"},"vehicle_type_id":"4","last_reported":1747854484,"current_range_meters":1600,"station_id":"ce4bho92rcd13ifvqh4g","pricing_plan_id":"cebpf4jnsgd1na2vs0mg"},{"bike_id":"b1067a9c-b089-421c-9797-40de7ce9ce60","system_id":"levelo_inurba_marseille","lat":43.29789,"lon":5.38103,"is_reserved":false,"is_disabled":true,"rental_uris":{"android":"levelo://app?vid=b1067a9c-b089-421c-9797-40de7ce9ce60","ios":"levelo://app?vid=b1067a9c-b089-421c-9797-40de7ce9ce60"},"vehicle_type_id":"4","last_reported":1747854484,"current_range_meters":2000,"station_id":"ce4bgip2rcd13ifvqbb0","pricing_plan_id":"cebpf4jnsgd1na2vs0mg"},{"bike_id":"0a7d1105-b869-4091-9791-346e688eef1e","system_id":"levelo_inurba_marseille","lat":43.27916,"lon":5.39569,"is_reserved":false,"is_disabled":true,"rental_uris":{"android":"levelo://app?vid=0a7d1105-b869-4091-9791-346e688eef1e","ios":"levelo://app?vid=0a7d1105-b869-4091-9791-346e688eef1e"},"vehicle_type_id":"4","last_reported":1747854484,"current_range_meters":2000,"station_id":"ce4bhf92rcd13ifvqf40","pricing_plan_id":"cebpf4jnsgd1na2vs0mg"},{"bike_id":"44e13125-a0ff-44a5-bbc4-c569bb937c27","system_id":"levelo_inurba_marseille","lat":43.25006,"lon":5.38904,"is_reserved":false,"is_disabled":false,"rental_uris":{"android":"levelo://app?vid=44e13125-a0ff-44a5-bbc4-c569bb937c27","ios":"levelo://app?vid=44e13125-a0ff-44a5-bbc4-c569bb937c27"},"vehicle_type_id":"4","last_reported":1747854484,"current_range_meters":2000,"station_id":"ce4bhgp2rcd13ifvqfd0","pricing_plan_id":"cebpf4jnsgd1na2vs0mg"},{"bike_id":"5f8192ff-53ce-465c-a4c1-095dc72f9ab5","system_id":"levelo_inurba_marseille","lat":43.29557,"lon":5.4228,"is_reserved":false,"is_disabled":true,"rental_uris":{"android":"levelo://app?vid=5f8192ff-53ce-465c-a4c1-095dc72f9ab5","ios":"levelo://app?vid=5f8192ff-53ce-465c-a4c1-095dc72f9ab5"},"vehicle_type_id":"4","last_reported":1747854484,"current_range_meters":2000,"station_id":"ce4bhph2rcd13ifvqhdg","pricing_plan_id":"cebpf4jnsgd1na2vs0mg"},{"bike_id":"51e286c1-9e23-45eb-8b3a-94427308d840","system_id":"levelo_inurba_marseille","lat":43.3059,"lon":5.39349,"is_reserved":false,"is_disabled":false,"rental_uris":{"android":"levelo://app?vid=51e286c1-9e23-45eb-8b3a-94427308d840","ios":"levelo://app?vid=51e286c1-9e23-45eb-8b3a-94427308d840"},"vehicle_type_id":"4","last_reported":1747854484,"current_range_meters":2800,"station_id":"ce4bh0p2rcd13ifvqd80","pricing_plan_id":"cebpf4jnsgd1na2vs0mg"},{"bike_id":"85eaca89-9437-48d0-9bca-a254337b88db","system_id":"levelo_inurba_marseille","lat":43.274615,"lon":5.409845,"is_reserved":false,"is_disabled":false,"rental_uris":{"android":"levelo://app?vid=85eaca89-9437-48d0-9bca-a254337b88db","ios":"levelo://app?vid=85eaca89-9437-48d0-9bca-a254337b88db"},"vehicle_type_id":"4","last_reported":1747854484,"current_range_meters":3200,"station_id":"","pricing_plan_id":"cebpf4jnsgd1na2vs0mg"},{"bike_id":"a75b72db-9270-4968-b4c7-b40a2573c131","system_id":"levelo_inurba_marseille","lat":43.28103,"lon":5.37851,"is_reserved":false,"is_disabled":false,"rental_uris":{"android":"levelo://app?vid=a75b72db-9270-4968-b4c7-b40a2573c131","ios":"levelo://app?vid=a75b72db-9270-4968-b4c7-b40a2573c131"},"vehicle_type_id":"4","last_reported":1747854484,"current_range_meters":3200,"station_id":"ce4bha12rcd13ifvqee0","pricing_plan_id":"cebpf4jnsgd1na2vs0mg"},{"bike_id":"64c9d3a9-7703-49da-bec3-23a0d253fbd6","system_id":"levelo_inurba_marseille","lat":43.28699,"lon":5.39984,"is_reserved":false,"is_disabled":true,"rental_uris":{"android":"levelo://app?vid=64c9d3a9-7703-49da-bec3-23a0d253fbd6","ios":"levelo://app?vid=64c9d3a9-7703-49da-bec3-23a0d253fbd6"},"vehicle_type_id":"4","last_reported":1747854484,"current_range_meters":3200,"station_id":"ce4bho92rcd13ifvqh3g","pricing_plan_id":"cebpf4jnsgd1na2vs0mg"},{"bike_id":"7c4a4caa-f8e1-43aa-bd14-a8099ee40170","system_id":"levelo_inurba_marseille","lat":43.29024,"lon":5.38648,"is_reserved":false,"is_disabled":false,"rental_uris":{"android":"levelo://app?vid=7c4a4caa-f8e1-43aa-bd14-a8099ee40170","ios":"levelo://app?vid=7c4a4caa-f8e1-43aa-bd14-a8099ee40170"},"vehicle_type_id":"4","last_reported":1747854484,"current_range_meters":3600,"station_id":"ce4bh4p2rcd13ifvqe0g","pricing_plan_id":"cebpf4jnsgd1na2vs0mg"},{"bike_id":"b301d29e-0a2a-4b7f-bd6e-13c898d1ac97","system_id":"levelo_inurba_marseille","lat":43.29007,"lon":5.35604,"is_reserved":false,"is_disabled":false,"rental_uris":{"android":"levelo://app?vid=b301d29e-0a2a-4b7f-bd6e-13c898d1ac97","ios":"levelo://app?vid=b301d29e-0a2a-4b7f-bd6e-13c898d1ac97"},"vehicle_type_id":"4","last_reported":1747854484,"current_range_meters":3600,"station_id":"ce4bhb92rcd13ifvqen0","pricing_plan_id":"cebpf4jnsgd1na2vs0mg"},{"bike_id":"cb9884ed-3f11-4b90-9d83-5186d163c8d3","system_id":"levelo_inurba_marseille","lat":43.274234,"lon":5.394244,"is_reserved":false,"is_disabled":false,"rental_uris":{"android":"levelo://app?vid=cb9884ed-3f11-4b90-9d83-5186d163c8d3","ios":"levelo://app?vid=cb9884ed-3f11-4b90-9d83-5186d163c8d3"},"vehicle_type_id":"4","last_reported":1747854484,"current_range_meters":3600,"station_id":"ce4bhdp2rcd13ifvqf20","pricing_plan_id":"cebpf4jnsgd1na2vs0mg"},{"bike_id":"a25d6daf-574a-455d-ab62-90d68297f946","system_id":"levelo_inurba_marseille","lat":43.27349,"lon":5.39096,"is_reserved":false,"is_disabled":false,"rental_uris":{"android":"levelo://app?vid=a25d6daf-574a-455d-ab62-90d68297f946","ios":"levelo://app?vid=a25d6daf-574a-455d-ab62-90d68297f946"},"vehicle_type_id":"4","last_reported":1747854484,"current_range_meters":3600,"station_id":"ce4bhgp2rcd13ifvqfe0","pricing_plan_id":"cebpf4jnsgd1na2vs0mg"},{"bike_id":"7729151d-6270-499d-aae8-c9454138c746","system_id":"levelo_inurba_marseille","lat":43.24184,"lon":5.39737,"is_reserved":false,"is_disabled":false,"rental_uris":{"android":"levelo://app?vid=7729151d-6270-499d-aae8-c9454138c746","ios":"levelo://app?vid=7729151d-6270-499d-aae8-c9454138c746"},"vehicle_type_id":"4","last_reported":1747854484,"current_range_meters":3600,"station_id":"ce4bhn12rcd13ifvqgpg","pricing_plan_id":"cebpf4jnsgd1na2vs0mg"},{"bike_id":"8a19d7fa-55c1-4954-a568-2bacf8294193","system_id":"levelo_inurba_marseille","lat":43.275,"lon":5.42456,"is_reserved":false,"is_disabled":false,"rental_uris":{"android":"levelo://app?vid=8a19d7fa-55c1-4954-a568-2bacf8294193","ios":"levelo://app?vid=8a19d7fa-55c1-4954-a568-2bacf8294193"},"vehicle_type_id":"4","last_reported":1747854484,"current_range_meters":3600,"station_id":"ce4bhn92rcd13ifvqgrg","pricing_plan_id":"cebpf4jnsgd1na2vs0mg"},{"bike_id":"3491e2d1-10d6-4eaf-9467-4ee762672182","system_id":"levelo_inurba_marseille","lat":43.28087,"lon":5.39634,"is_reserved":false,"is_disabled":false,"rental_uris":{"android":"levelo://app?vid=3491e2d1-10d6-4eaf-9467-4ee762672182","ios":"levelo://app?vid=3491e2d1-10d6-4eaf-9467-4ee762672182"},"vehicle_type_id":"4","last_reported":1747854484,"current_range_meters":3600,"station_id":"ce4bho12rcd13ifvqh2g","pricing_plan_id":"cebpf4jnsgd1na2vs0mg"},{"bike_id":"7ba61454-dee3-48e5-a7f9-c175ec19034b","system_id":"levelo_inurba_marseille","lat":43.293,"lon":5.37457,"is_reserved":false,"is_disabled":false,"rental_uris":{"android":"levelo://app?vid=7ba61454-dee3-48e5-a7f9-c175ec19034b","ios":"levelo://app?vid=7ba61454-dee3-48e5-a7f9-c175ec19034b"},"vehicle_type_id":"4","last_reported":1747854484,"current_range_meters":4000,"station_id":"ce4bgi12rcd13ifvqb70","pricing_plan_id":"cebpf4jnsgd1na2vs0mg"},{"bike_id":"ca5eb9ee-e695-47b0-8d12-23bd3a48f1cd","system_id":"levelo_inurba_marseille","lat":43.29532,"lon":5.38535,"is_reserved":false,"is_disabled":false,"rental_uris":{"android":"levelo://app?vid=ca5eb9ee-e695-47b0-8d12-23bd3a48f1cd","ios":"levelo://app?vid=ca5eb9ee-e695-47b0-8d12-23bd3a48f1cd"},"vehicle_type_id":"4","last_reported":1747854484,"current_range_meters":4000,"station_id":"ce4bgih2rcd13ifvqba0","pricing_plan_id":"cebpf4jnsgd1na2vs0mg"},{"bike_id":"991aeec7-a4dc-48ca-a567-5bb4f142e761","system_id":"levelo_inurba_marseille","lat":43.28841,"lon":5.39332,"is_reserved":false,"is_disabled":true,"rental_uris":{"android":"levelo://app?vid=991aeec7-a4dc-48ca-a567-5bb4f142e761","ios":"levelo://app?vid=991aeec7-a4dc-48ca-a567-5bb4f142e761"},"vehicle_type_id":"4","last_reported":1747854484,"current_range_meters":4000,"station_id":"ce4bh2p2rcd13ifvqdi0","pricing_plan_id":"cebpf4jnsgd1na2vs0mg"},{"bike_id":"9701ec63-a3e1-4936-8e9d-8e020ce85711","system_id":"levelo_inurba_marseille","lat":43.29167,"lon":5.37167,"is_reserved":false,"is_disabled":false,"rental_uris":{"android":"levelo://app?vid=9701ec63-a3e1-4936-8e9d-8e020ce85711","ios":"levelo://app?vid=9701ec63-a3e1-4936-8e9d-8e020ce85711"},"vehicle_type_id":"4","last_reported":1747854484,"current_range_meters":4000,"station_id":"ce4bha92rcd13ifvqeh0","pricing_plan_id":"cebpf4jnsgd1na2vs0mg"},{"bike_id":"c13d9b11-2e28-4a3e-a8be-b431a30388c4","system_id":"levelo_inurba_marseille","lat":43.25119,"lon":5.40315,"is_reserved":false,"is_disabled":false,"rental_uris":{"android":"levelo://app?vid=c13d9b11-2e28-4a3e-a8be-b431a30388c4","ios":"levelo://app?vid=c13d9b11-2e28-4a3e-a8be-b431a30388c4"},"vehicle_type_id":"4","last_reported":1747854484,"current_range_meters":4000,"station_id":"ce4bhlh2rcd13ifvqgig","pricing_plan_id":"cebpf4jnsgd1na2vs0mg"},{"bike_id":"25c855d1-8762-43c4-b6bd-647c38472629","system_id":"levelo_inurba_marseille","lat":43.30138,"lon":5.38787,"is_reserved":false,"is_disabled":false,"rental_uris":{"android":"levelo://app?vid=25c855d1-8762-43c4-b6bd-647c38472629","ios":"levelo://app?vid=25c855d1-8762-43c4-b6bd-647c38472629"},"vehicle_type_id":"4","last_reported":1747854484,"current_range_meters":4400,"station_id":"ce4bghh2rcd13ifvqb60","pricing_plan_id":"cebpf4jnsgd1na2vs0mg"},{"bike_id":"f3243dbb-bb02-4780-8867-bebe6ba53bed","system_id":"levelo_inurba_marseille","lat":43.24548,"lon":5.39525,"is_reserved":false,"is_disabled":false,"rental_uris":{"android":"levelo://app?vid=f3243dbb-bb02-4780-8867-bebe6ba53bed","ios":"levelo://app?vid=f3243dbb-bb02-4780-8867-bebe6ba53bed"},"vehicle_type_id":"4","last_reported":1747854484,"current_range_meters":4400,"station_id":"ce4bhlp2rcd13ifvqgjg","pricing_plan_id":"cebpf4jnsgd1na2vs0mg"},{"bike_id":"356c6ef5-004d-4216-9265-1d22524a2355","system_id":"levelo_inurba_marseille","lat":43.23181,"lon":5.3999,"is_reserved":false,"is_disabled":false,"rental_uris":{"android":"levelo://app?vid=356c6ef5-004d-4216-9265-1d22524a2355","ios":"levelo://app?vid=356c6ef5-004d-4216-9265-1d22524a2355"},"vehicle_type_id":"4","last_reported":1747854484,"current_range_meters":4400,"station_id":"ce4bhn12rcd13ifvqgqg","pricing_plan_id":"cebpf4jnsgd1na2vs0mg"},{"bike_id":"bca267d6-a1c4-408d-b675-5941b742e459","system_id":"levelo_inurba_marseille","lat":43.229257,"lon":5.353796,"is_reserved":false,"is_disabled":false,"rental_uris":{"android":"levelo://app?vid=bca267d6-a1c4-408d-b675-5941b742e459","ios":"levelo://app?vid=bca267d6-a1c4-408d-b675-5941b742e459"},"vehicle_type_id":"4","last_reported":1747854484,"current_range_meters":4800,"station_id":"","pricing_plan_id":"cebpf4jnsgd1na2vs0mg"},{"bike_id":"84d62431-e764-4f96-b959-3882453e67a4","system_id":"levelo_inurba_marseille","lat":43.30366,"lon":5.37297,"is_reserved":false,"is_disabled":false,"rental_uris":{"android":"levelo://app?vid=84d62431-e764-4f96-b959-3882453e67a4","ios":"levelo://app?vid=84d62431-e764-4f96-b959-3882453e67a4"},"vehicle_type_id":"4","last_reported":1747854484,"current_range_meters":4800,"station_id":"","pricing_plan_id":"cebpf4jnsgd1na2vs0mg"},{"bike_id":"cc699311-6a6a-4b35-88a6-27d0fe740b67","system_id":"levelo_inurba_marseille","lat":43.29084,"lon":5.38143,"is_reserved":false,"is_disabled":false,"rental_uris":{"android":"levelo://app?vid=cc699311-6a6a-4b35-88a6-27d0fe740b67","ios":"levelo://app?vid=cc699311-6a6a-4b35-88a6-27d0fe740b67"},"vehicle_type_id":"4","last_reported":1747854484,"current_range_meters":4800,"station_id":"ce4bh512rcd13ifvqe2g","pricing_plan_id":"cebpf4jnsgd1na2vs0mg"},{"bike_id":"19725071-7101-49bc-8fd2-a657fe1b9e1d","system_id":"levelo_inurba_marseille","lat":43.27847,"lon":5.39207,"is_reserved":false,"is_disabled":false,"rental_uris":{"android":"levelo://app?vid=19725071-7101-49bc-8fd2-a657fe1b9e1d","ios":"levelo://app?vid=19725071-7101-49bc-8fd2-a657fe1b9e1d"},"vehicle_type_id":"4","last_reported":1747854484,"current_range_meters":4800,"station_id":"ce4bhjp2rcd13ifvqga0","pricing_plan_id":"cebpf4jnsgd1na2vs0mg"},{"bike_id":"b06e1ca8-a7a3-4e47-ba85-815e199d0d97","system_id":"levelo_inurba_marseille","lat":43.26217,"lon":5.40451,"is_reserved":false,"is_disabled":false,"rental_uris":{"android":"levelo://app?vid=b06e1ca8-a7a3-4e47-ba85-815e199d0d97","ios":"levelo://app?vid=b06e1ca8-a7a3-4e47-ba85-815e199d0d97"},"vehicle_type_id":"4","last_reported":1747854484,"current_range_meters":4800,"station_id":"ce4bhmh2rcd13ifvqgmg","pricing_plan_id":"cebpf4jnsgd1na2vs0mg"},{"bike_id":"facd851b-a0dd-4931-913d-2719efd2c117","system_id":"levelo_inurba_marseille","lat":43.27991,"lon":5.40023,"is_reserved":false,"is_disabled":false,"rental_uris":{"android":"levelo://app?vid=facd851b-a0dd-4931-913d-2719efd2c117","ios":"levelo://app?vid=facd851b-a0dd-4931-913d-2719efd2c117"},"vehicle_type_id":"4","last_reported":1747854484,"current_range_meters":4800,"station_id":"ce4bho92rcd13ifvqh4g","pricing_plan_id":"cebpf4jnsgd1na2vs0mg"},{"bike_id":"18959684-2a54-429f-b747-ca39b85c90b6","system_id":"levelo_inurba_marseille","lat":43.279816,"lon":5.400015,"is_reserved":false,"is_disabled":false,"rental_uris":{"android":"levelo://app?vid=18959684-2a54-429f-b747-ca39b85c90b6","ios":"levelo://app?vid=18959684-2a54-429f-b747-ca39b85c90b6"},"vehicle_type_id":"4","last_reported":1747854484,"current_range_meters":4800,"station_id":"ce4bho92rcd13ifvqh4g","pricing_plan_id":"cebpf4jnsgd1na2vs0mg"},{"bike_id":"3cceb80d-622b-4ad7-bff8-e5ce3b6e9f81","system_id":"levelo_inurba_marseille","lat":43.27992,"lon":5.40009,"is_reserved":false,"is_disabled":false,"rental_uris":{"android":"levelo://app?vid=3cceb80d-622b-4ad7-bff8-e5ce3b6e9f81","ios":"levelo://app?vid=3cceb80d-622b-4ad7-bff8-e5ce3b6e9f81"},"vehicle_type_id":"4","last_reported":1747854484,"current_range_meters":4800,"station_id":"ce4bho92rcd13ifvqh4g","pricing_plan_id":"cebpf4jnsgd1na2vs0mg"},{"bike_id":"8821936a-ed67-4225-8458-b8d62cad46ab","system_id":"levelo_inurba_marseille","lat":43.23207,"lon":5.35556,"is_reserved":false,"is_disabled":false,"rental_uris":{"android":"levelo://app?vid=8821936a-ed67-4225-8458-b8d62cad46ab","ios":"levelo://app?vid=8821936a-ed67-4225-8458-b8d62cad46ab"},"vehicle_type_id":"4","last_reported":1747854484,"current_range_meters":4800,"station_id":"ce4bhu92rcd13ifvqi70","pricing_plan_id":"cebpf4jnsgd1na2vs0mg"},{"bike_id":"bffbaf88-357a-4e87-a68c-a9a27a6e01e6","system_id":"levelo_inurba_marseille","lat":43.26228,"lon":5.42133,"is_reserved":false,"is_disabled":false,"rental_uris":{"android":"levelo://app?vid=bffbaf88-357a-4e87-a68c-a9a27a6e01e6","ios":"levelo://app?vid=bffbaf88-357a-4e87-a68c-a9a27a6e01e6"},"vehicle_type_id":"4","last_reported":1747854484,"current_range_meters":5600,"station_id":"","pricing_plan_id":"cebpf4jnsgd1na2vs0mg"},{"bike_id":"15dcdbbd-a41e-43eb-9ed6-26ec15ce7a50","system_id":"levelo_inurba_marseille","lat":43.21401,"lon":5.34115,"is_reserved":false,"is_disabled":false,"rental_uris":{"android":"levelo://app?vid=15dcdbbd-a41e-43eb-9ed6-26ec15ce7a50","ios":"levelo://app?vid=15dcdbbd-a41e-43eb-9ed6-26ec15ce7a50"},"vehicle_type_id":"4","last_reported":1747854484,"current_range_meters":5600,"station_id":"","pricing_plan_id":"cebpf4jnsgd1na2vs0mg"},{"bike_id":"badf7446-eba7-4e16-a9fe-db1ac0d3ae55","system_id":"levelo_inurba_marseille","lat":43.28403,"lon":5.37511,"is_reserved":false,"is_disabled":false,"rental_uris":{"android":"levelo://app?vid=badf7446-eba7-4e16-a9fe-db1ac0d3ae55","ios":"levelo://app?vid=badf7446-eba7-4e16-a9fe-db1ac0d3ae55"},"vehicle_type_id":"4","last_reported":1747854484,"current_range_meters":5600,"station_id":"ce4bh412rcd13ifvqds0","pricing_plan_id":"cebpf4jnsgd1na2vs0mg"},{"bike_id":"3a381c57-e3c7-4fa2-9985-55be041adaa5","system_id":"levelo_inurba_marseille","lat":43.28984,"lon":5.37824,"is_reserved":false,"is_disabled":false,"rental_uris":{"android":"levelo://app?vid=3a381c57-e3c7-4fa2-9985-55be041adaa5","ios":"levelo://app?vid=3a381c57-e3c7-4fa2-9985-55be041adaa5"},"vehicle_type_id":"4","last_reported":1747854484,"current_range_meters":5600,"station_id":"ce4bh9p2rcd13ifvqed0","pricing_plan_id":"cebpf4jnsgd1na2vs0mg"},{"bike_id":"73e6fc32-6dbe-48f3-bec4-ac19f86adf46","system_id":"levelo_inurba_marseille","lat":43.29794,"lon":5.39333,"is_reserved":false,"is_disabled":false,"rental_uris":{"android":"levelo://app?vid=73e6fc32-6dbe-48f3-bec4-ac19f86adf46","ios":"levelo://app?vid=73e6fc32-6dbe-48f3-bec4-ac19f86adf46"},"vehicle_type_id":"4","last_reported":1747854484,"current_range_meters":5600,"station_id":"chh1huq6cuj3fo74tm60","pricing_plan_id":"cebpf4jnsgd1na2vs0mg"},{"bike_id":"348511e0-a66f-4844-8bde-0a5add92e6f9","system_id":"levelo_inurba_marseille","lat":43.29261,"lon":5.37618,"is_reserved":false,"is_disabled":false,"rental_uris":{"android":"levelo://app?vid=348511e0-a66f-4844-8bde-0a5add92e6f9","ios":"levelo://app?vid=348511e0-a66f-4844-8bde-0a5add92e6f9"},"vehicle_type_id":"4","last_reported":1747854484,"current_range_meters":6000,"station_id":"ce4bgi12rcd13ifvqb80","pricing_plan_id":"cebpf4jnsgd1na2vs0mg"},{"bike_id":"c4b7b5c3-c6e6-4391-97ce-d5e6b6627760","system_id":"levelo_inurba_marseille","lat":43.29917,"lon":5.37487,"is_reserved":false,"is_disabled":false,"rental_uris":{"android":"levelo://app?vid=c4b7b5c3-c6e6-4391-97ce-d5e6b6627760","ios":"levelo://app?vid=c4b7b5c3-c6e6-4391-97ce-d5e6b6627760"},"vehicle_type_id":"4","last_reported":1747854484,"current_range_meters":6000,"station_id":"ce4bgjh2rcd13ifvqbg0","pricing_plan_id":"cebpf4jnsgd1na2vs0mg"},{"bike_id":"8094487d-d858-4494-82bb-e73f67f4eda0","system_id":"levelo_inurba_marseille","lat":43.31701,"lon":5.37769,"is_reserved":false,"is_disabled":false,"rental_uris":{"android":"levelo://app?vid=8094487d-d858-4494-82bb-e73f67f4eda0","ios":"levelo://app?vid=8094487d-d858-4494-82bb-e73f67f4eda0"},"vehicle_type_id":"4","last_reported":1747854484,"current_range_meters":6000,"station_id":"ce4bgth2rcd13ifvqch0","pricing_plan_id":"cebpf4jnsgd1na2vs0mg"},{"bike_id":"cbe70f59-e2e0-4fa1-aaf6-ab14de6ef766","system_id":"levelo_inurba_marseille","lat":43.29571,"lon":5.39973,"is_reserved":false,"is_disabled":false,"rental_uris":{"android":"levelo://app?vid=cbe70f59-e2e0-4fa1-aaf6-ab14de6ef766","ios":"levelo://app?vid=cbe70f59-e2e0-4fa1-aaf6-ab14de6ef766"},"vehicle_type_id":"4","last_reported":1747854484,"current_range_meters":6000,"station_id":"ce4bh312rcd13ifvqdj0","pricing_plan_id":"cebpf4jnsgd1na2vs0mg"},{"bike_id":"d9927bf4-e4e5-4010-9382-75c41a3213ff","system_id":"levelo_inurba_marseille","lat":43.28408,"lon":5.37512,"is_reserved":false,"is_disabled":false,"rental_uris":{"android":"levelo://app?vid=d9927bf4-e4e5-4010-9382-75c41a3213ff","ios":"levelo://app?vid=d9927bf4-e4e5-4010-9382-75c41a3213ff"},"vehicle_type_id":"4","last_reported":1747854484,"current_range_meters":6000,"station_id":"ce4bh412rcd13ifvqds0","pricing_plan_id":"cebpf4jnsgd1na2vs0mg"},{"bike_id":"6bf1b2a1-4f49-4bd2-ad2d-888585ebe386","system_id":"levelo_inurba_marseille","lat":43.29498,"lon":5.37765,"is_reserved":false,"is_disabled":false,"rental_uris":{"android":"levelo://app?vid=6bf1b2a1-4f49-4bd2-ad2d-888585ebe386","ios":"levelo://app?vid=6bf1b2a1-4f49-4bd2-ad2d-888585ebe386"},"vehicle_type_id":"4","last_reported":1747854484,"current_range_meters":6400,"station_id":"","pricing_plan_id":"cebpf4jnsgd1na2vs0mg"},{"bike_id":"34777f93-f0cd-43e0-ad65-0f9e7873d2fc","system_id":"levelo_inurba_marseille","lat":43.2872,"lon":5.37932,"is_reserved":false,"is_disabled":false,"rental_uris":{"android":"levelo://app?vid=34777f93-f0cd-43e0-ad65-0f9e7873d2fc","ios":"levelo://app?vid=34777f93-f0cd-43e0-ad65-0f9e7873d2fc"},"vehicle_type_id":"4","last_reported":1747854484,"current_range_meters":6400,"station_id":"ce4bh9p2rcd13ifvqec0","pricing_plan_id":"cebpf4jnsgd1na2vs0mg"},{"bike_id":"b28d5a42-d9b9-4408-a163-f7b8cf56f036","system_id":"levelo_inurba_marseille","lat":43.28088,"lon":5.39661,"is_reserved":false,"is_disabled":false,"rental_uris":{"android":"levelo://app?vid=b28d5a42-d9b9-4408-a163-f7b8cf56f036","ios":"levelo://app?vid=b28d5a42-d9b9-4408-a163-f7b8cf56f036"},"vehicle_type_id":"4","last_reported":1747854484,"current_range_meters":6400,"station_id":"ce4bho12rcd13ifvqh2g","pricing_plan_id":"cebpf4jnsgd1na2vs0mg"},{"bike_id":"f641e1e0-c6f9-4f11-ac61-19e51c89cabf","system_id":"levelo_inurba_marseille","lat":43.324257,"lon":5.403578,"is_reserved":false,"is_disabled":false,"rental_uris":{"android":"levelo://app?vid=f641e1e0-c6f9-4f11-ac61-19e51c89cabf","ios":"levelo://app?vid=f641e1e0-c6f9-4f11-ac61-19e51c89cabf"},"vehicle_type_id":"4","last_reported":1747854484,"current_range_meters":6800,"station_id":"","pricing_plan_id":"cebpf4jnsgd1na2vs0mg"},{"bike_id":"b8b511c7-6f48-45be-97af-1e0036b54cc5","system_id":"levelo_inurba_marseille","lat":43.27359,"lon":5.42405,"is_reserved":false,"is_disabled":false,"rental_uris":{"android":"levelo://app?vid=b8b511c7-6f48-45be-97af-1e0036b54cc5","ios":"levelo://app?vid=b8b511c7-6f48-45be-97af-1e0036b54cc5"},"vehicle_type_id":"4","last_reported":1747854484,"current_range_meters":6800,"station_id":"","pricing_plan_id":"cebpf4jnsgd1na2vs0mg"},{"bike_id":"82968051-8594-4a62-91d1-1b7f22ebffb1","system_id":"levelo_inurba_marseille","lat":43.29681,"lon":5.37289,"is_reserved":false,"is_disabled":false,"rental_uris":{"android":"levelo://app?vid=82968051-8594-4a62-91d1-1b7f22ebffb1","ios":"levelo://app?vid=82968051-8594-4a62-91d1-1b7f22ebffb1"},"vehicle_type_id":"4","last_reported":1747854484,"current_range_meters":6800,"station_id":"ce4bgk12rcd13ifvqbj0","pricing_plan_id":"cebpf4jnsgd1na2vs0mg"},{"bike_id":"adbe06b7-c346-4f63-bf16-e42556ee2fcf","system_id":"levelo_inurba_marseille","lat":43.29025,"lon":5.38628,"is_reserved":false,"is_disabled":false,"rental_uris":{"android":"levelo://app?vid=adbe06b7-c346-4f63-bf16-e42556ee2fcf","ios":"levelo://app?vid=adbe06b7-c346-4f63-bf16-e42556ee2fcf"},"vehicle_type_id":"4","last_reported":1747854484,"current_range_meters":6800,"station_id":"ce4bh4p2rcd13ifvqe0g","pricing_plan_id":"cebpf4jnsgd1na2vs0mg"},{"bike_id":"26bed040-add8-4eb3-b0c1-0581bc690645","system_id":"levelo_inurba_marseille","lat":43.29024,"lon":5.3864,"is_reserved":false,"is_disabled":false,"rental_uris":{"android":"levelo://app?vid=26bed040-add8-4eb3-b0c1-0581bc690645","ios":"levelo://app?vid=26bed040-add8-4eb3-b0c1-0581bc690645"},"vehicle_type_id":"4","last_reported":1747854484,"current_range_meters":6800,"station_id":"ce4bh4p2rcd13ifvqe0g","pricing_plan_id":"cebpf4jnsgd1na2vs0mg"},{"bike_id":"95e6add2-227f-42f0-bbd6-5a7cc45f83d3","system_id":"levelo_inurba_marseille","lat":43.26218,"lon":5.4043,"is_reserved":false,"is_disabled":false,"rental_uris":{"android":"levelo://app?vid=95e6add2-227f-42f0-bbd6-5a7cc45f83d3","ios":"levelo://app?vid=95e6add2-227f-42f0-bbd6-5a7cc45f83d3"},"vehicle_type_id":"4","last_reported":1747854484,"current_range_meters":6800,"station_id":"ce4bhmh2rcd13ifvqgmg","pricing_plan_id":"cebpf4jnsgd1na2vs0mg"},{"bike_id":"0c4b6638-f1ec-460e-8063-7863c3cfd732","system_id":"levelo_inurba_marseille","lat":43.21756,"lon":5.34585,"is_reserved":false,"is_disabled":false,"rental_uris":{"android":"levelo://app?vid=0c4b6638-f1ec-460e-8063-7863c3cfd732","ios":"levelo://app?vid=0c4b6638-f1ec-460e-8063-7863c3cfd732"},"vehicle_type_id":"4","last_reported":1747854484,"current_range_meters":6800,"station_id":"st_cvj6r9ubvosntc0bgbag","pricing_plan_id":"cebpf4jnsgd1na2vs0mg"},{"bike_id":"e8162579-a5ad-485f-ad83-fec8a2ebe7e1","system_id":"levelo_inurba_marseille","lat":43.26826,"lon":5.39099,"is_reserved":false,"is_disabled":false,"rental_uris":{"android":"levelo://app?vid=e8162579-a5ad-485f-ad83-fec8a2ebe7e1","ios":"levelo://app?vid=e8162579-a5ad-485f-ad83-fec8a2ebe7e1"},"vehicle_type_id":"4","last_reported":1747854484,"current_range_meters":7200,"station_id":"","pricing_plan_id":"cebpf4jnsgd1na2vs0mg"},{"bike_id":"3552fbf2-b43a-446f-93f5-d695fc251b73","system_id":"levelo_inurba_marseille","lat":43.25236,"lon":5.37493,"is_reserved":false,"is_disabled":false,"rental_uris":{"android":"levelo://app?vid=3552fbf2-b43a-446f-93f5-d695fc251b73","ios":"levelo://app?vid=3552fbf2-b43a-446f-93f5-d695fc251b73"},"vehicle_type_id":"4","last_reported":1747854484,"current_range_meters":7200,"station_id":"","pricing_plan_id":"cebpf4jnsgd1na2vs0mg"},{"bike_id":"07d11e4e-c3a1-496d-bc5c-1a567b4d615d","system_id":"levelo_inurba_marseille","lat":43.29572,"lon":5.38548,"is_reserved":false,"is_disabled":false,"rental_uris":{"android":"levelo://app?vid=07d11e4e-c3a1-496d-bc5c-1a567b4d615d","ios":"levelo://app?vid=07d11e4e-c3a1-496d-bc5c-1a567b4d615d"},"vehicle_type_id":"4","last_reported":1747854484,"current_range_meters":7200,"station_id":"ce4bgih2rcd13ifvqba0","pricing_plan_id":"cebpf4jnsgd1na2vs0mg"},{"bike_id":"7f0e8980-b302-4d48-abb7-048922c2eaec","system_id":"levelo_inurba_marseille","lat":43.28003,"lon":5.40006,"is_reserved":false,"is_disabled":false,"rental_uris":{"android":"levelo://app?vid=7f0e8980-b302-4d48-abb7-048922c2eaec","ios":"levelo://app?vid=7f0e8980-b302-4d48-abb7-048922c2eaec"},"vehicle_type_id":"4","last_reported":1747854484,"current_range_meters":7200,"station_id":"ce4bho92rcd13ifvqh4g","pricing_plan_id":"cebpf4jnsgd1na2vs0mg"},{"bike_id":"e88fa6d0-0b05-48e3-91dd-5036cdf5aa6a","system_id":"levelo_inurba_marseille","lat":43.31011,"lon":5.36994,"is_reserved":false,"is_disabled":false,"rental_uris":{"android":"levelo://app?vid=e88fa6d0-0b05-48e3-91dd-5036cdf5aa6a","ios":"levelo://app?vid=e88fa6d0-0b05-48e3-91dd-5036cdf5aa6a"},"vehicle_type_id":"4","last_reported":1747854484,"current_range_meters":8000,"station_id":"","pricing_plan_id":"cebpf4jnsgd1na2vs0mg"},{"bike_id":"18265a76-7677-4cf6-8aca-3e777b8bcf2f","system_id":"levelo_inurba_marseille","lat":43.295366,"lon":5.385462,"is_reserved":false,"is_disabled":false,"rental_uris":{"android":"levelo://app?vid=18265a76-7677-4cf6-8aca-3e777b8bcf2f","ios":"levelo://app?vid=18265a76-7677-4cf6-8aca-3e777b8bcf2f"},"vehicle_type_id":"4","last_reported":1747854484,"current_range_meters":8000,"station_id":"ce4bgih2rcd13ifvqba0","pricing_plan_id":"cebpf4jnsgd1na2vs0mg"},{"bike_id":"64a9ed63-8d39-4e32-8aed-b5b0e67b6a92","system_id":"levelo_inurba_marseille","lat":43.29413,"lon":5.38634,"is_reserved":false,"is_disabled":false,"rental_uris":{"android":"levelo://app?vid=64a9ed63-8d39-4e32-8aed-b5b0e67b6a92","ios":"levelo://app?vid=64a9ed63-8d39-4e32-8aed-b5b0e67b6a92"},"vehicle_type_id":"4","last_reported":1747854484,"current_range_meters":8000,"station_id":"ce4bh2h2rcd13ifvqdh0","pricing_plan_id":"cebpf4jnsgd1na2vs0mg"},{"bike_id":"9c2fd1e2-a3a5-40ee-b862-138d34fba397","system_id":"levelo_inurba_marseille","lat":43.29038,"lon":5.39966,"is_reserved":false,"is_disabled":false,"rental_uris":{"android":"levelo://app?vid=9c2fd1e2-a3a5-40ee-b862-138d34fba397","ios":"levelo://app?vid=9c2fd1e2-a3a5-40ee-b862-138d34fba397"},"vehicle_type_id":"4","last_reported":1747854484,"current_range_meters":8000,"station_id":"ce4bh392rcd13ifvqdm0","pricing_plan_id":"cebpf4jnsgd1na2vs0mg"},{"bike_id":"5d999a17-3017-46fc-b744-e0316bb20dfa","system_id":"levelo_inurba_marseille","lat":43.28855,"lon":5.35832,"is_reserved":false,"is_disabled":false,"rental_uris":{"android":"levelo://app?vid=5d999a17-3017-46fc-b744-e0316bb20dfa","ios":"levelo://app?vid=5d999a17-3017-46fc-b744-e0316bb20dfa"},"vehicle_type_id":"4","last_reported":1747854484,"current_range_meters":8000,"station_id":"ce4bhb12rcd13ifvqem0","pricing_plan_id":"cebpf4jnsgd1na2vs0mg"},{"bike_id":"00b47c40-cb84-4eac-94f5-fb7035ba35f2","system_id":"levelo_inurba_marseille","lat":43.278387,"lon":5.392113,"is_reserved":false,"is_disabled":false,"rental_uris":{"android":"levelo://app?vid=00b47c40-cb84-4eac-94f5-fb7035ba35f2","ios":"levelo://app?vid=00b47c40-cb84-4eac-94f5-fb7035ba35f2"},"vehicle_type_id":"4","last_reported":1747854484,"current_range_meters":8000,"station_id":"ce4bhjp2rcd13ifvqga0","pricing_plan_id":"cebpf4jnsgd1na2vs0mg"},{"bike_id":"ce957892-d8fd-466d-b919-bf46004edc46","system_id":"levelo_inurba_marseille","lat":43.27841,"lon":5.39204,"is_reserved":false,"is_disabled":false,"rental_uris":{"android":"levelo://app?vid=ce957892-d8fd-466d-b919-bf46004edc46","ios":"levelo://app?vid=ce957892-d8fd-466d-b919-bf46004edc46"},"vehicle_type_id":"4","last_reported":1747854484,"current_range_meters":8000,"station_id":"ce4bhjp2rcd13ifvqga0","pricing_plan_id":"cebpf4jnsgd1na2vs0mg"},{"bike_id":"0d2fd821-fd00-4e94-b9e9-d81a1d4f2ae6","system_id":"levelo_inurba_marseille","lat":43.25122,"lon":5.40312,"is_reserved":false,"is_disabled":false,"rental_uris":{"android":"levelo://app?vid=0d2fd821-fd00-4e94-b9e9-d81a1d4f2ae6","ios":"levelo://app?vid=0d2fd821-fd00-4e94-b9e9-d81a1d4f2ae6"},"vehicle_type_id":"4","last_reported":1747854484,"current_range_meters":8000,"station_id":"ce4bhlh2rcd13ifvqgig","pricing_plan_id":"cebpf4jnsgd1na2vs0mg"},{"bike_id":"7aab3b51-cfd2-4fc5-b4bc-2e912620d24e","system_id":"levelo_inurba_marseille","lat":43.28144,"lon":5.42652,"is_reserved":false,"is_disabled":false,"rental_uris":{"android":"levelo://app?vid=7aab3b51-cfd2-4fc5-b4bc-2e912620d24e","ios":"levelo://app?vid=7aab3b51-cfd2-4fc5-b4bc-2e912620d24e"},"vehicle_type_id":"4","last_reported":1747854484,"current_range_meters":8000,"station_id":"ce4bhnh2rcd13ifvqgug","pricing_plan_id":"cebpf4jnsgd1na2vs0mg"},{"bike_id":"11bed814-c3b5-4678-a418-5fd51d17bb43","system_id":"levelo_inurba_marseille","lat":43.28,"lon":5.41662,"is_reserved":false,"is_disabled":false,"rental_uris":{"android":"levelo://app?vid=11bed814-c3b5-4678-a418-5fd51d17bb43","ios":"levelo://app?vid=11bed814-c3b5-4678-a418-5fd51d17bb43"},"vehicle_type_id":"4","last_reported":1747854484,"current_range_meters":8000,"station_id":"ce4bho12rcd13ifvqh1g","pricing_plan_id":"cebpf4jnsgd1na2vs0mg"},{"bike_id":"1ff4dd87-bf56-4ab1-8365-aad71fcb827c","system_id":"levelo_inurba_marseille","lat":43.316076,"lon":5.423906,"is_reserved":false,"is_disabled":false,"rental_uris":{"android":"levelo://app?vid=1ff4dd87-bf56-4ab1-8365-aad71fcb827c","ios":"levelo://app?vid=1ff4dd87-bf56-4ab1-8365-aad71fcb827c"},"vehicle_type_id":"4","last_reported":1747854484,"current_range_meters":8000,"station_id":"ce4bhp92rcd13ifvqhbg","pricing_plan_id":"cebpf4jnsgd1na2vs0mg"},{"bike_id":"103450c0-eff4-42bc-bcce-ed42d8883806","system_id":"levelo_inurba_marseille","lat":43.286688,"lon":5.415671,"is_reserved":false,"is_disabled":false,"rental_uris":{"android":"levelo://app?vid=103450c0-eff4-42bc-bcce-ed42d8883806","ios":"levelo://app?vid=103450c0-eff4-42bc-bcce-ed42d8883806"},"vehicle_type_id":"4","last_reported":1747854484,"current_range_meters":8400,"station_id":"","pricing_plan_id":"cebpf4jnsgd1na2vs0mg"},{"bike_id":"24518e27-fce3-4c9f-9ebe-7aad23acfb9a","system_id":"levelo_inurba_marseille","lat":43.27621,"lon":5.36105,"is_reserved":false,"is_disabled":false,"rental_uris":{"android":"levelo://app?vid=24518e27-fce3-4c9f-9ebe-7aad23acfb9a","ios":"levelo://app?vid=24518e27-fce3-4c9f-9ebe-7aad23acfb9a"},"vehicle_type_id":"4","last_reported":1747854484,"current_range_meters":8400,"station_id":"ce4bgj92rcd13ifvqbe0","pricing_plan_id":"cebpf4jnsgd1na2vs0mg"},{"bike_id":"f549fa19-0d0c-4783-93a3-93dc52000a0d","system_id":"levelo_inurba_marseille","lat":43.30937,"lon":5.40144,"is_reserved":false,"is_disabled":false,"rental_uris":{"android":"levelo://app?vid=f549fa19-0d0c-4783-93a3-93dc52000a0d","ios":"levelo://app?vid=f549fa19-0d0c-4783-93a3-93dc52000a0d"},"vehicle_type_id":"4","last_reported":1747854484,"current_range_meters":8400,"station_id":"ce4bgvp2rcd13ifvqct0","pricing_plan_id":"cebpf4jnsgd1na2vs0mg"},{"bike_id":"f038d199-ceeb-4e0e-9367-d461a87a9f76","system_id":"levelo_inurba_marseille","lat":43.27837,"lon":5.39214,"is_reserved":false,"is_disabled":false,"rental_uris":{"android":"levelo://app?vid=f038d199-ceeb-4e0e-9367-d461a87a9f76","ios":"levelo://app?vid=f038d199-ceeb-4e0e-9367-d461a87a9f76"},"vehicle_type_id":"4","last_reported":1747854484,"current_range_meters":8400,"station_id":"ce4bhjp2rcd13ifvqga0","pricing_plan_id":"cebpf4jnsgd1na2vs0mg"},{"bike_id":"7b19ae3d-375f-484a-ac22-3d52f30e632f","system_id":"levelo_inurba_marseille","lat":43.232,"lon":5.39978,"is_reserved":false,"is_disabled":false,"rental_uris":{"android":"levelo://app?vid=7b19ae3d-375f-484a-ac22-3d52f30e632f","ios":"levelo://app?vid=7b19ae3d-375f-484a-ac22-3d52f30e632f"},"vehicle_type_id":"4","last_reported":1747854484,"current_range_meters":8400,"station_id":"ce4bhn12rcd13ifvqgqg","pricing_plan_id":"cebpf4jnsgd1na2vs0mg"},{"bike_id":"523c51a0-4f9e-4594-9a7b-b8d370f02cd8","system_id":"levelo_inurba_marseille","lat":43.24074,"lon":5.37768,"is_reserved":false,"is_disabled":false,"rental_uris":{"android":"levelo://app?vid=523c51a0-4f9e-4594-9a7b-b8d370f02cd8","ios":"levelo://app?vid=523c51a0-4f9e-4594-9a7b-b8d370f02cd8"},"vehicle_type_id":"4","last_reported":1747854484,"current_range_meters":8400,"station_id":"ce4bhnp2rcd13ifvqgvg","pricing_plan_id":"cebpf4jnsgd1na2vs0mg"},{"bike_id":"ef8f3f04-00a2-4bce-8848-c66f4b30c735","system_id":"levelo_inurba_marseille","lat":43.29603,"lon":5.38099,"is_reserved":false,"is_disabled":false,"rental_uris":{"android":"levelo://app?vid=ef8f3f04-00a2-4bce-8848-c66f4b30c735","ios":"levelo://app?vid=ef8f3f04-00a2-4bce-8848-c66f4b30c735"},"vehicle_type_id":"4","last_reported":1747854484,"current_range_meters":8800,"station_id":"ce4bgl12rcd13ifvqbo0","pricing_plan_id":"cebpf4jnsgd1na2vs0mg"},{"bike_id":"da2c6273-542f-4135-bdc1-12316078fe67","system_id":"levelo_inurba_marseille","lat":43.31368,"lon":5.385,"is_reserved":false,"is_disabled":false,"rental_uris":{"android":"levelo://app?vid=da2c6273-542f-4135-bdc1-12316078fe67","ios":"levelo://app?vid=da2c6273-542f-4135-bdc1-12316078fe67"},"vehicle_type_id":"4","last_reported":1747854484,"current_range_meters":8800,"station_id":"ce4bgt92rcd13ifvqcf0","pricing_plan_id":"cebpf4jnsgd1na2vs0mg"},{"bike_id":"b51bfc84-e359-4af1-8876-c19ca114fa4c","system_id":"levelo_inurba_marseille","lat":43.31167,"lon":5.3872,"is_reserved":false,"is_disabled":false,"rental_uris":{"android":"levelo://app?vid=b51bfc84-e359-4af1-8876-c19ca114fa4c","ios":"levelo://app?vid=b51bfc84-e359-4af1-8876-c19ca114fa4c"},"vehicle_type_id":"4","last_reported":1747854484,"current_range_meters":8800,"station_id":"ce4bgv12rcd13ifvqcp0","pricing_plan_id":"cebpf4jnsgd1na2vs0mg"},{"bike_id":"ae6bc9c6-4c57-48f2-a046-9f81ebe73fb5","system_id":"levelo_inurba_marseille","lat":43.29259,"lon":5.40903,"is_reserved":false,"is_disabled":false,"rental_uris":{"android":"levelo://app?vid=ae6bc9c6-4c57-48f2-a046-9f81ebe73fb5","ios":"levelo://app?vid=ae6bc9c6-4c57-48f2-a046-9f81ebe73fb5"},"vehicle_type_id":"4","last_reported":1747854484,"current_range_meters":8800,"station_id":"ce4bh192rcd13ifvqdc0","pricing_plan_id":"cebpf4jnsgd1na2vs0mg"},{"bike_id":"cfc6aaf8-ef55-4afe-8b12-f8056021e584","system_id":"levelo_inurba_marseille","lat":43.28848,"lon":5.35888,"is_reserved":false,"is_disabled":false,"rental_uris":{"android":"levelo://app?vid=cfc6aaf8-ef55-4afe-8b12-f8056021e584","ios":"levelo://app?vid=cfc6aaf8-ef55-4afe-8b12-f8056021e584"},"vehicle_type_id":"4","last_reported":1747854484,"current_range_meters":8800,"station_id":"ce4bhb12rcd13ifvqem0","pricing_plan_id":"cebpf4jnsgd1na2vs0mg"},{"bike_id":"c6920924-1ef1-496f-bb67-1488371e842d","system_id":"levelo_inurba_marseille","lat":43.24806,"lon":5.3747,"is_reserved":false,"is_disabled":false,"rental_uris":{"android":"levelo://app?vid=c6920924-1ef1-496f-bb67-1488371e842d","ios":"levelo://app?vid=c6920924-1ef1-496f-bb67-1488371e842d"},"vehicle_type_id":"4","last_reported":1747854484,"current_range_meters":8800,"station_id":"ce4bhgh2rcd13ifvqfb0","pricing_plan_id":"cebpf4jnsgd1na2vs0mg"},{"bike_id":"a57f9f7f-d631-4520-94f2-90813d3e47c7","system_id":"levelo_inurba_marseille","lat":43.24807,"lon":5.37454,"is_reserved":false,"is_disabled":false,"rental_uris":{"android":"levelo://app?vid=a57f9f7f-d631-4520-94f2-90813d3e47c7","ios":"levelo://app?vid=a57f9f7f-d631-4520-94f2-90813d3e47c7"},"vehicle_type_id":"4","last_reported":1747854484,"current_range_meters":8800,"station_id":"ce4bhgh2rcd13ifvqfb0","pricing_plan_id":"cebpf4jnsgd1na2vs0mg"},{"bike_id":"5485c417-c53b-4353-b99b-31ac467da04f","system_id":"levelo_inurba_marseille","lat":43.24543,"lon":5.39512,"is_reserved":false,"is_disabled":false,"rental_uris":{"android":"levelo://app?vid=5485c417-c53b-4353-b99b-31ac467da04f","ios":"levelo://app?vid=5485c417-c53b-4353-b99b-31ac467da04f"},"vehicle_type_id":"4","last_reported":1747854484,"current_range_meters":8800,"station_id":"ce4bhlp2rcd13ifvqgjg","pricing_plan_id":"cebpf4jnsgd1na2vs0mg"},{"bike_id":"19b7d6ff-e486-4d98-bdc3-846ee562bb35","system_id":"levelo_inurba_marseille","lat":43.27813,"lon":5.40724,"is_reserved":false,"is_disabled":false,"rental_uris":{"android":"levelo://app?vid=19b7d6ff-e486-4d98-bdc3-846ee562bb35","ios":"levelo://app?vid=19b7d6ff-e486-4d98-bdc3-846ee562bb35"},"vehicle_type_id":"4","last_reported":1747854484,"current_range_meters":8800,"station_id":"ce4bhnh2rcd13ifvqgtg","pricing_plan_id":"cebpf4jnsgd1na2vs0mg"},{"bike_id":"dc53f8be-ab14-4142-9f04-5d373c92c9a5","system_id":"levelo_inurba_marseille","lat":43.21755,"lon":5.34599,"is_reserved":false,"is_disabled":false,"rental_uris":{"android":"levelo://app?vid=dc53f8be-ab14-4142-9f04-5d373c92c9a5","ios":"levelo://app?vid=dc53f8be-ab14-4142-9f04-5d373c92c9a5"},"vehicle_type_id":"4","last_reported":1747854484,"current_range_meters":8800,"station_id":"st_cvj6r9ubvosntc0bgbag","pricing_plan_id":"cebpf4jnsgd1na2vs0mg"},{"bike_id":"e255a5e1-f5a4-4698-b65b-d35eb6dcb8de","system_id":"levelo_inurba_marseille","lat":43.29536,"lon":5.38542,"is_reserved":false,"is_disabled":false,"rental_uris":{"android":"levelo://app?vid=e255a5e1-f5a4-4698-b65b-d35eb6dcb8de","ios":"levelo://app?vid=e255a5e1-f5a4-4698-b65b-d35eb6dcb8de"},"vehicle_type_id":"4","last_reported":1747854484,"current_range_meters":9200,"station_id":"ce4bgih2rcd13ifvqba0","pricing_plan_id":"cebpf4jnsgd1na2vs0mg"},{"bike_id":"46b79e8f-9adf-4afb-b2df-81289c666a02","system_id":"levelo_inurba_marseille","lat":43.29029,"lon":5.38646,"is_reserved":false,"is_disabled":false,"rental_uris":{"android":"levelo://app?vid=46b79e8f-9adf-4afb-b2df-81289c666a02","ios":"levelo://app?vid=46b79e8f-9adf-4afb-b2df-81289c666a02"},"vehicle_type_id":"4","last_reported":1747854484,"current_range_meters":9200,"station_id":"ce4bh4p2rcd13ifvqe0g","pricing_plan_id":"cebpf4jnsgd1na2vs0mg"},{"bike_id":"e77df88b-cdd9-4e48-b50c-e09b024a8e1f","system_id":"levelo_inurba_marseille","lat":43.28462,"lon":5.35893,"is_reserved":false,"is_disabled":false,"rental_uris":{"android":"levelo://app?vid=e77df88b-cdd9-4e48-b50c-e09b024a8e1f","ios":"levelo://app?vid=e77df88b-cdd9-4e48-b50c-e09b024a8e1f"},"vehicle_type_id":"4","last_reported":1747854484,"current_range_meters":9200,"station_id":"ce4bhah2rcd13ifvqei0","pricing_plan_id":"cebpf4jnsgd1na2vs0mg"},{"bike_id":"4fb5e083-15a9-4cee-a7d3-4c4d36180c82","system_id":"levelo_inurba_marseille","lat":43.33026,"lon":5.39037,"is_reserved":false,"is_disabled":false,"rental_uris":{"android":"levelo://app?vid=4fb5e083-15a9-4cee-a7d3-4c4d36180c82","ios":"levelo://app?vid=4fb5e083-15a9-4cee-a7d3-4c4d36180c82"},"vehicle_type_id":"4","last_reported":1747854484,"current_range_meters":9200,"station_id":"ce4bhr92rcd13ifvqhrg","pricing_plan_id":"cebpf4jnsgd1na2vs0mg"},{"bike_id":"0ad5832c-71b4-4a12-ac9d-39cb7b31a4da","system_id":"levelo_inurba_marseille","lat":43.28614,"lon":5.37076,"is_reserved":false,"is_disabled":false,"rental_uris":{"android":"levelo://app?vid=0ad5832c-71b4-4a12-ac9d-39cb7b31a4da","ios":"levelo://app?vid=0ad5832c-71b4-4a12-ac9d-39cb7b31a4da"},"vehicle_type_id":"4","last_reported":1747854484,"current_range_meters":9200,"station_id":"ce4bht12rcd13ifvqi60","pricing_plan_id":"cebpf4jnsgd1na2vs0mg"},{"bike_id":"32046273-345e-4074-81e7-b09ae43c9b83","system_id":"levelo_inurba_marseille","lat":43.29303,"lon":5.37137,"is_reserved":false,"is_disabled":false,"rental_uris":{"android":"levelo://app?vid=32046273-345e-4074-81e7-b09ae43c9b83","ios":"levelo://app?vid=32046273-345e-4074-81e7-b09ae43c9b83"},"vehicle_type_id":"4","last_reported":1747854484,"current_range_meters":9600,"station_id":"ce4bgh92rcd13ifvqb40","pricing_plan_id":"cebpf4jnsgd1na2vs0mg"},{"bike_id":"f3adcbfd-171e-42e8-b765-564e75dea920","system_id":"levelo_inurba_marseille","lat":43.29524,"lon":5.38538,"is_reserved":false,"is_disabled":false,"rental_uris":{"android":"levelo://app?vid=f3adcbfd-171e-42e8-b765-564e75dea920","ios":"levelo://app?vid=f3adcbfd-171e-42e8-b765-564e75dea920"},"vehicle_type_id":"4","last_reported":1747854484,"current_range_meters":9600,"station_id":"ce4bgih2rcd13ifvqba0","pricing_plan_id":"cebpf4jnsgd1na2vs0mg"},{"bike_id":"63a3c15b-795f-459a-b4e2-cd9d18bc556b","system_id":"levelo_inurba_marseille","lat":43.31166,"lon":5.38719,"is_reserved":false,"is_disabled":false,"rental_uris":{"android":"levelo://app?vid=63a3c15b-795f-459a-b4e2-cd9d18bc556b","ios":"levelo://app?vid=63a3c15b-795f-459a-b4e2-cd9d18bc556b"},"vehicle_type_id":"4","last_reported":1747854484,"current_range_meters":9600,"station_id":"ce4bgv12rcd13ifvqcp0","pricing_plan_id":"cebpf4jnsgd1na2vs0mg"},{"bike_id":"d3cc94e4-901b-41b8-8f4d-d1d6291d8498","system_id":"levelo_inurba_marseille","lat":43.30131,"lon":5.39884,"is_reserved":false,"is_disabled":false,"rental_uris":{"android":"levelo://app?vid=d3cc94e4-901b-41b8-8f4d-d1d6291d8498","ios":"levelo://app?vid=d3cc94e4-901b-41b8-8f4d-d1d6291d8498"},"vehicle_type_id":"4","last_reported":1747854484,"current_range_meters":9600,"station_id":"ce4bh0h2rcd13ifvqd40","pricing_plan_id":"cebpf4jnsgd1na2vs0mg"},{"bike_id":"8a2576a5-4020-436d-993e-81cb81f1afea","system_id":"levelo_inurba_marseille","lat":43.28712,"lon":5.37946,"is_reserved":false,"is_disabled":false,"rental_uris":{"android":"levelo://app?vid=8a2576a5-4020-436d-993e-81cb81f1afea","ios":"levelo://app?vid=8a2576a5-4020-436d-993e-81cb81f1afea"},"vehicle_type_id":"4","last_reported":1747854484,"current_range_meters":9600,"station_id":"ce4bh9p2rcd13ifvqec0","pricing_plan_id":"cebpf4jnsgd1na2vs0mg"},{"bike_id":"b67e7ff2-3702-4ffe-9456-c5c5e09a94ba","system_id":"levelo_inurba_marseille","lat":43.28101,"lon":5.3786,"is_reserved":false,"is_disabled":false,"rental_uris":{"android":"levelo://app?vid=b67e7ff2-3702-4ffe-9456-c5c5e09a94ba","ios":"levelo://app?vid=b67e7ff2-3702-4ffe-9456-c5c5e09a94ba"},"vehicle_type_id":"4","last_reported":1747854484,"current_range_meters":9600,"station_id":"ce4bha12rcd13ifvqee0","pricing_plan_id":"cebpf4jnsgd1na2vs0mg"},{"bike_id":"9b9721bf-bbf8-4426-9588-385c4a21fc62","system_id":"levelo_inurba_marseille","lat":43.25504,"lon":5.37649,"is_reserved":false,"is_disabled":false,"rental_uris":{"android":"levelo://app?vid=9b9721bf-bbf8-4426-9588-385c4a21fc62","ios":"levelo://app?vid=9b9721bf-bbf8-4426-9588-385c4a21fc62"},"vehicle_type_id":"4","last_reported":1747854484,"current_range_meters":9600,"station_id":"ce4bhh12rcd13ifvqff0","pricing_plan_id":"cebpf4jnsgd1na2vs0mg"},{"bike_id":"d5ea65c9-b10c-445c-90a9-5f32f306e626","system_id":"levelo_inurba_marseille","lat":43.24692,"lon":5.3816,"is_reserved":false,"is_disabled":false,"rental_uris":{"android":"levelo://app?vid=d5ea65c9-b10c-445c-90a9-5f32f306e626","ios":"levelo://app?vid=d5ea65c9-b10c-445c-90a9-5f32f306e626"},"vehicle_type_id":"4","last_reported":1747854484,"current_range_meters":9600,"station_id":"ce4bhih2rcd13ifvqfr0","pricing_plan_id":"cebpf4jnsgd1na2vs0mg"},{"bike_id":"dcbb7dc0-f0cd-4ac0-948c-2fd1d0cce904","system_id":"levelo_inurba_marseille","lat":43.284078,"lon":5.375131,"is_reserved":false,"is_disabled":false,"rental_uris":{"android":"levelo://app?vid=dcbb7dc0-f0cd-4ac0-948c-2fd1d0cce904","ios":"levelo://app?vid=dcbb7dc0-f0cd-4ac0-948c-2fd1d0cce904"},"vehicle_type_id":"4","last_reported":1747854484,"current_range_meters":10000,"station_id":"","pricing_plan_id":"cebpf4jnsgd1na2vs0mg"},{"bike_id":"3fe3d6c4-138a-47df-b6b4-e6f19e8f7d46","system_id":"levelo_inurba_marseille","lat":43.21416,"lon":5.34148,"is_reserved":false,"is_disabled":false,"rental_uris":{"android":"levelo://app?vid=3fe3d6c4-138a-47df-b6b4-e6f19e8f7d46","ios":"levelo://app?vid=3fe3d6c4-138a-47df-b6b4-e6f19e8f7d46"},"vehicle_type_id":"4","last_reported":1747854484,"current_range_meters":10000,"station_id":"","pricing_plan_id":"cebpf4jnsgd1na2vs0mg"},{"bike_id":"e8bc1a72-3451-41cd-8733-cd612e4abe68","system_id":"levelo_inurba_marseille","lat":43.29706,"lon":5.37705,"is_reserved":false,"is_disabled":false,"rental_uris":{"android":"levelo://app?vid=e8bc1a72-3451-41cd-8733-cd612e4abe68","ios":"levelo://app?vid=e8bc1a72-3451-41cd-8733-cd612e4abe68"},"vehicle_type_id":"4","last_reported":1747854484,"current_range_meters":10000,"station_id":"ce4bgkh2rcd13ifvqbl0","pricing_plan_id":"cebpf4jnsgd1na2vs0mg"},{"bike_id":"23a28aeb-3041-4758-bb57-105ea5304e53","system_id":"levelo_inurba_marseille","lat":43.294281,"lon":5.386105,"is_reserved":false,"is_disabled":false,"rental_uris":{"android":"levelo://app?vid=23a28aeb-3041-4758-bb57-105ea5304e53","ios":"levelo://app?vid=23a28aeb-3041-4758-bb57-105ea5304e53"},"vehicle_type_id":"4","last_reported":1747854484,"current_range_meters":10000,"station_id":"ce4bh2h2rcd13ifvqdh0","pricing_plan_id":"cebpf4jnsgd1na2vs0mg"},{"bike_id":"01774b76-f693-4f92-a416-781eed7d286e","system_id":"levelo_inurba_marseille","lat":43.2582,"lon":5.39428,"is_reserved":false,"is_disabled":false,"rental_uris":{"android":"levelo://app?vid=01774b76-f693-4f92-a416-781eed7d286e","ios":"levelo://app?vid=01774b76-f693-4f92-a416-781eed7d286e"},"vehicle_type_id":"4","last_reported":1747854484,"current_range_meters":10000,"station_id":"ce4bhip2rcd13ifvqft0","pricing_plan_id":"cebpf4jnsgd1na2vs0mg"},{"bike_id":"66af826f-2201-4c6a-b28e-440b1e7d87e7","system_id":"levelo_inurba_marseille","lat":43.280707,"lon":5.396506,"is_reserved":false,"is_disabled":false,"rental_uris":{"android":"levelo://app?vid=66af826f-2201-4c6a-b28e-440b1e7d87e7","ios":"levelo://app?vid=66af826f-2201-4c6a-b28e-440b1e7d87e7"},"vehicle_type_id":"4","last_reported":1747854484,"current_range_meters":10000,"station_id":"ce4bho12rcd13ifvqh2g","pricing_plan_id":"cebpf4jnsgd1na2vs0mg"},{"bike_id":"37a40661-a730-4b3b-b0b5-15accd50b9e8","system_id":"levelo_inurba_marseille","lat":43.31992,"lon":5.38152,"is_reserved":false,"is_disabled":false,"rental_uris":{"android":"levelo://app?vid=37a40661-a730-4b3b-b0b5-15accd50b9e8","ios":"levelo://app?vid=37a40661-a730-4b3b-b0b5-15accd50b9e8"},"vehicle_type_id":"4","last_reported":1747854484,"current_range_meters":10000,"station_id":"ce4bhr12rcd13ifvqhpg","pricing_plan_id":"cebpf4jnsgd1na2vs0mg"},{"bike_id":"a43f54c4-e886-4d49-8709-407ce0701240","system_id":"levelo_inurba_marseille","lat":43.30931,"lon":5.40144,"is_reserved":false,"is_disabled":false,"rental_uris":{"android":"levelo://app?vid=a43f54c4-e886-4d49-8709-407ce0701240","ios":"levelo://app?vid=a43f54c4-e886-4d49-8709-407ce0701240"},"vehicle_type_id":"4","last_reported":1747854484,"current_range_meters":10800,"station_id":"ce4bgvp2rcd13ifvqct0","pricing_plan_id":"cebpf4jnsgd1na2vs0mg"},{"bike_id":"b7a6c4f3-63d2-4144-a9c0-a4015558b2b2","system_id":"levelo_inurba_marseille","lat":43.30928,"lon":5.4014,"is_reserved":false,"is_disabled":false,"rental_uris":{"android":"levelo://app?vid=b7a6c4f3-63d2-4144-a9c0-a4015558b2b2","ios":"levelo://app?vid=b7a6c4f3-63d2-4144-a9c0-a4015558b2b2"},"vehicle_type_id":"4","last_reported":1747854484,"current_range_meters":10800,"station_id":"ce4bgvp2rcd13ifvqct0","pricing_plan_id":"cebpf4jnsgd1na2vs0mg"},{"bike_id":"c628524f-49b4-45d7-8ca8-4060c1f1e1d1","system_id":"levelo_inurba_marseille","lat":43.28091,"lon":5.37852,"is_reserved":false,"is_disabled":false,"rental_uris":{"android":"levelo://app?vid=c628524f-49b4-45d7-8ca8-4060c1f1e1d1","ios":"levelo://app?vid=c628524f-49b4-45d7-8ca8-4060c1f1e1d1"},"vehicle_type_id":"4","last_reported":1747854484,"current_range_meters":10800,"station_id":"ce4bha12rcd13ifvqee0","pricing_plan_id":"cebpf4jnsgd1na2vs0mg"},{"bike_id":"9b1a586a-40fa-406d-8d3a-01b8c4d9b448","system_id":"levelo_inurba_marseille","lat":43.25493,"lon":5.37646,"is_reserved":false,"is_disabled":false,"rental_uris":{"android":"levelo://app?vid=9b1a586a-40fa-406d-8d3a-01b8c4d9b448","ios":"levelo://app?vid=9b1a586a-40fa-406d-8d3a-01b8c4d9b448"},"vehicle_type_id":"4","last_reported":1747854484,"current_range_meters":10800,"station_id":"ce4bhh12rcd13ifvqff0","pricing_plan_id":"cebpf4jnsgd1na2vs0mg"},{"bike_id":"a6e23164-6044-49e2-a2cf-5c57fdd5aaa1","system_id":"levelo_inurba_marseille","lat":43.27091,"lon":5.42271,"is_reserved":false,"is_disabled":false,"rental_uris":{"android":"levelo://app?vid=a6e23164-6044-49e2-a2cf-5c57fdd5aaa1","ios":"levelo://app?vid=a6e23164-6044-49e2-a2cf-5c57fdd5aaa1"},"vehicle_type_id":"4","last_reported":1747854484,"current_range_meters":10800,"station_id":"ce4bhk92rcd13ifvqgb0","pricing_plan_id":"cebpf4jnsgd1na2vs0mg"},{"bike_id":"300868af-8985-4691-8a15-ff7731614940","system_id":"levelo_inurba_marseille","lat":43.29564,"lon":5.42292,"is_reserved":false,"is_disabled":false,"rental_uris":{"android":"levelo://app?vid=300868af-8985-4691-8a15-ff7731614940","ios":"levelo://app?vid=300868af-8985-4691-8a15-ff7731614940"},"vehicle_type_id":"4","last_reported":1747854484,"current_range_meters":10800,"station_id":"ce4bhph2rcd13ifvqhdg","pricing_plan_id":"cebpf4jnsgd1na2vs0mg"},{"bike_id":"2f34c329-54fe-438b-a307-b47c6ac8481c","system_id":"levelo_inurba_marseille","lat":43.29886,"lon":5.4367,"is_reserved":false,"is_disabled":false,"rental_uris":{"android":"levelo://app?vid=2f34c329-54fe-438b-a307-b47c6ac8481c","ios":"levelo://app?vid=2f34c329-54fe-438b-a307-b47c6ac8481c"},"vehicle_type_id":"4","last_reported":1747854484,"current_range_meters":10800,"station_id":"ce4bhpp2rcd13ifvqhfg","pricing_plan_id":"cebpf4jnsgd1na2vs0mg"},{"bike_id":"b75260eb-9a92-4d9e-9e2a-1e5fe175b8c5","system_id":"levelo_inurba_marseille","lat":43.29532,"lon":5.38553,"is_reserved":false,"is_disabled":false,"rental_uris":{"android":"levelo://app?vid=b75260eb-9a92-4d9e-9e2a-1e5fe175b8c5","ios":"levelo://app?vid=b75260eb-9a92-4d9e-9e2a-1e5fe175b8c5"},"vehicle_type_id":"4","last_reported":1747854484,"current_range_meters":11200,"station_id":"ce4bgih2rcd13ifvqba0","pricing_plan_id":"cebpf4jnsgd1na2vs0mg"},{"bike_id":"c9d8760a-53d9-4dd2-8f8c-ab8e73615faa","system_id":"levelo_inurba_marseille","lat":43.309297,"lon":5.368433,"is_reserved":false,"is_disabled":false,"rental_uris":{"android":"levelo://app?vid=c9d8760a-53d9-4dd2-8f8c-ab8e73615faa","ios":"levelo://app?vid=c9d8760a-53d9-4dd2-8f8c-ab8e73615faa"},"vehicle_type_id":"4","last_reported":1747854484,"current_range_meters":11200,"station_id":"ce4bgn92rcd13ifvqbvg","pricing_plan_id":"cebpf4jnsgd1na2vs0mg"},{"bike_id":"1a989d54-db36-40ea-a499-bd3620650334","system_id":"levelo_inurba_marseille","lat":43.29574,"lon":5.39979,"is_reserved":false,"is_disabled":false,"rental_uris":{"android":"levelo://app?vid=1a989d54-db36-40ea-a499-bd3620650334","ios":"levelo://app?vid=1a989d54-db36-40ea-a499-bd3620650334"},"vehicle_type_id":"4","last_reported":1747854484,"current_range_meters":11200,"station_id":"ce4bh312rcd13ifvqdj0","pricing_plan_id":"cebpf4jnsgd1na2vs0mg"},{"bike_id":"a504471e-4900-4c27-8e74-225fa3f3e80d","system_id":"levelo_inurba_marseille","lat":43.28103,"lon":5.37832,"is_reserved":false,"is_disabled":false,"rental_uris":{"android":"levelo://app?vid=a504471e-4900-4c27-8e74-225fa3f3e80d","ios":"levelo://app?vid=a504471e-4900-4c27-8e74-225fa3f3e80d"},"vehicle_type_id":"4","last_reported":1747854484,"current_range_meters":11200,"station_id":"ce4bha12rcd13ifvqee0","pricing_plan_id":"cebpf4jnsgd1na2vs0mg"},{"bike_id":"8d2861ba-503b-473d-9df9-f5f37c993fcf","system_id":"levelo_inurba_marseille","lat":43.28839,"lon":5.3585,"is_reserved":false,"is_disabled":false,"rental_uris":{"android":"levelo://app?vid=8d2861ba-503b-473d-9df9-f5f37c993fcf","ios":"levelo://app?vid=8d2861ba-503b-473d-9df9-f5f37c993fcf"},"vehicle_type_id":"4","last_reported":1747854484,"current_range_meters":11200,"station_id":"ce4bhb12rcd13ifvqem0","pricing_plan_id":"cebpf4jnsgd1na2vs0mg"},{"bike_id":"f1321e81-ca86-4cd1-aea6-2636ac5fd84d","system_id":"levelo_inurba_marseille","lat":43.248205,"lon":5.37437,"is_reserved":false,"is_disabled":false,"rental_uris":{"android":"levelo://app?vid=f1321e81-ca86-4cd1-aea6-2636ac5fd84d","ios":"levelo://app?vid=f1321e81-ca86-4cd1-aea6-2636ac5fd84d"},"vehicle_type_id":"4","last_reported":1747854484,"current_range_meters":11200,"station_id":"ce4bhgh2rcd13ifvqfb0","pricing_plan_id":"cebpf4jnsgd1na2vs0mg"},{"bike_id":"cc1aa9a5-2f42-4f72-a5bf-991f6a710edb","system_id":"levelo_inurba_marseille","lat":43.25117,"lon":5.40315,"is_reserved":false,"is_disabled":false,"rental_uris":{"android":"levelo://app?vid=cc1aa9a5-2f42-4f72-a5bf-991f6a710edb","ios":"levelo://app?vid=cc1aa9a5-2f42-4f72-a5bf-991f6a710edb"},"vehicle_type_id":"4","last_reported":1747854484,"current_range_meters":11200,"station_id":"ce4bhlh2rcd13ifvqgig","pricing_plan_id":"cebpf4jnsgd1na2vs0mg"},{"bike_id":"6912307a-b4d5-42d8-b865-d9e0e18ad5d5","system_id":"levelo_inurba_marseille","lat":43.24546,"lon":5.39526,"is_reserved":false,"is_disabled":false,"rental_uris":{"android":"levelo://app?vid=6912307a-b4d5-42d8-b865-d9e0e18ad5d5","ios":"levelo://app?vid=6912307a-b4d5-42d8-b865-d9e0e18ad5d5"},"vehicle_type_id":"4","last_reported":1747854484,"current_range_meters":11200,"station_id":"ce4bhlp2rcd13ifvqgjg","pricing_plan_id":"cebpf4jnsgd1na2vs0mg"},{"bike_id":"83707ae9-edf3-40e1-bb1a-aa25b399e739","system_id":"levelo_inurba_marseille","lat":43.291674,"lon":5.371562,"is_reserved":false,"is_disabled":false,"rental_uris":{"android":"levelo://app?vid=83707ae9-edf3-40e1-bb1a-aa25b399e739","ios":"levelo://app?vid=83707ae9-edf3-40e1-bb1a-aa25b399e739"},"vehicle_type_id":"4","last_reported":1747854484,"current_range_meters":11600,"station_id":"ce4bha92rcd13ifvqeh0","pricing_plan_id":"cebpf4jnsgd1na2vs0mg"},{"bike_id":"2f6d03fe-987d-4900-852a-557d2a5c7eab","system_id":"levelo_inurba_marseille","lat":43.25494,"lon":5.37647,"is_reserved":false,"is_disabled":false,"rental_uris":{"android":"levelo://app?vid=2f6d03fe-987d-4900-852a-557d2a5c7eab","ios":"levelo://app?vid=2f6d03fe-987d-4900-852a-557d2a5c7eab"},"vehicle_type_id":"4","last_reported":1747854484,"current_range_meters":11600,"station_id":"ce4bhh12rcd13ifvqff0","pricing_plan_id":"cebpf4jnsgd1na2vs0mg"},{"bike_id":"fec119ea-5797-4462-ab1b-45e63788e940","system_id":"levelo_inurba_marseille","lat":43.3361,"lon":5.41024,"is_reserved":false,"is_disabled":false,"rental_uris":{"android":"levelo://app?vid=fec119ea-5797-4462-ab1b-45e63788e940","ios":"levelo://app?vid=fec119ea-5797-4462-ab1b-45e63788e940"},"vehicle_type_id":"4","last_reported":1747854484,"current_range_meters":11600,"station_id":"ce4bhqh2rcd13ifvqhmg","pricing_plan_id":"cebpf4jnsgd1na2vs0mg"},{"bike_id":"42aeecc0-44b2-4db5-8ab1-f79dd65719f3","system_id":"levelo_inurba_marseille","lat":43.33025,"lon":5.39033,"is_reserved":false,"is_disabled":false,"rental_uris":{"android":"levelo://app?vid=42aeecc0-44b2-4db5-8ab1-f79dd65719f3","ios":"levelo://app?vid=42aeecc0-44b2-4db5-8ab1-f79dd65719f3"},"vehicle_type_id":"4","last_reported":1747854484,"current_range_meters":11600,"station_id":"ce4bhr92rcd13ifvqhrg","pricing_plan_id":"cebpf4jnsgd1na2vs0mg"},{"bike_id":"8ba715c0-5300-4dc7-9e8f-ddca9d4a6cd0","system_id":"levelo_inurba_marseille","lat":43.297852,"lon":5.393476,"is_reserved":false,"is_disabled":false,"rental_uris":{"android":"levelo://app?vid=8ba715c0-5300-4dc7-9e8f-ddca9d4a6cd0","ios":"levelo://app?vid=8ba715c0-5300-4dc7-9e8f-ddca9d4a6cd0"},"vehicle_type_id":"4","last_reported":1747854484,"current_range_meters":11600,"station_id":"chh1huq6cuj3fo74tm60","pricing_plan_id":"cebpf4jnsgd1na2vs0mg"},{"bike_id":"b18f83f9-44fd-41d5-aeea-9f6bf867b932","system_id":"levelo_inurba_marseille","lat":43.25721,"lon":5.41112,"is_reserved":false,"is_disabled":false,"rental_uris":{"android":"levelo://app?vid=b18f83f9-44fd-41d5-aeea-9f6bf867b932","ios":"levelo://app?vid=b18f83f9-44fd-41d5-aeea-9f6bf867b932"},"vehicle_type_id":"4","last_reported":1747854484,"current_range_meters":12000,"station_id":"ce4bhkp2rcd13ifvqgd0","pricing_plan_id":"cebpf4jnsgd1na2vs0mg"},{"bike_id":"e7e12a20-3927-4164-84da-ed01b9003caa","system_id":"levelo_inurba_marseille","lat":43.24181,"lon":5.39722,"is_reserved":false,"is_disabled":false,"rental_uris":{"android":"levelo://app?vid=e7e12a20-3927-4164-84da-ed01b9003caa","ios":"levelo://app?vid=e7e12a20-3927-4164-84da-ed01b9003caa"},"vehicle_type_id":"4","last_reported":1747854484,"current_range_meters":12000,"station_id":"ce4bhn12rcd13ifvqgpg","pricing_plan_id":"cebpf4jnsgd1na2vs0mg"},{"bike_id":"feaf7be4-fe23-45f7-8636-d4ccad002b89","system_id":"levelo_inurba_marseille","lat":43.24071,"lon":5.37772,"is_reserved":false,"is_disabled":false,"rental_uris":{"android":"levelo://app?vid=feaf7be4-fe23-45f7-8636-d4ccad002b89","ios":"levelo://app?vid=feaf7be4-fe23-45f7-8636-d4ccad002b89"},"vehicle_type_id":"4","last_reported":1747854484,"current_range_meters":12000,"station_id":"ce4bhnp2rcd13ifvqgvg","pricing_plan_id":"cebpf4jnsgd1na2vs0mg"},{"bike_id":"db5e95a1-8f8b-40d3-8dc4-2e7199d600fb","system_id":"levelo_inurba_marseille","lat":43.28706,"lon":5.3738,"is_reserved":false,"is_disabled":false,"rental_uris":{"android":"levelo://app?vid=db5e95a1-8f8b-40d3-8dc4-2e7199d600fb","ios":"levelo://app?vid=db5e95a1-8f8b-40d3-8dc4-2e7199d600fb"},"vehicle_type_id":"4","last_reported":1747854484,"current_range_meters":12400,"station_id":"ce4bh3p2rcd13ifvqdq0","pricing_plan_id":"cebpf4jnsgd1na2vs0mg"},{"bike_id":"9bc66e62-0f16-4829-a730-08d13f259630","system_id":"levelo_inurba_marseille","lat":43.28475,"lon":5.37543,"is_reserved":false,"is_disabled":false,"rental_uris":{"android":"levelo://app?vid=9bc66e62-0f16-4829-a730-08d13f259630","ios":"levelo://app?vid=9bc66e62-0f16-4829-a730-08d13f259630"},"vehicle_type_id":"4","last_reported":1747854484,"current_range_meters":12400,"station_id":"ce4bh412rcd13ifvqds0","pricing_plan_id":"cebpf4jnsgd1na2vs0mg"},{"bike_id":"b879accf-e95f-4f81-9ceb-0c14a0260554","system_id":"levelo_inurba_marseille","lat":43.24812,"lon":5.37461,"is_reserved":false,"is_disabled":false,"rental_uris":{"android":"levelo://app?vid=b879accf-e95f-4f81-9ceb-0c14a0260554","ios":"levelo://app?vid=b879accf-e95f-4f81-9ceb-0c14a0260554"},"vehicle_type_id":"4","last_reported":1747854484,"current_range_meters":12400,"station_id":"ce4bhgh2rcd13ifvqfb0","pricing_plan_id":"cebpf4jnsgd1na2vs0mg"},{"bike_id":"e02e4f82-cc09-4f2b-a107-d351003015e9","system_id":"levelo_inurba_marseille","lat":43.25498,"lon":5.37648,"is_reserved":false,"is_disabled":false,"rental_uris":{"android":"levelo://app?vid=e02e4f82-cc09-4f2b-a107-d351003015e9","ios":"levelo://app?vid=e02e4f82-cc09-4f2b-a107-d351003015e9"},"vehicle_type_id":"4","last_reported":1747854484,"current_range_meters":12400,"station_id":"ce4bhh12rcd13ifvqff0","pricing_plan_id":"cebpf4jnsgd1na2vs0mg"},{"bike_id":"9eb1dca9-353e-47fe-881f-a87e309cd7f1","system_id":"levelo_inurba_marseille","lat":43.28083,"lon":5.39658,"is_reserved":false,"is_disabled":false,"rental_uris":{"android":"levelo://app?vid=9eb1dca9-353e-47fe-881f-a87e309cd7f1","ios":"levelo://app?vid=9eb1dca9-353e-47fe-881f-a87e309cd7f1"},"vehicle_type_id":"4","last_reported":1747854484,"current_range_meters":12400,"station_id":"ce4bho12rcd13ifvqh2g","pricing_plan_id":"cebpf4jnsgd1na2vs0mg"},{"bike_id":"bfc88a38-df32-4360-8173-61ba3df19406","system_id":"levelo_inurba_marseille","lat":43.29554,"lon":5.42287,"is_reserved":false,"is_disabled":false,"rental_uris":{"android":"levelo://app?vid=bfc88a38-df32-4360-8173-61ba3df19406","ios":"levelo://app?vid=bfc88a38-df32-4360-8173-61ba3df19406"},"vehicle_type_id":"4","last_reported":1747854484,"current_range_meters":12400,"station_id":"ce4bhph2rcd13ifvqhdg","pricing_plan_id":"cebpf4jnsgd1na2vs0mg"},{"bike_id":"f9e80b80-88d6-44d3-b570-b81a450517ba","system_id":"levelo_inurba_marseille","lat":43.29552,"lon":5.42291,"is_reserved":false,"is_disabled":false,"rental_uris":{"android":"levelo://app?vid=f9e80b80-88d6-44d3-b570-b81a450517ba","ios":"levelo://app?vid=f9e80b80-88d6-44d3-b570-b81a450517ba"},"vehicle_type_id":"4","last_reported":1747854484,"current_range_meters":12400,"station_id":"ce4bhph2rcd13ifvqhdg","pricing_plan_id":"cebpf4jnsgd1na2vs0mg"},{"bike_id":"eb10ae3c-ed15-4cc1-9ebe-cbe9eb5749bb","system_id":"levelo_inurba_marseille","lat":43.29789,"lon":5.39323,"is_reserved":false,"is_disabled":false,"rental_uris":{"android":"levelo://app?vid=eb10ae3c-ed15-4cc1-9ebe-cbe9eb5749bb","ios":"levelo://app?vid=eb10ae3c-ed15-4cc1-9ebe-cbe9eb5749bb"},"vehicle_type_id":"4","last_reported":1747854484,"current_range_meters":12400,"station_id":"chh1huq6cuj3fo74tm60","pricing_plan_id":"cebpf4jnsgd1na2vs0mg"},{"bike_id":"4a19126e-d0e8-4247-ac89-e33eeea4f2da","system_id":"levelo_inurba_marseille","lat":43.30809,"lon":5.369957,"is_reserved":false,"is_disabled":false,"rental_uris":{"android":"levelo://app?vid=4a19126e-d0e8-4247-ac89-e33eeea4f2da","ios":"levelo://app?vid=4a19126e-d0e8-4247-ac89-e33eeea4f2da"},"vehicle_type_id":"4","last_reported":1747854484,"current_range_meters":12800,"station_id":"","pricing_plan_id":"cebpf4jnsgd1na2vs0mg"},{"bike_id":"d0015b5e-8207-4ba0-9342-ea0e0671b53a","system_id":"levelo_inurba_marseille","lat":43.31222,"lon":5.37692,"is_reserved":false,"is_disabled":false,"rental_uris":{"android":"levelo://app?vid=d0015b5e-8207-4ba0-9342-ea0e0671b53a","ios":"levelo://app?vid=d0015b5e-8207-4ba0-9342-ea0e0671b53a"},"vehicle_type_id":"4","last_reported":1747854484,"current_range_meters":12800,"station_id":"","pricing_plan_id":"cebpf4jnsgd1na2vs0mg"},{"bike_id":"73faefc2-818e-47f1-8fc8-aea7a557a8a5","system_id":"levelo_inurba_marseille","lat":43.29501,"lon":5.39059,"is_reserved":false,"is_disabled":false,"rental_uris":{"android":"levelo://app?vid=73faefc2-818e-47f1-8fc8-aea7a557a8a5","ios":"levelo://app?vid=73faefc2-818e-47f1-8fc8-aea7a557a8a5"},"vehicle_type_id":"4","last_reported":1747854484,"current_range_meters":12800,"station_id":"ce4bh3p2rcd13ifvqdp0","pricing_plan_id":"cebpf4jnsgd1na2vs0mg"},{"bike_id":"b7584f95-10d1-4a64-a166-b6c7680549a7","system_id":"levelo_inurba_marseille","lat":43.284094,"lon":5.375169,"is_reserved":false,"is_disabled":false,"rental_uris":{"android":"levelo://app?vid=b7584f95-10d1-4a64-a166-b6c7680549a7","ios":"levelo://app?vid=b7584f95-10d1-4a64-a166-b6c7680549a7"},"vehicle_type_id":"4","last_reported":1747854484,"current_range_meters":12800,"station_id":"ce4bh412rcd13ifvqds0","pricing_plan_id":"cebpf4jnsgd1na2vs0mg"},{"bike_id":"7b0487e7-8d15-49c9-b24e-73b2e9817982","system_id":"levelo_inurba_marseille","lat":43.2902,"lon":5.35586,"is_reserved":false,"is_disabled":false,"rental_uris":{"android":"levelo://app?vid=7b0487e7-8d15-49c9-b24e-73b2e9817982","ios":"levelo://app?vid=7b0487e7-8d15-49c9-b24e-73b2e9817982"},"vehicle_type_id":"4","last_reported":1747854484,"current_range_meters":12800,"station_id":"ce4bhb92rcd13ifvqen0","pricing_plan_id":"cebpf4jnsgd1na2vs0mg"},{"bike_id":"1bee087b-de5c-4e5c-9a85-9adddb73a928","system_id":"levelo_inurba_marseille","lat":43.27365,"lon":5.39082,"is_reserved":false,"is_disabled":false,"rental_uris":{"android":"levelo://app?vid=1bee087b-de5c-4e5c-9a85-9adddb73a928","ios":"levelo://app?vid=1bee087b-de5c-4e5c-9a85-9adddb73a928"},"vehicle_type_id":"4","last_reported":1747854484,"current_range_meters":12800,"station_id":"ce4bhgp2rcd13ifvqfe0","pricing_plan_id":"cebpf4jnsgd1na2vs0mg"},{"bike_id":"20d46360-b017-40c9-8a0d-bb0351687016","system_id":"levelo_inurba_marseille","lat":43.25575,"lon":5.38219,"is_reserved":false,"is_disabled":false,"rental_uris":{"android":"levelo://app?vid=20d46360-b017-40c9-8a0d-bb0351687016","ios":"levelo://app?vid=20d46360-b017-40c9-8a0d-bb0351687016"},"vehicle_type_id":"4","last_reported":1747854484,"current_range_meters":12800,"station_id":"ce4bhih2rcd13ifvqfs0","pricing_plan_id":"cebpf4jnsgd1na2vs0mg"},{"bike_id":"e71f2f8e-ed49-4107-abce-7f484fbab4c2","system_id":"levelo_inurba_marseille","lat":43.28078,"lon":5.39653,"is_reserved":false,"is_disabled":false,"rental_uris":{"android":"levelo://app?vid=e71f2f8e-ed49-4107-abce-7f484fbab4c2","ios":"levelo://app?vid=e71f2f8e-ed49-4107-abce-7f484fbab4c2"},"vehicle_type_id":"4","last_reported":1747854484,"current_range_meters":12800,"station_id":"ce4bho12rcd13ifvqh2g","pricing_plan_id":"cebpf4jnsgd1na2vs0mg"},{"bike_id":"f9fb40c0-1fcd-48cb-8e26-3f2dc0fb2451","system_id":"levelo_inurba_marseille","lat":43.33751,"lon":5.37509,"is_reserved":false,"is_disabled":false,"rental_uris":{"android":"levelo://app?vid=f9fb40c0-1fcd-48cb-8e26-3f2dc0fb2451","ios":"levelo://app?vid=f9fb40c0-1fcd-48cb-8e26-3f2dc0fb2451"},"vehicle_type_id":"4","last_reported":1747854484,"current_range_meters":13600,"station_id":"","pricing_plan_id":"cebpf4jnsgd1na2vs0mg"},{"bike_id":"2d578860-3814-4996-8ce2-53f591e48614","system_id":"levelo_inurba_marseille","lat":43.29307,"lon":5.37176,"is_reserved":false,"is_disabled":false,"rental_uris":{"android":"levelo://app?vid=2d578860-3814-4996-8ce2-53f591e48614","ios":"levelo://app?vid=2d578860-3814-4996-8ce2-53f591e48614"},"vehicle_type_id":"4","last_reported":1747854484,"current_range_meters":13600,"station_id":"ce4bgh92rcd13ifvqb40","pricing_plan_id":"cebpf4jnsgd1na2vs0mg"},{"bike_id":"62b0d598-4219-46a8-b3f5-d75749e5fc8a","system_id":"levelo_inurba_marseille","lat":43.30323,"lon":5.40425,"is_reserved":false,"is_disabled":false,"rental_uris":{"android":"levelo://app?vid=62b0d598-4219-46a8-b3f5-d75749e5fc8a","ios":"levelo://app?vid=62b0d598-4219-46a8-b3f5-d75749e5fc8a"},"vehicle_type_id":"4","last_reported":1747854484,"current_range_meters":13600,"station_id":"ce4bh012rcd13ifvqd10","pricing_plan_id":"cebpf4jnsgd1na2vs0mg"},{"bike_id":"beaee73b-4dc5-4652-a51e-a3f7901bf3cf","system_id":"levelo_inurba_marseille","lat":43.250732,"lon":5.403334,"is_reserved":false,"is_disabled":false,"rental_uris":{"android":"levelo://app?vid=beaee73b-4dc5-4652-a51e-a3f7901bf3cf","ios":"levelo://app?vid=beaee73b-4dc5-4652-a51e-a3f7901bf3cf"},"vehicle_type_id":"4","last_reported":1747854484,"current_range_meters":13600,"station_id":"ce4bhlh2rcd13ifvqgig","pricing_plan_id":"cebpf4jnsgd1na2vs0mg"},{"bike_id":"74e2dfb4-0127-4e0d-b810-ad19963626be","system_id":"levelo_inurba_marseille","lat":43.29558,"lon":5.42294,"is_reserved":false,"is_disabled":false,"rental_uris":{"android":"levelo://app?vid=74e2dfb4-0127-4e0d-b810-ad19963626be","ios":"levelo://app?vid=74e2dfb4-0127-4e0d-b810-ad19963626be"},"vehicle_type_id":"4","last_reported":1747854484,"current_range_meters":13600,"station_id":"ce4bhph2rcd13ifvqhdg","pricing_plan_id":"cebpf4jnsgd1na2vs0mg"},{"bike_id":"c20b3fba-ccf3-4150-abbc-993bc6403597","system_id":"levelo_inurba_marseille","lat":43.32372,"lon":5.38879,"is_reserved":false,"is_disabled":false,"rental_uris":{"android":"levelo://app?vid=c20b3fba-ccf3-4150-abbc-993bc6403597","ios":"levelo://app?vid=c20b3fba-ccf3-4150-abbc-993bc6403597"},"vehicle_type_id":"4","last_reported":1747854484,"current_range_meters":13600,"station_id":"ce4bhqp2rcd13ifvqhog","pricing_plan_id":"cebpf4jnsgd1na2vs0mg"},{"bike_id":"78273ad0-794f-4468-a1aa-6fbad4e9e51d","system_id":"levelo_inurba_marseille","lat":43.31527,"lon":5.38034,"is_reserved":false,"is_disabled":false,"rental_uris":{"android":"levelo://app?vid=78273ad0-794f-4468-a1aa-6fbad4e9e51d","ios":"levelo://app?vid=78273ad0-794f-4468-a1aa-6fbad4e9e51d"},"vehicle_type_id":"4","last_reported":1747854484,"current_range_meters":13600,"station_id":"ce4bhsp2rcd13ifvqi50","pricing_plan_id":"cebpf4jnsgd1na2vs0mg"},{"bike_id":"27653dcd-dec9-4f13-b172-8968c20c1725","system_id":"levelo_inurba_marseille","lat":43.23846,"lon":5.43048,"is_reserved":false,"is_disabled":false,"rental_uris":{"android":"levelo://app?vid=27653dcd-dec9-4f13-b172-8968c20c1725","ios":"levelo://app?vid=27653dcd-dec9-4f13-b172-8968c20c1725"},"vehicle_type_id":"4","last_reported":1747854484,"current_range_meters":14000,"station_id":"","pricing_plan_id":"cebpf4jnsgd1na2vs0mg"},{"bike_id":"a19667eb-d1f1-46d1-8257-280b5a2562cc","system_id":"levelo_inurba_marseille","lat":43.27376,"lon":5.36234,"is_reserved":false,"is_disabled":false,"rental_uris":{"android":"levelo://app?vid=a19667eb-d1f1-46d1-8257-280b5a2562cc","ios":"levelo://app?vid=a19667eb-d1f1-46d1-8257-280b5a2562cc"},"vehicle_type_id":"4","last_reported":1747854484,"current_range_meters":14000,"station_id":"ce4bhbh2rcd13ifvqeo0","pricing_plan_id":"cebpf4jnsgd1na2vs0mg"},{"bike_id":"1dfbe32f-cc1d-4300-910b-8bc8f1c6ddd3","system_id":"levelo_inurba_marseille","lat":43.24828,"lon":5.37447,"is_reserved":false,"is_disabled":false,"rental_uris":{"android":"levelo://app?vid=1dfbe32f-cc1d-4300-910b-8bc8f1c6ddd3","ios":"levelo://app?vid=1dfbe32f-cc1d-4300-910b-8bc8f1c6ddd3"},"vehicle_type_id":"4","last_reported":1747854484,"current_range_meters":14000,"station_id":"ce4bhgh2rcd13ifvqfb0","pricing_plan_id":"cebpf4jnsgd1na2vs0mg"},{"bike_id":"c8befa68-7d6c-464d-877a-a38dbcdf6926","system_id":"levelo_inurba_marseille","lat":43.248038,"lon":5.374609,"is_reserved":false,"is_disabled":false,"rental_uris":{"android":"levelo://app?vid=c8befa68-7d6c-464d-877a-a38dbcdf6926","ios":"levelo://app?vid=c8befa68-7d6c-464d-877a-a38dbcdf6926"},"vehicle_type_id":"4","last_reported":1747854484,"current_range_meters":14000,"station_id":"ce4bhgh2rcd13ifvqfb0","pricing_plan_id":"cebpf4jnsgd1na2vs0mg"},{"bike_id":"c5ba5012-c922-4862-a04e-86092a76f09a","system_id":"levelo_inurba_marseille","lat":43.2707,"lon":5.42278,"is_reserved":false,"is_disabled":false,"rental_uris":{"android":"levelo://app?vid=c5ba5012-c922-4862-a04e-86092a76f09a","ios":"levelo://app?vid=c5ba5012-c922-4862-a04e-86092a76f09a"},"vehicle_type_id":"4","last_reported":1747854484,"current_range_meters":14000,"station_id":"ce4bhk92rcd13ifvqgb0","pricing_plan_id":"cebpf4jnsgd1na2vs0mg"},{"bike_id":"1eb6850c-e94c-45e1-ac02-b110f71ba1ab","system_id":"levelo_inurba_marseille","lat":43.28081,"lon":5.39639,"is_reserved":false,"is_disabled":false,"rental_uris":{"android":"levelo://app?vid=1eb6850c-e94c-45e1-ac02-b110f71ba1ab","ios":"levelo://app?vid=1eb6850c-e94c-45e1-ac02-b110f71ba1ab"},"vehicle_type_id":"4","last_reported":1747854484,"current_range_meters":14000,"station_id":"ce4bho12rcd13ifvqh2g","pricing_plan_id":"cebpf4jnsgd1na2vs0mg"},{"bike_id":"fac9127c-dd62-4c91-a9b0-56c919ae52d2","system_id":"levelo_inurba_marseille","lat":43.23057,"lon":5.35489,"is_reserved":false,"is_disabled":false,"rental_uris":{"android":"levelo://app?vid=fac9127c-dd62-4c91-a9b0-56c919ae52d2","ios":"levelo://app?vid=fac9127c-dd62-4c91-a9b0-56c919ae52d2"},"vehicle_type_id":"4","last_reported":1747854484,"current_range_meters":14000,"station_id":"cpo3342slgdg3j2ifvpg","pricing_plan_id":"cebpf4jnsgd1na2vs0mg"},{"bike_id":"a2a04a53-59af-4546-9c58-841793fdfe2f","system_id":"levelo_inurba_marseille","lat":43.29965,"lon":5.38335,"is_reserved":false,"is_disabled":false,"rental_uris":{"android":"levelo://app?vid=a2a04a53-59af-4546-9c58-841793fdfe2f","ios":"levelo://app?vid=a2a04a53-59af-4546-9c58-841793fdfe2f"},"vehicle_type_id":"4","last_reported":1747854484,"current_range_meters":14400,"station_id":"","pricing_plan_id":"cebpf4jnsgd1na2vs0mg"},{"bike_id":"8c37efed-a110-4307-8086-3b6336efe3b5","system_id":"levelo_inurba_marseille","lat":43.26568,"lon":5.4032,"is_reserved":false,"is_disabled":false,"rental_uris":{"android":"levelo://app?vid=8c37efed-a110-4307-8086-3b6336efe3b5","ios":"levelo://app?vid=8c37efed-a110-4307-8086-3b6336efe3b5"},"vehicle_type_id":"4","last_reported":1747854484,"current_range_meters":14400,"station_id":"","pricing_plan_id":"cebpf4jnsgd1na2vs0mg"},{"bike_id":"a6fe8515-ac3d-4d07-a294-7ff0753c877b","system_id":"levelo_inurba_marseille","lat":43.30922,"lon":5.40133,"is_reserved":false,"is_disabled":false,"rental_uris":{"android":"levelo://app?vid=a6fe8515-ac3d-4d07-a294-7ff0753c877b","ios":"levelo://app?vid=a6fe8515-ac3d-4d07-a294-7ff0753c877b"},"vehicle_type_id":"4","last_reported":1747854484,"current_range_meters":14400,"station_id":"ce4bgvp2rcd13ifvqct0","pricing_plan_id":"cebpf4jnsgd1na2vs0mg"},{"bike_id":"aebe115e-1298-47e6-a57e-f483b232710f","system_id":"levelo_inurba_marseille","lat":43.29867,"lon":5.38901,"is_reserved":false,"is_disabled":false,"rental_uris":{"android":"levelo://app?vid=aebe115e-1298-47e6-a57e-f483b232710f","ios":"levelo://app?vid=aebe115e-1298-47e6-a57e-f483b232710f"},"vehicle_type_id":"4","last_reported":1747854484,"current_range_meters":14400,"station_id":"ce4bh392rcd13ifvqdl0","pricing_plan_id":"cebpf4jnsgd1na2vs0mg"},{"bike_id":"98632991-0279-483f-b989-2c68c3703715","system_id":"levelo_inurba_marseille","lat":43.29528,"lon":5.39029,"is_reserved":false,"is_disabled":false,"rental_uris":{"android":"levelo://app?vid=98632991-0279-483f-b989-2c68c3703715","ios":"levelo://app?vid=98632991-0279-483f-b989-2c68c3703715"},"vehicle_type_id":"4","last_reported":1747854484,"current_range_meters":14400,"station_id":"ce4bh3p2rcd13ifvqdp0","pricing_plan_id":"cebpf4jnsgd1na2vs0mg"},{"bike_id":"5d7aaf26-a403-4419-8fd7-26e3eb24161e","system_id":"levelo_inurba_marseille","lat":43.292035,"lon":5.39317,"is_reserved":false,"is_disabled":false,"rental_uris":{"android":"levelo://app?vid=5d7aaf26-a403-4419-8fd7-26e3eb24161e","ios":"levelo://app?vid=5d7aaf26-a403-4419-8fd7-26e3eb24161e"},"vehicle_type_id":"4","last_reported":1747854484,"current_range_meters":14800,"station_id":"ce4bh192rcd13ifvqdd0","pricing_plan_id":"cebpf4jnsgd1na2vs0mg"},{"bike_id":"f5fa9335-58cd-4665-b74e-44d45f0cce15","system_id":"levelo_inurba_marseille","lat":43.289987,"lon":5.356063,"is_reserved":false,"is_disabled":false,"rental_uris":{"android":"levelo://app?vid=f5fa9335-58cd-4665-b74e-44d45f0cce15","ios":"levelo://app?vid=f5fa9335-58cd-4665-b74e-44d45f0cce15"},"vehicle_type_id":"4","last_reported":1747854484,"current_range_meters":14800,"station_id":"ce4bhb92rcd13ifvqen0","pricing_plan_id":"cebpf4jnsgd1na2vs0mg"},{"bike_id":"c1ec801c-7f0c-41c1-bb99-83909fce24f4","system_id":"levelo_inurba_marseille","lat":43.28947,"lon":5.36387,"is_reserved":false,"is_disabled":false,"rental_uris":{"android":"levelo://app?vid=c1ec801c-7f0c-41c1-bb99-83909fce24f4","ios":"levelo://app?vid=c1ec801c-7f0c-41c1-bb99-83909fce24f4"},"vehicle_type_id":"4","last_reported":1747854484,"current_range_meters":14800,"station_id":"ce4bhc92rcd13ifvqetg","pricing_plan_id":"cebpf4jnsgd1na2vs0mg"},{"bike_id":"042ca480-aa17-41ab-a974-c7949376979a","system_id":"levelo_inurba_marseille","lat":43.24652,"lon":5.38884,"is_reserved":false,"is_disabled":false,"rental_uris":{"android":"levelo://app?vid=042ca480-aa17-41ab-a974-c7949376979a","ios":"levelo://app?vid=042ca480-aa17-41ab-a974-c7949376979a"},"vehicle_type_id":"4","last_reported":1747854484,"current_range_meters":14800,"station_id":"ce4bhg12rcd13ifvqf60","pricing_plan_id":"cebpf4jnsgd1na2vs0mg"},{"bike_id":"9ad4500d-95cc-4c71-b0b7-df78605c376d","system_id":"levelo_inurba_marseille","lat":43.23195,"lon":5.39994,"is_reserved":false,"is_disabled":false,"rental_uris":{"android":"levelo://app?vid=9ad4500d-95cc-4c71-b0b7-df78605c376d","ios":"levelo://app?vid=9ad4500d-95cc-4c71-b0b7-df78605c376d"},"vehicle_type_id":"4","last_reported":1747854484,"current_range_meters":14800,"station_id":"ce4bhn12rcd13ifvqgqg","pricing_plan_id":"cebpf4jnsgd1na2vs0mg"},{"bike_id":"b332b4e0-30d7-485a-92fa-c0555c3fadb9","system_id":"levelo_inurba_marseille","lat":43.287137,"lon":5.36103,"is_reserved":false,"is_disabled":false,"rental_uris":{"android":"levelo://app?vid=b332b4e0-30d7-485a-92fa-c0555c3fadb9","ios":"levelo://app?vid=b332b4e0-30d7-485a-92fa-c0555c3fadb9"},"vehicle_type_id":"4","last_reported":1747854484,"current_range_meters":14800,"station_id":"cki0cbj6b192h4jlfktg","pricing_plan_id":"cebpf4jnsgd1na2vs0mg"},{"bike_id":"87c4eccc-bb65-48f9-8b4c-4b27ebc9c1f5","system_id":"levelo_inurba_marseille","lat":43.21733,"lon":5.34586,"is_reserved":false,"is_disabled":false,"rental_uris":{"android":"levelo://app?vid=87c4eccc-bb65-48f9-8b4c-4b27ebc9c1f5","ios":"levelo://app?vid=87c4eccc-bb65-48f9-8b4c-4b27ebc9c1f5"},"vehicle_type_id":"4","last_reported":1747854484,"current_range_meters":14800,"station_id":"st_cvj6r9ubvosntc0bgbag","pricing_plan_id":"cebpf4jnsgd1na2vs0mg"},{"bike_id":"9571866e-5919-4ebb-a9ec-4e9595f330ed","system_id":"levelo_inurba_marseille","lat":43.31071,"lon":5.38342,"is_reserved":false,"is_disabled":false,"rental_uris":{"android":"levelo://app?vid=9571866e-5919-4ebb-a9ec-4e9595f330ed","ios":"levelo://app?vid=9571866e-5919-4ebb-a9ec-4e9595f330ed"},"vehicle_type_id":"4","last_reported":1747854484,"current_range_meters":15200,"station_id":"ce4bgv92rcd13ifvqcr0","pricing_plan_id":"cebpf4jnsgd1na2vs0mg"},{"bike_id":"b5308138-aeb4-4537-b618-a3012b7632ab","system_id":"levelo_inurba_marseille","lat":43.29527,"lon":5.39046,"is_reserved":false,"is_disabled":false,"rental_uris":{"android":"levelo://app?vid=b5308138-aeb4-4537-b618-a3012b7632ab","ios":"levelo://app?vid=b5308138-aeb4-4537-b618-a3012b7632ab"},"vehicle_type_id":"4","last_reported":1747854484,"current_range_meters":15200,"station_id":"ce4bh3p2rcd13ifvqdp0","pricing_plan_id":"cebpf4jnsgd1na2vs0mg"},{"bike_id":"8dabe03d-d775-4888-935d-e5d60783aa00","system_id":"levelo_inurba_marseille","lat":43.29009,"lon":5.35604,"is_reserved":false,"is_disabled":false,"rental_uris":{"android":"levelo://app?vid=8dabe03d-d775-4888-935d-e5d60783aa00","ios":"levelo://app?vid=8dabe03d-d775-4888-935d-e5d60783aa00"},"vehicle_type_id":"4","last_reported":1747854484,"current_range_meters":15200,"station_id":"ce4bhb92rcd13ifvqen0","pricing_plan_id":"cebpf4jnsgd1na2vs0mg"},{"bike_id":"f584a640-b56a-4c2e-8a8f-c2ae1d558157","system_id":"levelo_inurba_marseille","lat":43.24391,"lon":5.37056,"is_reserved":false,"is_disabled":false,"rental_uris":{"android":"levelo://app?vid=f584a640-b56a-4c2e-8a8f-c2ae1d558157","ios":"levelo://app?vid=f584a640-b56a-4c2e-8a8f-c2ae1d558157"},"vehicle_type_id":"4","last_reported":1747854484,"current_range_meters":15200,"station_id":"ce4bhhh2rcd13ifvqfk0","pricing_plan_id":"cebpf4jnsgd1na2vs0mg"},{"bike_id":"74b52de7-1e8a-4c98-8fa2-a2bd5537eaca","system_id":"levelo_inurba_marseille","lat":43.25087,"lon":5.39525,"is_reserved":false,"is_disabled":false,"rental_uris":{"android":"levelo://app?vid=74b52de7-1e8a-4c98-8fa2-a2bd5537eaca","ios":"levelo://app?vid=74b52de7-1e8a-4c98-8fa2-a2bd5537eaca"},"vehicle_type_id":"4","last_reported":1747854484,"current_range_meters":15200,"station_id":"ce4bhm12rcd13ifvqgkg","pricing_plan_id":"cebpf4jnsgd1na2vs0mg"},{"bike_id":"5c04c52d-3266-4c4c-a626-c2fd84235bf2","system_id":"levelo_inurba_marseille","lat":43.30737,"lon":5.42433,"is_reserved":false,"is_disabled":false,"rental_uris":{"android":"levelo://app?vid=5c04c52d-3266-4c4c-a626-c2fd84235bf2","ios":"levelo://app?vid=5c04c52d-3266-4c4c-a626-c2fd84235bf2"},"vehicle_type_id":"4","last_reported":1747854484,"current_range_meters":15200,"station_id":"st_cvj6ca6bvosntc0bfgr0","pricing_plan_id":"cebpf4jnsgd1na2vs0mg"},{"bike_id":"5c842fb2-a907-4145-8a2d-123b797422cd","system_id":"levelo_inurba_marseille","lat":43.26917,"lon":5.38872,"is_reserved":false,"is_disabled":false,"rental_uris":{"android":"levelo://app?vid=5c842fb2-a907-4145-8a2d-123b797422cd","ios":"levelo://app?vid=5c842fb2-a907-4145-8a2d-123b797422cd"},"vehicle_type_id":"4","last_reported":1747854484,"current_range_meters":16000,"station_id":"","pricing_plan_id":"cebpf4jnsgd1na2vs0mg"},{"bike_id":"10802af7-f8e4-4f8a-a873-8a8259c944fa","system_id":"levelo_inurba_marseille","lat":43.29524,"lon":5.39028,"is_reserved":false,"is_disabled":false,"rental_uris":{"android":"levelo://app?vid=10802af7-f8e4-4f8a-a873-8a8259c944fa","ios":"levelo://app?vid=10802af7-f8e4-4f8a-a873-8a8259c944fa"},"vehicle_type_id":"4","last_reported":1747854484,"current_range_meters":16000,"station_id":"ce4bh3p2rcd13ifvqdp0","pricing_plan_id":"cebpf4jnsgd1na2vs0mg"},{"bike_id":"fadd8b6d-df77-4821-98cc-e77fc8400757","system_id":"levelo_inurba_marseille","lat":43.28105,"lon":5.37838,"is_reserved":false,"is_disabled":false,"rental_uris":{"android":"levelo://app?vid=fadd8b6d-df77-4821-98cc-e77fc8400757","ios":"levelo://app?vid=fadd8b6d-df77-4821-98cc-e77fc8400757"},"vehicle_type_id":"4","last_reported":1747854484,"current_range_meters":16000,"station_id":"ce4bha12rcd13ifvqee0","pricing_plan_id":"cebpf4jnsgd1na2vs0mg"},{"bike_id":"e2cb30a3-06d3-4a8d-8bb5-0556ae31c6ff","system_id":"levelo_inurba_marseille","lat":43.24567,"lon":5.39499,"is_reserved":false,"is_disabled":false,"rental_uris":{"android":"levelo://app?vid=e2cb30a3-06d3-4a8d-8bb5-0556ae31c6ff","ios":"levelo://app?vid=e2cb30a3-06d3-4a8d-8bb5-0556ae31c6ff"},"vehicle_type_id":"4","last_reported":1747854484,"current_range_meters":16000,"station_id":"ce4bhlp2rcd13ifvqgjg","pricing_plan_id":"cebpf4jnsgd1na2vs0mg"},{"bike_id":"dc61c065-6ed1-487e-9ecf-5a93a8f61ca7","system_id":"levelo_inurba_marseille","lat":43.2318,"lon":5.3999,"is_reserved":false,"is_disabled":false,"rental_uris":{"android":"levelo://app?vid=dc61c065-6ed1-487e-9ecf-5a93a8f61ca7","ios":"levelo://app?vid=dc61c065-6ed1-487e-9ecf-5a93a8f61ca7"},"vehicle_type_id":"4","last_reported":1747854484,"current_range_meters":16000,"station_id":"ce4bhn12rcd13ifvqgqg","pricing_plan_id":"cebpf4jnsgd1na2vs0mg"},{"bike_id":"0fce2cfe-ecb0-4626-b8f6-556c439110d8","system_id":"levelo_inurba_marseille","lat":43.34681,"lon":5.34558,"is_reserved":false,"is_disabled":false,"rental_uris":{"android":"levelo://app?vid=0fce2cfe-ecb0-4626-b8f6-556c439110d8","ios":"levelo://app?vid=0fce2cfe-ecb0-4626-b8f6-556c439110d8"},"vehicle_type_id":"4","last_reported":1747854484,"current_range_meters":16400,"station_id":"","pricing_plan_id":"cebpf4jnsgd1na2vs0mg"},{"bike_id":"9149529b-be6c-49f8-b369-3545b4bdb25c","system_id":"levelo_inurba_marseille","lat":43.27619,"lon":5.36099,"is_reserved":false,"is_disabled":false,"rental_uris":{"android":"levelo://app?vid=9149529b-be6c-49f8-b369-3545b4bdb25c","ios":"levelo://app?vid=9149529b-be6c-49f8-b369-3545b4bdb25c"},"vehicle_type_id":"4","last_reported":1747854484,"current_range_meters":16400,"station_id":"ce4bgj92rcd13ifvqbe0","pricing_plan_id":"cebpf4jnsgd1na2vs0mg"},{"bike_id":"8e634ee4-e269-40fd-a4ab-b5b2b93e9d81","system_id":"levelo_inurba_marseille","lat":43.296477,"lon":5.400232,"is_reserved":false,"is_disabled":false,"rental_uris":{"android":"levelo://app?vid=8e634ee4-e269-40fd-a4ab-b5b2b93e9d81","ios":"levelo://app?vid=8e634ee4-e269-40fd-a4ab-b5b2b93e9d81"},"vehicle_type_id":"4","last_reported":1747854484,"current_range_meters":16400,"station_id":"ce4bh192rcd13ifvqdd0","pricing_plan_id":"cebpf4jnsgd1na2vs0mg"},{"bike_id":"7bfd6946-14d4-467f-942c-40a4636ceb4d","system_id":"levelo_inurba_marseille","lat":43.29411,"lon":5.38637,"is_reserved":false,"is_disabled":false,"rental_uris":{"android":"levelo://app?vid=7bfd6946-14d4-467f-942c-40a4636ceb4d","ios":"levelo://app?vid=7bfd6946-14d4-467f-942c-40a4636ceb4d"},"vehicle_type_id":"4","last_reported":1747854484,"current_range_meters":16400,"station_id":"ce4bh2h2rcd13ifvqdh0","pricing_plan_id":"cebpf4jnsgd1na2vs0mg"},{"bike_id":"e6e6ff94-28ca-44c2-b0a5-dd939c0e607e","system_id":"levelo_inurba_marseille","lat":43.288656,"lon":5.358579,"is_reserved":false,"is_disabled":false,"rental_uris":{"android":"levelo://app?vid=e6e6ff94-28ca-44c2-b0a5-dd939c0e607e","ios":"levelo://app?vid=e6e6ff94-28ca-44c2-b0a5-dd939c0e607e"},"vehicle_type_id":"4","last_reported":1747854484,"current_range_meters":16400,"station_id":"ce4bhb12rcd13ifvqem0","pricing_plan_id":"cebpf4jnsgd1na2vs0mg"},{"bike_id":"3e3fe64f-c75b-4c74-b550-7a46e3dad570","system_id":"levelo_inurba_marseille","lat":43.29012,"lon":5.35615,"is_reserved":false,"is_disabled":false,"rental_uris":{"android":"levelo://app?vid=3e3fe64f-c75b-4c74-b550-7a46e3dad570","ios":"levelo://app?vid=3e3fe64f-c75b-4c74-b550-7a46e3dad570"},"vehicle_type_id":"4","last_reported":1747854484,"current_range_meters":16400,"station_id":"ce4bhb92rcd13ifvqen0","pricing_plan_id":"cebpf4jnsgd1na2vs0mg"},{"bike_id":"15e889e6-5461-4ef2-9d5c-d2f64351d8a2","system_id":"levelo_inurba_marseille","lat":43.29033,"lon":5.37575,"is_reserved":false,"is_disabled":false,"rental_uris":{"android":"levelo://app?vid=15e889e6-5461-4ef2-9d5c-d2f64351d8a2","ios":"levelo://app?vid=15e889e6-5461-4ef2-9d5c-d2f64351d8a2"},"vehicle_type_id":"4","last_reported":1747854484,"current_range_meters":16800,"station_id":"ce4bh692rcd13ifvqe90","pricing_plan_id":"cebpf4jnsgd1na2vs0mg"},{"bike_id":"e4475270-78de-4bbc-9fd1-94ee76bff4b8","system_id":"levelo_inurba_marseille","lat":43.28615,"lon":5.35101,"is_reserved":false,"is_disabled":false,"rental_uris":{"android":"levelo://app?vid=e4475270-78de-4bbc-9fd1-94ee76bff4b8","ios":"levelo://app?vid=e4475270-78de-4bbc-9fd1-94ee76bff4b8"},