{"last_updated":1739967407,"ttl":60,"version":"2.2","data":{"bikes":[{"bike_id":"0fe729da-934f-4881-8094-c200f9d8b56b","system_id":"levelo_inurba_marseille","lat":43.28131,"lon":5.42616,"is_reserved":false,"is_disabled":false,"rental_uris":{"android":"levelo://app?vid=0fe729da-934f-4881-8094-c200f9d8b56b","ios":"levelo://app?vid=0fe729da-934f-4881-8094-c200f9d8b56b"},"vehicle_type_id":"4","last_reported":1739967407,"current_range_meters":3200,"station_id":"","pricing_plan_id":"cebpf4jnsgd1na2vs0mg"},{"bike_id":"0b56de44-0cae-4e8e-9981-0a77a7de0d27","system_id":"levelo_inurba_marseille","lat":43.2998,"lon":5.37177,"is_reserved":false,"is_disabled":false,"rental_uris":{"android":"levelo://app?vid=0b56de44-0cae-4e8e-9981-0a77a7de0d27","ios":"levelo://app?vid=0b56de44-0cae-4e8e-9981-0a77a7de0d27"},"vehicle_type_id":"4","last_reported":1739967407,"current_range_meters":3200,"station_id":"ce4bgr92rcd13ifvqc7g","pricing_plan_id":"cebpf4jnsgd1na2vs0mg"},{"bike_id":"5fc8b936-a5a0-4001-88b0-c71c8adbdb7c","system_id":"levelo_inurba_marseille","lat":43.25128,"lon":5.40299,"is_reserved":false,"is_disabled":false,"rental_uris":{"android":"levelo://app?vid=5fc8b936-a5a0-4001-88b0-c71c8adbdb7c","ios":"levelo://app?vid=5fc8b936-a5a0-4001-88b0-c71c8adbdb7c"},"vehicle_type_id":"4","last_reported":1739967407,"current_range_meters":3200,"station_id":"ce4bhlh2rcd13ifvqgig","pricing_plan_id":"cebpf4jnsgd1na2vs0mg"},{"bike_id":"9431827b-0982-493f-ba98-3b032292d3a7","system_id":"levelo_inurba_marseille","lat":43.32115,"lon":5.36769,"is_reserved":false,"is_disabled":false,"rental_uris":{"android":"levelo://app?vid=9431827b-0982-493f-ba98-3b032292d3a7","ios":"levelo://app?vid=9431827b-0982-493f-ba98-3b032292d3a7"},"vehicle_type_id":"4","last_reported":1739967407,"current_range_meters":3600,"station_id":"ce4bhrh2rcd13ifvqhug","pricing_plan_id":"cebpf4jnsgd1na2vs0mg"},{"bike_id":"4aebea14-4cfb-4d7d-8d65-9d2647cce87e","system_id":"levelo_inurba_marseille","lat":43.27207,"lon":5.39195,"is_reserved":false,"is_disabled":true,"rental_uris":{"android":"levelo://app?vid=4aebea14-4cfb-4d7d-8d65-9d2647cce87e","ios":"levelo://app?vid=4aebea14-4cfb-4d7d-8d65-9d2647cce87e"},"vehicle_type_id":"4","last_reported":1739967407,"current_range_meters":3600,"station_id":"ce4bhhp2rcd13ifvqfm0","pricing_plan_id":"cebpf4jnsgd1na2vs0mg"},{"bike_id":"020f9db3-6048-4a83-8c59-4acc533112c8","system_id":"levelo_inurba_marseille","lat":43.28156,"lon":5.42634,"is_reserved":false,"is_disabled":false,"rental_uris":{"android":"levelo://app?vid=020f9db3-6048-4a83-8c59-4acc533112c8","ios":"levelo://app?vid=020f9db3-6048-4a83-8c59-4acc533112c8"},"vehicle_type_id":"4","last_reported":1739967407,"current_range_meters":4000,"station_id":"ce4bhnh2rcd13ifvqgug","pricing_plan_id":"cebpf4jnsgd1na2vs0mg"},{"bike_id":"5b9bfa7a-8c74-44e7-80e8-800d68982987","system_id":"levelo_inurba_marseille","lat":43.29015,"lon":5.38126,"is_reserved":false,"is_disabled":false,"rental_uris":{"android":"levelo://app?vid=5b9bfa7a-8c74-44e7-80e8-800d68982987","ios":"levelo://app?vid=5b9bfa7a-8c74-44e7-80e8-800d68982987"},"vehicle_type_id":"4","last_reported":1739967407,"current_range_meters":10000,"station_id":"ce4bh4p2rcd13ifvqe1g","pricing_plan_id":"cebpf4jnsgd1na2vs0mg"},{"bike_id":"bd4892e7-36dc-4c33-b568-5c0daf04e33b","system_id":"levelo_inurba_marseille","lat":43.30097,"lon":5.39078,"is_reserved":false,"is_disabled":false,"rental_uris":{"android":"levelo://app?vid=bd4892e7-36dc-4c33-b568-5c0daf04e33b","ios":"levelo://app?vid=bd4892e7-36dc-4c33-b568-5c0daf04e33b"},"vehicle_type_id":"4","last_reported":1739967407,"current_range_meters":4400,"station_id":"ce4bh192rcd13ifvqdb0","pricing_plan_id":"cebpf4jnsgd1na2vs0mg"},{"bike_id":"811901b7-6a39-4b98-9209-f363e05c2482","system_id":"levelo_inurba_marseille","lat":43.2815,"lon":5.42642,"is_reserved":false,"is_disabled":false,"rental_uris":{"android":"levelo://app?vid=811901b7-6a39-4b98-9209-f363e05c2482","ios":"levelo://app?vid=811901b7-6a39-4b98-9209-f363e05c2482"},"vehicle_type_id":"4","last_reported":1739967407,"current_range_meters":4800,"station_id":"ce4bhnh2rcd13ifvqgug","pricing_plan_id":"cebpf4jnsgd1na2vs0mg"},{"bike_id":"6528e792-6c2b-41ab-b102-37d30001a0e7","system_id":"levelo_inurba_marseille","lat":43.27214,"lon":5.4009,"is_reserved":false,"is_disabled":false,"rental_uris":{"android":"levelo://app?vid=6528e792-6c2b-41ab-b102-37d30001a0e7","ios":"levelo://app?vid=6528e792-6c2b-41ab-b102-37d30001a0e7"},"vehicle_type_id":"4","last_reported":1739967407,"current_range_meters":5600,"station_id":"","pricing_plan_id":"cebpf4jnsgd1na2vs0mg"},{"bike_id":"10588449-5ffa-45fc-887c-8523965fc0a8","system_id":"levelo_inurba_marseille","lat":43.25505,"lon":5.37652,"is_reserved":false,"is_disabled":false,"rental_uris":{"android":"levelo://app?vid=10588449-5ffa-45fc-887c-8523965fc0a8","ios":"levelo://app?vid=10588449-5ffa-45fc-887c-8523965fc0a8"},"vehicle_type_id":"4","last_reported":1739967407,"current_range_meters":5600,"station_id":"ce4bhh12rcd13ifvqff0","pricing_plan_id":"cebpf4jnsgd1na2vs0mg"},{"bike_id":"e11233b3-51d5-4e87-8c26-594bdc6a6d6d","system_id":"levelo_inurba_marseille","lat":43.29359,"lon":5.37844,"is_reserved":false,"is_disabled":false,"rental_uris":{"android":"levelo://app?vid=e11233b3-51d5-4e87-8c26-594bdc6a6d6d","ios":"levelo://app?vid=e11233b3-51d5-4e87-8c26-594bdc6a6d6d"},"vehicle_type_id":"4","last_reported":1739967407,"current_range_meters":5600,"station_id":"ce4bgjh2rcd13ifvqbf0","pricing_plan_id":"cebpf4jnsgd1na2vs0mg"},{"bike_id":"dcaa5d09-ad4d-4077-9a1e-bfb165ed7859","system_id":"levelo_inurba_marseille","lat":43.31216,"lon":5.36853,"is_reserved":false,"is_disabled":false,"rental_uris":{"android":"levelo://app?vid=dcaa5d09-ad4d-4077-9a1e-bfb165ed7859","ios":"levelo://app?vid=dcaa5d09-ad4d-4077-9a1e-bfb165ed7859"},"vehicle_type_id":"4","last_reported":1739967407,"current_range_meters":6000,"station_id":"ce4bgl92rcd13ifvqbq0","pricing_plan_id":"cebpf4jnsgd1na2vs0mg"},{"bike_id":"0e9ae8c5-7a7e-467d-afe2-bb8df6bfeefc","system_id":"levelo_inurba_marseille","lat":43.23344,"lon":5.40303,"is_reserved":false,"is_disabled":false,"rental_uris":{"android":"levelo://app?vid=0e9ae8c5-7a7e-467d-afe2-bb8df6bfeefc","ios":"levelo://app?vid=0e9ae8c5-7a7e-467d-afe2-bb8df6bfeefc"},"vehicle_type_id":"4","last_reported":1739967407,"current_range_meters":6000,"station_id":"","pricing_plan_id":"cebpf4jnsgd1na2vs0mg"},{"bike_id":"c109a327-37a9-4436-a7bc-7706e6f9fcb3","system_id":"levelo_inurba_marseille","lat":43.23146,"lon":5.4371,"is_reserved":false,"is_disabled":false,"rental_uris":{"android":"levelo://app?vid=c109a327-37a9-4436-a7bc-7706e6f9fcb3","ios":"levelo://app?vid=c109a327-37a9-4436-a7bc-7706e6f9fcb3"},"vehicle_type_id":"4","last_reported":1739967407,"current_range_meters":6000,"station_id":"ce4bhmp2rcd13ifvqgog","pricing_plan_id":"cebpf4jnsgd1na2vs0mg"},{"bike_id":"7174b859-40d2-4d93-8784-578ab557e269","system_id":"levelo_inurba_marseille","lat":43.30971,"lon":5.39055,"is_reserved":false,"is_disabled":false,"rental_uris":{"android":"levelo://app?vid=7174b859-40d2-4d93-8784-578ab557e269","ios":"levelo://app?vid=7174b859-40d2-4d93-8784-578ab557e269"},"vehicle_type_id":"4","last_reported":1739967407,"current_range_meters":6000,"station_id":"ce4bgup2rcd13ifvqco0","pricing_plan_id":"cebpf4jnsgd1na2vs0mg"},{"bike_id":"6b425ee7-6445-4dcc-9ef4-8999693e2d8e","system_id":"levelo_inurba_marseille","lat":43.28427,"lon":5.34991,"is_reserved":false,"is_disabled":false,"rental_uris":{"android":"levelo://app?vid=6b425ee7-6445-4dcc-9ef4-8999693e2d8e","ios":"levelo://app?vid=6b425ee7-6445-4dcc-9ef4-8999693e2d8e"},"vehicle_type_id":"4","last_reported":1739967407,"current_range_meters":6400,"station_id":"","pricing_plan_id":"cebpf4jnsgd1na2vs0mg"},{"bike_id":"12b33330-5dcb-4644-8a5c-3a95dc32ce98","system_id":"levelo_inurba_marseille","lat":43.28156,"lon":5.42645,"is_reserved":false,"is_disabled":false,"rental_uris":{"android":"levelo://app?vid=12b33330-5dcb-4644-8a5c-3a95dc32ce98","ios":"levelo://app?vid=12b33330-5dcb-4644-8a5c-3a95dc32ce98"},"vehicle_type_id":"4","last_reported":1739967407,"current_range_meters":6400,"station_id":"ce4bhnh2rcd13ifvqgug","pricing_plan_id":"cebpf4jnsgd1na2vs0mg"},{"bike_id":"5a878c01-ade1-4c3c-96b4-3ee41d9fd846","system_id":"levelo_inurba_marseille","lat":43.27561,"lon":5.38414,"is_reserved":false,"is_disabled":false,"rental_uris":{"android":"levelo://app?vid=5a878c01-ade1-4c3c-96b4-3ee41d9fd846","ios":"levelo://app?vid=5a878c01-ade1-4c3c-96b4-3ee41d9fd846"},"vehicle_type_id":"4","last_reported":1739967407,"current_range_meters":6400,"station_id":"ce4bhh92rcd13ifvqfi0","pricing_plan_id":"cebpf4jnsgd1na2vs0mg"},{"bike_id":"fe9e9092-a10a-486d-95dc-4e70a3cbff4c","system_id":"levelo_inurba_marseille","lat":43.2816,"lon":5.42786,"is_reserved":false,"is_disabled":false,"rental_uris":{"android":"levelo://app?vid=fe9e9092-a10a-486d-95dc-4e70a3cbff4c","ios":"levelo://app?vid=fe9e9092-a10a-486d-95dc-4e70a3cbff4c"},"vehicle_type_id":"4","last_reported":1739967407,"current_range_meters":6400,"station_id":"","pricing_plan_id":"cebpf4jnsgd1na2vs0mg"},{"bike_id":"574c987f-56b6-4d50-9df9-18c785204bef","system_id":"levelo_inurba_marseille","lat":43.30589,"lon":5.3652,"is_reserved":false,"is_disabled":false,"rental_uris":{"android":"levelo://app?vid=574c987f-56b6-4d50-9df9-18c785204bef","ios":"levelo://app?vid=574c987f-56b6-4d50-9df9-18c785204bef"},"vehicle_type_id":"4","last_reported":1739967407,"current_range_meters":6400,"station_id":"ce4bgs12rcd13ifvqcag","pricing_plan_id":"cebpf4jnsgd1na2vs0mg"},{"bike_id":"f6887ea5-0bff-4a48-aee3-eb33c7a27b0c","system_id":"levelo_inurba_marseille","lat":43.267837,"lon":5.394145,"is_reserved":false,"is_disabled":false,"rental_uris":{"android":"levelo://app?vid=f6887ea5-0bff-4a48-aee3-eb33c7a27b0c","ios":"levelo://app?vid=f6887ea5-0bff-4a48-aee3-eb33c7a27b0c"},"vehicle_type_id":"4","last_reported":1739967407,"current_range_meters":6400,"station_id":"ce4bhh12rcd13ifvqfg0","pricing_plan_id":"cebpf4jnsgd1na2vs0mg"},{"bike_id":"3f5a5583-e4f5-4eeb-a35d-76f151858c66","system_id":"levelo_inurba_marseille","lat":43.29282,"lon":5.40119,"is_reserved":false,"is_disabled":false,"rental_uris":{"android":"levelo://app?vid=3f5a5583-e4f5-4eeb-a35d-76f151858c66","ios":"levelo://app?vid=3f5a5583-e4f5-4eeb-a35d-76f151858c66"},"vehicle_type_id":"4","last_reported":1739967407,"current_range_meters":6400,"station_id":"ce4bh312rcd13ifvqdk0","pricing_plan_id":"cebpf4jnsgd1na2vs0mg"},{"bike_id":"024ec1bf-69b7-4285-881b-54fac4116b99","system_id":"levelo_inurba_marseille","lat":43.30093,"lon":5.39074,"is_reserved":false,"is_disabled":false,"rental_uris":{"android":"levelo://app?vid=024ec1bf-69b7-4285-881b-54fac4116b99","ios":"levelo://app?vid=024ec1bf-69b7-4285-881b-54fac4116b99"},"vehicle_type_id":"4","last_reported":1739967407,"current_range_meters":6800,"station_id":"","pricing_plan_id":"cebpf4jnsgd1na2vs0mg"},{"bike_id":"c7265b9c-676a-4fe7-938c-9ef6c1b3347f","system_id":"levelo_inurba_marseille","lat":43.27994,"lon":5.41664,"is_reserved":false,"is_disabled":false,"rental_uris":{"android":"levelo://app?vid=c7265b9c-676a-4fe7-938c-9ef6c1b3347f","ios":"levelo://app?vid=c7265b9c-676a-4fe7-938c-9ef6c1b3347f"},"vehicle_type_id":"4","last_reported":1739967407,"current_range_meters":6400,"station_id":"","pricing_plan_id":"cebpf4jnsgd1na2vs0mg"},{"bike_id":"9b7ed3f4-e084-436d-ad7e-b5f9c510ba1f","system_id":"levelo_inurba_marseille","lat":43.26558,"lon":5.37286,"is_reserved":false,"is_disabled":false,"rental_uris":{"android":"levelo://app?vid=9b7ed3f4-e084-436d-ad7e-b5f9c510ba1f","ios":"levelo://app?vid=9b7ed3f4-e084-436d-ad7e-b5f9c510ba1f"},"vehicle_type_id":"4","last_reported":1739967407,"current_range_meters":6800,"station_id":"","pricing_plan_id":"cebpf4jnsgd1na2vs0mg"},{"bike_id":"34d5d9c8-1c09-4a3b-a565-cac330cea72f","system_id":"levelo_inurba_marseille","lat":43.29783,"lon":5.37097,"is_reserved":false,"is_disabled":false,"rental_uris":{"android":"levelo://app?vid=34d5d9c8-1c09-4a3b-a565-cac330cea72f","ios":"levelo://app?vid=34d5d9c8-1c09-4a3b-a565-cac330cea72f"},"vehicle_type_id":"4","last_reported":1739967407,"current_range_meters":6800,"station_id":"ce4bgop2rcd13ifvqc1g","pricing_plan_id":"cebpf4jnsgd1na2vs0mg"},{"bike_id":"989a1c05-c74a-4632-af21-81b3f55f7909","system_id":"levelo_inurba_marseille","lat":43.29189,"lon":5.36009,"is_reserved":false,"is_disabled":true,"rental_uris":{"android":"levelo://app?vid=989a1c05-c74a-4632-af21-81b3f55f7909","ios":"levelo://app?vid=989a1c05-c74a-4632-af21-81b3f55f7909"},"vehicle_type_id":"4","last_reported":1739967407,"current_range_meters":6800,"station_id":"","pricing_plan_id":"cebpf4jnsgd1na2vs0mg"},{"bike_id":"d84e6074-ea15-4bda-bd96-1db7b7926bbb","system_id":"levelo_inurba_marseille","lat":43.30095,"lon":5.39074,"is_reserved":false,"is_disabled":false,"rental_uris":{"android":"levelo://app?vid=d84e6074-ea15-4bda-bd96-1db7b7926bbb","ios":"levelo://app?vid=d84e6074-ea15-4bda-bd96-1db7b7926bbb"},"vehicle_type_id":"4","last_reported":1739967407,"current_range_meters":6800,"station_id":"","pricing_plan_id":"cebpf4jnsgd1na2vs0mg"},{"bike_id":"ba585d35-5c02-4e3b-b000-b2f1dcca5b41","system_id":"levelo_inurba_marseille","lat":43.26069,"lon":5.40661,"is_reserved":false,"is_disabled":false,"rental_uris":{"android":"levelo://app?vid=ba585d35-5c02-4e3b-b000-b2f1dcca5b41","ios":"levelo://app?vid=ba585d35-5c02-4e3b-b000-b2f1dcca5b41"},"vehicle_type_id":"4","last_reported":1739967407,"current_range_meters":7200,"station_id":"","pricing_plan_id":"cebpf4jnsgd1na2vs0mg"},{"bike_id":"cc69b45b-10c6-4dea-b4b1-44a4d640588e","system_id":"levelo_inurba_marseille","lat":43.31493,"lon":5.37294,"is_reserved":false,"is_disabled":false,"rental_uris":{"android":"levelo://app?vid=cc69b45b-10c6-4dea-b4b1-44a4d640588e","ios":"levelo://app?vid=cc69b45b-10c6-4dea-b4b1-44a4d640588e"},"vehicle_type_id":"4","last_reported":1739967407,"current_range_meters":7200,"station_id":"ce4bgt12rcd13ifvqcd0","pricing_plan_id":"cebpf4jnsgd1na2vs0mg"},{"bike_id":"144f09ab-8746-4a13-8bb3-732ceb21be28","system_id":"levelo_inurba_marseille","lat":43.296604,"lon":5.366491,"is_reserved":false,"is_disabled":false,"rental_uris":{"android":"levelo://app?vid=144f09ab-8746-4a13-8bb3-732ceb21be28","ios":"levelo://app?vid=144f09ab-8746-4a13-8bb3-732ceb21be28"},"vehicle_type_id":"4","last_reported":1739967407,"current_range_meters":7200,"station_id":"ce4bgn12rcd13ifvqbt0","pricing_plan_id":"cebpf4jnsgd1na2vs0mg"},{"bike_id":"ff49fbee-8a40-4b1c-8bca-0fd8a4d421e7","system_id":"levelo_inurba_marseille","lat":43.30481,"lon":5.37907,"is_reserved":false,"is_disabled":false,"rental_uris":{"android":"levelo://app?vid=ff49fbee-8a40-4b1c-8bca-0fd8a4d421e7","ios":"levelo://app?vid=ff49fbee-8a40-4b1c-8bca-0fd8a4d421e7"},"vehicle_type_id":"4","last_reported":1739967407,"current_range_meters":7200,"station_id":"ce4bgup2rcd13ifvqcn0","pricing_plan_id":"cebpf4jnsgd1na2vs0mg"},{"bike_id":"19a82d90-5fb5-475e-9359-653b37581c65","system_id":"levelo_inurba_marseille","lat":43.24179,"lon":5.39697,"is_reserved":false,"is_disabled":false,"rental_uris":{"android":"levelo://app?vid=19a82d90-5fb5-475e-9359-653b37581c65","ios":"levelo://app?vid=19a82d90-5fb5-475e-9359-653b37581c65"},"vehicle_type_id":"4","last_reported":1739967407,"current_range_meters":8000,"station_id":"ce4bhn12rcd13ifvqgpg","pricing_plan_id":"cebpf4jnsgd1na2vs0mg"},{"bike_id":"06a9c3e5-6ba2-4811-a493-c1b9518c2260","system_id":"levelo_inurba_marseille","lat":43.29039,"lon":5.39948,"is_reserved":false,"is_disabled":false,"rental_uris":{"android":"levelo://app?vid=06a9c3e5-6ba2-4811-a493-c1b9518c2260","ios":"levelo://app?vid=06a9c3e5-6ba2-4811-a493-c1b9518c2260"},"vehicle_type_id":"4","last_reported":1739967407,"current_range_meters":8000,"station_id":"","pricing_plan_id":"cebpf4jnsgd1na2vs0mg"},{"bike_id":"0471ef9b-e05b-4c07-ad26-cbfbd92bd5b9","system_id":"levelo_inurba_marseille","lat":43.32469,"lon":5.36578,"is_reserved":false,"is_disabled":false,"rental_uris":{"android":"levelo://app?vid=0471ef9b-e05b-4c07-ad26-cbfbd92bd5b9","ios":"levelo://app?vid=0471ef9b-e05b-4c07-ad26-cbfbd92bd5b9"},"vehicle_type_id":"4","last_reported":1739967407,"current_range_meters":8000,"station_id":"ce4bhs12rcd13ifvqhvg","pricing_plan_id":"cebpf4jnsgd1na2vs0mg"},{"bike_id":"5ae0012d-6179-440f-a02a-a607c9208eb9","system_id":"levelo_inurba_marseille","lat":43.24696,"lon":5.38134,"is_reserved":false,"is_disabled":false,"rental_uris":{"android":"levelo://app?vid=5ae0012d-6179-440f-a02a-a607c9208eb9","ios":"levelo://app?vid=5ae0012d-6179-440f-a02a-a607c9208eb9"},"vehicle_type_id":"4","last_reported":1739967407,"current_range_meters":8000,"station_id":"ce4bhih2rcd13ifvqfr0","pricing_plan_id":"cebpf4jnsgd1na2vs0mg"},{"bike_id":"4407be18-d439-4288-9b2d-a2eae824f889","system_id":"levelo_inurba_marseille","lat":43.29122,"lon":5.35708,"is_reserved":false,"is_disabled":true,"rental_uris":{"android":"levelo://app?vid=4407be18-d439-4288-9b2d-a2eae824f889","ios":"levelo://app?vid=4407be18-d439-4288-9b2d-a2eae824f889"},"vehicle_type_id":"4","last_reported":1739967407,"current_range_meters":8000,"station_id":"","pricing_plan_id":"cebpf4jnsgd1na2vs0mg"},{"bike_id":"bb852df7-dd74-43f4-8582-0650a376dfcb","system_id":"levelo_inurba_marseille","lat":43.27501,"lon":5.42465,"is_reserved":false,"is_disabled":false,"rental_uris":{"android":"levelo://app?vid=bb852df7-dd74-43f4-8582-0650a376dfcb","ios":"levelo://app?vid=bb852df7-dd74-43f4-8582-0650a376dfcb"},"vehicle_type_id":"4","last_reported":1739967407,"current_range_meters":8400,"station_id":"ce4bhn92rcd13ifvqgrg","pricing_plan_id":"cebpf4jnsgd1na2vs0mg"},{"bike_id":"02f16661-2484-4fbc-96bc-e816eeb0ee34","system_id":"levelo_inurba_marseille","lat":43.28466,"lon":5.35877,"is_reserved":false,"is_disabled":false,"rental_uris":{"android":"levelo://app?vid=02f16661-2484-4fbc-96bc-e816eeb0ee34","ios":"levelo://app?vid=02f16661-2484-4fbc-96bc-e816eeb0ee34"},"vehicle_type_id":"4","last_reported":1739967407,"current_range_meters":8400,"station_id":"ce4bhah2rcd13ifvqei0","pricing_plan_id":"cebpf4jnsgd1na2vs0mg"},{"bike_id":"520b0d59-4c10-4479-9d24-1b077a831a11","system_id":"levelo_inurba_marseille","lat":43.30894,"lon":5.39657,"is_reserved":false,"is_disabled":false,"rental_uris":{"android":"levelo://app?vid=520b0d59-4c10-4479-9d24-1b077a831a11","ios":"levelo://app?vid=520b0d59-4c10-4479-9d24-1b077a831a11"},"vehicle_type_id":"4","last_reported":1739967407,"current_range_meters":8400,"station_id":"ce4bh012rcd13ifvqcv0","pricing_plan_id":"cebpf4jnsgd1na2vs0mg"},{"bike_id":"e79d1c03-ea93-4ee5-8cb2-ecdeca48b0aa","system_id":"levelo_inurba_marseille","lat":43.23159,"lon":5.43701,"is_reserved":false,"is_disabled":true,"rental_uris":{"android":"levelo://app?vid=e79d1c03-ea93-4ee5-8cb2-ecdeca48b0aa","ios":"levelo://app?vid=e79d1c03-ea93-4ee5-8cb2-ecdeca48b0aa"},"vehicle_type_id":"4","last_reported":1739967407,"current_range_meters":8400,"station_id":"ce4bhmp2rcd13ifvqgog","pricing_plan_id":"cebpf4jnsgd1na2vs0mg"},{"bike_id":"5d80b793-0473-4294-bf56-bca36ed211a8","system_id":"levelo_inurba_marseille","lat":43.29362,"lon":5.37832,"is_reserved":false,"is_disabled":false,"rental_uris":{"android":"levelo://app?vid=5d80b793-0473-4294-bf56-bca36ed211a8","ios":"levelo://app?vid=5d80b793-0473-4294-bf56-bca36ed211a8"},"vehicle_type_id":"4","last_reported":1739967407,"current_range_meters":8400,"station_id":"ce4bgjh2rcd13ifvqbf0","pricing_plan_id":"cebpf4jnsgd1na2vs0mg"},{"bike_id":"af3d0f2d-08fa-41db-bc0f-f51de43a9c0e","system_id":"levelo_inurba_marseille","lat":43.25946,"lon":5.40895,"is_reserved":false,"is_disabled":false,"rental_uris":{"android":"levelo://app?vid=af3d0f2d-08fa-41db-bc0f-f51de43a9c0e","ios":"levelo://app?vid=af3d0f2d-08fa-41db-bc0f-f51de43a9c0e"},"vehicle_type_id":"4","last_reported":1739967407,"current_range_meters":8800,"station_id":"ce4bhm92rcd13ifvqglg","pricing_plan_id":"cebpf4jnsgd1na2vs0mg"},{"bike_id":"9b03b96d-2041-4d92-a949-290d7b50f943","system_id":"levelo_inurba_marseille","lat":43.27174,"lon":5.40986,"is_reserved":false,"is_disabled":false,"rental_uris":{"android":"levelo://app?vid=9b03b96d-2041-4d92-a949-290d7b50f943","ios":"levelo://app?vid=9b03b96d-2041-4d92-a949-290d7b50f943"},"vehicle_type_id":"4","last_reported":1739967407,"current_range_meters":8800,"station_id":"","pricing_plan_id":"cebpf4jnsgd1na2vs0mg"},{"bike_id":"3ea0b1ad-f3ea-4211-8e3b-d3f0c9a0f631","system_id":"levelo_inurba_marseille","lat":43.31091,"lon":5.38984,"is_reserved":false,"is_disabled":false,"rental_uris":{"android":"levelo://app?vid=3ea0b1ad-f3ea-4211-8e3b-d3f0c9a0f631","ios":"levelo://app?vid=3ea0b1ad-f3ea-4211-8e3b-d3f0c9a0f631"},"vehicle_type_id":"4","last_reported":1739967407,"current_range_meters":8800,"station_id":"","pricing_plan_id":"cebpf4jnsgd1na2vs0mg"},{"bike_id":"46ea923b-1a59-495a-a45f-bcf3c15a4145","system_id":"levelo_inurba_marseille","lat":43.31712,"lon":5.37709,"is_reserved":false,"is_disabled":false,"rental_uris":{"android":"levelo://app?vid=46ea923b-1a59-495a-a45f-bcf3c15a4145","ios":"levelo://app?vid=46ea923b-1a59-495a-a45f-bcf3c15a4145"},"vehicle_type_id":"4","last_reported":1739967407,"current_range_meters":8800,"station_id":"ce4bgth2rcd13ifvqch0","pricing_plan_id":"cebpf4jnsgd1na2vs0mg"},{"bike_id":"84cfdb91-e8c7-4f2f-9236-76b298bb9ecf","system_id":"levelo_inurba_marseille","lat":43.30938,"lon":5.4014,"is_reserved":false,"is_disabled":false,"rental_uris":{"android":"levelo://app?vid=84cfdb91-e8c7-4f2f-9236-76b298bb9ecf","ios":"levelo://app?vid=84cfdb91-e8c7-4f2f-9236-76b298bb9ecf"},"vehicle_type_id":"4","last_reported":1739967407,"current_range_meters":8800,"station_id":"ce4bgvp2rcd13ifvqct0","pricing_plan_id":"cebpf4jnsgd1na2vs0mg"},{"bike_id":"a390bf43-0d18-46e1-bc87-e07fc0681448","system_id":"levelo_inurba_marseille","lat":43.29188,"lon":5.35797,"is_reserved":false,"is_disabled":false,"rental_uris":{"android":"levelo://app?vid=a390bf43-0d18-46e1-bc87-e07fc0681448","ios":"levelo://app?vid=a390bf43-0d18-46e1-bc87-e07fc0681448"},"vehicle_type_id":"4","last_reported":1739967407,"current_range_meters":9200,"station_id":"ce4bhb12rcd13ifvqel0","pricing_plan_id":"cebpf4jnsgd1na2vs0mg"},{"bike_id":"4089f1a0-cd12-42d3-a6c3-01d445970a86","system_id":"levelo_inurba_marseille","lat":43.31289,"lon":5.37422,"is_reserved":false,"is_disabled":false,"rental_uris":{"android":"levelo://app?vid=4089f1a0-cd12-42d3-a6c3-01d445970a86","ios":"levelo://app?vid=4089f1a0-cd12-42d3-a6c3-01d445970a86"},"vehicle_type_id":"4","last_reported":1739967407,"current_range_meters":8800,"station_id":"","pricing_plan_id":"cebpf4jnsgd1na2vs0mg"},{"bike_id":"3d71a1fb-de1c-4274-9850-bed85e04f29e","system_id":"levelo_inurba_marseille","lat":43.29573,"lon":5.39981,"is_reserved":false,"is_disabled":false,"rental_uris":{"android":"levelo://app?vid=3d71a1fb-de1c-4274-9850-bed85e04f29e","ios":"levelo://app?vid=3d71a1fb-de1c-4274-9850-bed85e04f29e"},"vehicle_type_id":"4","last_reported":1739967407,"current_range_meters":8800,"station_id":"","pricing_plan_id":"cebpf4jnsgd1na2vs0mg"},{"bike_id":"4b0def63-34a8-44bf-a4b2-a9e4e6186839","system_id":"levelo_inurba_marseille","lat":43.31483,"lon":5.37272,"is_reserved":false,"is_disabled":false,"rental_uris":{"android":"levelo://app?vid=4b0def63-34a8-44bf-a4b2-a9e4e6186839","ios":"levelo://app?vid=4b0def63-34a8-44bf-a4b2-a9e4e6186839"},"vehicle_type_id":"4","last_reported":1739967407,"current_range_meters":9600,"station_id":"ce4bgt12rcd13ifvqcd0","pricing_plan_id":"cebpf4jnsgd1na2vs0mg"},{"bike_id":"62aee166-68dc-44c2-b042-2ebd671a7116","system_id":"levelo_inurba_marseille","lat":43.29849,"lon":5.36276,"is_reserved":false,"is_disabled":false,"rental_uris":{"android":"levelo://app?vid=62aee166-68dc-44c2-b042-2ebd671a7116","ios":"levelo://app?vid=62aee166-68dc-44c2-b042-2ebd671a7116"},"vehicle_type_id":"4","last_reported":1739967407,"current_range_meters":9200,"station_id":"ce4bgpp2rcd13ifvqc3g","pricing_plan_id":"cebpf4jnsgd1na2vs0mg"},{"bike_id":"10c134e7-7862-45ed-8103-0b6221fb4b66","system_id":"levelo_inurba_marseille","lat":43.25011,"lon":5.38922,"is_reserved":false,"is_disabled":false,"rental_uris":{"android":"levelo://app?vid=10c134e7-7862-45ed-8103-0b6221fb4b66","ios":"levelo://app?vid=10c134e7-7862-45ed-8103-0b6221fb4b66"},"vehicle_type_id":"4","last_reported":1739967407,"current_range_meters":9200,"station_id":"","pricing_plan_id":"cebpf4jnsgd1na2vs0mg"},{"bike_id":"9198c6ef-bd5b-45d9-bd7b-e058d791d44b","system_id":"levelo_inurba_marseille","lat":43.24811,"lon":5.37465,"is_reserved":false,"is_disabled":false,"rental_uris":{"android":"levelo://app?vid=9198c6ef-bd5b-45d9-bd7b-e058d791d44b","ios":"levelo://app?vid=9198c6ef-bd5b-45d9-bd7b-e058d791d44b"},"vehicle_type_id":"4","last_reported":1739967407,"current_range_meters":9200,"station_id":"ce4bhgh2rcd13ifvqfb0","pricing_plan_id":"cebpf4jnsgd1na2vs0mg"},{"bike_id":"d83abffa-33ba-4585-af9c-e9f764c92524","system_id":"levelo_inurba_marseille","lat":43.30133,"lon":5.37412,"is_reserved":false,"is_disabled":false,"rental_uris":{"android":"levelo://app?vid=d83abffa-33ba-4585-af9c-e9f764c92524","ios":"levelo://app?vid=d83abffa-33ba-4585-af9c-e9f764c92524"},"vehicle_type_id":"4","last_reported":1739967407,"current_range_meters":9600,"station_id":"ce4bgs92rcd13ifvqcc0","pricing_plan_id":"cebpf4jnsgd1na2vs0mg"},{"bike_id":"c33eeeb5-a95f-4eb9-b6c1-54f4b66f9ab7","system_id":"levelo_inurba_marseille","lat":43.29229,"lon":5.36071,"is_reserved":false,"is_disabled":false,"rental_uris":{"android":"levelo://app?vid=c33eeeb5-a95f-4eb9-b6c1-54f4b66f9ab7","ios":"levelo://app?vid=c33eeeb5-a95f-4eb9-b6c1-54f4b66f9ab7"},"vehicle_type_id":"4","last_reported":1739967407,"current_range_meters":9600,"station_id":"ce4bhbh2rcd13ifvqeqg","pricing_plan_id":"cebpf4jnsgd1na2vs0mg"},{"bike_id":"af9943e2-cc33-443a-93dd-b0b9c10a6619","system_id":"levelo_inurba_marseille","lat":43.29607,"lon":5.37729,"is_reserved":false,"is_disabled":false,"rental_uris":{"android":"levelo://app?vid=af9943e2-cc33-443a-93dd-b0b9c10a6619","ios":"levelo://app?vid=af9943e2-cc33-443a-93dd-b0b9c10a6619"},"vehicle_type_id":"4","last_reported":1739967407,"current_range_meters":9600,"station_id":"ce4bgi92rcd13ifvqb90","pricing_plan_id":"cebpf4jnsgd1na2vs0mg"},{"bike_id":"b41ddac1-a116-4edd-8eb3-edd02fc9e479","system_id":"levelo_inurba_marseille","lat":43.241909,"lon":5.396914,"is_reserved":false,"is_disabled":false,"rental_uris":{"android":"levelo://app?vid=b41ddac1-a116-4edd-8eb3-edd02fc9e479","ios":"levelo://app?vid=b41ddac1-a116-4edd-8eb3-edd02fc9e479"},"vehicle_type_id":"4","last_reported":1739967407,"current_range_meters":9600,"station_id":"ce4bhn12rcd13ifvqgqg","pricing_plan_id":"cebpf4jnsgd1na2vs0mg"},{"bike_id":"f0f61fdf-e262-479f-a259-1997ef9b3f40","system_id":"levelo_inurba_marseille","lat":43.28164,"lon":5.4265,"is_reserved":false,"is_disabled":false,"rental_uris":{"android":"levelo://app?vid=f0f61fdf-e262-479f-a259-1997ef9b3f40","ios":"levelo://app?vid=f0f61fdf-e262-479f-a259-1997ef9b3f40"},"vehicle_type_id":"4","last_reported":1739967407,"current_range_meters":9600,"station_id":"","pricing_plan_id":"cebpf4jnsgd1na2vs0mg"},{"bike_id":"a0e7bb5e-0820-4bf5-8e20-c488c9c1de96","system_id":"levelo_inurba_marseille","lat":43.29304,"lon":5.3745,"is_reserved":false,"is_disabled":false,"rental_uris":{"android":"levelo://app?vid=a0e7bb5e-0820-4bf5-8e20-c488c9c1de96","ios":"levelo://app?vid=a0e7bb5e-0820-4bf5-8e20-c488c9c1de96"},"vehicle_type_id":"4","last_reported":1739967407,"current_range_meters":10800,"station_id":"ce4bgi12rcd13ifvqb70","pricing_plan_id":"cebpf4jnsgd1na2vs0mg"},{"bike_id":"fc1759fc-f01a-4d36-800a-54a797599b72","system_id":"levelo_inurba_marseille","lat":43.30145,"lon":5.38086,"is_reserved":false,"is_disabled":false,"rental_uris":{"android":"levelo://app?vid=fc1759fc-f01a-4d36-800a-54a797599b72","ios":"levelo://app?vid=fc1759fc-f01a-4d36-800a-54a797599b72"},"vehicle_type_id":"4","last_reported":1739967407,"current_range_meters":10000,"station_id":"ce4bgjp2rcd13ifvqbh0","pricing_plan_id":"cebpf4jnsgd1na2vs0mg"},{"bike_id":"db7f2d58-492d-4297-aa78-ce0ad99a0a74","system_id":"levelo_inurba_marseille","lat":43.27436,"lon":5.41041,"is_reserved":false,"is_disabled":false,"rental_uris":{"android":"levelo://app?vid=db7f2d58-492d-4297-aa78-ce0ad99a0a74","ios":"levelo://app?vid=db7f2d58-492d-4297-aa78-ce0ad99a0a74"},"vehicle_type_id":"4","last_reported":1739967407,"current_range_meters":10000,"station_id":"ce4bhb92rcd13ifvqen0","pricing_plan_id":"cebpf4jnsgd1na2vs0mg"},{"bike_id":"03436235-6585-4104-859e-07d2648d3f25","system_id":"levelo_inurba_marseille","lat":43.29304,"lon":5.37167,"is_reserved":false,"is_disabled":false,"rental_uris":{"android":"levelo://app?vid=03436235-6585-4104-859e-07d2648d3f25","ios":"levelo://app?vid=03436235-6585-4104-859e-07d2648d3f25"},"vehicle_type_id":"4","last_reported":1739967407,"current_range_meters":10000,"station_id":"ce4bgh92rcd13ifvqb40","pricing_plan_id":"cebpf4jnsgd1na2vs0mg"},{"bike_id":"8c7747e4-cf63-4d54-b5f2-5fa3c7b6b66b","system_id":"levelo_inurba_marseille","lat":43.28461,"lon":5.35878,"is_reserved":false,"is_disabled":false,"rental_uris":{"android":"levelo://app?vid=8c7747e4-cf63-4d54-b5f2-5fa3c7b6b66b","ios":"levelo://app?vid=8c7747e4-cf63-4d54-b5f2-5fa3c7b6b66b"},"vehicle_type_id":"4","last_reported":1739967407,"current_range_meters":10000,"station_id":"ce4bhah2rcd13ifvqei0","pricing_plan_id":"cebpf4jnsgd1na2vs0mg"},{"bike_id":"ea1519e7-b5fe-42ac-aa41-a04f66c121d4","system_id":"levelo_inurba_marseille","lat":43.24083,"lon":5.37726,"is_reserved":false,"is_disabled":false,"rental_uris":{"android":"levelo://app?vid=ea1519e7-b5fe-42ac-aa41-a04f66c121d4","ios":"levelo://app?vid=ea1519e7-b5fe-42ac-aa41-a04f66c121d4"},"vehicle_type_id":"4","last_reported":1739967407,"current_range_meters":10000,"station_id":"ce4bhnp2rcd13ifvqgvg","pricing_plan_id":"cebpf4jnsgd1na2vs0mg"},{"bike_id":"b77b6638-3e03-40f3-8180-ceaa54f2a250","system_id":"levelo_inurba_marseille","lat":43.30951,"lon":5.39046,"is_reserved":false,"is_disabled":false,"rental_uris":{"android":"levelo://app?vid=b77b6638-3e03-40f3-8180-ceaa54f2a250","ios":"levelo://app?vid=b77b6638-3e03-40f3-8180-ceaa54f2a250"},"vehicle_type_id":"4","last_reported":1739967407,"current_range_meters":10000,"station_id":"ce4bgup2rcd13ifvqco0","pricing_plan_id":"cebpf4jnsgd1na2vs0mg"},{"bike_id":"0a36a95a-9825-48dc-a7c2-b2cec61bf7de","system_id":"levelo_inurba_marseille","lat":43.29604,"lon":5.37721,"is_reserved":false,"is_disabled":false,"rental_uris":{"android":"levelo://app?vid=0a36a95a-9825-48dc-a7c2-b2cec61bf7de","ios":"levelo://app?vid=0a36a95a-9825-48dc-a7c2-b2cec61bf7de"},"vehicle_type_id":"4","last_reported":1739967407,"current_range_meters":10800,"station_id":"ce4bgi92rcd13ifvqb90","pricing_plan_id":"cebpf4jnsgd1na2vs0mg"},{"bike_id":"a691656a-99c0-43ae-872e-22fbb1f9e23d","system_id":"levelo_inurba_marseille","lat":43.29571,"lon":5.37521,"is_reserved":false,"is_disabled":false,"rental_uris":{"android":"levelo://app?vid=a691656a-99c0-43ae-872e-22fbb1f9e23d","ios":"levelo://app?vid=a691656a-99c0-43ae-872e-22fbb1f9e23d"},"vehicle_type_id":"4","last_reported":1739967407,"current_range_meters":10000,"station_id":"ce4bgh92rcd13ifvqb50","pricing_plan_id":"cebpf4jnsgd1na2vs0mg"},{"bike_id":"2c2e1a20-24c5-4f64-a93b-dd10cdd392f1","system_id":"levelo_inurba_marseille","lat":43.29714,"lon":5.3661,"is_reserved":false,"is_disabled":false,"rental_uris":{"android":"levelo://app?vid=2c2e1a20-24c5-4f64-a93b-dd10cdd392f1","ios":"levelo://app?vid=2c2e1a20-24c5-4f64-a93b-dd10cdd392f1"},"vehicle_type_id":"4","last_reported":1739967407,"current_range_meters":10800,"station_id":"ce4bgn12rcd13ifvqbt0","pricing_plan_id":"cebpf4jnsgd1na2vs0mg"},{"bike_id":"a683390a-7fa3-44bc-9bfb-695783501be4","system_id":"levelo_inurba_marseille","lat":43.29842,"lon":5.36212,"is_reserved":false,"is_disabled":false,"rental_uris":{"android":"levelo://app?vid=a683390a-7fa3-44bc-9bfb-695783501be4","ios":"levelo://app?vid=a683390a-7fa3-44bc-9bfb-695783501be4"},"vehicle_type_id":"4","last_reported":1739967407,"current_range_meters":10800,"station_id":"ce4bgpp2rcd13ifvqc3g","pricing_plan_id":"cebpf4jnsgd1na2vs0mg"},{"bike_id":"6defbe51-bc6f-4430-b5ab-60dc5cf67e7b","system_id":"levelo_inurba_marseille","lat":43.2418,"lon":5.39726,"is_reserved":false,"is_disabled":false,"rental_uris":{"android":"levelo://app?vid=6defbe51-bc6f-4430-b5ab-60dc5cf67e7b","ios":"levelo://app?vid=6defbe51-bc6f-4430-b5ab-60dc5cf67e7b"},"vehicle_type_id":"4","last_reported":1739967407,"current_range_meters":10800,"station_id":"ce4bhn12rcd13ifvqgpg","pricing_plan_id":"cebpf4jnsgd1na2vs0mg"},{"bike_id":"f06e9da7-55e1-4f7c-af34-7a7971579920","system_id":"levelo_inurba_marseille","lat":43.26561,"lon":5.37284,"is_reserved":false,"is_disabled":false,"rental_uris":{"android":"levelo://app?vid=f06e9da7-55e1-4f7c-af34-7a7971579920","ios":"levelo://app?vid=f06e9da7-55e1-4f7c-af34-7a7971579920"},"vehicle_type_id":"4","last_reported":1739967407,"current_range_meters":10800,"station_id":"ce4bhg12rcd13ifvqf70","pricing_plan_id":"cebpf4jnsgd1na2vs0mg"},{"bike_id":"fb9fb668-5d47-4275-9e8b-6df49ec2bc3d","system_id":"levelo_inurba_marseille","lat":43.27312,"lon":5.39059,"is_reserved":false,"is_disabled":false,"rental_uris":{"android":"levelo://app?vid=fb9fb668-5d47-4275-9e8b-6df49ec2bc3d","ios":"levelo://app?vid=fb9fb668-5d47-4275-9e8b-6df49ec2bc3d"},"vehicle_type_id":"4","last_reported":1739967407,"current_range_meters":10800,"station_id":"","pricing_plan_id":"cebpf4jnsgd1na2vs0mg"},{"bike_id":"399617b2-f56b-4003-8092-77ee36dd35c0","system_id":"levelo_inurba_marseille","lat":43.293363,"lon":5.378397,"is_reserved":false,"is_disabled":false,"rental_uris":{"android":"levelo://app?vid=399617b2-f56b-4003-8092-77ee36dd35c0","ios":"levelo://app?vid=399617b2-f56b-4003-8092-77ee36dd35c0"},"vehicle_type_id":"4","last_reported":1739967407,"current_range_meters":11200,"station_id":"ce4bgjh2rcd13ifvqbf0","pricing_plan_id":"cebpf4jnsgd1na2vs0mg"},{"bike_id":"f027fe38-3f5d-42fa-b16a-68ca60104c09","system_id":"levelo_inurba_marseille","lat":43.24166,"lon":5.3641,"is_reserved":false,"is_disabled":false,"rental_uris":{"android":"levelo://app?vid=f027fe38-3f5d-42fa-b16a-68ca60104c09","ios":"levelo://app?vid=f027fe38-3f5d-42fa-b16a-68ca60104c09"},"vehicle_type_id":"4","last_reported":1739967407,"current_range_meters":11200,"station_id":"","pricing_plan_id":"cebpf4jnsgd1na2vs0mg"},{"bike_id":"b0a70df6-9a87-4425-872c-280f11f549eb","system_id":"levelo_inurba_marseille","lat":43.29927,"lon":5.36535,"is_reserved":false,"is_disabled":false,"rental_uris":{"android":"levelo://app?vid=b0a70df6-9a87-4425-872c-280f11f549eb","ios":"levelo://app?vid=b0a70df6-9a87-4425-872c-280f11f549eb"},"vehicle_type_id":"4","last_reported":1739967407,"current_range_meters":11600,"station_id":"ce4bgm92rcd13ifvqbr0","pricing_plan_id":"cebpf4jnsgd1na2vs0mg"},{"bike_id":"63c4cf47-dbff-4d5e-a88a-080b99df99de","system_id":"levelo_inurba_marseille","lat":43.295128,"lon":5.388993,"is_reserved":false,"is_disabled":true,"rental_uris":{"android":"levelo://app?vid=63c4cf47-dbff-4d5e-a88a-080b99df99de","ios":"levelo://app?vid=63c4cf47-dbff-4d5e-a88a-080b99df99de"},"vehicle_type_id":"4","last_reported":1739967407,"current_range_meters":11600,"station_id":"","pricing_plan_id":"cebpf4jnsgd1na2vs0mg"},{"bike_id":"d1dec037-ee4c-4db9-a655-1087d8ee1f4f","system_id":"levelo_inurba_marseille","lat":43.28444,"lon":5.39175,"is_reserved":false,"is_disabled":true,"rental_uris":{"android":"levelo://app?vid=d1dec037-ee4c-4db9-a655-1087d8ee1f4f","ios":"levelo://app?vid=d1dec037-ee4c-4db9-a655-1087d8ee1f4f"},"vehicle_type_id":"4","last_reported":1739967407,"current_range_meters":11600,"station_id":"","pricing_plan_id":"cebpf4jnsgd1na2vs0mg"},{"bike_id":"c186b769-21b0-4010-925d-7e3b55aba84a","system_id":"levelo_inurba_marseille","lat":43.30164,"lon":5.38078,"is_reserved":false,"is_disabled":false,"rental_uris":{"android":"levelo://app?vid=c186b769-21b0-4010-925d-7e3b55aba84a","ios":"levelo://app?vid=c186b769-21b0-4010-925d-7e3b55aba84a"},"vehicle_type_id":"4","last_reported":1739967407,"current_range_meters":12000,"station_id":"ce4bgjp2rcd13ifvqbh0","pricing_plan_id":"cebpf4jnsgd1na2vs0mg"},{"bike_id":"1d63a175-89ef-49ff-9ead-dfe9ed6c22cf","system_id":"levelo_inurba_marseille","lat":43.24693,"lon":5.39437,"is_reserved":false,"is_disabled":false,"rental_uris":{"android":"levelo://app?vid=1d63a175-89ef-49ff-9ead-dfe9ed6c22cf","ios":"levelo://app?vid=1d63a175-89ef-49ff-9ead-dfe9ed6c22cf"},"vehicle_type_id":"4","last_reported":1739967407,"current_range_meters":12000,"station_id":"","pricing_plan_id":"cebpf4jnsgd1na2vs0mg"},{"bike_id":"a00fb5cd-e0d2-4f96-befb-5275c0df0c87","system_id":"levelo_inurba_marseille","lat":43.27995,"lon":5.41651,"is_reserved":false,"is_disabled":false,"rental_uris":{"android":"levelo://app?vid=a00fb5cd-e0d2-4f96-befb-5275c0df0c87","ios":"levelo://app?vid=a00fb5cd-e0d2-4f96-befb-5275c0df0c87"},"vehicle_type_id":"4","last_reported":1739967407,"current_range_meters":12400,"station_id":"ce4bho12rcd13ifvqh1g","pricing_plan_id":"cebpf4jnsgd1na2vs0mg"},{"bike_id":"87a627da-e4b0-4a18-8633-fd19bb219ca1","system_id":"levelo_inurba_marseille","lat":43.25006,"lon":5.38915,"is_reserved":false,"is_disabled":false,"rental_uris":{"android":"levelo://app?vid=87a627da-e4b0-4a18-8633-fd19bb219ca1","ios":"levelo://app?vid=87a627da-e4b0-4a18-8633-fd19bb219ca1"},"vehicle_type_id":"4","last_reported":1739967407,"current_range_meters":12400,"station_id":"ce4bhgp2rcd13ifvqfd0","pricing_plan_id":"cebpf4jnsgd1na2vs0mg"},{"bike_id":"397b80cf-cbf3-4f7e-9d00-ad56509053a2","system_id":"levelo_inurba_marseille","lat":43.29177,"lon":5.39759,"is_reserved":false,"is_disabled":false,"rental_uris":{"android":"levelo://app?vid=397b80cf-cbf3-4f7e-9d00-ad56509053a2","ios":"levelo://app?vid=397b80cf-cbf3-4f7e-9d00-ad56509053a2"},"vehicle_type_id":"4","last_reported":1739967407,"current_range_meters":12400,"station_id":"","pricing_plan_id":"cebpf4jnsgd1na2vs0mg"},{"bike_id":"f445ce09-0ad2-48a5-a691-0b8c7fb47914","system_id":"levelo_inurba_marseille","lat":43.28941,"lon":5.39633,"is_reserved":false,"is_disabled":false,"rental_uris":{"android":"levelo://app?vid=f445ce09-0ad2-48a5-a691-0b8c7fb47914","ios":"levelo://app?vid=f445ce09-0ad2-48a5-a691-0b8c7fb47914"},"vehicle_type_id":"4","last_reported":1739967407,"current_range_meters":14000,"station_id":"ce4bh3h2rcd13ifvqdn0","pricing_plan_id":"cebpf4jnsgd1na2vs0mg"},{"bike_id":"b9f0d2b1-0b24-4ea9-8f18-d21b16239f59","system_id":"levelo_inurba_marseille","lat":43.30282,"lon":5.377,"is_reserved":false,"is_disabled":false,"rental_uris":{"android":"levelo://app?vid=b9f0d2b1-0b24-4ea9-8f18-d21b16239f59","ios":"levelo://app?vid=b9f0d2b1-0b24-4ea9-8f18-d21b16239f59"},"vehicle_type_id":"4","last_reported":1739967407,"current_range_meters":14000,"station_id":"ce4bguh2rcd13ifvqcj0","pricing_plan_id":"cebpf4jnsgd1na2vs0mg"},{"bike_id":"f1ef0f2b-aceb-4fe1-8e45-90f1104684ec","system_id":"levelo_inurba_marseille","lat":43.30968,"lon":5.39041,"is_reserved":false,"is_disabled":false,"rental_uris":{"android":"levelo://app?vid=f1ef0f2b-aceb-4fe1-8e45-90f1104684ec","ios":"levelo://app?vid=f1ef0f2b-aceb-4fe1-8e45-90f1104684ec"},"vehicle_type_id":"4","last_reported":1739967407,"current_range_meters":12400,"station_id":"ce4bgup2rcd13ifvqco0","pricing_plan_id":"cebpf4jnsgd1na2vs0mg"},{"bike_id":"62613826-4aec-4f29-8a06-e60f5f637ded","system_id":"levelo_inurba_marseille","lat":43.30533,"lon":5.36544,"is_reserved":false,"is_disabled":false,"rental_uris":{"android":"levelo://app?vid=62613826-4aec-4f29-8a06-e60f5f637ded","ios":"levelo://app?vid=62613826-4aec-4f29-8a06-e60f5f637ded"},"vehicle_type_id":"4","last_reported":1739967407,"current_range_meters":12400,"station_id":"ce4bgs12rcd13ifvqcag","pricing_plan_id":"cebpf4jnsgd1na2vs0mg"},{"bike_id":"25c51708-6e79-4e31-91e0-5944ab51ad01","system_id":"levelo_inurba_marseille","lat":43.30119,"lon":5.39835,"is_reserved":false,"is_disabled":false,"rental_uris":{"android":"levelo://app?vid=25c51708-6e79-4e31-91e0-5944ab51ad01","ios":"levelo://app?vid=25c51708-6e79-4e31-91e0-5944ab51ad01"},"vehicle_type_id":"4","last_reported":1739967407,"current_range_meters":12400,"station_id":"ce4bh0h2rcd13ifvqd40","pricing_plan_id":"cebpf4jnsgd1na2vs0mg"},{"bike_id":"53134ec9-f577-412e-8a21-0bf0e7e5a94a","system_id":"levelo_inurba_marseille","lat":43.26198,"lon":5.37929,"is_reserved":false,"is_disabled":false,"rental_uris":{"android":"levelo://app?vid=53134ec9-f577-412e-8a21-0bf0e7e5a94a","ios":"levelo://app?vid=53134ec9-f577-412e-8a21-0bf0e7e5a94a"},"vehicle_type_id":"4","last_reported":1739967407,"current_range_meters":12800,"station_id":"ce4bhjp2rcd13ifvqg90","pricing_plan_id":"cebpf4jnsgd1na2vs0mg"},{"bike_id":"c67fb496-8441-458a-af2d-8f07c087bdd0","system_id":"levelo_inurba_marseille","lat":43.24189,"lon":5.36381,"is_reserved":false,"is_disabled":true,"rental_uris":{"android":"levelo://app?vid=c67fb496-8441-458a-af2d-8f07c087bdd0","ios":"levelo://app?vid=c67fb496-8441-458a-af2d-8f07c087bdd0"},"vehicle_type_id":"4","last_reported":1739967407,"current_range_meters":12800,"station_id":"","pricing_plan_id":"cebpf4jnsgd1na2vs0mg"},{"bike_id":"24dd12c1-4d8a-40c0-b521-a98d2d462c41","system_id":"levelo_inurba_marseille","lat":43.24171,"lon":5.36411,"is_reserved":false,"is_disabled":false,"rental_uris":{"android":"levelo://app?vid=24dd12c1-4d8a-40c0-b521-a98d2d462c41","ios":"levelo://app?vid=24dd12c1-4d8a-40c0-b521-a98d2d462c41"},"vehicle_type_id":"4","last_reported":1739967407,"current_range_meters":12800,"station_id":"","pricing_plan_id":"cebpf4jnsgd1na2vs0mg"},{"bike_id":"437bb01f-bd3c-49cd-9e3b-6cb22839a2bb","system_id":"levelo_inurba_marseille","lat":43.3058,"lon":5.36508,"is_reserved":false,"is_disabled":false,"rental_uris":{"android":"levelo://app?vid=437bb01f-bd3c-49cd-9e3b-6cb22839a2bb","ios":"levelo://app?vid=437bb01f-bd3c-49cd-9e3b-6cb22839a2bb"},"vehicle_type_id":"4","last_reported":1739967407,"current_range_meters":13600,"station_id":"ce4bgs12rcd13ifvqcag","pricing_plan_id":"cebpf4jnsgd1na2vs0mg"},{"bike_id":"34d14ec0-9a1d-4d07-8158-52ff5d0c0371","system_id":"levelo_inurba_marseille","lat":43.29421,"lon":5.38043,"is_reserved":false,"is_disabled":false,"rental_uris":{"android":"levelo://app?vid=34d14ec0-9a1d-4d07-8158-52ff5d0c0371","ios":"levelo://app?vid=34d14ec0-9a1d-4d07-8158-52ff5d0c0371"},"vehicle_type_id":"4","last_reported":1739967407,"current_range_meters":13600,"station_id":"","pricing_plan_id":"cebpf4jnsgd1na2vs0mg"},{"bike_id":"fc971b16-bef3-4b6d-813c-ffc8ffa48842","system_id":"levelo_inurba_marseille","lat":43.2841,"lon":5.34986,"is_reserved":false,"is_disabled":true,"rental_uris":{"android":"levelo://app?vid=fc971b16-bef3-4b6d-813c-ffc8ffa48842","ios":"levelo://app?vid=fc971b16-bef3-4b6d-813c-ffc8ffa48842"},"vehicle_type_id":"4","last_reported":1739967407,"current_range_meters":13600,"station_id":"","pricing_plan_id":"cebpf4jnsgd1na2vs0mg"},{"bike_id":"5180f318-4948-4085-aaf1-5f3160b57dbe","system_id":"levelo_inurba_marseille","lat":43.27623,"lon":5.36097,"is_reserved":false,"is_disabled":true,"rental_uris":{"android":"levelo://app?vid=5180f318-4948-4085-aaf1-5f3160b57dbe","ios":"levelo://app?vid=5180f318-4948-4085-aaf1-5f3160b57dbe"},"vehicle_type_id":"4","last_reported":1739967407,"current_range_meters":13600,"station_id":"","pricing_plan_id":"cebpf4jnsgd1na2vs0mg"},{"bike_id":"0b1a3b32-459a-4ff9-a388-d16482304482","system_id":"levelo_inurba_marseille","lat":43.27995,"lon":5.40021,"is_reserved":false,"is_disabled":false,"rental_uris":{"android":"levelo://app?vid=0b1a3b32-459a-4ff9-a388-d16482304482","ios":"levelo://app?vid=0b1a3b32-459a-4ff9-a388-d16482304482"},"vehicle_type_id":"4","last_reported":1739967407,"current_range_meters":14000,"station_id":"","pricing_plan_id":"cebpf4jnsgd1na2vs0mg"},{"bike_id":"a6eced9b-6edd-4a1b-a0df-b4981c58dbd1","system_id":"levelo_inurba_marseille","lat":43.3033,"lon":5.40435,"is_reserved":false,"is_disabled":false,"rental_uris":{"android":"levelo://app?vid=a6eced9b-6edd-4a1b-a0df-b4981c58dbd1","ios":"levelo://app?vid=a6eced9b-6edd-4a1b-a0df-b4981c58dbd1"},"vehicle_type_id":"4","last_reported":1739967407,"current_range_meters":14000,"station_id":"ce4bh012rcd13ifvqd10","pricing_plan_id":"cebpf4jnsgd1na2vs0mg"},{"bike_id":"51261ffb-1722-4f89-a75d-a12fb832640a","system_id":"levelo_inurba_marseille","lat":43.3093,"lon":5.40138,"is_reserved":false,"is_disabled":true,"rental_uris":{"android":"levelo://app?vid=51261ffb-1722-4f89-a75d-a12fb832640a","ios":"levelo://app?vid=51261ffb-1722-4f89-a75d-a12fb832640a"},"vehicle_type_id":"4","last_reported":1739967407,"current_range_meters":14000,"station_id":"ce4bgvp2rcd13ifvqct0","pricing_plan_id":"cebpf4jnsgd1na2vs0mg"},{"bike_id":"e3422978-e3d1-4168-a7a6-5ae7ec99e03f","system_id":"levelo_inurba_marseille","lat":43.271766,"lon":5.409876,"is_reserved":false,"is_disabled":false,"rental_uris":{"android":"levelo://app?vid=e3422978-e3d1-4168-a7a6-5ae7ec99e03f","ios":"levelo://app?vid=e3422978-e3d1-4168-a7a6-5ae7ec99e03f"},"vehicle_type_id":"4","last_reported":1739967407,"current_range_meters":14000,"station_id":"","pricing_plan_id":"cebpf4jnsgd1na2vs0mg"},{"bike_id":"78c50a01-ac3c-44ab-a91f-ccc4db704a16","system_id":"levelo_inurba_marseille","lat":43.29005,"lon":5.35607,"is_reserved":false,"is_disabled":false,"rental_uris":{"android":"levelo://app?vid=78c50a01-ac3c-44ab-a91f-ccc4db704a16","ios":"levelo://app?vid=78c50a01-ac3c-44ab-a91f-ccc4db704a16"},"vehicle_type_id":"4","last_reported":1739967407,"current_range_meters":14800,"station_id":"ce4bhb92rcd13ifvqen0","pricing_plan_id":"cebpf4jnsgd1na2vs0mg"},{"bike_id":"b64778c2-2434-4409-b125-e965a1fd469a","system_id":"levelo_inurba_marseille","lat":43.30314,"lon":5.36669,"is_reserved":false,"is_disabled":false,"rental_uris":{"android":"levelo://app?vid=b64778c2-2434-4409-b125-e965a1fd469a","ios":"levelo://app?vid=b64778c2-2434-4409-b125-e965a1fd469a"},"vehicle_type_id":"4","last_reported":1739967407,"current_range_meters":14000,"station_id":"ce4bgs12rcd13ifvqcag","pricing_plan_id":"cebpf4jnsgd1na2vs0mg"},{"bike_id":"b5737f12-8726-498b-bc89-58fb29ae1a72","system_id":"levelo_inurba_marseille","lat":43.2847,"lon":5.38417,"is_reserved":false,"is_disabled":false,"rental_uris":{"android":"levelo://app?vid=b5737f12-8726-498b-bc89-58fb29ae1a72","ios":"levelo://app?vid=b5737f12-8726-498b-bc89-58fb29ae1a72"},"vehicle_type_id":"4","last_reported":1739967407,"current_range_meters":14400,"station_id":"ce4bh512rcd13ifvqe3g","pricing_plan_id":"cebpf4jnsgd1na2vs0mg"},{"bike_id":"d1f2e353-e00d-462e-9d0b-f71efb42760a","system_id":"levelo_inurba_marseille","lat":43.293668,"lon":5.378421,"is_reserved":false,"is_disabled":false,"rental_uris":{"android":"levelo://app?vid=d1f2e353-e00d-462e-9d0b-f71efb42760a","ios":"levelo://app?vid=d1f2e353-e00d-462e-9d0b-f71efb42760a"},"vehicle_type_id":"4","last_reported":1739967407,"current_range_meters":14800,"station_id":"ce4bgjh2rcd13ifvqbf0","pricing_plan_id":"cebpf4jnsgd1na2vs0mg"},{"bike_id":"e2596add-e568-49b6-a063-b6868f5c61f8","system_id":"levelo_inurba_marseille","lat":43.24834,"lon":5.3745,"is_reserved":false,"is_disabled":false,"rental_uris":{"android":"levelo://app?vid=e2596add-e568-49b6-a063-b6868f5c61f8","ios":"levelo://app?vid=e2596add-e568-49b6-a063-b6868f5c61f8"},"vehicle_type_id":"4","last_reported":1739967407,"current_range_meters":14400,"station_id":"ce4bhgh2rcd13ifvqfb0","pricing_plan_id":"cebpf4jnsgd1na2vs0mg"},{"bike_id":"9e573c9b-6cbb-4f4b-a394-272fceeddf10","system_id":"levelo_inurba_marseille","lat":43.26957,"lon":5.38619,"is_reserved":false,"is_disabled":false,"rental_uris":{"android":"levelo://app?vid=9e573c9b-6cbb-4f4b-a394-272fceeddf10","ios":"levelo://app?vid=9e573c9b-6cbb-4f4b-a394-272fceeddf10"},"vehicle_type_id":"4","last_reported":1739967407,"current_range_meters":14400,"station_id":"ce4bhh92rcd13ifvqfh0","pricing_plan_id":"cebpf4jnsgd1na2vs0mg"},{"bike_id":"79a8de8e-6448-4651-a4fc-e7e896fb3b6a","system_id":"levelo_inurba_marseille","lat":43.25564,"lon":5.38262,"is_reserved":false,"is_disabled":false,"rental_uris":{"android":"levelo://app?vid=79a8de8e-6448-4651-a4fc-e7e896fb3b6a","ios":"levelo://app?vid=79a8de8e-6448-4651-a4fc-e7e896fb3b6a"},"vehicle_type_id":"4","last_reported":1739967407,"current_range_meters":14400,"station_id":"ce4bhih2rcd13ifvqfs0","pricing_plan_id":"cebpf4jnsgd1na2vs0mg"},{"bike_id":"a019349b-96e2-4227-becd-28334b0b7508","system_id":"levelo_inurba_marseille","lat":43.27193,"lon":5.39139,"is_reserved":false,"is_disabled":false,"rental_uris":{"android":"levelo://app?vid=a019349b-96e2-4227-becd-28334b0b7508","ios":"levelo://app?vid=a019349b-96e2-4227-becd-28334b0b7508"},"vehicle_type_id":"4","last_reported":1739967407,"current_range_meters":14400,"station_id":"ce4bhhp2rcd13ifvqfm0","pricing_plan_id":"cebpf4jnsgd1na2vs0mg"},{"bike_id":"9a20bf4a-2838-4260-9d28-debd745460c0","system_id":"levelo_inurba_marseille","lat":43.3088,"lon":5.37797,"is_reserved":false,"is_disabled":false,"rental_uris":{"android":"levelo://app?vid=9a20bf4a-2838-4260-9d28-debd745460c0","ios":"levelo://app?vid=9a20bf4a-2838-4260-9d28-debd745460c0"},"vehicle_type_id":"4","last_reported":1739967407,"current_range_meters":14400,"station_id":"ce4bgv92rcd13ifvqcq0","pricing_plan_id":"cebpf4jnsgd1na2vs0mg"},{"bike_id":"533f657d-891b-4106-9980-1ea356dc19d7","system_id":"levelo_inurba_marseille","lat":43.30147,"lon":5.3808,"is_reserved":false,"is_disabled":false,"rental_uris":{"android":"levelo://app?vid=533f657d-891b-4106-9980-1ea356dc19d7","ios":"levelo://app?vid=533f657d-891b-4106-9980-1ea356dc19d7"},"vehicle_type_id":"4","last_reported":1739967407,"current_range_meters":14400,"station_id":"","pricing_plan_id":"cebpf4jnsgd1na2vs0mg"},{"bike_id":"fac7db09-6a04-465e-8518-29b9656e1d82","system_id":"levelo_inurba_marseille","lat":43.2621,"lon":5.37442,"is_reserved":false,"is_disabled":false,"rental_uris":{"android":"levelo://app?vid=fac7db09-6a04-465e-8518-29b9656e1d82","ios":"levelo://app?vid=fac7db09-6a04-465e-8518-29b9656e1d82"},"vehicle_type_id":"4","last_reported":1739967407,"current_range_meters":14400,"station_id":"ce4bhgp2rcd13ifvqfc0","pricing_plan_id":"cebpf4jnsgd1na2vs0mg"},{"bike_id":"5b80abf9-df02-44a7-b61b-dd0a85631c27","system_id":"levelo_inurba_marseille","lat":43.23962,"lon":5.36657,"is_reserved":false,"is_disabled":false,"rental_uris":{"android":"levelo://app?vid=5b80abf9-df02-44a7-b61b-dd0a85631c27","ios":"levelo://app?vid=5b80abf9-df02-44a7-b61b-dd0a85631c27"},"vehicle_type_id":"4","last_reported":1739967407,"current_range_meters":14400,"station_id":"","pricing_plan_id":"cebpf4jnsgd1na2vs0mg"},{"bike_id":"a9f500ea-416b-4a82-a177-ccc62f802464","system_id":"levelo_inurba_marseille","lat":43.26922,"lon":5.38922,"is_reserved":false,"is_disabled":false,"rental_uris":{"android":"levelo://app?vid=a9f500ea-416b-4a82-a177-ccc62f802464","ios":"levelo://app?vid=a9f500ea-416b-4a82-a177-ccc62f802464"},"vehicle_type_id":"4","last_reported":1739967407,"current_range_meters":14400,"station_id":"ce4bhhh2rcd13ifvqfl0","pricing_plan_id":"cebpf4jnsgd1na2vs0mg"},{"bike_id":"5f9ede52-c720-4107-a864-980fb2608395","system_id":"levelo_inurba_marseille","lat":43.24108,"lon":5.38715,"is_reserved":false,"is_disabled":false,"rental_uris":{"android":"levelo://app?vid=5f9ede52-c720-4107-a864-980fb2608395","ios":"levelo://app?vid=5f9ede52-c720-4107-a864-980fb2608395"},"vehicle_type_id":"4","last_reported":1739967407,"current_range_meters":14800,"station_id":"","pricing_plan_id":"cebpf4jnsgd1na2vs0mg"},{"bike_id":"c1ec15a3-2783-4ada-8115-069a631c7292","system_id":"levelo_inurba_marseille","lat":43.29424,"lon":5.3863,"is_reserved":false,"is_disabled":false,"rental_uris":{"android":"levelo://app?vid=c1ec15a3-2783-4ada-8115-069a631c7292","ios":"levelo://app?vid=c1ec15a3-2783-4ada-8115-069a631c7292"},"vehicle_type_id":"4","last_reported":1739967407,"current_range_meters":14800,"station_id":"ce4bh2h2rcd13ifvqdh0","pricing_plan_id":"cebpf4jnsgd1na2vs0mg"},{"bike_id":"5089bb88-a0cd-4434-a1a9-f3d5b67361c6","system_id":"levelo_inurba_marseille","lat":43.24369,"lon":5.38745,"is_reserved":false,"is_disabled":false,"rental_uris":{"android":"levelo://app?vid=5089bb88-a0cd-4434-a1a9-f3d5b67361c6","ios":"levelo://app?vid=5089bb88-a0cd-4434-a1a9-f3d5b67361c6"},"vehicle_type_id":"4","last_reported":1739967407,"current_range_meters":14800,"station_id":"","pricing_plan_id":"cebpf4jnsgd1na2vs0mg"},{"bike_id":"dbf77928-0411-475f-9979-89a959735946","system_id":"levelo_inurba_marseille","lat":43.24398,"lon":5.3705,"is_reserved":false,"is_disabled":false,"rental_uris":{"android":"levelo://app?vid=dbf77928-0411-475f-9979-89a959735946","ios":"levelo://app?vid=dbf77928-0411-475f-9979-89a959735946"},"vehicle_type_id":"4","last_reported":1739967407,"current_range_meters":14800,"station_id":"ce4bhhh2rcd13ifvqfk0","pricing_plan_id":"cebpf4jnsgd1na2vs0mg"},{"bike_id":"c97db90c-76c6-4109-94f1-a286386376ac","system_id":"levelo_inurba_marseille","lat":43.29692,"lon":5.36623,"is_reserved":false,"is_disabled":false,"rental_uris":{"android":"levelo://app?vid=c97db90c-76c6-4109-94f1-a286386376ac","ios":"levelo://app?vid=c97db90c-76c6-4109-94f1-a286386376ac"},"vehicle_type_id":"4","last_reported":1739967407,"current_range_meters":12800,"station_id":"ce4bgn12rcd13ifvqbt0","pricing_plan_id":"cebpf4jnsgd1na2vs0mg"},{"bike_id":"91017304-ea90-4c44-ab32-3a7b91ebe951","system_id":"levelo_inurba_marseille","lat":43.30463,"lon":5.37901,"is_reserved":false,"is_disabled":false,"rental_uris":{"android":"levelo://app?vid=91017304-ea90-4c44-ab32-3a7b91ebe951","ios":"levelo://app?vid=91017304-ea90-4c44-ab32-3a7b91ebe951"},"vehicle_type_id":"4","last_reported":1739967407,"current_range_meters":14800,"station_id":"","pricing_plan_id":"cebpf4jnsgd1na2vs0mg"},{"bike_id":"d3699658-ddb7-475c-abfb-4e991b75b6d3","system_id":"levelo_inurba_marseille","lat":43.26951,"lon":5.386475,"is_reserved":false,"is_disabled":false,"rental_uris":{"android":"levelo://app?vid=d3699658-ddb7-475c-abfb-4e991b75b6d3","ios":"levelo://app?vid=d3699658-ddb7-475c-abfb-4e991b75b6d3"},"vehicle_type_id":"4","last_reported":1739967407,"current_range_meters":15200,"station_id":"ce4bhh92rcd13ifvqfh0","pricing_plan_id":"cebpf4jnsgd1na2vs0mg"},{"bike_id":"b73e1654-a8ab-4ff9-ac64-fee0434f6b37","system_id":"levelo_inurba_marseille","lat":43.29003,"lon":5.3558,"is_reserved":false,"is_disabled":false,"rental_uris":{"android":"levelo://app?vid=b73e1654-a8ab-4ff9-ac64-fee0434f6b37","ios":"levelo://app?vid=b73e1654-a8ab-4ff9-ac64-fee0434f6b37"},"vehicle_type_id":"4","last_reported":1739967407,"current_range_meters":16400,"station_id":"ce4bhb92rcd13ifvqen0","pricing_plan_id":"cebpf4jnsgd1na2vs0mg"},{"bike_id":"c835c6b7-91aa-4f5c-95c8-b13cffbebdef","system_id":"levelo_inurba_marseille","lat":43.27134,"lon":5.40985,"is_reserved":false,"is_disabled":false,"rental_uris":{"android":"levelo://app?vid=c835c6b7-91aa-4f5c-95c8-b13cffbebdef","ios":"levelo://app?vid=c835c6b7-91aa-4f5c-95c8-b13cffbebdef"},"vehicle_type_id":"4","last_reported":1739967407,"current_range_meters":15200,"station_id":"","pricing_plan_id":"cebpf4jnsgd1na2vs0mg"},{"bike_id":"1e89e888-dd6a-4f7a-ab15-17a4b69ef86c","system_id":"levelo_inurba_marseille","lat":43.28421,"lon":5.34972,"is_reserved":false,"is_disabled":false,"rental_uris":{"android":"levelo://app?vid=1e89e888-dd6a-4f7a-ab15-17a4b69ef86c","ios":"levelo://app?vid=1e89e888-dd6a-4f7a-ab15-17a4b69ef86c"},"vehicle_type_id":"4","last_reported":1739967407,"current_range_meters":15200,"station_id":"","pricing_plan_id":"cebpf4jnsgd1na2vs0mg"},{"bike_id":"56872267-9b9d-47ed-997c-8a58e9dfc0e4","system_id":"levelo_inurba_marseille","lat":43.29176,"lon":5.35804,"is_reserved":false,"is_disabled":false,"rental_uris":{"android":"levelo://app?vid=56872267-9b9d-47ed-997c-8a58e9dfc0e4","ios":"levelo://app?vid=56872267-9b9d-47ed-997c-8a58e9dfc0e4"},"vehicle_type_id":"4","last_reported":1739967407,"current_range_meters":14800,"station_id":"ce4bhb12rcd13ifvqel0","pricing_plan_id":"cebpf4jnsgd1na2vs0mg"},{"bike_id":"ba6293f6-c5a3-4b1d-b111-439b722346cc","system_id":"levelo_inurba_marseille","lat":43.26561,"lon":5.37287,"is_reserved":false,"is_disabled":false,"rental_uris":{"android":"levelo://app?vid=ba6293f6-c5a3-4b1d-b111-439b722346cc","ios":"levelo://app?vid=ba6293f6-c5a3-4b1d-b111-439b722346cc"},"vehicle_type_id":"4","last_reported":1739967407,"current_range_meters":16000,"station_id":"ce4bhg12rcd13ifvqf70","pricing_plan_id":"cebpf4jnsgd1na2vs0mg"},{"bike_id":"b85644ed-f65a-4039-a397-da921e97276e","system_id":"levelo_inurba_marseille","lat":43.23966,"lon":5.36626,"is_reserved":false,"is_disabled":false,"rental_uris":{"android":"levelo://app?vid=b85644ed-f65a-4039-a397-da921e97276e","ios":"levelo://app?vid=b85644ed-f65a-4039-a397-da921e97276e"},"vehicle_type_id":"4","last_reported":1739967407,"current_range_meters":16000,"station_id":"ce4bhi12rcd13ifvqfp0","pricing_plan_id":"cebpf4jnsgd1na2vs0mg"},{"bike_id":"a0af3547-0f5a-4ee7-a39d-23ed992db956","system_id":"levelo_inurba_marseille","lat":43.23418,"lon":5.40452,"is_reserved":false,"is_disabled":false,"rental_uris":{"android":"levelo://app?vid=a0af3547-0f5a-4ee7-a39d-23ed992db956","ios":"levelo://app?vid=a0af3547-0f5a-4ee7-a39d-23ed992db956"},"vehicle_type_id":"4","last_reported":1739967407,"current_range_meters":16000,"station_id":"","pricing_plan_id":"cebpf4jnsgd1na2vs0mg"},{"bike_id":"ba0a4dbe-d370-492e-a789-44c6ef69c02b","system_id":"levelo_inurba_marseille","lat":43.28615,"lon":5.35107,"is_reserved":false,"is_disabled":false,"rental_uris":{"android":"levelo://app?vid=ba0a4dbe-d370-492e-a789-44c6ef69c02b","ios":"levelo://app?vid=ba0a4dbe-d370-492e-a789-44c6ef69c02b"},"vehicle_type_id":"4","last_reported":1739967407,"current_range_meters":16000,"station_id":"ce4bhch2rcd13ifvqeug","pricing_plan_id":"cebpf4jnsgd1na2vs0mg"},{"bike_id":"5c82a6b2-a610-43cb-bac6-315b99b7bca9","system_id":"levelo_inurba_marseille","lat":43.29227,"lon":5.39325,"is_reserved":false,"is_disabled":false,"rental_uris":{"android":"levelo://app?vid=5c82a6b2-a610-43cb-bac6-315b99b7bca9","ios":"levelo://app?vid=5c82a6b2-a610-43cb-bac6-315b99b7bca9"},"vehicle_type_id":"4","last_reported":1739967407,"current_range_meters":16000,"station_id":"ce4bh192rcd13ifvqdd0","pricing_plan_id":"cebpf4jnsgd1na2vs0mg"},{"bike_id":"ecab1fe1-86a2-4c85-93eb-74035ebca3f2","system_id":"levelo_inurba_marseille","lat":43.30144,"lon":5.38758,"is_reserved":false,"is_disabled":false,"rental_uris":{"android":"levelo://app?vid=ecab1fe1-86a2-4c85-93eb-74035ebca3f2","ios":"levelo://app?vid=ecab1fe1-86a2-4c85-93eb-74035ebca3f2"},"vehicle_type_id":"4","last_reported":1739967407,"current_range_meters":16000,"station_id":"ce4bghh2rcd13ifvqb60","pricing_plan_id":"cebpf4jnsgd1na2vs0mg"},{"bike_id":"d5037f38-6d0d-4052-90ab-6b987e469245","system_id":"levelo_inurba_marseille","lat":43.28714,"lon":5.36093,"is_reserved":false,"is_disabled":false,"rental_uris":{"android":"levelo://app?vid=d5037f38-6d0d-4052-90ab-6b987e469245","ios":"levelo://app?vid=d5037f38-6d0d-4052-90ab-6b987e469245"},"vehicle_type_id":"4","last_reported":1739967407,"current_range_meters":16800,"station_id":"cki0cbj6b192h4jlfktg","pricing_plan_id":"cebpf4jnsgd1na2vs0mg"},{"bike_id":"af246186-84c5-47ac-9840-acf8926725e0","system_id":"levelo_inurba_marseille","lat":43.23945,"lon":5.36638,"is_reserved":false,"is_disabled":false,"rental_uris":{"android":"levelo://app?vid=af246186-84c5-47ac-9840-acf8926725e0","ios":"levelo://app?vid=af246186-84c5-47ac-9840-acf8926725e0"},"vehicle_type_id":"4","last_reported":1739967407,"current_range_meters":16000,"station_id":"","pricing_plan_id":"cebpf4jnsgd1na2vs0mg"},{"bike_id":"94c70396-2117-4a06-b79d-0685ec3bd037","system_id":"levelo_inurba_marseille","lat":43.29201,"lon":5.39332,"is_reserved":false,"is_disabled":false,"rental_uris":{"android":"levelo://app?vid=94c70396-2117-4a06-b79d-0685ec3bd037","ios":"levelo://app?vid=94c70396-2117-4a06-b79d-0685ec3bd037"},"vehicle_type_id":"4","last_reported":1739967407,"current_range_meters":16400,"station_id":"ce4bh192rcd13ifvqdd0","pricing_plan_id":"cebpf4jnsgd1na2vs0mg"},{"bike_id":"5428c4a6-2268-45c5-aff9-a5f8e308d92b","system_id":"levelo_inurba_marseille","lat":43.30963,"lon":5.37287,"is_reserved":false,"is_disabled":false,"rental_uris":{"android":"levelo://app?vid=5428c4a6-2268-45c5-aff9-a5f8e308d92b","ios":"levelo://app?vid=5428c4a6-2268-45c5-aff9-a5f8e308d92b"},"vehicle_type_id":"4","last_reported":1739967407,"current_range_meters":16400,"station_id":"ce4bguh2rcd13ifvqckg","pricing_plan_id":"cebpf4jnsgd1na2vs0mg"},{"bike_id":"259617e0-e7e9-4a4d-aee7-15927e833679","system_id":"levelo_inurba_marseille","lat":43.2658,"lon":5.39,"is_reserved":false,"is_disabled":false,"rental_uris":{"android":"levelo://app?vid=259617e0-e7e9-4a4d-aee7-15927e833679","ios":"levelo://app?vid=259617e0-e7e9-4a4d-aee7-15927e833679"},"vehicle_type_id":"4","last_reported":1739967407,"current_range_meters":16400,"station_id":"","pricing_plan_id":"cebpf4jnsgd1na2vs0mg"},{"bike_id":"eea53ece-49bb-4ab5-9642-ef74284e4e2b","system_id":"levelo_inurba_marseille","lat":43.27069,"lon":5.40257,"is_reserved":false,"is_disabled":false,"rental_uris":{"android":"levelo://app?vid=eea53ece-49bb-4ab5-9642-ef74284e4e2b","ios":"levelo://app?vid=eea53ece-49bb-4ab5-9642-ef74284e4e2b"},"vehicle_type_id":"4","last_reported":1739967407,"current_range_meters":16400,"station_id":"ce4bhk92rcd13ifvqgc0","pricing_plan_id":"cebpf4jnsgd1na2vs0mg"},{"bike_id":"c7cd0f4d-e049-4efa-9fba-d2b6f0a2a591","system_id":"levelo_inurba_marseille","lat":43.30089,"lon":5.39072,"is_reserved":false,"is_disabled":false,"rental_uris":{"android":"levelo://app?vid=c7cd0f4d-e049-4efa-9fba-d2b6f0a2a591","ios":"levelo://app?vid=c7cd0f4d-e049-4efa-9fba-d2b6f0a2a591"},"vehicle_type_id":"4","last_reported":1739967407,"current_range_meters":16400,"station_id":"","pricing_plan_id":"cebpf4jnsgd1na2vs0mg"},{"bike_id":"bea52ef0-c8a0-4690-a230-4954bd8469e5","system_id":"levelo_inurba_marseille","lat":43.29851,"lon":5.36253,"is_reserved":false,"is_disabled":false,"rental_uris":{"android":"levelo://app?vid=bea52ef0-c8a0-4690-a230-4954bd8469e5","ios":"levelo://app?vid=bea52ef0-c8a0-4690-a230-4954bd8469e5"},"vehicle_type_id":"4","last_reported":1739967407,"current_range_meters":16400,"station_id":"ce4bgpp2rcd13ifvqc3g","pricing_plan_id":"cebpf4jnsgd1na2vs0mg"},{"bike_id":"e5e2ed65-0a50-46fd-af77-1264dac67336","system_id":"levelo_inurba_marseille","lat":43.2416,"lon":5.36397,"is_reserved":false,"is_disabled":false,"rental_uris":{"android":"levelo://app?vid=e5e2ed65-0a50-46fd-af77-1264dac67336","ios":"levelo://app?vid=e5e2ed65-0a50-46fd-af77-1264dac67336"},"vehicle_type_id":"4","last_reported":1739967407,"current_range_meters":16400,"station_id":"","pricing_plan_id":"cebpf4jnsgd1na2vs0mg"},{"bike_id":"d1b04122-9242-4301-860b-2c760f8ddd4e","system_id":"levelo_inurba_marseille","lat":43.30422,"lon":5.38888,"is_reserved":false,"is_disabled":false,"rental_uris":{"android":"levelo://app?vid=d1b04122-9242-4301-860b-2c760f8ddd4e","ios":"levelo://app?vid=d1b04122-9242-4301-860b-2c760f8ddd4e"},"vehicle_type_id":"4","last_reported":1739967407,"current_range_meters":16400,"station_id":"ce4bgk12rcd13ifvqbi0","pricing_plan_id":"cebpf4jnsgd1na2vs0mg"},{"bike_id":"82de7fdf-fb6e-4296-bdd1-ecdfb5778c65","system_id":"levelo_inurba_marseille","lat":43.23159,"lon":5.43706,"is_reserved":false,"is_disabled":false,"rental_uris":{"android":"levelo://app?vid=82de7fdf-fb6e-4296-bdd1-ecdfb5778c65","ios":"levelo://app?vid=82de7fdf-fb6e-4296-bdd1-ecdfb5778c65"},"vehicle_type_id":"4","last_reported":1739967407,"current_range_meters":16400,"station_id":"ce4bhmp2rcd13ifvqgog","pricing_plan_id":"cebpf4jnsgd1na2vs0mg"},{"bike_id":"8832a65e-077b-43c7-9252-1bccc744e56a","system_id":"levelo_inurba_marseille","lat":43.304348,"lon":5.388979,"is_reserved":false,"is_disabled":false,"rental_uris":{"android":"levelo://app?vid=8832a65e-077b-43c7-9252-1bccc744e56a","ios":"levelo://app?vid=8832a65e-077b-43c7-9252-1bccc744e56a"},"vehicle_type_id":"4","last_reported":1739967407,"current_range_meters":16400,"station_id":"ce4bgk12rcd13ifvqbi0","pricing_plan_id":"cebpf4jnsgd1na2vs0mg"},{"bike_id":"4df47e88-41bc-4b68-b0d1-97f3b41c726a","system_id":"levelo_inurba_marseille","lat":43.30146,"lon":5.39871,"is_reserved":false,"is_disabled":true,"rental_uris":{"android":"levelo://app?vid=4df47e88-41bc-4b68-b0d1-97f3b41c726a","ios":"levelo://app?vid=4df47e88-41bc-4b68-b0d1-97f3b41c726a"},"vehicle_type_id":"4","last_reported":1739967407,"current_range_meters":16400,"station_id":"ce4bh0h2rcd13ifvqd40","pricing_plan_id":"cebpf4jnsgd1na2vs0mg"},{"bike_id":"4f160ee9-ec07-442b-8bc9-376aab220e19","system_id":"levelo_inurba_marseille","lat":43.29801,"lon":5.37093,"is_reserved":false,"is_disabled":false,"rental_uris":{"android":"levelo://app?vid=4f160ee9-ec07-442b-8bc9-376aab220e19","ios":"levelo://app?vid=4f160ee9-ec07-442b-8bc9-376aab220e19"},"vehicle_type_id":"4","last_reported":1739967407,"current_range_meters":17200,"station_id":"ce4bgop2rcd13ifvqc1g","pricing_plan_id":"cebpf4jnsgd1na2vs0mg"},{"bike_id":"eb75e2ac-b61e-4c90-95cb-c16878504d94","system_id":"levelo_inurba_marseille","lat":43.26566,"lon":5.39006,"is_reserved":false,"is_disabled":false,"rental_uris":{"android":"levelo://app?vid=eb75e2ac-b61e-4c90-95cb-c16878504d94","ios":"levelo://app?vid=eb75e2ac-b61e-4c90-95cb-c16878504d94"},"vehicle_type_id":"4","last_reported":1739967407,"current_range_meters":16400,"station_id":"ce4bhe12rcd13ifvqf30","pricing_plan_id":"cebpf4jnsgd1na2vs0mg"},{"bike_id":"ba379239-9216-4e46-a96c-a73988d910ff","system_id":"levelo_inurba_marseille","lat":43.26489,"lon":5.37146,"is_reserved":false,"is_disabled":false,"rental_uris":{"android":"levelo://app?vid=ba379239-9216-4e46-a96c-a73988d910ff","ios":"levelo://app?vid=ba379239-9216-4e46-a96c-a73988d910ff"},"vehicle_type_id":"4","last_reported":1739967407,"current_range_meters":16800,"station_id":"","pricing_plan_id":"cebpf4jnsgd1na2vs0mg"},{"bike_id":"f5da6bc4-7230-44a1-a042-48958309073f","system_id":"levelo_inurba_marseille","lat":43.275485,"lon":5.395718,"is_reserved":false,"is_disabled":false,"rental_uris":{"android":"levelo://app?vid=f5da6bc4-7230-44a1-a042-48958309073f","ios":"levelo://app?vid=f5da6bc4-7230-44a1-a042-48958309073f"},"vehicle_type_id":"4","last_reported":1739967407,"current_range_meters":16800,"station_id":"cjm6bp8fraef2m0cb0m0","pricing_plan_id":"cebpf4jnsgd1na2vs0mg"},{"bike_id":"3cf409db-ea1f-40ef-9a60-ba2f1f323925","system_id":"levelo_inurba_marseille","lat":43.24201,"lon":5.3975,"is_reserved":false,"is_disabled":false,"rental_uris":{"android":"levelo://app?vid=3cf409db-ea1f-40ef-9a60-ba2f1f323925","ios":"levelo://app?vid=3cf409db-ea1f-40ef-9a60-ba2f1f323925"},"vehicle_type_id":"4","last_reported":1739967407,"current_range_meters":16800,"station_id":"ce4bhn12rcd13ifvqgpg","pricing_plan_id":"cebpf4jnsgd1na2vs0mg"},{"bike_id":"de2ead57-8716-416e-912e-e8907dd9a8bc","system_id":"levelo_inurba_marseille","lat":43.30466,"lon":5.37901,"is_reserved":false,"is_disabled":false,"rental_uris":{"android":"levelo://app?vid=de2ead57-8716-416e-912e-e8907dd9a8bc","ios":"levelo://app?vid=de2ead57-8716-416e-912e-e8907dd9a8bc"},"vehicle_type_id":"4","last_reported":1739967407,"current_range_meters":16800,"station_id":"ce4bgup2rcd13ifvqcn0","pricing_plan_id":"cebpf4jnsgd1na2vs0mg"},{"bike_id":"6bf33258-e1c8-4ebb-9dae-3056371e1ebd","system_id":"levelo_inurba_marseille","lat":43.2951,"lon":5.37507,"is_reserved":false,"is_disabled":false,"rental_uris":{"android":"levelo://app?vid=6bf33258-e1c8-4ebb-9dae-3056371e1ebd","ios":"levelo://app?vid=6bf33258-e1c8-4ebb-9dae-3056371e1ebd"},"vehicle_type_id":"4","last_reported":1739967407,"current_range_meters":16800,"station_id":"ce4bgkp2rcd13ifvqbmg","pricing_plan_id":"cebpf4jnsgd1na2vs0mg"},{"bike_id":"e645b05d-0c39-4cb8-bea8-ed8cefac4a7d","system_id":"levelo_inurba_marseille","lat":43.26566,"lon":5.39013,"is_reserved":false,"is_disabled":false,"rental_uris":{"android":"levelo://app?vid=e645b05d-0c39-4cb8-bea8-ed8cefac4a7d","ios":"levelo://app?vid=e645b05d-0c39-4cb8-bea8-ed8cefac4a7d"},"vehicle_type_id":"4","last_reported":1739967407,"current_range_meters":16800,"station_id":"ce4bhe12rcd13ifvqf30","pricing_plan_id":"cebpf4jnsgd1na2vs0mg"},{"bike_id":"10b0cf0a-8e41-4b4c-b8c4-e78c91fe87e7","system_id":"levelo_inurba_marseille","lat":43.29282,"lon":5.37614,"is_reserved":false,"is_disabled":false,"rental_uris":{"android":"levelo://app?vid=10b0cf0a-8e41-4b4c-b8c4-e78c91fe87e7","ios":"levelo://app?vid=10b0cf0a-8e41-4b4c-b8c4-e78c91fe87e7"},"vehicle_type_id":"4","last_reported":1739967407,"current_range_meters":17200,"station_id":"ce4bgi12rcd13ifvqb80","pricing_plan_id":"cebpf4jnsgd1na2vs0mg"},{"bike_id":"94ce4c1f-b676-43e1-9e28-ed9f6f6c8e2b","system_id":"levelo_inurba_marseille","lat":43.2362,"lon":5.39144,"is_reserved":false,"is_disabled":false,"rental_uris":{"android":"levelo://app?vid=94ce4c1f-b676-43e1-9e28-ed9f6f6c8e2b","ios":"levelo://app?vid=94ce4c1f-b676-43e1-9e28-ed9f6f6c8e2b"},"vehicle_type_id":"4","last_reported":1739967407,"current_range_meters":17200,"station_id":"","pricing_plan_id":"cebpf4jnsgd1na2vs0mg"},{"bike_id":"aa61a11b-0913-46d4-9980-95ff76e27acc","system_id":"levelo_inurba_marseille","lat":43.27314,"lon":5.39069,"is_reserved":false,"is_disabled":false,"rental_uris":{"android":"levelo://app?vid=aa61a11b-0913-46d4-9980-95ff76e27acc","ios":"levelo://app?vid=aa61a11b-0913-46d4-9980-95ff76e27acc"},"vehicle_type_id":"4","last_reported":1739967407,"current_range_meters":17600,"station_id":"ce4bhgp2rcd13ifvqfe0","pricing_plan_id":"cebpf4jnsgd1na2vs0mg"},{"bike_id":"6c695163-13d1-4682-b513-311ea8d75027","system_id":"levelo_inurba_marseille","lat":43.30865,"lon":5.37384,"is_reserved":false,"is_disabled":false,"rental_uris":{"android":"levelo://app?vid=6c695163-13d1-4682-b513-311ea8d75027","ios":"levelo://app?vid=6c695163-13d1-4682-b513-311ea8d75027"},"vehicle_type_id":"4","last_reported":1739967407,"current_range_meters":17200,"station_id":"ce4bgs12rcd13ifvqcag","pricing_plan_id":"cebpf4jnsgd1na2vs0mg"},{"bike_id":"118b6839-fefb-4325-a05b-35d65b1dc5c7","system_id":"levelo_inurba_marseille","lat":43.29928,"lon":5.36529,"is_reserved":false,"is_disabled":false,"rental_uris":{"android":"levelo://app?vid=118b6839-fefb-4325-a05b-35d65b1dc5c7","ios":"levelo://app?vid=118b6839-fefb-4325-a05b-35d65b1dc5c7"},"vehicle_type_id":"4","last_reported":1739967407,"current_range_meters":17200,"station_id":"ce4bgm92rcd13ifvqbr0","pricing_plan_id":"cebpf4jnsgd1na2vs0mg"},{"bike_id":"b8666b37-e0f3-4fa6-a4df-7838667e46a6","system_id":"levelo_inurba_marseille","lat":43.29795,"lon":5.38082,"is_reserved":false,"is_disabled":false,"rental_uris":{"android":"levelo://app?vid=b8666b37-e0f3-4fa6-a4df-7838667e46a6","ios":"levelo://app?vid=b8666b37-e0f3-4fa6-a4df-7838667e46a6"},"vehicle_type_id":"4","last_reported":1739967407,"current_range_meters":17200,"station_id":"ce4bgip2rcd13ifvqbb0","pricing_plan_id":"cebpf4jnsgd1na2vs0mg"},{"bike_id":"5f3d59fe-f484-434a-b30c-fb9f9124213e","system_id":"levelo_inurba_marseille","lat":43.30565,"lon":5.36543,"is_reserved":false,"is_disabled":false,"rental_uris":{"android":"levelo://app?vid=5f3d59fe-f484-434a-b30c-fb9f9124213e","ios":"levelo://app?vid=5f3d59fe-f484-434a-b30c-fb9f9124213e"},"vehicle_type_id":"4","last_reported":1739967407,"current_range_meters":17200,"station_id":"ce4bgs12rcd13ifvqcag","pricing_plan_id":"cebpf4jnsgd1na2vs0mg"},{"bike_id":"749511d9-4ffb-4693-b9cb-f6a866337302","system_id":"levelo_inurba_marseille","lat":43.30973,"lon":5.39068,"is_reserved":false,"is_disabled":false,"rental_uris":{"android":"levelo://app?vid=749511d9-4ffb-4693-b9cb-f6a866337302","ios":"levelo://app?vid=749511d9-4ffb-4693-b9cb-f6a866337302"},"vehicle_type_id":"4","last_reported":1739967407,"current_range_meters":17200,"station_id":"","pricing_plan_id":"cebpf4jnsgd1na2vs0mg"},{"bike_id":"d9102e21-6294-472e-8da2-16dfb746ec2b","system_id":"levelo_inurba_marseille","lat":43.28138,"lon":5.4457,"is_reserved":false,"is_disabled":false,"rental_uris":{"android":"levelo://app?vid=d9102e21-6294-472e-8da2-16dfb746ec2b","ios":"levelo://app?vid=d9102e21-6294-472e-8da2-16dfb746ec2b"},"vehicle_type_id":"4","last_reported":1739967407,"current_range_meters":17200,"station_id":"ce4bhnh2rcd13ifvqgtg","pricing_plan_id":"cebpf4jnsgd1na2vs0mg"},{"bike_id":"003c44c1-3cd5-48e6-afbd-3e395aa9e710","system_id":"levelo_inurba_marseille","lat":43.29913,"lon":5.43657,"is_reserved":false,"is_disabled":false,"rental_uris":{"android":"levelo://app?vid=003c44c1-3cd5-48e6-afbd-3e395aa9e710","ios":"levelo://app?vid=003c44c1-3cd5-48e6-afbd-3e395aa9e710"},"vehicle_type_id":"4","last_reported":1739967407,"current_range_meters":17600,"station_id":"ce4bhpp2rcd13ifvqhfg","pricing_plan_id":"cebpf4jnsgd1na2vs0mg"},{"bike_id":"bdc412a8-ab57-4942-907d-94e7ad50b3fa","system_id":"levelo_inurba_marseille","lat":43.25904,"lon":5.40809,"is_reserved":false,"is_disabled":false,"rental_uris":{"android":"levelo://app?vid=bdc412a8-ab57-4942-907d-94e7ad50b3fa","ios":"levelo://app?vid=bdc412a8-ab57-4942-907d-94e7ad50b3fa"},"vehicle_type_id":"4","last_reported":1739967407,"current_range_meters":17600,"station_id":"ce4bhm92rcd13ifvqglg","pricing_plan_id":"cebpf4jnsgd1na2vs0mg"},{"bike_id":"a05a3d92-92ca-419c-a708-17432dbb3038","system_id":"levelo_inurba_marseille","lat":43.32476,"lon":5.36572,"is_reserved":false,"is_disabled":false,"rental_uris":{"android":"levelo://app?vid=a05a3d92-92ca-419c-a708-17432dbb3038","ios":"levelo://app?vid=a05a3d92-92ca-419c-a708-17432dbb3038"},"vehicle_type_id":"4","last_reported":1739967407,"current_range_meters":17600,"station_id":"ce4bhs12rcd13ifvqhvg","pricing_plan_id":"cebpf4jnsgd1na2vs0mg"},{"bike_id":"6c9c8bd6-ad0f-4b8d-a2bc-9a73d0c24657","system_id":"levelo_inurba_marseille","lat":43.313513,"lon":5.36716,"is_reserved":false,"is_disabled":false,"rental_uris":{"android":"levelo://app?vid=6c9c8bd6-ad0f-4b8d-a2bc-9a73d0c24657","ios":"levelo://app?vid=6c9c8bd6-ad0f-4b8d-a2bc-9a73d0c24657"},"vehicle_type_id":"4","last_reported":1739967407,"current_range_meters":17600,"station_id":"ce4bgt92rcd13ifvqcf0","pricing_plan_id":"cebpf4jnsgd1na2vs0mg"},{"bike_id":"efb58bf1-4403-4b9f-b67d-a8970e8c3a7f","system_id":"levelo_inurba_marseille","lat":43.25014,"lon":5.38922,"is_reserved":false,"is_disabled":false,"rental_uris":{"android":"levelo://app?vid=efb58bf1-4403-4b9f-b67d-a8970e8c3a7f","ios":"levelo://app?vid=efb58bf1-4403-4b9f-b67d-a8970e8c3a7f"},"vehicle_type_id":"4","last_reported":1739967407,"current_range_meters":17600,"station_id":"ce4bhgp2rcd13ifvqfd0","pricing_plan_id":"cebpf4jnsgd1na2vs0mg"},{"bike_id":"477ac2db-8f8c-4cbc-8427-0ab644b57a7a","system_id":"levelo_inurba_marseille","lat":43.25001,"lon":5.38893,"is_reserved":false,"is_disabled":false,"rental_uris":{"android":"levelo://app?vid=477ac2db-8f8c-4cbc-8427-0ab644b57a7a","ios":"levelo://app?vid=477ac2db-8f8c-4cbc-8427-0ab644b57a7a"},"vehicle_type_id":"4","last_reported":1739967407,"current_range_meters":17600,"station_id":"ce4bhgp2rcd13ifvqfd0","pricing_plan_id":"cebpf4jnsgd1na2vs0mg"},{"bike_id":"24422274-89fa-4a71-8136-2471e2d9789a","system_id":"levelo_inurba_marseille","lat":43.30455,"lon":5.37911,"is_reserved":false,"is_disabled":false,"rental_uris":{"android":"levelo://app?vid=24422274-89fa-4a71-8136-2471e2d9789a","ios":"levelo://app?vid=24422274-89fa-4a71-8136-2471e2d9789a"},"vehicle_type_id":"4","last_reported":1739967407,"current_range_meters":17600,"station_id":"ce4bgup2rcd13ifvqcn0","pricing_plan_id":"cebpf4jnsgd1na2vs0mg"},{"bike_id":"29ae1802-9d76-4286-a2d6-f211c81954fd","system_id":"levelo_inurba_marseille","lat":43.23154,"lon":5.43709,"is_reserved":false,"is_disabled":false,"rental_uris":{"android":"levelo://app?vid=29ae1802-9d76-4286-a2d6-f211c81954fd","ios":"levelo://app?vid=29ae1802-9d76-4286-a2d6-f211c81954fd"},"vehicle_type_id":"4","last_reported":1739967407,"current_range_meters":17600,"station_id":"ce4bhmp2rcd13ifvqgog","pricing_plan_id":"cebpf4jnsgd1na2vs0mg"},{"bike_id":"8becd64c-893d-4a08-8876-b1598e031c70","system_id":"levelo_inurba_marseille","lat":43.27944,"lon":5.38713,"is_reserved":false,"is_disabled":true,"rental_uris":{"android":"levelo://app?vid=8becd64c-893d-4a08-8876-b1598e031c70","ios":"levelo://app?vid=8becd64c-893d-4a08-8876-b1598e031c70"},"vehicle_type_id":"4","last_reported":1739967407,"current_range_meters":18000,"station_id":"","pricing_plan_id":"cebpf4jnsgd1na2vs0mg"},{"bike_id":"10de0bf4-f5eb-4230-b21a-259c12eb6f03","system_id":"levelo_inurba_marseille","lat":43.25114,"lon":5.40322,"is_reserved":false,"is_disabled":false,"rental_uris":{"android":"levelo://app?vid=10de0bf4-f5eb-4230-b21a-259c12eb6f03","ios":"levelo://app?vid=10de0bf4-f5eb-4230-b21a-259c12eb6f03"},"vehicle_type_id":"4","last_reported":1739967407,"current_range_meters":18800,"station_id":"ce4bhlh2rcd13ifvqgig","pricing_plan_id":"cebpf4jnsgd1na2vs0mg"},{"bike_id":"aebf87a8-148b-4259-8856-a462c4dace38","system_id":"levelo_inurba_marseille","lat":43.281,"lon":5.39664,"is_reserved":false,"is_disabled":false,"rental_uris":{"android":"levelo://app?vid=aebf87a8-148b-4259-8856-a462c4dace38","ios":"levelo://app?vid=aebf87a8-148b-4259-8856-a462c4dace38"},"vehicle_type_id":"4","last_reported":1739967407,"current_range_meters":18000,"station_id":"ce4bho12rcd13ifvqh2g","pricing_plan_id":"cebpf4jnsgd1na2vs0mg"},{"bike_id":"8a3ced9c-5f4f-4acd-b8e8-eca2ccdf4a4e","system_id":"levelo_inurba_marseille","lat":43.30522,"lon":5.3842,"is_reserved":false,"is_disabled":false,"rental_uris":{"android":"levelo://app?vid=8a3ced9c-5f4f-4acd-b8e8-eca2ccdf4a4e","ios":"levelo://app?vid=8a3ced9c-5f4f-4acd-b8e8-eca2ccdf4a4e"},"vehicle_type_id":"4","last_reported":1739967407,"current_range_meters":18000,"station_id":"ce4bgg92rcd13ifvqb30","pricing_plan_id":"cebpf4jnsgd1na2vs0mg"},{"bike_id":"6dce2158-50fc-4310-a030-753414e65f3d","system_id":"levelo_inurba_marseille","lat":43.28004,"lon":5.4166,"is_reserved":false,"is_disabled":false,"rental_uris":{"android":"levelo://app?vid=6dce2158-50fc-4310-a030-753414e65f3d","ios":"levelo://app?vid=6dce2158-50fc-4310-a030-753414e65f3d"},"vehicle_type_id":"4","last_reported":1739967407,"current_range_meters":18000,"station_id":"","pricing_plan_id":"cebpf4jnsgd1na2vs0mg"},{"bike_id":"66b5a43e-2798-4c72-8acc-33d23152963b","system_id":"levelo_inurba_marseille","lat":43.27192,"lon":5.40993,"is_reserved":false,"is_disabled":false,"rental_uris":{"android":"levelo://app?vid=66b5a43e-2798-4c72-8acc-33d23152963b","ios":"levelo://app?vid=66b5a43e-2798-4c72-8acc-33d23152963b"},"vehicle_type_id":"4","last_reported":1739967407,"current_range_meters":18000,"station_id":"ce4bhl12rcd13ifvqgf0","pricing_plan_id":"cebpf4jnsgd1na2vs0mg"},{"bike_id":"da9c081f-1142-45cf-8757-501ef4a223a3","system_id":"levelo_inurba_marseille","lat":43.305493,"lon":5.365599,"is_reserved":false,"is_disabled":false,"rental_uris":{"android":"levelo://app?vid=da9c081f-1142-45cf-8757-501ef4a223a3","ios":"levelo://app?vid=da9c081f-1142-45cf-8757-501ef4a223a3"},"vehicle_type_id":"4","last_reported":1739967407,"current_range_meters":18800,"station_id":"ce4bhl12rcd13ifvqgf0","pricing_plan_id":"cebpf4jnsgd1na2vs0mg"},{"bike_id":"84f34643-8421-4dd5-bb15-5d78168d5783","system_id":"levelo_inurba_marseille","lat":43.28166,"lon":5.42643,"is_reserved":false,"is_disabled":false,"rental_uris":{"android":"levelo://app?vid=84f34643-8421-4dd5-bb15-5d78168d5783","ios":"levelo://app?vid=84f34643-8421-4dd5-bb15-5d78168d5783"},"vehicle_type_id":"4","last_reported":1739967407,"current_range_meters":18800,"station_id":"","pricing_plan_id":"cebpf4jnsgd1na2vs0mg"},{"bike_id":"14c1b26e-5edb-41d9-bf0f-5325d805ec72","system_id":"levelo_inurba_marseille","lat":43.26566,"lon":5.38997,"is_reserved":false,"is_disabled":false,"rental_uris":{"android":"levelo://app?vid=14c1b26e-5edb-41d9-bf0f-5325d805ec72","ios":"levelo://app?vid=14c1b26e-5edb-41d9-bf0f-5325d805ec72"},"vehicle_type_id":"4","last_reported":1739967407,"current_range_meters":18800,"station_id":"ce4bhe12rcd13ifvqf30","pricing_plan_id":"cebpf4jnsgd1na2vs0mg"},{"bike_id":"75673006-1fda-46a1-a573-0e1cfeae28aa","system_id":"levelo_inurba_marseille","lat":43.294858,"lon":5.382741,"is_reserved":false,"is_disabled":false,"rental_uris":{"android":"levelo://app?vid=75673006-1fda-46a1-a573-0e1cfeae28aa","ios":"levelo://app?vid=75673006-1fda-46a1-a573-0e1cfeae28aa"},"vehicle_type_id":"4","last_reported":1739967407,"current_range_meters":18800,"station_id":"","pricing_plan_id":"cebpf4jnsgd1na2vs0mg"},{"bike_id":"ac70d028-a87b-49ed-8316-9e96e140ed43","system_id":"levelo_inurba_marseille","lat":43.29284,"lon":5.37633,"is_reserved":false,"is_disabled":false,"rental_uris":{"android":"levelo://app?vid=ac70d028-a87b-49ed-8316-9e96e140ed43","ios":"levelo://app?vid=ac70d028-a87b-49ed-8316-9e96e140ed43"},"vehicle_type_id":"4","last_reported":1739967407,"current_range_meters":18800,"station_id":"ce4bgi12rcd13ifvqb80","pricing_plan_id":"cebpf4jnsgd1na2vs0mg"},{"bike_id":"b3a013f7-dc34-4955-b4ab-7904906a7997","system_id":"levelo_inurba_marseille","lat":43.28192,"lon":5.42623,"is_reserved":false,"is_disabled":false,"rental_uris":{"android":"levelo://app?vid=b3a013f7-dc34-4955-b4ab-7904906a7997","ios":"levelo://app?vid=b3a013f7-dc34-4955-b4ab-7904906a7997"},"vehicle_type_id":"4","last_reported":1739967407,"current_range_meters":18800,"station_id":"ce4bhnh2rcd13ifvqgug","pricing_plan_id":"cebpf4jnsgd1na2vs0mg"},{"bike_id":"767f6015-5710-4ce3-8e2a-efdfb6f0116b","system_id":"levelo_inurba_marseille","lat":43.26575,"lon":5.37347,"is_reserved":false,"is_disabled":false,"rental_uris":{"android":"levelo://app?vid=767f6015-5710-4ce3-8e2a-efdfb6f0116b","ios":"levelo://app?vid=767f6015-5710-4ce3-8e2a-efdfb6f0116b"},"vehicle_type_id":"4","last_reported":1739967407,"current_range_meters":18800,"station_id":"ce4bhg12rcd13ifvqf70","pricing_plan_id":"cebpf4jnsgd1na2vs0mg"},{"bike_id":"4eaeefa8-f306-4f43-bebc-760c83cc8aff","system_id":"levelo_inurba_marseille","lat":43.29903,"lon":5.38144,"is_reserved":false,"is_disabled":false,"rental_uris":{"android":"levelo://app?vid=4eaeefa8-f306-4f43-bebc-760c83cc8aff","ios":"levelo://app?vid=4eaeefa8-f306-4f43-bebc-760c83cc8aff"},"vehicle_type_id":"4","last_reported":1739967407,"current_range_meters":18800,"station_id":"ce4bgj12rcd13ifvqbc0","pricing_plan_id":"cebpf4jnsgd1na2vs0mg"},{"bike_id":"01f0b83d-e91e-48f8-aab5-e43548efbbbd","system_id":"levelo_inurba_marseille","lat":43.25605,"lon":5.38235,"is_reserved":false,"is_disabled":false,"rental_uris":{"android":"levelo://app?vid=01f0b83d-e91e-48f8-aab5-e43548efbbbd","ios":"levelo://app?vid=01f0b83d-e91e-48f8-aab5-e43548efbbbd"},"vehicle_type_id":"4","last_reported":1739967407,"current_range_meters":18800,"station_id":"ce4bhih2rcd13ifvqfs0","pricing_plan_id":"cebpf4jnsgd1na2vs0mg"},{"bike_id":"0f119bb9-42f5-484d-a273-90a601312646","system_id":"levelo_inurba_marseille","lat":43.27072,"lon":5.42302,"is_reserved":false,"is_disabled":false,"rental_uris":{"android":"levelo://app?vid=0f119bb9-42f5-484d-a273-90a601312646","ios":"levelo://app?vid=0f119bb9-42f5-484d-a273-90a601312646"},"vehicle_type_id":"4","last_reported":1739967407,"current_range_meters":18800,"station_id":"ce4bhk92rcd13ifvqgb0","pricing_plan_id":"cebpf4jnsgd1na2vs0mg"},{"bike_id":"748e17f1-edb4-4c3c-a7b1-7f45787d03ed","system_id":"levelo_inurba_marseille","lat":43.27374,"lon":5.36251,"is_reserved":false,"is_disabled":false,"rental_uris":{"android":"levelo://app?vid=748e17f1-edb4-4c3c-a7b1-7f45787d03ed","ios":"levelo://app?vid=748e17f1-edb4-4c3c-a7b1-7f45787d03ed"},"vehicle_type_id":"4","last_reported":1739967407,"current_range_meters":19200,"station_id":"ce4bhbh2rcd13ifvqeo0","pricing_plan_id":"cebpf4jnsgd1na2vs0mg"},{"bike_id":"feacb390-cfad-4e7f-834a-87e63195ccd1","system_id":"levelo_inurba_marseille","lat":43.28148,"lon":5.42654,"is_reserved":false,"is_disabled":false,"rental_uris":{"android":"levelo://app?vid=feacb390-cfad-4e7f-834a-87e63195ccd1","ios":"levelo://app?vid=feacb390-cfad-4e7f-834a-87e63195ccd1"},"vehicle_type_id":"4","last_reported":1739967407,"current_range_meters":19200,"station_id":"ce4bhnh2rcd13ifvqgug","pricing_plan_id":"cebpf4jnsgd1na2vs0mg"},{"bike_id":"418cf512-f4f7-4926-a4e7-73be06e6100b","system_id":"levelo_inurba_marseille","lat":43.29837,"lon":5.36275,"is_reserved":false,"is_disabled":false,"rental_uris":{"android":"levelo://app?vid=418cf512-f4f7-4926-a4e7-73be06e6100b","ios":"levelo://app?vid=418cf512-f4f7-4926-a4e7-73be06e6100b"},"vehicle_type_id":"4","last_reported":1739967407,"current_range_meters":19200,"station_id":"ce4bgpp2rcd13ifvqc3g","pricing_plan_id":"cebpf4jnsgd1na2vs0mg"},{"bike_id":"3addd8d2-327f-4e60-8639-267e28d7c956","system_id":"levelo_inurba_marseille","lat":43.28685,"lon":5.38665,"is_reserved":false,"is_disabled":false,"rental_uris":{"android":"levelo://app?vid=3addd8d2-327f-4e60-8639-267e28d7c956","ios":"levelo://app?vid=3addd8d2-327f-4e60-8639-267e28d7c956"},"vehicle_type_id":"4","last_reported":1739967407,"current_range_meters":19200,"station_id":"","pricing_plan_id":"cebpf4jnsgd1na2vs0mg"},{"bike_id":"84b2fee1-bcdb-49e7-b3f6-49bd7a1a6c68","system_id":"levelo_inurba_marseille","lat":43.306,"lon":5.39358,"is_reserved":false,"is_disabled":false,"rental_uris":{"android":"levelo://app?vid=84b2fee1-bcdb-49e7-b3f6-49bd7a1a6c68","ios":"levelo://app?vid=84b2fee1-bcdb-49e7-b3f6-49bd7a1a6c68"},"vehicle_type_id":"4","last_reported":1739967407,"current_range_meters":19200,"station_id":"ce4bh0p2rcd13ifvqd80","pricing_plan_id":"cebpf4jnsgd1na2vs0mg"},{"bike_id":"a8d02a8a-73b1-4b32-ab89-ec142360d85c","system_id":"levelo_inurba_marseille","lat":43.28931,"lon":5.38386,"is_reserved":false,"is_disabled":false,"rental_uris":{"android":"levelo://app?vid=a8d02a8a-73b1-4b32-ab89-ec142360d85c","ios":"levelo://app?vid=a8d02a8a-73b1-4b32-ab89-ec142360d85c"},"vehicle_type_id":"4","last_reported":1739967407,"current_range_meters":19600,"station_id":"ce4bh612rcd13ifvqe6g","pricing_plan_id":"cebpf4jnsgd1na2vs0mg"},{"bike_id":"24b034ae-81d8-4b0e-9d7b-9309f18a47ae","system_id":"levelo_inurba_marseille","lat":43.29166,"lon":5.3722,"is_reserved":false,"is_disabled":false,"rental_uris":{"android":"levelo://app?vid=24b034ae-81d8-4b0e-9d7b-9309f18a47ae","ios":"levelo://app?vid=24b034ae-81d8-4b0e-9d7b-9309f18a47ae"},"vehicle_type_id":"4","last_reported":1739967407,"current_range_meters":19600,"station_id":"","pricing_plan_id":"cebpf4jnsgd1na2vs0mg"},{"bike_id":"68edcec8-8916-4b1a-a9b5-9d34334053d2","system_id":"levelo_inurba_marseille","lat":43.29574,"lon":5.37503,"is_reserved":false,"is_disabled":false,"rental_uris":{"android":"levelo://app?vid=68edcec8-8916-4b1a-a9b5-9d34334053d2","ios":"levelo://app?vid=68edcec8-8916-4b1a-a9b5-9d34334053d2"},"vehicle_type_id":"4","last_reported":1739967407,"current_range_meters":19600,"station_id":"ce4bgh92rcd13ifvqb50","pricing_plan_id":"cebpf4jnsgd1na2vs0mg"},{"bike_id":"2ff363b9-7abc-4692-a41d-2fa3614d2be0","system_id":"levelo_inurba_marseille","lat":43.29509,"lon":5.37511,"is_reserved":false,"is_disabled":false,"rental_uris":{"android":"levelo://app?vid=2ff363b9-7abc-4692-a41d-2fa3614d2be0","ios":"levelo://app?vid=2ff363b9-7abc-4692-a41d-2fa3614d2be0"},"vehicle_type_id":"4","last_reported":1739967407,"current_range_meters":19600,"station_id":"ce4bgkp2rcd13ifvqbmg","pricing_plan_id":"cebpf4jnsgd1na2vs0mg"},{"bike_id":"03bb80d2-2d58-477e-8d77-d8a9b94a8f21","system_id":"levelo_inurba_marseille","lat":43.23815,"lon":5.40316,"is_reserved":false,"is_disabled":false,"rental_uris":{"android":"levelo://app?vid=03bb80d2-2d58-477e-8d77-d8a9b94a8f21","ios":"levelo://app?vid=03bb80d2-2d58-477e-8d77-d8a9b94a8f21"},"vehicle_type_id":"4","last_reported":1739967407,"current_range_meters":19600,"station_id":"","pricing_plan_id":"cebpf4jnsgd1na2vs0mg"},{"bike_id":"79236236-9032-485a-9c29-12dc262a4630","system_id":"levelo_inurba_marseille","lat":43.3097,"lon":5.36983,"is_reserved":false,"is_disabled":false,"rental_uris":{"android":"levelo://app?vid=79236236-9032-485a-9c29-12dc262a4630","ios":"levelo://app?vid=79236236-9032-485a-9c29-12dc262a4630"},"vehicle_type_id":"4","last_reported":1739967407,"current_range_meters":20000,"station_id":"","pricing_plan_id":"cebpf4jnsgd1na2vs0mg"},{"bike_id":"751d2cf4-fa99-4a3f-9556-3ff54793f80a","system_id":"levelo_inurba_marseille","lat":43.25876,"lon":5.39463,"is_reserved":false,"is_disabled":false,"rental_uris":{"android":"levelo://app?vid=751d2cf4-fa99-4a3f-9556-3ff54793f80a","ios":"levelo://app?vid=751d2cf4-fa99-4a3f-9556-3ff54793f80a"},"vehicle_type_id":"4","last_reported":1739967407,"current_range_meters":19600,"station_id":"ce4bhip2rcd13ifvqft0","pricing_plan_id":"cebpf4jnsgd1na2vs0mg"},{"bike_id":"63d3fd56-a06f-4866-837b-543be86ed15c","system_id":"levelo_inurba_marseille","lat":43.30801,"lon":5.36905,"is_reserved":false,"is_disabled":false,"rental_uris":{"android":"levelo://app?vid=63d3fd56-a06f-4866-837b-543be86ed15c","ios":"levelo://app?vid=63d3fd56-a06f-4866-837b-543be86ed15c"},"vehicle_type_id":"4","last_reported":1739967407,"current_range_meters":20000,"station_id":"ce4bgl92rcd13ifvqbq0","pricing_plan_id":"cebpf4jnsgd1na2vs0mg"},{"bike_id":"3859fdf6-9645-4f0d-a53b-6411f76342cc","system_id":"levelo_inurba_marseille","lat":43.31229,"lon":5.3686,"is_reserved":false,"is_disabled":false,"rental_uris":{"android":"levelo://app?vid=3859fdf6-9645-4f0d-a53b-6411f76342cc","ios":"levelo://app?vid=3859fdf6-9645-4f0d-a53b-6411f76342cc"},"vehicle_type_id":"4","last_reported":1739967407,"current_range_meters":20400,"station_id":"ce4bgl92rcd13ifvqbq0","pricing_plan_id":"cebpf4jnsgd1na2vs0mg"},{"bike_id":"0e264fa6-28bd-4e4f-8cac-e65b56c3bac1","system_id":"levelo_inurba_marseille","lat":43.30097,"lon":5.37803,"is_reserved":false,"is_disabled":false,"rental_uris":{"android":"levelo://app?vid=0e264fa6-28bd-4e4f-8cac-e65b56c3bac1","ios":"levelo://app?vid=0e264fa6-28bd-4e4f-8cac-e65b56c3bac1"},"vehicle_type_id":"4","last_reported":1739967407,"current_range_meters":20000,"station_id":"","pricing_plan_id":"cebpf4jnsgd1na2vs0mg"},{"bike_id":"89a29e0b-c805-4a3a-8212-c9b59b527a0b","system_id":"levelo_inurba_marseille","lat":43.272324,"lon":5.390609,"is_reserved":false,"is_disabled":false,"rental_uris":{"android":"levelo://app?vid=89a29e0b-c805-4a3a-8212-c9b59b527a0b","ios":"levelo://app?vid=89a29e0b-c805-4a3a-8212-c9b59b527a0b"},"vehicle_type_id":"4","last_reported":1739967407,"current_range_meters":20000,"station_id":"ce4bhgp2rcd13ifvqfe0","pricing_plan_id":"cebpf4jnsgd1na2vs0mg"},{"bike_id":"53324156-0b5f-4ee4-beb8-65d71f0308f4","system_id":"levelo_inurba_marseille","lat":43.26548,"lon":5.39073,"is_reserved":false,"is_disabled":true,"rental_uris":{"android":"levelo://app?vid=53324156-0b5f-4ee4-beb8-65d71f0308f4","ios":"levelo://app?vid=53324156-0b5f-4ee4-beb8-65d71f0308f4"},"vehicle_type_id":"4","last_reported":1739967407,"current_range_meters":20000,"station_id":"","pricing_plan_id":"cebpf4jnsgd1na2vs0mg"},{"bike_id":"64170527-eac7-4440-b996-522cbb93c139","system_id":"levelo_inurba_marseille","lat":43.25941,"lon":5.40899,"is_reserved":false,"is_disabled":false,"rental_uris":{"android":"levelo://app?vid=64170527-eac7-4440-b996-522cbb93c139","ios":"levelo://app?vid=64170527-eac7-4440-b996-522cbb93c139"},"vehicle_type_id":"4","last_reported":1739967407,"current_range_meters":20000,"station_id":"ce4bhm92rcd13ifvqglg","pricing_plan_id":"cebpf4jnsgd1na2vs0mg"},{"bike_id":"7b5b0e79-3fe6-49cb-881d-0b916c61eba8","system_id":"levelo_inurba_marseille","lat":43.27321,"lon":5.39086,"is_reserved":false,"is_disabled":false,"rental_uris":{"android":"levelo://app?vid=7b5b0e79-3fe6-49cb-881d-0b916c61eba8","ios":"levelo://app?vid=7b5b0e79-3fe6-49cb-881d-0b916c61eba8"},"vehicle_type_id":"4","last_reported":1739967407,"current_range_meters":20000,"station_id":"","pricing_plan_id":"cebpf4jnsgd1na2vs0mg"},{"bike_id":"3ec2d388-1db7-4311-ad67-ac2254b5aaca","system_id":"levelo_inurba_marseille","lat":43.31503,"lon":5.37279,"is_reserved":false,"is_disabled":false,"rental_uris":{"android":"levelo://app?vid=3ec2d388-1db7-4311-ad67-ac2254b5aaca","ios":"levelo://app?vid=3ec2d388-1db7-4311-ad67-ac2254b5aaca"},"vehicle_type_id":"4","last_reported":1739967407,"current_range_meters":20000,"station_id":"ce4bgt12rcd13ifvqcd0","pricing_plan_id":"cebpf4jnsgd1na2vs0mg"},{"bike_id":"dea6125e-5dc1-43f0-a77c-244f328a373a","system_id":"levelo_inurba_marseille","lat":43.27072,"lon":5.42281,"is_reserved":false,"is_disabled":false,"rental_uris":{"android":"levelo://app?vid=dea6125e-5dc1-43f0-a77c-244f328a373a","ios":"levelo://app?vid=dea6125e-5dc1-43f0-a77c-244f328a373a"},"vehicle_type_id":"4","last_reported":1739967407,"current_range_meters":20000,"station_id":"ce4bhk92rcd13ifvqgb0","pricing_plan_id":"cebpf4jnsgd1na2vs0mg"},{"bike_id":"834704e8-34ed-4ba2-a886-e9cfe5836af3","system_id":"levelo_inurba_marseille","lat":43.28426,"lon":5.34982,"is_reserved":false,"is_disabled":false,"rental_uris":{"android":"levelo://app?vid=834704e8-34ed-4ba2-a886-e9cfe5836af3","ios":"levelo://app?vid=834704e8-34ed-4ba2-a886-e9cfe5836af3"},"vehicle_type_id":"4","last_reported":1739967407,"current_range_meters":20400,"station_id":"ce4bhbh2rcd13ifvqepg","pricing_plan_id":"cebpf4jnsgd1na2vs0mg"},{"bike_id":"d5203534-e7df-4d29-8bbd-6538a56df1d8","system_id":"levelo_inurba_marseille","lat":43.25928,"lon":5.40898,"is_reserved":false,"is_disabled":false,"rental_uris":{"android":"levelo://app?vid=d5203534-e7df-4d29-8bbd-6538a56df1d8","ios":"levelo://app?vid=d5203534-e7df-4d29-8bbd-6538a56df1d8"},"vehicle_type_id":"4","last_reported":1739967407,"current_range_meters":20400,"station_id":"ce4bhm92rcd13ifvqglg","pricing_plan_id":"cebpf4jnsgd1na2vs0mg"},{"bike_id":"7d538134-1a3e-4c6e-ab5b-4d985c54776c","system_id":"levelo_inurba_marseille","lat":43.26068,"lon":5.39378,"is_reserved":false,"is_disabled":false,"rental_uris":{"android":"levelo://app?vid=7d538134-1a3e-4c6e-ab5b-4d985c54776c","ios":"levelo://app?vid=7d538134-1a3e-4c6e-ab5b-4d985c54776c"},"vehicle_type_id":"4","last_reported":1739967407,"current_range_meters":20400,"station_id":"ce4bhh92rcd13ifvqfj0","pricing_plan_id":"cebpf4jnsgd1na2vs0mg"},{"bike_id":"cdf1e431-388c-40e0-9e90-83ee2a3ebac3","system_id":"levelo_inurba_marseille","lat":43.25932,"lon":5.40911,"is_reserved":false,"is_disabled":false,"rental_uris":{"android":"levelo://app?vid=cdf1e431-388c-40e0-9e90-83ee2a3ebac3","ios":"levelo://app?vid=cdf1e431-388c-40e0-9e90-83ee2a3ebac3"},"vehicle_type_id":"4","last_reported":1739967407,"current_range_meters":20400,"station_id":"ce4bhm92rcd13ifvqglg","pricing_plan_id":"cebpf4jnsgd1na2vs0mg"},{"bike_id":"7fcc640f-f794-4c69-9b59-41103ed837cd","system_id":"levelo_inurba_marseille","lat":43.23959,"lon":5.36642,"is_reserved":false,"is_disabled":false,"rental_uris":{"android":"levelo://app?vid=7fcc640f-f794-4c69-9b59-41103ed837cd","ios":"levelo://app?vid=7fcc640f-f794-4c69-9b59-41103ed837cd"},"vehicle_type_id":"4","last_reported":1739967407,"current_range_meters":20400,"station_id":"ce4bhi12rcd13ifvqfp0","pricing_plan_id":"cebpf4jnsgd1na2vs0mg"},{"bike_id":"361b090b-1a5d-4cf4-bce3-e52bbcbed803","system_id":"levelo_inurba_marseille","lat":43.25515,"lon":5.37635,"is_reserved":false,"is_disabled":false,"rental_uris":{"android":"levelo://app?vid=361b090b-1a5d-4cf4-bce3-e52bbcbed803","ios":"levelo://app?vid=361b090b-1a5d-4cf4-bce3-e52bbcbed803"},"vehicle_type_id":"4","last_reported":1739967407,"current_range_meters":20400,"station_id":"ce4bhh12rcd13ifvqff0","pricing_plan_id":"cebpf4jnsgd1na2vs0mg"},{"bike_id":"a46898f6-9f4d-40b4-acb0-5642611d77f6","system_id":"levelo_inurba_marseille","lat":43.29906,"lon":5.38137,"is_reserved":false,"is_disabled":false,"rental_uris":{"android":"levelo://app?vid=a46898f6-9f4d-40b4-acb0-5642611d77f6","ios":"levelo://app?vid=a46898f6-9f4d-40b4-acb0-5642611d77f6"},"vehicle_type_id":"4","last_reported":1739967407,"current_range_meters":20400,"station_id":"ce4bgj12rcd13ifvqbc0","pricing_plan_id":"cebpf4jnsgd1na2vs0mg"},{"bike_id":"b8640506-7343-481f-b2b1-7b91ad1ba1a3","system_id":"levelo_inurba_marseille","lat":43.28424,"lon":5.34977,"is_reserved":false,"is_disabled":false,"rental_uris":{"android":"levelo://app?vid=b8640506-7343-481f-b2b1-7b91ad1ba1a3","ios":"levelo://app?vid=b8640506-7343-481f-b2b1-7b91ad1ba1a3"},"vehicle_type_id":"4","last_reported":1739967407,"current_range_meters":20400,"station_id":"ce4bhbh2rcd13ifvqepg","pricing_plan_id":"cebpf4jnsgd1na2vs0mg"},{"bike_id":"d51f5e3e-5f60-4df2-94ae-60b240d1edf3","system_id":"levelo_inurba_marseille","lat":43.23212,"lon":5.39975,"is_reserved":false,"is_disabled":false,"rental_uris":{"android":"levelo://app?vid=d51f5e3e-5f60-4df2-94ae-60b240d1edf3","ios":"levelo://app?vid=d51f5e3e-5f60-4df2-94ae-60b240d1edf3"},"vehicle_type_id":"4","last_reported":1739967407,"current_range_meters":20400,"station_id":"ce4bhn12rcd13ifvqgqg","pricing_plan_id":"cebpf4jnsgd1na2vs0mg"},{"bike_id":"ffc7c585-b412-4aa8-acae-2bcc5a1ff811","system_id":"levelo_inurba_marseille","lat":43.30148,"lon":5.38093,"is_reserved":false,"is_disabled":false,"rental_uris":{"android":"levelo://app?vid=ffc7c585-b412-4aa8-acae-2bcc5a1ff811","ios":"levelo://app?vid=ffc7c585-b412-4aa8-acae-2bcc5a1ff811"},"vehicle_type_id":"4","last_reported":1739967407,"current_range_meters":20400,"station_id":"ce4bgjp2rcd13ifvqbh0","pricing_plan_id":"cebpf4jnsgd1na2vs0mg"},{"bike_id":"b06d6e07-ee5b-4c34-968e-cafc36687c95","system_id":"levelo_inurba_marseille","lat":43.30473,"lon":5.37886,"is_reserved":false,"is_disabled":false,"rental_uris":{"android":"levelo://app?vid=b06d6e07-ee5b-4c34-968e-cafc36687c95","ios":"levelo://app?vid=b06d6e07-ee5b-4c34-968e-cafc36687c95"},"vehicle_type_id":"4","last_reported":1739967407,"current_range_meters":20800,"station_id":"ce4bgup2rcd13ifvqcn0","pricing_plan_id":"cebpf4jnsgd1na2vs0mg"},{"bike_id":"fc83fbbe-ea5e-48b9-afd4-fb70b86b578b","system_id":"levelo_inurba_marseille","lat":43.30546,"lon":5.38423,"is_reserved":false,"is_disabled":false,"rental_uris":{"android":"levelo://app?vid=fc83fbbe-ea5e-48b9-afd4-fb70b86b578b","ios":"levelo://app?vid=fc83fbbe-ea5e-48b9-afd4-fb70b86b578b"},"vehicle_type_id":"4","last_reported":1739967407,"current_range_meters":20800,"station_id":"","pricing_plan_id":"cebpf4jnsgd1na2vs0mg"},{"bike_id":"814c3c5f-905a-4484-8960-fc060c39c477","system_id":"levelo_inurba_marseille","lat":43.26209,"lon":5.37445,"is_reserved":false,"is_disabled":false,"rental_uris":{"android":"levelo://app?vid=814c3c5f-905a-4484-8960-fc060c39c477","ios":"levelo://app?vid=814c3c5f-905a-4484-8960-fc060c39c477"},"vehicle_type_id":"4","last_reported":1739967407,"current_range_meters":20800,"station_id":"ce4bhgp2rcd13ifvqfc0","pricing_plan_id":"cebpf4jnsgd1na2vs0mg"},{"bike_id":"98d2871f-b9f3-4d90-8727-7d9ed16a978a","system_id":"levelo_inurba_marseille","lat":43.30021,"lon":5.38263,"is_reserved":false,"is_disabled":true,"rental_uris":{"android":"levelo://app?vid=98d2871f-b9f3-4d90-8727-7d9ed16a978a","ios":"levelo://app?vid=98d2871f-b9f3-4d90-8727-7d9ed16a978a"},"vehicle_type_id":"4","last_reported":1739967407,"current_range_meters":20800,"station_id":"","pricing_plan_id":"cebpf4jnsgd1na2vs0mg"},{"bike_id":"1dee5c27-bfcf-4165-bf5c-35908ddbcbd2","system_id":"levelo_inurba_marseille","lat":43.31327,"lon":5.39697,"is_reserved":false,"is_disabled":false,"rental_uris":{"android":"levelo://app?vid=1dee5c27-bfcf-4165-bf5c-35908ddbcbd2","ios":"levelo://app?vid=1dee5c27-bfcf-4165-bf5c-35908ddbcbd2"},"vehicle_type_id":"4","last_reported":1739967407,"current_range_meters":21600,"station_id":"ce4bgvp2rcd13ifvqcu0","pricing_plan_id":"cebpf4jnsgd1na2vs0mg"},{"bike_id":"ecd2eb6f-924c-4357-9f20-bc2637dd6403","system_id":"levelo_inurba_marseille","lat":43.29784,"lon":5.371,"is_reserved":false,"is_disabled":false,"rental_uris":{"android":"levelo://app?vid=ecd2eb6f-924c-4357-9f20-bc2637dd6403","ios":"levelo://app?vid=ecd2eb6f-924c-4357-9f20-bc2637dd6403"},"vehicle_type_id":"4","last_reported":1739967407,"current_range_meters":21600,"station_id":"ce4bgop2rcd13ifvqc1g","pricing_plan_id":"cebpf4jnsgd1na2vs0mg"},