{"last_updated":1739380136,"ttl":60,"version":"2.2","data":{"bikes":[{"bike_id":"9ae4959d-6de9-4c98-bb63-3a430a52595d","system_id":"levelo_inurba_marseille","lat":43.31382,"lon":5.36731,"is_reserved":false,"is_disabled":false,"rental_uris":{"android":"levelo://app?vid=9ae4959d-6de9-4c98-bb63-3a430a52595d","ios":"levelo://app?vid=9ae4959d-6de9-4c98-bb63-3a430a52595d"},"vehicle_type_id":"4","last_reported":1739380136,"current_range_meters":16800,"station_id":"","pricing_plan_id":"cebpf4jnsgd1na2vs0mg"},{"bike_id":"f57c0d40-24f9-4dea-981b-859689b14ec2","system_id":"levelo_inurba_marseille","lat":43.24663,"lon":5.38163,"is_reserved":false,"is_disabled":false,"rental_uris":{"android":"levelo://app?vid=f57c0d40-24f9-4dea-981b-859689b14ec2","ios":"levelo://app?vid=f57c0d40-24f9-4dea-981b-859689b14ec2"},"vehicle_type_id":"4","last_reported":1739380136,"current_range_meters":22000,"station_id":"ce4bhih2rcd13ifvqfr0","pricing_plan_id":"cebpf4jnsgd1na2vs0mg"},{"bike_id":"7803dd1a-a242-4883-848b-e4cbfccf197b","system_id":"levelo_inurba_marseille","lat":43.3134,"lon":5.36692,"is_reserved":false,"is_disabled":false,"rental_uris":{"android":"levelo://app?vid=7803dd1a-a242-4883-848b-e4cbfccf197b","ios":"levelo://app?vid=7803dd1a-a242-4883-848b-e4cbfccf197b"},"vehicle_type_id":"4","last_reported":1739380136,"current_range_meters":8400,"station_id":"ce4bgr92rcd13ifvqc6g","pricing_plan_id":"cebpf4jnsgd1na2vs0mg"},{"bike_id":"9c9e6dfa-122e-4154-8057-4016db8e7671","system_id":"levelo_inurba_marseille","lat":43.33738,"lon":5.39195,"is_reserved":false,"is_disabled":false,"rental_uris":{"android":"levelo://app?vid=9c9e6dfa-122e-4154-8057-4016db8e7671","ios":"levelo://app?vid=9c9e6dfa-122e-4154-8057-4016db8e7671"},"vehicle_type_id":"4","last_reported":1739380136,"current_range_meters":38800,"station_id":"ce4bhr92rcd13ifvqhsg","pricing_plan_id":"cebpf4jnsgd1na2vs0mg"},{"bike_id":"48ef06aa-2a92-4f3b-b3de-27c891174e95","system_id":"levelo_inurba_marseille","lat":43.30434,"lon":5.38892,"is_reserved":false,"is_disabled":false,"rental_uris":{"android":"levelo://app?vid=48ef06aa-2a92-4f3b-b3de-27c891174e95","ios":"levelo://app?vid=48ef06aa-2a92-4f3b-b3de-27c891174e95"},"vehicle_type_id":"4","last_reported":1739380136,"current_range_meters":28800,"station_id":"ce4bgk12rcd13ifvqbi0","pricing_plan_id":"cebpf4jnsgd1na2vs0mg"},{"bike_id":"1d4165b9-e8af-42e7-8e88-54a0f84b4f26","system_id":"levelo_inurba_marseille","lat":43.23178,"lon":5.39972,"is_reserved":false,"is_disabled":false,"rental_uris":{"android":"levelo://app?vid=1d4165b9-e8af-42e7-8e88-54a0f84b4f26","ios":"levelo://app?vid=1d4165b9-e8af-42e7-8e88-54a0f84b4f26"},"vehicle_type_id":"4","last_reported":1739380136,"current_range_meters":38000,"station_id":"ce4bhn12rcd13ifvqgqg","pricing_plan_id":"cebpf4jnsgd1na2vs0mg"},{"bike_id":"f6ef4f9a-c914-4d4b-a06e-00485b64285e","system_id":"levelo_inurba_marseille","lat":43.32477,"lon":5.36578,"is_reserved":false,"is_disabled":false,"rental_uris":{"android":"levelo://app?vid=f6ef4f9a-c914-4d4b-a06e-00485b64285e","ios":"levelo://app?vid=f6ef4f9a-c914-4d4b-a06e-00485b64285e"},"vehicle_type_id":"4","last_reported":1739380136,"current_range_meters":38800,"station_id":"ce4bhs12rcd13ifvqhvg","pricing_plan_id":"cebpf4jnsgd1na2vs0mg"},{"bike_id":"96baeb33-bfae-4e4a-9d28-64eae83143ba","system_id":"levelo_inurba_marseille","lat":43.29176,"lon":5.39334,"is_reserved":false,"is_disabled":false,"rental_uris":{"android":"levelo://app?vid=96baeb33-bfae-4e4a-9d28-64eae83143ba","ios":"levelo://app?vid=96baeb33-bfae-4e4a-9d28-64eae83143ba"},"vehicle_type_id":"4","last_reported":1739380136,"current_range_meters":30400,"station_id":"ce4bh192rcd13ifvqdd0","pricing_plan_id":"cebpf4jnsgd1na2vs0mg"},{"bike_id":"9a810e7f-f4d3-4692-9027-c552af7c0f96","system_id":"levelo_inurba_marseille","lat":43.29039,"lon":5.35911,"is_reserved":false,"is_disabled":true,"rental_uris":{"android":"levelo://app?vid=9a810e7f-f4d3-4692-9027-c552af7c0f96","ios":"levelo://app?vid=9a810e7f-f4d3-4692-9027-c552af7c0f96"},"vehicle_type_id":"4","last_reported":1739380136,"current_range_meters":37600,"station_id":"ce4bha92rcd13ifvqeg0","pricing_plan_id":"cebpf4jnsgd1na2vs0mg"},{"bike_id":"4c4891db-fb43-4fcc-aed3-6542b2bf0dbf","system_id":"levelo_inurba_marseille","lat":43.27452,"lon":5.41046,"is_reserved":false,"is_disabled":false,"rental_uris":{"android":"levelo://app?vid=4c4891db-fb43-4fcc-aed3-6542b2bf0dbf","ios":"levelo://app?vid=4c4891db-fb43-4fcc-aed3-6542b2bf0dbf"},"vehicle_type_id":"4","last_reported":1739380136,"current_range_meters":29600,"station_id":"","pricing_plan_id":"cebpf4jnsgd1na2vs0mg"},{"bike_id":"09be909a-a832-4dee-ba5b-376237362b36","system_id":"levelo_inurba_marseille","lat":43.30795,"lon":5.38168,"is_reserved":false,"is_disabled":false,"rental_uris":{"android":"levelo://app?vid=09be909a-a832-4dee-ba5b-376237362b36","ios":"levelo://app?vid=09be909a-a832-4dee-ba5b-376237362b36"},"vehicle_type_id":"4","last_reported":1739380136,"current_range_meters":2800,"station_id":"ce4bgt12rcd13ifvqce0","pricing_plan_id":"cebpf4jnsgd1na2vs0mg"},{"bike_id":"9e4564f0-0519-46c9-beea-73f529a3ce6a","system_id":"levelo_inurba_marseille","lat":43.24808,"lon":5.3746,"is_reserved":false,"is_disabled":false,"rental_uris":{"android":"levelo://app?vid=9e4564f0-0519-46c9-beea-73f529a3ce6a","ios":"levelo://app?vid=9e4564f0-0519-46c9-beea-73f529a3ce6a"},"vehicle_type_id":"4","last_reported":1739380136,"current_range_meters":28000,"station_id":"ce4bhgh2rcd13ifvqfb0","pricing_plan_id":"cebpf4jnsgd1na2vs0mg"},{"bike_id":"e2ef0c9e-720a-4b7b-8b38-5b3e6db437b0","system_id":"levelo_inurba_marseille","lat":43.29523,"lon":5.39398,"is_reserved":false,"is_disabled":false,"rental_uris":{"android":"levelo://app?vid=e2ef0c9e-720a-4b7b-8b38-5b3e6db437b0","ios":"levelo://app?vid=e2ef0c9e-720a-4b7b-8b38-5b3e6db437b0"},"vehicle_type_id":"4","last_reported":1739380136,"current_range_meters":11600,"station_id":"ce4bh292rcd13ifvqdf0","pricing_plan_id":"cebpf4jnsgd1na2vs0mg"},{"bike_id":"d337aa82-d93f-459b-9b0e-9817b976a831","system_id":"levelo_inurba_marseille","lat":43.29762,"lon":5.37077,"is_reserved":false,"is_disabled":false,"rental_uris":{"android":"levelo://app?vid=d337aa82-d93f-459b-9b0e-9817b976a831","ios":"levelo://app?vid=d337aa82-d93f-459b-9b0e-9817b976a831"},"vehicle_type_id":"4","last_reported":1739380136,"current_range_meters":33200,"station_id":"ce4bgop2rcd13ifvqc1g","pricing_plan_id":"cebpf4jnsgd1na2vs0mg"},{"bike_id":"7e97dc25-4707-43f3-b85e-e68049bc5336","system_id":"levelo_inurba_marseille","lat":43.255,"lon":5.37648,"is_reserved":false,"is_disabled":false,"rental_uris":{"android":"levelo://app?vid=7e97dc25-4707-43f3-b85e-e68049bc5336","ios":"levelo://app?vid=7e97dc25-4707-43f3-b85e-e68049bc5336"},"vehicle_type_id":"4","last_reported":1739380136,"current_range_meters":4800,"station_id":"ce4bhh12rcd13ifvqff0","pricing_plan_id":"cebpf4jnsgd1na2vs0mg"},{"bike_id":"224dce56-c44e-4b91-bb45-919ca8990be5","system_id":"levelo_inurba_marseille","lat":43.29052,"lon":5.35904,"is_reserved":false,"is_disabled":false,"rental_uris":{"android":"levelo://app?vid=224dce56-c44e-4b91-bb45-919ca8990be5","ios":"levelo://app?vid=224dce56-c44e-4b91-bb45-919ca8990be5"},"vehicle_type_id":"4","last_reported":1739380136,"current_range_meters":39200,"station_id":"ce4bha92rcd13ifvqeg0","pricing_plan_id":"cebpf4jnsgd1na2vs0mg"},{"bike_id":"9ddb6339-9b09-4642-9873-f8048fbc6d76","system_id":"levelo_inurba_marseille","lat":43.26928,"lon":5.40273,"is_reserved":false,"is_disabled":false,"rental_uris":{"android":"levelo://app?vid=9ddb6339-9b09-4642-9873-f8048fbc6d76","ios":"levelo://app?vid=9ddb6339-9b09-4642-9873-f8048fbc6d76"},"vehicle_type_id":"4","last_reported":1739380136,"current_range_meters":28000,"station_id":"cjm6bp8fraef2m0cb0m0","pricing_plan_id":"cebpf4jnsgd1na2vs0mg"},{"bike_id":"26c79ef5-6f5f-49d9-b4aa-17fb6a7df4bb","system_id":"levelo_inurba_marseille","lat":43.29842,"lon":5.36282,"is_reserved":false,"is_disabled":false,"rental_uris":{"android":"levelo://app?vid=26c79ef5-6f5f-49d9-b4aa-17fb6a7df4bb","ios":"levelo://app?vid=26c79ef5-6f5f-49d9-b4aa-17fb6a7df4bb"},"vehicle_type_id":"4","last_reported":1739380136,"current_range_meters":38800,"station_id":"ce4bgpp2rcd13ifvqc3g","pricing_plan_id":"cebpf4jnsgd1na2vs0mg"},{"bike_id":"39e55a90-fe76-4904-bf9c-9841fe168f13","system_id":"levelo_inurba_marseille","lat":43.337305,"lon":5.391861,"is_reserved":false,"is_disabled":false,"rental_uris":{"android":"levelo://app?vid=39e55a90-fe76-4904-bf9c-9841fe168f13","ios":"levelo://app?vid=39e55a90-fe76-4904-bf9c-9841fe168f13"},"vehicle_type_id":"4","last_reported":1739380136,"current_range_meters":38800,"station_id":"ce4bhr92rcd13ifvqhsg","pricing_plan_id":"cebpf4jnsgd1na2vs0mg"},{"bike_id":"731da6c6-f7ca-4a26-90c2-82e3497d26ff","system_id":"levelo_inurba_marseille","lat":43.31353,"lon":5.36713,"is_reserved":false,"is_disabled":false,"rental_uris":{"android":"levelo://app?vid=731da6c6-f7ca-4a26-90c2-82e3497d26ff","ios":"levelo://app?vid=731da6c6-f7ca-4a26-90c2-82e3497d26ff"},"vehicle_type_id":"4","last_reported":1739380136,"current_range_meters":30000,"station_id":"ce4bgr92rcd13ifvqc6g","pricing_plan_id":"cebpf4jnsgd1na2vs0mg"},{"bike_id":"48ced0da-4d1e-4e04-88d0-0ba34e1ebced","system_id":"levelo_inurba_marseille","lat":43.29967,"lon":5.37177,"is_reserved":false,"is_disabled":false,"rental_uris":{"android":"levelo://app?vid=48ced0da-4d1e-4e04-88d0-0ba34e1ebced","ios":"levelo://app?vid=48ced0da-4d1e-4e04-88d0-0ba34e1ebced"},"vehicle_type_id":"4","last_reported":1739380136,"current_range_meters":20800,"station_id":"ce4bgr92rcd13ifvqc7g","pricing_plan_id":"cebpf4jnsgd1na2vs0mg"},{"bike_id":"a2a3e393-bf0b-4ba0-841b-675f81bea236","system_id":"levelo_inurba_marseille","lat":43.29569,"lon":5.37519,"is_reserved":false,"is_disabled":false,"rental_uris":{"android":"levelo://app?vid=a2a3e393-bf0b-4ba0-841b-675f81bea236","ios":"levelo://app?vid=a2a3e393-bf0b-4ba0-841b-675f81bea236"},"vehicle_type_id":"4","last_reported":1739380136,"current_range_meters":34000,"station_id":"ce4bgh92rcd13ifvqb50","pricing_plan_id":"cebpf4jnsgd1na2vs0mg"},{"bike_id":"b737ae82-c86e-4ede-80b2-31fc6f755e14","system_id":"levelo_inurba_marseille","lat":43.29532,"lon":5.3856,"is_reserved":false,"is_disabled":true,"rental_uris":{"android":"levelo://app?vid=b737ae82-c86e-4ede-80b2-31fc6f755e14","ios":"levelo://app?vid=b737ae82-c86e-4ede-80b2-31fc6f755e14"},"vehicle_type_id":"4","last_reported":1739380136,"current_range_meters":38800,"station_id":"ce4bgih2rcd13ifvqba0","pricing_plan_id":"cebpf4jnsgd1na2vs0mg"},{"bike_id":"51b67aec-9d3d-405a-a0e9-4729e19b2986","system_id":"levelo_inurba_marseille","lat":43.29547,"lon":5.39398,"is_reserved":false,"is_disabled":false,"rental_uris":{"android":"levelo://app?vid=51b67aec-9d3d-405a-a0e9-4729e19b2986","ios":"levelo://app?vid=51b67aec-9d3d-405a-a0e9-4729e19b2986"},"vehicle_type_id":"4","last_reported":1739380136,"current_range_meters":17600,"station_id":"ce4bh292rcd13ifvqdf0","pricing_plan_id":"cebpf4jnsgd1na2vs0mg"},{"bike_id":"20cff2ea-df40-43e9-9e60-e9c41ce0ec64","system_id":"levelo_inurba_marseille","lat":43.23157,"lon":5.43714,"is_reserved":false,"is_disabled":false,"rental_uris":{"android":"levelo://app?vid=20cff2ea-df40-43e9-9e60-e9c41ce0ec64","ios":"levelo://app?vid=20cff2ea-df40-43e9-9e60-e9c41ce0ec64"},"vehicle_type_id":"4","last_reported":1739380136,"current_range_meters":38800,"station_id":"ce4bhmp2rcd13ifvqgog","pricing_plan_id":"cebpf4jnsgd1na2vs0mg"},{"bike_id":"55fa0fd1-4793-4372-94cc-c9ee5bd4ca87","system_id":"levelo_inurba_marseille","lat":43.28659,"lon":5.38668,"is_reserved":false,"is_disabled":true,"rental_uris":{"android":"levelo://app?vid=55fa0fd1-4793-4372-94cc-c9ee5bd4ca87","ios":"levelo://app?vid=55fa0fd1-4793-4372-94cc-c9ee5bd4ca87"},"vehicle_type_id":"4","last_reported":1739380136,"current_range_meters":36400,"station_id":"ce4bh492rcd13ifvqdug","pricing_plan_id":"cebpf4jnsgd1na2vs0mg"},{"bike_id":"679b51a7-0864-4c79-a75b-8b937ab8b8fc","system_id":"levelo_inurba_marseille","lat":43.24552,"lon":5.39512,"is_reserved":false,"is_disabled":false,"rental_uris":{"android":"levelo://app?vid=679b51a7-0864-4c79-a75b-8b937ab8b8fc","ios":"levelo://app?vid=679b51a7-0864-4c79-a75b-8b937ab8b8fc"},"vehicle_type_id":"4","last_reported":1739380136,"current_range_meters":29600,"station_id":"ce4bhlp2rcd13ifvqgjg","pricing_plan_id":"cebpf4jnsgd1na2vs0mg"},{"bike_id":"d2090b16-1da9-4170-8973-962616ace04b","system_id":"levelo_inurba_marseille","lat":43.28449,"lon":5.39198,"is_reserved":false,"is_disabled":true,"rental_uris":{"android":"levelo://app?vid=d2090b16-1da9-4170-8973-962616ace04b","ios":"levelo://app?vid=d2090b16-1da9-4170-8973-962616ace04b"},"vehicle_type_id":"4","last_reported":1739380136,"current_range_meters":30400,"station_id":"ce4bhoh2rcd13ifvqh5g","pricing_plan_id":"cebpf4jnsgd1na2vs0mg"},{"bike_id":"6c956ae1-e540-4fc7-9455-5729ac7f892e","system_id":"levelo_inurba_marseille","lat":43.29849,"lon":5.36268,"is_reserved":false,"is_disabled":false,"rental_uris":{"android":"levelo://app?vid=6c956ae1-e540-4fc7-9455-5729ac7f892e","ios":"levelo://app?vid=6c956ae1-e540-4fc7-9455-5729ac7f892e"},"vehicle_type_id":"4","last_reported":1739380136,"current_range_meters":18000,"station_id":"ce4bgpp2rcd13ifvqc3g","pricing_plan_id":"cebpf4jnsgd1na2vs0mg"},{"bike_id":"3425a89b-f60c-4d0e-aca5-29bd2e04eccc","system_id":"levelo_inurba_marseille","lat":43.2894,"lon":5.36636,"is_reserved":false,"is_disabled":false,"rental_uris":{"android":"levelo://app?vid=3425a89b-f60c-4d0e-aca5-29bd2e04eccc","ios":"levelo://app?vid=3425a89b-f60c-4d0e-aca5-29bd2e04eccc"},"vehicle_type_id":"4","last_reported":1739380136,"current_range_meters":27600,"station_id":"ce4bhap2rcd13ifvqek0","pricing_plan_id":"cebpf4jnsgd1na2vs0mg"},{"bike_id":"4b674fed-a680-4df3-ab7b-271cc22686ae","system_id":"levelo_inurba_marseille","lat":43.30891,"lon":5.39633,"is_reserved":false,"is_disabled":false,"rental_uris":{"android":"levelo://app?vid=4b674fed-a680-4df3-ab7b-271cc22686ae","ios":"levelo://app?vid=4b674fed-a680-4df3-ab7b-271cc22686ae"},"vehicle_type_id":"4","last_reported":1739380136,"current_range_meters":39200,"station_id":"ce4bh012rcd13ifvqcv0","pricing_plan_id":"cebpf4jnsgd1na2vs0mg"},{"bike_id":"039012fd-f057-4cca-9ab2-da2b5fd956ee","system_id":"levelo_inurba_marseille","lat":43.26193,"lon":5.37927,"is_reserved":false,"is_disabled":false,"rental_uris":{"android":"levelo://app?vid=039012fd-f057-4cca-9ab2-da2b5fd956ee","ios":"levelo://app?vid=039012fd-f057-4cca-9ab2-da2b5fd956ee"},"vehicle_type_id":"4","last_reported":1739380136,"current_range_meters":28400,"station_id":"ce4bhjp2rcd13ifvqg90","pricing_plan_id":"cebpf4jnsgd1na2vs0mg"},{"bike_id":"b0e5466d-95f1-4a38-8b07-86ef53224ff0","system_id":"levelo_inurba_marseille","lat":43.29714,"lon":5.36594,"is_reserved":false,"is_disabled":false,"rental_uris":{"android":"levelo://app?vid=b0e5466d-95f1-4a38-8b07-86ef53224ff0","ios":"levelo://app?vid=b0e5466d-95f1-4a38-8b07-86ef53224ff0"},"vehicle_type_id":"4","last_reported":1739380136,"current_range_meters":38800,"station_id":"ce4bgn12rcd13ifvqbt0","pricing_plan_id":"cebpf4jnsgd1na2vs0mg"},{"bike_id":"704ec19d-e7c0-4858-a423-dcfa560220a5","system_id":"levelo_inurba_marseille","lat":43.23187,"lon":5.39979,"is_reserved":false,"is_disabled":false,"rental_uris":{"android":"levelo://app?vid=704ec19d-e7c0-4858-a423-dcfa560220a5","ios":"levelo://app?vid=704ec19d-e7c0-4858-a423-dcfa560220a5"},"vehicle_type_id":"4","last_reported":1739380136,"current_range_meters":38400,"station_id":"ce4bhn12rcd13ifvqgqg","pricing_plan_id":"cebpf4jnsgd1na2vs0mg"},{"bike_id":"4f877670-335e-4af4-b9b1-a4a035af0d3b","system_id":"levelo_inurba_marseille","lat":43.29364,"lon":5.37851,"is_reserved":false,"is_disabled":false,"rental_uris":{"android":"levelo://app?vid=4f877670-335e-4af4-b9b1-a4a035af0d3b","ios":"levelo://app?vid=4f877670-335e-4af4-b9b1-a4a035af0d3b"},"vehicle_type_id":"4","last_reported":1739380136,"current_range_meters":38800,"station_id":"ce4bgjh2rcd13ifvqbf0","pricing_plan_id":"cebpf4jnsgd1na2vs0mg"},{"bike_id":"561f8064-3ba5-4b22-bb03-aa59cc700d12","system_id":"levelo_inurba_marseille","lat":43.27506,"lon":5.42461,"is_reserved":false,"is_disabled":false,"rental_uris":{"android":"levelo://app?vid=561f8064-3ba5-4b22-bb03-aa59cc700d12","ios":"levelo://app?vid=561f8064-3ba5-4b22-bb03-aa59cc700d12"},"vehicle_type_id":"4","last_reported":1739380136,"current_range_meters":27600,"station_id":"ce4bhn92rcd13ifvqgrg","pricing_plan_id":"cebpf4jnsgd1na2vs0mg"},{"bike_id":"8b4a4374-0a26-44ca-8935-fa19a84369f6","system_id":"levelo_inurba_marseille","lat":43.30087,"lon":5.39086,"is_reserved":false,"is_disabled":false,"rental_uris":{"android":"levelo://app?vid=8b4a4374-0a26-44ca-8935-fa19a84369f6","ios":"levelo://app?vid=8b4a4374-0a26-44ca-8935-fa19a84369f6"},"vehicle_type_id":"4","last_reported":1739380136,"current_range_meters":32400,"station_id":"ce4bh192rcd13ifvqdb0","pricing_plan_id":"cebpf4jnsgd1na2vs0mg"},{"bike_id":"70247514-19c1-4958-92be-80cc15ce9132","system_id":"levelo_inurba_marseille","lat":43.27498,"lon":5.42459,"is_reserved":false,"is_disabled":false,"rental_uris":{"android":"levelo://app?vid=70247514-19c1-4958-92be-80cc15ce9132","ios":"levelo://app?vid=70247514-19c1-4958-92be-80cc15ce9132"},"vehicle_type_id":"4","last_reported":1739380136,"current_range_meters":4000,"station_id":"ce4bhn92rcd13ifvqgrg","pricing_plan_id":"cebpf4jnsgd1na2vs0mg"},{"bike_id":"53d074e7-ef32-444b-a708-d40d7d377b3a","system_id":"levelo_inurba_marseille","lat":43.29032,"lon":5.38638,"is_reserved":false,"is_disabled":false,"rental_uris":{"android":"levelo://app?vid=53d074e7-ef32-444b-a708-d40d7d377b3a","ios":"levelo://app?vid=53d074e7-ef32-444b-a708-d40d7d377b3a"},"vehicle_type_id":"4","last_reported":1739380136,"current_range_meters":34000,"station_id":"ce4bh4p2rcd13ifvqe0g","pricing_plan_id":"cebpf4jnsgd1na2vs0mg"},{"bike_id":"f61f0289-db11-4f78-af36-f70fd4404161","system_id":"levelo_inurba_marseille","lat":43.290051,"lon":5.356176,"is_reserved":false,"is_disabled":true,"rental_uris":{"android":"levelo://app?vid=f61f0289-db11-4f78-af36-f70fd4404161","ios":"levelo://app?vid=f61f0289-db11-4f78-af36-f70fd4404161"},"vehicle_type_id":"4","last_reported":1739380136,"current_range_meters":33600,"station_id":"","pricing_plan_id":"cebpf4jnsgd1na2vs0mg"},{"bike_id":"39a640ed-fd8c-4b56-84e0-fe67663afd2d","system_id":"levelo_inurba_marseille","lat":43.23148,"lon":5.43701,"is_reserved":false,"is_disabled":false,"rental_uris":{"android":"levelo://app?vid=39a640ed-fd8c-4b56-84e0-fe67663afd2d","ios":"levelo://app?vid=39a640ed-fd8c-4b56-84e0-fe67663afd2d"},"vehicle_type_id":"4","last_reported":1739380136,"current_range_meters":27600,"station_id":"ce4bhmp2rcd13ifvqgog","pricing_plan_id":"cebpf4jnsgd1na2vs0mg"},{"bike_id":"6aec77f5-f2c1-48e0-8577-ef7c6d6bdd70","system_id":"levelo_inurba_marseille","lat":43.31058,"lon":5.38348,"is_reserved":false,"is_disabled":false,"rental_uris":{"android":"levelo://app?vid=6aec77f5-f2c1-48e0-8577-ef7c6d6bdd70","ios":"levelo://app?vid=6aec77f5-f2c1-48e0-8577-ef7c6d6bdd70"},"vehicle_type_id":"4","last_reported":1739380136,"current_range_meters":30800,"station_id":"ce4bgv92rcd13ifvqcr0","pricing_plan_id":"cebpf4jnsgd1na2vs0mg"},{"bike_id":"bc235a4c-617d-46ba-8c7a-21502f4b2aaf","system_id":"levelo_inurba_marseille","lat":43.23183,"lon":5.39986,"is_reserved":false,"is_disabled":false,"rental_uris":{"android":"levelo://app?vid=bc235a4c-617d-46ba-8c7a-21502f4b2aaf","ios":"levelo://app?vid=bc235a4c-617d-46ba-8c7a-21502f4b2aaf"},"vehicle_type_id":"4","last_reported":1739380136,"current_range_meters":20000,"station_id":"ce4bhn12rcd13ifvqgqg","pricing_plan_id":"cebpf4jnsgd1na2vs0mg"},{"bike_id":"7e4baaff-43df-45ac-ba99-60d4ee3b5a14","system_id":"levelo_inurba_marseille","lat":43.32476,"lon":5.36577,"is_reserved":false,"is_disabled":false,"rental_uris":{"android":"levelo://app?vid=7e4baaff-43df-45ac-ba99-60d4ee3b5a14","ios":"levelo://app?vid=7e4baaff-43df-45ac-ba99-60d4ee3b5a14"},"vehicle_type_id":"4","last_reported":1739380136,"current_range_meters":38800,"station_id":"ce4bhs12rcd13ifvqhvg","pricing_plan_id":"cebpf4jnsgd1na2vs0mg"},{"bike_id":"26dcfba2-6a90-4d23-9ea4-8c31c704ca5b","system_id":"levelo_inurba_marseille","lat":43.25579,"lon":5.38258,"is_reserved":false,"is_disabled":false,"rental_uris":{"android":"levelo://app?vid=26dcfba2-6a90-4d23-9ea4-8c31c704ca5b","ios":"levelo://app?vid=26dcfba2-6a90-4d23-9ea4-8c31c704ca5b"},"vehicle_type_id":"4","last_reported":1739380136,"current_range_meters":30400,"station_id":"ce4bhih2rcd13ifvqfs0","pricing_plan_id":"cebpf4jnsgd1na2vs0mg"},{"bike_id":"26a99a1a-de11-4ca1-af61-d3da7d1f2ef5","system_id":"levelo_inurba_marseille","lat":43.28347,"lon":5.38101,"is_reserved":false,"is_disabled":false,"rental_uris":{"android":"levelo://app?vid=26a99a1a-de11-4ca1-af61-d3da7d1f2ef5","ios":"levelo://app?vid=26a99a1a-de11-4ca1-af61-d3da7d1f2ef5"},"vehicle_type_id":"4","last_reported":1739380136,"current_range_meters":5600,"station_id":"ce4bh412rcd13ifvqdr0","pricing_plan_id":"cebpf4jnsgd1na2vs0mg"},{"bike_id":"51ab7186-5043-4bed-baca-73708608a302","system_id":"levelo_inurba_marseille","lat":43.29584,"lon":5.37026,"is_reserved":false,"is_disabled":true,"rental_uris":{"android":"levelo://app?vid=51ab7186-5043-4bed-baca-73708608a302","ios":"levelo://app?vid=51ab7186-5043-4bed-baca-73708608a302"},"vehicle_type_id":"4","last_reported":1739380136,"current_range_meters":2000,"station_id":"","pricing_plan_id":"cebpf4jnsgd1na2vs0mg"},{"bike_id":"a8f7f836-2e72-4db9-900d-5d22b1f82ba5","system_id":"levelo_inurba_marseille","lat":43.29253,"lon":5.40907,"is_reserved":false,"is_disabled":false,"rental_uris":{"android":"levelo://app?vid=a8f7f836-2e72-4db9-900d-5d22b1f82ba5","ios":"levelo://app?vid=a8f7f836-2e72-4db9-900d-5d22b1f82ba5"},"vehicle_type_id":"4","last_reported":1739380136,"current_range_meters":38800,"station_id":"ce4bh192rcd13ifvqdc0","pricing_plan_id":"cebpf4jnsgd1na2vs0mg"},{"bike_id":"3a6545aa-16b6-4902-b0e8-66d739ac070d","system_id":"levelo_inurba_marseille","lat":43.2957,"lon":5.39973,"is_reserved":false,"is_disabled":true,"rental_uris":{"android":"levelo://app?vid=3a6545aa-16b6-4902-b0e8-66d739ac070d","ios":"levelo://app?vid=3a6545aa-16b6-4902-b0e8-66d739ac070d"},"vehicle_type_id":"4","last_reported":1739380136,"current_range_meters":800,"station_id":"ce4bh312rcd13ifvqdj0","pricing_plan_id":"cebpf4jnsgd1na2vs0mg"},{"bike_id":"4031ac63-bb81-4401-96d3-1a68bf7a6254","system_id":"levelo_inurba_marseille","lat":43.24163,"lon":5.36399,"is_reserved":false,"is_disabled":false,"rental_uris":{"android":"levelo://app?vid=4031ac63-bb81-4401-96d3-1a68bf7a6254","ios":"levelo://app?vid=4031ac63-bb81-4401-96d3-1a68bf7a6254"},"vehicle_type_id":"4","last_reported":1739380136,"current_range_meters":28400,"station_id":"cpo36qri1sfpv3e86is0","pricing_plan_id":"cebpf4jnsgd1na2vs0mg"},{"bike_id":"d2c8d9da-22b3-446c-8e95-c2968e05fdc3","system_id":"levelo_inurba_marseille","lat":43.23963,"lon":5.36635,"is_reserved":false,"is_disabled":false,"rental_uris":{"android":"levelo://app?vid=d2c8d9da-22b3-446c-8e95-c2968e05fdc3","ios":"levelo://app?vid=d2c8d9da-22b3-446c-8e95-c2968e05fdc3"},"vehicle_type_id":"4","last_reported":1739380136,"current_range_meters":6800,"station_id":"ce4bhi12rcd13ifvqfp0","pricing_plan_id":"cebpf4jnsgd1na2vs0mg"},{"bike_id":"ebec6bf1-46cc-4f64-b840-ef9fe16ce6ed","system_id":"levelo_inurba_marseille","lat":43.30432,"lon":5.38894,"is_reserved":false,"is_disabled":false,"rental_uris":{"android":"levelo://app?vid=ebec6bf1-46cc-4f64-b840-ef9fe16ce6ed","ios":"levelo://app?vid=ebec6bf1-46cc-4f64-b840-ef9fe16ce6ed"},"vehicle_type_id":"4","last_reported":1739380136,"current_range_meters":11200,"station_id":"ce4bgk12rcd13ifvqbi0","pricing_plan_id":"cebpf4jnsgd1na2vs0mg"},{"bike_id":"7db4720b-da43-439f-9cbc-ea8cfe12bdf5","system_id":"levelo_inurba_marseille","lat":43.28711,"lon":5.39999,"is_reserved":false,"is_disabled":false,"rental_uris":{"android":"levelo://app?vid=7db4720b-da43-439f-9cbc-ea8cfe12bdf5","ios":"levelo://app?vid=7db4720b-da43-439f-9cbc-ea8cfe12bdf5"},"vehicle_type_id":"4","last_reported":1739380136,"current_range_meters":27200,"station_id":"ce4bho92rcd13ifvqh3g","pricing_plan_id":"cebpf4jnsgd1na2vs0mg"},{"bike_id":"986e9aaa-b028-4315-bc27-bdb9f4adcbc1","system_id":"levelo_inurba_marseille","lat":43.32338,"lon":5.40628,"is_reserved":false,"is_disabled":false,"rental_uris":{"android":"levelo://app?vid=986e9aaa-b028-4315-bc27-bdb9f4adcbc1","ios":"levelo://app?vid=986e9aaa-b028-4315-bc27-bdb9f4adcbc1"},"vehicle_type_id":"4","last_reported":1739380136,"current_range_meters":18000,"station_id":"ce4bhq92rcd13ifvqhjg","pricing_plan_id":"cebpf4jnsgd1na2vs0mg"},{"bike_id":"de77abfa-6f74-40e9-8131-b7884eda37eb","system_id":"levelo_inurba_marseille","lat":43.29936,"lon":5.39419,"is_reserved":false,"is_disabled":false,"rental_uris":{"android":"levelo://app?vid=de77abfa-6f74-40e9-8131-b7884eda37eb","ios":"levelo://app?vid=de77abfa-6f74-40e9-8131-b7884eda37eb"},"vehicle_type_id":"4","last_reported":1739380136,"current_range_meters":25200,"station_id":"","pricing_plan_id":"cebpf4jnsgd1na2vs0mg"},{"bike_id":"89bcd4b0-0684-4df1-96cf-a1a882e61cab","system_id":"levelo_inurba_marseille","lat":43.24807,"lon":5.37458,"is_reserved":false,"is_disabled":false,"rental_uris":{"android":"levelo://app?vid=89bcd4b0-0684-4df1-96cf-a1a882e61cab","ios":"levelo://app?vid=89bcd4b0-0684-4df1-96cf-a1a882e61cab"},"vehicle_type_id":"4","last_reported":1739380136,"current_range_meters":20400,"station_id":"ce4bhgh2rcd13ifvqfb0","pricing_plan_id":"cebpf4jnsgd1na2vs0mg"},{"bike_id":"ee079ffa-4416-4a91-bc98-3bd665acea3b","system_id":"levelo_inurba_marseille","lat":43.33715,"lon":5.39178,"is_reserved":false,"is_disabled":false,"rental_uris":{"android":"levelo://app?vid=ee079ffa-4416-4a91-bc98-3bd665acea3b","ios":"levelo://app?vid=ee079ffa-4416-4a91-bc98-3bd665acea3b"},"vehicle_type_id":"4","last_reported":1739380136,"current_range_meters":38800,"station_id":"ce4bhr92rcd13ifvqhsg","pricing_plan_id":"cebpf4jnsgd1na2vs0mg"},{"bike_id":"1fa82dc6-47d4-4356-bbca-393bf4461726","system_id":"levelo_inurba_marseille","lat":43.23959,"lon":5.3664,"is_reserved":false,"is_disabled":false,"rental_uris":{"android":"levelo://app?vid=1fa82dc6-47d4-4356-bbca-393bf4461726","ios":"levelo://app?vid=1fa82dc6-47d4-4356-bbca-393bf4461726"},"vehicle_type_id":"4","last_reported":1739380136,"current_range_meters":12000,"station_id":"ce4bhi12rcd13ifvqfp0","pricing_plan_id":"cebpf4jnsgd1na2vs0mg"},{"bike_id":"2355c6e5-09c3-4950-a7a8-dbebf456e6b5","system_id":"levelo_inurba_marseille","lat":43.30796,"lon":5.36641,"is_reserved":false,"is_disabled":false,"rental_uris":{"android":"levelo://app?vid=2355c6e5-09c3-4950-a7a8-dbebf456e6b5","ios":"levelo://app?vid=2355c6e5-09c3-4950-a7a8-dbebf456e6b5"},"vehicle_type_id":"4","last_reported":1739380136,"current_range_meters":25600,"station_id":"","pricing_plan_id":"cebpf4jnsgd1na2vs0mg"},{"bike_id":"318e1601-aab1-400f-bd1d-01410eb09e88","system_id":"levelo_inurba_marseille","lat":43.28939,"lon":5.36644,"is_reserved":false,"is_disabled":false,"rental_uris":{"android":"levelo://app?vid=318e1601-aab1-400f-bd1d-01410eb09e88","ios":"levelo://app?vid=318e1601-aab1-400f-bd1d-01410eb09e88"},"vehicle_type_id":"4","last_reported":1739380136,"current_range_meters":38400,"station_id":"ce4bhap2rcd13ifvqek0","pricing_plan_id":"cebpf4jnsgd1na2vs0mg"},{"bike_id":"3adb6699-f719-4456-92ab-1968693e97fb","system_id":"levelo_inurba_marseille","lat":43.24173,"lon":5.36413,"is_reserved":false,"is_disabled":false,"rental_uris":{"android":"levelo://app?vid=3adb6699-f719-4456-92ab-1968693e97fb","ios":"levelo://app?vid=3adb6699-f719-4456-92ab-1968693e97fb"},"vehicle_type_id":"4","last_reported":1739380136,"current_range_meters":26800,"station_id":"cpo36qri1sfpv3e86is0","pricing_plan_id":"cebpf4jnsgd1na2vs0mg"},{"bike_id":"04e82eae-1243-4f87-97ae-c2b403027eb5","system_id":"levelo_inurba_marseille","lat":43.28166,"lon":5.42655,"is_reserved":false,"is_disabled":true,"rental_uris":{"android":"levelo://app?vid=04e82eae-1243-4f87-97ae-c2b403027eb5","ios":"levelo://app?vid=04e82eae-1243-4f87-97ae-c2b403027eb5"},"vehicle_type_id":"4","last_reported":1739380136,"current_range_meters":400,"station_id":"ce4bhnh2rcd13ifvqgug","pricing_plan_id":"cebpf4jnsgd1na2vs0mg"},{"bike_id":"8fafbe44-087d-4315-84c5-9b73a47bee29","system_id":"levelo_inurba_marseille","lat":43.28673,"lon":5.36356,"is_reserved":false,"is_disabled":false,"rental_uris":{"android":"levelo://app?vid=8fafbe44-087d-4315-84c5-9b73a47bee29","ios":"levelo://app?vid=8fafbe44-087d-4315-84c5-9b73a47bee29"},"vehicle_type_id":"4","last_reported":1739380136,"current_range_meters":38800,"station_id":"ce4bhah2rcd13ifvqej0","pricing_plan_id":"cebpf4jnsgd1na2vs0mg"},{"bike_id":"a43b8534-1f7d-4016-b81a-d6ab195d0275","system_id":"levelo_inurba_marseille","lat":43.28431,"lon":5.37516,"is_reserved":false,"is_disabled":false,"rental_uris":{"android":"levelo://app?vid=a43b8534-1f7d-4016-b81a-d6ab195d0275","ios":"levelo://app?vid=a43b8534-1f7d-4016-b81a-d6ab195d0275"},"vehicle_type_id":"4","last_reported":1739380136,"current_range_meters":27200,"station_id":"ce4bh412rcd13ifvqds0","pricing_plan_id":"cebpf4jnsgd1na2vs0mg"},{"bike_id":"149626b9-1ac5-4f2c-ad21-b13aaef1dba9","system_id":"levelo_inurba_marseille","lat":43.286016,"lon":5.370691,"is_reserved":false,"is_disabled":false,"rental_uris":{"android":"levelo://app?vid=149626b9-1ac5-4f2c-ad21-b13aaef1dba9","ios":"levelo://app?vid=149626b9-1ac5-4f2c-ad21-b13aaef1dba9"},"vehicle_type_id":"4","last_reported":1739380136,"current_range_meters":37600,"station_id":"ce4bht12rcd13ifvqi60","pricing_plan_id":"cebpf4jnsgd1na2vs0mg"},{"bike_id":"de5a77db-8e65-4f0c-8fc5-691971b52a7d","system_id":"levelo_inurba_marseille","lat":43.29628,"lon":5.37144,"is_reserved":false,"is_disabled":false,"rental_uris":{"android":"levelo://app?vid=de5a77db-8e65-4f0c-8fc5-691971b52a7d","ios":"levelo://app?vid=de5a77db-8e65-4f0c-8fc5-691971b52a7d"},"vehicle_type_id":"4","last_reported":1739380136,"current_range_meters":38400,"station_id":"ce4bgnh2rcd13ifvqc0g","pricing_plan_id":"cebpf4jnsgd1na2vs0mg"},{"bike_id":"2f65c8b4-7684-4e34-958e-8182580b6eff","system_id":"levelo_inurba_marseille","lat":43.29362,"lon":5.37854,"is_reserved":false,"is_disabled":false,"rental_uris":{"android":"levelo://app?vid=2f65c8b4-7684-4e34-958e-8182580b6eff","ios":"levelo://app?vid=2f65c8b4-7684-4e34-958e-8182580b6eff"},"vehicle_type_id":"4","last_reported":1739380136,"current_range_meters":30000,"station_id":"ce4bgjh2rcd13ifvqbf0","pricing_plan_id":"cebpf4jnsgd1na2vs0mg"},{"bike_id":"d674d394-04ab-4838-a267-bcdd8affd803","system_id":"levelo_inurba_marseille","lat":43.30802,"lon":5.43523,"is_reserved":false,"is_disabled":false,"rental_uris":{"android":"levelo://app?vid=d674d394-04ab-4838-a267-bcdd8affd803","ios":"levelo://app?vid=d674d394-04ab-4838-a267-bcdd8affd803"},"vehicle_type_id":"4","last_reported":1739380136,"current_range_meters":35600,"station_id":"ce4bhph2rcd13ifvqheg","pricing_plan_id":"cebpf4jnsgd1na2vs0mg"},{"bike_id":"0da3685c-d75a-4b9d-a4f1-3c78c2bbfa4c","system_id":"levelo_inurba_marseille","lat":43.29415,"lon":5.38623,"is_reserved":false,"is_disabled":false,"rental_uris":{"android":"levelo://app?vid=0da3685c-d75a-4b9d-a4f1-3c78c2bbfa4c","ios":"levelo://app?vid=0da3685c-d75a-4b9d-a4f1-3c78c2bbfa4c"},"vehicle_type_id":"4","last_reported":1739380136,"current_range_meters":6800,"station_id":"ce4bh2h2rcd13ifvqdh0","pricing_plan_id":"cebpf4jnsgd1na2vs0mg"},{"bike_id":"830e40a6-3b7f-4341-8c43-ec1acace922a","system_id":"levelo_inurba_marseille","lat":43.30531,"lon":5.36545,"is_reserved":false,"is_disabled":false,"rental_uris":{"android":"levelo://app?vid=830e40a6-3b7f-4341-8c43-ec1acace922a","ios":"levelo://app?vid=830e40a6-3b7f-4341-8c43-ec1acace922a"},"vehicle_type_id":"4","last_reported":1739380136,"current_range_meters":32000,"station_id":"ce4bgs12rcd13ifvqcag","pricing_plan_id":"cebpf4jnsgd1na2vs0mg"},{"bike_id":"c07ffd3b-1b45-4f4f-af96-2b31373f9d65","system_id":"levelo_inurba_marseille","lat":43.24164,"lon":5.364031,"is_reserved":false,"is_disabled":false,"rental_uris":{"android":"levelo://app?vid=c07ffd3b-1b45-4f4f-af96-2b31373f9d65","ios":"levelo://app?vid=c07ffd3b-1b45-4f4f-af96-2b31373f9d65"},"vehicle_type_id":"4","last_reported":1739380136,"current_range_meters":27200,"station_id":"cpo36qri1sfpv3e86is0","pricing_plan_id":"cebpf4jnsgd1na2vs0mg"},{"bike_id":"76ed4e97-7fa9-4836-bcd3-e52753ef31b4","system_id":"levelo_inurba_marseille","lat":43.298458,"lon":5.362743,"is_reserved":false,"is_disabled":false,"rental_uris":{"android":"levelo://app?vid=76ed4e97-7fa9-4836-bcd3-e52753ef31b4","ios":"levelo://app?vid=76ed4e97-7fa9-4836-bcd3-e52753ef31b4"},"vehicle_type_id":"4","last_reported":1739380136,"current_range_meters":38000,"station_id":"ce4bgpp2rcd13ifvqc3g","pricing_plan_id":"cebpf4jnsgd1na2vs0mg"},{"bike_id":"b5a6f0e1-f078-43fa-892f-157b9a1f7a24","system_id":"levelo_inurba_marseille","lat":43.31222,"lon":5.36854,"is_reserved":false,"is_disabled":false,"rental_uris":{"android":"levelo://app?vid=b5a6f0e1-f078-43fa-892f-157b9a1f7a24","ios":"levelo://app?vid=b5a6f0e1-f078-43fa-892f-157b9a1f7a24"},"vehicle_type_id":"4","last_reported":1739380136,"current_range_meters":3600,"station_id":"ce4bgl92rcd13ifvqbq0","pricing_plan_id":"cebpf4jnsgd1na2vs0mg"},{"bike_id":"d32849cf-4c14-4032-9063-172d06d3f04f","system_id":"levelo_inurba_marseille","lat":43.23192,"lon":5.35559,"is_reserved":false,"is_disabled":false,"rental_uris":{"android":"levelo://app?vid=d32849cf-4c14-4032-9063-172d06d3f04f","ios":"levelo://app?vid=d32849cf-4c14-4032-9063-172d06d3f04f"},"vehicle_type_id":"4","last_reported":1739380136,"current_range_meters":30400,"station_id":"ce4bhu92rcd13ifvqi70","pricing_plan_id":"cebpf4jnsgd1na2vs0mg"},{"bike_id":"2ff86c0c-69fd-4294-8842-114f3593748f","system_id":"levelo_inurba_marseille","lat":43.31439,"lon":5.36759,"is_reserved":false,"is_disabled":false,"rental_uris":{"android":"levelo://app?vid=2ff86c0c-69fd-4294-8842-114f3593748f","ios":"levelo://app?vid=2ff86c0c-69fd-4294-8842-114f3593748f"},"vehicle_type_id":"4","last_reported":1739380136,"current_range_meters":36400,"station_id":"","pricing_plan_id":"cebpf4jnsgd1na2vs0mg"},{"bike_id":"ffdf1b46-a159-43fd-a932-d9697166c62a","system_id":"levelo_inurba_marseille","lat":43.29688,"lon":5.37292,"is_reserved":false,"is_disabled":false,"rental_uris":{"android":"levelo://app?vid=ffdf1b46-a159-43fd-a932-d9697166c62a","ios":"levelo://app?vid=ffdf1b46-a159-43fd-a932-d9697166c62a"},"vehicle_type_id":"4","last_reported":1739380136,"current_range_meters":38800,"station_id":"ce4bgk12rcd13ifvqbj0","pricing_plan_id":"cebpf4jnsgd1na2vs0mg"},{"bike_id":"4779b76e-9fa5-461b-b64a-4d0fe7663408","system_id":"levelo_inurba_marseille","lat":43.30591,"lon":5.36516,"is_reserved":false,"is_disabled":false,"rental_uris":{"android":"levelo://app?vid=4779b76e-9fa5-461b-b64a-4d0fe7663408","ios":"levelo://app?vid=4779b76e-9fa5-461b-b64a-4d0fe7663408"},"vehicle_type_id":"4","last_reported":1739380136,"current_range_meters":38800,"station_id":"ce4bgs12rcd13ifvqcag","pricing_plan_id":"cebpf4jnsgd1na2vs0mg"},{"bike_id":"536366d2-282b-48e8-9268-35b7ee369088","system_id":"levelo_inurba_marseille","lat":43.24997,"lon":5.38938,"is_reserved":false,"is_disabled":false,"rental_uris":{"android":"levelo://app?vid=536366d2-282b-48e8-9268-35b7ee369088","ios":"levelo://app?vid=536366d2-282b-48e8-9268-35b7ee369088"},"vehicle_type_id":"4","last_reported":1739380136,"current_range_meters":29600,"station_id":"ce4bhgp2rcd13ifvqfd0","pricing_plan_id":"cebpf4jnsgd1na2vs0mg"},{"bike_id":"f05500cc-3591-41f4-9ac0-a81f352d9e57","system_id":"levelo_inurba_marseille","lat":43.31072,"lon":5.38365,"is_reserved":false,"is_disabled":false,"rental_uris":{"android":"levelo://app?vid=f05500cc-3591-41f4-9ac0-a81f352d9e57","ios":"levelo://app?vid=f05500cc-3591-41f4-9ac0-a81f352d9e57"},"vehicle_type_id":"4","last_reported":1739380136,"current_range_meters":8000,"station_id":"ce4bgv92rcd13ifvqcr0","pricing_plan_id":"cebpf4jnsgd1na2vs0mg"},{"bike_id":"b7cfafc0-fba3-47fa-8c3d-d96c6bee1f7a","system_id":"levelo_inurba_marseille","lat":43.24307,"lon":5.37154,"is_reserved":false,"is_disabled":false,"rental_uris":{"android":"levelo://app?vid=b7cfafc0-fba3-47fa-8c3d-d96c6bee1f7a","ios":"levelo://app?vid=b7cfafc0-fba3-47fa-8c3d-d96c6bee1f7a"},"vehicle_type_id":"4","last_reported":1739380136,"current_range_meters":29600,"station_id":"ce4bhhh2rcd13ifvqfk0","pricing_plan_id":"cebpf4jnsgd1na2vs0mg"},{"bike_id":"9ba133ba-7b58-4607-8737-7fb5bce66e58","system_id":"levelo_inurba_marseille","lat":43.24372,"lon":5.37068,"is_reserved":false,"is_disabled":false,"rental_uris":{"android":"levelo://app?vid=9ba133ba-7b58-4607-8737-7fb5bce66e58","ios":"levelo://app?vid=9ba133ba-7b58-4607-8737-7fb5bce66e58"},"vehicle_type_id":"4","last_reported":1739380136,"current_range_meters":38800,"station_id":"ce4bhhh2rcd13ifvqfk0","pricing_plan_id":"cebpf4jnsgd1na2vs0mg"},{"bike_id":"24d2a29b-fa24-4c85-a726-541b11d56bc0","system_id":"levelo_inurba_marseille","lat":43.31368,"lon":5.36708,"is_reserved":false,"is_disabled":false,"rental_uris":{"android":"levelo://app?vid=24d2a29b-fa24-4c85-a726-541b11d56bc0","ios":"levelo://app?vid=24d2a29b-fa24-4c85-a726-541b11d56bc0"},"vehicle_type_id":"4","last_reported":1739380136,"current_range_meters":12800,"station_id":"ce4bgr92rcd13ifvqc6g","pricing_plan_id":"cebpf4jnsgd1na2vs0mg"},{"bike_id":"5bf69de9-02e3-485f-85fd-9d0f34be06e0","system_id":"levelo_inurba_marseille","lat":43.29883,"lon":5.38907,"is_reserved":false,"is_disabled":false,"rental_uris":{"android":"levelo://app?vid=5bf69de9-02e3-485f-85fd-9d0f34be06e0","ios":"levelo://app?vid=5bf69de9-02e3-485f-85fd-9d0f34be06e0"},"vehicle_type_id":"4","last_reported":1739380136,"current_range_meters":28400,"station_id":"ce4bh392rcd13ifvqdl0","pricing_plan_id":"cebpf4jnsgd1na2vs0mg"},{"bike_id":"14b2070b-6ddc-42e3-b1e8-9c0cbc081f72","system_id":"levelo_inurba_marseille","lat":43.33716,"lon":5.39187,"is_reserved":false,"is_disabled":false,"rental_uris":{"android":"levelo://app?vid=14b2070b-6ddc-42e3-b1e8-9c0cbc081f72","ios":"levelo://app?vid=14b2070b-6ddc-42e3-b1e8-9c0cbc081f72"},"vehicle_type_id":"4","last_reported":1739380136,"current_range_meters":38800,"station_id":"ce4bhr92rcd13ifvqhsg","pricing_plan_id":"cebpf4jnsgd1na2vs0mg"},{"bike_id":"59ab5d4d-5a69-4471-9c9b-88a2a9318e3b","system_id":"levelo_inurba_marseille","lat":43.28572,"lon":5.39493,"is_reserved":false,"is_disabled":false,"rental_uris":{"android":"levelo://app?vid=59ab5d4d-5a69-4471-9c9b-88a2a9318e3b","ios":"levelo://app?vid=59ab5d4d-5a69-4471-9c9b-88a2a9318e3b"},"vehicle_type_id":"4","last_reported":1739380136,"current_range_meters":37600,"station_id":"ce4bh292rcd13ifvqdg0","pricing_plan_id":"cebpf4jnsgd1na2vs0mg"},{"bike_id":"1c3c5356-feb2-4139-a8f5-3ebd188579ce","system_id":"levelo_inurba_marseille","lat":43.30333,"lon":5.40462,"is_reserved":false,"is_disabled":true,"rental_uris":{"android":"levelo://app?vid=1c3c5356-feb2-4139-a8f5-3ebd188579ce","ios":"levelo://app?vid=1c3c5356-feb2-4139-a8f5-3ebd188579ce"},"vehicle_type_id":"4","last_reported":1739380136,"current_range_meters":0,"station_id":"ce4bh012rcd13ifvqd10","pricing_plan_id":"cebpf4jnsgd1na2vs0mg"},{"bike_id":"90069231-8d02-46fd-ba3f-d8e7e83900ee","system_id":"levelo_inurba_marseille","lat":43.28834,"lon":5.43805,"is_reserved":false,"is_disabled":true,"rental_uris":{"android":"levelo://app?vid=90069231-8d02-46fd-ba3f-d8e7e83900ee","ios":"levelo://app?vid=90069231-8d02-46fd-ba3f-d8e7e83900ee"},"vehicle_type_id":"4","last_reported":1739380136,"current_range_meters":0,"station_id":"","pricing_plan_id":"cebpf4jnsgd1na2vs0mg"},{"bike_id":"4ab2a562-dacc-4788-b8ce-a1edff268353","system_id":"levelo_inurba_marseille","lat":43.33605,"lon":5.4103,"is_reserved":false,"is_disabled":false,"rental_uris":{"android":"levelo://app?vid=4ab2a562-dacc-4788-b8ce-a1edff268353","ios":"levelo://app?vid=4ab2a562-dacc-4788-b8ce-a1edff268353"},"vehicle_type_id":"4","last_reported":1739380136,"current_range_meters":24000,"station_id":"ce4bhqh2rcd13ifvqhmg","pricing_plan_id":"cebpf4jnsgd1na2vs0mg"},{"bike_id":"1a122a98-455f-409c-add3-e0c66f128442","system_id":"levelo_inurba_marseille","lat":43.267802,"lon":5.394137,"is_reserved":false,"is_disabled":false,"rental_uris":{"android":"levelo://app?vid=1a122a98-455f-409c-add3-e0c66f128442","ios":"levelo://app?vid=1a122a98-455f-409c-add3-e0c66f128442"},"vehicle_type_id":"4","last_reported":1739380136,"current_range_meters":16800,"station_id":"ce4bhjp2rcd13ifvqg90","pricing_plan_id":"cebpf4jnsgd1na2vs0mg"},{"bike_id":"8f3ee2ba-975c-49dc-a909-5ca8e018510c","system_id":"levelo_inurba_marseille","lat":43.28614,"lon":5.3511,"is_reserved":false,"is_disabled":false,"rental_uris":{"android":"levelo://app?vid=8f3ee2ba-975c-49dc-a909-5ca8e018510c","ios":"levelo://app?vid=8f3ee2ba-975c-49dc-a909-5ca8e018510c"},"vehicle_type_id":"4","last_reported":1739380136,"current_range_meters":10800,"station_id":"ce4bhch2rcd13ifvqeug","pricing_plan_id":"cebpf4jnsgd1na2vs0mg"},{"bike_id":"c6db21d7-d9e3-4a71-aaf3-94276ad01457","system_id":"levelo_inurba_marseille","lat":43.32918,"lon":5.36041,"is_reserved":false,"is_disabled":false,"rental_uris":{"android":"levelo://app?vid=c6db21d7-d9e3-4a71-aaf3-94276ad01457","ios":"levelo://app?vid=c6db21d7-d9e3-4a71-aaf3-94276ad01457"},"vehicle_type_id":"4","last_reported":1739380136,"current_range_meters":36400,"station_id":"","pricing_plan_id":"cebpf4jnsgd1na2vs0mg"},{"bike_id":"acd088e7-dc82-4cb8-8e19-47754c61567c","system_id":"levelo_inurba_marseille","lat":43.31373,"lon":5.3673,"is_reserved":false,"is_disabled":false,"rental_uris":{"android":"levelo://app?vid=acd088e7-dc82-4cb8-8e19-47754c61567c","ios":"levelo://app?vid=acd088e7-dc82-4cb8-8e19-47754c61567c"},"vehicle_type_id":"4","last_reported":1739380136,"current_range_meters":33200,"station_id":"ce4bgr92rcd13ifvqc6g","pricing_plan_id":"cebpf4jnsgd1na2vs0mg"},{"bike_id":"37fee8de-7920-4095-90fd-dbb82aabca95","system_id":"levelo_inurba_marseille","lat":43.31386,"lon":5.36766,"is_reserved":false,"is_disabled":false,"rental_uris":{"android":"levelo://app?vid=37fee8de-7920-4095-90fd-dbb82aabca95","ios":"levelo://app?vid=37fee8de-7920-4095-90fd-dbb82aabca95"},"vehicle_type_id":"4","last_reported":1739380136,"current_range_meters":27600,"station_id":"","pricing_plan_id":"cebpf4jnsgd1na2vs0mg"},{"bike_id":"201b14f4-65c7-45ff-8010-fe136e6675ac","system_id":"levelo_inurba_marseille","lat":43.24183,"lon":5.39732,"is_reserved":false,"is_disabled":false,"rental_uris":{"android":"levelo://app?vid=201b14f4-65c7-45ff-8010-fe136e6675ac","ios":"levelo://app?vid=201b14f4-65c7-45ff-8010-fe136e6675ac"},"vehicle_type_id":"4","last_reported":1739380136,"current_range_meters":19600,"station_id":"ce4bhn12rcd13ifvqgpg","pricing_plan_id":"cebpf4jnsgd1na2vs0mg"},{"bike_id":"8774d9e4-500f-40ae-b9af-839af7c722be","system_id":"levelo_inurba_marseille","lat":43.29703,"lon":5.37705,"is_reserved":false,"is_disabled":false,"rental_uris":{"android":"levelo://app?vid=8774d9e4-500f-40ae-b9af-839af7c722be","ios":"levelo://app?vid=8774d9e4-500f-40ae-b9af-839af7c722be"},"vehicle_type_id":"4","last_reported":1739380136,"current_range_meters":38800,"station_id":"ce4bgkh2rcd13ifvqbl0","pricing_plan_id":"cebpf4jnsgd1na2vs0mg"},{"bike_id":"6e7d3d9b-4a1e-44cb-a74d-08fc3df39ea4","system_id":"levelo_inurba_marseille","lat":43.25709,"lon":5.411,"is_reserved":false,"is_disabled":false,"rental_uris":{"android":"levelo://app?vid=6e7d3d9b-4a1e-44cb-a74d-08fc3df39ea4","ios":"levelo://app?vid=6e7d3d9b-4a1e-44cb-a74d-08fc3df39ea4"},"vehicle_type_id":"4","last_reported":1739380136,"current_range_meters":22800,"station_id":"ce4bhkp2rcd13ifvqgd0","pricing_plan_id":"cebpf4jnsgd1na2vs0mg"},{"bike_id":"bc06afc1-fcb4-45c1-92d7-559953a7ccd1","system_id":"levelo_inurba_marseille","lat":43.29981,"lon":5.38496,"is_reserved":false,"is_disabled":false,"rental_uris":{"android":"levelo://app?vid=bc06afc1-fcb4-45c1-92d7-559953a7ccd1","ios":"levelo://app?vid=bc06afc1-fcb4-45c1-92d7-559953a7ccd1"},"vehicle_type_id":"4","last_reported":1739380136,"current_range_meters":38800,"station_id":"ce4bgj92rcd13ifvqbd0","pricing_plan_id":"cebpf4jnsgd1na2vs0mg"},{"bike_id":"0a77f424-9d7d-4010-bd33-1687a2ffd57e","system_id":"levelo_inurba_marseille","lat":43.24806,"lon":5.37457,"is_reserved":false,"is_disabled":false,"rental_uris":{"android":"levelo://app?vid=0a77f424-9d7d-4010-bd33-1687a2ffd57e","ios":"levelo://app?vid=0a77f424-9d7d-4010-bd33-1687a2ffd57e"},"vehicle_type_id":"4","last_reported":1739380136,"current_range_meters":9200,"station_id":"ce4bhgh2rcd13ifvqfb0","pricing_plan_id":"cebpf4jnsgd1na2vs0mg"},{"bike_id":"7ceeb2e5-8673-48b0-9f08-9e1430bd1bc6","system_id":"levelo_inurba_marseille","lat":43.28436,"lon":5.38482,"is_reserved":false,"is_disabled":false,"rental_uris":{"android":"levelo://app?vid=7ceeb2e5-8673-48b0-9f08-9e1430bd1bc6","ios":"levelo://app?vid=7ceeb2e5-8673-48b0-9f08-9e1430bd1bc6"},"vehicle_type_id":"4","last_reported":1739380136,"current_range_meters":38400,"station_id":"","pricing_plan_id":"cebpf4jnsgd1na2vs0mg"},{"bike_id":"c2250f20-2283-4e17-b7ce-382f2f740aa1","system_id":"levelo_inurba_marseille","lat":43.2481,"lon":5.37457,"is_reserved":false,"is_disabled":false,"rental_uris":{"android":"levelo://app?vid=c2250f20-2283-4e17-b7ce-382f2f740aa1","ios":"levelo://app?vid=c2250f20-2283-4e17-b7ce-382f2f740aa1"},"vehicle_type_id":"4","last_reported":1739380136,"current_range_meters":38800,"station_id":"ce4bhgh2rcd13ifvqfb0","pricing_plan_id":"cebpf4jnsgd1na2vs0mg"},{"bike_id":"0199fbd8-d59d-42ac-a445-d05a8f60ab5d","system_id":"levelo_inurba_marseille","lat":43.2483,"lon":5.37472,"is_reserved":false,"is_disabled":false,"rental_uris":{"android":"levelo://app?vid=0199fbd8-d59d-42ac-a445-d05a8f60ab5d","ios":"levelo://app?vid=0199fbd8-d59d-42ac-a445-d05a8f60ab5d"},"vehicle_type_id":"4","last_reported":1739380136,"current_range_meters":32800,"station_id":"ce4bhgh2rcd13ifvqfb0","pricing_plan_id":"cebpf4jnsgd1na2vs0mg"},{"bike_id":"a8caa982-915d-4f77-9d10-0206b186a19d","system_id":"levelo_inurba_marseille","lat":43.28852,"lon":5.35871,"is_reserved":false,"is_disabled":false,"rental_uris":{"android":"levelo://app?vid=a8caa982-915d-4f77-9d10-0206b186a19d","ios":"levelo://app?vid=a8caa982-915d-4f77-9d10-0206b186a19d"},"vehicle_type_id":"4","last_reported":1739380136,"current_range_meters":36400,"station_id":"ce4bhb12rcd13ifvqem0","pricing_plan_id":"cebpf4jnsgd1na2vs0mg"},{"bike_id":"4f81ca12-5310-461a-b2d0-fb034bbb6324","system_id":"levelo_inurba_marseille","lat":43.30243,"lon":5.40062,"is_reserved":false,"is_disabled":false,"rental_uris":{"android":"levelo://app?vid=4f81ca12-5310-461a-b2d0-fb034bbb6324","ios":"levelo://app?vid=4f81ca12-5310-461a-b2d0-fb034bbb6324"},"vehicle_type_id":"4","last_reported":1739380136,"current_range_meters":32400,"station_id":"ce4bgvh2rcd13ifvqcs0","pricing_plan_id":"cebpf4jnsgd1na2vs0mg"},{"bike_id":"21082117-6dfd-4afa-a6d7-59526844d369","system_id":"levelo_inurba_marseille","lat":43.29031,"lon":5.35932,"is_reserved":false,"is_disabled":false,"rental_uris":{"android":"levelo://app?vid=21082117-6dfd-4afa-a6d7-59526844d369","ios":"levelo://app?vid=21082117-6dfd-4afa-a6d7-59526844d369"},"vehicle_type_id":"4","last_reported":1739380136,"current_range_meters":30800,"station_id":"ce4bha92rcd13ifvqeg0","pricing_plan_id":"cebpf4jnsgd1na2vs0mg"},{"bike_id":"c6ab2079-aa0d-4c6d-8608-a1cea0571a2d","system_id":"levelo_inurba_marseille","lat":43.32672,"lon":5.43111,"is_reserved":false,"is_disabled":true,"rental_uris":{"android":"levelo://app?vid=c6ab2079-aa0d-4c6d-8608-a1cea0571a2d","ios":"levelo://app?vid=c6ab2079-aa0d-4c6d-8608-a1cea0571a2d"},"vehicle_type_id":"4","last_reported":1739380136,"current_range_meters":0,"station_id":"","pricing_plan_id":"cebpf4jnsgd1na2vs0mg"},{"bike_id":"bc52c392-0082-44bc-956a-54c57503fe50","system_id":"levelo_inurba_marseille","lat":43.3053,"lon":5.36545,"is_reserved":false,"is_disabled":false,"rental_uris":{"android":"levelo://app?vid=bc52c392-0082-44bc-956a-54c57503fe50","ios":"levelo://app?vid=bc52c392-0082-44bc-956a-54c57503fe50"},"vehicle_type_id":"4","last_reported":1739380136,"current_range_meters":38800,"station_id":"ce4bgs12rcd13ifvqcag","pricing_plan_id":"cebpf4jnsgd1na2vs0mg"},{"bike_id":"30b76049-e41b-4adb-862f-755fe2524e05","system_id":"levelo_inurba_marseille","lat":43.288513,"lon":5.393247,"is_reserved":false,"is_disabled":true,"rental_uris":{"android":"levelo://app?vid=30b76049-e41b-4adb-862f-755fe2524e05","ios":"levelo://app?vid=30b76049-e41b-4adb-862f-755fe2524e05"},"vehicle_type_id":"4","last_reported":1739380136,"current_range_meters":35600,"station_id":"","pricing_plan_id":"cebpf4jnsgd1na2vs0mg"},{"bike_id":"c8cada38-be52-4720-ac5a-9f4c125bad0b","system_id":"levelo_inurba_marseille","lat":43.28355,"lon":5.38118,"is_reserved":false,"is_disabled":false,"rental_uris":{"android":"levelo://app?vid=c8cada38-be52-4720-ac5a-9f4c125bad0b","ios":"levelo://app?vid=c8cada38-be52-4720-ac5a-9f4c125bad0b"},"vehicle_type_id":"4","last_reported":1739380136,"current_range_meters":24400,"station_id":"ce4bh412rcd13ifvqdr0","pricing_plan_id":"cebpf4jnsgd1na2vs0mg"},{"bike_id":"084550d1-0260-4e97-97a5-5804dceb22a6","system_id":"levelo_inurba_marseille","lat":43.30853,"lon":5.39601,"is_reserved":false,"is_disabled":false,"rental_uris":{"android":"levelo://app?vid=084550d1-0260-4e97-97a5-5804dceb22a6","ios":"levelo://app?vid=084550d1-0260-4e97-97a5-5804dceb22a6"},"vehicle_type_id":"4","last_reported":1739380136,"current_range_meters":38400,"station_id":"ce4bh012rcd13ifvqcv0","pricing_plan_id":"cebpf4jnsgd1na2vs0mg"},{"bike_id":"ebaf1afe-6793-4830-8b43-689bbe41f293","system_id":"levelo_inurba_marseille","lat":43.30432,"lon":5.38896,"is_reserved":false,"is_disabled":false,"rental_uris":{"android":"levelo://app?vid=ebaf1afe-6793-4830-8b43-689bbe41f293","ios":"levelo://app?vid=ebaf1afe-6793-4830-8b43-689bbe41f293"},"vehicle_type_id":"4","last_reported":1739380136,"current_range_meters":24800,"station_id":"ce4bgk12rcd13ifvqbi0","pricing_plan_id":"cebpf4jnsgd1na2vs0mg"},{"bike_id":"2c7e9a1a-f41b-4230-ad31-fa1174cac54e","system_id":"levelo_inurba_marseille","lat":43.32283,"lon":5.39047,"is_reserved":false,"is_disabled":false,"rental_uris":{"android":"levelo://app?vid=2c7e9a1a-f41b-4230-ad31-fa1174cac54e","ios":"levelo://app?vid=2c7e9a1a-f41b-4230-ad31-fa1174cac54e"},"vehicle_type_id":"4","last_reported":1739380136,"current_range_meters":14000,"station_id":"","pricing_plan_id":"cebpf4jnsgd1na2vs0mg"},{"bike_id":"fdc377ce-1748-4752-9f9e-707f9aa2a88d","system_id":"levelo_inurba_marseille","lat":43.29377,"lon":5.37856,"is_reserved":false,"is_disabled":false,"rental_uris":{"android":"levelo://app?vid=fdc377ce-1748-4752-9f9e-707f9aa2a88d","ios":"levelo://app?vid=fdc377ce-1748-4752-9f9e-707f9aa2a88d"},"vehicle_type_id":"4","last_reported":1739380136,"current_range_meters":11600,"station_id":"ce4bgjh2rcd13ifvqbf0","pricing_plan_id":"cebpf4jnsgd1na2vs0mg"},{"bike_id":"f9f30f0b-1a80-4d54-bb89-d92dcc515c4e","system_id":"levelo_inurba_marseille","lat":43.26939,"lon":5.38912,"is_reserved":false,"is_disabled":false,"rental_uris":{"android":"levelo://app?vid=f9f30f0b-1a80-4d54-bb89-d92dcc515c4e","ios":"levelo://app?vid=f9f30f0b-1a80-4d54-bb89-d92dcc515c4e"},"vehicle_type_id":"4","last_reported":1739380136,"current_range_meters":39200,"station_id":"ce4bhhh2rcd13ifvqfl0","pricing_plan_id":"cebpf4jnsgd1na2vs0mg"},{"bike_id":"56601044-7ee0-45ff-bd13-f686208b330f","system_id":"levelo_inurba_marseille","lat":43.29532,"lon":5.38535,"is_reserved":false,"is_disabled":false,"rental_uris":{"android":"levelo://app?vid=56601044-7ee0-45ff-bd13-f686208b330f","ios":"levelo://app?vid=56601044-7ee0-45ff-bd13-f686208b330f"},"vehicle_type_id":"4","last_reported":1739380136,"current_range_meters":24800,"station_id":"ce4bgih2rcd13ifvqba0","pricing_plan_id":"cebpf4jnsgd1na2vs0mg"},{"bike_id":"55780c50-6a84-4e88-bef1-f348e4c19a48","system_id":"levelo_inurba_marseille","lat":43.311791,"lon":5.387203,"is_reserved":false,"is_disabled":true,"rental_uris":{"android":"levelo://app?vid=55780c50-6a84-4e88-bef1-f348e4c19a48","ios":"levelo://app?vid=55780c50-6a84-4e88-bef1-f348e4c19a48"},"vehicle_type_id":"4","last_reported":1739380136,"current_range_meters":37600,"station_id":"ce4bgv12rcd13ifvqcp0","pricing_plan_id":"cebpf4jnsgd1na2vs0mg"},{"bike_id":"e2795b95-7fa2-4abe-8ee0-5ed1271dba7b","system_id":"levelo_inurba_marseille","lat":43.29849,"lon":5.36291,"is_reserved":false,"is_disabled":false,"rental_uris":{"android":"levelo://app?vid=e2795b95-7fa2-4abe-8ee0-5ed1271dba7b","ios":"levelo://app?vid=e2795b95-7fa2-4abe-8ee0-5ed1271dba7b"},"vehicle_type_id":"4","last_reported":1739380136,"current_range_meters":28400,"station_id":"ce4bgpp2rcd13ifvqc3g","pricing_plan_id":"cebpf4jnsgd1na2vs0mg"},{"bike_id":"b1b93a49-25bc-4589-b584-866c5f20cedd","system_id":"levelo_inurba_marseille","lat":43.316213,"lon":5.376655,"is_reserved":false,"is_disabled":false,"rental_uris":{"android":"levelo://app?vid=b1b93a49-25bc-4589-b584-866c5f20cedd","ios":"levelo://app?vid=b1b93a49-25bc-4589-b584-866c5f20cedd"},"vehicle_type_id":"4","last_reported":1739380136,"current_range_meters":7200,"station_id":"","pricing_plan_id":"cebpf4jnsgd1na2vs0mg"},{"bike_id":"91ba4c15-6a28-4a77-8127-1d907ef896d4","system_id":"levelo_inurba_marseille","lat":43.29002,"lon":5.35606,"is_reserved":false,"is_disabled":false,"rental_uris":{"android":"levelo://app?vid=91ba4c15-6a28-4a77-8127-1d907ef896d4","ios":"levelo://app?vid=91ba4c15-6a28-4a77-8127-1d907ef896d4"},"vehicle_type_id":"4","last_reported":1739380136,"current_range_meters":36000,"station_id":"ce4bhb92rcd13ifvqen0","pricing_plan_id":"cebpf4jnsgd1na2vs0mg"},{"bike_id":"823a2625-8a7f-438f-801a-c76185e83101","system_id":"levelo_inurba_marseille","lat":43.27172,"lon":5.41003,"is_reserved":false,"is_disabled":false,"rental_uris":{"android":"levelo://app?vid=823a2625-8a7f-438f-801a-c76185e83101","ios":"levelo://app?vid=823a2625-8a7f-438f-801a-c76185e83101"},"vehicle_type_id":"4","last_reported":1739380136,"current_range_meters":25600,"station_id":"ce4bhl12rcd13ifvqgf0","pricing_plan_id":"cebpf4jnsgd1na2vs0mg"},{"bike_id":"493272a2-2375-425b-9e62-35c60055d9ef","system_id":"levelo_inurba_marseille","lat":43.27621,"lon":5.36119,"is_reserved":false,"is_disabled":false,"rental_uris":{"android":"levelo://app?vid=493272a2-2375-425b-9e62-35c60055d9ef","ios":"levelo://app?vid=493272a2-2375-425b-9e62-35c60055d9ef"},"vehicle_type_id":"4","last_reported":1739380136,"current_range_meters":9600,"station_id":"ce4bgj92rcd13ifvqbe0","pricing_plan_id":"cebpf4jnsgd1na2vs0mg"},{"bike_id":"04d4b8ab-1d4d-44ab-9d49-e10f569c0553","system_id":"levelo_inurba_marseille","lat":43.29838,"lon":5.36269,"is_reserved":false,"is_disabled":false,"rental_uris":{"android":"levelo://app?vid=04d4b8ab-1d4d-44ab-9d49-e10f569c0553","ios":"levelo://app?vid=04d4b8ab-1d4d-44ab-9d49-e10f569c0553"},"vehicle_type_id":"4","last_reported":1739380136,"current_range_meters":32000,"station_id":"ce4bgpp2rcd13ifvqc3g","pricing_plan_id":"cebpf4jnsgd1na2vs0mg"},{"bike_id":"1e27a57f-c848-41af-a2d3-5d053a440eb3","system_id":"levelo_inurba_marseille","lat":43.32589,"lon":5.43055,"is_reserved":false,"is_disabled":false,"rental_uris":{"android":"levelo://app?vid=1e27a57f-c848-41af-a2d3-5d053a440eb3","ios":"levelo://app?vid=1e27a57f-c848-41af-a2d3-5d053a440eb3"},"vehicle_type_id":"4","last_reported":1739380136,"current_range_meters":16000,"station_id":"","pricing_plan_id":"cebpf4jnsgd1na2vs0mg"},{"bike_id":"e0e88e32-cb96-4b9b-ae72-a756accf51b3","system_id":"levelo_inurba_marseille","lat":43.25818,"lon":5.39438,"is_reserved":false,"is_disabled":false,"rental_uris":{"android":"levelo://app?vid=e0e88e32-cb96-4b9b-ae72-a756accf51b3","ios":"levelo://app?vid=e0e88e32-cb96-4b9b-ae72-a756accf51b3"},"vehicle_type_id":"4","last_reported":1739380136,"current_range_meters":8400,"station_id":"ce4bhip2rcd13ifvqft0","pricing_plan_id":"cebpf4jnsgd1na2vs0mg"},{"bike_id":"60b283a1-229b-4adb-83f1-d1d7d9987d23","system_id":"levelo_inurba_marseille","lat":43.29067,"lon":5.35926,"is_reserved":false,"is_disabled":false,"rental_uris":{"android":"levelo://app?vid=60b283a1-229b-4adb-83f1-d1d7d9987d23","ios":"levelo://app?vid=60b283a1-229b-4adb-83f1-d1d7d9987d23"},"vehicle_type_id":"4","last_reported":1739380136,"current_range_meters":25600,"station_id":"ce4bha92rcd13ifvqeg0","pricing_plan_id":"cebpf4jnsgd1na2vs0mg"},{"bike_id":"c4813b27-4250-43ea-8be5-ccd7321d2af3","system_id":"levelo_inurba_marseille","lat":43.28214,"lon":5.36975,"is_reserved":false,"is_disabled":false,"rental_uris":{"android":"levelo://app?vid=c4813b27-4250-43ea-8be5-ccd7321d2af3","ios":"levelo://app?vid=c4813b27-4250-43ea-8be5-ccd7321d2af3"},"vehicle_type_id":"4","last_reported":1739380136,"current_range_meters":16800,"station_id":"","pricing_plan_id":"cebpf4jnsgd1na2vs0mg"},{"bike_id":"e34f1fd3-53eb-4292-8a8d-c55fff78975a","system_id":"levelo_inurba_marseille","lat":43.26917,"lon":5.40297,"is_reserved":false,"is_disabled":false,"rental_uris":{"android":"levelo://app?vid=e34f1fd3-53eb-4292-8a8d-c55fff78975a","ios":"levelo://app?vid=e34f1fd3-53eb-4292-8a8d-c55fff78975a"},"vehicle_type_id":"4","last_reported":1739380136,"current_range_meters":14800,"station_id":"cjm6bp8fraef2m0cb0m0","pricing_plan_id":"cebpf4jnsgd1na2vs0mg"},{"bike_id":"ce1bc14b-7afc-43ff-8600-e9285f8dffa1","system_id":"levelo_inurba_marseille","lat":43.30324,"lon":5.40441,"is_reserved":false,"is_disabled":false,"rental_uris":{"android":"levelo://app?vid=ce1bc14b-7afc-43ff-8600-e9285f8dffa1","ios":"levelo://app?vid=ce1bc14b-7afc-43ff-8600-e9285f8dffa1"},"vehicle_type_id":"4","last_reported":1739380136,"current_range_meters":18800,"station_id":"ce4bh012rcd13ifvqd10","pricing_plan_id":"cebpf4jnsgd1na2vs0mg"},{"bike_id":"728be96f-7972-4f4c-b020-cf451b83734c","system_id":"levelo_inurba_marseille","lat":43.29528,"lon":5.38542,"is_reserved":false,"is_disabled":false,"rental_uris":{"android":"levelo://app?vid=728be96f-7972-4f4c-b020-cf451b83734c","ios":"levelo://app?vid=728be96f-7972-4f4c-b020-cf451b83734c"},"vehicle_type_id":"4","last_reported":1739380136,"current_range_meters":38800,"station_id":"ce4bgih2rcd13ifvqba0","pricing_plan_id":"cebpf4jnsgd1na2vs0mg"},{"bike_id":"b9008db9-edb2-419d-8bc1-4f8fcb36db61","system_id":"levelo_inurba_marseille","lat":43.29718,"lon":5.37689,"is_reserved":false,"is_disabled":false,"rental_uris":{"android":"levelo://app?vid=b9008db9-edb2-419d-8bc1-4f8fcb36db61","ios":"levelo://app?vid=b9008db9-edb2-419d-8bc1-4f8fcb36db61"},"vehicle_type_id":"4","last_reported":1739380136,"current_range_meters":32800,"station_id":"ce4bgkh2rcd13ifvqbl0","pricing_plan_id":"cebpf4jnsgd1na2vs0mg"},{"bike_id":"6bc75ba0-b0fd-467e-8500-8a3fd69e9921","system_id":"levelo_inurba_marseille","lat":43.25116,"lon":5.4032,"is_reserved":false,"is_disabled":true,"rental_uris":{"android":"levelo://app?vid=6bc75ba0-b0fd-467e-8500-8a3fd69e9921","ios":"levelo://app?vid=6bc75ba0-b0fd-467e-8500-8a3fd69e9921"},"vehicle_type_id":"4","last_reported":1739380136,"current_range_meters":0,"station_id":"ce4bhlh2rcd13ifvqgig","pricing_plan_id":"cebpf4jnsgd1na2vs0mg"},{"bike_id":"7399132f-cac0-47dd-97c2-a8a020c2c9ec","system_id":"levelo_inurba_marseille","lat":43.25938,"lon":5.40903,"is_reserved":false,"is_disabled":false,"rental_uris":{"android":"levelo://app?vid=7399132f-cac0-47dd-97c2-a8a020c2c9ec","ios":"levelo://app?vid=7399132f-cac0-47dd-97c2-a8a020c2c9ec"},"vehicle_type_id":"4","last_reported":1739380136,"current_range_meters":29600,"station_id":"ce4bhm92rcd13ifvqglg","pricing_plan_id":"cebpf4jnsgd1na2vs0mg"},{"bike_id":"4256609f-fc03-46ed-a53a-f7056c8013b1","system_id":"levelo_inurba_marseille","lat":43.26789,"lon":5.39412,"is_reserved":false,"is_disabled":true,"rental_uris":{"android":"levelo://app?vid=4256609f-fc03-46ed-a53a-f7056c8013b1","ios":"levelo://app?vid=4256609f-fc03-46ed-a53a-f7056c8013b1"},"vehicle_type_id":"4","last_reported":1739380136,"current_range_meters":800,"station_id":"ce4bhh12rcd13ifvqfg0","pricing_plan_id":"cebpf4jnsgd1na2vs0mg"},{"bike_id":"26f80c00-3d4b-4208-bb33-78f67b211efa","system_id":"levelo_inurba_marseille","lat":43.27067,"lon":5.40264,"is_reserved":false,"is_disabled":false,"rental_uris":{"android":"levelo://app?vid=26f80c00-3d4b-4208-bb33-78f67b211efa","ios":"levelo://app?vid=26f80c00-3d4b-4208-bb33-78f67b211efa"},"vehicle_type_id":"4","last_reported":1739380136,"current_range_meters":30400,"station_id":"ce4bhk92rcd13ifvqgc0","pricing_plan_id":"cebpf4jnsgd1na2vs0mg"},{"bike_id":"daff2e55-6cbe-4d04-9578-20910735f951","system_id":"levelo_inurba_marseille","lat":43.28153,"lon":5.42646,"is_reserved":false,"is_disabled":false,"rental_uris":{"android":"levelo://app?vid=daff2e55-6cbe-4d04-9578-20910735f951","ios":"levelo://app?vid=daff2e55-6cbe-4d04-9578-20910735f951"},"vehicle_type_id":"4","last_reported":1739380136,"current_range_meters":20800,"station_id":"ce4bhnh2rcd13ifvqgug","pricing_plan_id":"cebpf4jnsgd1na2vs0mg"},{"bike_id":"ee2e1f34-7a57-4fc7-881f-b33a3e6cdadf","system_id":"levelo_inurba_marseille","lat":43.29636,"lon":5.3718,"is_reserved":false,"is_disabled":false,"rental_uris":{"android":"levelo://app?vid=ee2e1f34-7a57-4fc7-881f-b33a3e6cdadf","ios":"levelo://app?vid=ee2e1f34-7a57-4fc7-881f-b33a3e6cdadf"},"vehicle_type_id":"4","last_reported":1739380136,"current_range_meters":34800,"station_id":"ce4bgnh2rcd13ifvqc0g","pricing_plan_id":"cebpf4jnsgd1na2vs0mg"},{"bike_id":"dd1a47dd-0697-4ca4-a3de-3dcc390442ec","system_id":"levelo_inurba_marseille","lat":43.2953,"lon":5.3855,"is_reserved":false,"is_disabled":false,"rental_uris":{"android":"levelo://app?vid=dd1a47dd-0697-4ca4-a3de-3dcc390442ec","ios":"levelo://app?vid=dd1a47dd-0697-4ca4-a3de-3dcc390442ec"},"vehicle_type_id":"4","last_reported":1739380136,"current_range_meters":16400,"station_id":"ce4bgih2rcd13ifvqba0","pricing_plan_id":"cebpf4jnsgd1na2vs0mg"},{"bike_id":"8d2d4012-ff69-4800-927a-45caff6cd054","system_id":"levelo_inurba_marseille","lat":43.23139,"lon":5.43687,"is_reserved":false,"is_disabled":false,"rental_uris":{"android":"levelo://app?vid=8d2d4012-ff69-4800-927a-45caff6cd054","ios":"levelo://app?vid=8d2d4012-ff69-4800-927a-45caff6cd054"},"vehicle_type_id":"4","last_reported":1739380136,"current_range_meters":14800,"station_id":"ce4bhmp2rcd13ifvqgog","pricing_plan_id":"cebpf4jnsgd1na2vs0mg"},{"bike_id":"1ec14052-2d33-4aa1-9ab8-58cc71db74d1","system_id":"levelo_inurba_marseille","lat":43.24167,"lon":5.36409,"is_reserved":false,"is_disabled":false,"rental_uris":{"android":"levelo://app?vid=1ec14052-2d33-4aa1-9ab8-58cc71db74d1","ios":"levelo://app?vid=1ec14052-2d33-4aa1-9ab8-58cc71db74d1"},"vehicle_type_id":"4","last_reported":1739380136,"current_range_meters":9200,"station_id":"cpo36qri1sfpv3e86is0","pricing_plan_id":"cebpf4jnsgd1na2vs0mg"},{"bike_id":"6e58a69c-2a4e-4c49-840d-6e728a603acb","system_id":"levelo_inurba_marseille","lat":43.23085,"lon":5.35487,"is_reserved":false,"is_disabled":false,"rental_uris":{"android":"levelo://app?vid=6e58a69c-2a4e-4c49-840d-6e728a603acb","ios":"levelo://app?vid=6e58a69c-2a4e-4c49-840d-6e728a603acb"},"vehicle_type_id":"4","last_reported":1739380136,"current_range_meters":8400,"station_id":"cpo3342slgdg3j2ifvpg","pricing_plan_id":"cebpf4jnsgd1na2vs0mg"},{"bike_id":"847b6acd-4813-4f6d-8df4-ccc7b09dff7a","system_id":"levelo_inurba_marseille","lat":43.26551,"lon":5.37289,"is_reserved":false,"is_disabled":false,"rental_uris":{"android":"levelo://app?vid=847b6acd-4813-4f6d-8df4-ccc7b09dff7a","ios":"levelo://app?vid=847b6acd-4813-4f6d-8df4-ccc7b09dff7a"},"vehicle_type_id":"4","last_reported":1739380136,"current_range_meters":30000,"station_id":"ce4bhg12rcd13ifvqf70","pricing_plan_id":"cebpf4jnsgd1na2vs0mg"},{"bike_id":"bb8d4545-1dfa-4929-b03f-e7a6dbc7e511","system_id":"levelo_inurba_marseille","lat":43.3043,"lon":5.3889,"is_reserved":false,"is_disabled":false,"rental_uris":{"android":"levelo://app?vid=bb8d4545-1dfa-4929-b03f-e7a6dbc7e511","ios":"levelo://app?vid=bb8d4545-1dfa-4929-b03f-e7a6dbc7e511"},"vehicle_type_id":"4","last_reported":1739380136,"current_range_meters":16400,"station_id":"ce4bgk12rcd13ifvqbi0","pricing_plan_id":"cebpf4jnsgd1na2vs0mg"},{"bike_id":"5570c534-f1a3-4aaf-a3eb-4ce5d090e097","system_id":"levelo_inurba_marseille","lat":43.30092,"lon":5.39092,"is_reserved":false,"is_disabled":false,"rental_uris":{"android":"levelo://app?vid=5570c534-f1a3-4aaf-a3eb-4ce5d090e097","ios":"levelo://app?vid=5570c534-f1a3-4aaf-a3eb-4ce5d090e097"},"vehicle_type_id":"4","last_reported":1739380136,"current_range_meters":33200,"station_id":"ce4bh192rcd13ifvqdb0","pricing_plan_id":"cebpf4jnsgd1na2vs0mg"},{"bike_id":"fc855d4e-cf92-48ad-b751-57eb2469a89a","system_id":"levelo_inurba_marseille","lat":43.32463,"lon":5.36631,"is_reserved":false,"is_disabled":false,"rental_uris":{"android":"levelo://app?vid=fc855d4e-cf92-48ad-b751-57eb2469a89a","ios":"levelo://app?vid=fc855d4e-cf92-48ad-b751-57eb2469a89a"},"vehicle_type_id":"4","last_reported":1739380136,"current_range_meters":38800,"station_id":"ce4bhs12rcd13ifvqhvg","pricing_plan_id":"cebpf4jnsgd1na2vs0mg"},{"bike_id":"79df8d93-a019-4f4d-ad9b-607d770a7910","system_id":"levelo_inurba_marseille","lat":43.29385,"lon":5.38895,"is_reserved":false,"is_disabled":false,"rental_uris":{"android":"levelo://app?vid=79df8d93-a019-4f4d-ad9b-607d770a7910","ios":"levelo://app?vid=79df8d93-a019-4f4d-ad9b-607d770a7910"},"vehicle_type_id":"4","last_reported":1739380136,"current_range_meters":20800,"station_id":"","pricing_plan_id":"cebpf4jnsgd1na2vs0mg"},{"bike_id":"3ce6ec9a-a388-4f67-ba41-a371735d7bb6","system_id":"levelo_inurba_marseille","lat":43.29539,"lon":5.38525,"is_reserved":false,"is_disabled":false,"rental_uris":{"android":"levelo://app?vid=3ce6ec9a-a388-4f67-ba41-a371735d7bb6","ios":"levelo://app?vid=3ce6ec9a-a388-4f67-ba41-a371735d7bb6"},"vehicle_type_id":"4","last_reported":1739380136,"current_range_meters":32400,"station_id":"ce4bgih2rcd13ifvqba0","pricing_plan_id":"cebpf4jnsgd1na2vs0mg"},{"bike_id":"04e79b02-26b7-408e-8d07-a04361b8a27a","system_id":"levelo_inurba_marseille","lat":43.23178,"lon":5.39996,"is_reserved":false,"is_disabled":false,"rental_uris":{"android":"levelo://app?vid=04e79b02-26b7-408e-8d07-a04361b8a27a","ios":"levelo://app?vid=04e79b02-26b7-408e-8d07-a04361b8a27a"},"vehicle_type_id":"4","last_reported":1739380136,"current_range_meters":39200,"station_id":"ce4bhn12rcd13ifvqgqg","pricing_plan_id":"cebpf4jnsgd1na2vs0mg"},{"bike_id":"7b7aefaf-046b-432f-9d0c-363c3f21eb79","system_id":"levelo_inurba_marseille","lat":43.29275,"lon":5.38445,"is_reserved":false,"is_disabled":false,"rental_uris":{"android":"levelo://app?vid=7b7aefaf-046b-432f-9d0c-363c3f21eb79","ios":"levelo://app?vid=7b7aefaf-046b-432f-9d0c-363c3f21eb79"},"vehicle_type_id":"4","last_reported":1739380136,"current_range_meters":12000,"station_id":"ce4bh692rcd13ifvqea0","pricing_plan_id":"cebpf4jnsgd1na2vs0mg"},{"bike_id":"4c19e3da-4ccd-408f-b9c4-37699e76abe2","system_id":"levelo_inurba_marseille","lat":43.25499,"lon":5.37653,"is_reserved":false,"is_disabled":false,"rental_uris":{"android":"levelo://app?vid=4c19e3da-4ccd-408f-b9c4-37699e76abe2","ios":"levelo://app?vid=4c19e3da-4ccd-408f-b9c4-37699e76abe2"},"vehicle_type_id":"4","last_reported":1739380136,"current_range_meters":6000,"station_id":"ce4bhh12rcd13ifvqff0","pricing_plan_id":"cebpf4jnsgd1na2vs0mg"},{"bike_id":"0af6ce70-a73d-4e15-ae66-afdf903dbe27","system_id":"levelo_inurba_marseille","lat":43.24807,"lon":5.37449,"is_reserved":false,"is_disabled":false,"rental_uris":{"android":"levelo://app?vid=0af6ce70-a73d-4e15-ae66-afdf903dbe27","ios":"levelo://app?vid=0af6ce70-a73d-4e15-ae66-afdf903dbe27"},"vehicle_type_id":"4","last_reported":1739380136,"current_range_meters":5600,"station_id":"ce4bhgh2rcd13ifvqfb0","pricing_plan_id":"cebpf4jnsgd1na2vs0mg"},{"bike_id":"6f2abc86-8e40-4fcd-9e5c-336c1dad9eac","system_id":"levelo_inurba_marseille","lat":43.29226,"lon":5.36071,"is_reserved":false,"is_disabled":false,"rental_uris":{"android":"levelo://app?vid=6f2abc86-8e40-4fcd-9e5c-336c1dad9eac","ios":"levelo://app?vid=6f2abc86-8e40-4fcd-9e5c-336c1dad9eac"},"vehicle_type_id":"4","last_reported":1739380136,"current_range_meters":38800,"station_id":"ce4bhbh2rcd13ifvqeqg","pricing_plan_id":"cebpf4jnsgd1na2vs0mg"},{"bike_id":"9e959baa-c12c-421b-ae7e-498336eaac08","system_id":"levelo_inurba_marseille","lat":43.24997,"lon":5.38932,"is_reserved":false,"is_disabled":false,"rental_uris":{"android":"levelo://app?vid=9e959baa-c12c-421b-ae7e-498336eaac08","ios":"levelo://app?vid=9e959baa-c12c-421b-ae7e-498336eaac08"},"vehicle_type_id":"4","last_reported":1739380136,"current_range_meters":30000,"station_id":"ce4bhgp2rcd13ifvqfd0","pricing_plan_id":"cebpf4jnsgd1na2vs0mg"},{"bike_id":"9d15f461-e900-4549-a0ec-9e3ebec5d05d","system_id":"levelo_inurba_marseille","lat":43.29227,"lon":5.36058,"is_reserved":false,"is_disabled":false,"rental_uris":{"android":"levelo://app?vid=9d15f461-e900-4549-a0ec-9e3ebec5d05d","ios":"levelo://app?vid=9d15f461-e900-4549-a0ec-9e3ebec5d05d"},"vehicle_type_id":"4","last_reported":1739380136,"current_range_meters":9600,"station_id":"ce4bhbh2rcd13ifvqeqg","pricing_plan_id":"cebpf4jnsgd1na2vs0mg"},{"bike_id":"95238438-aee1-472d-8c03-6f5da0f062d1","system_id":"levelo_inurba_marseille","lat":43.31366,"lon":5.36744,"is_reserved":false,"is_disabled":false,"rental_uris":{"android":"levelo://app?vid=95238438-aee1-472d-8c03-6f5da0f062d1","ios":"levelo://app?vid=95238438-aee1-472d-8c03-6f5da0f062d1"},"vehicle_type_id":"4","last_reported":1739380136,"current_range_meters":14000,"station_id":"ce4bgr92rcd13ifvqc6g","pricing_plan_id":"cebpf4jnsgd1na2vs0mg"},{"bike_id":"41ca18c6-6a6b-4f90-90b7-3a291310dea7","system_id":"levelo_inurba_marseille","lat":43.29035,"lon":5.38639,"is_reserved":false,"is_disabled":false,"rental_uris":{"android":"levelo://app?vid=41ca18c6-6a6b-4f90-90b7-3a291310dea7","ios":"levelo://app?vid=41ca18c6-6a6b-4f90-90b7-3a291310dea7"},"vehicle_type_id":"4","last_reported":1739380136,"current_range_meters":27200,"station_id":"ce4bh4p2rcd13ifvqe0g","pricing_plan_id":"cebpf4jnsgd1na2vs0mg"},{"bike_id":"112cadb6-286d-4901-a0bd-62e15e09e4e2","system_id":"levelo_inurba_marseille","lat":43.29775,"lon":5.371,"is_reserved":false,"is_disabled":false,"rental_uris":{"android":"levelo://app?vid=112cadb6-286d-4901-a0bd-62e15e09e4e2","ios":"levelo://app?vid=112cadb6-286d-4901-a0bd-62e15e09e4e2"},"vehicle_type_id":"4","last_reported":1739380136,"current_range_meters":38800,"station_id":"ce4bgop2rcd13ifvqc1g","pricing_plan_id":"cebpf4jnsgd1na2vs0mg"},{"bike_id":"45c69351-c727-42f0-aeb7-46e14ed1cabb","system_id":"levelo_inurba_marseille","lat":43.26955,"lon":5.40239,"is_reserved":false,"is_disabled":false,"rental_uris":{"android":"levelo://app?vid=45c69351-c727-42f0-aeb7-46e14ed1cabb","ios":"levelo://app?vid=45c69351-c727-42f0-aeb7-46e14ed1cabb"},"vehicle_type_id":"4","last_reported":1739380136,"current_range_meters":6000,"station_id":"cjm6bp8fraef2m0cb0m0","pricing_plan_id":"cebpf4jnsgd1na2vs0mg"},{"bike_id":"6ab2cb42-244f-4ae0-9470-4a0be83a5558","system_id":"levelo_inurba_marseille","lat":43.3168,"lon":5.3729,"is_reserved":false,"is_disabled":false,"rental_uris":{"android":"levelo://app?vid=6ab2cb42-244f-4ae0-9470-4a0be83a5558","ios":"levelo://app?vid=6ab2cb42-244f-4ae0-9470-4a0be83a5558"},"vehicle_type_id":"4","last_reported":1739380136,"current_range_meters":21600,"station_id":"","pricing_plan_id":"cebpf4jnsgd1na2vs0mg"},{"bike_id":"0f470e6e-a481-43a4-add4-ce5b8742af5e","system_id":"levelo_inurba_marseille","lat":43.2973,"lon":5.37689,"is_reserved":false,"is_disabled":false,"rental_uris":{"android":"levelo://app?vid=0f470e6e-a481-43a4-add4-ce5b8742af5e","ios":"levelo://app?vid=0f470e6e-a481-43a4-add4-ce5b8742af5e"},"vehicle_type_id":"4","last_reported":1739380136,"current_range_meters":33200,"station_id":"ce4bgkh2rcd13ifvqbl0","pricing_plan_id":"cebpf4jnsgd1na2vs0mg"},{"bike_id":"ceaa8234-60f4-49a6-ae29-7f05bcd68d96","system_id":"levelo_inurba_marseille","lat":43.3041,"lon":5.41325,"is_reserved":false,"is_disabled":true,"rental_uris":{"android":"levelo://app?vid=ceaa8234-60f4-49a6-ae29-7f05bcd68d96","ios":"levelo://app?vid=ceaa8234-60f4-49a6-ae29-7f05bcd68d96"},"vehicle_type_id":"4","last_reported":1739380136,"current_range_meters":1200,"station_id":"ce4bhop2rcd13ifvqh8g","pricing_plan_id":"cebpf4jnsgd1na2vs0mg"},{"bike_id":"3ab134a5-30a3-4bf1-b62a-b1109fc6c922","system_id":"levelo_inurba_marseille","lat":43.26226,"lon":5.40451,"is_reserved":false,"is_disabled":false,"rental_uris":{"android":"levelo://app?vid=3ab134a5-30a3-4bf1-b62a-b1109fc6c922","ios":"levelo://app?vid=3ab134a5-30a3-4bf1-b62a-b1109fc6c922"},"vehicle_type_id":"4","last_reported":1739380136,"current_range_meters":22000,"station_id":"ce4bhmh2rcd13ifvqgmg","pricing_plan_id":"cebpf4jnsgd1na2vs0mg"},{"bike_id":"9da07ff6-2249-4972-b372-396b363d7733","system_id":"levelo_inurba_marseille","lat":43.29515,"lon":5.39403,"is_reserved":false,"is_disabled":false,"rental_uris":{"android":"levelo://app?vid=9da07ff6-2249-4972-b372-396b363d7733","ios":"levelo://app?vid=9da07ff6-2249-4972-b372-396b363d7733"},"vehicle_type_id":"4","last_reported":1739380136,"current_range_meters":19600,"station_id":"ce4bh292rcd13ifvqdf0","pricing_plan_id":"cebpf4jnsgd1na2vs0mg"},{"bike_id":"d690c2c4-0731-4d7b-89a1-b6b182e48ce6","system_id":"levelo_inurba_marseille","lat":43.304479,"lon":5.397671,"is_reserved":false,"is_disabled":false,"rental_uris":{"android":"levelo://app?vid=d690c2c4-0731-4d7b-89a1-b6b182e48ce6","ios":"levelo://app?vid=d690c2c4-0731-4d7b-89a1-b6b182e48ce6"},"vehicle_type_id":"4","last_reported":1739380136,"current_range_meters":30800,"station_id":"ce4bh092rcd13ifvqd20","pricing_plan_id":"cebpf4jnsgd1na2vs0mg"},{"bike_id":"0fb30756-cd50-4cd1-ba06-1ebd026d9274","system_id":"levelo_inurba_marseille","lat":43.25007,"lon":5.38924,"is_reserved":false,"is_disabled":false,"rental_uris":{"android":"levelo://app?vid=0fb30756-cd50-4cd1-ba06-1ebd026d9274","ios":"levelo://app?vid=0fb30756-cd50-4cd1-ba06-1ebd026d9274"},"vehicle_type_id":"4","last_reported":1739380136,"current_range_meters":26000,"station_id":"ce4bhgp2rcd13ifvqfd0","pricing_plan_id":"cebpf4jnsgd1na2vs0mg"},{"bike_id":"3f53f95a-9c5c-4075-a387-a50f84061cec","system_id":"levelo_inurba_marseille","lat":43.25861,"lon":5.39909,"is_reserved":false,"is_disabled":false,"rental_uris":{"android":"levelo://app?vid=3f53f95a-9c5c-4075-a387-a50f84061cec","ios":"levelo://app?vid=3f53f95a-9c5c-4075-a387-a50f84061cec"},"vehicle_type_id":"4","last_reported":1739380136,"current_range_meters":14400,"station_id":"ce4bhl92rcd13ifvqghg","pricing_plan_id":"cebpf4jnsgd1na2vs0mg"},{"bike_id":"41d84e1a-f3aa-4a0e-9ae7-b5103f79f11d","system_id":"levelo_inurba_marseille","lat":43.30883,"lon":5.39627,"is_reserved":false,"is_disabled":false,"rental_uris":{"android":"levelo://app?vid=41d84e1a-f3aa-4a0e-9ae7-b5103f79f11d","ios":"levelo://app?vid=41d84e1a-f3aa-4a0e-9ae7-b5103f79f11d"},"vehicle_type_id":"4","last_reported":1739380136,"current_range_meters":3600,"station_id":"ce4bh012rcd13ifvqcv0","pricing_plan_id":"cebpf4jnsgd1na2vs0mg"},{"bike_id":"b0f70249-6360-4dc3-a83a-fd73a6b534c8","system_id":"levelo_inurba_marseille","lat":43.32151,"lon":5.38453,"is_reserved":false,"is_disabled":false,"rental_uris":{"android":"levelo://app?vid=b0f70249-6360-4dc3-a83a-fd73a6b534c8","ios":"levelo://app?vid=b0f70249-6360-4dc3-a83a-fd73a6b534c8"},"vehicle_type_id":"4","last_reported":1739380136,"current_range_meters":32800,"station_id":"","pricing_plan_id":"cebpf4jnsgd1na2vs0mg"},{"bike_id":"54ce597b-1ca1-4d62-923d-d4b29eec04b3","system_id":"levelo_inurba_marseille","lat":43.31131,"lon":5.38261,"is_reserved":false,"is_disabled":false,"rental_uris":{"android":"levelo://app?vid=54ce597b-1ca1-4d62-923d-d4b29eec04b3","ios":"levelo://app?vid=54ce597b-1ca1-4d62-923d-d4b29eec04b3"},"vehicle_type_id":"4","last_reported":1739380136,"current_range_meters":14400,"station_id":"","pricing_plan_id":"cebpf4jnsgd1na2vs0mg"},{"bike_id":"e7897439-f664-4a77-8d8b-47c8323ff776","system_id":"levelo_inurba_marseille","lat":43.27941,"lon":5.41031,"is_reserved":false,"is_disabled":false,"rental_uris":{"android":"levelo://app?vid=e7897439-f664-4a77-8d8b-47c8323ff776","ios":"levelo://app?vid=e7897439-f664-4a77-8d8b-47c8323ff776"},"vehicle_type_id":"4","last_reported":1739380136,"current_range_meters":15200,"station_id":"ce4bhnp2rcd13ifvqh0g","pricing_plan_id":"cebpf4jnsgd1na2vs0mg"},{"bike_id":"1b42fe61-7a8c-4ff7-b0e0-31f7d2adc3da","system_id":"levelo_inurba_marseille","lat":43.28713,"lon":5.37948,"is_reserved":false,"is_disabled":false,"rental_uris":{"android":"levelo://app?vid=1b42fe61-7a8c-4ff7-b0e0-31f7d2adc3da","ios":"levelo://app?vid=1b42fe61-7a8c-4ff7-b0e0-31f7d2adc3da"},"vehicle_type_id":"4","last_reported":1739380136,"current_range_meters":30800,"station_id":"ce4bh9p2rcd13ifvqec0","pricing_plan_id":"cebpf4jnsgd1na2vs0mg"},{"bike_id":"9d6c6a2c-f4a8-4f2e-9a51-0f83be3f4454","system_id":"levelo_inurba_marseille","lat":43.25011,"lon":5.3893,"is_reserved":false,"is_disabled":false,"rental_uris":{"android":"levelo://app?vid=9d6c6a2c-f4a8-4f2e-9a51-0f83be3f4454","ios":"levelo://app?vid=9d6c6a2c-f4a8-4f2e-9a51-0f83be3f4454"},"vehicle_type_id":"4","last_reported":1739380136,"current_range_meters":30800,"station_id":"ce4bhgp2rcd13ifvqfd0","pricing_plan_id":"cebpf4jnsgd1na2vs0mg"},{"bike_id":"9d9e0aa8-9e74-4074-b897-7f0e5a57b130","system_id":"levelo_inurba_marseille","lat":43.29983,"lon":5.37179,"is_reserved":false,"is_disabled":false,"rental_uris":{"android":"levelo://app?vid=9d9e0aa8-9e74-4074-b897-7f0e5a57b130","ios":"levelo://app?vid=9d9e0aa8-9e74-4074-b897-7f0e5a57b130"},"vehicle_type_id":"4","last_reported":1739380136,"current_range_meters":8800,"station_id":"ce4bgr92rcd13ifvqc7g","pricing_plan_id":"cebpf4jnsgd1na2vs0mg"},{"bike_id":"ada458cc-0386-4960-91d1-f14ed09a1803","system_id":"levelo_inurba_marseille","lat":43.31318,"lon":5.39708,"is_reserved":false,"is_disabled":false,"rental_uris":{"android":"levelo://app?vid=ada458cc-0386-4960-91d1-f14ed09a1803","ios":"levelo://app?vid=ada458cc-0386-4960-91d1-f14ed09a1803"},"vehicle_type_id":"4","last_reported":1739380136,"current_range_meters":32000,"station_id":"ce4bgvp2rcd13ifvqcu0","pricing_plan_id":"cebpf4jnsgd1na2vs0mg"},{"bike_id":"efd42187-3c25-4a68-8ab8-f9658b3136ea","system_id":"levelo_inurba_marseille","lat":43.28406,"lon":5.37523,"is_reserved":false,"is_disabled":false,"rental_uris":{"android":"levelo://app?vid=efd42187-3c25-4a68-8ab8-f9658b3136ea","ios":"levelo://app?vid=efd42187-3c25-4a68-8ab8-f9658b3136ea"},"vehicle_type_id":"4","last_reported":1739380136,"current_range_meters":17600,"station_id":"ce4bh412rcd13ifvqds0","pricing_plan_id":"cebpf4jnsgd1na2vs0mg"},{"bike_id":"2eedc340-9771-44d3-9a6e-7ee54b7ff1ec","system_id":"levelo_inurba_marseille","lat":43.26558,"lon":5.37286,"is_reserved":false,"is_disabled":false,"rental_uris":{"android":"levelo://app?vid=2eedc340-9771-44d3-9a6e-7ee54b7ff1ec","ios":"levelo://app?vid=2eedc340-9771-44d3-9a6e-7ee54b7ff1ec"},"vehicle_type_id":"4","last_reported":1739380136,"current_range_meters":6400,"station_id":"ce4bhg12rcd13ifvqf70","pricing_plan_id":"cebpf4jnsgd1na2vs0mg"},{"bike_id":"58a923a1-50e5-4bcc-a5c7-59fd5ea18680","system_id":"levelo_inurba_marseille","lat":43.23153,"lon":5.43705,"is_reserved":false,"is_disabled":false,"rental_uris":{"android":"levelo://app?vid=58a923a1-50e5-4bcc-a5c7-59fd5ea18680","ios":"levelo://app?vid=58a923a1-50e5-4bcc-a5c7-59fd5ea18680"},"vehicle_type_id":"4","last_reported":1739380136,"current_range_meters":19200,"station_id":"ce4bhmp2rcd13ifvqgog","pricing_plan_id":"cebpf4jnsgd1na2vs0mg"},{"bike_id":"51d770a2-dd16-4796-a058-ebfc42d09fdc","system_id":"levelo_inurba_marseille","lat":43.29907,"lon":5.37445,"is_reserved":false,"is_disabled":false,"rental_uris":{"android":"levelo://app?vid=51d770a2-dd16-4796-a058-ebfc42d09fdc","ios":"levelo://app?vid=51d770a2-dd16-4796-a058-ebfc42d09fdc"},"vehicle_type_id":"4","last_reported":1739380136,"current_range_meters":38400,"station_id":"ce4bgjh2rcd13ifvqbg0","pricing_plan_id":"cebpf4jnsgd1na2vs0mg"},{"bike_id":"d20e281b-4bbf-440b-b3e5-085faded4017","system_id":"levelo_inurba_marseille","lat":43.31481,"lon":5.37297,"is_reserved":false,"is_disabled":false,"rental_uris":{"android":"levelo://app?vid=d20e281b-4bbf-440b-b3e5-085faded4017","ios":"levelo://app?vid=d20e281b-4bbf-440b-b3e5-085faded4017"},"vehicle_type_id":"4","last_reported":1739380136,"current_range_meters":20000,"station_id":"ce4bgt12rcd13ifvqcd0","pricing_plan_id":"cebpf4jnsgd1na2vs0mg"},{"bike_id":"0f80b63c-292e-4c39-a6d0-129780cf06ad","system_id":"levelo_inurba_marseille","lat":43.2835,"lon":5.38102,"is_reserved":false,"is_disabled":false,"rental_uris":{"android":"levelo://app?vid=0f80b63c-292e-4c39-a6d0-129780cf06ad","ios":"levelo://app?vid=0f80b63c-292e-4c39-a6d0-129780cf06ad"},"vehicle_type_id":"4","last_reported":1739380136,"current_range_meters":39200,"station_id":"ce4bh412rcd13ifvqdr0","pricing_plan_id":"cebpf4jnsgd1na2vs0mg"},{"bike_id":"2d419ec9-2ee3-470a-bf94-16ca09c7ae69","system_id":"levelo_inurba_marseille","lat":43.24988,"lon":5.38956,"is_reserved":false,"is_disabled":false,"rental_uris":{"android":"levelo://app?vid=2d419ec9-2ee3-470a-bf94-16ca09c7ae69","ios":"levelo://app?vid=2d419ec9-2ee3-470a-bf94-16ca09c7ae69"},"vehicle_type_id":"4","last_reported":1739380136,"current_range_meters":6800,"station_id":"ce4bhgp2rcd13ifvqfd0","pricing_plan_id":"cebpf4jnsgd1na2vs0mg"},{"bike_id":"5736dd38-3686-4d08-a118-f5f9012ac83d","system_id":"levelo_inurba_marseille","lat":43.2762,"lon":5.36105,"is_reserved":false,"is_disabled":false,"rental_uris":{"android":"levelo://app?vid=5736dd38-3686-4d08-a118-f5f9012ac83d","ios":"levelo://app?vid=5736dd38-3686-4d08-a118-f5f9012ac83d"},"vehicle_type_id":"4","last_reported":1739380136,"current_range_meters":27200,"station_id":"ce4bgj92rcd13ifvqbe0","pricing_plan_id":"cebpf4jnsgd1na2vs0mg"},{"bike_id":"296fcee4-79c3-49a9-a7c9-6e22cb6314c5","system_id":"levelo_inurba_marseille","lat":43.30083,"lon":5.39073,"is_reserved":false,"is_disabled":false,"rental_uris":{"android":"levelo://app?vid=296fcee4-79c3-49a9-a7c9-6e22cb6314c5","ios":"levelo://app?vid=296fcee4-79c3-49a9-a7c9-6e22cb6314c5"},"vehicle_type_id":"4","last_reported":1739380136,"current_range_meters":36800,"station_id":"ce4bh192rcd13ifvqdb0","pricing_plan_id":"cebpf4jnsgd1na2vs0mg"},{"bike_id":"aa2a2975-b7ac-443c-9404-5c5e1b57efc0","system_id":"levelo_inurba_marseille","lat":43.239654,"lon":5.366339,"is_reserved":false,"is_disabled":false,"rental_uris":{"android":"levelo://app?vid=aa2a2975-b7ac-443c-9404-5c5e1b57efc0","ios":"levelo://app?vid=aa2a2975-b7ac-443c-9404-5c5e1b57efc0"},"vehicle_type_id":"4","last_reported":1739380136,"current_range_meters":6800,"station_id":"ce4bhi12rcd13ifvqfp0","pricing_plan_id":"cebpf4jnsgd1na2vs0mg"},{"bike_id":"d3460b7b-e380-4b3a-92a9-5f7cd890c05f","system_id":"levelo_inurba_marseille","lat":43.23159,"lon":5.4371,"is_reserved":false,"is_disabled":false,"rental_uris":{"android":"levelo://app?vid=d3460b7b-e380-4b3a-92a9-5f7cd890c05f","ios":"levelo://app?vid=d3460b7b-e380-4b3a-92a9-5f7cd890c05f"},"vehicle_type_id":"4","last_reported":1739380136,"current_range_meters":18000,"station_id":"ce4bhmp2rcd13ifvqgog","pricing_plan_id":"cebpf4jnsgd1na2vs0mg"},{"bike_id":"bf141e34-19f7-43e6-b418-b0b21e25ce57","system_id":"levelo_inurba_marseille","lat":43.304175,"lon":5.397435,"is_reserved":false,"is_disabled":true,"rental_uris":{"android":"levelo://app?vid=bf141e34-19f7-43e6-b418-b0b21e25ce57","ios":"levelo://app?vid=bf141e34-19f7-43e6-b418-b0b21e25ce57"},"vehicle_type_id":"4","last_reported":1739380136,"current_range_meters":24400,"station_id":"ce4bh092rcd13ifvqd20","pricing_plan_id":"cebpf4jnsgd1na2vs0mg"},{"bike_id":"fc93fb3f-a970-4b53-ab48-6653ca8b2d5e","system_id":"levelo_inurba_marseille","lat":43.29604,"lon":5.37705,"is_reserved":false,"is_disabled":false,"rental_uris":{"android":"levelo://app?vid=fc93fb3f-a970-4b53-ab48-6653ca8b2d5e","ios":"levelo://app?vid=fc93fb3f-a970-4b53-ab48-6653ca8b2d5e"},"vehicle_type_id":"4","last_reported":1739380136,"current_range_meters":16000,"station_id":"ce4bgi92rcd13ifvqb90","pricing_plan_id":"cebpf4jnsgd1na2vs0mg"},{"bike_id":"7a31e47b-452b-416d-92c2-e1b96afcbf05","system_id":"levelo_inurba_marseille","lat":43.23962,"lon":5.36645,"is_reserved":false,"is_disabled":false,"rental_uris":{"android":"levelo://app?vid=7a31e47b-452b-416d-92c2-e1b96afcbf05","ios":"levelo://app?vid=7a31e47b-452b-416d-92c2-e1b96afcbf05"},"vehicle_type_id":"4","last_reported":1739380136,"current_range_meters":13600,"station_id":"ce4bhi12rcd13ifvqfp0","pricing_plan_id":"cebpf4jnsgd1na2vs0mg"},{"bike_id":"d157203c-3a5b-4bbc-9638-6eefce740d5e","system_id":"levelo_inurba_marseille","lat":43.231975,"lon":5.355558,"is_reserved":false,"is_disabled":false,"rental_uris":{"android":"levelo://app?vid=d157203c-3a5b-4bbc-9638-6eefce740d5e","ios":"levelo://app?vid=d157203c-3a5b-4bbc-9638-6eefce740d5e"},"vehicle_type_id":"4","last_reported":1739380136,"current_range_meters":34800,"station_id":"ce4bhu92rcd13ifvqi70","pricing_plan_id":"cebpf4jnsgd1na2vs0mg"},{"bike_id":"399d5803-170b-4d5d-91c9-9191403ab15f","system_id":"levelo_inurba_marseille","lat":43.29894,"lon":5.43669,"is_reserved":false,"is_disabled":false,"rental_uris":{"android":"levelo://app?vid=399d5803-170b-4d5d-91c9-9191403ab15f","ios":"levelo://app?vid=399d5803-170b-4d5d-91c9-9191403ab15f"},"vehicle_type_id":"4","last_reported":1739380136,"current_range_meters":16000,"station_id":"ce4bhpp2rcd13ifvqhfg","pricing_plan_id":"cebpf4jnsgd1na2vs0mg"},{"bike_id":"dc297730-78fa-4e16-8527-d9e6d4f89561","system_id":"levelo_inurba_marseille","lat":43.30779,"lon":5.37663,"is_reserved":false,"is_disabled":false,"rental_uris":{"android":"levelo://app?vid=dc297730-78fa-4e16-8527-d9e6d4f89561","ios":"levelo://app?vid=dc297730-78fa-4e16-8527-d9e6d4f89561"},"vehicle_type_id":"4","last_reported":1739380136,"current_range_meters":30400,"station_id":"ce4bgv92rcd13ifvqcq0","pricing_plan_id":"cebpf4jnsgd1na2vs0mg"},{"bike_id":"6477f7d9-757f-4fec-8c2c-6f528ed204dc","system_id":"levelo_inurba_marseille","lat":43.24158,"lon":5.3641,"is_reserved":false,"is_disabled":false,"rental_uris":{"android":"levelo://app?vid=6477f7d9-757f-4fec-8c2c-6f528ed204dc","ios":"levelo://app?vid=6477f7d9-757f-4fec-8c2c-6f528ed204dc"},"vehicle_type_id":"4","last_reported":1739380136,"current_range_meters":36800,"station_id":"cpo36qri1sfpv3e86is0","pricing_plan_id":"cebpf4jnsgd1na2vs0mg"},{"bike_id":"96c365f6-f32c-46e6-94f9-87384a399b55","system_id":"levelo_inurba_marseille","lat":43.28104,"lon":5.378393,"is_reserved":false,"is_disabled":false,"rental_uris":{"android":"levelo://app?vid=96c365f6-f32c-46e6-94f9-87384a399b55","ios":"levelo://app?vid=96c365f6-f32c-46e6-94f9-87384a399b55"},"vehicle_type_id":"4","last_reported":1739380136,"current_range_meters":14800,"station_id":"ce4bha12rcd13ifvqee0","pricing_plan_id":"cebpf4jnsgd1na2vs0mg"},{"bike_id":"fd778045-8e0a-4046-828f-e8502e6e30fe","system_id":"levelo_inurba_marseille","lat":43.29795,"lon":5.40394,"is_reserved":false,"is_disabled":false,"rental_uris":{"android":"levelo://app?vid=fd778045-8e0a-4046-828f-e8502e6e30fe","ios":"levelo://app?vid=fd778045-8e0a-4046-828f-e8502e6e30fe"},"vehicle_type_id":"4","last_reported":1739380136,"current_range_meters":39200,"station_id":"ce4bh112rcd13ifvqd90","pricing_plan_id":"cebpf4jnsgd1na2vs0mg"},{"bike_id":"5056a139-0a18-4cf7-b5f2-5d5036ac0e6d","system_id":"levelo_inurba_marseille","lat":43.24642,"lon":5.38894,"is_reserved":false,"is_disabled":false,"rental_uris":{"android":"levelo://app?vid=5056a139-0a18-4cf7-b5f2-5d5036ac0e6d","ios":"levelo://app?vid=5056a139-0a18-4cf7-b5f2-5d5036ac0e6d"},"vehicle_type_id":"4","last_reported":1739380136,"current_range_meters":6000,"station_id":"ce4bhg12rcd13ifvqf60","pricing_plan_id":"cebpf4jnsgd1na2vs0mg"},{"bike_id":"57eb36c1-03bc-4c1d-9270-7797b74aee05","system_id":"levelo_inurba_marseille","lat":43.27942,"lon":5.41049,"is_reserved":false,"is_disabled":false,"rental_uris":{"android":"levelo://app?vid=57eb36c1-03bc-4c1d-9270-7797b74aee05","ios":"levelo://app?vid=57eb36c1-03bc-4c1d-9270-7797b74aee05"},"vehicle_type_id":"4","last_reported":1739380136,"current_range_meters":30000,"station_id":"ce4bhnp2rcd13ifvqh0g","pricing_plan_id":"cebpf4jnsgd1na2vs0mg"},{"bike_id":"d5c70d96-d82e-42c2-b58e-ae1bce0f322b","system_id":"levelo_inurba_marseille","lat":43.24165,"lon":5.36404,"is_reserved":false,"is_disabled":false,"rental_uris":{"android":"levelo://app?vid=d5c70d96-d82e-42c2-b58e-ae1bce0f322b","ios":"levelo://app?vid=d5c70d96-d82e-42c2-b58e-ae1bce0f322b"},"vehicle_type_id":"4","last_reported":1739380136,"current_range_meters":36000,"station_id":"cpo36qri1sfpv3e86is0","pricing_plan_id":"cebpf4jnsgd1na2vs0mg"},{"bike_id":"31f84ddc-bf3b-4d1c-9d83-4ffb586bc67a","system_id":"levelo_inurba_marseille","lat":43.32105,"lon":5.36773,"is_reserved":false,"is_disabled":false,"rental_uris":{"android":"levelo://app?vid=31f84ddc-bf3b-4d1c-9d83-4ffb586bc67a","ios":"levelo://app?vid=31f84ddc-bf3b-4d1c-9d83-4ffb586bc67a"},"vehicle_type_id":"4","last_reported":1739380136,"current_range_meters":38800,"station_id":"ce4bhrh2rcd13ifvqhug","pricing_plan_id":"cebpf4jnsgd1na2vs0mg"},{"bike_id":"05c0a4be-b4f9-40ef-ab28-35f8ee6b0f67","system_id":"levelo_inurba_marseille","lat":43.29162,"lon":5.38593,"is_reserved":false,"is_disabled":true,"rental_uris":{"android":"levelo://app?vid=05c0a4be-b4f9-40ef-ab28-35f8ee6b0f67","ios":"levelo://app?vid=05c0a4be-b4f9-40ef-ab28-35f8ee6b0f67"},"vehicle_type_id":"4","last_reported":1739380136,"current_range_meters":28800,"station_id":"","pricing_plan_id":"cebpf4jnsgd1na2vs0mg"},{"bike_id":"95bea59d-9508-4e5c-9462-a6eb2b05c299","system_id":"levelo_inurba_marseille","lat":43.327878,"lon":5.433575,"is_reserved":false,"is_disabled":false,"rental_uris":{"android":"levelo://app?vid=95bea59d-9508-4e5c-9462-a6eb2b05c299","ios":"levelo://app?vid=95bea59d-9508-4e5c-9462-a6eb2b05c299"},"vehicle_type_id":"4","last_reported":1739380136,"current_range_meters":38000,"station_id":"","pricing_plan_id":"cebpf4jnsgd1na2vs0mg"},{"bike_id":"bc343752-1bf3-47af-a0af-da716de6b965","system_id":"levelo_inurba_marseille","lat":43.31317,"lon":5.36718,"is_reserved":false,"is_disabled":false,"rental_uris":{"android":"levelo://app?vid=bc343752-1bf3-47af-a0af-da716de6b965","ios":"levelo://app?vid=bc343752-1bf3-47af-a0af-da716de6b965"},"vehicle_type_id":"4","last_reported":1739380136,"current_range_meters":32000,"station_id":"ce4bgr92rcd13ifvqc6g","pricing_plan_id":"cebpf4jnsgd1na2vs0mg"},{"bike_id":"1d7ddc6a-aa01-47bd-9f4b-19acc241a934","system_id":"levelo_inurba_marseille","lat":43.29328,"lon":5.41147,"is_reserved":false,"is_disabled":false,"rental_uris":{"android":"levelo://app?vid=1d7ddc6a-aa01-47bd-9f4b-19acc241a934","ios":"levelo://app?vid=1d7ddc6a-aa01-47bd-9f4b-19acc241a934"},"vehicle_type_id":"4","last_reported":1739380136,"current_range_meters":10800,"station_id":"","pricing_plan_id":"cebpf4jnsgd1na2vs0mg"},{"bike_id":"7dde7584-0b0f-42d1-a252-d6f2f303049d","system_id":"levelo_inurba_marseille","lat":43.274419,"lon":5.394236,"is_reserved":false,"is_disabled":false,"rental_uris":{"android":"levelo://app?vid=7dde7584-0b0f-42d1-a252-d6f2f303049d","ios":"levelo://app?vid=7dde7584-0b0f-42d1-a252-d6f2f303049d"},"vehicle_type_id":"4","last_reported":1739380136,"current_range_meters":24000,"station_id":"ce4bhdp2rcd13ifvqf20","pricing_plan_id":"cebpf4jnsgd1na2vs0mg"},{"bike_id":"db715711-183b-4c2a-ae4d-b6dc163d62d4","system_id":"levelo_inurba_marseille","lat":43.30786,"lon":5.3767,"is_reserved":false,"is_disabled":true,"rental_uris":{"android":"levelo://app?vid=db715711-183b-4c2a-ae4d-b6dc163d62d4","ios":"levelo://app?vid=db715711-183b-4c2a-ae4d-b6dc163d62d4"},"vehicle_type_id":"4","last_reported":1739380136,"current_range_meters":36000,"station_id":"","pricing_plan_id":"cebpf4jnsgd1na2vs0mg"},{"bike_id":"e93e8ff2-eca3-435e-9990-0682c154abc4","system_id":"levelo_inurba_marseille","lat":43.31666,"lon":5.37254,"is_reserved":false,"is_disabled":false,"rental_uris":{"android":"levelo://app?vid=e93e8ff2-eca3-435e-9990-0682c154abc4","ios":"levelo://app?vid=e93e8ff2-eca3-435e-9990-0682c154abc4"},"vehicle_type_id":"4","last_reported":1739380136,"current_range_meters":18000,"station_id":"","pricing_plan_id":"cebpf4jnsgd1na2vs0mg"},{"bike_id":"27368f05-e09f-4247-94e3-47f3c57c4b1a","system_id":"levelo_inurba_marseille","lat":43.29848,"lon":5.36284,"is_reserved":false,"is_disabled":false,"rental_uris":{"android":"levelo://app?vid=27368f05-e09f-4247-94e3-47f3c57c4b1a","ios":"levelo://app?vid=27368f05-e09f-4247-94e3-47f3c57c4b1a"},"vehicle_type_id":"4","last_reported":1739380136,"current_range_meters":22400,"station_id":"ce4bgpp2rcd13ifvqc3g","pricing_plan_id":"cebpf4jnsgd1na2vs0mg"},{"bike_id":"65709613-27e2-4305-96f0-29f3c822995d","system_id":"levelo_inurba_marseille","lat":43.2693,"lon":5.4024,"is_reserved":false,"is_disabled":false,"rental_uris":{"android":"levelo://app?vid=65709613-27e2-4305-96f0-29f3c822995d","ios":"levelo://app?vid=65709613-27e2-4305-96f0-29f3c822995d"},"vehicle_type_id":"4","last_reported":1739380136,"current_range_meters":32400,"station_id":"cjm6bp8fraef2m0cb0m0","pricing_plan_id":"cebpf4jnsgd1na2vs0mg"},{"bike_id":"836b5888-7ab0-4ebc-96df-1c7abf70c059","system_id":"levelo_inurba_marseille","lat":43.29539,"lon":5.38537,"is_reserved":false,"is_disabled":false,"rental_uris":{"android":"levelo://app?vid=836b5888-7ab0-4ebc-96df-1c7abf70c059","ios":"levelo://app?vid=836b5888-7ab0-4ebc-96df-1c7abf70c059"},"vehicle_type_id":"4","last_reported":1739380136,"current_range_meters":35600,"station_id":"ce4bgih2rcd13ifvqba0","pricing_plan_id":"cebpf4jnsgd1na2vs0mg"},{"bike_id":"18268b26-34fc-4176-98fe-9c60e798ca3d","system_id":"levelo_inurba_marseille","lat":43.28704,"lon":5.37394,"is_reserved":false,"is_disabled":false,"rental_uris":{"android":"levelo://app?vid=18268b26-34fc-4176-98fe-9c60e798ca3d","ios":"levelo://app?vid=18268b26-34fc-4176-98fe-9c60e798ca3d"},"vehicle_type_id":"4","last_reported":1739380136,"current_range_meters":39200,"station_id":"ce4bh3p2rcd13ifvqdq0","pricing_plan_id":"cebpf4jnsgd1na2vs0mg"},{"bike_id":"50ec472d-2d05-4979-910a-497f43cedd0d","system_id":"levelo_inurba_marseille","lat":43.28668,"lon":5.38662,"is_reserved":false,"is_disabled":false,"rental_uris":{"android":"levelo://app?vid=50ec472d-2d05-4979-910a-497f43cedd0d","ios":"levelo://app?vid=50ec472d-2d05-4979-910a-497f43cedd0d"},"vehicle_type_id":"4","last_reported":1739380136,"current_range_meters":32400,"station_id":"ce4bh492rcd13ifvqdug","pricing_plan_id":"cebpf4jnsgd1na2vs0mg"},{"bike_id":"b57b5f87-43fd-4043-85f8-01c98dfd1d34","system_id":"levelo_inurba_marseille","lat":43.26212,"lon":5.37441,"is_reserved":false,"is_disabled":false,"rental_uris":{"android":"levelo://app?vid=b57b5f87-43fd-4043-85f8-01c98dfd1d34","ios":"levelo://app?vid=b57b5f87-43fd-4043-85f8-01c98dfd1d34"},"vehicle_type_id":"4","last_reported":1739380136,"current_range_meters":35600,"station_id":"ce4bhgp2rcd13ifvqfc0","pricing_plan_id":"cebpf4jnsgd1na2vs0mg"},{"bike_id":"1e67f834-edeb-4bea-9083-5dd0404faecb","system_id":"levelo_inurba_marseille","lat":43.28612,"lon":5.37052,"is_reserved":false,"is_disabled":false,"rental_uris":{"android":"levelo://app?vid=1e67f834-edeb-4bea-9083-5dd0404faecb","ios":"levelo://app?vid=1e67f834-edeb-4bea-9083-5dd0404faecb"},"vehicle_type_id":"4","last_reported":1739380136,"current_range_meters":12800,"station_id":"ce4bht12rcd13ifvqi60","pricing_plan_id":"cebpf4jnsgd1na2vs0mg"},{"bike_id":"8c0296f2-68b0-4d48-85be-6e6b53f973ac","system_id":"levelo_inurba_marseille","lat":43.23151,"lon":5.43719,"is_reserved":false,"is_disabled":false,"rental_uris":{"android":"levelo://app?vid=8c0296f2-68b0-4d48-85be-6e6b53f973ac","ios":"levelo://app?vid=8c0296f2-68b0-4d48-85be-6e6b53f973ac"},"vehicle_type_id":"4","last_reported":1739380136,"current_range_meters":15200,"station_id":"ce4bhmp2rcd13ifvqgog","pricing_plan_id":"cebpf4jnsgd1na2vs0mg"},{"bike_id":"af536b0b-58ac-4a0b-9601-c7195bf5c90e","system_id":"levelo_inurba_marseille","lat":43.23064,"lon":5.35492,"is_reserved":false,"is_disabled":false,"rental_uris":{"android":"levelo://app?vid=af536b0b-58ac-4a0b-9601-c7195bf5c90e","ios":"levelo://app?vid=af536b0b-58ac-4a0b-9601-c7195bf5c90e"},"vehicle_type_id":"4","last_reported":1739380136,"current_range_meters":36400,"station_id":"cpo3342slgdg3j2ifvpg","pricing_plan_id":"cebpf4jnsgd1na2vs0mg"},{"bike_id":"564dbad2-4be2-4be2-b85e-8c57022c56a0","system_id":"levelo_inurba_marseille","lat":43.26789,"lon":5.39405,"is_reserved":false,"is_disabled":false,"rental_uris":{"android":"levelo://app?vid=564dbad2-4be2-4be2-b85e-8c57022c56a0","ios":"levelo://app?vid=564dbad2-4be2-4be2-b85e-8c57022c56a0"},"vehicle_type_id":"4","last_reported":1739380136,"current_range_meters":11200,"station_id":"ce4bhh12rcd13ifvqfg0","pricing_plan_id":"cebpf4jnsgd1na2vs0mg"},{"bike_id":"f729b3f0-f9a7-4324-9fe2-97a718c88fb3","system_id":"levelo_inurba_marseille","lat":43.23963,"lon":5.36628,"is_reserved":false,"is_disabled":false,"rental_uris":{"android":"levelo://app?vid=f729b3f0-f9a7-4324-9fe2-97a718c88fb3","ios":"levelo://app?vid=f729b3f0-f9a7-4324-9fe2-97a718c88fb3"},"vehicle_type_id":"4","last_reported":1739380136,"current_range_meters":17200,"station_id":"ce4bhi12rcd13ifvqfp0","pricing_plan_id":"cebpf4jnsgd1na2vs0mg"},{"bike_id":"89cffc2a-f0c2-4450-8667-edd05e78eaee","system_id":"levelo_inurba_marseille","lat":43.30648,"lon":5.40084,"is_reserved":false,"is_disabled":false,"rental_uris":{"android":"levelo://app?vid=89cffc2a-f0c2-4450-8667-edd05e78eaee","ios":"levelo://app?vid=89cffc2a-f0c2-4450-8667-edd05e78eaee"},"vehicle_type_id":"4","last_reported":1739380136,"current_range_meters":19200,"station_id":"ce4bh112rcd13ifvqda0","pricing_plan_id":"cebpf4jnsgd1na2vs0mg"},{"bike_id":"16b312f6-7e08-462a-91eb-e81516dd320e","system_id":"levelo_inurba_marseille","lat":43.2815,"lon":5.42639,"is_reserved":false,"is_disabled":false,"rental_uris":{"android":"levelo://app?vid=16b312f6-7e08-462a-91eb-e81516dd320e","ios":"levelo://app?vid=16b312f6-7e08-462a-91eb-e81516dd320e"},"vehicle_type_id":"4","last_reported":1739380136,"current_range_meters":8400,"station_id":"ce4bhnh2rcd13ifvqgug","pricing_plan_id":"cebpf4jnsgd1na2vs0mg"},{"bike_id":"6581a283-5e04-4ab5-8030-a3fd460a1ffa","system_id":"levelo_inurba_marseille","lat":43.29521,"lon":5.39051,"is_reserved":false,"is_disabled":false,"rental_uris":{"android":"levelo://app?vid=6581a283-5e04-4ab5-8030-a3fd460a1ffa","ios":"levelo://app?vid=6581a283-5e04-4ab5-8030-a3fd460a1ffa"},"vehicle_type_id":"4","last_reported":1739380136,"current_range_meters":13600,"station_id":"ce4bh3p2rcd13ifvqdp0","pricing_plan_id":"cebpf4jnsgd1na2vs0mg"},{"bike_id":"97a4d390-669f-44ae-a132-2af336161ca6","system_id":"levelo_inurba_marseille","lat":43.24806,"lon":5.3746,"is_reserved":false,"is_disabled":false,"rental_uris":{"android":"levelo://app?vid=97a4d390-669f-44ae-a132-2af336161ca6","ios":"levelo://app?vid=97a4d390-669f-44ae-a132-2af336161ca6"},"vehicle_type_id":"4","last_reported":1739380136,"current_range_meters":30800,"station_id":"ce4bhgh2rcd13ifvqfb0","pricing_plan_id":"cebpf4jnsgd1na2vs0mg"},{"bike_id":"e032b666-fd60-4216-a54c-3537b935092d","system_id":"levelo_inurba_marseille","lat":43.2955,"lon":5.42297,"is_reserved":false,"is_disabled":false,"rental_uris":{"android":"levelo://app?vid=e032b666-fd60-4216-a54c-3537b935092d","ios":"levelo://app?vid=e032b666-fd60-4216-a54c-3537b935092d"},"vehicle_type_id":"4","last_reported":1739380136,"current_range_meters":19200,"station_id":"ce4bhph2rcd13ifvqhdg","pricing_plan_id":"cebpf4jnsgd1na2vs0mg"},{"bike_id":"5b27e8a9-2597-44fb-afd1-686a568c0837","system_id":"levelo_inurba_marseille","lat":43.30323,"lon":5.36896,"is_reserved":false,"is_disabled":false,"rental_uris":{"android":"levelo://app?vid=5b27e8a9-2597-44fb-afd1-686a568c0837","ios":"levelo://app?vid=5b27e8a9-2597-44fb-afd1-686a568c0837"},