{"last_updated":1690646842,"ttl":30,"version":"2.2","data":{"bikes":[{"bike_id":"6919b2c8-2aaa-4cc0-a7fd-1815057bf249","system_id":"levelo_inurba_marseille","lat":43.31341,"lon":5.367098,"is_reserved":false,"is_disabled":false,"rental_uris":{"android":"levelo://app?vid=6919b2c8-2aaa-4cc0-a7fd-1815057bf249","ios":"levelo://app?vid=6919b2c8-2aaa-4cc0-a7fd-1815057bf249"},"vehicle_type_id":"4","last_reported":1690646842,"current_range_meters":30400,"station_id":"ce4bgr92rcd13ifvqc6g","pricing_plan_id":"free"},{"bike_id":"5358432c-5238-48cc-a2df-d2efc6a24932","system_id":"levelo_inurba_marseille","lat":43.313391,"lon":5.36706,"is_reserved":false,"is_disabled":false,"rental_uris":{"android":"levelo://app?vid=5358432c-5238-48cc-a2df-d2efc6a24932","ios":"levelo://app?vid=5358432c-5238-48cc-a2df-d2efc6a24932"},"vehicle_type_id":"4","last_reported":1690646842,"current_range_meters":16400,"station_id":"ce4bgr92rcd13ifvqc6g","pricing_plan_id":"free"},{"bike_id":"96728249-39f7-4740-81be-01ce45f0a0b2","system_id":"levelo_inurba_marseille","lat":43.313391,"lon":5.36706,"is_reserved":false,"is_disabled":false,"rental_uris":{"android":"levelo://app?vid=96728249-39f7-4740-81be-01ce45f0a0b2","ios":"levelo://app?vid=96728249-39f7-4740-81be-01ce45f0a0b2"},"vehicle_type_id":"4","last_reported":1690646842,"current_range_meters":30400,"station_id":"ce4bgr92rcd13ifvqc6g","pricing_plan_id":"free"},{"bike_id":"94678323-dba6-4f3f-95b9-c3de6c534cc1","system_id":"levelo_inurba_marseille","lat":43.31341,"lon":5.367098,"is_reserved":false,"is_disabled":false,"rental_uris":{"android":"levelo://app?vid=94678323-dba6-4f3f-95b9-c3de6c534cc1","ios":"levelo://app?vid=94678323-dba6-4f3f-95b9-c3de6c534cc1"},"vehicle_type_id":"4","last_reported":1690646842,"current_range_meters":29200,"station_id":"ce4bgr92rcd13ifvqc6g","pricing_plan_id":"free"},{"bike_id":"cfb186af-3014-4ad7-b593-797b1a3ee359","system_id":"levelo_inurba_marseille","lat":43.313391,"lon":5.36706,"is_reserved":false,"is_disabled":false,"rental_uris":{"android":"levelo://app?vid=cfb186af-3014-4ad7-b593-797b1a3ee359","ios":"levelo://app?vid=cfb186af-3014-4ad7-b593-797b1a3ee359"},"vehicle_type_id":"4","last_reported":1690646842,"current_range_meters":31600,"station_id":"ce4bgr92rcd13ifvqc6g","pricing_plan_id":"free"},{"bike_id":"0ff66791-6bc9-4af5-a447-38ebba77f167","system_id":"levelo_inurba_marseille","lat":43.31222,"lon":5.36858,"is_reserved":false,"is_disabled":false,"rental_uris":{"android":"levelo://app?vid=0ff66791-6bc9-4af5-a447-38ebba77f167","ios":"levelo://app?vid=0ff66791-6bc9-4af5-a447-38ebba77f167"},"vehicle_type_id":"4","last_reported":1690646842,"current_range_meters":13200,"station_id":"ce4bgl92rcd13ifvqbq0","pricing_plan_id":"free"},{"bike_id":"e526d4e2-849c-44ae-a0d7-5572a62df909","system_id":"levelo_inurba_marseille","lat":43.312239,"lon":5.368562,"is_reserved":false,"is_disabled":false,"rental_uris":{"android":"levelo://app?vid=e526d4e2-849c-44ae-a0d7-5572a62df909","ios":"levelo://app?vid=e526d4e2-849c-44ae-a0d7-5572a62df909"},"vehicle_type_id":"4","last_reported":1690646842,"current_range_meters":28000,"station_id":"ce4bgl92rcd13ifvqbq0","pricing_plan_id":"free"},{"bike_id":"5bb813d4-b8c6-4ba7-a5dc-9742e97abe9b","system_id":"levelo_inurba_marseille","lat":43.31222,"lon":5.36866,"is_reserved":false,"is_disabled":false,"rental_uris":{"android":"levelo://app?vid=5bb813d4-b8c6-4ba7-a5dc-9742e97abe9b","ios":"levelo://app?vid=5bb813d4-b8c6-4ba7-a5dc-9742e97abe9b"},"vehicle_type_id":"4","last_reported":1690646842,"current_range_meters":16800,"station_id":"ce4bgl92rcd13ifvqbq0","pricing_plan_id":"free"},{"bike_id":"2a64066a-89f5-482f-b660-4a96f3b7764b","system_id":"levelo_inurba_marseille","lat":43.31222,"lon":5.36869,"is_reserved":false,"is_disabled":false,"rental_uris":{"android":"levelo://app?vid=2a64066a-89f5-482f-b660-4a96f3b7764b","ios":"levelo://app?vid=2a64066a-89f5-482f-b660-4a96f3b7764b"},"vehicle_type_id":"4","last_reported":1690646842,"current_range_meters":18000,"station_id":"ce4bgl92rcd13ifvqbq0","pricing_plan_id":"free"},{"bike_id":"6ab12f76-9fde-4ecd-a187-1a0490e447f9","system_id":"levelo_inurba_marseille","lat":43.31218,"lon":5.36875,"is_reserved":false,"is_disabled":false,"rental_uris":{"android":"levelo://app?vid=6ab12f76-9fde-4ecd-a187-1a0490e447f9","ios":"levelo://app?vid=6ab12f76-9fde-4ecd-a187-1a0490e447f9"},"vehicle_type_id":"4","last_reported":1690646842,"current_range_meters":6000,"station_id":"ce4bgl92rcd13ifvqbq0","pricing_plan_id":"free"},{"bike_id":"7a17406e-dbd3-4517-8eef-2bad06f55d8c","system_id":"levelo_inurba_marseille","lat":43.31226,"lon":5.36898,"is_reserved":false,"is_disabled":false,"rental_uris":{"android":"levelo://app?vid=7a17406e-dbd3-4517-8eef-2bad06f55d8c","ios":"levelo://app?vid=7a17406e-dbd3-4517-8eef-2bad06f55d8c"},"vehicle_type_id":"4","last_reported":1690646842,"current_range_meters":22800,"station_id":"ce4bgl92rcd13ifvqbq0","pricing_plan_id":"free"},{"bike_id":"a0b02714-a650-436b-a157-3d9c8751a27b","system_id":"levelo_inurba_marseille","lat":43.309076,"lon":5.368465,"is_reserved":false,"is_disabled":false,"rental_uris":{"android":"levelo://app?vid=a0b02714-a650-436b-a157-3d9c8751a27b","ios":"levelo://app?vid=a0b02714-a650-436b-a157-3d9c8751a27b"},"vehicle_type_id":"4","last_reported":1690646842,"current_range_meters":3600,"station_id":"ce4bgn92rcd13ifvqbvg","pricing_plan_id":"free"},{"bike_id":"a0c56513-bd0f-48c9-a72c-061a2da4896e","system_id":"levelo_inurba_marseille","lat":43.309076,"lon":5.368465,"is_reserved":false,"is_disabled":false,"rental_uris":{"android":"levelo://app?vid=a0c56513-bd0f-48c9-a72c-061a2da4896e","ios":"levelo://app?vid=a0c56513-bd0f-48c9-a72c-061a2da4896e"},"vehicle_type_id":"4","last_reported":1690646842,"current_range_meters":14400,"station_id":"ce4bgn92rcd13ifvqbvg","pricing_plan_id":"free"},{"bike_id":"49bbc52a-d1cc-4dc9-9993-39eefb147f9a","system_id":"levelo_inurba_marseille","lat":43.309076,"lon":5.368465,"is_reserved":false,"is_disabled":false,"rental_uris":{"android":"levelo://app?vid=49bbc52a-d1cc-4dc9-9993-39eefb147f9a","ios":"levelo://app?vid=49bbc52a-d1cc-4dc9-9993-39eefb147f9a"},"vehicle_type_id":"4","last_reported":1690646842,"current_range_meters":20800,"station_id":"ce4bgn92rcd13ifvqbvg","pricing_plan_id":"free"},{"bike_id":"c1f845f2-7b1e-4e2e-9aae-dd665d48848e","system_id":"levelo_inurba_marseille","lat":43.309076,"lon":5.368465,"is_reserved":false,"is_disabled":false,"rental_uris":{"android":"levelo://app?vid=c1f845f2-7b1e-4e2e-9aae-dd665d48848e","ios":"levelo://app?vid=c1f845f2-7b1e-4e2e-9aae-dd665d48848e"},"vehicle_type_id":"4","last_reported":1690646842,"current_range_meters":12400,"station_id":"ce4bgn92rcd13ifvqbvg","pricing_plan_id":"free"},{"bike_id":"6adaca5a-5e1d-4d4a-bbae-6946f1c55170","system_id":"levelo_inurba_marseille","lat":43.309076,"lon":5.368465,"is_reserved":false,"is_disabled":false,"rental_uris":{"android":"levelo://app?vid=6adaca5a-5e1d-4d4a-bbae-6946f1c55170","ios":"levelo://app?vid=6adaca5a-5e1d-4d4a-bbae-6946f1c55170"},"vehicle_type_id":"4","last_reported":1690646842,"current_range_meters":28400,"station_id":"ce4bgn92rcd13ifvqbvg","pricing_plan_id":"free"},{"bike_id":"4e55bb98-4735-4fba-814d-5ce42caa0523","system_id":"levelo_inurba_marseille","lat":43.309076,"lon":5.368465,"is_reserved":false,"is_disabled":false,"rental_uris":{"android":"levelo://app?vid=4e55bb98-4735-4fba-814d-5ce42caa0523","ios":"levelo://app?vid=4e55bb98-4735-4fba-814d-5ce42caa0523"},"vehicle_type_id":"4","last_reported":1690646842,"current_range_meters":28800,"station_id":"ce4bgn92rcd13ifvqbvg","pricing_plan_id":"free"},{"bike_id":"b82576a2-e0bc-4a01-9fe4-31b488946cb5","system_id":"levelo_inurba_marseille","lat":43.314811,"lon":5.373103,"is_reserved":false,"is_disabled":false,"rental_uris":{"android":"levelo://app?vid=b82576a2-e0bc-4a01-9fe4-31b488946cb5","ios":"levelo://app?vid=b82576a2-e0bc-4a01-9fe4-31b488946cb5"},"vehicle_type_id":"4","last_reported":1690646842,"current_range_meters":29600,"station_id":"ce4bgt12rcd13ifvqcd0","pricing_plan_id":"free"},{"bike_id":"a474ad3f-1c02-4bd4-8cef-0ae48efcfa15","system_id":"levelo_inurba_marseille","lat":43.314811,"lon":5.373103,"is_reserved":false,"is_disabled":false,"rental_uris":{"android":"levelo://app?vid=a474ad3f-1c02-4bd4-8cef-0ae48efcfa15","ios":"levelo://app?vid=a474ad3f-1c02-4bd4-8cef-0ae48efcfa15"},"vehicle_type_id":"4","last_reported":1690646842,"current_range_meters":31200,"station_id":"ce4bgt12rcd13ifvqcd0","pricing_plan_id":"free"},{"bike_id":"7fbe95ba-5540-4dd3-bfbb-6d93c58fbf7f","system_id":"levelo_inurba_marseille","lat":43.314811,"lon":5.373103,"is_reserved":false,"is_disabled":false,"rental_uris":{"android":"levelo://app?vid=7fbe95ba-5540-4dd3-bfbb-6d93c58fbf7f","ios":"levelo://app?vid=7fbe95ba-5540-4dd3-bfbb-6d93c58fbf7f"},"vehicle_type_id":"4","last_reported":1690646842,"current_range_meters":28000,"station_id":"ce4bgt12rcd13ifvqcd0","pricing_plan_id":"free"},{"bike_id":"bf77612f-8d54-423c-9155-03aab093be5c","system_id":"levelo_inurba_marseille","lat":43.314811,"lon":5.373103,"is_reserved":false,"is_disabled":false,"rental_uris":{"android":"levelo://app?vid=bf77612f-8d54-423c-9155-03aab093be5c","ios":"levelo://app?vid=bf77612f-8d54-423c-9155-03aab093be5c"},"vehicle_type_id":"4","last_reported":1690646842,"current_range_meters":25600,"station_id":"ce4bgt12rcd13ifvqcd0","pricing_plan_id":"free"},{"bike_id":"5cf8e82b-5121-4436-b59c-fbea86df3a57","system_id":"levelo_inurba_marseille","lat":43.31549,"lon":5.37301,"is_reserved":false,"is_disabled":false,"rental_uris":{"android":"levelo://app?vid=5cf8e82b-5121-4436-b59c-fbea86df3a57","ios":"levelo://app?vid=5cf8e82b-5121-4436-b59c-fbea86df3a57"},"vehicle_type_id":"4","last_reported":1690646842,"current_range_meters":20800,"station_id":"","pricing_plan_id":"free"},{"bike_id":"e553ca2c-0b6d-4858-b0e8-a1b48fd956c8","system_id":"levelo_inurba_marseille","lat":43.309039,"lon":5.371797,"is_reserved":false,"is_disabled":false,"rental_uris":{"android":"levelo://app?vid=e553ca2c-0b6d-4858-b0e8-a1b48fd956c8","ios":"levelo://app?vid=e553ca2c-0b6d-4858-b0e8-a1b48fd956c8"},"vehicle_type_id":"4","last_reported":1690646842,"current_range_meters":18400,"station_id":"ce4bguh2rcd13ifvqckg","pricing_plan_id":"free"},{"bike_id":"0817411e-5ddb-4136-ae6b-13fc4331e9dd","system_id":"levelo_inurba_marseille","lat":43.305706,"lon":5.365654,"is_reserved":false,"is_disabled":false,"rental_uris":{"android":"levelo://app?vid=0817411e-5ddb-4136-ae6b-13fc4331e9dd","ios":"levelo://app?vid=0817411e-5ddb-4136-ae6b-13fc4331e9dd"},"vehicle_type_id":"4","last_reported":1690646842,"current_range_meters":23200,"station_id":"ce4bgs12rcd13ifvqcag","pricing_plan_id":"free"},{"bike_id":"f20ea888-8740-440b-bfeb-8eb2a7c1f652","system_id":"levelo_inurba_marseille","lat":43.305989,"lon":5.37225,"is_reserved":false,"is_disabled":false,"rental_uris":{"android":"levelo://app?vid=f20ea888-8740-440b-bfeb-8eb2a7c1f652","ios":"levelo://app?vid=f20ea888-8740-440b-bfeb-8eb2a7c1f652"},"vehicle_type_id":"4","last_reported":1690646842,"current_range_meters":29600,"station_id":"ce4bgqh2rcd13ifvqc4g","pricing_plan_id":"free"},{"bike_id":"149e7008-eceb-4bef-959a-9be854872efa","system_id":"levelo_inurba_marseille","lat":43.311124,"lon":5.3776,"is_reserved":false,"is_disabled":false,"rental_uris":{"android":"levelo://app?vid=149e7008-eceb-4bef-959a-9be854872efa","ios":"levelo://app?vid=149e7008-eceb-4bef-959a-9be854872efa"},"vehicle_type_id":"4","last_reported":1690646842,"current_range_meters":18000,"station_id":"ce4bgt92rcd13ifvqcg0","pricing_plan_id":"free"},{"bike_id":"d8ac299b-7b85-4e93-8aa7-2e6be63e5689","system_id":"levelo_inurba_marseille","lat":43.317075,"lon":5.377367,"is_reserved":false,"is_disabled":false,"rental_uris":{"android":"levelo://app?vid=d8ac299b-7b85-4e93-8aa7-2e6be63e5689","ios":"levelo://app?vid=d8ac299b-7b85-4e93-8aa7-2e6be63e5689"},"vehicle_type_id":"4","last_reported":1690646842,"current_range_meters":31200,"station_id":"ce4bgth2rcd13ifvqch0","pricing_plan_id":"free"},{"bike_id":"4e9ce199-97b7-4738-8ca8-7d142b671092","system_id":"levelo_inurba_marseille","lat":43.317075,"lon":5.377367,"is_reserved":false,"is_disabled":false,"rental_uris":{"android":"levelo://app?vid=4e9ce199-97b7-4738-8ca8-7d142b671092","ios":"levelo://app?vid=4e9ce199-97b7-4738-8ca8-7d142b671092"},"vehicle_type_id":"4","last_reported":1690646842,"current_range_meters":24400,"station_id":"ce4bgth2rcd13ifvqch0","pricing_plan_id":"free"},{"bike_id":"f2f804a2-cd8f-4ead-82dc-29a77c1e036f","system_id":"levelo_inurba_marseille","lat":43.317075,"lon":5.377367,"is_reserved":false,"is_disabled":false,"rental_uris":{"android":"levelo://app?vid=f2f804a2-cd8f-4ead-82dc-29a77c1e036f","ios":"levelo://app?vid=f2f804a2-cd8f-4ead-82dc-29a77c1e036f"},"vehicle_type_id":"4","last_reported":1690646842,"current_range_meters":13600,"station_id":"ce4bgth2rcd13ifvqch0","pricing_plan_id":"free"},{"bike_id":"3b69d8cb-a3e6-4b29-b50f-b8548dcc2195","system_id":"levelo_inurba_marseille","lat":43.317075,"lon":5.377367,"is_reserved":false,"is_disabled":false,"rental_uris":{"android":"levelo://app?vid=3b69d8cb-a3e6-4b29-b50f-b8548dcc2195","ios":"levelo://app?vid=3b69d8cb-a3e6-4b29-b50f-b8548dcc2195"},"vehicle_type_id":"4","last_reported":1690646842,"current_range_meters":8800,"station_id":"ce4bgth2rcd13ifvqch0","pricing_plan_id":"free"},{"bike_id":"54e8bbd0-88aa-4ddb-a483-d897b5ef40d7","system_id":"levelo_inurba_marseille","lat":43.317075,"lon":5.377367,"is_reserved":false,"is_disabled":false,"rental_uris":{"android":"levelo://app?vid=54e8bbd0-88aa-4ddb-a483-d897b5ef40d7","ios":"levelo://app?vid=54e8bbd0-88aa-4ddb-a483-d897b5ef40d7"},"vehicle_type_id":"4","last_reported":1690646842,"current_range_meters":26400,"station_id":"ce4bgth2rcd13ifvqch0","pricing_plan_id":"free"},{"bike_id":"2aa6be64-bf3e-4b13-b0cb-6a0c4ef23979","system_id":"levelo_inurba_marseille","lat":43.317075,"lon":5.377367,"is_reserved":false,"is_disabled":false,"rental_uris":{"android":"levelo://app?vid=2aa6be64-bf3e-4b13-b0cb-6a0c4ef23979","ios":"levelo://app?vid=2aa6be64-bf3e-4b13-b0cb-6a0c4ef23979"},"vehicle_type_id":"4","last_reported":1690646842,"current_range_meters":31600,"station_id":"ce4bgth2rcd13ifvqch0","pricing_plan_id":"free"},{"bike_id":"19f08f2b-e2c5-45aa-b1a4-e2d3edfdf669","system_id":"levelo_inurba_marseille","lat":43.317075,"lon":5.377367,"is_reserved":false,"is_disabled":false,"rental_uris":{"android":"levelo://app?vid=19f08f2b-e2c5-45aa-b1a4-e2d3edfdf669","ios":"levelo://app?vid=19f08f2b-e2c5-45aa-b1a4-e2d3edfdf669"},"vehicle_type_id":"4","last_reported":1690646842,"current_range_meters":5600,"station_id":"ce4bgth2rcd13ifvqch0","pricing_plan_id":"free"},{"bike_id":"44127fb0-4cdf-41d6-b512-7855bd8562b6","system_id":"levelo_inurba_marseille","lat":43.30309,"lon":5.36896,"is_reserved":false,"is_disabled":false,"rental_uris":{"android":"levelo://app?vid=44127fb0-4cdf-41d6-b512-7855bd8562b6","ios":"levelo://app?vid=44127fb0-4cdf-41d6-b512-7855bd8562b6"},"vehicle_type_id":"4","last_reported":1690646842,"current_range_meters":22000,"station_id":"ce4bgqh2rcd13ifvqc5g","pricing_plan_id":"free"},{"bike_id":"9e14f3c9-aa60-4300-8ae4-9ce922be5e12","system_id":"levelo_inurba_marseille","lat":43.301939,"lon":5.366286,"is_reserved":false,"is_disabled":false,"rental_uris":{"android":"levelo://app?vid=9e14f3c9-aa60-4300-8ae4-9ce922be5e12","ios":"levelo://app?vid=9e14f3c9-aa60-4300-8ae4-9ce922be5e12"},"vehicle_type_id":"4","last_reported":1690646842,"current_range_meters":20800,"station_id":"ce4bgrh2rcd13ifvqc8g","pricing_plan_id":"free"},{"bike_id":"4eacd443-567f-4df0-8afe-2999e9f4b1d4","system_id":"levelo_inurba_marseille","lat":43.299348,"lon":5.365581,"is_reserved":false,"is_disabled":false,"rental_uris":{"android":"levelo://app?vid=4eacd443-567f-4df0-8afe-2999e9f4b1d4","ios":"levelo://app?vid=4eacd443-567f-4df0-8afe-2999e9f4b1d4"},"vehicle_type_id":"4","last_reported":1690646842,"current_range_meters":21200,"station_id":"ce4bgm92rcd13ifvqbr0","pricing_plan_id":"free"},{"bike_id":"00987b4a-0f66-4b9a-a061-1efd0d485aa1","system_id":"levelo_inurba_marseille","lat":43.299222,"lon":5.365554,"is_reserved":false,"is_disabled":false,"rental_uris":{"android":"levelo://app?vid=00987b4a-0f66-4b9a-a061-1efd0d485aa1","ios":"levelo://app?vid=00987b4a-0f66-4b9a-a061-1efd0d485aa1"},"vehicle_type_id":"4","last_reported":1690646842,"current_range_meters":16000,"station_id":"ce4bgm92rcd13ifvqbr0","pricing_plan_id":"free"},{"bike_id":"30537d43-af02-4a10-b928-7b9b8cf633d2","system_id":"levelo_inurba_marseille","lat":43.30545,"lon":5.38418,"is_reserved":false,"is_disabled":false,"rental_uris":{"android":"levelo://app?vid=30537d43-af02-4a10-b928-7b9b8cf633d2","ios":"levelo://app?vid=30537d43-af02-4a10-b928-7b9b8cf633d2"},"vehicle_type_id":"4","last_reported":1690646842,"current_range_meters":31200,"station_id":"ce4bgg92rcd13ifvqb30","pricing_plan_id":"free"},{"bike_id":"f9e5a687-16a4-4d63-9a1e-ccfbf5f361ee","system_id":"levelo_inurba_marseille","lat":43.299243,"lon":5.37481,"is_reserved":false,"is_disabled":false,"rental_uris":{"android":"levelo://app?vid=f9e5a687-16a4-4d63-9a1e-ccfbf5f361ee","ios":"levelo://app?vid=f9e5a687-16a4-4d63-9a1e-ccfbf5f361ee"},"vehicle_type_id":"4","last_reported":1690646842,"current_range_meters":0,"station_id":"ce4bgjh2rcd13ifvqbg0","pricing_plan_id":"free"},{"bike_id":"7d93db3e-f671-48f4-94e3-685ee1d156e5","system_id":"levelo_inurba_marseille","lat":43.311722,"lon":5.387247,"is_reserved":false,"is_disabled":false,"rental_uris":{"android":"levelo://app?vid=7d93db3e-f671-48f4-94e3-685ee1d156e5","ios":"levelo://app?vid=7d93db3e-f671-48f4-94e3-685ee1d156e5"},"vehicle_type_id":"4","last_reported":1690646842,"current_range_meters":12400,"station_id":"ce4bgv12rcd13ifvqcp0","pricing_plan_id":"free"},{"bike_id":"fead3f1e-e9e6-4830-9da4-e98cba309113","system_id":"levelo_inurba_marseille","lat":43.32287,"lon":5.38264,"is_reserved":false,"is_disabled":false,"rental_uris":{"android":"levelo://app?vid=fead3f1e-e9e6-4830-9da4-e98cba309113","ios":"levelo://app?vid=fead3f1e-e9e6-4830-9da4-e98cba309113"},"vehicle_type_id":"4","last_reported":1690646842,"current_range_meters":16000,"station_id":"ce4bhr12rcd13ifvqhqg","pricing_plan_id":"free"},{"bike_id":"3641a761-0636-4e0b-b047-72e86565129d","system_id":"levelo_inurba_marseille","lat":43.32282,"lon":5.38281,"is_reserved":false,"is_disabled":false,"rental_uris":{"android":"levelo://app?vid=3641a761-0636-4e0b-b047-72e86565129d","ios":"levelo://app?vid=3641a761-0636-4e0b-b047-72e86565129d"},"vehicle_type_id":"4","last_reported":1690646842,"current_range_meters":27600,"station_id":"ce4bhr12rcd13ifvqhqg","pricing_plan_id":"free"},{"bike_id":"a196dbb0-0ca2-44b0-8b03-b7d3a734d20c","system_id":"levelo_inurba_marseille","lat":43.32289,"lon":5.38276,"is_reserved":false,"is_disabled":false,"rental_uris":{"android":"levelo://app?vid=a196dbb0-0ca2-44b0-8b03-b7d3a734d20c","ios":"levelo://app?vid=a196dbb0-0ca2-44b0-8b03-b7d3a734d20c"},"vehicle_type_id":"4","last_reported":1690646842,"current_range_meters":29200,"station_id":"ce4bhr12rcd13ifvqhqg","pricing_plan_id":"free"},{"bike_id":"82f1e03d-e4c3-4aac-b6f0-c9fc3950fe62","system_id":"levelo_inurba_marseille","lat":43.322948,"lon":5.3827,"is_reserved":false,"is_disabled":false,"rental_uris":{"android":"levelo://app?vid=82f1e03d-e4c3-4aac-b6f0-c9fc3950fe62","ios":"levelo://app?vid=82f1e03d-e4c3-4aac-b6f0-c9fc3950fe62"},"vehicle_type_id":"4","last_reported":1690646842,"current_range_meters":24400,"station_id":"","pricing_plan_id":"free"},{"bike_id":"79bf6da4-5f08-488b-96b1-6e23f74ec5ec","system_id":"levelo_inurba_marseille","lat":43.322872,"lon":5.382756,"is_reserved":false,"is_disabled":false,"rental_uris":{"android":"levelo://app?vid=79bf6da4-5f08-488b-96b1-6e23f74ec5ec","ios":"levelo://app?vid=79bf6da4-5f08-488b-96b1-6e23f74ec5ec"},"vehicle_type_id":"4","last_reported":1690646842,"current_range_meters":16000,"station_id":"ce4bhr12rcd13ifvqhqg","pricing_plan_id":"free"},{"bike_id":"43f29afe-2f20-40a4-8d93-c86256f6bd58","system_id":"levelo_inurba_marseille","lat":43.32822,"lon":5.36694,"is_reserved":false,"is_disabled":false,"rental_uris":{"android":"levelo://app?vid=43f29afe-2f20-40a4-8d93-c86256f6bd58","ios":"levelo://app?vid=43f29afe-2f20-40a4-8d93-c86256f6bd58"},"vehicle_type_id":"4","last_reported":1690646842,"current_range_meters":20400,"station_id":"ce4bhs92rcd13ifvqi0g","pricing_plan_id":"free"},{"bike_id":"5b4ea449-8884-4c80-80f7-38ae4af1bc0a","system_id":"levelo_inurba_marseille","lat":43.328371,"lon":5.366909,"is_reserved":false,"is_disabled":false,"rental_uris":{"android":"levelo://app?vid=5b4ea449-8884-4c80-80f7-38ae4af1bc0a","ios":"levelo://app?vid=5b4ea449-8884-4c80-80f7-38ae4af1bc0a"},"vehicle_type_id":"4","last_reported":1690646842,"current_range_meters":30400,"station_id":"ce4bhs92rcd13ifvqi0g","pricing_plan_id":"free"},{"bike_id":"c72ce1d8-c1fd-419a-9fc0-9ddeb92b3914","system_id":"levelo_inurba_marseille","lat":43.32825,"lon":5.36677,"is_reserved":false,"is_disabled":false,"rental_uris":{"android":"levelo://app?vid=c72ce1d8-c1fd-419a-9fc0-9ddeb92b3914","ios":"levelo://app?vid=c72ce1d8-c1fd-419a-9fc0-9ddeb92b3914"},"vehicle_type_id":"4","last_reported":1690646842,"current_range_meters":18800,"station_id":"ce4bhs92rcd13ifvqi0g","pricing_plan_id":"free"},{"bike_id":"69e6e336-3b68-498d-96d3-e09d5c464444","system_id":"levelo_inurba_marseille","lat":43.32827,"lon":5.36683,"is_reserved":false,"is_disabled":false,"rental_uris":{"android":"levelo://app?vid=69e6e336-3b68-498d-96d3-e09d5c464444","ios":"levelo://app?vid=69e6e336-3b68-498d-96d3-e09d5c464444"},"vehicle_type_id":"4","last_reported":1690646842,"current_range_meters":24000,"station_id":"ce4bhs92rcd13ifvqi0g","pricing_plan_id":"free"},{"bike_id":"3f56ab11-c8db-4856-8929-e236d19fea1e","system_id":"levelo_inurba_marseille","lat":43.328371,"lon":5.366909,"is_reserved":false,"is_disabled":false,"rental_uris":{"android":"levelo://app?vid=3f56ab11-c8db-4856-8929-e236d19fea1e","ios":"levelo://app?vid=3f56ab11-c8db-4856-8929-e236d19fea1e"},"vehicle_type_id":"4","last_reported":1690646842,"current_range_meters":4800,"station_id":"ce4bhs92rcd13ifvqi0g","pricing_plan_id":"free"},{"bike_id":"dd789220-e7b5-42c1-b9dc-dc4243148021","system_id":"levelo_inurba_marseille","lat":43.297163,"lon":5.365866,"is_reserved":false,"is_disabled":false,"rental_uris":{"android":"levelo://app?vid=dd789220-e7b5-42c1-b9dc-dc4243148021","ios":"levelo://app?vid=dd789220-e7b5-42c1-b9dc-dc4243148021"},"vehicle_type_id":"4","last_reported":1690646842,"current_range_meters":32000,"station_id":"ce4bgn12rcd13ifvqbt0","pricing_plan_id":"free"},{"bike_id":"d6c46053-6895-4f5f-b0f6-163bcd7ab101","system_id":"levelo_inurba_marseille","lat":43.297163,"lon":5.365866,"is_reserved":false,"is_disabled":false,"rental_uris":{"android":"levelo://app?vid=d6c46053-6895-4f5f-b0f6-163bcd7ab101","ios":"levelo://app?vid=d6c46053-6895-4f5f-b0f6-163bcd7ab101"},"vehicle_type_id":"4","last_reported":1690646842,"current_range_meters":19600,"station_id":"ce4bgn12rcd13ifvqbt0","pricing_plan_id":"free"},{"bike_id":"11fe3c79-07b7-4aa4-9564-131af3db107a","system_id":"levelo_inurba_marseille","lat":43.297163,"lon":5.365866,"is_reserved":false,"is_disabled":false,"rental_uris":{"android":"levelo://app?vid=11fe3c79-07b7-4aa4-9564-131af3db107a","ios":"levelo://app?vid=11fe3c79-07b7-4aa4-9564-131af3db107a"},"vehicle_type_id":"4","last_reported":1690646842,"current_range_meters":20400,"station_id":"ce4bgn12rcd13ifvqbt0","pricing_plan_id":"free"},{"bike_id":"bba93728-30aa-4883-9a31-962edfeffaf3","system_id":"levelo_inurba_marseille","lat":43.2968,"lon":5.37291,"is_reserved":false,"is_disabled":false,"rental_uris":{"android":"levelo://app?vid=bba93728-30aa-4883-9a31-962edfeffaf3","ios":"levelo://app?vid=bba93728-30aa-4883-9a31-962edfeffaf3"},"vehicle_type_id":"4","last_reported":1690646842,"current_range_meters":1200,"station_id":"ce4bgk12rcd13ifvqbj0","pricing_plan_id":"free"},{"bike_id":"cf7370c1-273e-49e0-a620-296691215e33","system_id":"levelo_inurba_marseille","lat":43.29677,"lon":5.37287,"is_reserved":false,"is_disabled":false,"rental_uris":{"android":"levelo://app?vid=cf7370c1-273e-49e0-a620-296691215e33","ios":"levelo://app?vid=cf7370c1-273e-49e0-a620-296691215e33"},"vehicle_type_id":"4","last_reported":1690646842,"current_range_meters":0,"station_id":"ce4bgk12rcd13ifvqbj0","pricing_plan_id":"free"},{"bike_id":"9fdafda9-6cc9-4857-9f1f-a55413c86fec","system_id":"levelo_inurba_marseille","lat":43.29594,"lon":5.36719,"is_reserved":false,"is_disabled":false,"rental_uris":{"android":"levelo://app?vid=9fdafda9-6cc9-4857-9f1f-a55413c86fec","ios":"levelo://app?vid=9fdafda9-6cc9-4857-9f1f-a55413c86fec"},"vehicle_type_id":"4","last_reported":1690646842,"current_range_meters":12000,"station_id":"ce4bgph2rcd13ifvqc2g","pricing_plan_id":"free"},{"bike_id":"b5a592de-99c4-485e-b0a5-ae4e814bebd9","system_id":"levelo_inurba_marseille","lat":43.296131,"lon":5.370791,"is_reserved":false,"is_disabled":false,"rental_uris":{"android":"levelo://app?vid=b5a592de-99c4-485e-b0a5-ae4e814bebd9","ios":"levelo://app?vid=b5a592de-99c4-485e-b0a5-ae4e814bebd9"},"vehicle_type_id":"4","last_reported":1690646842,"current_range_meters":0,"station_id":"ce4bgnh2rcd13ifvqc0g","pricing_plan_id":"free"},{"bike_id":"afbfc03d-ef28-4742-aedc-86e33af12e81","system_id":"levelo_inurba_marseille","lat":43.29573,"lon":5.367355,"is_reserved":false,"is_disabled":false,"rental_uris":{"android":"levelo://app?vid=afbfc03d-ef28-4742-aedc-86e33af12e81","ios":"levelo://app?vid=afbfc03d-ef28-4742-aedc-86e33af12e81"},"vehicle_type_id":"4","last_reported":1690646842,"current_range_meters":31600,"station_id":"ce4bgph2rcd13ifvqc2g","pricing_plan_id":"free"},{"bike_id":"60660a84-0da5-4afc-9f3b-44ba63d68a28","system_id":"levelo_inurba_marseille","lat":43.296131,"lon":5.370773,"is_reserved":false,"is_disabled":false,"rental_uris":{"android":"levelo://app?vid=60660a84-0da5-4afc-9f3b-44ba63d68a28","ios":"levelo://app?vid=60660a84-0da5-4afc-9f3b-44ba63d68a28"},"vehicle_type_id":"4","last_reported":1690646842,"current_range_meters":12000,"station_id":"ce4bgnh2rcd13ifvqc0g","pricing_plan_id":"free"},{"bike_id":"342ff1e9-0928-4772-a9a4-bd4b8b46f9ff","system_id":"levelo_inurba_marseille","lat":43.29573,"lon":5.367355,"is_reserved":false,"is_disabled":false,"rental_uris":{"android":"levelo://app?vid=342ff1e9-0928-4772-a9a4-bd4b8b46f9ff","ios":"levelo://app?vid=342ff1e9-0928-4772-a9a4-bd4b8b46f9ff"},"vehicle_type_id":"4","last_reported":1690646842,"current_range_meters":20000,"station_id":"ce4bgph2rcd13ifvqc2g","pricing_plan_id":"free"},{"bike_id":"a7982b42-a553-4570-bbfe-1af509b5d649","system_id":"levelo_inurba_marseille","lat":43.29573,"lon":5.367355,"is_reserved":false,"is_disabled":false,"rental_uris":{"android":"levelo://app?vid=a7982b42-a553-4570-bbfe-1af509b5d649","ios":"levelo://app?vid=a7982b42-a553-4570-bbfe-1af509b5d649"},"vehicle_type_id":"4","last_reported":1690646842,"current_range_meters":1200,"station_id":"ce4bgph2rcd13ifvqc2g","pricing_plan_id":"free"},{"bike_id":"5ad72fe2-0c79-445c-a38f-b56c65f87330","system_id":"levelo_inurba_marseille","lat":43.296921,"lon":5.376579,"is_reserved":false,"is_disabled":false,"rental_uris":{"android":"levelo://app?vid=5ad72fe2-0c79-445c-a38f-b56c65f87330","ios":"levelo://app?vid=5ad72fe2-0c79-445c-a38f-b56c65f87330"},"vehicle_type_id":"4","last_reported":1690646842,"current_range_meters":0,"station_id":"ce4bgkh2rcd13ifvqbl0","pricing_plan_id":"free"},{"bike_id":"28a010de-7c4d-4a40-b1c5-a8cec7200257","system_id":"levelo_inurba_marseille","lat":43.296921,"lon":5.376579,"is_reserved":false,"is_disabled":false,"rental_uris":{"android":"levelo://app?vid=28a010de-7c4d-4a40-b1c5-a8cec7200257","ios":"levelo://app?vid=28a010de-7c4d-4a40-b1c5-a8cec7200257"},"vehicle_type_id":"4","last_reported":1690646842,"current_range_meters":4800,"station_id":"ce4bgkh2rcd13ifvqbl0","pricing_plan_id":"free"},{"bike_id":"80996baf-8597-4552-b66a-a0139bedf903","system_id":"levelo_inurba_marseille","lat":43.309502,"lon":5.390365,"is_reserved":false,"is_disabled":false,"rental_uris":{"android":"levelo://app?vid=80996baf-8597-4552-b66a-a0139bedf903","ios":"levelo://app?vid=80996baf-8597-4552-b66a-a0139bedf903"},"vehicle_type_id":"4","last_reported":1690646842,"current_range_meters":2000,"station_id":"","pricing_plan_id":"free"},{"bike_id":"f0b1921d-8fc5-42f6-8214-26455e772ce5","system_id":"levelo_inurba_marseille","lat":43.309589,"lon":5.390258,"is_reserved":false,"is_disabled":false,"rental_uris":{"android":"levelo://app?vid=f0b1921d-8fc5-42f6-8214-26455e772ce5","ios":"levelo://app?vid=f0b1921d-8fc5-42f6-8214-26455e772ce5"},"vehicle_type_id":"4","last_reported":1690646842,"current_range_meters":28400,"station_id":"ce4bgup2rcd13ifvqco0","pricing_plan_id":"free"},{"bike_id":"aaaeb9df-010c-42d1-bdeb-94e6eb22d240","system_id":"levelo_inurba_marseille","lat":43.317557,"lon":5.390173,"is_reserved":false,"is_disabled":false,"rental_uris":{"android":"levelo://app?vid=aaaeb9df-010c-42d1-bdeb-94e6eb22d240","ios":"levelo://app?vid=aaaeb9df-010c-42d1-bdeb-94e6eb22d240"},"vehicle_type_id":"4","last_reported":1690646842,"current_range_meters":8400,"station_id":"ce4bhqp2rcd13ifvqhng","pricing_plan_id":"free"},{"bike_id":"dc01d018-1109-4122-a96d-4526baaee6fe","system_id":"levelo_inurba_marseille","lat":43.304278,"lon":5.388868,"is_reserved":false,"is_disabled":false,"rental_uris":{"android":"levelo://app?vid=dc01d018-1109-4122-a96d-4526baaee6fe","ios":"levelo://app?vid=dc01d018-1109-4122-a96d-4526baaee6fe"},"vehicle_type_id":"4","last_reported":1690646842,"current_range_meters":15600,"station_id":"ce4bgk12rcd13ifvqbi0","pricing_plan_id":"free"},{"bike_id":"9752f474-be4f-4708-a6d3-6db2ec4a7162","system_id":"levelo_inurba_marseille","lat":43.29626,"lon":5.37725,"is_reserved":false,"is_disabled":false,"rental_uris":{"android":"levelo://app?vid=9752f474-be4f-4708-a6d3-6db2ec4a7162","ios":"levelo://app?vid=9752f474-be4f-4708-a6d3-6db2ec4a7162"},"vehicle_type_id":"4","last_reported":1690646842,"current_range_meters":15200,"station_id":"ce4bgi92rcd13ifvqb90","pricing_plan_id":"free"},{"bike_id":"470fb980-399d-40b5-84c9-397fe08e6ddf","system_id":"levelo_inurba_marseille","lat":43.30428,"lon":5.38897,"is_reserved":false,"is_disabled":false,"rental_uris":{"android":"levelo://app?vid=470fb980-399d-40b5-84c9-397fe08e6ddf","ios":"levelo://app?vid=470fb980-399d-40b5-84c9-397fe08e6ddf"},"vehicle_type_id":"4","last_reported":1690646842,"current_range_meters":22800,"station_id":"ce4bgk12rcd13ifvqbi0","pricing_plan_id":"free"},{"bike_id":"314a1b98-de2a-4414-868a-b0760a4ae954","system_id":"levelo_inurba_marseille","lat":43.29616,"lon":5.37722,"is_reserved":false,"is_disabled":false,"rental_uris":{"android":"levelo://app?vid=314a1b98-de2a-4414-868a-b0760a4ae954","ios":"levelo://app?vid=314a1b98-de2a-4414-868a-b0760a4ae954"},"vehicle_type_id":"4","last_reported":1690646842,"current_range_meters":11600,"station_id":"ce4bgi92rcd13ifvqb90","pricing_plan_id":"free"},{"bike_id":"80b95fb3-c398-4200-9197-c07b7e0f4e3a","system_id":"levelo_inurba_marseille","lat":43.32367,"lon":5.388836,"is_reserved":false,"is_disabled":false,"rental_uris":{"android":"levelo://app?vid=80b95fb3-c398-4200-9197-c07b7e0f4e3a","ios":"levelo://app?vid=80b95fb3-c398-4200-9197-c07b7e0f4e3a"},"vehicle_type_id":"4","last_reported":1690646842,"current_range_meters":25600,"station_id":"ce4bhqp2rcd13ifvqhog","pricing_plan_id":"free"},{"bike_id":"ca22c4a3-1acd-4d3d-93d8-a629f7c9d12a","system_id":"levelo_inurba_marseille","lat":43.32364,"lon":5.38886,"is_reserved":false,"is_disabled":false,"rental_uris":{"android":"levelo://app?vid=ca22c4a3-1acd-4d3d-93d8-a629f7c9d12a","ios":"levelo://app?vid=ca22c4a3-1acd-4d3d-93d8-a629f7c9d12a"},"vehicle_type_id":"4","last_reported":1690646842,"current_range_meters":20000,"station_id":"ce4bhqp2rcd13ifvqhog","pricing_plan_id":"free"},{"bike_id":"bed242b5-0d00-4bd4-b1a6-8056715969fd","system_id":"levelo_inurba_marseille","lat":43.32365,"lon":5.38887,"is_reserved":false,"is_disabled":false,"rental_uris":{"android":"levelo://app?vid=bed242b5-0d00-4bd4-b1a6-8056715969fd","ios":"levelo://app?vid=bed242b5-0d00-4bd4-b1a6-8056715969fd"},"vehicle_type_id":"4","last_reported":1690646842,"current_range_meters":26800,"station_id":"ce4bhqp2rcd13ifvqhog","pricing_plan_id":"free"},{"bike_id":"390eb585-50db-4d90-b8b3-d3e3ee0231b7","system_id":"levelo_inurba_marseille","lat":43.32366,"lon":5.38887,"is_reserved":false,"is_disabled":false,"rental_uris":{"android":"levelo://app?vid=390eb585-50db-4d90-b8b3-d3e3ee0231b7","ios":"levelo://app?vid=390eb585-50db-4d90-b8b3-d3e3ee0231b7"},"vehicle_type_id":"4","last_reported":1690646842,"current_range_meters":22000,"station_id":"ce4bhqp2rcd13ifvqhog","pricing_plan_id":"free"},{"bike_id":"7dcf53cc-6fd0-4599-8d61-e98adb89c67d","system_id":"levelo_inurba_marseille","lat":43.29601,"lon":5.381084,"is_reserved":false,"is_disabled":false,"rental_uris":{"android":"levelo://app?vid=7dcf53cc-6fd0-4599-8d61-e98adb89c67d","ios":"levelo://app?vid=7dcf53cc-6fd0-4599-8d61-e98adb89c67d"},"vehicle_type_id":"4","last_reported":1690646842,"current_range_meters":27200,"station_id":"ce4bgl12rcd13ifvqbo0","pricing_plan_id":"free"},{"bike_id":"695f18c3-3c46-497f-854c-f04405dee474","system_id":"levelo_inurba_marseille","lat":43.29602,"lon":5.381084,"is_reserved":false,"is_disabled":false,"rental_uris":{"android":"levelo://app?vid=695f18c3-3c46-497f-854c-f04405dee474","ios":"levelo://app?vid=695f18c3-3c46-497f-854c-f04405dee474"},"vehicle_type_id":"4","last_reported":1690646842,"current_range_meters":18400,"station_id":"ce4bgl12rcd13ifvqbo0","pricing_plan_id":"free"},{"bike_id":"e23c7929-40e0-422d-b719-dce6e8a6365e","system_id":"levelo_inurba_marseille","lat":43.273613,"lon":5.362705,"is_reserved":false,"is_disabled":false,"rental_uris":{"android":"levelo://app?vid=e23c7929-40e0-422d-b719-dce6e8a6365e","ios":"levelo://app?vid=e23c7929-40e0-422d-b719-dce6e8a6365e"},"vehicle_type_id":"4","last_reported":1690646842,"current_range_meters":5200,"station_id":"ce4bhbh2rcd13ifvqeo0","pricing_plan_id":"free"},{"bike_id":"5fc6c40a-1683-4747-aa3f-e544570c9b8e","system_id":"levelo_inurba_marseille","lat":43.293009,"lon":5.374584,"is_reserved":false,"is_disabled":false,"rental_uris":{"android":"levelo://app?vid=5fc6c40a-1683-4747-aa3f-e544570c9b8e","ios":"levelo://app?vid=5fc6c40a-1683-4747-aa3f-e544570c9b8e"},"vehicle_type_id":"4","last_reported":1690646842,"current_range_meters":14000,"station_id":"ce4bgi12rcd13ifvqb70","pricing_plan_id":"free"},{"bike_id":"984cc399-4820-4b7c-870e-9ca30b2e62d9","system_id":"levelo_inurba_marseille","lat":43.305994,"lon":5.393687,"is_reserved":false,"is_disabled":false,"rental_uris":{"android":"levelo://app?vid=984cc399-4820-4b7c-870e-9ca30b2e62d9","ios":"levelo://app?vid=984cc399-4820-4b7c-870e-9ca30b2e62d9"},"vehicle_type_id":"4","last_reported":1690646842,"current_range_meters":21200,"station_id":"ce4bh0p2rcd13ifvqd80","pricing_plan_id":"free"},{"bike_id":"a111c201-3826-4ea5-a935-e26ebc44a062","system_id":"levelo_inurba_marseille","lat":43.300852,"lon":5.390859,"is_reserved":false,"is_disabled":false,"rental_uris":{"android":"levelo://app?vid=a111c201-3826-4ea5-a935-e26ebc44a062","ios":"levelo://app?vid=a111c201-3826-4ea5-a935-e26ebc44a062"},"vehicle_type_id":"4","last_reported":1690646842,"current_range_meters":7600,"station_id":"ce4bh192rcd13ifvqdb0","pricing_plan_id":"free"},{"bike_id":"268881b3-2865-44aa-9315-0443c2ccc8c0","system_id":"levelo_inurba_marseille","lat":43.292663,"lon":5.376389,"is_reserved":false,"is_disabled":false,"rental_uris":{"android":"levelo://app?vid=268881b3-2865-44aa-9315-0443c2ccc8c0","ios":"levelo://app?vid=268881b3-2865-44aa-9315-0443c2ccc8c0"},"vehicle_type_id":"4","last_reported":1690646842,"current_range_meters":14800,"station_id":"ce4bgi12rcd13ifvqb80","pricing_plan_id":"free"},{"bike_id":"b5aede3e-3aa3-48a4-939e-8295e02e6918","system_id":"levelo_inurba_marseille","lat":43.292663,"lon":5.376389,"is_reserved":false,"is_disabled":false,"rental_uris":{"android":"levelo://app?vid=b5aede3e-3aa3-48a4-939e-8295e02e6918","ios":"levelo://app?vid=b5aede3e-3aa3-48a4-939e-8295e02e6918"},"vehicle_type_id":"4","last_reported":1690646842,"current_range_meters":18400,"station_id":"ce4bgi12rcd13ifvqb80","pricing_plan_id":"free"},{"bike_id":"64c870d2-3f4a-4ac5-8d37-6abc65d2b56a","system_id":"levelo_inurba_marseille","lat":43.292663,"lon":5.376394,"is_reserved":false,"is_disabled":false,"rental_uris":{"android":"levelo://app?vid=64c870d2-3f4a-4ac5-8d37-6abc65d2b56a","ios":"levelo://app?vid=64c870d2-3f4a-4ac5-8d37-6abc65d2b56a"},"vehicle_type_id":"4","last_reported":1690646842,"current_range_meters":16800,"station_id":"ce4bgi12rcd13ifvqb80","pricing_plan_id":"free"},{"bike_id":"43078f93-bc0e-4afb-9506-56221a1085bc","system_id":"levelo_inurba_marseille","lat":43.292663,"lon":5.376389,"is_reserved":false,"is_disabled":false,"rental_uris":{"android":"levelo://app?vid=43078f93-bc0e-4afb-9506-56221a1085bc","ios":"levelo://app?vid=43078f93-bc0e-4afb-9506-56221a1085bc"},"vehicle_type_id":"4","last_reported":1690646842,"current_range_meters":19200,"station_id":"ce4bgi12rcd13ifvqb80","pricing_plan_id":"free"},{"bike_id":"2c49fbda-fdc7-443b-8200-ed799dbf108e","system_id":"levelo_inurba_marseille","lat":43.29198,"lon":5.35795,"is_reserved":false,"is_disabled":false,"rental_uris":{"android":"levelo://app?vid=2c49fbda-fdc7-443b-8200-ed799dbf108e","ios":"levelo://app?vid=2c49fbda-fdc7-443b-8200-ed799dbf108e"},"vehicle_type_id":"4","last_reported":1690646842,"current_range_meters":7200,"station_id":"ce4bhb12rcd13ifvqel0","pricing_plan_id":"free"},{"bike_id":"6c0d5088-c29f-4b28-a114-32b61380a3a4","system_id":"levelo_inurba_marseille","lat":43.291994,"lon":5.357886,"is_reserved":false,"is_disabled":false,"rental_uris":{"android":"levelo://app?vid=6c0d5088-c29f-4b28-a114-32b61380a3a4","ios":"levelo://app?vid=6c0d5088-c29f-4b28-a114-32b61380a3a4"},"vehicle_type_id":"4","last_reported":1690646842,"current_range_meters":16800,"station_id":"ce4bhb12rcd13ifvqel0","pricing_plan_id":"free"},{"bike_id":"1045469a-c004-487a-83fd-a06ebda9ef93","system_id":"levelo_inurba_marseille","lat":43.29197,"lon":5.35783,"is_reserved":false,"is_disabled":false,"rental_uris":{"android":"levelo://app?vid=1045469a-c004-487a-83fd-a06ebda9ef93","ios":"levelo://app?vid=1045469a-c004-487a-83fd-a06ebda9ef93"},"vehicle_type_id":"4","last_reported":1690646842,"current_range_meters":800,"station_id":"ce4bhb12rcd13ifvqel0","pricing_plan_id":"free"},{"bike_id":"c7410fd3-9d5f-42e4-8f24-f00e6904861f","system_id":"levelo_inurba_marseille","lat":43.313291,"lon":5.396838,"is_reserved":false,"is_disabled":false,"rental_uris":{"android":"levelo://app?vid=c7410fd3-9d5f-42e4-8f24-f00e6904861f","ios":"levelo://app?vid=c7410fd3-9d5f-42e4-8f24-f00e6904861f"},"vehicle_type_id":"4","last_reported":1690646842,"current_range_meters":22800,"station_id":"ce4bgvp2rcd13ifvqcu0","pricing_plan_id":"free"},{"bike_id":"81b2477f-004a-4724-9c54-8a14eb7e938e","system_id":"levelo_inurba_marseille","lat":43.309038,"lon":5.396546,"is_reserved":false,"is_disabled":false,"rental_uris":{"android":"levelo://app?vid=81b2477f-004a-4724-9c54-8a14eb7e938e","ios":"levelo://app?vid=81b2477f-004a-4724-9c54-8a14eb7e938e"},"vehicle_type_id":"4","last_reported":1690646842,"current_range_meters":3600,"station_id":"ce4bh012rcd13ifvqcv0","pricing_plan_id":"free"},{"bike_id":"576849e9-ad55-4502-8745-5e2301c64ae2","system_id":"levelo_inurba_marseille","lat":43.313291,"lon":5.396838,"is_reserved":false,"is_disabled":false,"rental_uris":{"android":"levelo://app?vid=576849e9-ad55-4502-8745-5e2301c64ae2","ios":"levelo://app?vid=576849e9-ad55-4502-8745-5e2301c64ae2"},"vehicle_type_id":"4","last_reported":1690646842,"current_range_meters":16000,"station_id":"ce4bgvp2rcd13ifvqcu0","pricing_plan_id":"free"},{"bike_id":"849d3d3c-b607-4d72-bb98-37cd7fdb3566","system_id":"levelo_inurba_marseille","lat":43.29529,"lon":5.385581,"is_reserved":false,"is_disabled":false,"rental_uris":{"android":"levelo://app?vid=849d3d3c-b607-4d72-bb98-37cd7fdb3566","ios":"levelo://app?vid=849d3d3c-b607-4d72-bb98-37cd7fdb3566"},"vehicle_type_id":"4","last_reported":1690646842,"current_range_meters":6800,"station_id":"ce4bgih2rcd13ifvqba0","pricing_plan_id":"free"},{"bike_id":"1fdfd44c-875d-45fd-89ce-f1fdd2d7e7e6","system_id":"levelo_inurba_marseille","lat":43.29529,"lon":5.385581,"is_reserved":false,"is_disabled":false,"rental_uris":{"android":"levelo://app?vid=1fdfd44c-875d-45fd-89ce-f1fdd2d7e7e6","ios":"levelo://app?vid=1fdfd44c-875d-45fd-89ce-f1fdd2d7e7e6"},"vehicle_type_id":"4","last_reported":1690646842,"current_range_meters":20400,"station_id":"ce4bgih2rcd13ifvqba0","pricing_plan_id":"free"},{"bike_id":"a0b1d9d5-b193-4596-b9a1-2a295b4e330c","system_id":"levelo_inurba_marseille","lat":43.29529,"lon":5.385581,"is_reserved":false,"is_disabled":false,"rental_uris":{"android":"levelo://app?vid=a0b1d9d5-b193-4596-b9a1-2a295b4e330c","ios":"levelo://app?vid=a0b1d9d5-b193-4596-b9a1-2a295b4e330c"},"vehicle_type_id":"4","last_reported":1690646842,"current_range_meters":25600,"station_id":"ce4bgih2rcd13ifvqba0","pricing_plan_id":"free"},{"bike_id":"e6f9f26f-8d86-48c6-8624-73a4ebd72d44","system_id":"levelo_inurba_marseille","lat":43.29529,"lon":5.385581,"is_reserved":false,"is_disabled":false,"rental_uris":{"android":"levelo://app?vid=e6f9f26f-8d86-48c6-8624-73a4ebd72d44","ios":"levelo://app?vid=e6f9f26f-8d86-48c6-8624-73a4ebd72d44"},"vehicle_type_id":"4","last_reported":1690646842,"current_range_meters":2800,"station_id":"ce4bgih2rcd13ifvqba0","pricing_plan_id":"free"},{"bike_id":"da5c56d4-3fd3-4c56-ab29-b9dba6f2072d","system_id":"levelo_inurba_marseille","lat":43.29529,"lon":5.385581,"is_reserved":false,"is_disabled":false,"rental_uris":{"android":"levelo://app?vid=da5c56d4-3fd3-4c56-ab29-b9dba6f2072d","ios":"levelo://app?vid=da5c56d4-3fd3-4c56-ab29-b9dba6f2072d"},"vehicle_type_id":"4","last_reported":1690646842,"current_range_meters":24400,"station_id":"ce4bgih2rcd13ifvqba0","pricing_plan_id":"free"},{"bike_id":"29f2f6ff-852a-4dc9-a7a7-abc2536ef941","system_id":"levelo_inurba_marseille","lat":43.29529,"lon":5.385581,"is_reserved":false,"is_disabled":false,"rental_uris":{"android":"levelo://app?vid=29f2f6ff-852a-4dc9-a7a7-abc2536ef941","ios":"levelo://app?vid=29f2f6ff-852a-4dc9-a7a7-abc2536ef941"},"vehicle_type_id":"4","last_reported":1690646842,"current_range_meters":30800,"station_id":"ce4bgih2rcd13ifvqba0","pricing_plan_id":"free"},{"bike_id":"091d0f21-a957-42f7-b00c-8fabe3993f88","system_id":"levelo_inurba_marseille","lat":43.29529,"lon":5.385581,"is_reserved":false,"is_disabled":false,"rental_uris":{"android":"levelo://app?vid=091d0f21-a957-42f7-b00c-8fabe3993f88","ios":"levelo://app?vid=091d0f21-a957-42f7-b00c-8fabe3993f88"},"vehicle_type_id":"4","last_reported":1690646842,"current_range_meters":4800,"station_id":"ce4bgih2rcd13ifvqba0","pricing_plan_id":"free"},{"bike_id":"f1ace9d4-0241-4bab-b6ad-a216188f73e5","system_id":"levelo_inurba_marseille","lat":43.29072,"lon":5.37169,"is_reserved":false,"is_disabled":false,"rental_uris":{"android":"levelo://app?vid=f1ace9d4-0241-4bab-b6ad-a216188f73e5","ios":"levelo://app?vid=f1ace9d4-0241-4bab-b6ad-a216188f73e5"},"vehicle_type_id":"4","last_reported":1690646842,"current_range_meters":30800,"station_id":"ce4bh5p2rcd13ifvqe4g","pricing_plan_id":"free"},{"bike_id":"443896c0-6b5d-41d0-8042-fe8f1d2a038d","system_id":"levelo_inurba_marseille","lat":43.294162,"lon":5.386292,"is_reserved":false,"is_disabled":false,"rental_uris":{"android":"levelo://app?vid=443896c0-6b5d-41d0-8042-fe8f1d2a038d","ios":"levelo://app?vid=443896c0-6b5d-41d0-8042-fe8f1d2a038d"},"vehicle_type_id":"4","last_reported":1690646842,"current_range_meters":15200,"station_id":"ce4bh2h2rcd13ifvqdh0","pricing_plan_id":"free"},{"bike_id":"4c5000b1-4957-4a93-a3e1-814f36e97427","system_id":"levelo_inurba_marseille","lat":43.294162,"lon":5.386292,"is_reserved":false,"is_disabled":false,"rental_uris":{"android":"levelo://app?vid=4c5000b1-4957-4a93-a3e1-814f36e97427","ios":"levelo://app?vid=4c5000b1-4957-4a93-a3e1-814f36e97427"},"vehicle_type_id":"4","last_reported":1690646842,"current_range_meters":28800,"station_id":"ce4bh2h2rcd13ifvqdh0","pricing_plan_id":"free"},{"bike_id":"56ed45c7-fe28-4449-a05a-ffbd69f25507","system_id":"levelo_inurba_marseille","lat":43.28935,"lon":5.36638,"is_reserved":false,"is_disabled":false,"rental_uris":{"android":"levelo://app?vid=56ed45c7-fe28-4449-a05a-ffbd69f25507","ios":"levelo://app?vid=56ed45c7-fe28-4449-a05a-ffbd69f25507"},"vehicle_type_id":"4","last_reported":1690646842,"current_range_meters":31200,"station_id":"ce4bhap2rcd13ifvqek0","pricing_plan_id":"free"},{"bike_id":"21121ba0-fb5b-4c72-b0eb-e0c7f1225af1","system_id":"levelo_inurba_marseille","lat":43.28938,"lon":5.36402,"is_reserved":false,"is_disabled":false,"rental_uris":{"android":"levelo://app?vid=21121ba0-fb5b-4c72-b0eb-e0c7f1225af1","ios":"levelo://app?vid=21121ba0-fb5b-4c72-b0eb-e0c7f1225af1"},"vehicle_type_id":"4","last_reported":1690646842,"current_range_meters":18800,"station_id":"ce4bhc92rcd13ifvqetg","pricing_plan_id":"free"},{"bike_id":"04c7a3a8-1b2c-4685-9a07-8eb617e939fe","system_id":"levelo_inurba_marseille","lat":43.28937,"lon":5.36398,"is_reserved":false,"is_disabled":false,"rental_uris":{"android":"levelo://app?vid=04c7a3a8-1b2c-4685-9a07-8eb617e939fe","ios":"levelo://app?vid=04c7a3a8-1b2c-4685-9a07-8eb617e939fe"},"vehicle_type_id":"4","last_reported":1690646842,"current_range_meters":17200,"station_id":"ce4bhc92rcd13ifvqetg","pricing_plan_id":"free"},{"bike_id":"9cb1f202-2ec6-4133-ba5c-4ac3b3f023d6","system_id":"levelo_inurba_marseille","lat":43.289468,"lon":5.363719,"is_reserved":false,"is_disabled":false,"rental_uris":{"android":"levelo://app?vid=9cb1f202-2ec6-4133-ba5c-4ac3b3f023d6","ios":"levelo://app?vid=9cb1f202-2ec6-4133-ba5c-4ac3b3f023d6"},"vehicle_type_id":"4","last_reported":1690646842,"current_range_meters":31600,"station_id":"ce4bhc92rcd13ifvqetg","pricing_plan_id":"free"},{"bike_id":"9f1f0f98-749c-43cc-b19c-0e15a620b12f","system_id":"levelo_inurba_marseille","lat":43.292644,"lon":5.384257,"is_reserved":false,"is_disabled":false,"rental_uris":{"android":"levelo://app?vid=9f1f0f98-749c-43cc-b19c-0e15a620b12f","ios":"levelo://app?vid=9f1f0f98-749c-43cc-b19c-0e15a620b12f"},"vehicle_type_id":"4","last_reported":1690646842,"current_range_meters":2400,"station_id":"ce4bh692rcd13ifvqea0","pricing_plan_id":"free"},{"bike_id":"9557f777-a53d-4a10-b0dd-a0fe870653cf","system_id":"levelo_inurba_marseille","lat":43.292644,"lon":5.384257,"is_reserved":false,"is_disabled":false,"rental_uris":{"android":"levelo://app?vid=9557f777-a53d-4a10-b0dd-a0fe870653cf","ios":"levelo://app?vid=9557f777-a53d-4a10-b0dd-a0fe870653cf"},"vehicle_type_id":"4","last_reported":1690646842,"current_range_meters":22800,"station_id":"ce4bh692rcd13ifvqea0","pricing_plan_id":"free"},{"bike_id":"65d44dbb-952c-47b6-9e1b-64e7e77c5f80","system_id":"levelo_inurba_marseille","lat":43.292644,"lon":5.384257,"is_reserved":false,"is_disabled":false,"rental_uris":{"android":"levelo://app?vid=65d44dbb-952c-47b6-9e1b-64e7e77c5f80","ios":"levelo://app?vid=65d44dbb-952c-47b6-9e1b-64e7e77c5f80"},"vehicle_type_id":"4","last_reported":1690646842,"current_range_meters":18800,"station_id":"ce4bh692rcd13ifvqea0","pricing_plan_id":"free"},{"bike_id":"1d8d1a0f-b74a-4b87-9f57-c85cc95fb243","system_id":"levelo_inurba_marseille","lat":43.29269,"lon":5.3844,"is_reserved":false,"is_disabled":false,"rental_uris":{"android":"levelo://app?vid=1d8d1a0f-b74a-4b87-9f57-c85cc95fb243","ios":"levelo://app?vid=1d8d1a0f-b74a-4b87-9f57-c85cc95fb243"},"vehicle_type_id":"4","last_reported":1690646842,"current_range_meters":3600,"station_id":"ce4bh692rcd13ifvqea0","pricing_plan_id":"free"},{"bike_id":"e30822c8-8e01-4af5-8889-40691b02d167","system_id":"levelo_inurba_marseille","lat":43.292644,"lon":5.384257,"is_reserved":false,"is_disabled":false,"rental_uris":{"android":"levelo://app?vid=e30822c8-8e01-4af5-8889-40691b02d167","ios":"levelo://app?vid=e30822c8-8e01-4af5-8889-40691b02d167"},"vehicle_type_id":"4","last_reported":1690646842,"current_range_meters":16400,"station_id":"ce4bh692rcd13ifvqea0","pricing_plan_id":"free"},{"bike_id":"af722f38-bb6e-4a59-88de-c7a757eabef2","system_id":"levelo_inurba_marseille","lat":43.29264,"lon":5.38437,"is_reserved":false,"is_disabled":false,"rental_uris":{"android":"levelo://app?vid=af722f38-bb6e-4a59-88de-c7a757eabef2","ios":"levelo://app?vid=af722f38-bb6e-4a59-88de-c7a757eabef2"},"vehicle_type_id":"4","last_reported":1690646842,"current_range_meters":6000,"station_id":"ce4bh692rcd13ifvqea0","pricing_plan_id":"free"},{"bike_id":"26c28a40-b319-4e8a-ad52-ef4586b6246c","system_id":"levelo_inurba_marseille","lat":43.292644,"lon":5.384257,"is_reserved":false,"is_disabled":false,"rental_uris":{"android":"levelo://app?vid=26c28a40-b319-4e8a-ad52-ef4586b6246c","ios":"levelo://app?vid=26c28a40-b319-4e8a-ad52-ef4586b6246c"},"vehicle_type_id":"4","last_reported":1690646842,"current_range_meters":30000,"station_id":"ce4bh692rcd13ifvqea0","pricing_plan_id":"free"},{"bike_id":"62b8abc0-0113-4eee-8c31-ec57f40545fe","system_id":"levelo_inurba_marseille","lat":43.292644,"lon":5.384257,"is_reserved":false,"is_disabled":false,"rental_uris":{"android":"levelo://app?vid=62b8abc0-0113-4eee-8c31-ec57f40545fe","ios":"levelo://app?vid=62b8abc0-0113-4eee-8c31-ec57f40545fe"},"vehicle_type_id":"4","last_reported":1690646842,"current_range_meters":6800,"station_id":"ce4bh692rcd13ifvqea0","pricing_plan_id":"free"},{"bike_id":"5c0e058a-b800-4b08-bbc3-f4b877be79e3","system_id":"levelo_inurba_marseille","lat":43.290104,"lon":5.356111,"is_reserved":false,"is_disabled":false,"rental_uris":{"android":"levelo://app?vid=5c0e058a-b800-4b08-bbc3-f4b877be79e3","ios":"levelo://app?vid=5c0e058a-b800-4b08-bbc3-f4b877be79e3"},"vehicle_type_id":"4","last_reported":1690646842,"current_range_meters":24000,"station_id":"ce4bhb92rcd13ifvqen0","pricing_plan_id":"free"},{"bike_id":"a636eec4-b719-4e6f-b179-4c8cadeba60e","system_id":"levelo_inurba_marseille","lat":43.33043,"lon":5.38911,"is_reserved":false,"is_disabled":false,"rental_uris":{"android":"levelo://app?vid=a636eec4-b719-4e6f-b179-4c8cadeba60e","ios":"levelo://app?vid=a636eec4-b719-4e6f-b179-4c8cadeba60e"},"vehicle_type_id":"4","last_reported":1690646842,"current_range_meters":22000,"station_id":"ce4bhr92rcd13ifvqhrg","pricing_plan_id":"free"},{"bike_id":"6e450259-0aaf-4a4a-9645-92fdaa0273f5","system_id":"levelo_inurba_marseille","lat":43.292644,"lon":5.384257,"is_reserved":false,"is_disabled":false,"rental_uris":{"android":"levelo://app?vid=6e450259-0aaf-4a4a-9645-92fdaa0273f5","ios":"levelo://app?vid=6e450259-0aaf-4a4a-9645-92fdaa0273f5"},"vehicle_type_id":"4","last_reported":1690646842,"current_range_meters":28400,"station_id":"ce4bh692rcd13ifvqea0","pricing_plan_id":"free"},{"bike_id":"4031e07c-3812-4dd4-9840-651d80dc70e1","system_id":"levelo_inurba_marseille","lat":43.33044,"lon":5.38915,"is_reserved":false,"is_disabled":false,"rental_uris":{"android":"levelo://app?vid=4031e07c-3812-4dd4-9840-651d80dc70e1","ios":"levelo://app?vid=4031e07c-3812-4dd4-9840-651d80dc70e1"},"vehicle_type_id":"4","last_reported":1690646842,"current_range_meters":12000,"station_id":"ce4bhr92rcd13ifvqhrg","pricing_plan_id":"free"},{"bike_id":"d8132d11-7d1d-4eb1-907e-a79177a55510","system_id":"levelo_inurba_marseille","lat":43.330464,"lon":5.389125,"is_reserved":false,"is_disabled":false,"rental_uris":{"android":"levelo://app?vid=d8132d11-7d1d-4eb1-907e-a79177a55510","ios":"levelo://app?vid=d8132d11-7d1d-4eb1-907e-a79177a55510"},"vehicle_type_id":"4","last_reported":1690646842,"current_range_meters":15600,"station_id":"ce4bhr92rcd13ifvqhrg","pricing_plan_id":"free"},{"bike_id":"fdb6e749-3542-4b67-ab6d-699bf44eff84","system_id":"levelo_inurba_marseille","lat":43.290104,"lon":5.356111,"is_reserved":false,"is_disabled":false,"rental_uris":{"android":"levelo://app?vid=fdb6e749-3542-4b67-ab6d-699bf44eff84","ios":"levelo://app?vid=fdb6e749-3542-4b67-ab6d-699bf44eff84"},"vehicle_type_id":"4","last_reported":1690646842,"current_range_meters":2800,"station_id":"ce4bhb92rcd13ifvqen0","pricing_plan_id":"free"},{"bike_id":"e2f88ce4-5ef9-4da0-9955-f17269f5ecb4","system_id":"levelo_inurba_marseille","lat":43.290104,"lon":5.356111,"is_reserved":false,"is_disabled":false,"rental_uris":{"android":"levelo://app?vid=e2f88ce4-5ef9-4da0-9955-f17269f5ecb4","ios":"levelo://app?vid=e2f88ce4-5ef9-4da0-9955-f17269f5ecb4"},"vehicle_type_id":"4","last_reported":1690646842,"current_range_meters":25200,"station_id":"ce4bhb92rcd13ifvqen0","pricing_plan_id":"free"},{"bike_id":"53c517af-02fb-48ee-b96b-54e79c505fc1","system_id":"levelo_inurba_marseille","lat":43.29006,"lon":5.35613,"is_reserved":false,"is_disabled":false,"rental_uris":{"android":"levelo://app?vid=53c517af-02fb-48ee-b96b-54e79c505fc1","ios":"levelo://app?vid=53c517af-02fb-48ee-b96b-54e79c505fc1"},"vehicle_type_id":"4","last_reported":1690646842,"current_range_meters":12000,"station_id":"","pricing_plan_id":"free"},{"bike_id":"134ef223-0af9-48f2-bbd1-4d84dd8cb35c","system_id":"levelo_inurba_marseille","lat":43.290104,"lon":5.356111,"is_reserved":false,"is_disabled":false,"rental_uris":{"android":"levelo://app?vid=134ef223-0af9-48f2-bbd1-4d84dd8cb35c","ios":"levelo://app?vid=134ef223-0af9-48f2-bbd1-4d84dd8cb35c"},"vehicle_type_id":"4","last_reported":1690646842,"current_range_meters":32000,"station_id":"ce4bhb92rcd13ifvqen0","pricing_plan_id":"free"},{"bike_id":"f2c7a8c5-a3c2-4995-8fac-3333c0d33983","system_id":"levelo_inurba_marseille","lat":43.290104,"lon":5.356111,"is_reserved":false,"is_disabled":false,"rental_uris":{"android":"levelo://app?vid=f2c7a8c5-a3c2-4995-8fac-3333c0d33983","ios":"levelo://app?vid=f2c7a8c5-a3c2-4995-8fac-3333c0d33983"},"vehicle_type_id":"4","last_reported":1690646842,"current_range_meters":5600,"station_id":"ce4bhb92rcd13ifvqen0","pricing_plan_id":"free"},{"bike_id":"6c9f41e1-164b-4305-b51c-73782d0bf07a","system_id":"levelo_inurba_marseille","lat":43.290104,"lon":5.356111,"is_reserved":false,"is_disabled":false,"rental_uris":{"android":"levelo://app?vid=6c9f41e1-164b-4305-b51c-73782d0bf07a","ios":"levelo://app?vid=6c9f41e1-164b-4305-b51c-73782d0bf07a"},"vehicle_type_id":"4","last_reported":1690646842,"current_range_meters":8400,"station_id":"ce4bhb92rcd13ifvqen0","pricing_plan_id":"free"},{"bike_id":"44251c77-1140-4122-a929-26bcad9349d0","system_id":"levelo_inurba_marseille","lat":43.29004,"lon":5.35612,"is_reserved":false,"is_disabled":false,"rental_uris":{"android":"levelo://app?vid=44251c77-1140-4122-a929-26bcad9349d0","ios":"levelo://app?vid=44251c77-1140-4122-a929-26bcad9349d0"},"vehicle_type_id":"4","last_reported":1690646842,"current_range_meters":16800,"station_id":"ce4bhb92rcd13ifvqen0","pricing_plan_id":"free"},{"bike_id":"a6e9585b-2a4a-48c0-ad68-a83320eed10a","system_id":"levelo_inurba_marseille","lat":43.29004,"lon":5.35611,"is_reserved":false,"is_disabled":false,"rental_uris":{"android":"levelo://app?vid=a6e9585b-2a4a-48c0-ad68-a83320eed10a","ios":"levelo://app?vid=a6e9585b-2a4a-48c0-ad68-a83320eed10a"},"vehicle_type_id":"4","last_reported":1690646842,"current_range_meters":14400,"station_id":"ce4bhb92rcd13ifvqen0","pricing_plan_id":"free"},{"bike_id":"02f3b4b1-e5f4-48b9-a75e-561f316d477f","system_id":"levelo_inurba_marseille","lat":43.290104,"lon":5.356111,"is_reserved":false,"is_disabled":false,"rental_uris":{"android":"levelo://app?vid=02f3b4b1-e5f4-48b9-a75e-561f316d477f","ios":"levelo://app?vid=02f3b4b1-e5f4-48b9-a75e-561f316d477f"},"vehicle_type_id":"4","last_reported":1690646842,"current_range_meters":2400,"station_id":"ce4bhb92rcd13ifvqen0","pricing_plan_id":"free"},{"bike_id":"94e3f663-ecb6-47d8-b2c9-23be09c8f2d4","system_id":"levelo_inurba_marseille","lat":43.290104,"lon":5.356111,"is_reserved":false,"is_disabled":false,"rental_uris":{"android":"levelo://app?vid=94e3f663-ecb6-47d8-b2c9-23be09c8f2d4","ios":"levelo://app?vid=94e3f663-ecb6-47d8-b2c9-23be09c8f2d4"},"vehicle_type_id":"4","last_reported":1690646842,"current_range_meters":12400,"station_id":"ce4bhb92rcd13ifvqen0","pricing_plan_id":"free"},{"bike_id":"1f7ac07f-e4d2-4b1c-a62c-f49ef514f35f","system_id":"levelo_inurba_marseille","lat":43.29002,"lon":5.35606,"is_reserved":false,"is_disabled":false,"rental_uris":{"android":"levelo://app?vid=1f7ac07f-e4d2-4b1c-a62c-f49ef514f35f","ios":"levelo://app?vid=1f7ac07f-e4d2-4b1c-a62c-f49ef514f35f"},"vehicle_type_id":"4","last_reported":1690646842,"current_range_meters":13600,"station_id":"ce4bhb92rcd13ifvqen0","pricing_plan_id":"free"},{"bike_id":"dd9f02b5-b809-4004-91fd-8a885ea460e1","system_id":"levelo_inurba_marseille","lat":43.290104,"lon":5.356111,"is_reserved":false,"is_disabled":false,"rental_uris":{"android":"levelo://app?vid=dd9f02b5-b809-4004-91fd-8a885ea460e1","ios":"levelo://app?vid=dd9f02b5-b809-4004-91fd-8a885ea460e1"},"vehicle_type_id":"4","last_reported":1690646842,"current_range_meters":13200,"station_id":"ce4bhb92rcd13ifvqen0","pricing_plan_id":"free"},{"bike_id":"12720b5c-7122-40a0-be13-c12339d49471","system_id":"levelo_inurba_marseille","lat":43.290995,"lon":5.381361,"is_reserved":false,"is_disabled":false,"rental_uris":{"android":"levelo://app?vid=12720b5c-7122-40a0-be13-c12339d49471","ios":"levelo://app?vid=12720b5c-7122-40a0-be13-c12339d49471"},"vehicle_type_id":"4","last_reported":1690646842,"current_range_meters":16800,"station_id":"ce4bh512rcd13ifvqe2g","pricing_plan_id":"free"},{"bike_id":"a66d0fd7-d491-4b2d-acae-5cd2d23c24d7","system_id":"levelo_inurba_marseille","lat":43.290995,"lon":5.381361,"is_reserved":false,"is_disabled":false,"rental_uris":{"android":"levelo://app?vid=a66d0fd7-d491-4b2d-acae-5cd2d23c24d7","ios":"levelo://app?vid=a66d0fd7-d491-4b2d-acae-5cd2d23c24d7"},"vehicle_type_id":"4","last_reported":1690646842,"current_range_meters":23600,"station_id":"ce4bh512rcd13ifvqe2g","pricing_plan_id":"free"},{"bike_id":"ffba4a3a-f467-4df8-8551-b7c161d96695","system_id":"levelo_inurba_marseille","lat":43.290995,"lon":5.381361,"is_reserved":false,"is_disabled":false,"rental_uris":{"android":"levelo://app?vid=ffba4a3a-f467-4df8-8551-b7c161d96695","ios":"levelo://app?vid=ffba4a3a-f467-4df8-8551-b7c161d96695"},"vehicle_type_id":"4","last_reported":1690646842,"current_range_meters":7600,"station_id":"ce4bh512rcd13ifvqe2g","pricing_plan_id":"free"},{"bike_id":"45c9aaec-48e5-42b6-a946-3215d7f273ed","system_id":"levelo_inurba_marseille","lat":43.290104,"lon":5.356111,"is_reserved":false,"is_disabled":false,"rental_uris":{"android":"levelo://app?vid=45c9aaec-48e5-42b6-a946-3215d7f273ed","ios":"levelo://app?vid=45c9aaec-48e5-42b6-a946-3215d7f273ed"},"vehicle_type_id":"4","last_reported":1690646842,"current_range_meters":22400,"station_id":"ce4bhb92rcd13ifvqen0","pricing_plan_id":"free"},{"bike_id":"05bf2cc0-c80b-4d3b-9303-5cea93148e89","system_id":"levelo_inurba_marseille","lat":43.290995,"lon":5.381361,"is_reserved":false,"is_disabled":false,"rental_uris":{"android":"levelo://app?vid=05bf2cc0-c80b-4d3b-9303-5cea93148e89","ios":"levelo://app?vid=05bf2cc0-c80b-4d3b-9303-5cea93148e89"},"vehicle_type_id":"4","last_reported":1690646842,"current_range_meters":29200,"station_id":"ce4bh512rcd13ifvqe2g","pricing_plan_id":"free"},{"bike_id":"0ed3f283-4cbf-41f1-b70a-bb6fe2ceb295","system_id":"levelo_inurba_marseille","lat":43.297815,"lon":5.393548,"is_reserved":false,"is_disabled":false,"rental_uris":{"android":"levelo://app?vid=0ed3f283-4cbf-41f1-b70a-bb6fe2ceb295","ios":"levelo://app?vid=0ed3f283-4cbf-41f1-b70a-bb6fe2ceb295"},"vehicle_type_id":"4","last_reported":1690646842,"current_range_meters":20000,"station_id":"chh1huq6cuj3fo74tm60","pricing_plan_id":"free"},{"bike_id":"94ccc3c1-9060-4c74-967d-d8352953c49d","system_id":"levelo_inurba_marseille","lat":43.290995,"lon":5.381361,"is_reserved":false,"is_disabled":false,"rental_uris":{"android":"levelo://app?vid=94ccc3c1-9060-4c74-967d-d8352953c49d","ios":"levelo://app?vid=94ccc3c1-9060-4c74-967d-d8352953c49d"},"vehicle_type_id":"4","last_reported":1690646842,"current_range_meters":400,"station_id":"ce4bh512rcd13ifvqe2g","pricing_plan_id":"free"},{"bike_id":"92ec3c92-45b0-4f51-b8e9-f3ac295f7a7b","system_id":"levelo_inurba_marseille","lat":43.295169,"lon":5.390426,"is_reserved":false,"is_disabled":false,"rental_uris":{"android":"levelo://app?vid=92ec3c92-45b0-4f51-b8e9-f3ac295f7a7b","ios":"levelo://app?vid=92ec3c92-45b0-4f51-b8e9-f3ac295f7a7b"},"vehicle_type_id":"4","last_reported":1690646842,"current_range_meters":3600,"station_id":"ce4bh3p2rcd13ifvqdp0","pricing_plan_id":"free"},{"bike_id":"1e03a6f5-d87b-48a5-a3d2-3b0500cb8b6e","system_id":"levelo_inurba_marseille","lat":43.33583,"lon":5.35419,"is_reserved":false,"is_disabled":false,"rental_uris":{"android":"levelo://app?vid=1e03a6f5-d87b-48a5-a3d2-3b0500cb8b6e","ios":"levelo://app?vid=1e03a6f5-d87b-48a5-a3d2-3b0500cb8b6e"},"vehicle_type_id":"4","last_reported":1690646842,"current_range_meters":20800,"station_id":"","pricing_plan_id":"free"},{"bike_id":"679ca22d-fd99-449a-b5ce-504c3248526f","system_id":"levelo_inurba_marseille","lat":43.28856,"lon":5.358371,"is_reserved":false,"is_disabled":false,"rental_uris":{"android":"levelo://app?vid=679ca22d-fd99-449a-b5ce-504c3248526f","ios":"levelo://app?vid=679ca22d-fd99-449a-b5ce-504c3248526f"},"vehicle_type_id":"4","last_reported":1690646842,"current_range_meters":6400,"station_id":"ce4bhb12rcd13ifvqem0","pricing_plan_id":"free"},{"bike_id":"6a159fc9-17af-4535-8ddf-222f74f7cc85","system_id":"levelo_inurba_marseille","lat":43.28856,"lon":5.358371,"is_reserved":false,"is_disabled":false,"rental_uris":{"android":"levelo://app?vid=6a159fc9-17af-4535-8ddf-222f74f7cc85","ios":"levelo://app?vid=6a159fc9-17af-4535-8ddf-222f74f7cc85"},"vehicle_type_id":"4","last_reported":1690646842,"current_range_meters":31200,"station_id":"ce4bhb12rcd13ifvqem0","pricing_plan_id":"free"},{"bike_id":"f0767b86-84e9-4a1e-8c0f-4e2f53856aad","system_id":"levelo_inurba_marseille","lat":43.28842,"lon":5.35871,"is_reserved":false,"is_disabled":false,"rental_uris":{"android":"levelo://app?vid=f0767b86-84e9-4a1e-8c0f-4e2f53856aad","ios":"levelo://app?vid=f0767b86-84e9-4a1e-8c0f-4e2f53856aad"},"vehicle_type_id":"4","last_reported":1690646842,"current_range_meters":7600,"station_id":"ce4bhb12rcd13ifvqem0","pricing_plan_id":"free"},{"bike_id":"5339795f-3a20-48f5-aa16-92a6c75a1831","system_id":"levelo_inurba_marseille","lat":43.3375,"lon":5.37455,"is_reserved":false,"is_disabled":false,"rental_uris":{"android":"levelo://app?vid=5339795f-3a20-48f5-aa16-92a6c75a1831","ios":"levelo://app?vid=5339795f-3a20-48f5-aa16-92a6c75a1831"},"vehicle_type_id":"4","last_reported":1690646842,"current_range_meters":21200,"station_id":"","pricing_plan_id":"free"},{"bike_id":"59976df7-227f-4714-9cb2-afaf722434f6","system_id":"levelo_inurba_marseille","lat":43.33749,"lon":5.37485,"is_reserved":false,"is_disabled":false,"rental_uris":{"android":"levelo://app?vid=59976df7-227f-4714-9cb2-afaf722434f6","ios":"levelo://app?vid=59976df7-227f-4714-9cb2-afaf722434f6"},"vehicle_type_id":"4","last_reported":1690646842,"current_range_meters":8000,"station_id":"","pricing_plan_id":"free"},{"bike_id":"7bd35dfc-701d-4a94-84b9-312701e00f76","system_id":"levelo_inurba_marseille","lat":43.33747,"lon":5.37502,"is_reserved":false,"is_disabled":false,"rental_uris":{"android":"levelo://app?vid=7bd35dfc-701d-4a94-84b9-312701e00f76","ios":"levelo://app?vid=7bd35dfc-701d-4a94-84b9-312701e00f76"},"vehicle_type_id":"4","last_reported":1690646842,"current_range_meters":20000,"station_id":"","pricing_plan_id":"free"},{"bike_id":"3e64bf2b-6033-47e2-b446-66918df9f1b2","system_id":"levelo_inurba_marseille","lat":43.33751,"lon":5.37481,"is_reserved":false,"is_disabled":false,"rental_uris":{"android":"levelo://app?vid=3e64bf2b-6033-47e2-b446-66918df9f1b2","ios":"levelo://app?vid=3e64bf2b-6033-47e2-b446-66918df9f1b2"},"vehicle_type_id":"4","last_reported":1690646842,"current_range_meters":31600,"station_id":"","pricing_plan_id":"free"},{"bike_id":"abdc95c7-512f-40d0-a7cb-b7dd95637591","system_id":"levelo_inurba_marseille","lat":43.33751,"lon":5.37496,"is_reserved":false,"is_disabled":false,"rental_uris":{"android":"levelo://app?vid=abdc95c7-512f-40d0-a7cb-b7dd95637591","ios":"levelo://app?vid=abdc95c7-512f-40d0-a7cb-b7dd95637591"},"vehicle_type_id":"4","last_reported":1690646842,"current_range_meters":3600,"station_id":"","pricing_plan_id":"free"},{"bike_id":"7783bfcf-afd0-4281-b6ef-6783658541be","system_id":"levelo_inurba_marseille","lat":43.33758,"lon":5.37491,"is_reserved":false,"is_disabled":false,"rental_uris":{"android":"levelo://app?vid=7783bfcf-afd0-4281-b6ef-6783658541be","ios":"levelo://app?vid=7783bfcf-afd0-4281-b6ef-6783658541be"},"vehicle_type_id":"4","last_reported":1690646842,"current_range_meters":31200,"station_id":"","pricing_plan_id":"free"},{"bike_id":"5fba9c6c-978a-43b3-b7a8-889220bbc791","system_id":"levelo_inurba_marseille","lat":43.301117,"lon":5.398795,"is_reserved":false,"is_disabled":false,"rental_uris":{"android":"levelo://app?vid=5fba9c6c-978a-43b3-b7a8-889220bbc791","ios":"levelo://app?vid=5fba9c6c-978a-43b3-b7a8-889220bbc791"},"vehicle_type_id":"4","last_reported":1690646842,"current_range_meters":17200,"station_id":"ce4bh0h2rcd13ifvqd40","pricing_plan_id":"free"},{"bike_id":"13923400-8ba3-4a6e-b92e-918793826a74","system_id":"levelo_inurba_marseille","lat":43.301117,"lon":5.398795,"is_reserved":false,"is_disabled":false,"rental_uris":{"android":"levelo://app?vid=13923400-8ba3-4a6e-b92e-918793826a74","ios":"levelo://app?vid=13923400-8ba3-4a6e-b92e-918793826a74"},"vehicle_type_id":"4","last_reported":1690646842,"current_range_meters":2000,"station_id":"ce4bh0h2rcd13ifvqd40","pricing_plan_id":"free"},{"bike_id":"9aea8acd-6b6d-4dc6-a149-def9f29eb3dc","system_id":"levelo_inurba_marseille","lat":43.301117,"lon":5.398795,"is_reserved":false,"is_disabled":false,"rental_uris":{"android":"levelo://app?vid=9aea8acd-6b6d-4dc6-a149-def9f29eb3dc","ios":"levelo://app?vid=9aea8acd-6b6d-4dc6-a149-def9f29eb3dc"},"vehicle_type_id":"4","last_reported":1690646842,"current_range_meters":0,"station_id":"ce4bh0h2rcd13ifvqd40","pricing_plan_id":"free"},{"bike_id":"994c9e30-8239-417f-b941-d9e4f966cec8","system_id":"levelo_inurba_marseille","lat":43.301117,"lon":5.398795,"is_reserved":false,"is_disabled":false,"rental_uris":{"android":"levelo://app?vid=994c9e30-8239-417f-b941-d9e4f966cec8","ios":"levelo://app?vid=994c9e30-8239-417f-b941-d9e4f966cec8"},"vehicle_type_id":"4","last_reported":1690646842,"current_range_meters":24400,"station_id":"ce4bh0h2rcd13ifvqd40","pricing_plan_id":"free"},{"bike_id":"c079b846-cf28-4365-81d9-5f9ab48248fd","system_id":"levelo_inurba_marseille","lat":43.286591,"lon":5.363346,"is_reserved":false,"is_disabled":false,"rental_uris":{"android":"levelo://app?vid=c079b846-cf28-4365-81d9-5f9ab48248fd","ios":"levelo://app?vid=c079b846-cf28-4365-81d9-5f9ab48248fd"},"vehicle_type_id":"4","last_reported":1690646842,"current_range_meters":28800,"station_id":"ce4bhah2rcd13ifvqej0","pricing_plan_id":"free"},{"bike_id":"75199276-b705-4ad7-b6a9-49aeaa84628a","system_id":"levelo_inurba_marseille","lat":43.286593,"lon":5.363346,"is_reserved":false,"is_disabled":false,"rental_uris":{"android":"levelo://app?vid=75199276-b705-4ad7-b6a9-49aeaa84628a","ios":"levelo://app?vid=75199276-b705-4ad7-b6a9-49aeaa84628a"},"vehicle_type_id":"4","last_reported":1690646842,"current_range_meters":31600,"station_id":"ce4bhah2rcd13ifvqej0","pricing_plan_id":"free"},{"bike_id":"9d2e3a71-9577-43c2-8c59-47a5e199c5a2","system_id":"levelo_inurba_marseille","lat":43.290345,"lon":5.38646,"is_reserved":false,"is_disabled":false,"rental_uris":{"android":"levelo://app?vid=9d2e3a71-9577-43c2-8c59-47a5e199c5a2","ios":"levelo://app?vid=9d2e3a71-9577-43c2-8c59-47a5e199c5a2"},"vehicle_type_id":"4","last_reported":1690646842,"current_range_meters":0,"station_id":"ce4bh4p2rcd13ifvqe0g","pricing_plan_id":"free"},{"bike_id":"bc968ef9-54a3-4648-8e48-2def8f46b7ab","system_id":"levelo_inurba_marseille","lat":43.29023,"lon":5.38638,"is_reserved":false,"is_disabled":false,"rental_uris":{"android":"levelo://app?vid=bc968ef9-54a3-4648-8e48-2def8f46b7ab","ios":"levelo://app?vid=bc968ef9-54a3-4648-8e48-2def8f46b7ab"},"vehicle_type_id":"4","last_reported":1690646842,"current_range_meters":30000,"station_id":"ce4bh4p2rcd13ifvqe0g","pricing_plan_id":"free"},{"bike_id":"474f6c3a-9797-4864-956e-500b1069ca4d","system_id":"levelo_inurba_marseille","lat":43.286039,"lon":5.370681,"is_reserved":false,"is_disabled":false,"rental_uris":{"android":"levelo://app?vid=474f6c3a-9797-4864-956e-500b1069ca4d","ios":"levelo://app?vid=474f6c3a-9797-4864-956e-500b1069ca4d"},"vehicle_type_id":"4","last_reported":1690646842,"current_range_meters":30800,"station_id":"ce4bht12rcd13ifvqi60","pricing_plan_id":"free"},{"bike_id":"9c7884db-43ef-4873-9a1d-97ead90d789c","system_id":"levelo_inurba_marseille","lat":43.286039,"lon":5.370681,"is_reserved":false,"is_disabled":false,"rental_uris":{"android":"levelo://app?vid=9c7884db-43ef-4873-9a1d-97ead90d789c","ios":"levelo://app?vid=9c7884db-43ef-4873-9a1d-97ead90d789c"},"vehicle_type_id":"4","last_reported":1690646842,"current_range_meters":13200,"station_id":"ce4bht12rcd13ifvqi60","pricing_plan_id":"free"},{"bike_id":"308545b5-bea6-45f9-87fa-572bddd6875a","system_id":"levelo_inurba_marseille","lat":43.2873,"lon":5.37934,"is_reserved":false,"is_disabled":false,"rental_uris":{"android":"levelo://app?vid=308545b5-bea6-45f9-87fa-572bddd6875a","ios":"levelo://app?vid=308545b5-bea6-45f9-87fa-572bddd6875a"},"vehicle_type_id":"4","last_reported":1690646842,"current_range_meters":5200,"station_id":"ce4bh9p2rcd13ifvqec0","pricing_plan_id":"free"},{"bike_id":"e8d67688-70aa-4be6-9939-5c78a0cd61ff","system_id":"levelo_inurba_marseille","lat":43.287185,"lon":5.379373,"is_reserved":false,"is_disabled":false,"rental_uris":{"android":"levelo://app?vid=e8d67688-70aa-4be6-9939-5c78a0cd61ff","ios":"levelo://app?vid=e8d67688-70aa-4be6-9939-5c78a0cd61ff"},"vehicle_type_id":"4","last_reported":1690646842,"current_range_meters":5600,"station_id":"ce4bh9p2rcd13ifvqec0","pricing_plan_id":"free"},{"bike_id":"be1309f4-6de5-41c0-abdc-e9cbacac9b69","system_id":"levelo_inurba_marseille","lat":43.287184,"lon":5.37937,"is_reserved":false,"is_disabled":false,"rental_uris":{"android":"levelo://app?vid=be1309f4-6de5-41c0-abdc-e9cbacac9b69","ios":"levelo://app?vid=be1309f4-6de5-41c0-abdc-e9cbacac9b69"},"vehicle_type_id":"4","last_reported":1690646842,"current_range_meters":19200,"station_id":"ce4bh9p2rcd13ifvqec0","pricing_plan_id":"free"},{"bike_id":"d8c20e44-31f3-44fd-9f6b-2857e569d3ad","system_id":"levelo_inurba_marseille","lat":43.316517,"lon":5.404375,"is_reserved":false,"is_disabled":false,"rental_uris":{"android":"levelo://app?vid=d8c20e44-31f3-44fd-9f6b-2857e569d3ad","ios":"levelo://app?vid=d8c20e44-31f3-44fd-9f6b-2857e569d3ad"},"vehicle_type_id":"4","last_reported":1690646842,"current_range_meters":7600,"station_id":"ce4bh012rcd13ifvqd00","pricing_plan_id":"free"},{"bike_id":"91ab7ff1-0890-4e67-b2d7-3cd987b6ca52","system_id":"levelo_inurba_marseille","lat":43.31647,"lon":5.40433,"is_reserved":false,"is_disabled":false,"rental_uris":{"android":"levelo://app?vid=91ab7ff1-0890-4e67-b2d7-3cd987b6ca52","ios":"levelo://app?vid=91ab7ff1-0890-4e67-b2d7-3cd987b6ca52"},"vehicle_type_id":"4","last_reported":1690646842,"current_range_meters":400,"station_id":"ce4bh012rcd13ifvqd00","pricing_plan_id":"free"},{"bike_id":"f9ac32d9-bfba-4bb8-97d8-4f36f34532d8","system_id":"levelo_inurba_marseille","lat":43.316517,"lon":5.404375,"is_reserved":false,"is_disabled":false,"rental_uris":{"android":"levelo://app?vid=f9ac32d9-bfba-4bb8-97d8-4f36f34532d8","ios":"levelo://app?vid=f9ac32d9-bfba-4bb8-97d8-4f36f34532d8"},"vehicle_type_id":"4","last_reported":1690646842,"current_range_meters":29600,"station_id":"ce4bh012rcd13ifvqd00","pricing_plan_id":"free"},{"bike_id":"7cc77414-7355-4959-bd30-6a1816f7614c","system_id":"levelo_inurba_marseille","lat":43.31646,"lon":5.40434,"is_reserved":false,"is_disabled":false,"rental_uris":{"android":"levelo://app?vid=7cc77414-7355-4959-bd30-6a1816f7614c","ios":"levelo://app?vid=7cc77414-7355-4959-bd30-6a1816f7614c"},"vehicle_type_id":"4","last_reported":1690646842,"current_range_meters":15600,"station_id":"ce4bh012rcd13ifvqd00","pricing_plan_id":"free"},{"bike_id":"c37c6b12-ee28-445a-b34b-a452abf00be4","system_id":"levelo_inurba_marseille","lat":43.316517,"lon":5.404375,"is_reserved":false,"is_disabled":false,"rental_uris":{"android":"levelo://app?vid=c37c6b12-ee28-445a-b34b-a452abf00be4","ios":"levelo://app?vid=c37c6b12-ee28-445a-b34b-a452abf00be4"},"vehicle_type_id":"4","last_reported":1690646842,"current_range_meters":30000,"station_id":"ce4bh012rcd13ifvqd00","pricing_plan_id":"free"},{"bike_id":"9118b72f-4b17-453b-b42d-b800e74d1915","system_id":"levelo_inurba_marseille","lat":43.3164,"lon":5.40439,"is_reserved":false,"is_disabled":false,"rental_uris":{"android":"levelo://app?vid=9118b72f-4b17-453b-b42d-b800e74d1915","ios":"levelo://app?vid=9118b72f-4b17-453b-b42d-b800e74d1915"},"vehicle_type_id":"4","last_reported":1690646842,"current_range_meters":29600,"station_id":"ce4bh012rcd13ifvqd00","pricing_plan_id":"free"},{"bike_id":"fbc8e530-f5f4-400f-a213-a0ed89846fa7","system_id":"levelo_inurba_marseille","lat":43.291994,"lon":5.392907,"is_reserved":false,"is_disabled":false,"rental_uris":{"android":"levelo://app?vid=fbc8e530-f5f4-400f-a213-a0ed89846fa7","ios":"levelo://app?vid=fbc8e530-f5f4-400f-a213-a0ed89846fa7"},"vehicle_type_id":"4","last_reported":1690646842,"current_range_meters":6400,"station_id":"ce4bh192rcd13ifvqdd0","pricing_plan_id":"free"},{"bike_id":"ac2e5ebc-bfe1-477e-b5cf-3be5c39a78f1","system_id":"levelo_inurba_marseille","lat":43.284538,"lon":5.358657,"is_reserved":false,"is_disabled":false,"rental_uris":{"android":"levelo://app?vid=ac2e5ebc-bfe1-477e-b5cf-3be5c39a78f1","ios":"levelo://app?vid=ac2e5ebc-bfe1-477e-b5cf-3be5c39a78f1"},"vehicle_type_id":"4","last_reported":1690646842,"current_range_meters":19200,"station_id":"ce4bhah2rcd13ifvqei0","pricing_plan_id":"free"},{"bike_id":"65eb437a-7e57-4dcc-8c71-48f2441648ba","system_id":"levelo_inurba_marseille","lat":43.284534,"lon":5.358662,"is_reserved":false,"is_disabled":false,"rental_uris":{"android":"levelo://app?vid=65eb437a-7e57-4dcc-8c71-48f2441648ba","ios":"levelo://app?vid=65eb437a-7e57-4dcc-8c71-48f2441648ba"},"vehicle_type_id":"4","last_reported":1690646842,"current_range_meters":14800,"station_id":"ce4bhah2rcd13ifvqei0","pricing_plan_id":"free"},{"bike_id":"bb6463dc-0f50-4992-a71f-ace1fc61b746","system_id":"levelo_inurba_marseille","lat":43.284534,"lon":5.358662,"is_reserved":false,"is_disabled":false,"rental_uris":{"android":"levelo://app?vid=bb6463dc-0f50-4992-a71f-ace1fc61b746","ios":"levelo://app?vid=bb6463dc-0f50-4992-a71f-ace1fc61b746"},"vehicle_type_id":"4","last_reported":1690646842,"current_range_meters":26400,"station_id":"ce4bhah2rcd13ifvqei0","pricing_plan_id":"free"},{"bike_id":"26f6f285-d0dc-4187-a12a-92ec04846a93","system_id":"levelo_inurba_marseille","lat":43.284534,"lon":5.358662,"is_reserved":false,"is_disabled":false,"rental_uris":{"android":"levelo://app?vid=26f6f285-d0dc-4187-a12a-92ec04846a93","ios":"levelo://app?vid=26f6f285-d0dc-4187-a12a-92ec04846a93"},"vehicle_type_id":"4","last_reported":1690646842,"current_range_meters":17600,"station_id":"ce4bhah2rcd13ifvqei0","pricing_plan_id":"free"},{"bike_id":"4d987cb1-cc6c-4504-867d-e91a72363c71","system_id":"levelo_inurba_marseille","lat":43.284534,"lon":5.358662,"is_reserved":false,"is_disabled":false,"rental_uris":{"android":"levelo://app?vid=4d987cb1-cc6c-4504-867d-e91a72363c71","ios":"levelo://app?vid=4d987cb1-cc6c-4504-867d-e91a72363c71"},"vehicle_type_id":"4","last_reported":1690646842,"current_range_meters":20000,"station_id":"ce4bhah2rcd13ifvqei0","pricing_plan_id":"free"},{"bike_id":"3379a594-4bdb-4d92-a4e1-f47813f93272","system_id":"levelo_inurba_marseille","lat":43.31556,"lon":5.40638,"is_reserved":false,"is_disabled":false,"rental_uris":{"android":"levelo://app?vid=3379a594-4bdb-4d92-a4e1-f47813f93272","ios":"levelo://app?vid=3379a594-4bdb-4d92-a4e1-f47813f93272"},"vehicle_type_id":"4","last_reported":1690646842,"current_range_meters":18400,"station_id":"","pricing_plan_id":"free"},{"bike_id":"fb3040b4-89e4-40e0-9105-0bc3579cede1","system_id":"levelo_inurba_marseille","lat":43.31581,"lon":5.40636,"is_reserved":false,"is_disabled":false,"rental_uris":{"android":"levelo://app?vid=fb3040b4-89e4-40e0-9105-0bc3579cede1","ios":"levelo://app?vid=fb3040b4-89e4-40e0-9105-0bc3579cede1"},"vehicle_type_id":"4","last_reported":1690646842,"current_range_meters":12400,"station_id":"","pricing_plan_id":"free"},{"bike_id":"c4a5156a-2c2c-4720-a2a1-814926c9aa7e","system_id":"levelo_inurba_marseille","lat":43.285856,"lon":5.350771,"is_reserved":false,"is_disabled":false,"rental_uris":{"android":"levelo://app?vid=c4a5156a-2c2c-4720-a2a1-814926c9aa7e","ios":"levelo://app?vid=c4a5156a-2c2c-4720-a2a1-814926c9aa7e"},"vehicle_type_id":"4","last_reported":1690646842,"current_range_meters":31200,"station_id":"ce4bhch2rcd13ifvqeug","pricing_plan_id":"free"},{"bike_id":"3de16eb0-1c26-4520-a609-9aa8ff9191d6","system_id":"levelo_inurba_marseille","lat":43.28619,"lon":5.35104,"is_reserved":false,"is_disabled":false,"rental_uris":{"android":"levelo://app?vid=3de16eb0-1c26-4520-a609-9aa8ff9191d6","ios":"levelo://app?vid=3de16eb0-1c26-4520-a609-9aa8ff9191d6"},"vehicle_type_id":"4","last_reported":1690646842,"current_range_meters":17200,"station_id":"ce4bhch2rcd13ifvqeug","pricing_plan_id":"free"},{"bike_id":"6804fe54-df0a-4d9e-b6c4-8ca0494441b9","system_id":"levelo_inurba_marseille","lat":43.28618,"lon":5.35106,"is_reserved":false,"is_disabled":false,"rental_uris":{"android":"levelo://app?vid=6804fe54-df0a-4d9e-b6c4-8ca0494441b9","ios":"levelo://app?vid=6804fe54-df0a-4d9e-b6c4-8ca0494441b9"},"vehicle_type_id":"4","last_reported":1690646842,"current_range_meters":31200,"station_id":"ce4bhch2rcd13ifvqeug","pricing_plan_id":"free"},{"bike_id":"2d9caa56-c7ae-402c-bd3a-ec4d83f8ada5","system_id":"levelo_inurba_marseille","lat":43.285856,"lon":5.350771,"is_reserved":false,"is_disabled":false,"rental_uris":{"android":"levelo://app?vid=2d9caa56-c7ae-402c-bd3a-ec4d83f8ada5","ios":"levelo://app?vid=2d9caa56-c7ae-402c-bd3a-ec4d83f8ada5"},"vehicle_type_id":"4","last_reported":1690646842,"current_range_meters":30400,"station_id":"ce4bhch2rcd13ifvqeug","pricing_plan_id":"free"},{"bike_id":"4ead2a98-fba7-446e-a719-f9a215a7c928","system_id":"levelo_inurba_marseille","lat":43.28617,"lon":5.35106,"is_reserved":false,"is_disabled":false,"rental_uris":{"android":"levelo://app?vid=4ead2a98-fba7-446e-a719-f9a215a7c928","ios":"levelo://app?vid=4ead2a98-fba7-446e-a719-f9a215a7c928"},"vehicle_type_id":"4","last_reported":1690646842,"current_range_meters":8800,"station_id":"ce4bhch2rcd13ifvqeug","pricing_plan_id":"free"},{"bike_id":"5cb18252-dd5f-4cf1-ab27-a29f1d1135d4","system_id":"levelo_inurba_marseille","lat":43.28616,"lon":5.35106,"is_reserved":false,"is_disabled":false,"rental_uris":{"android":"levelo://app?vid=5cb18252-dd5f-4cf1-ab27-a29f1d1135d4","ios":"levelo://app?vid=5cb18252-dd5f-4cf1-ab27-a29f1d1135d4"},"vehicle_type_id":"4","last_reported":1690646842,"current_range_meters":0,"station_id":"ce4bhch2rcd13ifvqeug","pricing_plan_id":"free"},{"bike_id":"bb2c01f6-87f6-44ef-8d3b-738945a9d1cf","system_id":"levelo_inurba_marseille","lat":43.28615,"lon":5.35108,"is_reserved":false,"is_disabled":false,"rental_uris":{"android":"levelo://app?vid=bb2c01f6-87f6-44ef-8d3b-738945a9d1cf","ios":"levelo://app?vid=bb2c01f6-87f6-44ef-8d3b-738945a9d1cf"},"vehicle_type_id":"4","last_reported":1690646842,"current_range_meters":13200,"station_id":"ce4bhch2rcd13ifvqeug","pricing_plan_id":"free"},{"bike_id":"5db74664-57a2-49fe-9600-1c47b0c9aec1","system_id":"levelo_inurba_marseille","lat":43.285856,"lon":5.350771,"is_reserved":false,"is_disabled":false,"rental_uris":{"android":"levelo://app?vid=5db74664-57a2-49fe-9600-1c47b0c9aec1","ios":"levelo://app?vid=5db74664-57a2-49fe-9600-1c47b0c9aec1"},"vehicle_type_id":"4","last_reported":1690646842,"current_range_meters":0,"station_id":"ce4bhch2rcd13ifvqeug","pricing_plan_id":"free"},{"bike_id":"09c34ccf-cef1-4936-9b42-84f57eeac1a3","system_id":"levelo_inurba_marseille","lat":43.28615,"lon":5.35106,"is_reserved":false,"is_disabled":false,"rental_uris":{"android":"levelo://app?vid=09c34ccf-cef1-4936-9b42-84f57eeac1a3","ios":"levelo://app?vid=09c34ccf-cef1-4936-9b42-84f57eeac1a3"},"vehicle_type_id":"4","last_reported":1690646842,"current_range_meters":20400,"station_id":"ce4bhch2rcd13ifvqeug","pricing_plan_id":"free"},{"bike_id":"2a2a66b0-c2d7-468d-a6f5-6a35dc34c535","system_id":"levelo_inurba_marseille","lat":43.28614,"lon":5.35109,"is_reserved":false,"is_disabled":false,"rental_uris":{"android":"levelo://app?vid=2a2a66b0-c2d7-468d-a6f5-6a35dc34c535","ios":"levelo://app?vid=2a2a66b0-c2d7-468d-a6f5-6a35dc34c535"},"vehicle_type_id":"4","last_reported":1690646842,"current_range_meters":22000,"station_id":"ce4bhch2rcd13ifvqeug","pricing_plan_id":"free"},{"bike_id":"ef141484-9ca0-46ea-b35b-2d03b4065b27","system_id":"levelo_inurba_marseille","lat":43.285856,"lon":5.350771,"is_reserved":false,"is_disabled":false,"rental_uris":{"android":"levelo://app?vid=ef141484-9ca0-46ea-b35b-2d03b4065b27","ios":"levelo://app?vid=ef141484-9ca0-46ea-b35b-2d03b4065b27"},"vehicle_type_id":"4","last_reported":1690646842,"current_range_meters":30000,"station_id":"ce4bhch2rcd13ifvqeug","pricing_plan_id":"free"},{"bike_id":"154af9c3-658f-4305-8a40-92545e3640f3","system_id":"levelo_inurba_marseille","lat":43.285856,"lon":5.350771,"is_reserved":false,"is_disabled":false,"rental_uris":{"android":"levelo://app?vid=154af9c3-658f-4305-8a40-92545e3640f3","ios":"levelo://app?vid=154af9c3-658f-4305-8a40-92545e3640f3"},"vehicle_type_id":"4","last_reported":1690646842,"current_range_meters":19600,"station_id":"ce4bhch2rcd13ifvqeug","pricing_plan_id":"free"},{"bike_id":"1a3b71f0-1366-4746-8d80-acaba30c6783","system_id":"levelo_inurba_marseille","lat":43.285856,"lon":5.350771,"is_reserved":false,"is_disabled":false,"rental_uris":{"android":"levelo://app?vid=1a3b71f0-1366-4746-8d80-acaba30c6783","ios":"levelo://app?vid=1a3b71f0-1366-4746-8d80-acaba30c6783"},"vehicle_type_id":"4","last_reported":1690646842,"current_range_meters":17600,"station_id":"ce4bhch2rcd13ifvqeug","pricing_plan_id":"free"},{"bike_id":"947fb46a-6072-4712-b0a4-2381424d2684","system_id":"levelo_inurba_marseille","lat":43.285856,"lon":5.350771,"is_reserved":false,"is_disabled":false,"rental_uris":{"android":"levelo://app?vid=947fb46a-6072-4712-b0a4-2381424d2684","ios":"levelo://app?vid=947fb46a-6072-4712-b0a4-2381424d2684"},"vehicle_type_id":"4","last_reported":1690646842,"current_range_meters":20400,"station_id":"ce4bhch2rcd13ifvqeug","pricing_plan_id":"free"},{"bike_id":"6d23a72e-b21c-4220-86d7-33d1024c5dec","system_id":"levelo_inurba_marseille","lat":43.28613,"lon":5.35102,"is_reserved":false,"is_disabled":false,"rental_uris":{"android":"levelo://app?vid=6d23a72e-b21c-4220-86d7-33d1024c5dec","ios":"levelo://app?vid=6d23a72e-b21c-4220-86d7-33d1024c5dec"},"vehicle_type_id":"4","last_reported":1690646842,"current_range_meters":19200,"station_id":"ce4bhch2rcd13ifvqeug","pricing_plan_id":"free"},{"bike_id":"5b112069-dd75-4a1c-a0d8-84fb8f414b25","system_id":"levelo_inurba_marseille","lat":43.28611,"lon":5.35106,"is_reserved":false,"is_disabled":false,"rental_uris":{"android":"levelo://app?vid=5b112069-dd75-4a1c-a0d8-84fb8f414b25","ios":"levelo://app?vid=5b112069-dd75-4a1c-a0d8-84fb8f414b25"},"vehicle_type_id":"4","last_reported":1690646842,"current_range_meters":30000,"station_id":"ce4bhch2rcd13ifvqeug","pricing_plan_id":"free"},{"bike_id":"bc2a73b5-0228-408a-b4e0-048d57313dc0","system_id":"levelo_inurba_marseille","lat":43.283998,"lon":5.375062,"is_reserved":false,"is_disabled":false,"rental_uris":{"android":"levelo://app?vid=bc2a73b5-0228-408a-b4e0-048d57313dc0","ios":"levelo://app?vid=bc2a73b5-0228-408a-b4e0-048d57313dc0"},"vehicle_type_id":"4","last_reported":1690646842,"current_range_meters":26400,"station_id":"ce4bh412rcd13ifvqds0","pricing_plan_id":"free"},{"bike_id":"5c429d20-4ddf-4b3d-a205-c6ec9040e754","system_id":"levelo_inurba_marseille","lat":43.283998,"lon":5.375062,"is_reserved":false,"is_disabled":false,"rental_uris":{"android":"levelo://app?vid=5c429d20-4ddf-4b3d-a205-c6ec9040e754","ios":"levelo://app?vid=5c429d20-4ddf-4b3d-a205-c6ec9040e754"},"vehicle_type_id":"4","last_reported":1690646842,"current_range_meters":14000,"station_id":"ce4bh412rcd13ifvqds0","pricing_plan_id":"free"},{"bike_id":"88f2c355-7e03-4b23-804d-48d03770697b","system_id":"levelo_inurba_marseille","lat":43.283998,"lon":5.375062,"is_reserved":false,"is_disabled":false,"rental_uris":{"android":"levelo://app?vid=88f2c355-7e03-4b23-804d-48d03770697b","ios":"levelo://app?vid=88f2c355-7e03-4b23-804d-48d03770697b"},"vehicle_type_id":"4","last_reported":1690646842,"current_range_meters":26000,"station_id":"ce4bh412rcd13ifvqds0","pricing_plan_id":"free"},{"bike_id":"864c18cc-46c1-442b-ba51-ef6689075b62","system_id":"levelo_inurba_marseille","lat":43.283998,"lon":5.375062,"is_reserved":false,"is_disabled":false,"rental_uris":{"android":"levelo://app?vid=864c18cc-46c1-442b-ba51-ef6689075b62","ios":"levelo://app?vid=864c18cc-46c1-442b-ba51-ef6689075b62"},"vehicle_type_id":"4","last_reported":1690646842,"current_range_meters":23200,"station_id":"ce4bh412rcd13ifvqds0","pricing_plan_id":"free"},{"bike_id":"bb2f6364-86ce-4099-bc50-932474970baa","system_id":"levelo_inurba_marseille","lat":43.286595,"lon":5.386795,"is_reserved":false,"is_disabled":false,"rental_uris":{"android":"levelo://app?vid=bb2f6364-86ce-4099-bc50-932474970baa","ios":"levelo://app?vid=bb2f6364-86ce-4099-bc50-932474970baa"},"vehicle_type_id":"4","last_reported":1690646842,"current_range_meters":10000,"station_id":"ce4bh492rcd13ifvqdug","pricing_plan_id":"free"},{"bike_id":"84918ad6-3f03-419e-97f4-e63c741112f6","system_id":"levelo_inurba_marseille","lat":43.286595,"lon":5.386795,"is_reserved":false,"is_disabled":false,"rental_uris":{"android":"levelo://app?vid=84918ad6-3f03-419e-97f4-e63c741112f6","ios":"levelo://app?vid=84918ad6-3f03-419e-97f4-e63c741112f6"},"vehicle_type_id":"4","last_reported":1690646842,"current_range_meters":18800,"station_id":"ce4bh492rcd13ifvqdug","pricing_plan_id":"free"},{"bike_id":"1068628b-7b86-4ab1-885a-4aad31fe4788","system_id":"levelo_inurba_marseille","lat":43.286595,"lon":5.386795,"is_reserved":false,"is_disabled":false,"rental_uris":{"android":"levelo://app?vid=1068628b-7b86-4ab1-885a-4aad31fe4788","ios":"levelo://app?vid=1068628b-7b86-4ab1-885a-4aad31fe4788"},"vehicle_type_id":"4","last_reported":1690646842,"current_range_meters":16000,"station_id":"ce4bh492rcd13ifvqdug","pricing_plan_id":"free"},{"bike_id":"1db5a076-aa17-4548-a8db-553e209d1844","system_id":"levelo_inurba_marseille","lat":43.286595,"lon":5.386795,"is_reserved":false,"is_disabled":false,"rental_uris":{"android":"levelo://app?vid=1db5a076-aa17-4548-a8db-553e209d1844","ios":"levelo://app?vid=1db5a076-aa17-4548-a8db-553e209d1844"},"vehicle_type_id":"4","last_reported":1690646842,"current_range_meters":24400,"station_id":"ce4bh492rcd13ifvqdug","pricing_plan_id":"free"},{"bike_id":"5031b852-7aeb-4797-bbaf-2afb80234999","system_id":"levelo_inurba_marseille","lat":43.31885,"lon":5.40735,"is_reserved":false,"is_disabled":false,"rental_uris":{"android":"levelo://app?vid=5031b852-7aeb-4797-bbaf-2afb80234999","ios":"levelo://app?vid=5031b852-7aeb-4797-bbaf-2afb80234999"},"vehicle_type_id":"4","last_reported":1690646842,"current_range_meters":26400,"station_id":"ce4bhq12rcd13ifvqhig","pricing_plan_id":"free"},{"bike_id":"3e7c8399-35a4-4364-b2a8-fee20588aad7","system_id":"levelo_inurba_marseille","lat":43.319179,"lon":5.407725,"is_reserved":false,"is_disabled":false,"rental_uris":{"android":"levelo://app?vid=3e7c8399-35a4-4364-b2a8-fee20588aad7","ios":"levelo://app?vid=3e7c8399-35a4-4364-b2a8-fee20588aad7"},"vehicle_type_id":"4","last_reported":1690646842,"current_range_meters":4000,"station_id":"ce4bhq12rcd13ifvqhig","pricing_plan_id":"free"},{"bike_id":"64e29e51-351b-47c8-abb7-b6f467d54995","system_id":"levelo_inurba_marseille","lat":43.323464,"lon":5.406297,"is_reserved":false,"is_disabled":false,"rental_uris":{"android":"levelo://app?vid=64e29e51-351b-47c8-abb7-b6f467d54995","ios":"levelo://app?vid=64e29e51-351b-47c8-abb7-b6f467d54995"},"vehicle_type_id":"4","last_reported":1690646842,"current_range_meters":8800,"station_id":"ce4bhq92rcd13ifvqhjg","pricing_plan_id":"free"},{"bike_id":"26bfcad4-2dc6-43bb-9f00-91622fd750a3","system_id":"levelo_inurba_marseille","lat":43.323464,"lon":5.406297,"is_reserved":false,"is_disabled":false,"rental_uris":{"android":"levelo://app?vid=26bfcad4-2dc6-43bb-9f00-91622fd750a3","ios":"levelo://app?vid=26bfcad4-2dc6-43bb-9f00-91622fd750a3"},"vehicle_type_id":"4","last_reported":1690646842,"current_range_meters":31600,"station_id":"ce4bhq92rcd13ifvqhjg","pricing_plan_id":"free"},{"bike_id":"b0744a03-2405-4a16-9223-0f93f8291a05","system_id":"levelo_inurba_marseille","lat":43.29802,"lon":5.40397,"is_reserved":false,"is_disabled":false,"rental_uris":{"android":"levelo://app?vid=b0744a03-2405-4a16-9223-0f93f8291a05","ios":"levelo://app?vid=b0744a03-2405-4a16-9223-0f93f8291a05"},"vehicle_type_id":"4","last_reported":1690646842,"current_range_meters":19600,"station_id":"","pricing_plan_id":"free"},{"bike_id":"c8673bbb-837b-48c8-a4af-b78f5f40e204","system_id":"levelo_inurba_marseille","lat":43.284787,"lon":5.384116,"is_reserved":false,"is_disabled":false,"rental_uris":{"android":"levelo://app?vid=c8673bbb-837b-48c8-a4af-b78f5f40e204","ios":"levelo://app?vid=c8673bbb-837b-48c8-a4af-b78f5f40e204"},"vehicle_type_id":"4","last_reported":1690646842,"current_range_meters":6400,"station_id":"ce4bh512rcd13ifvqe3g","pricing_plan_id":"free"},{"bike_id":"cf0bf93f-d49d-4479-8320-052904c77e28","system_id":"levelo_inurba_marseille","lat":43.29801,"lon":5.40402,"is_reserved":false,"is_disabled":false,"rental_uris":{"android":"levelo://app?vid=cf0bf93f-d49d-4479-8320-052904c77e28","ios":"levelo://app?vid=cf0bf93f-d49d-4479-8320-052904c77e28"},"vehicle_type_id":"4","last_reported":1690646842,"current_range_meters":30000,"station_id":"","pricing_plan_id":"free"},{"bike_id":"41918487-c7f5-4ca4-8e15-28473670b6b7","system_id":"levelo_inurba_marseille","lat":43.29801,"lon":5.40403,"is_reserved":false,"is_disabled":false,"rental_uris":{"android":"levelo://app?vid=41918487-c7f5-4ca4-8e15-28473670b6b7","ios":"levelo://app?vid=41918487-c7f5-4ca4-8e15-28473670b6b7"},"vehicle_type_id":"4","last_reported":1690646842,"current_range_meters":31200,"station_id":"","pricing_plan_id":"free"},{"bike_id":"ab1381ae-ee7c-4a3d-935b-7edaf3934cb5","system_id":"levelo_inurba_marseille","lat":43.288501,"lon":5.393087,"is_reserved":false,"is_disabled":false,"rental_uris":{"android":"levelo://app?vid=ab1381ae-ee7c-4a3d-935b-7edaf3934cb5","ios":"levelo://app?vid=ab1381ae-ee7c-4a3d-935b-7edaf3934cb5"},"vehicle_type_id":"4","last_reported":1690646842,"current_range_meters":7600,"station_id":"ce4bh2p2rcd13ifvqdi0","pricing_plan_id":"free"},{"bike_id":"8c0b61de-e3f8-41b5-8e64-14ce1d45e2c7","system_id":"levelo_inurba_marseille","lat":43.288497,"lon":5.393089,"is_reserved":false,"is_disabled":false,"rental_uris":{"android":"levelo://app?vid=8c0b61de-e3f8-41b5-8e64-14ce1d45e2c7","ios":"levelo://app?vid=8c0b61de-e3f8-41b5-8e64-14ce1d45e2c7"},"vehicle_type_id":"4","last_reported":1690646842,"current_range_meters":4800,"station_id":"ce4bh2p2rcd13ifvqdi0","pricing_plan_id":"free"},{"bike_id":"73dfe535-c830-45c6-9270-b1249cd3fef5","system_id":"levelo_inurba_marseille","lat":43.28427,"lon":5.34987,"is_reserved":false,"is_disabled":false,"rental_uris":{"android":"levelo://app?vid=73dfe535-c830-45c6-9270-b1249cd3fef5","ios":"levelo://app?vid=73dfe535-c830-45c6-9270-b1249cd3fef5"},"vehicle_type_id":"4","last_reported":1690646842,"current_range_meters":22800,"station_id":"ce4bhbh2rcd13ifvqepg","pricing_plan_id":"free"},{"bike_id":"d8ab82e9-0cce-4bf1-a841-1b97470409f1","system_id":"levelo_inurba_marseille","lat":43.28425,"lon":5.34989,"is_reserved":false,"is_disabled":false,"rental_uris":{"android":"levelo://app?vid=d8ab82e9-0cce-4bf1-a841-1b97470409f1","ios":"levelo://app?vid=d8ab82e9-0cce-4bf1-a841-1b97470409f1"},"vehicle_type_id":"4","last_reported":1690646842,"current_range_meters":7600,"station_id":"ce4bhbh2rcd13ifvqepg","pricing_plan_id":"free"},{"bike_id":"a916c805-9a3e-4a2b-bc8b-ab09b2b568a9","system_id":"levelo_inurba_marseille","lat":43.284306,"lon":5.3497,"is_reserved":false,"is_disabled":false,"rental_uris":{"android":"levelo://app?vid=a916c805-9a3e-4a2b-bc8b-ab09b2b568a9","ios":"levelo://app?vid=a916c805-9a3e-4a2b-bc8b-ab09b2b568a9"},"vehicle_type_id":"4","last_reported":1690646842,"current_range_meters":23600,"station_id":"ce4bhbh2rcd13ifvqepg","pricing_plan_id":"free"},{"bike_id":"4c7b7555-cea0-463a-b3e0-9d9d44a7835b","system_id":"levelo_inurba_marseille","lat":43.28425,"lon":5.34985,"is_reserved":false,"is_disabled":false,"rental_uris":{"android":"levelo://app?vid=4c7b7555-cea0-463a-b3e0-9d9d44a7835b","ios":"levelo://app?vid=4c7b7555-cea0-463a-b3e0-9d9d44a7835b"},"vehicle_type_id":"4","last_reported":1690646842,"current_range_meters":18400,"station_id":"ce4bhbh2rcd13ifvqepg","pricing_plan_id":"free"},{"bike_id":"5aa4fe5e-986f-4803-9986-d9cb7cffa375","system_id":"levelo_inurba_marseille","lat":43.284219,"lon":5.3497,"is_reserved":false,"is_disabled":false,"rental_uris":{"android":"levelo://app?vid=5aa4fe5e-986f-4803-9986-d9cb7cffa375","ios":"levelo://app?vid=5aa4fe5e-986f-4803-9986-d9cb7cffa375"},"vehicle_type_id":"4","last_reported":1690646842,"current_range_meters":31200,"station_id":"ce4bhbh2rcd13ifvqepg","pricing_plan_id":"free"},{"bike_id":"2b03d1e9-e8b1-40e2-ac11-5b582136f5fe","system_id":"levelo_inurba_marseille","lat":43.284219,"lon":5.3497,"is_reserved":false,"is_disabled":false,"rental_uris":{"android":"levelo://app?vid=2b03d1e9-e8b1-40e2-ac11-5b582136f5fe","ios":"levelo://app?vid=2b03d1e9-e8b1-40e2-ac11-5b582136f5fe"},"vehicle_type_id":"4","last_reported":1690646842,"current_range_meters":22000,"station_id":"ce4bhbh2rcd13ifvqepg","pricing_plan_id":"free"},{"bike_id":"db4e6490-12c0-459d-8716-996b8f4ebf42","system_id":"levelo_inurba_marseille","lat":43.28421,"lon":5.34986,"is_reserved":false,"is_disabled":false,"rental_uris":{"android":"levelo://app?vid=db4e6490-12c0-459d-8716-996b8f4ebf42","ios":"levelo://app?vid=db4e6490-12c0-459d-8716-996b8f4ebf42"},"vehicle_type_id":"4","last_reported":1690646842,"current_range_meters":24400,"station_id":"ce4bhbh2rcd13ifvqepg","pricing_plan_id":"free"},{"bike_id":"b4367827-a3ad-4b1c-b404-2294d49c5857","system_id":"levelo_inurba_marseille","lat":43.28421,"lon":5.34983,"is_reserved":false,"is_disabled":false,"rental_uris":{"android":"levelo://app?vid=b4367827-a3ad-4b1c-b404-2294d49c5857","ios":"levelo://app?vid=b4367827-a3ad-4b1c-b404-2294d49c5857"},"vehicle_type_id":"4","last_reported":1690646842,"current_range_meters":28400,"station_id":"ce4bhbh2rcd13ifvqepg","pricing_plan_id":"free"},{"bike_id":"b4dc9478-e411-491f-9766-0483311aae4c","system_id":"levelo_inurba_marseille","lat":43.284219,"lon":5.3497,"is_reserved":false,"is_disabled":false,"rental_uris":{"android":"levelo://app?vid=b4dc9478-e411-491f-9766-0483311aae4c","ios":"levelo://app?vid=b4dc9478-e411-491f-9766-0483311aae4c"},"vehicle_type_id":"4","last_reported":1690646842,"current_range_meters":24000,"station_id":"ce4bhbh2rcd13ifvqepg","pricing_plan_id":"free"},{"bike_id":"ad7e64f5-3d49-4dfa-8d1d-043321d15306","system_id":"levelo_inurba_marseille","lat":43.28418,"lon":5.34988,"is_reserved":false,"is_disabled":false,"rental_uris":{"android":"levelo://app?vid=ad7e64f5-3d49-4dfa-8d1d-043321d15306","ios":"levelo://app?vid=ad7e64f5-3d49-4dfa-8d1d-043321d15306"},"vehicle_type_id":"4","last_reported":1690646842,"current_range_meters":19200,"station_id":"ce4bhbh2rcd13ifvqepg","pricing_plan_id":"free"},{"bike_id":"c596d779-453b-4d5b-afa6-4cb6b462e54f","system_id":"levelo_inurba_marseille","lat":43.28418,"lon":5.34988,"is_reserved":false,"is_disabled":false,"rental_uris":{"android":"levelo://app?vid=c596d779-453b-4d5b-afa6-4cb6b462e54f","ios":"levelo://app?vid=c596d779-453b-4d5b-afa6-4cb6b462e54f"},"vehicle_type_id":"4","last_reported":1690646842,"current_range_meters":14000,"station_id":"ce4bhbh2rcd13ifvqepg","pricing_plan_id":"free"},{"bike_id":"b58fb898-956a-4e49-b047-978622c65644","system_id":"levelo_inurba_marseille","lat":43.284219,"lon":5.3497,"is_reserved":false,"is_disabled":false,"rental_uris":{"android":"levelo://app?vid=b58fb898-956a-4e49-b047-978622c65644","ios":"levelo://app?vid=b58fb898-956a-4e49-b047-978622c65644"},"vehicle_type_id":"4","last_reported":1690646842,"current_range_meters":24800,"station_id":"ce4bhbh2rcd13ifvqepg","pricing_plan_id":"free"},{"bike_id":"935ad233-c9a3-4ffd-86af-00b9e908ca91","system_id":"levelo_inurba_marseille","lat":43.284219,"lon":5.3497,"is_reserved":false,"is_disabled":false,"rental_uris":{"android":"levelo://app?vid=935ad233-c9a3-4ffd-86af-00b9e908ca91","ios":"levelo://app?vid=935ad233-c9a3-4ffd-86af-00b9e908ca91"},"vehicle_type_id":"4","last_reported":1690646842,"current_range_meters":24800,"station_id":"ce4bhbh2rcd13ifvqepg","pricing_plan_id":"free"},{"bike_id":"5ffb7a6a-b163-4570-96af-0515bdefd386","system_id":"levelo_inurba_marseille","lat":43.2842,"lon":5.34977,"is_reserved":false,"is_disabled":false,"rental_uris":{"android":"levelo://app?vid=5ffb7a6a-b163-4570-96af-0515bdefd386","ios":"levelo://app?vid=5ffb7a6a-b163-4570-96af-0515bdefd386"},"vehicle_type_id":"4","last_reported":1690646842,"current_range_meters":14400,"station_id":"ce4bhbh2rcd13ifvqepg","pricing_plan_id":"free"},{"bike_id":"93ef7a96-b76f-4cbb-b9d8-ad9dcaf15f72","system_id":"levelo_inurba_marseille","lat":43.284219,"lon":5.3497,"is_reserved":false,"is_disabled":false,"rental_uris":{"android":"levelo://app?vid=93ef7a96-b76f-4cbb-b9d8-ad9dcaf15f72","ios":"levelo://app?vid=93ef7a96-b76f-4cbb-b9d8-ad9dcaf15f72"},"vehicle_type_id":"4","last_reported":1690646842,"current_range_meters":24800,"station_id":"ce4bhbh2rcd13ifvqepg","pricing_plan_id":"free"},{"bike_id":"d3a4df0d-1173-4cc6-bcc7-d0734c9f836e","system_id":"levelo_inurba_marseille","lat":43.28414,"lon":5.34994,"is_reserved":false,"is_disabled":false,"rental_uris":{"android":"levelo://app?vid=d3a4df0d-1173-4cc6-bcc7-d0734c9f836e","ios":"levelo://app?vid=d3a4df0d-1173-4cc6-bcc7-d0734c9f836e"},"vehicle_type_id":"4","last_reported":1690646842,"current_range_meters":18800,"station_id":"ce4bhbh2rcd13ifvqepg","pricing_plan_id":"free"},{"bike_id":"c78e3e1f-8a71-4781-a792-04deccb30e4e","system_id":"levelo_inurba_marseille","lat":43.28414,"lon":5.34992,"is_reserved":false,"is_disabled":false,"rental_uris":{"android":"levelo://app?vid=c78e3e1f-8a71-4781-a792-04deccb30e4e","ios":"levelo://app?vid=c78e3e1f-8a71-4781-a792-04deccb30e4e"},"vehicle_type_id":"4","last_reported":1690646842,"current_range_meters":12800,"station_id":"ce4bhbh2rcd13ifvqepg","pricing_plan_id":"free"},{"bike_id":"0e52b493-1ecf-49d3-bc79-13831d2b3fea","system_id":"levelo_inurba_marseille","lat":43.28413,"lon":5.34991,"is_reserved":false,"is_disabled":false,"rental_uris":{"android":"levelo://app?vid=0e52b493-1ecf-49d3-bc79-13831d2b3fea","ios":"levelo://app?vid=0e52b493-1ecf-49d3-bc79-13831d2b3fea"},"vehicle_type_id":"4","last_reported":1690646842,"current_range_meters":27200,"station_id":"ce4bhbh2rcd13ifvqepg","pricing_plan_id":"free"},{"bike_id":"78702bd3-15f1-4b90-bef4-39e08cc78f06","system_id":"levelo_inurba_marseille","lat":43.284219,"lon":5.3497,"is_reserved":false,"is_disabled":false,"rental_uris":{"android":"levelo://app?vid=78702bd3-15f1-4b90-bef4-39e08cc78f06","ios":"levelo://app?vid=78702bd3-15f1-4b90-bef4-39e08cc78f06"},