{"last_updated":1739128029,"ttl":60,"version":"2.2","data":{"bikes":[{"bike_id":"9b232bcd-84e3-4ef9-b08f-211b12d665ca","system_id":"levelo_inurba_marseille","lat":43.29867,"lon":5.36288,"is_reserved":false,"is_disabled":false,"rental_uris":{"android":"levelo://app?vid=9b232bcd-84e3-4ef9-b08f-211b12d665ca","ios":"levelo://app?vid=9b232bcd-84e3-4ef9-b08f-211b12d665ca"},"vehicle_type_id":"4","last_reported":1739128029,"current_range_meters":33200,"station_id":"ce4bgpp2rcd13ifvqc3g","pricing_plan_id":"cebpf4jnsgd1na2vs0mg"},{"bike_id":"08501e7f-afe1-46d3-a9a4-b46d823e49fa","system_id":"levelo_inurba_marseille","lat":43.28699,"lon":5.3739,"is_reserved":false,"is_disabled":false,"rental_uris":{"android":"levelo://app?vid=08501e7f-afe1-46d3-a9a4-b46d823e49fa","ios":"levelo://app?vid=08501e7f-afe1-46d3-a9a4-b46d823e49fa"},"vehicle_type_id":"4","last_reported":1739128029,"current_range_meters":28000,"station_id":"ce4bh3p2rcd13ifvqdq0","pricing_plan_id":"cebpf4jnsgd1na2vs0mg"},{"bike_id":"cfa7f1cc-5150-48ed-843c-f6960ddad1e1","system_id":"levelo_inurba_marseille","lat":43.26495,"lon":5.39542,"is_reserved":false,"is_disabled":true,"rental_uris":{"android":"levelo://app?vid=cfa7f1cc-5150-48ed-843c-f6960ddad1e1","ios":"levelo://app?vid=cfa7f1cc-5150-48ed-843c-f6960ddad1e1"},"vehicle_type_id":"4","last_reported":1739128029,"current_range_meters":8400,"station_id":"ce4bhi12rcd13ifvqfq0","pricing_plan_id":"cebpf4jnsgd1na2vs0mg"},{"bike_id":"e06bad01-5d50-47d2-96c7-a75ef9dc120d","system_id":"levelo_inurba_marseille","lat":43.33787,"lon":5.3749,"is_reserved":false,"is_disabled":false,"rental_uris":{"android":"levelo://app?vid=e06bad01-5d50-47d2-96c7-a75ef9dc120d","ios":"levelo://app?vid=e06bad01-5d50-47d2-96c7-a75ef9dc120d"},"vehicle_type_id":"4","last_reported":1739128029,"current_range_meters":18800,"station_id":"","pricing_plan_id":"cebpf4jnsgd1na2vs0mg"},{"bike_id":"a7cfb898-c168-4772-adb6-d7ea991ef424","system_id":"levelo_inurba_marseille","lat":43.243925,"lon":5.370485,"is_reserved":false,"is_disabled":false,"rental_uris":{"android":"levelo://app?vid=a7cfb898-c168-4772-adb6-d7ea991ef424","ios":"levelo://app?vid=a7cfb898-c168-4772-adb6-d7ea991ef424"},"vehicle_type_id":"4","last_reported":1739128029,"current_range_meters":38800,"station_id":"ce4bhhh2rcd13ifvqfk0","pricing_plan_id":"cebpf4jnsgd1na2vs0mg"},{"bike_id":"c9eff8f3-a90e-4097-a2d7-a923b8eb1a2b","system_id":"levelo_inurba_marseille","lat":43.26498,"lon":5.39543,"is_reserved":false,"is_disabled":false,"rental_uris":{"android":"levelo://app?vid=c9eff8f3-a90e-4097-a2d7-a923b8eb1a2b","ios":"levelo://app?vid=c9eff8f3-a90e-4097-a2d7-a923b8eb1a2b"},"vehicle_type_id":"4","last_reported":1739128029,"current_range_meters":16000,"station_id":"ce4bhi12rcd13ifvqfq0","pricing_plan_id":"cebpf4jnsgd1na2vs0mg"},{"bike_id":"87edcbec-3ace-44f0-bfe2-9f6b913a8da8","system_id":"levelo_inurba_marseille","lat":43.29526,"lon":5.39041,"is_reserved":false,"is_disabled":false,"rental_uris":{"android":"levelo://app?vid=87edcbec-3ace-44f0-bfe2-9f6b913a8da8","ios":"levelo://app?vid=87edcbec-3ace-44f0-bfe2-9f6b913a8da8"},"vehicle_type_id":"4","last_reported":1739128029,"current_range_meters":39200,"station_id":"ce4bh3p2rcd13ifvqdp0","pricing_plan_id":"cebpf4jnsgd1na2vs0mg"},{"bike_id":"b225a116-2b93-4007-b200-ac7139df231c","system_id":"levelo_inurba_marseille","lat":43.28468,"lon":5.35887,"is_reserved":false,"is_disabled":false,"rental_uris":{"android":"levelo://app?vid=b225a116-2b93-4007-b200-ac7139df231c","ios":"levelo://app?vid=b225a116-2b93-4007-b200-ac7139df231c"},"vehicle_type_id":"4","last_reported":1739128029,"current_range_meters":38800,"station_id":"ce4bhah2rcd13ifvqei0","pricing_plan_id":"cebpf4jnsgd1na2vs0mg"},{"bike_id":"952ab6ee-c71f-431a-a116-28c771dc3a24","system_id":"levelo_inurba_marseille","lat":43.2796,"lon":5.41031,"is_reserved":false,"is_disabled":true,"rental_uris":{"android":"levelo://app?vid=952ab6ee-c71f-431a-a116-28c771dc3a24","ios":"levelo://app?vid=952ab6ee-c71f-431a-a116-28c771dc3a24"},"vehicle_type_id":"4","last_reported":1739128029,"current_range_meters":0,"station_id":"ce4bhnp2rcd13ifvqh0g","pricing_plan_id":"cebpf4jnsgd1na2vs0mg"},{"bike_id":"9ed3e9f0-8980-4727-b66a-fd8ce78be6d1","system_id":"levelo_inurba_marseille","lat":43.29378,"lon":5.37838,"is_reserved":false,"is_disabled":false,"rental_uris":{"android":"levelo://app?vid=9ed3e9f0-8980-4727-b66a-fd8ce78be6d1","ios":"levelo://app?vid=9ed3e9f0-8980-4727-b66a-fd8ce78be6d1"},"vehicle_type_id":"4","last_reported":1739128029,"current_range_meters":8000,"station_id":"ce4bgjh2rcd13ifvqbf0","pricing_plan_id":"cebpf4jnsgd1na2vs0mg"},{"bike_id":"25cd21ab-5bba-4a40-9c37-3d5e8d25d5a3","system_id":"levelo_inurba_marseille","lat":43.24804,"lon":5.37452,"is_reserved":false,"is_disabled":false,"rental_uris":{"android":"levelo://app?vid=25cd21ab-5bba-4a40-9c37-3d5e8d25d5a3","ios":"levelo://app?vid=25cd21ab-5bba-4a40-9c37-3d5e8d25d5a3"},"vehicle_type_id":"4","last_reported":1739128029,"current_range_meters":39200,"station_id":"ce4bhgh2rcd13ifvqfb0","pricing_plan_id":"cebpf4jnsgd1na2vs0mg"},{"bike_id":"9177444e-b7cd-44de-a8aa-4f981c08da68","system_id":"levelo_inurba_marseille","lat":43.30305,"lon":5.36871,"is_reserved":false,"is_disabled":false,"rental_uris":{"android":"levelo://app?vid=9177444e-b7cd-44de-a8aa-4f981c08da68","ios":"levelo://app?vid=9177444e-b7cd-44de-a8aa-4f981c08da68"},"vehicle_type_id":"4","last_reported":1739128029,"current_range_meters":35600,"station_id":"ce4bgqh2rcd13ifvqc5g","pricing_plan_id":"cebpf4jnsgd1na2vs0mg"},{"bike_id":"1b516083-7142-4596-8591-4acfa89a635a","system_id":"levelo_inurba_marseille","lat":43.24686,"lon":5.38148,"is_reserved":false,"is_disabled":false,"rental_uris":{"android":"levelo://app?vid=1b516083-7142-4596-8591-4acfa89a635a","ios":"levelo://app?vid=1b516083-7142-4596-8591-4acfa89a635a"},"vehicle_type_id":"4","last_reported":1739128029,"current_range_meters":32000,"station_id":"ce4bhih2rcd13ifvqfr0","pricing_plan_id":"cebpf4jnsgd1na2vs0mg"},{"bike_id":"ad133f6a-2286-4493-a7cc-07a27efe882a","system_id":"levelo_inurba_marseille","lat":43.31693,"lon":5.40473,"is_reserved":false,"is_disabled":false,"rental_uris":{"android":"levelo://app?vid=ad133f6a-2286-4493-a7cc-07a27efe882a","ios":"levelo://app?vid=ad133f6a-2286-4493-a7cc-07a27efe882a"},"vehicle_type_id":"4","last_reported":1739128029,"current_range_meters":10000,"station_id":"ce4bh012rcd13ifvqd00","pricing_plan_id":"cebpf4jnsgd1na2vs0mg"},{"bike_id":"937b8c20-ae82-4448-9e77-8f7a7a92492a","system_id":"levelo_inurba_marseille","lat":43.31697,"lon":5.40431,"is_reserved":false,"is_disabled":true,"rental_uris":{"android":"levelo://app?vid=937b8c20-ae82-4448-9e77-8f7a7a92492a","ios":"levelo://app?vid=937b8c20-ae82-4448-9e77-8f7a7a92492a"},"vehicle_type_id":"4","last_reported":1739128029,"current_range_meters":0,"station_id":"ce4bh012rcd13ifvqd00","pricing_plan_id":"cebpf4jnsgd1na2vs0mg"},{"bike_id":"949ecb89-56e4-4c04-a100-83de2f0eaaf9","system_id":"levelo_inurba_marseille","lat":43.27791,"lon":5.4075,"is_reserved":false,"is_disabled":false,"rental_uris":{"android":"levelo://app?vid=949ecb89-56e4-4c04-a100-83de2f0eaaf9","ios":"levelo://app?vid=949ecb89-56e4-4c04-a100-83de2f0eaaf9"},"vehicle_type_id":"4","last_reported":1739128029,"current_range_meters":24000,"station_id":"ce4bhnh2rcd13ifvqgtg","pricing_plan_id":"cebpf4jnsgd1na2vs0mg"},{"bike_id":"bb24c890-770c-48e2-8944-e6df1b31648a","system_id":"levelo_inurba_marseille","lat":43.29813,"lon":5.38105,"is_reserved":false,"is_disabled":false,"rental_uris":{"android":"levelo://app?vid=bb24c890-770c-48e2-8944-e6df1b31648a","ios":"levelo://app?vid=bb24c890-770c-48e2-8944-e6df1b31648a"},"vehicle_type_id":"4","last_reported":1739128029,"current_range_meters":14000,"station_id":"ce4bgip2rcd13ifvqbb0","pricing_plan_id":"cebpf4jnsgd1na2vs0mg"},{"bike_id":"e8a3e162-b376-4472-9ccd-6708ad711574","system_id":"levelo_inurba_marseille","lat":43.30199,"lon":5.37369,"is_reserved":false,"is_disabled":true,"rental_uris":{"android":"levelo://app?vid=e8a3e162-b376-4472-9ccd-6708ad711574","ios":"levelo://app?vid=e8a3e162-b376-4472-9ccd-6708ad711574"},"vehicle_type_id":"4","last_reported":1739128029,"current_range_meters":1200,"station_id":"","pricing_plan_id":"cebpf4jnsgd1na2vs0mg"},{"bike_id":"b71be1e7-0615-4702-a0b9-785a42556152","system_id":"levelo_inurba_marseille","lat":43.29023,"lon":5.35938,"is_reserved":false,"is_disabled":false,"rental_uris":{"android":"levelo://app?vid=b71be1e7-0615-4702-a0b9-785a42556152","ios":"levelo://app?vid=b71be1e7-0615-4702-a0b9-785a42556152"},"vehicle_type_id":"4","last_reported":1739128029,"current_range_meters":36800,"station_id":"ce4bha92rcd13ifvqeg0","pricing_plan_id":"cebpf4jnsgd1na2vs0mg"},{"bike_id":"2b63f014-00df-4950-8645-1831b51c43ff","system_id":"levelo_inurba_marseille","lat":43.29803,"lon":5.40404,"is_reserved":false,"is_disabled":false,"rental_uris":{"android":"levelo://app?vid=2b63f014-00df-4950-8645-1831b51c43ff","ios":"levelo://app?vid=2b63f014-00df-4950-8645-1831b51c43ff"},"vehicle_type_id":"4","last_reported":1739128029,"current_range_meters":28400,"station_id":"ce4bh112rcd13ifvqd90","pricing_plan_id":"cebpf4jnsgd1na2vs0mg"},{"bike_id":"736e9e15-ec3b-4ea5-84a4-fcc59671cbf2","system_id":"levelo_inurba_marseille","lat":43.29794,"lon":5.39342,"is_reserved":false,"is_disabled":false,"rental_uris":{"android":"levelo://app?vid=736e9e15-ec3b-4ea5-84a4-fcc59671cbf2","ios":"levelo://app?vid=736e9e15-ec3b-4ea5-84a4-fcc59671cbf2"},"vehicle_type_id":"4","last_reported":1739128029,"current_range_meters":19600,"station_id":"chh1huq6cuj3fo74tm60","pricing_plan_id":"cebpf4jnsgd1na2vs0mg"},{"bike_id":"cc5be222-f5b9-4564-8357-792e36ef3901","system_id":"levelo_inurba_marseille","lat":43.28032,"lon":5.36952,"is_reserved":false,"is_disabled":false,"rental_uris":{"android":"levelo://app?vid=cc5be222-f5b9-4564-8357-792e36ef3901","ios":"levelo://app?vid=cc5be222-f5b9-4564-8357-792e36ef3901"},"vehicle_type_id":"4","last_reported":1739128029,"current_range_meters":38800,"station_id":"ce4bha12rcd13ifvqef0","pricing_plan_id":"cebpf4jnsgd1na2vs0mg"},{"bike_id":"bf1166a6-6d02-4b59-a461-8ee8d9697ddf","system_id":"levelo_inurba_marseille","lat":43.23966,"lon":5.36641,"is_reserved":false,"is_disabled":false,"rental_uris":{"android":"levelo://app?vid=bf1166a6-6d02-4b59-a461-8ee8d9697ddf","ios":"levelo://app?vid=bf1166a6-6d02-4b59-a461-8ee8d9697ddf"},"vehicle_type_id":"4","last_reported":1739128029,"current_range_meters":38800,"station_id":"ce4bhi12rcd13ifvqfp0","pricing_plan_id":"cebpf4jnsgd1na2vs0mg"},{"bike_id":"7d2e52a1-319e-4823-8150-eb9fa8ee28c9","system_id":"levelo_inurba_marseille","lat":43.26215,"lon":5.37441,"is_reserved":false,"is_disabled":false,"rental_uris":{"android":"levelo://app?vid=7d2e52a1-319e-4823-8150-eb9fa8ee28c9","ios":"levelo://app?vid=7d2e52a1-319e-4823-8150-eb9fa8ee28c9"},"vehicle_type_id":"4","last_reported":1739128029,"current_range_meters":25200,"station_id":"ce4bhgp2rcd13ifvqfc0","pricing_plan_id":"cebpf4jnsgd1na2vs0mg"},{"bike_id":"b41e5dba-64c8-4784-94c9-049bbcef3aec","system_id":"levelo_inurba_marseille","lat":43.29267,"lon":5.36839,"is_reserved":false,"is_disabled":true,"rental_uris":{"android":"levelo://app?vid=b41e5dba-64c8-4784-94c9-049bbcef3aec","ios":"levelo://app?vid=b41e5dba-64c8-4784-94c9-049bbcef3aec"},"vehicle_type_id":"4","last_reported":1739128029,"current_range_meters":0,"station_id":"ce4bhbp2rcd13ifvqesg","pricing_plan_id":"cebpf4jnsgd1na2vs0mg"},{"bike_id":"c7214087-f338-4aa0-87d4-4c782ee32a35","system_id":"levelo_inurba_marseille","lat":43.23962,"lon":5.36624,"is_reserved":false,"is_disabled":false,"rental_uris":{"android":"levelo://app?vid=c7214087-f338-4aa0-87d4-4c782ee32a35","ios":"levelo://app?vid=c7214087-f338-4aa0-87d4-4c782ee32a35"},"vehicle_type_id":"4","last_reported":1739128029,"current_range_meters":10800,"station_id":"ce4bhi12rcd13ifvqfp0","pricing_plan_id":"cebpf4jnsgd1na2vs0mg"},{"bike_id":"9232cd87-0823-43a9-b923-e060fb0c5759","system_id":"levelo_inurba_marseille","lat":43.29549,"lon":5.42274,"is_reserved":false,"is_disabled":false,"rental_uris":{"android":"levelo://app?vid=9232cd87-0823-43a9-b923-e060fb0c5759","ios":"levelo://app?vid=9232cd87-0823-43a9-b923-e060fb0c5759"},"vehicle_type_id":"4","last_reported":1739128029,"current_range_meters":36800,"station_id":"ce4bhph2rcd13ifvqhdg","pricing_plan_id":"cebpf4jnsgd1na2vs0mg"},{"bike_id":"9fc8715c-1f2d-42c5-9ab4-6c7456cd97de","system_id":"levelo_inurba_marseille","lat":43.26599,"lon":5.39263,"is_reserved":false,"is_disabled":false,"rental_uris":{"android":"levelo://app?vid=9fc8715c-1f2d-42c5-9ab4-6c7456cd97de","ios":"levelo://app?vid=9fc8715c-1f2d-42c5-9ab4-6c7456cd97de"},"vehicle_type_id":"4","last_reported":1739128029,"current_range_meters":9200,"station_id":"","pricing_plan_id":"cebpf4jnsgd1na2vs0mg"},{"bike_id":"65a7c23e-796e-448a-9c20-43066b092b67","system_id":"levelo_inurba_marseille","lat":43.23965,"lon":5.36612,"is_reserved":false,"is_disabled":false,"rental_uris":{"android":"levelo://app?vid=65a7c23e-796e-448a-9c20-43066b092b67","ios":"levelo://app?vid=65a7c23e-796e-448a-9c20-43066b092b67"},"vehicle_type_id":"4","last_reported":1739128029,"current_range_meters":28400,"station_id":"ce4bhi12rcd13ifvqfp0","pricing_plan_id":"cebpf4jnsgd1na2vs0mg"},{"bike_id":"55ba3a08-bea6-437b-ad0a-1c5cf017ba77","system_id":"levelo_inurba_marseille","lat":43.31165,"lon":5.38724,"is_reserved":false,"is_disabled":false,"rental_uris":{"android":"levelo://app?vid=55ba3a08-bea6-437b-ad0a-1c5cf017ba77","ios":"levelo://app?vid=55ba3a08-bea6-437b-ad0a-1c5cf017ba77"},"vehicle_type_id":"4","last_reported":1739128029,"current_range_meters":38800,"station_id":"ce4bgv12rcd13ifvqcp0","pricing_plan_id":"cebpf4jnsgd1na2vs0mg"},{"bike_id":"0af02bd1-6d9c-47e0-ae5d-8dea750df397","system_id":"levelo_inurba_marseille","lat":43.28406,"lon":5.37523,"is_reserved":false,"is_disabled":false,"rental_uris":{"android":"levelo://app?vid=0af02bd1-6d9c-47e0-ae5d-8dea750df397","ios":"levelo://app?vid=0af02bd1-6d9c-47e0-ae5d-8dea750df397"},"vehicle_type_id":"4","last_reported":1739128029,"current_range_meters":18800,"station_id":"ce4bh412rcd13ifvqds0","pricing_plan_id":"cebpf4jnsgd1na2vs0mg"},{"bike_id":"309e9d9b-33b9-41cf-aba4-3051ad31e641","system_id":"levelo_inurba_marseille","lat":43.28473,"lon":5.38413,"is_reserved":false,"is_disabled":false,"rental_uris":{"android":"levelo://app?vid=309e9d9b-33b9-41cf-aba4-3051ad31e641","ios":"levelo://app?vid=309e9d9b-33b9-41cf-aba4-3051ad31e641"},"vehicle_type_id":"4","last_reported":1739128029,"current_range_meters":8000,"station_id":"ce4bh512rcd13ifvqe3g","pricing_plan_id":"cebpf4jnsgd1na2vs0mg"},{"bike_id":"2d6a2e4c-47bb-4bf8-8e22-1e9c987f8b16","system_id":"levelo_inurba_marseille","lat":43.23971,"lon":5.36627,"is_reserved":false,"is_disabled":false,"rental_uris":{"android":"levelo://app?vid=2d6a2e4c-47bb-4bf8-8e22-1e9c987f8b16","ios":"levelo://app?vid=2d6a2e4c-47bb-4bf8-8e22-1e9c987f8b16"},"vehicle_type_id":"4","last_reported":1739128029,"current_range_meters":6800,"station_id":"ce4bhi12rcd13ifvqfp0","pricing_plan_id":"cebpf4jnsgd1na2vs0mg"},{"bike_id":"1c74561b-a6f6-4c2e-bc62-f72ba306b05e","system_id":"levelo_inurba_marseille","lat":43.28437,"lon":5.39183,"is_reserved":false,"is_disabled":false,"rental_uris":{"android":"levelo://app?vid=1c74561b-a6f6-4c2e-bc62-f72ba306b05e","ios":"levelo://app?vid=1c74561b-a6f6-4c2e-bc62-f72ba306b05e"},"vehicle_type_id":"4","last_reported":1739128029,"current_range_meters":38800,"station_id":"ce4bhoh2rcd13ifvqh5g","pricing_plan_id":"cebpf4jnsgd1na2vs0mg"},{"bike_id":"605b43cc-2917-4b41-830c-35183c4d48dc","system_id":"levelo_inurba_marseille","lat":43.25585,"lon":5.38245,"is_reserved":false,"is_disabled":false,"rental_uris":{"android":"levelo://app?vid=605b43cc-2917-4b41-830c-35183c4d48dc","ios":"levelo://app?vid=605b43cc-2917-4b41-830c-35183c4d48dc"},"vehicle_type_id":"4","last_reported":1739128029,"current_range_meters":24000,"station_id":"ce4bhih2rcd13ifvqfs0","pricing_plan_id":"cebpf4jnsgd1na2vs0mg"},{"bike_id":"5d6da20e-fa32-465e-9b0a-26e0c75571cb","system_id":"levelo_inurba_marseille","lat":43.29872,"lon":5.39733,"is_reserved":false,"is_disabled":false,"rental_uris":{"android":"levelo://app?vid=5d6da20e-fa32-465e-9b0a-26e0c75571cb","ios":"levelo://app?vid=5d6da20e-fa32-465e-9b0a-26e0c75571cb"},"vehicle_type_id":"4","last_reported":1739128029,"current_range_meters":24000,"station_id":"ce4bh0h2rcd13ifvqd50","pricing_plan_id":"cebpf4jnsgd1na2vs0mg"},{"bike_id":"c53aabef-2f2b-4451-8277-85a4bfc94fb8","system_id":"levelo_inurba_marseille","lat":43.28466,"lon":5.38427,"is_reserved":false,"is_disabled":false,"rental_uris":{"android":"levelo://app?vid=c53aabef-2f2b-4451-8277-85a4bfc94fb8","ios":"levelo://app?vid=c53aabef-2f2b-4451-8277-85a4bfc94fb8"},"vehicle_type_id":"4","last_reported":1739128029,"current_range_meters":29600,"station_id":"ce4bh512rcd13ifvqe3g","pricing_plan_id":"cebpf4jnsgd1na2vs0mg"},{"bike_id":"ecdc2c1c-a479-46bb-a6b7-dbc77a937bb6","system_id":"levelo_inurba_marseille","lat":43.29378,"lon":5.37851,"is_reserved":false,"is_disabled":false,"rental_uris":{"android":"levelo://app?vid=ecdc2c1c-a479-46bb-a6b7-dbc77a937bb6","ios":"levelo://app?vid=ecdc2c1c-a479-46bb-a6b7-dbc77a937bb6"},"vehicle_type_id":"4","last_reported":1739128029,"current_range_meters":37600,"station_id":"ce4bgjh2rcd13ifvqbf0","pricing_plan_id":"cebpf4jnsgd1na2vs0mg"},{"bike_id":"3ba26bce-5451-4186-8570-150535f6ec60","system_id":"levelo_inurba_marseille","lat":43.29189,"lon":5.35788,"is_reserved":false,"is_disabled":true,"rental_uris":{"android":"levelo://app?vid=3ba26bce-5451-4186-8570-150535f6ec60","ios":"levelo://app?vid=3ba26bce-5451-4186-8570-150535f6ec60"},"vehicle_type_id":"4","last_reported":1739128029,"current_range_meters":38800,"station_id":"ce4bhb12rcd13ifvqel0","pricing_plan_id":"cebpf4jnsgd1na2vs0mg"},{"bike_id":"4a4bde4d-ebaf-497c-9433-602988098783","system_id":"levelo_inurba_marseille","lat":43.25086,"lon":5.39513,"is_reserved":false,"is_disabled":false,"rental_uris":{"android":"levelo://app?vid=4a4bde4d-ebaf-497c-9433-602988098783","ios":"levelo://app?vid=4a4bde4d-ebaf-497c-9433-602988098783"},"vehicle_type_id":"4","last_reported":1739128029,"current_range_meters":24400,"station_id":"ce4bhm12rcd13ifvqgkg","pricing_plan_id":"cebpf4jnsgd1na2vs0mg"},{"bike_id":"f7664c8b-6032-41b2-9355-bc31c4ae36c6","system_id":"levelo_inurba_marseille","lat":43.30912,"lon":5.36845,"is_reserved":false,"is_disabled":false,"rental_uris":{"android":"levelo://app?vid=f7664c8b-6032-41b2-9355-bc31c4ae36c6","ios":"levelo://app?vid=f7664c8b-6032-41b2-9355-bc31c4ae36c6"},"vehicle_type_id":"4","last_reported":1739128029,"current_range_meters":28000,"station_id":"ce4bgn92rcd13ifvqbvg","pricing_plan_id":"cebpf4jnsgd1na2vs0mg"},{"bike_id":"b6b4d61a-d36c-4100-8c0a-e3487f481f52","system_id":"levelo_inurba_marseille","lat":43.26552,"lon":5.37294,"is_reserved":false,"is_disabled":true,"rental_uris":{"android":"levelo://app?vid=b6b4d61a-d36c-4100-8c0a-e3487f481f52","ios":"levelo://app?vid=b6b4d61a-d36c-4100-8c0a-e3487f481f52"},"vehicle_type_id":"4","last_reported":1739128029,"current_range_meters":33600,"station_id":"ce4bhg12rcd13ifvqf70","pricing_plan_id":"cebpf4jnsgd1na2vs0mg"},{"bike_id":"cbaf70f6-6a39-4b18-8e74-7e8e028a22ea","system_id":"levelo_inurba_marseille","lat":43.25862,"lon":5.39899,"is_reserved":false,"is_disabled":false,"rental_uris":{"android":"levelo://app?vid=cbaf70f6-6a39-4b18-8e74-7e8e028a22ea","ios":"levelo://app?vid=cbaf70f6-6a39-4b18-8e74-7e8e028a22ea"},"vehicle_type_id":"4","last_reported":1739128029,"current_range_meters":38800,"station_id":"ce4bhl92rcd13ifvqghg","pricing_plan_id":"cebpf4jnsgd1na2vs0mg"},{"bike_id":"eeada6f9-bc17-47bf-a657-75c63cc565ad","system_id":"levelo_inurba_marseille","lat":43.29007,"lon":5.35625,"is_reserved":false,"is_disabled":true,"rental_uris":{"android":"levelo://app?vid=eeada6f9-bc17-47bf-a657-75c63cc565ad","ios":"levelo://app?vid=eeada6f9-bc17-47bf-a657-75c63cc565ad"},"vehicle_type_id":"4","last_reported":1739128029,"current_range_meters":38000,"station_id":"ce4bhb92rcd13ifvqen0","pricing_plan_id":"cebpf4jnsgd1na2vs0mg"},{"bike_id":"01d0c51b-0d20-4b41-b841-735cf2170247","system_id":"levelo_inurba_marseille","lat":43.3234,"lon":5.40623,"is_reserved":false,"is_disabled":false,"rental_uris":{"android":"levelo://app?vid=01d0c51b-0d20-4b41-b841-735cf2170247","ios":"levelo://app?vid=01d0c51b-0d20-4b41-b841-735cf2170247"},"vehicle_type_id":"4","last_reported":1739128029,"current_range_meters":25600,"station_id":"ce4bhq92rcd13ifvqhjg","pricing_plan_id":"cebpf4jnsgd1na2vs0mg"},{"bike_id":"2ebd233c-fd15-4f13-9700-c155c053523f","system_id":"levelo_inurba_marseille","lat":43.25938,"lon":5.40909,"is_reserved":false,"is_disabled":true,"rental_uris":{"android":"levelo://app?vid=2ebd233c-fd15-4f13-9700-c155c053523f","ios":"levelo://app?vid=2ebd233c-fd15-4f13-9700-c155c053523f"},"vehicle_type_id":"4","last_reported":1739128029,"current_range_meters":17600,"station_id":"ce4bhm92rcd13ifvqglg","pricing_plan_id":"cebpf4jnsgd1na2vs0mg"},{"bike_id":"0de50350-ec29-43fe-9d69-64305045bebf","system_id":"levelo_inurba_marseille","lat":43.30209,"lon":5.39472,"is_reserved":false,"is_disabled":false,"rental_uris":{"android":"levelo://app?vid=0de50350-ec29-43fe-9d69-64305045bebf","ios":"levelo://app?vid=0de50350-ec29-43fe-9d69-64305045bebf"},"vehicle_type_id":"4","last_reported":1739128029,"current_range_meters":28000,"station_id":"ce4bh0p2rcd13ifvqd70","pricing_plan_id":"cebpf4jnsgd1na2vs0mg"},{"bike_id":"de9d362b-1d25-46c9-9024-4b8baa1f47f1","system_id":"levelo_inurba_marseille","lat":43.2871,"lon":5.3739,"is_reserved":false,"is_disabled":false,"rental_uris":{"android":"levelo://app?vid=de9d362b-1d25-46c9-9024-4b8baa1f47f1","ios":"levelo://app?vid=de9d362b-1d25-46c9-9024-4b8baa1f47f1"},"vehicle_type_id":"4","last_reported":1739128029,"current_range_meters":22400,"station_id":"ce4bh3p2rcd13ifvqdq0","pricing_plan_id":"cebpf4jnsgd1na2vs0mg"},{"bike_id":"79d9cec2-d562-4c8c-9305-2ec72f6aa9f2","system_id":"levelo_inurba_marseille","lat":43.27943,"lon":5.41039,"is_reserved":false,"is_disabled":false,"rental_uris":{"android":"levelo://app?vid=79d9cec2-d562-4c8c-9305-2ec72f6aa9f2","ios":"levelo://app?vid=79d9cec2-d562-4c8c-9305-2ec72f6aa9f2"},"vehicle_type_id":"4","last_reported":1739128029,"current_range_meters":16000,"station_id":"ce4bhnp2rcd13ifvqh0g","pricing_plan_id":"cebpf4jnsgd1na2vs0mg"},{"bike_id":"3119ebdf-60b5-4ffa-95bd-e06d91ed376a","system_id":"levelo_inurba_marseille","lat":43.30463,"lon":5.379,"is_reserved":false,"is_disabled":false,"rental_uris":{"android":"levelo://app?vid=3119ebdf-60b5-4ffa-95bd-e06d91ed376a","ios":"levelo://app?vid=3119ebdf-60b5-4ffa-95bd-e06d91ed376a"},"vehicle_type_id":"4","last_reported":1739128029,"current_range_meters":36800,"station_id":"ce4bgup2rcd13ifvqcn0","pricing_plan_id":"cebpf4jnsgd1na2vs0mg"},{"bike_id":"c13ae62e-d5d6-4d3f-b979-0be4fe4644ed","system_id":"levelo_inurba_marseille","lat":43.24673,"lon":5.38157,"is_reserved":false,"is_disabled":false,"rental_uris":{"android":"levelo://app?vid=c13ae62e-d5d6-4d3f-b979-0be4fe4644ed","ios":"levelo://app?vid=c13ae62e-d5d6-4d3f-b979-0be4fe4644ed"},"vehicle_type_id":"4","last_reported":1739128029,"current_range_meters":13600,"station_id":"ce4bhih2rcd13ifvqfr0","pricing_plan_id":"cebpf4jnsgd1na2vs0mg"},{"bike_id":"54f824a9-c6c7-4503-a444-7fbb0785598b","system_id":"levelo_inurba_marseille","lat":43.2902,"lon":5.38644,"is_reserved":false,"is_disabled":false,"rental_uris":{"android":"levelo://app?vid=54f824a9-c6c7-4503-a444-7fbb0785598b","ios":"levelo://app?vid=54f824a9-c6c7-4503-a444-7fbb0785598b"},"vehicle_type_id":"4","last_reported":1739128029,"current_range_meters":17200,"station_id":"ce4bh4p2rcd13ifvqe0g","pricing_plan_id":"cebpf4jnsgd1na2vs0mg"},{"bike_id":"2ba197c5-59fe-4a9c-ba96-b1806efdcd97","system_id":"levelo_inurba_marseille","lat":43.24217,"lon":5.39712,"is_reserved":false,"is_disabled":false,"rental_uris":{"android":"levelo://app?vid=2ba197c5-59fe-4a9c-ba96-b1806efdcd97","ios":"levelo://app?vid=2ba197c5-59fe-4a9c-ba96-b1806efdcd97"},"vehicle_type_id":"4","last_reported":1739128029,"current_range_meters":8800,"station_id":"ce4bhn12rcd13ifvqgpg","pricing_plan_id":"cebpf4jnsgd1na2vs0mg"},{"bike_id":"1d9b9c9d-363a-40b7-904e-bb37859e7849","system_id":"levelo_inurba_marseille","lat":43.24801,"lon":5.37434,"is_reserved":false,"is_disabled":false,"rental_uris":{"android":"levelo://app?vid=1d9b9c9d-363a-40b7-904e-bb37859e7849","ios":"levelo://app?vid=1d9b9c9d-363a-40b7-904e-bb37859e7849"},"vehicle_type_id":"4","last_reported":1739128029,"current_range_meters":23200,"station_id":"ce4bhgh2rcd13ifvqfb0","pricing_plan_id":"cebpf4jnsgd1na2vs0mg"},{"bike_id":"d673d385-256b-4786-9ff8-e7f9b22ac5f8","system_id":"levelo_inurba_marseille","lat":43.23959,"lon":5.36615,"is_reserved":false,"is_disabled":false,"rental_uris":{"android":"levelo://app?vid=d673d385-256b-4786-9ff8-e7f9b22ac5f8","ios":"levelo://app?vid=d673d385-256b-4786-9ff8-e7f9b22ac5f8"},"vehicle_type_id":"4","last_reported":1739128029,"current_range_meters":36800,"station_id":"ce4bhi12rcd13ifvqfp0","pricing_plan_id":"cebpf4jnsgd1na2vs0mg"},{"bike_id":"c3d215cc-c108-4709-b8a1-eeff1630731d","system_id":"levelo_inurba_marseille","lat":43.29441,"lon":5.38646,"is_reserved":false,"is_disabled":false,"rental_uris":{"android":"levelo://app?vid=c3d215cc-c108-4709-b8a1-eeff1630731d","ios":"levelo://app?vid=c3d215cc-c108-4709-b8a1-eeff1630731d"},"vehicle_type_id":"4","last_reported":1739128029,"current_range_meters":38800,"station_id":"ce4bh2h2rcd13ifvqdh0","pricing_plan_id":"cebpf4jnsgd1na2vs0mg"},{"bike_id":"c3297162-1cce-4aee-9ab9-0cb6b8c8d4b6","system_id":"levelo_inurba_marseille","lat":43.29552,"lon":5.42283,"is_reserved":false,"is_disabled":false,"rental_uris":{"android":"levelo://app?vid=c3297162-1cce-4aee-9ab9-0cb6b8c8d4b6","ios":"levelo://app?vid=c3297162-1cce-4aee-9ab9-0cb6b8c8d4b6"},"vehicle_type_id":"4","last_reported":1739128029,"current_range_meters":33600,"station_id":"ce4bhph2rcd13ifvqhdg","pricing_plan_id":"cebpf4jnsgd1na2vs0mg"},{"bike_id":"89912e32-c5f0-448f-82d2-e236e4d6d653","system_id":"levelo_inurba_marseille","lat":43.282569,"lon":5.407863,"is_reserved":false,"is_disabled":true,"rental_uris":{"android":"levelo://app?vid=89912e32-c5f0-448f-82d2-e236e4d6d653","ios":"levelo://app?vid=89912e32-c5f0-448f-82d2-e236e4d6d653"},"vehicle_type_id":"4","last_reported":1739128029,"current_range_meters":0,"station_id":"","pricing_plan_id":"cebpf4jnsgd1na2vs0mg"},{"bike_id":"afb7d23d-3672-4b9e-8299-48ecc1b6574f","system_id":"levelo_inurba_marseille","lat":43.25856,"lon":5.39904,"is_reserved":false,"is_disabled":false,"rental_uris":{"android":"levelo://app?vid=afb7d23d-3672-4b9e-8299-48ecc1b6574f","ios":"levelo://app?vid=afb7d23d-3672-4b9e-8299-48ecc1b6574f"},"vehicle_type_id":"4","last_reported":1739128029,"current_range_meters":18800,"station_id":"ce4bhl92rcd13ifvqghg","pricing_plan_id":"cebpf4jnsgd1na2vs0mg"},{"bike_id":"e7e14db6-3bef-453a-aab6-06ade3cdd6b0","system_id":"levelo_inurba_marseille","lat":43.2442,"lon":5.44103,"is_reserved":false,"is_disabled":true,"rental_uris":{"android":"levelo://app?vid=e7e14db6-3bef-453a-aab6-06ade3cdd6b0","ios":"levelo://app?vid=e7e14db6-3bef-453a-aab6-06ade3cdd6b0"},"vehicle_type_id":"4","last_reported":1739128029,"current_range_meters":0,"station_id":"","pricing_plan_id":"cebpf4jnsgd1na2vs0mg"},{"bike_id":"65ab4177-2f3e-4ff2-80cf-b2ca62cb1885","system_id":"levelo_inurba_marseille","lat":43.262,"lon":5.37932,"is_reserved":false,"is_disabled":false,"rental_uris":{"android":"levelo://app?vid=65ab4177-2f3e-4ff2-80cf-b2ca62cb1885","ios":"levelo://app?vid=65ab4177-2f3e-4ff2-80cf-b2ca62cb1885"},"vehicle_type_id":"4","last_reported":1739128029,"current_range_meters":24400,"station_id":"ce4bhjp2rcd13ifvqg90","pricing_plan_id":"cebpf4jnsgd1na2vs0mg"},{"bike_id":"fb5a704f-a51b-458c-a6e9-f5586a789b94","system_id":"levelo_inurba_marseille","lat":43.24169,"lon":5.36394,"is_reserved":false,"is_disabled":false,"rental_uris":{"android":"levelo://app?vid=fb5a704f-a51b-458c-a6e9-f5586a789b94","ios":"levelo://app?vid=fb5a704f-a51b-458c-a6e9-f5586a789b94"},"vehicle_type_id":"4","last_reported":1739128029,"current_range_meters":32800,"station_id":"cpo36qri1sfpv3e86is0","pricing_plan_id":"cebpf4jnsgd1na2vs0mg"},{"bike_id":"99a2797b-392c-45fd-b5b4-178139f4e513","system_id":"levelo_inurba_marseille","lat":43.28956,"lon":5.36393,"is_reserved":false,"is_disabled":false,"rental_uris":{"android":"levelo://app?vid=99a2797b-392c-45fd-b5b4-178139f4e513","ios":"levelo://app?vid=99a2797b-392c-45fd-b5b4-178139f4e513"},"vehicle_type_id":"4","last_reported":1739128029,"current_range_meters":11600,"station_id":"ce4bhc92rcd13ifvqetg","pricing_plan_id":"cebpf4jnsgd1na2vs0mg"},{"bike_id":"bfd84249-0515-4ab9-801d-3a8bb75b155d","system_id":"levelo_inurba_marseille","lat":43.27561,"lon":5.38437,"is_reserved":false,"is_disabled":false,"rental_uris":{"android":"levelo://app?vid=bfd84249-0515-4ab9-801d-3a8bb75b155d","ios":"levelo://app?vid=bfd84249-0515-4ab9-801d-3a8bb75b155d"},"vehicle_type_id":"4","last_reported":1739128029,"current_range_meters":36800,"station_id":"ce4bhh92rcd13ifvqfi0","pricing_plan_id":"cebpf4jnsgd1na2vs0mg"},{"bike_id":"badda3c4-70ef-41fb-b835-c3b6b3ba2d76","system_id":"levelo_inurba_marseille","lat":43.26506,"lon":5.39563,"is_reserved":false,"is_disabled":false,"rental_uris":{"android":"levelo://app?vid=badda3c4-70ef-41fb-b835-c3b6b3ba2d76","ios":"levelo://app?vid=badda3c4-70ef-41fb-b835-c3b6b3ba2d76"},"vehicle_type_id":"4","last_reported":1739128029,"current_range_meters":38800,"station_id":"ce4bhi12rcd13ifvqfq0","pricing_plan_id":"cebpf4jnsgd1na2vs0mg"},{"bike_id":"a9f65387-f128-48a1-bc09-415b86ce9420","system_id":"levelo_inurba_marseille","lat":43.28411,"lon":5.37519,"is_reserved":false,"is_disabled":false,"rental_uris":{"android":"levelo://app?vid=a9f65387-f128-48a1-bc09-415b86ce9420","ios":"levelo://app?vid=a9f65387-f128-48a1-bc09-415b86ce9420"},"vehicle_type_id":"4","last_reported":1739128029,"current_range_meters":9600,"station_id":"ce4bh412rcd13ifvqds0","pricing_plan_id":"cebpf4jnsgd1na2vs0mg"},{"bike_id":"ab54e2d0-4c2c-486a-84c7-811ed9008ddc","system_id":"levelo_inurba_marseille","lat":43.27983,"lon":5.4237,"is_reserved":false,"is_disabled":true,"rental_uris":{"android":"levelo://app?vid=ab54e2d0-4c2c-486a-84c7-811ed9008ddc","ios":"levelo://app?vid=ab54e2d0-4c2c-486a-84c7-811ed9008ddc"},"vehicle_type_id":"4","last_reported":1739128029,"current_range_meters":0,"station_id":"","pricing_plan_id":"cebpf4jnsgd1na2vs0mg"},{"bike_id":"04e9976f-fc67-4b3f-9a5f-08268a5eb49c","system_id":"levelo_inurba_marseille","lat":43.29402,"lon":5.38615,"is_reserved":false,"is_disabled":true,"rental_uris":{"android":"levelo://app?vid=04e9976f-fc67-4b3f-9a5f-08268a5eb49c","ios":"levelo://app?vid=04e9976f-fc67-4b3f-9a5f-08268a5eb49c"},"vehicle_type_id":"4","last_reported":1739128029,"current_range_meters":36400,"station_id":"ce4bh2h2rcd13ifvqdh0","pricing_plan_id":"cebpf4jnsgd1na2vs0mg"},{"bike_id":"544caf86-2bf3-4dec-a3d0-dfe91b4aa2a6","system_id":"levelo_inurba_marseille","lat":43.29522,"lon":5.39026,"is_reserved":false,"is_disabled":false,"rental_uris":{"android":"levelo://app?vid=544caf86-2bf3-4dec-a3d0-dfe91b4aa2a6","ios":"levelo://app?vid=544caf86-2bf3-4dec-a3d0-dfe91b4aa2a6"},"vehicle_type_id":"4","last_reported":1739128029,"current_range_meters":16400,"station_id":"ce4bh3p2rcd13ifvqdp0","pricing_plan_id":"cebpf4jnsgd1na2vs0mg"},{"bike_id":"61b62a5a-5bc2-487b-b92d-7b20142491cd","system_id":"levelo_inurba_marseille","lat":43.28711,"lon":5.40013,"is_reserved":false,"is_disabled":true,"rental_uris":{"android":"levelo://app?vid=61b62a5a-5bc2-487b-b92d-7b20142491cd","ios":"levelo://app?vid=61b62a5a-5bc2-487b-b92d-7b20142491cd"},"vehicle_type_id":"4","last_reported":1739128029,"current_range_meters":38000,"station_id":"ce4bho92rcd13ifvqh3g","pricing_plan_id":"cebpf4jnsgd1na2vs0mg"},{"bike_id":"b5135d91-2dbc-4326-bda2-20e06e74cbe2","system_id":"levelo_inurba_marseille","lat":43.29584,"lon":5.37026,"is_reserved":false,"is_disabled":false,"rental_uris":{"android":"levelo://app?vid=b5135d91-2dbc-4326-bda2-20e06e74cbe2","ios":"levelo://app?vid=b5135d91-2dbc-4326-bda2-20e06e74cbe2"},"vehicle_type_id":"4","last_reported":1739128029,"current_range_meters":15200,"station_id":"","pricing_plan_id":"cebpf4jnsgd1na2vs0mg"},{"bike_id":"167cf25b-6766-480f-a5ed-9c09e9c92509","system_id":"levelo_inurba_marseille","lat":43.26685,"lon":5.38271,"is_reserved":false,"is_disabled":false,"rental_uris":{"android":"levelo://app?vid=167cf25b-6766-480f-a5ed-9c09e9c92509","ios":"levelo://app?vid=167cf25b-6766-480f-a5ed-9c09e9c92509"},"vehicle_type_id":"4","last_reported":1739128029,"current_range_meters":38000,"station_id":"ce4bhg92rcd13ifvqf90","pricing_plan_id":"cebpf4jnsgd1na2vs0mg"},{"bike_id":"bb1bab95-412e-41ba-879a-c483b6ec0924","system_id":"levelo_inurba_marseille","lat":43.27817,"lon":5.40723,"is_reserved":false,"is_disabled":false,"rental_uris":{"android":"levelo://app?vid=bb1bab95-412e-41ba-879a-c483b6ec0924","ios":"levelo://app?vid=bb1bab95-412e-41ba-879a-c483b6ec0924"},"vehicle_type_id":"4","last_reported":1739128029,"current_range_meters":8400,"station_id":"ce4bhnh2rcd13ifvqgtg","pricing_plan_id":"cebpf4jnsgd1na2vs0mg"},{"bike_id":"d32d93c2-c2da-4831-bc10-4e8421f31d3d","system_id":"levelo_inurba_marseille","lat":43.28614,"lon":5.38397,"is_reserved":false,"is_disabled":false,"rental_uris":{"android":"levelo://app?vid=d32d93c2-c2da-4831-bc10-4e8421f31d3d","ios":"levelo://app?vid=d32d93c2-c2da-4831-bc10-4e8421f31d3d"},"vehicle_type_id":"4","last_reported":1739128029,"current_range_meters":33200,"station_id":"","pricing_plan_id":"cebpf4jnsgd1na2vs0mg"},{"bike_id":"b421e0f2-523c-4e3e-a81c-0b58fb04e82a","system_id":"levelo_inurba_marseille","lat":43.30281,"lon":5.37707,"is_reserved":false,"is_disabled":false,"rental_uris":{"android":"levelo://app?vid=b421e0f2-523c-4e3e-a81c-0b58fb04e82a","ios":"levelo://app?vid=b421e0f2-523c-4e3e-a81c-0b58fb04e82a"},"vehicle_type_id":"4","last_reported":1739128029,"current_range_meters":9200,"station_id":"ce4bguh2rcd13ifvqcj0","pricing_plan_id":"cebpf4jnsgd1na2vs0mg"},{"bike_id":"3600cf6e-b370-46a9-a53c-871abbc03398","system_id":"levelo_inurba_marseille","lat":43.28268,"lon":5.35083,"is_reserved":false,"is_disabled":true,"rental_uris":{"android":"levelo://app?vid=3600cf6e-b370-46a9-a53c-871abbc03398","ios":"levelo://app?vid=3600cf6e-b370-46a9-a53c-871abbc03398"},"vehicle_type_id":"4","last_reported":1739128029,"current_range_meters":38800,"station_id":"ce4bhbp2rcd13ifvqerg","pricing_plan_id":"cebpf4jnsgd1na2vs0mg"},{"bike_id":"9ee17cc6-94b6-42f9-a180-22e25ec3ed8d","system_id":"levelo_inurba_marseille","lat":43.28692,"lon":5.37416,"is_reserved":false,"is_disabled":true,"rental_uris":{"android":"levelo://app?vid=9ee17cc6-94b6-42f9-a180-22e25ec3ed8d","ios":"levelo://app?vid=9ee17cc6-94b6-42f9-a180-22e25ec3ed8d"},"vehicle_type_id":"4","last_reported":1739128029,"current_range_meters":38400,"station_id":"ce4bh3p2rcd13ifvqdq0","pricing_plan_id":"cebpf4jnsgd1na2vs0mg"},{"bike_id":"f9dde9d4-a53a-4289-ab4e-7e52a5ff0166","system_id":"levelo_inurba_marseille","lat":43.25097,"lon":5.40339,"is_reserved":false,"is_disabled":true,"rental_uris":{"android":"levelo://app?vid=f9dde9d4-a53a-4289-ab4e-7e52a5ff0166","ios":"levelo://app?vid=f9dde9d4-a53a-4289-ab4e-7e52a5ff0166"},"vehicle_type_id":"4","last_reported":1739128029,"current_range_meters":2000,"station_id":"ce4bhlh2rcd13ifvqgig","pricing_plan_id":"cebpf4jnsgd1na2vs0mg"},{"bike_id":"2df9160d-b048-4cf6-acbb-d2b6c6d18d8f","system_id":"levelo_inurba_marseille","lat":43.29517,"lon":5.39046,"is_reserved":false,"is_disabled":false,"rental_uris":{"android":"levelo://app?vid=2df9160d-b048-4cf6-acbb-d2b6c6d18d8f","ios":"levelo://app?vid=2df9160d-b048-4cf6-acbb-d2b6c6d18d8f"},"vehicle_type_id":"4","last_reported":1739128029,"current_range_meters":8400,"station_id":"ce4bh3p2rcd13ifvqdp0","pricing_plan_id":"cebpf4jnsgd1na2vs0mg"},{"bike_id":"192df136-5dc5-43df-9014-3d79c87ff1d2","system_id":"levelo_inurba_marseille","lat":43.26063,"lon":5.39394,"is_reserved":false,"is_disabled":false,"rental_uris":{"android":"levelo://app?vid=192df136-5dc5-43df-9014-3d79c87ff1d2","ios":"levelo://app?vid=192df136-5dc5-43df-9014-3d79c87ff1d2"},"vehicle_type_id":"4","last_reported":1739128029,"current_range_meters":38800,"station_id":"ce4bhh92rcd13ifvqfj0","pricing_plan_id":"cebpf4jnsgd1na2vs0mg"},{"bike_id":"d106e773-8b67-4ef4-87ba-c46e5d8d3b3e","system_id":"levelo_inurba_marseille","lat":43.29511,"lon":5.39034,"is_reserved":false,"is_disabled":false,"rental_uris":{"android":"levelo://app?vid=d106e773-8b67-4ef4-87ba-c46e5d8d3b3e","ios":"levelo://app?vid=d106e773-8b67-4ef4-87ba-c46e5d8d3b3e"},"vehicle_type_id":"4","last_reported":1739128029,"current_range_meters":37600,"station_id":"ce4bh3p2rcd13ifvqdp0","pricing_plan_id":"cebpf4jnsgd1na2vs0mg"},{"bike_id":"4913b8b5-d6bb-4003-9626-2e55d74c370d","system_id":"levelo_inurba_marseille","lat":43.23967,"lon":5.36634,"is_reserved":false,"is_disabled":false,"rental_uris":{"android":"levelo://app?vid=4913b8b5-d6bb-4003-9626-2e55d74c370d","ios":"levelo://app?vid=4913b8b5-d6bb-4003-9626-2e55d74c370d"},"vehicle_type_id":"4","last_reported":1739128029,"current_range_meters":9600,"station_id":"ce4bhi12rcd13ifvqfp0","pricing_plan_id":"cebpf4jnsgd1na2vs0mg"},{"bike_id":"5fdb6860-5ee3-463b-aea0-6848b9ff5ddc","system_id":"levelo_inurba_marseille","lat":43.26223,"lon":5.40436,"is_reserved":false,"is_disabled":false,"rental_uris":{"android":"levelo://app?vid=5fdb6860-5ee3-463b-aea0-6848b9ff5ddc","ios":"levelo://app?vid=5fdb6860-5ee3-463b-aea0-6848b9ff5ddc"},"vehicle_type_id":"4","last_reported":1739128029,"current_range_meters":22000,"station_id":"ce4bhmh2rcd13ifvqgmg","pricing_plan_id":"cebpf4jnsgd1na2vs0mg"},{"bike_id":"ad0e719a-8f6d-411c-b994-d08ba46647bb","system_id":"levelo_inurba_marseille","lat":43.29496,"lon":5.39404,"is_reserved":false,"is_disabled":false,"rental_uris":{"android":"levelo://app?vid=ad0e719a-8f6d-411c-b994-d08ba46647bb","ios":"levelo://app?vid=ad0e719a-8f6d-411c-b994-d08ba46647bb"},"vehicle_type_id":"4","last_reported":1739128029,"current_range_meters":38800,"station_id":"ce4bh292rcd13ifvqdf0","pricing_plan_id":"cebpf4jnsgd1na2vs0mg"},{"bike_id":"0ccae692-16fa-48e3-88e0-236b5491d838","system_id":"levelo_inurba_marseille","lat":43.33743,"lon":5.39192,"is_reserved":false,"is_disabled":false,"rental_uris":{"android":"levelo://app?vid=0ccae692-16fa-48e3-88e0-236b5491d838","ios":"levelo://app?vid=0ccae692-16fa-48e3-88e0-236b5491d838"},"vehicle_type_id":"4","last_reported":1739128029,"current_range_meters":38800,"station_id":"ce4bhr92rcd13ifvqhsg","pricing_plan_id":"cebpf4jnsgd1na2vs0mg"},{"bike_id":"3387e857-76e8-4fc1-a1cf-94655f3cc3c6","system_id":"levelo_inurba_marseille","lat":43.239591,"lon":5.366294,"is_reserved":false,"is_disabled":false,"rental_uris":{"android":"levelo://app?vid=3387e857-76e8-4fc1-a1cf-94655f3cc3c6","ios":"levelo://app?vid=3387e857-76e8-4fc1-a1cf-94655f3cc3c6"},"vehicle_type_id":"4","last_reported":1739128029,"current_range_meters":27200,"station_id":"ce4bhi12rcd13ifvqfp0","pricing_plan_id":"cebpf4jnsgd1na2vs0mg"},{"bike_id":"fb4ff991-8c44-4e6e-9881-23d19b1c7472","system_id":"levelo_inurba_marseille","lat":43.290898,"lon":5.381553,"is_reserved":false,"is_disabled":true,"rental_uris":{"android":"levelo://app?vid=fb4ff991-8c44-4e6e-9881-23d19b1c7472","ios":"levelo://app?vid=fb4ff991-8c44-4e6e-9881-23d19b1c7472"},"vehicle_type_id":"4","last_reported":1739128029,"current_range_meters":35600,"station_id":"ce4bh512rcd13ifvqe2g","pricing_plan_id":"cebpf4jnsgd1na2vs0mg"},{"bike_id":"2351dc65-5e1d-4355-baa5-f0044f698c58","system_id":"levelo_inurba_marseille","lat":43.28357,"lon":5.38105,"is_reserved":false,"is_disabled":false,"rental_uris":{"android":"levelo://app?vid=2351dc65-5e1d-4355-baa5-f0044f698c58","ios":"levelo://app?vid=2351dc65-5e1d-4355-baa5-f0044f698c58"},"vehicle_type_id":"4","last_reported":1739128029,"current_range_meters":28400,"station_id":"ce4bh412rcd13ifvqdr0","pricing_plan_id":"cebpf4jnsgd1na2vs0mg"},{"bike_id":"71d68183-07df-46e4-91a5-486bc65201fa","system_id":"levelo_inurba_marseille","lat":43.30139,"lon":5.37411,"is_reserved":false,"is_disabled":false,"rental_uris":{"android":"levelo://app?vid=71d68183-07df-46e4-91a5-486bc65201fa","ios":"levelo://app?vid=71d68183-07df-46e4-91a5-486bc65201fa"},"vehicle_type_id":"4","last_reported":1739128029,"current_range_meters":26000,"station_id":"ce4bgs92rcd13ifvqcc0","pricing_plan_id":"cebpf4jnsgd1na2vs0mg"},{"bike_id":"45bb24a1-0c85-41c1-81d0-60806ea0d3e6","system_id":"levelo_inurba_marseille","lat":43.27183,"lon":5.41009,"is_reserved":false,"is_disabled":false,"rental_uris":{"android":"levelo://app?vid=45bb24a1-0c85-41c1-81d0-60806ea0d3e6","ios":"levelo://app?vid=45bb24a1-0c85-41c1-81d0-60806ea0d3e6"},"vehicle_type_id":"4","last_reported":1739128029,"current_range_meters":16400,"station_id":"ce4bhl12rcd13ifvqgf0","pricing_plan_id":"cebpf4jnsgd1na2vs0mg"},{"bike_id":"96fe1668-af51-4478-b65e-c78b039aaaeb","system_id":"levelo_inurba_marseille","lat":43.29553,"lon":5.37498,"is_reserved":false,"is_disabled":true,"rental_uris":{"android":"levelo://app?vid=96fe1668-af51-4478-b65e-c78b039aaaeb","ios":"levelo://app?vid=96fe1668-af51-4478-b65e-c78b039aaaeb"},"vehicle_type_id":"4","last_reported":1739128029,"current_range_meters":30800,"station_id":"ce4bgkp2rcd13ifvqbmg","pricing_plan_id":"cebpf4jnsgd1na2vs0mg"},{"bike_id":"4c9c8777-d005-4a22-b914-8a051fe7670d","system_id":"levelo_inurba_marseille","lat":43.24682,"lon":5.38157,"is_reserved":false,"is_disabled":false,"rental_uris":{"android":"levelo://app?vid=4c9c8777-d005-4a22-b914-8a051fe7670d","ios":"levelo://app?vid=4c9c8777-d005-4a22-b914-8a051fe7670d"},"vehicle_type_id":"4","last_reported":1739128029,"current_range_meters":6400,"station_id":"ce4bhih2rcd13ifvqfr0","pricing_plan_id":"cebpf4jnsgd1na2vs0mg"},{"bike_id":"38a3a84e-fbfc-492d-bd81-85ca31ac2ee8","system_id":"levelo_inurba_marseille","lat":43.28475,"lon":5.38426,"is_reserved":false,"is_disabled":false,"rental_uris":{"android":"levelo://app?vid=38a3a84e-fbfc-492d-bd81-85ca31ac2ee8","ios":"levelo://app?vid=38a3a84e-fbfc-492d-bd81-85ca31ac2ee8"},"vehicle_type_id":"4","last_reported":1739128029,"current_range_meters":31200,"station_id":"ce4bh512rcd13ifvqe3g","pricing_plan_id":"cebpf4jnsgd1na2vs0mg"},{"bike_id":"5eb59fd4-34c7-4030-bbe2-18e35f7c6137","system_id":"levelo_inurba_marseille","lat":43.2755,"lon":5.38425,"is_reserved":false,"is_disabled":false,"rental_uris":{"android":"levelo://app?vid=5eb59fd4-34c7-4030-bbe2-18e35f7c6137","ios":"levelo://app?vid=5eb59fd4-34c7-4030-bbe2-18e35f7c6137"},"vehicle_type_id":"4","last_reported":1739128029,"current_range_meters":22000,"station_id":"ce4bhh92rcd13ifvqfi0","pricing_plan_id":"cebpf4jnsgd1na2vs0mg"},{"bike_id":"f67b7531-6c63-4f46-a9d4-4fdf588facb0","system_id":"levelo_inurba_marseille","lat":43.27874,"lon":5.40597,"is_reserved":false,"is_disabled":true,"rental_uris":{"android":"levelo://app?vid=f67b7531-6c63-4f46-a9d4-4fdf588facb0","ios":"levelo://app?vid=f67b7531-6c63-4f46-a9d4-4fdf588facb0"},"vehicle_type_id":"4","last_reported":1739128029,"current_range_meters":0,"station_id":"","pricing_plan_id":"cebpf4jnsgd1na2vs0mg"},{"bike_id":"0b8b03a1-3d98-40ad-8759-9e3d3635efba","system_id":"levelo_inurba_marseille","lat":43.24543,"lon":5.39496,"is_reserved":false,"is_disabled":false,"rental_uris":{"android":"levelo://app?vid=0b8b03a1-3d98-40ad-8759-9e3d3635efba","ios":"levelo://app?vid=0b8b03a1-3d98-40ad-8759-9e3d3635efba"},"vehicle_type_id":"4","last_reported":1739128029,"current_range_meters":22000,"station_id":"ce4bhlp2rcd13ifvqgjg","pricing_plan_id":"cebpf4jnsgd1na2vs0mg"},{"bike_id":"c6925d5c-b919-4fcd-a9bb-ba1a1dcafda1","system_id":"levelo_inurba_marseille","lat":43.25497,"lon":5.37648,"is_reserved":false,"is_disabled":false,"rental_uris":{"android":"levelo://app?vid=c6925d5c-b919-4fcd-a9bb-ba1a1dcafda1","ios":"levelo://app?vid=c6925d5c-b919-4fcd-a9bb-ba1a1dcafda1"},"vehicle_type_id":"4","last_reported":1739128029,"current_range_meters":22800,"station_id":"ce4bhh12rcd13ifvqff0","pricing_plan_id":"cebpf4jnsgd1na2vs0mg"},{"bike_id":"71d3d743-daa9-411b-bf8d-337cf9bb3c1a","system_id":"levelo_inurba_marseille","lat":43.2512,"lon":5.40315,"is_reserved":false,"is_disabled":false,"rental_uris":{"android":"levelo://app?vid=71d3d743-daa9-411b-bf8d-337cf9bb3c1a","ios":"levelo://app?vid=71d3d743-daa9-411b-bf8d-337cf9bb3c1a"},"vehicle_type_id":"4","last_reported":1739128029,"current_range_meters":14000,"station_id":"ce4bhlh2rcd13ifvqgig","pricing_plan_id":"cebpf4jnsgd1na2vs0mg"},{"bike_id":"74dda318-1b0b-46a6-82cc-20741b70a914","system_id":"levelo_inurba_marseille","lat":43.29303,"lon":5.37468,"is_reserved":false,"is_disabled":true,"rental_uris":{"android":"levelo://app?vid=74dda318-1b0b-46a6-82cc-20741b70a914","ios":"levelo://app?vid=74dda318-1b0b-46a6-82cc-20741b70a914"},"vehicle_type_id":"4","last_reported":1739128029,"current_range_meters":19600,"station_id":"ce4bgi12rcd13ifvqb70","pricing_plan_id":"cebpf4jnsgd1na2vs0mg"},{"bike_id":"7af88759-a507-4750-a3e1-092f5e5d2070","system_id":"levelo_inurba_marseille","lat":43.3012,"lon":5.39871,"is_reserved":false,"is_disabled":false,"rental_uris":{"android":"levelo://app?vid=7af88759-a507-4750-a3e1-092f5e5d2070","ios":"levelo://app?vid=7af88759-a507-4750-a3e1-092f5e5d2070"},"vehicle_type_id":"4","last_reported":1739128029,"current_range_meters":12000,"station_id":"ce4bh0h2rcd13ifvqd40","pricing_plan_id":"cebpf4jnsgd1na2vs0mg"},{"bike_id":"c1df0cc1-b80b-4538-8d1e-39ca9283f673","system_id":"levelo_inurba_marseille","lat":43.25494,"lon":5.37645,"is_reserved":false,"is_disabled":false,"rental_uris":{"android":"levelo://app?vid=c1df0cc1-b80b-4538-8d1e-39ca9283f673","ios":"levelo://app?vid=c1df0cc1-b80b-4538-8d1e-39ca9283f673"},"vehicle_type_id":"4","last_reported":1739128029,"current_range_meters":38800,"station_id":"ce4bhh12rcd13ifvqff0","pricing_plan_id":"cebpf4jnsgd1na2vs0mg"},{"bike_id":"ae95820a-fcec-404f-bf16-0dffa9c86fed","system_id":"levelo_inurba_marseille","lat":43.28958,"lon":5.36397,"is_reserved":false,"is_disabled":false,"rental_uris":{"android":"levelo://app?vid=ae95820a-fcec-404f-bf16-0dffa9c86fed","ios":"levelo://app?vid=ae95820a-fcec-404f-bf16-0dffa9c86fed"},"vehicle_type_id":"4","last_reported":1739128029,"current_range_meters":26000,"station_id":"ce4bhc92rcd13ifvqetg","pricing_plan_id":"cebpf4jnsgd1na2vs0mg"},{"bike_id":"1c006256-7530-4a56-a25d-dca64c3573d8","system_id":"levelo_inurba_marseille","lat":43.28692,"lon":5.39972,"is_reserved":false,"is_disabled":true,"rental_uris":{"android":"levelo://app?vid=1c006256-7530-4a56-a25d-dca64c3573d8","ios":"levelo://app?vid=1c006256-7530-4a56-a25d-dca64c3573d8"},"vehicle_type_id":"4","last_reported":1739128029,"current_range_meters":38400,"station_id":"ce4bho92rcd13ifvqh3g","pricing_plan_id":"cebpf4jnsgd1na2vs0mg"},{"bike_id":"028e5bc2-b679-4b6c-a013-843d23405193","system_id":"levelo_inurba_marseille","lat":43.28698,"lon":5.37407,"is_reserved":false,"is_disabled":false,"rental_uris":{"android":"levelo://app?vid=028e5bc2-b679-4b6c-a013-843d23405193","ios":"levelo://app?vid=028e5bc2-b679-4b6c-a013-843d23405193"},"vehicle_type_id":"4","last_reported":1739128029,"current_range_meters":38800,"station_id":"ce4bh3p2rcd13ifvqdq0","pricing_plan_id":"cebpf4jnsgd1na2vs0mg"},{"bike_id":"1fd8bc52-5626-4408-a638-b144452061ee","system_id":"levelo_inurba_marseille","lat":43.29067,"lon":5.37157,"is_reserved":false,"is_disabled":false,"rental_uris":{"android":"levelo://app?vid=1fd8bc52-5626-4408-a638-b144452061ee","ios":"levelo://app?vid=1fd8bc52-5626-4408-a638-b144452061ee"},"vehicle_type_id":"4","last_reported":1739128029,"current_range_meters":35200,"station_id":"ce4bh5p2rcd13ifvqe4g","pricing_plan_id":"cebpf4jnsgd1na2vs0mg"},{"bike_id":"5c7479b7-7263-4b4c-a3b1-0d7fb0f411f8","system_id":"levelo_inurba_marseille","lat":43.30317,"lon":5.40456,"is_reserved":false,"is_disabled":true,"rental_uris":{"android":"levelo://app?vid=5c7479b7-7263-4b4c-a3b1-0d7fb0f411f8","ios":"levelo://app?vid=5c7479b7-7263-4b4c-a3b1-0d7fb0f411f8"},"vehicle_type_id":"4","last_reported":1739128029,"current_range_meters":36400,"station_id":"ce4bh012rcd13ifvqd10","pricing_plan_id":"cebpf4jnsgd1na2vs0mg"},{"bike_id":"dbce0a2c-d399-453d-9b14-9a6cf741b605","system_id":"levelo_inurba_marseille","lat":43.32342,"lon":5.40617,"is_reserved":false,"is_disabled":false,"rental_uris":{"android":"levelo://app?vid=dbce0a2c-d399-453d-9b14-9a6cf741b605","ios":"levelo://app?vid=dbce0a2c-d399-453d-9b14-9a6cf741b605"},"vehicle_type_id":"4","last_reported":1739128029,"current_range_meters":24800,"station_id":"ce4bhq92rcd13ifvqhjg","pricing_plan_id":"cebpf4jnsgd1na2vs0mg"},{"bike_id":"5dec2fdf-46a6-4d2a-a8dd-9a8ec1a948d3","system_id":"levelo_inurba_marseille","lat":43.23191,"lon":5.35548,"is_reserved":false,"is_disabled":false,"rental_uris":{"android":"levelo://app?vid=5dec2fdf-46a6-4d2a-a8dd-9a8ec1a948d3","ios":"levelo://app?vid=5dec2fdf-46a6-4d2a-a8dd-9a8ec1a948d3"},"vehicle_type_id":"4","last_reported":1739128029,"current_range_meters":38800,"station_id":"ce4bhu92rcd13ifvqi70","pricing_plan_id":"cebpf4jnsgd1na2vs0mg"},{"bike_id":"dc2e53f3-acb8-49e8-aec5-cda72efb1a57","system_id":"levelo_inurba_marseille","lat":43.28281,"lon":5.35081,"is_reserved":false,"is_disabled":false,"rental_uris":{"android":"levelo://app?vid=dc2e53f3-acb8-49e8-aec5-cda72efb1a57","ios":"levelo://app?vid=dc2e53f3-acb8-49e8-aec5-cda72efb1a57"},"vehicle_type_id":"4","last_reported":1739128029,"current_range_meters":38800,"station_id":"ce4bhbp2rcd13ifvqerg","pricing_plan_id":"cebpf4jnsgd1na2vs0mg"},{"bike_id":"71fb3431-27ca-43bd-91e9-e81a05c563a7","system_id":"levelo_inurba_marseille","lat":43.23181,"lon":5.39984,"is_reserved":false,"is_disabled":false,"rental_uris":{"android":"levelo://app?vid=71fb3431-27ca-43bd-91e9-e81a05c563a7","ios":"levelo://app?vid=71fb3431-27ca-43bd-91e9-e81a05c563a7"},"vehicle_type_id":"4","last_reported":1739128029,"current_range_meters":19200,"station_id":"ce4bhn12rcd13ifvqgqg","pricing_plan_id":"cebpf4jnsgd1na2vs0mg"},{"bike_id":"22669ad6-c05b-49c6-864d-bb442ac14c15","system_id":"levelo_inurba_marseille","lat":43.25931,"lon":5.40882,"is_reserved":false,"is_disabled":false,"rental_uris":{"android":"levelo://app?vid=22669ad6-c05b-49c6-864d-bb442ac14c15","ios":"levelo://app?vid=22669ad6-c05b-49c6-864d-bb442ac14c15"},"vehicle_type_id":"4","last_reported":1739128029,"current_range_meters":29600,"station_id":"ce4bhm92rcd13ifvqglg","pricing_plan_id":"cebpf4jnsgd1na2vs0mg"},{"bike_id":"5c55719c-bf56-4316-adc3-30111af87656","system_id":"levelo_inurba_marseille","lat":43.230534,"lon":5.354951,"is_reserved":false,"is_disabled":false,"rental_uris":{"android":"levelo://app?vid=5c55719c-bf56-4316-adc3-30111af87656","ios":"levelo://app?vid=5c55719c-bf56-4316-adc3-30111af87656"},"vehicle_type_id":"4","last_reported":1739128029,"current_range_meters":38800,"station_id":"cpo3342slgdg3j2ifvpg","pricing_plan_id":"cebpf4jnsgd1na2vs0mg"},{"bike_id":"c2b542d5-20ee-4d02-a9e4-f66e0540bcfb","system_id":"levelo_inurba_marseille","lat":43.24157,"lon":5.39728,"is_reserved":false,"is_disabled":false,"rental_uris":{"android":"levelo://app?vid=c2b542d5-20ee-4d02-a9e4-f66e0540bcfb","ios":"levelo://app?vid=c2b542d5-20ee-4d02-a9e4-f66e0540bcfb"},"vehicle_type_id":"4","last_reported":1739128029,"current_range_meters":11200,"station_id":"ce4bhn12rcd13ifvqgpg","pricing_plan_id":"cebpf4jnsgd1na2vs0mg"},{"bike_id":"416e4320-aac0-4963-8b5c-4afb7122b18f","system_id":"levelo_inurba_marseille","lat":43.26562,"lon":5.39034,"is_reserved":false,"is_disabled":false,"rental_uris":{"android":"levelo://app?vid=416e4320-aac0-4963-8b5c-4afb7122b18f","ios":"levelo://app?vid=416e4320-aac0-4963-8b5c-4afb7122b18f"},"vehicle_type_id":"4","last_reported":1739128029,"current_range_meters":22800,"station_id":"ce4bhe12rcd13ifvqf30","pricing_plan_id":"cebpf4jnsgd1na2vs0mg"},{"bike_id":"1513dc82-88ef-45d8-8ca7-77bdcf6c3f4a","system_id":"levelo_inurba_marseille","lat":43.29096,"lon":5.38137,"is_reserved":false,"is_disabled":false,"rental_uris":{"android":"levelo://app?vid=1513dc82-88ef-45d8-8ca7-77bdcf6c3f4a","ios":"levelo://app?vid=1513dc82-88ef-45d8-8ca7-77bdcf6c3f4a"},"vehicle_type_id":"4","last_reported":1739128029,"current_range_meters":18800,"station_id":"ce4bh512rcd13ifvqe2g","pricing_plan_id":"cebpf4jnsgd1na2vs0mg"},{"bike_id":"1da8b17b-ad28-4780-a711-431647c244ed","system_id":"levelo_inurba_marseille","lat":43.23976,"lon":5.36603,"is_reserved":false,"is_disabled":false,"rental_uris":{"android":"levelo://app?vid=1da8b17b-ad28-4780-a711-431647c244ed","ios":"levelo://app?vid=1da8b17b-ad28-4780-a711-431647c244ed"},"vehicle_type_id":"4","last_reported":1739128029,"current_range_meters":19200,"station_id":"ce4bhi12rcd13ifvqfp0","pricing_plan_id":"cebpf4jnsgd1na2vs0mg"},{"bike_id":"dd0e98e8-a909-456e-940d-5cce07d6642d","system_id":"levelo_inurba_marseille","lat":43.31085,"lon":5.38353,"is_reserved":false,"is_disabled":false,"rental_uris":{"android":"levelo://app?vid=dd0e98e8-a909-456e-940d-5cce07d6642d","ios":"levelo://app?vid=dd0e98e8-a909-456e-940d-5cce07d6642d"},"vehicle_type_id":"4","last_reported":1739128029,"current_range_meters":14400,"station_id":"ce4bgv92rcd13ifvqcr0","pricing_plan_id":"cebpf4jnsgd1na2vs0mg"},{"bike_id":"3037d3c6-d790-499a-b90d-53ed2c7bb3d0","system_id":"levelo_inurba_marseille","lat":43.27984,"lon":5.38743,"is_reserved":false,"is_disabled":false,"rental_uris":{"android":"levelo://app?vid=3037d3c6-d790-499a-b90d-53ed2c7bb3d0","ios":"levelo://app?vid=3037d3c6-d790-499a-b90d-53ed2c7bb3d0"},"vehicle_type_id":"4","last_reported":1739128029,"current_range_meters":11200,"station_id":"ce4bhg12rcd13ifvqf80","pricing_plan_id":"cebpf4jnsgd1na2vs0mg"},{"bike_id":"f78952aa-a1e4-42f8-b5d2-31338580d315","system_id":"levelo_inurba_marseille","lat":43.23966,"lon":5.36626,"is_reserved":false,"is_disabled":false,"rental_uris":{"android":"levelo://app?vid=f78952aa-a1e4-42f8-b5d2-31338580d315","ios":"levelo://app?vid=f78952aa-a1e4-42f8-b5d2-31338580d315"},"vehicle_type_id":"4","last_reported":1739128029,"current_range_meters":10000,"station_id":"ce4bhi12rcd13ifvqfp0","pricing_plan_id":"cebpf4jnsgd1na2vs0mg"},{"bike_id":"f2d50267-98d9-493b-8957-63594a0dadcc","system_id":"levelo_inurba_marseille","lat":43.2304,"lon":5.35501,"is_reserved":false,"is_disabled":false,"rental_uris":{"android":"levelo://app?vid=f2d50267-98d9-493b-8957-63594a0dadcc","ios":"levelo://app?vid=f2d50267-98d9-493b-8957-63594a0dadcc"},"vehicle_type_id":"4","last_reported":1739128029,"current_range_meters":38800,"station_id":"cpo3342slgdg3j2ifvpg","pricing_plan_id":"cebpf4jnsgd1na2vs0mg"},{"bike_id":"985ea620-1838-4cc4-9f45-6622855b2de9","system_id":"levelo_inurba_marseille","lat":43.27995,"lon":5.40002,"is_reserved":false,"is_disabled":false,"rental_uris":{"android":"levelo://app?vid=985ea620-1838-4cc4-9f45-6622855b2de9","ios":"levelo://app?vid=985ea620-1838-4cc4-9f45-6622855b2de9"},"vehicle_type_id":"4","last_reported":1739128029,"current_range_meters":38000,"station_id":"ce4bho92rcd13ifvqh4g","pricing_plan_id":"cebpf4jnsgd1na2vs0mg"},{"bike_id":"b62dea62-0007-4bca-a1b0-d88bfab77dea","system_id":"levelo_inurba_marseille","lat":43.3249,"lon":5.36565,"is_reserved":false,"is_disabled":false,"rental_uris":{"android":"levelo://app?vid=b62dea62-0007-4bca-a1b0-d88bfab77dea","ios":"levelo://app?vid=b62dea62-0007-4bca-a1b0-d88bfab77dea"},"vehicle_type_id":"4","last_reported":1739128029,"current_range_meters":28400,"station_id":"ce4bhs12rcd13ifvqhvg","pricing_plan_id":"cebpf4jnsgd1na2vs0mg"},{"bike_id":"4d6ce251-9441-4028-a830-0345b804192b","system_id":"levelo_inurba_marseille","lat":43.2952,"lon":5.39029,"is_reserved":false,"is_disabled":false,"rental_uris":{"android":"levelo://app?vid=4d6ce251-9441-4028-a830-0345b804192b","ios":"levelo://app?vid=4d6ce251-9441-4028-a830-0345b804192b"},"vehicle_type_id":"4","last_reported":1739128029,"current_range_meters":10800,"station_id":"ce4bh3p2rcd13ifvqdp0","pricing_plan_id":"cebpf4jnsgd1na2vs0mg"},{"bike_id":"7c0de3db-d7ac-4c9d-8d57-1dfbdd7f0c15","system_id":"levelo_inurba_marseille","lat":43.25111,"lon":5.4032,"is_reserved":false,"is_disabled":true,"rental_uris":{"android":"levelo://app?vid=7c0de3db-d7ac-4c9d-8d57-1dfbdd7f0c15","ios":"levelo://app?vid=7c0de3db-d7ac-4c9d-8d57-1dfbdd7f0c15"},"vehicle_type_id":"4","last_reported":1739128029,"current_range_meters":2000,"station_id":"ce4bhlh2rcd13ifvqgig","pricing_plan_id":"cebpf4jnsgd1na2vs0mg"},{"bike_id":"98514ce6-c9a0-445d-988e-9d038e3f1731","system_id":"levelo_inurba_marseille","lat":43.2407,"lon":5.3774,"is_reserved":false,"is_disabled":false,"rental_uris":{"android":"levelo://app?vid=98514ce6-c9a0-445d-988e-9d038e3f1731","ios":"levelo://app?vid=98514ce6-c9a0-445d-988e-9d038e3f1731"},"vehicle_type_id":"4","last_reported":1739128029,"current_range_meters":39200,"station_id":"ce4bhnp2rcd13ifvqgvg","pricing_plan_id":"cebpf4jnsgd1na2vs0mg"},{"bike_id":"aa35cf0f-c960-445f-a08f-f629c019d1a0","system_id":"levelo_inurba_marseille","lat":43.33735,"lon":5.39195,"is_reserved":false,"is_disabled":false,"rental_uris":{"android":"levelo://app?vid=aa35cf0f-c960-445f-a08f-f629c019d1a0","ios":"levelo://app?vid=aa35cf0f-c960-445f-a08f-f629c019d1a0"},"vehicle_type_id":"4","last_reported":1739128029,"current_range_meters":37600,"station_id":"ce4bhr92rcd13ifvqhsg","pricing_plan_id":"cebpf4jnsgd1na2vs0mg"},{"bike_id":"6657e6a5-0131-40cd-94ed-119fb8177004","system_id":"levelo_inurba_marseille","lat":43.30799,"lon":5.38147,"is_reserved":false,"is_disabled":false,"rental_uris":{"android":"levelo://app?vid=6657e6a5-0131-40cd-94ed-119fb8177004","ios":"levelo://app?vid=6657e6a5-0131-40cd-94ed-119fb8177004"},"vehicle_type_id":"4","last_reported":1739128029,"current_range_meters":38800,"station_id":"ce4bgt12rcd13ifvqce0","pricing_plan_id":"cebpf4jnsgd1na2vs0mg"},{"bike_id":"847c6a31-e9b4-472a-a4ac-05a8b1063248","system_id":"levelo_inurba_marseille","lat":43.31319,"lon":5.39717,"is_reserved":false,"is_disabled":false,"rental_uris":{"android":"levelo://app?vid=847c6a31-e9b4-472a-a4ac-05a8b1063248","ios":"levelo://app?vid=847c6a31-e9b4-472a-a4ac-05a8b1063248"},"vehicle_type_id":"4","last_reported":1739128029,"current_range_meters":38800,"station_id":"ce4bgvp2rcd13ifvqcu0","pricing_plan_id":"cebpf4jnsgd1na2vs0mg"},{"bike_id":"22a5c6e1-bb6b-4333-8051-e7583e5afc36","system_id":"levelo_inurba_marseille","lat":43.29451,"lon":5.39747,"is_reserved":false,"is_disabled":true,"rental_uris":{"android":"levelo://app?vid=22a5c6e1-bb6b-4333-8051-e7583e5afc36","ios":"levelo://app?vid=22a5c6e1-bb6b-4333-8051-e7583e5afc36"},"vehicle_type_id":"4","last_reported":1739128029,"current_range_meters":38000,"station_id":"ce4bh3h2rcd13ifvqdo0","pricing_plan_id":"cebpf4jnsgd1na2vs0mg"},{"bike_id":"e922a998-68bd-49a9-b7e7-19716fa09a9c","system_id":"levelo_inurba_marseille","lat":43.2996,"lon":5.37178,"is_reserved":false,"is_disabled":false,"rental_uris":{"android":"levelo://app?vid=e922a998-68bd-49a9-b7e7-19716fa09a9c","ios":"levelo://app?vid=e922a998-68bd-49a9-b7e7-19716fa09a9c"},"vehicle_type_id":"4","last_reported":1739128029,"current_range_meters":39200,"station_id":"ce4bgr92rcd13ifvqc7g","pricing_plan_id":"cebpf4jnsgd1na2vs0mg"},{"bike_id":"3acdbd7b-d5de-4cb2-b3ca-5916b021fd2b","system_id":"levelo_inurba_marseille","lat":43.28937,"lon":5.36631,"is_reserved":false,"is_disabled":false,"rental_uris":{"android":"levelo://app?vid=3acdbd7b-d5de-4cb2-b3ca-5916b021fd2b","ios":"levelo://app?vid=3acdbd7b-d5de-4cb2-b3ca-5916b021fd2b"},"vehicle_type_id":"4","last_reported":1739128029,"current_range_meters":38400,"station_id":"ce4bhap2rcd13ifvqek0","pricing_plan_id":"cebpf4jnsgd1na2vs0mg"},{"bike_id":"e0dbd7c8-a8f7-436d-bbe9-4b43c034cd3d","system_id":"levelo_inurba_marseille","lat":43.29433,"lon":5.38616,"is_reserved":false,"is_disabled":false,"rental_uris":{"android":"levelo://app?vid=e0dbd7c8-a8f7-436d-bbe9-4b43c034cd3d","ios":"levelo://app?vid=e0dbd7c8-a8f7-436d-bbe9-4b43c034cd3d"},"vehicle_type_id":"4","last_reported":1739128029,"current_range_meters":36000,"station_id":"ce4bh2h2rcd13ifvqdh0","pricing_plan_id":"cebpf4jnsgd1na2vs0mg"},{"bike_id":"fd7f60dd-1b52-46f9-9b6b-de4b0fe7477f","system_id":"levelo_inurba_marseille","lat":43.27067,"lon":5.42264,"is_reserved":false,"is_disabled":true,"rental_uris":{"android":"levelo://app?vid=fd7f60dd-1b52-46f9-9b6b-de4b0fe7477f","ios":"levelo://app?vid=fd7f60dd-1b52-46f9-9b6b-de4b0fe7477f"},"vehicle_type_id":"4","last_reported":1739128029,"current_range_meters":33200,"station_id":"ce4bhk92rcd13ifvqgb0","pricing_plan_id":"cebpf4jnsgd1na2vs0mg"},{"bike_id":"2a256a54-1e9f-4d2e-856a-c49046f7dde9","system_id":"levelo_inurba_marseille","lat":43.26054,"lon":5.39388,"is_reserved":false,"is_disabled":false,"rental_uris":{"android":"levelo://app?vid=2a256a54-1e9f-4d2e-856a-c49046f7dde9","ios":"levelo://app?vid=2a256a54-1e9f-4d2e-856a-c49046f7dde9"},"vehicle_type_id":"4","last_reported":1739128029,"current_range_meters":38800,"station_id":"ce4bhh92rcd13ifvqfj0","pricing_plan_id":"cebpf4jnsgd1na2vs0mg"},{"bike_id":"75b97fee-4e8f-4e04-b929-4d8f94f06212","system_id":"levelo_inurba_marseille","lat":43.31323,"lon":5.39692,"is_reserved":false,"is_disabled":false,"rental_uris":{"android":"levelo://app?vid=75b97fee-4e8f-4e04-b929-4d8f94f06212","ios":"levelo://app?vid=75b97fee-4e8f-4e04-b929-4d8f94f06212"},"vehicle_type_id":"4","last_reported":1739128029,"current_range_meters":7200,"station_id":"ce4bgvp2rcd13ifvqcu0","pricing_plan_id":"cebpf4jnsgd1na2vs0mg"},{"bike_id":"71af4c3a-fa26-4039-9ee7-f5d24e009142","system_id":"levelo_inurba_marseille","lat":43.24806,"lon":5.37457,"is_reserved":false,"is_disabled":false,"rental_uris":{"android":"levelo://app?vid=71af4c3a-fa26-4039-9ee7-f5d24e009142","ios":"levelo://app?vid=71af4c3a-fa26-4039-9ee7-f5d24e009142"},"vehicle_type_id":"4","last_reported":1739128029,"current_range_meters":38800,"station_id":"ce4bhgh2rcd13ifvqfb0","pricing_plan_id":"cebpf4jnsgd1na2vs0mg"},{"bike_id":"3fd911fa-972b-47c7-ae20-976ecb944f91","system_id":"levelo_inurba_marseille","lat":43.28508,"lon":5.38455,"is_reserved":false,"is_disabled":false,"rental_uris":{"android":"levelo://app?vid=3fd911fa-972b-47c7-ae20-976ecb944f91","ios":"levelo://app?vid=3fd911fa-972b-47c7-ae20-976ecb944f91"},"vehicle_type_id":"4","last_reported":1739128029,"current_range_meters":35600,"station_id":"ce4bh512rcd13ifvqe3g","pricing_plan_id":"cebpf4jnsgd1na2vs0mg"},{"bike_id":"b108129b-a98c-44dc-9179-6b5664963c24","system_id":"levelo_inurba_marseille","lat":43.2399,"lon":5.3664,"is_reserved":false,"is_disabled":false,"rental_uris":{"android":"levelo://app?vid=b108129b-a98c-44dc-9179-6b5664963c24","ios":"levelo://app?vid=b108129b-a98c-44dc-9179-6b5664963c24"},"vehicle_type_id":"4","last_reported":1739128029,"current_range_meters":38400,"station_id":"ce4bhi12rcd13ifvqfp0","pricing_plan_id":"cebpf4jnsgd1na2vs0mg"},{"bike_id":"19b477d4-b0c2-4a9c-855c-badfd0db1363","system_id":"levelo_inurba_marseille","lat":43.2835,"lon":5.38114,"is_reserved":false,"is_disabled":false,"rental_uris":{"android":"levelo://app?vid=19b477d4-b0c2-4a9c-855c-badfd0db1363","ios":"levelo://app?vid=19b477d4-b0c2-4a9c-855c-badfd0db1363"},"vehicle_type_id":"4","last_reported":1739128029,"current_range_meters":39200,"station_id":"ce4bh412rcd13ifvqdr0","pricing_plan_id":"cebpf4jnsgd1na2vs0mg"},{"bike_id":"1d22e319-6ca9-4836-8a81-1c8273a2620f","system_id":"levelo_inurba_marseille","lat":43.29868,"lon":5.39746,"is_reserved":false,"is_disabled":false,"rental_uris":{"android":"levelo://app?vid=1d22e319-6ca9-4836-8a81-1c8273a2620f","ios":"levelo://app?vid=1d22e319-6ca9-4836-8a81-1c8273a2620f"},"vehicle_type_id":"4","last_reported":1739128029,"current_range_meters":34800,"station_id":"ce4bh0h2rcd13ifvqd50","pricing_plan_id":"cebpf4jnsgd1na2vs0mg"},{"bike_id":"03b0eb25-29ab-46cb-ad6e-20033cf7c6d4","system_id":"levelo_inurba_marseille","lat":43.28858,"lon":5.39292,"is_reserved":false,"is_disabled":false,"rental_uris":{"android":"levelo://app?vid=03b0eb25-29ab-46cb-ad6e-20033cf7c6d4","ios":"levelo://app?vid=03b0eb25-29ab-46cb-ad6e-20033cf7c6d4"},"vehicle_type_id":"4","last_reported":1739128029,"current_range_meters":22400,"station_id":"ce4bh2p2rcd13ifvqdi0","pricing_plan_id":"cebpf4jnsgd1na2vs0mg"},{"bike_id":"6a14739a-b5fc-42d5-9b40-b808b7ab9afe","system_id":"levelo_inurba_marseille","lat":43.24681,"lon":5.38134,"is_reserved":false,"is_disabled":false,"rental_uris":{"android":"levelo://app?vid=6a14739a-b5fc-42d5-9b40-b808b7ab9afe","ios":"levelo://app?vid=6a14739a-b5fc-42d5-9b40-b808b7ab9afe"},"vehicle_type_id":"4","last_reported":1739128029,"current_range_meters":34800,"station_id":"ce4bhih2rcd13ifvqfr0","pricing_plan_id":"cebpf4jnsgd1na2vs0mg"},{"bike_id":"9da2535f-e77c-4f48-aae1-c197f0a0daad","system_id":"levelo_inurba_marseille","lat":43.27988,"lon":5.41654,"is_reserved":false,"is_disabled":true,"rental_uris":{"android":"levelo://app?vid=9da2535f-e77c-4f48-aae1-c197f0a0daad","ios":"levelo://app?vid=9da2535f-e77c-4f48-aae1-c197f0a0daad"},"vehicle_type_id":"4","last_reported":1739128029,"current_range_meters":0,"station_id":"ce4bho12rcd13ifvqh1g","pricing_plan_id":"cebpf4jnsgd1na2vs0mg"},{"bike_id":"7907c11f-3c79-4dd6-931b-6c5fc9d16927","system_id":"levelo_inurba_marseille","lat":43.28079,"lon":5.39659,"is_reserved":false,"is_disabled":false,"rental_uris":{"android":"levelo://app?vid=7907c11f-3c79-4dd6-931b-6c5fc9d16927","ios":"levelo://app?vid=7907c11f-3c79-4dd6-931b-6c5fc9d16927"},"vehicle_type_id":"4","last_reported":1739128029,"current_range_meters":34000,"station_id":"ce4bho12rcd13ifvqh2g","pricing_plan_id":"cebpf4jnsgd1na2vs0mg"},{"bike_id":"945fc2cc-0c57-41b7-aeda-ba490431c853","system_id":"levelo_inurba_marseille","lat":43.31078,"lon":5.38346,"is_reserved":false,"is_disabled":false,"rental_uris":{"android":"levelo://app?vid=945fc2cc-0c57-41b7-aeda-ba490431c853","ios":"levelo://app?vid=945fc2cc-0c57-41b7-aeda-ba490431c853"},"vehicle_type_id":"4","last_reported":1739128029,"current_range_meters":38800,"station_id":"ce4bgv92rcd13ifvqcr0","pricing_plan_id":"cebpf4jnsgd1na2vs0mg"},{"bike_id":"ac4d09c7-5041-4bec-955c-b3547d9037d7","system_id":"levelo_inurba_marseille","lat":43.29536,"lon":5.38545,"is_reserved":false,"is_disabled":false,"rental_uris":{"android":"levelo://app?vid=ac4d09c7-5041-4bec-955c-b3547d9037d7","ios":"levelo://app?vid=ac4d09c7-5041-4bec-955c-b3547d9037d7"},"vehicle_type_id":"4","last_reported":1739128029,"current_range_meters":31200,"station_id":"ce4bgih2rcd13ifvqba0","pricing_plan_id":"cebpf4jnsgd1na2vs0mg"},{"bike_id":"29c9ba85-0135-4611-af6c-b8dee113d319","system_id":"levelo_inurba_marseille","lat":43.26946,"lon":5.3864,"is_reserved":false,"is_disabled":false,"rental_uris":{"android":"levelo://app?vid=29c9ba85-0135-4611-af6c-b8dee113d319","ios":"levelo://app?vid=29c9ba85-0135-4611-af6c-b8dee113d319"},"vehicle_type_id":"4","last_reported":1739128029,"current_range_meters":38800,"station_id":"ce4bhh92rcd13ifvqfh0","pricing_plan_id":"cebpf4jnsgd1na2vs0mg"},{"bike_id":"c6f92ca4-91f7-4b27-a97d-0ada5b4e29ae","system_id":"levelo_inurba_marseille","lat":43.24687,"lon":5.38146,"is_reserved":false,"is_disabled":false,"rental_uris":{"android":"levelo://app?vid=c6f92ca4-91f7-4b27-a97d-0ada5b4e29ae","ios":"levelo://app?vid=c6f92ca4-91f7-4b27-a97d-0ada5b4e29ae"},"vehicle_type_id":"4","last_reported":1739128029,"current_range_meters":24400,"station_id":"ce4bhih2rcd13ifvqfr0","pricing_plan_id":"cebpf4jnsgd1na2vs0mg"},{"bike_id":"1ce1764c-394e-43d2-9be8-2c487193aeec","system_id":"levelo_inurba_marseille","lat":43.32657,"lon":5.40991,"is_reserved":false,"is_disabled":false,"rental_uris":{"android":"levelo://app?vid=1ce1764c-394e-43d2-9be8-2c487193aeec","ios":"levelo://app?vid=1ce1764c-394e-43d2-9be8-2c487193aeec"},"vehicle_type_id":"4","last_reported":1739128029,"current_range_meters":38800,"station_id":"ce4bhpp2rcd13ifvqhgg","pricing_plan_id":"cebpf4jnsgd1na2vs0mg"},{"bike_id":"0749f39c-08b4-4c44-ab4c-f9438caaae7d","system_id":"levelo_inurba_marseille","lat":43.28702,"lon":5.39992,"is_reserved":false,"is_disabled":false,"rental_uris":{"android":"levelo://app?vid=0749f39c-08b4-4c44-ab4c-f9438caaae7d","ios":"levelo://app?vid=0749f39c-08b4-4c44-ab4c-f9438caaae7d"},"vehicle_type_id":"4","last_reported":1739128029,"current_range_meters":8800,"station_id":"ce4bho92rcd13ifvqh3g","pricing_plan_id":"cebpf4jnsgd1na2vs0mg"},{"bike_id":"e6be63e9-14c3-419b-bde8-22acf2b44567","system_id":"levelo_inurba_marseille","lat":43.32373,"lon":5.38881,"is_reserved":false,"is_disabled":false,"rental_uris":{"android":"levelo://app?vid=e6be63e9-14c3-419b-bde8-22acf2b44567","ios":"levelo://app?vid=e6be63e9-14c3-419b-bde8-22acf2b44567"},"vehicle_type_id":"4","last_reported":1739128029,"current_range_meters":16400,"station_id":"ce4bhqp2rcd13ifvqhog","pricing_plan_id":"cebpf4jnsgd1na2vs0mg"},{"bike_id":"8c707686-4aba-45d4-ba75-351f2e1bec94","system_id":"levelo_inurba_marseille","lat":43.27836,"lon":5.39199,"is_reserved":false,"is_disabled":false,"rental_uris":{"android":"levelo://app?vid=8c707686-4aba-45d4-ba75-351f2e1bec94","ios":"levelo://app?vid=8c707686-4aba-45d4-ba75-351f2e1bec94"},"vehicle_type_id":"4","last_reported":1739128029,"current_range_meters":33600,"station_id":"ce4bhjp2rcd13ifvqga0","pricing_plan_id":"cebpf4jnsgd1na2vs0mg"},{"bike_id":"52dd4d60-0f73-4f62-8808-1c67e5f3eea4","system_id":"levelo_inurba_marseille","lat":43.27835,"lon":5.39205,"is_reserved":false,"is_disabled":true,"rental_uris":{"android":"levelo://app?vid=52dd4d60-0f73-4f62-8808-1c67e5f3eea4","ios":"levelo://app?vid=52dd4d60-0f73-4f62-8808-1c67e5f3eea4"},"vehicle_type_id":"4","last_reported":1739128029,"current_range_meters":0,"station_id":"ce4bhjp2rcd13ifvqga0","pricing_plan_id":"cebpf4jnsgd1na2vs0mg"},{"bike_id":"4c6e5ed1-272b-49c1-ad5d-302bd9b9e47f","system_id":"levelo_inurba_marseille","lat":43.3124,"lon":5.36856,"is_reserved":false,"is_disabled":false,"rental_uris":{"android":"levelo://app?vid=4c6e5ed1-272b-49c1-ad5d-302bd9b9e47f","ios":"levelo://app?vid=4c6e5ed1-272b-49c1-ad5d-302bd9b9e47f"},"vehicle_type_id":"4","last_reported":1739128029,"current_range_meters":39200,"station_id":"ce4bgl92rcd13ifvqbq0","pricing_plan_id":"cebpf4jnsgd1na2vs0mg"},{"bike_id":"2b5781c9-d3d9-4875-b5da-04147f9edefe","system_id":"levelo_inurba_marseille","lat":43.275352,"lon":5.360051,"is_reserved":false,"is_disabled":false,"rental_uris":{"android":"levelo://app?vid=2b5781c9-d3d9-4875-b5da-04147f9edefe","ios":"levelo://app?vid=2b5781c9-d3d9-4875-b5da-04147f9edefe"},"vehicle_type_id":"4","last_reported":1739128029,"current_range_meters":16400,"station_id":"ce4bha12rcd13ifvqef0","pricing_plan_id":"cebpf4jnsgd1na2vs0mg"},{"bike_id":"c5789181-d252-4c46-b75d-908f3a6a38fe","system_id":"levelo_inurba_marseille","lat":43.33742,"lon":5.39183,"is_reserved":false,"is_disabled":false,"rental_uris":{"android":"levelo://app?vid=c5789181-d252-4c46-b75d-908f3a6a38fe","ios":"levelo://app?vid=c5789181-d252-4c46-b75d-908f3a6a38fe"},"vehicle_type_id":"4","last_reported":1739128029,"current_range_meters":38800,"station_id":"ce4bhr92rcd13ifvqhsg","pricing_plan_id":"cebpf4jnsgd1na2vs0mg"},{"bike_id":"4662cadc-d8cc-46d4-8513-fe6cec73d116","system_id":"levelo_inurba_marseille","lat":43.313601,"lon":5.384924,"is_reserved":false,"is_disabled":false,"rental_uris":{"android":"levelo://app?vid=4662cadc-d8cc-46d4-8513-fe6cec73d116","ios":"levelo://app?vid=4662cadc-d8cc-46d4-8513-fe6cec73d116"},"vehicle_type_id":"4","last_reported":1739128029,"current_range_meters":37600,"station_id":"ce4bgt92rcd13ifvqcf0","pricing_plan_id":"cebpf4jnsgd1na2vs0mg"},{"bike_id":"eadb002c-aff3-497b-9382-03b50b72d244","system_id":"levelo_inurba_marseille","lat":43.28858,"lon":5.3931,"is_reserved":false,"is_disabled":false,"rental_uris":{"android":"levelo://app?vid=eadb002c-aff3-497b-9382-03b50b72d244","ios":"levelo://app?vid=eadb002c-aff3-497b-9382-03b50b72d244"},"vehicle_type_id":"4","last_reported":1739128029,"current_range_meters":39200,"station_id":"ce4bh2p2rcd13ifvqdi0","pricing_plan_id":"cebpf4jnsgd1na2vs0mg"},{"bike_id":"4bcd0512-ea32-404a-89e4-f0c8beb273f2","system_id":"levelo_inurba_marseille","lat":43.27562,"lon":5.3843,"is_reserved":false,"is_disabled":false,"rental_uris":{"android":"levelo://app?vid=4bcd0512-ea32-404a-89e4-f0c8beb273f2","ios":"levelo://app?vid=4bcd0512-ea32-404a-89e4-f0c8beb273f2"},"vehicle_type_id":"4","last_reported":1739128029,"current_range_meters":4800,"station_id":"ce4bhh92rcd13ifvqfi0","pricing_plan_id":"cebpf4jnsgd1na2vs0mg"},{"bike_id":"0465b098-501d-4eaa-9851-ecad7c11e06c","system_id":"levelo_inurba_marseille","lat":43.27849,"lon":5.40718,"is_reserved":false,"is_disabled":false,"rental_uris":{"android":"levelo://app?vid=0465b098-501d-4eaa-9851-ecad7c11e06c","ios":"levelo://app?vid=0465b098-501d-4eaa-9851-ecad7c11e06c"},"vehicle_type_id":"4","last_reported":1739128029,"current_range_meters":38400,"station_id":"ce4bhnh2rcd13ifvqgtg","pricing_plan_id":"cebpf4jnsgd1na2vs0mg"},{"bike_id":"a0e4aa32-2930-4b3f-a9c9-c8d667116e7d","system_id":"levelo_inurba_marseille","lat":43.30182,"lon":5.3962,"is_reserved":false,"is_disabled":false,"rental_uris":{"android":"levelo://app?vid=a0e4aa32-2930-4b3f-a9c9-c8d667116e7d","ios":"levelo://app?vid=a0e4aa32-2930-4b3f-a9c9-c8d667116e7d"},"vehicle_type_id":"4","last_reported":1739128029,"current_range_meters":23200,"station_id":"","pricing_plan_id":"cebpf4jnsgd1na2vs0mg"},{"bike_id":"c5314254-c933-46cf-a0f5-0a421d150af1","system_id":"levelo_inurba_marseille","lat":43.2907,"lon":5.37166,"is_reserved":false,"is_disabled":false,"rental_uris":{"android":"levelo://app?vid=c5314254-c933-46cf-a0f5-0a421d150af1","ios":"levelo://app?vid=c5314254-c933-46cf-a0f5-0a421d150af1"},"vehicle_type_id":"4","last_reported":1739128029,"current_range_meters":30800,"station_id":"ce4bh5p2rcd13ifvqe4g","pricing_plan_id":"cebpf4jnsgd1na2vs0mg"},{"bike_id":"f70d3dab-2fe6-4aa3-85f9-a5dc51cf9105","system_id":"levelo_inurba_marseille","lat":43.25825,"lon":5.39445,"is_reserved":false,"is_disabled":false,"rental_uris":{"android":"levelo://app?vid=f70d3dab-2fe6-4aa3-85f9-a5dc51cf9105","ios":"levelo://app?vid=f70d3dab-2fe6-4aa3-85f9-a5dc51cf9105"},"vehicle_type_id":"4","last_reported":1739128029,"current_range_meters":38800,"station_id":"ce4bhip2rcd13ifvqft0","pricing_plan_id":"cebpf4jnsgd1na2vs0mg"},{"bike_id":"d70fa3bf-1c24-462d-bf66-ab826853066e","system_id":"levelo_inurba_marseille","lat":43.29417,"lon":5.38625,"is_reserved":false,"is_disabled":false,"rental_uris":{"android":"levelo://app?vid=d70fa3bf-1c24-462d-bf66-ab826853066e","ios":"levelo://app?vid=d70fa3bf-1c24-462d-bf66-ab826853066e"},"vehicle_type_id":"4","last_reported":1739128029,"current_range_meters":17200,"station_id":"ce4bh2h2rcd13ifvqdh0","pricing_plan_id":"cebpf4jnsgd1na2vs0mg"},{"bike_id":"880ce712-c0f5-4aaf-8504-50bcf653db47","system_id":"levelo_inurba_marseille","lat":43.24813,"lon":5.37458,"is_reserved":false,"is_disabled":false,"rental_uris":{"android":"levelo://app?vid=880ce712-c0f5-4aaf-8504-50bcf653db47","ios":"levelo://app?vid=880ce712-c0f5-4aaf-8504-50bcf653db47"},"vehicle_type_id":"4","last_reported":1739128029,"current_range_meters":28000,"station_id":"ce4bhgh2rcd13ifvqfb0","pricing_plan_id":"cebpf4jnsgd1na2vs0mg"},{"bike_id":"ee9cd95f-558c-4d1b-b8e7-18e8b49b2941","system_id":"levelo_inurba_marseille","lat":43.28856,"lon":5.39302,"is_reserved":false,"is_disabled":false,"rental_uris":{"android":"levelo://app?vid=ee9cd95f-558c-4d1b-b8e7-18e8b49b2941","ios":"levelo://app?vid=ee9cd95f-558c-4d1b-b8e7-18e8b49b2941"},"vehicle_type_id":"4","last_reported":1739128029,"current_range_meters":25200,"station_id":"ce4bh2p2rcd13ifvqdi0","pricing_plan_id":"cebpf4jnsgd1na2vs0mg"},{"bike_id":"013ac57c-0826-426d-84a7-60e833c60d0a","system_id":"levelo_inurba_marseille","lat":43.32337,"lon":5.40629,"is_reserved":false,"is_disabled":false,"rental_uris":{"android":"levelo://app?vid=013ac57c-0826-426d-84a7-60e833c60d0a","ios":"levelo://app?vid=013ac57c-0826-426d-84a7-60e833c60d0a"},"vehicle_type_id":"4","last_reported":1739128029,"current_range_meters":14000,"station_id":"ce4bhq92rcd13ifvqhjg","pricing_plan_id":"cebpf4jnsgd1na2vs0mg"},{"bike_id":"656b3b3b-ebfa-4345-b7c9-9eedd9381155","system_id":"levelo_inurba_marseille","lat":43.30806,"lon":5.40015,"is_reserved":false,"is_disabled":false,"rental_uris":{"android":"levelo://app?vid=656b3b3b-ebfa-4345-b7c9-9eedd9381155","ios":"levelo://app?vid=656b3b3b-ebfa-4345-b7c9-9eedd9381155"},"vehicle_type_id":"4","last_reported":1739128029,"current_range_meters":10800,"station_id":"","pricing_plan_id":"cebpf4jnsgd1na2vs0mg"},{"bike_id":"1528f29a-78cc-4c5c-afa0-b428bc80ea4f","system_id":"levelo_inurba_marseille","lat":43.28474,"lon":5.38542,"is_reserved":false,"is_disabled":false,"rental_uris":{"android":"levelo://app?vid=1528f29a-78cc-4c5c-afa0-b428bc80ea4f","ios":"levelo://app?vid=1528f29a-78cc-4c5c-afa0-b428bc80ea4f"},"vehicle_type_id":"4","last_reported":1739128029,"current_range_meters":19600,"station_id":"ce4bh8p2rcd13ifvqeb0","pricing_plan_id":"cebpf4jnsgd1na2vs0mg"},{"bike_id":"a3202439-b164-4de2-aacb-1a6746630a48","system_id":"levelo_inurba_marseille","lat":43.3042,"lon":5.36758,"is_reserved":false,"is_disabled":true,"rental_uris":{"android":"levelo://app?vid=a3202439-b164-4de2-aacb-1a6746630a48","ios":"levelo://app?vid=a3202439-b164-4de2-aacb-1a6746630a48"},"vehicle_type_id":"4","last_reported":1739128029,"current_range_meters":0,"station_id":"","pricing_plan_id":"cebpf4jnsgd1na2vs0mg"},{"bike_id":"f9ec8a41-50bd-48e3-a9c3-1936ef8a8e37","system_id":"levelo_inurba_marseille","lat":43.26946,"lon":5.38653,"is_reserved":false,"is_disabled":false,"rental_uris":{"android":"levelo://app?vid=f9ec8a41-50bd-48e3-a9c3-1936ef8a8e37","ios":"levelo://app?vid=f9ec8a41-50bd-48e3-a9c3-1936ef8a8e37"},"vehicle_type_id":"4","last_reported":1739128029,"current_range_meters":39200,"station_id":"ce4bhh92rcd13ifvqfh0","pricing_plan_id":"cebpf4jnsgd1na2vs0mg"},{"bike_id":"5f4c0fcb-a35b-4374-aa55-6ae702d7d671","system_id":"levelo_inurba_marseille","lat":43.2846,"lon":5.35898,"is_reserved":false,"is_disabled":false,"rental_uris":{"android":"levelo://app?vid=5f4c0fcb-a35b-4374-aa55-6ae702d7d671","ios":"levelo://app?vid=5f4c0fcb-a35b-4374-aa55-6ae702d7d671"},"vehicle_type_id":"4","last_reported":1739128029,"current_range_meters":35600,"station_id":"ce4bhah2rcd13ifvqei0","pricing_plan_id":"cebpf4jnsgd1na2vs0mg"},{"bike_id":"32377b15-aaab-41c8-ac5a-c4269621e1be","system_id":"levelo_inurba_marseille","lat":43.311096,"lon":5.377561,"is_reserved":false,"is_disabled":false,"rental_uris":{"android":"levelo://app?vid=32377b15-aaab-41c8-ac5a-c4269621e1be","ios":"levelo://app?vid=32377b15-aaab-41c8-ac5a-c4269621e1be"},"vehicle_type_id":"4","last_reported":1739128029,"current_range_meters":22800,"station_id":"ce4bgt92rcd13ifvqcg0","pricing_plan_id":"cebpf4jnsgd1na2vs0mg"},{"bike_id":"7ea602af-bc8d-4d49-af25-40c9a921e77f","system_id":"levelo_inurba_marseille","lat":43.26954,"lon":5.38911,"is_reserved":false,"is_disabled":false,"rental_uris":{"android":"levelo://app?vid=7ea602af-bc8d-4d49-af25-40c9a921e77f","ios":"levelo://app?vid=7ea602af-bc8d-4d49-af25-40c9a921e77f"},"vehicle_type_id":"4","last_reported":1739128029,"current_range_meters":31200,"station_id":"ce4bhhh2rcd13ifvqfl0","pricing_plan_id":"cebpf4jnsgd1na2vs0mg"},{"bike_id":"7f2deb56-183c-436c-981c-cfbcfece13e6","system_id":"levelo_inurba_marseille","lat":43.23963,"lon":5.36626,"is_reserved":false,"is_disabled":false,"rental_uris":{"android":"levelo://app?vid=7f2deb56-183c-436c-981c-cfbcfece13e6","ios":"levelo://app?vid=7f2deb56-183c-436c-981c-cfbcfece13e6"},"vehicle_type_id":"4","last_reported":1739128029,"current_range_meters":38000,"station_id":"ce4bhi12rcd13ifvqfp0","pricing_plan_id":"cebpf4jnsgd1na2vs0mg"},{"bike_id":"16592476-98ef-4be8-96d9-833700881990","system_id":"levelo_inurba_marseille","lat":43.30254,"lon":5.40054,"is_reserved":false,"is_disabled":false,"rental_uris":{"android":"levelo://app?vid=16592476-98ef-4be8-96d9-833700881990","ios":"levelo://app?vid=16592476-98ef-4be8-96d9-833700881990"},"vehicle_type_id":"4","last_reported":1739128029,"current_range_meters":30400,"station_id":"ce4bgvh2rcd13ifvqcs0","pricing_plan_id":"cebpf4jnsgd1na2vs0mg"},{"bike_id":"1c392f62-33c0-4d1d-9a0e-eb4241b06292","system_id":"levelo_inurba_marseille","lat":43.24042,"lon":5.3773,"is_reserved":false,"is_disabled":false,"rental_uris":{"android":"levelo://app?vid=1c392f62-33c0-4d1d-9a0e-eb4241b06292","ios":"levelo://app?vid=1c392f62-33c0-4d1d-9a0e-eb4241b06292"},"vehicle_type_id":"4","last_reported":1739128029,"current_range_meters":10800,"station_id":"ce4bhnp2rcd13ifvqgvg","pricing_plan_id":"cebpf4jnsgd1na2vs0mg"},{"bike_id":"a5a14ac8-8c40-406c-865a-09ed98e25470","system_id":"levelo_inurba_marseille","lat":43.23189,"lon":5.35554,"is_reserved":false,"is_disabled":false,"rental_uris":{"android":"levelo://app?vid=a5a14ac8-8c40-406c-865a-09ed98e25470","ios":"levelo://app?vid=a5a14ac8-8c40-406c-865a-09ed98e25470"},"vehicle_type_id":"4","last_reported":1739128029,"current_range_meters":12400,"station_id":"ce4bhu92rcd13ifvqi70","pricing_plan_id":"cebpf4jnsgd1na2vs0mg"},{"bike_id":"9d7240fb-8e21-4950-bea4-7cd7d1bcedc2","system_id":"levelo_inurba_marseille","lat":43.28138,"lon":5.42651,"is_reserved":false,"is_disabled":false,"rental_uris":{"android":"levelo://app?vid=9d7240fb-8e21-4950-bea4-7cd7d1bcedc2","ios":"levelo://app?vid=9d7240fb-8e21-4950-bea4-7cd7d1bcedc2"},"vehicle_type_id":"4","last_reported":1739128029,"current_range_meters":22400,"station_id":"ce4bhnh2rcd13ifvqgug","pricing_plan_id":"cebpf4jnsgd1na2vs0mg"},{"bike_id":"510a2a8d-40dd-4cb3-af61-58248041bd28","system_id":"levelo_inurba_marseille","lat":43.29975,"lon":5.37173,"is_reserved":false,"is_disabled":false,"rental_uris":{"android":"levelo://app?vid=510a2a8d-40dd-4cb3-af61-58248041bd28","ios":"levelo://app?vid=510a2a8d-40dd-4cb3-af61-58248041bd28"},"vehicle_type_id":"4","last_reported":1739128029,"current_range_meters":27200,"station_id":"ce4bgr92rcd13ifvqc7g","pricing_plan_id":"cebpf4jnsgd1na2vs0mg"},{"bike_id":"87f55178-b221-4f5a-9b43-4df846d42ec8","system_id":"levelo_inurba_marseille","lat":43.323,"lon":5.38269,"is_reserved":false,"is_disabled":false,"rental_uris":{"android":"levelo://app?vid=87f55178-b221-4f5a-9b43-4df846d42ec8","ios":"levelo://app?vid=87f55178-b221-4f5a-9b43-4df846d42ec8"},"vehicle_type_id":"4","last_reported":1739128029,"current_range_meters":28000,"station_id":"ce4bhr12rcd13ifvqhqg","pricing_plan_id":"cebpf4jnsgd1na2vs0mg"},{"bike_id":"f7063a1c-a097-45d5-8fdb-84651485ef24","system_id":"levelo_inurba_marseille","lat":43.24671,"lon":5.38156,"is_reserved":false,"is_disabled":false,"rental_uris":{"android":"levelo://app?vid=f7063a1c-a097-45d5-8fdb-84651485ef24","ios":"levelo://app?vid=f7063a1c-a097-45d5-8fdb-84651485ef24"},"vehicle_type_id":"4","last_reported":1739128029,"current_range_meters":38800,"station_id":"ce4bhih2rcd13ifvqfr0","pricing_plan_id":"cebpf4jnsgd1na2vs0mg"},{"bike_id":"ab445631-9e5a-46dc-8708-c7ea376fcabc","system_id":"levelo_inurba_marseille","lat":43.25081,"lon":5.39525,"is_reserved":false,"is_disabled":false,"rental_uris":{"android":"levelo://app?vid=ab445631-9e5a-46dc-8708-c7ea376fcabc","ios":"levelo://app?vid=ab445631-9e5a-46dc-8708-c7ea376fcabc"},"vehicle_type_id":"4","last_reported":1739128029,"current_range_meters":16800,"station_id":"ce4bhm12rcd13ifvqgkg","pricing_plan_id":"cebpf4jnsgd1na2vs0mg"},{"bike_id":"1671be57-0136-43bd-ac5a-f8706ffe115a","system_id":"levelo_inurba_marseille","lat":43.27952,"lon":5.41041,"is_reserved":false,"is_disabled":false,"rental_uris":{"android":"levelo://app?vid=1671be57-0136-43bd-ac5a-f8706ffe115a","ios":"levelo://app?vid=1671be57-0136-43bd-ac5a-f8706ffe115a"},"vehicle_type_id":"4","last_reported":1739128029,"current_range_meters":34000,"station_id":"ce4bhnp2rcd13ifvqh0g","pricing_plan_id":"cebpf4jnsgd1na2vs0mg"},{"bike_id":"59db9156-837c-4bef-bdf0-6cb05d00fb23","system_id":"levelo_inurba_marseille","lat":43.24174,"lon":5.36387,"is_reserved":false,"is_disabled":false,"rental_uris":{"android":"levelo://app?vid=59db9156-837c-4bef-bdf0-6cb05d00fb23","ios":"levelo://app?vid=59db9156-837c-4bef-bdf0-6cb05d00fb23"},"vehicle_type_id":"4","last_reported":1739128029,"current_range_meters":22800,"station_id":"cpo36qri1sfpv3e86is0","pricing_plan_id":"cebpf4jnsgd1na2vs0mg"},{"bike_id":"23dbd4f7-d283-4466-8ac1-e4ac5dd6280d","system_id":"levelo_inurba_marseille","lat":43.30112,"lon":5.39071,"is_reserved":false,"is_disabled":false,"rental_uris":{"android":"levelo://app?vid=23dbd4f7-d283-4466-8ac1-e4ac5dd6280d","ios":"levelo://app?vid=23dbd4f7-d283-4466-8ac1-e4ac5dd6280d"},"vehicle_type_id":"4","last_reported":1739128029,"current_range_meters":4000,"station_id":"ce4bh192rcd13ifvqdb0","pricing_plan_id":"cebpf4jnsgd1na2vs0mg"},{"bike_id":"88b6c431-599c-4df4-bcc1-97374094ac2d","system_id":"levelo_inurba_marseille","lat":43.30214,"lon":5.39473,"is_reserved":false,"is_disabled":false,"rental_uris":{"android":"levelo://app?vid=88b6c431-599c-4df4-bcc1-97374094ac2d","ios":"levelo://app?vid=88b6c431-599c-4df4-bcc1-97374094ac2d"},"vehicle_type_id":"4","last_reported":1739128029,"current_range_meters":28400,"station_id":"ce4bh0p2rcd13ifvqd70","pricing_plan_id":"cebpf4jnsgd1na2vs0mg"},{"bike_id":"f1e9b514-8d63-4512-92a1-4bc9d87c157b","system_id":"levelo_inurba_marseille","lat":43.31701,"lon":5.4373,"is_reserved":false,"is_disabled":true,"rental_uris":{"android":"levelo://app?vid=f1e9b514-8d63-4512-92a1-4bc9d87c157b","ios":"levelo://app?vid=f1e9b514-8d63-4512-92a1-4bc9d87c157b"},"vehicle_type_id":"4","last_reported":1739128029,"current_range_meters":0,"station_id":"ce4bhp92rcd13ifvqhcg","pricing_plan_id":"cebpf4jnsgd1na2vs0mg"},{"bike_id":"a0074d74-cecf-48cb-88d9-dfdc2b2fa810","system_id":"levelo_inurba_marseille","lat":43.23955,"lon":5.36627,"is_reserved":false,"is_disabled":false,"rental_uris":{"android":"levelo://app?vid=a0074d74-cecf-48cb-88d9-dfdc2b2fa810","ios":"levelo://app?vid=a0074d74-cecf-48cb-88d9-dfdc2b2fa810"},"vehicle_type_id":"4","last_reported":1739128029,"current_range_meters":16400,"station_id":"ce4bhi12rcd13ifvqfp0","pricing_plan_id":"cebpf4jnsgd1na2vs0mg"},{"bike_id":"81d37ca3-5a86-4697-be03-dd0b787f28cf","system_id":"levelo_inurba_marseille","lat":43.32353,"lon":5.40619,"is_reserved":false,"is_disabled":true,"rental_uris":{"android":"levelo://app?vid=81d37ca3-5a86-4697-be03-dd0b787f28cf","ios":"levelo://app?vid=81d37ca3-5a86-4697-be03-dd0b787f28cf"},"vehicle_type_id":"4","last_reported":1739128029,"current_range_meters":2800,"station_id":"ce4bhq92rcd13ifvqhjg","pricing_plan_id":"cebpf4jnsgd1na2vs0mg"},{"bike_id":"27fe88b6-f81f-4aba-983f-e2e9fb819079","system_id":"levelo_inurba_marseille","lat":43.32542,"lon":5.41437,"is_reserved":false,"is_disabled":false,"rental_uris":{"android":"levelo://app?vid=27fe88b6-f81f-4aba-983f-e2e9fb819079","ios":"levelo://app?vid=27fe88b6-f81f-4aba-983f-e2e9fb819079"},"vehicle_type_id":"4","last_reported":1739128029,"current_range_meters":38000,"station_id":"ce4bhq12rcd13ifvqhhg","pricing_plan_id":"cebpf4jnsgd1na2vs0mg"},{"bike_id":"cecc1fb6-712c-4aef-9766-aee557551038","system_id":"levelo_inurba_marseille","lat":43.27645,"lon":5.38913,"is_reserved":false,"is_disabled":false,"rental_uris":{"android":"levelo://app?vid=cecc1fb6-712c-4aef-9766-aee557551038","ios":"levelo://app?vid=cecc1fb6-712c-4aef-9766-aee557551038"},"vehicle_type_id":"4","last_reported":1739128029,"current_range_meters":36800,"station_id":"ce4bhi12rcd13ifvqfo0","pricing_plan_id":"cebpf4jnsgd1na2vs0mg"},{"bike_id":"442732ad-fdd7-418f-a246-83e4902bc418","system_id":"levelo_inurba_marseille","lat":43.29602,"lon":5.38098,"is_reserved":false,"is_disabled":false,"rental_uris":{"android":"levelo://app?vid=442732ad-fdd7-418f-a246-83e4902bc418","ios":"levelo://app?vid=442732ad-fdd7-418f-a246-83e4902bc418"},"vehicle_type_id":"4","last_reported":1739128029,"current_range_meters":24800,"station_id":"ce4bgl12rcd13ifvqbo0","pricing_plan_id":"cebpf4jnsgd1na2vs0mg"},{"bike_id":"9189e0cd-d5d1-46a9-97ed-08ec6d7d8cc9","system_id":"levelo_inurba_marseille","lat":43.29973,"lon":5.3849,"is_reserved":false,"is_disabled":false,"rental_uris":{"android":"levelo://app?vid=9189e0cd-d5d1-46a9-97ed-08ec6d7d8cc9","ios":"levelo://app?vid=9189e0cd-d5d1-46a9-97ed-08ec6d7d8cc9"},"vehicle_type_id":"4","last_reported":1739128029,"current_range_meters":38800,"station_id":"ce4bgj92rcd13ifvqbd0","pricing_plan_id":"cebpf4jnsgd1na2vs0mg"},{"bike_id":"462e50f2-7c1f-4a75-ad87-acef486284a9","system_id":"levelo_inurba_marseille","lat":43.27311,"lon":5.39105,"is_reserved":false,"is_disabled":false,"rental_uris":{"android":"levelo://app?vid=462e50f2-7c1f-4a75-ad87-acef486284a9","ios":"levelo://app?vid=462e50f2-7c1f-4a75-ad87-acef486284a9"},"vehicle_type_id":"4","last_reported":1739128029,"current_range_meters":12400,"station_id":"ce4bhgp2rcd13ifvqfe0","pricing_plan_id":"cebpf4jnsgd1na2vs0mg"},{"bike_id":"9c3ed8fb-7268-418c-ac09-3f255c9e9b5e","system_id":"levelo_inurba_marseille","lat":43.280384,"lon":5.369343,"is_reserved":false,"is_disabled":false,"rental_uris":{"android":"levelo://app?vid=9c3ed8fb-7268-418c-ac09-3f255c9e9b5e","ios":"levelo://app?vid=9c3ed8fb-7268-418c-ac09-3f255c9e9b5e"},"vehicle_type_id":"4","last_reported":1739128029,"current_range_meters":36800,"station_id":"ce4bha12rcd13ifvqef0","pricing_plan_id":"cebpf4jnsgd1na2vs0mg"},{"bike_id":"11a6894e-4826-4e6b-8b29-57e9936461c1","system_id":"levelo_inurba_marseille","lat":43.29357,"lon":5.37833,"is_reserved":false,"is_disabled":false,"rental_uris":{"android":"levelo://app?vid=11a6894e-4826-4e6b-8b29-57e9936461c1","ios":"levelo://app?vid=11a6894e-4826-4e6b-8b29-57e9936461c1"},"vehicle_type_id":"4","last_reported":1739128029,"current_range_meters":38800,"station_id":"ce4bgjh2rcd13ifvqbf0","pricing_plan_id":"cebpf4jnsgd1na2vs0mg"},{"bike_id":"c91fa3f3-a774-43d0-92fe-010e57bc5d25","system_id":"levelo_inurba_marseille","lat":43.26211,"lon":5.37436,"is_reserved":false,"is_disabled":false,"rental_uris":{"android":"levelo://app?vid=c91fa3f3-a774-43d0-92fe-010e57bc5d25","ios":"levelo://app?vid=c91fa3f3-a774-43d0-92fe-010e57bc5d25"},"vehicle_type_id":"4","last_reported":1739128029,"current_range_meters":9200,"station_id":"ce4bhgp2rcd13ifvqfc0","pricing_plan_id":"cebpf4jnsgd1na2vs0mg"},{"bike_id":"bd4fb89d-8743-4dd5-bb31-dfa1b3454b56","system_id":"levelo_inurba_marseille","lat":43.29193,"lon":5.39322,"is_reserved":false,"is_disabled":false,"rental_uris":{"android":"levelo://app?vid=bd4fb89d-8743-4dd5-bb31-dfa1b3454b56","ios":"levelo://app?vid=bd4fb89d-8743-4dd5-bb31-dfa1b3454b56"},"vehicle_type_id":"4","last_reported":1739128029,"current_range_meters":36400,"station_id":"ce4bh192rcd13ifvqdd0","pricing_plan_id":"cebpf4jnsgd1na2vs0mg"},{"bike_id":"277b6126-0441-4bd1-a1f0-147e7c5fd945","system_id":"levelo_inurba_marseille","lat":43.26037,"lon":5.37536,"is_reserved":false,"is_disabled":false,"rental_uris":{"android":"levelo://app?vid=277b6126-0441-4bd1-a1f0-147e7c5fd945","ios":"levelo://app?vid=277b6126-0441-4bd1-a1f0-147e7c5fd945"},"vehicle_type_id":"4","last_reported":1739128029,"current_range_meters":29600,"station_id":"ce4bhgh2rcd13ifvqfa0","pricing_plan_id":"cebpf4jnsgd1na2vs0mg"},{"bike_id":"6ff781d1-2621-44d1-b299-83b571f09432","system_id":"levelo_inurba_marseille","lat":43.34083,"lon":5.38507,"is_reserved":false,"is_disabled":true,"rental_uris":{"android":"levelo://app?vid=6ff781d1-2621-44d1-b299-83b571f09432","ios":"levelo://app?vid=6ff781d1-2621-44d1-b299-83b571f09432"},"vehicle_type_id":"4","last_reported":1739128029,"current_range_meters":0,"station_id":"","pricing_plan_id":"cebpf4jnsgd1na2vs0mg"},{"bike_id":"4bb456e6-a4c6-42a9-8a69-a7349e693bfb","system_id":"levelo_inurba_marseille","lat":43.29544,"lon":5.37484,"is_reserved":false,"is_disabled":true,"rental_uris":{"android":"levelo://app?vid=4bb456e6-a4c6-42a9-8a69-a7349e693bfb","ios":"levelo://app?vid=4bb456e6-a4c6-42a9-8a69-a7349e693bfb"},"vehicle_type_id":"4","last_reported":1739128029,"current_range_meters":12400,"station_id":"ce4bgkp2rcd13ifvqbmg","pricing_plan_id":"cebpf4jnsgd1na2vs0mg"},{"bike_id":"f2354b3b-9398-430a-991c-0c108e9a4c6a","system_id":"levelo_inurba_marseille","lat":43.30321,"lon":5.39216,"is_reserved":false,"is_disabled":true,"rental_uris":{"android":"levelo://app?vid=f2354b3b-9398-430a-991c-0c108e9a4c6a","ios":"levelo://app?vid=f2354b3b-9398-430a-991c-0c108e9a4c6a"},"vehicle_type_id":"4","last_reported":1739128029,"current_range_meters":38000,"station_id":"ce4bgkh2rcd13ifvqbk0","pricing_plan_id":"cebpf4jnsgd1na2vs0mg"},{"bike_id":"023da4ba-3275-433f-9c20-6aa1fe5c1824","system_id":"levelo_inurba_marseille","lat":43.24068,"lon":5.3776,"is_reserved":false,"is_disabled":false,"rental_uris":{"android":"levelo://app?vid=023da4ba-3275-433f-9c20-6aa1fe5c1824","ios":"levelo://app?vid=023da4ba-3275-433f-9c20-6aa1fe5c1824"},"vehicle_type_id":"4","last_reported":1739128029,"current_range_meters":33600,"station_id":"ce4bhnp2rcd13ifvqgvg","pricing_plan_id":"cebpf4jnsgd1na2vs0mg"},{"bike_id":"96c6cbf1-f325-4ff5-b335-559a8ea0ba69","system_id":"levelo_inurba_marseille","lat":43.26534,"lon":5.39022,"is_reserved":false,"is_disabled":false,"rental_uris":{"android":"levelo://app?vid=96c6cbf1-f325-4ff5-b335-559a8ea0ba69","ios":"levelo://app?vid=96c6cbf1-f325-4ff5-b335-559a8ea0ba69"},"vehicle_type_id":"4","last_reported":1739128029,"current_range_meters":25600,"station_id":"ce4bhe12rcd13ifvqf30","pricing_plan_id":"cebpf4jnsgd1na2vs0mg"},{"bike_id":"476ac844-d2a6-4abc-8253-752e91c59782","system_id":"levelo_inurba_marseille","lat":43.251063,"lon":5.403157,"is_reserved":false,"is_disabled":true,"rental_uris":{"android":"levelo://app?vid=476ac844-d2a6-4abc-8253-752e91c59782","ios":"levelo://app?vid=476ac844-d2a6-4abc-8253-752e91c59782"},"vehicle_type_id":"4","last_reported":1739128029,"current_range_meters":1600,"station_id":"ce4bhlh2rcd13ifvqgig","pricing_plan_id":"cebpf4jnsgd1na2vs0mg"},{"bike_id":"03dc0a60-23d6-429c-a406-0c86a8f516e4","system_id":"levelo_inurba_marseille","lat":43.24171,"lon":5.39712,"is_reserved":false,"is_disabled":false,"rental_uris":{"android":"levelo://app?vid=03dc0a60-23d6-429c-a406-0c86a8f516e4","ios":"levelo://app?vid=03dc0a60-23d6-429c-a406-0c86a8f516e4"},"vehicle_type_id":"4","last_reported":1739128029,"current_range_meters":32000,"station_id":"ce4bhn12rcd13ifvqgpg","pricing_plan_id":"cebpf4jnsgd1na2vs0mg"},{"bike_id":"54436b52-02cc-4661-aa08-836ade08841d","system_id":"levelo_inurba_marseille","lat":43.27201,"lon":5.3907,"is_reserved":false,"is_disabled":false,"rental_uris":{"android":"levelo://app?vid=54436b52-02cc-4661-aa08-836ade08841d","ios":"levelo://app?vid=54436b52-02cc-4661-aa08-836ade08841d"},"vehicle_type_id":"4","last_reported":1739128029,"current_range_meters":25600,"station_id":"ce4bhgp2rcd13ifvqfe0","pricing_plan_id":"cebpf4jnsgd1na2vs0mg"},{"bike_id":"e1d069b2-75f3-4301-996f-816fcfdac823","system_id":"levelo_inurba_marseille","lat":43.29447,"lon":5.39745,"is_reserved":false,"is_disabled":false,"rental_uris":{"android":"levelo://app?vid=e1d069b2-75f3-4301-996f-816fcfdac823","ios":"levelo://app?vid=e1d069b2-75f3-4301-996f-816fcfdac823"},"vehicle_type_id":"4","last_reported":1739128029,"current_range_meters":27200,"station_id":"ce4bh3h2rcd13ifvqdo0","pricing_plan_id":"cebpf4jnsgd1na2vs0mg"},{"bike_id":"625eccb7-48b1-4966-9716-d68a74423c66","system_id":"levelo_inurba_marseille","lat":43.3026,"lon":5.40068,"is_reserved":false,"is_disabled":false,"rental_uris":{"android":"levelo://app?vid=625eccb7-48b1-4966-9716-d68a74423c66","ios":"levelo://app?vid=625eccb7-48b1-4966-9716-d68a74423c66"},"vehicle_type_id":"4","last_reported":1739128029,"current_range_meters":13600,"station_id":"ce4bgvh2rcd13ifvqcs0","pricing_plan_id":"cebpf4jnsgd1na2vs0mg"},{"bike_id":"37fc9ecf-d187-4780-98f8-bfafd8664be0","system_id":"levelo_inurba_marseille","lat":43.2655,"lon":5.37303,"is_reserved":false,"is_disabled":true,"rental_uris":{"android":"levelo://app?vid=37fc9ecf-d187-4780-98f8-bfafd8664be0","ios":"levelo://app?vid=37fc9ecf-d187-4780-98f8-bfafd8664be0"},"vehicle_type_id":"4","last_reported":1739128029,"current_range_meters":36000,"station_id":"ce4bhg12rcd13ifvqf70","pricing_plan_id":"cebpf4jnsgd1na2vs0mg"},{"bike_id":"e2200dc8-d2f7-4f30-b1b2-4f395de74e61","system_id":"levelo_inurba_marseille","lat":43.3115,"lon":5.37772,"is_reserved":false,"is_disabled":false,"rental_uris":{"android":"levelo://app?vid=e2200dc8-d2f7-4f30-b1b2-4f395de74e61","ios":"levelo://app?vid=e2200dc8-d2f7-4f30-b1b2-4f395de74e61"},"vehicle_type_id":"4","last_reported":1739128029,"current_range_meters":24800,"station_id":"ce4bgt92rcd13ifvqcg0","pricing_plan_id":"cebpf4jnsgd1na2vs0mg"},{"bike_id":"6dc8aad2-7037-4229-8043-78cd60c32539","system_id":"levelo_inurba_marseille","lat":43.23954,"lon":5.36609,"is_reserved":false,"is_disabled":false,"rental_uris":{"android":"levelo://app?vid=6dc8aad2-7037-4229-8043-78cd60c32539","ios":"levelo://app?vid=6dc8aad2-7037-4229-8043-78cd60c32539"},"vehicle_type_id":"4","last_reported":1739128029,"current_range_meters":38800,"station_id":"ce4bhi12rcd13ifvqfp0","pricing_plan_id":"cebpf4jnsgd1na2vs0mg"},{"bike_id":"b128a27d-78e2-4307-b7e9-424ab68f2da1","system_id":"levelo_inurba_marseille","lat":43.28699,"lon":5.37386,"is_reserved":false,"is_disabled":false,"rental_uris":{"android":"levelo://app?vid=b128a27d-78e2-4307-b7e9-424ab68f2da1","ios":"levelo://app?vid=b128a27d-78e2-4307-b7e9-424ab68f2da1"},"vehicle_type_id":"4","last_reported":1739128029,"current_range_meters":36000,"station_id":"ce4bh3p2rcd13ifvqdq0","pricing_plan_id":"cebpf4jnsgd1na2vs0mg"},{"bike_id":"e002860a-7789-4610-a3cb-935b4458849f","system_id":"levelo_inurba_marseille","lat":43.29028,"lon":5.38644,"is_reserved":false,"is_disabled":false,"rental_uris":{"android":"levelo://app?vid=e002860a-7789-4610-a3cb-935b4458849f","ios":"levelo://app?vid=e002860a-7789-4610-a3cb-935b4458849f"},"vehicle_type_id":"4","last_reported":1739128029,"current_range_meters":38800,"station_id":"ce4bh4p2rcd13ifvqe0g","pricing_plan_id":"cebpf4jnsgd1na2vs0mg"},{"bike_id":"2c51fea0-2904-4e58-9ff4-b988a0f11037","system_id":"levelo_inurba_marseille","lat":43.32107,"lon":5.36789,"is_reserved":false,"is_disabled":false,"rental_uris":{"android":"levelo://app?vid=2c51fea0-2904-4e58-9ff4-b988a0f11037","ios":"levelo://app?vid=2c51fea0-2904-4e58-9ff4-b988a0f11037"},"vehicle_type_id":"4","last_reported":1739128029,"current_range_meters":38800,"station_id":"ce4bhrh2rcd13ifvqhug","pricing_plan_id":"cebpf4jnsgd1na2vs0mg"},{"bike_id":"e46e02c5-b75f-448c-899d-44c5dc77495b","system_id":"levelo_inurba_marseille","lat":43.31165,"lon":5.38716,"is_reserved":false,"is_disabled":false,"rental_uris":{"android":"levelo://app?vid=e46e02c5-b75f-448c-899d-44c5dc77495b","ios":"levelo://app?vid=e46e02c5-b75f-448c-899d-44c5dc77495b"},"vehicle_type_id":"4","last_reported":1739128029,"current_range_meters":38800,"station_id":"ce4bgv12rcd13ifvqcp0","pricing_plan_id":"cebpf4jnsgd1na2vs0mg"},{"bike_id":"df199ea2-6423-4e47-8a78-4d2e4b95c9f1","system_id":"levelo_inurba_marseille","lat":43.30886,"lon":5.3966,"is_reserved":false,"is_disabled":true,"rental_uris":{"android":"levelo://app?vid=df199ea2-6423-4e47-8a78-4d2e4b95c9f1","ios":"levelo://app?vid=df199ea2-6423-4e47-8a78-4d2e4b95c9f1"},"vehicle_type_id":"4","last_reported":1739128029,"current_range_meters":33600,"station_id":"ce4bh012rcd13ifvqcv0","pricing_plan_id":"cebpf4jnsgd1na2vs0mg"},{"bike_id":"ffe0f4ec-452b-455a-97e3-ecc9f5ed121c","system_id":"levelo_inurba_marseille","lat":43.298703,"lon":5.38906,"is_reserved":false,"is_disabled":true,"rental_uris":{"android":"levelo://app?vid=ffe0f4ec-452b-455a-97e3-ecc9f5ed121c","ios":"levelo://app?vid=ffe0f4ec-452b-455a-97e3-ecc9f5ed121c"},"vehicle_type_id":"4","last_reported":1739128029,"current_range_meters":34800,"station_id":"ce4bh392rcd13ifvqdl0","pricing_plan_id":"cebpf4jnsgd1na2vs0mg"},