{"last_updated":1762978310,"ttl":60,"version":"2.2","data":{"bikes":[{"bike_id":"d7db12ce-11cc-4c98-8751-ac59baa5d7aa","system_id":"levelo_inurba_marseille","lat":43.337444,"lon":5.374475,"is_reserved":false,"is_disabled":false,"rental_uris":{"android":"levelo://app?vid=d7db12ce-11cc-4c98-8751-ac59baa5d7aa","ios":"levelo://app?vid=d7db12ce-11cc-4c98-8751-ac59baa5d7aa"},"vehicle_type_id":"4","last_reported":1762978310,"current_range_meters":0,"station_id":"","pricing_plan_id":"cebpf4jnsgd1na2vs0mg"},{"bike_id":"577ce247-0a7b-4215-bc23-a6cc6dfffb67","system_id":"levelo_inurba_marseille","lat":43.29023,"lon":5.38137,"is_reserved":false,"is_disabled":false,"rental_uris":{"android":"levelo://app?vid=577ce247-0a7b-4215-bc23-a6cc6dfffb67","ios":"levelo://app?vid=577ce247-0a7b-4215-bc23-a6cc6dfffb67"},"vehicle_type_id":"4","last_reported":1762978310,"current_range_meters":2800,"station_id":"ce4bh4p2rcd13ifvqe1g","pricing_plan_id":"cebpf4jnsgd1na2vs0mg"},{"bike_id":"6d71abbe-3c0f-4408-925d-b2633c441681","system_id":"levelo_inurba_marseille","lat":43.24048,"lon":5.37724,"is_reserved":false,"is_disabled":false,"rental_uris":{"android":"levelo://app?vid=6d71abbe-3c0f-4408-925d-b2633c441681","ios":"levelo://app?vid=6d71abbe-3c0f-4408-925d-b2633c441681"},"vehicle_type_id":"4","last_reported":1762978310,"current_range_meters":2800,"station_id":"ce4bhnp2rcd13ifvqgvg","pricing_plan_id":"cebpf4jnsgd1na2vs0mg"},{"bike_id":"1b2a32a3-36c0-4242-8530-ae170560d5b3","system_id":"levelo_inurba_marseille","lat":43.27069,"lon":5.42277,"is_reserved":false,"is_disabled":false,"rental_uris":{"android":"levelo://app?vid=1b2a32a3-36c0-4242-8530-ae170560d5b3","ios":"levelo://app?vid=1b2a32a3-36c0-4242-8530-ae170560d5b3"},"vehicle_type_id":"4","last_reported":1762978310,"current_range_meters":2800,"station_id":"ce4bhk92rcd13ifvqgb0","pricing_plan_id":"cebpf4jnsgd1na2vs0mg"},{"bike_id":"d25ec88e-75e3-4b1b-b175-c77c82bb39e4","system_id":"levelo_inurba_marseille","lat":43.28675,"lon":5.39936,"is_reserved":false,"is_disabled":false,"rental_uris":{"android":"levelo://app?vid=d25ec88e-75e3-4b1b-b175-c77c82bb39e4","ios":"levelo://app?vid=d25ec88e-75e3-4b1b-b175-c77c82bb39e4"},"vehicle_type_id":"4","last_reported":1762978310,"current_range_meters":2800,"station_id":"","pricing_plan_id":"cebpf4jnsgd1na2vs0mg"},{"bike_id":"b1dcbee6-2ea1-4fde-b238-a7a30562d8bd","system_id":"levelo_inurba_marseille","lat":43.26602,"lon":5.39054,"is_reserved":false,"is_disabled":false,"rental_uris":{"android":"levelo://app?vid=b1dcbee6-2ea1-4fde-b238-a7a30562d8bd","ios":"levelo://app?vid=b1dcbee6-2ea1-4fde-b238-a7a30562d8bd"},"vehicle_type_id":"4","last_reported":1762978310,"current_range_meters":2800,"station_id":"","pricing_plan_id":"cebpf4jnsgd1na2vs0mg"},{"bike_id":"349b2ad9-adea-4dd9-9ac9-fffb121b5424","system_id":"levelo_inurba_marseille","lat":43.29892,"lon":5.37537,"is_reserved":false,"is_disabled":false,"rental_uris":{"android":"levelo://app?vid=349b2ad9-adea-4dd9-9ac9-fffb121b5424","ios":"levelo://app?vid=349b2ad9-adea-4dd9-9ac9-fffb121b5424"},"vehicle_type_id":"4","last_reported":1762978310,"current_range_meters":3200,"station_id":"","pricing_plan_id":"cebpf4jnsgd1na2vs0mg"},{"bike_id":"44f7d2ff-f1ab-4401-8b59-ad9276afbee9","system_id":"levelo_inurba_marseille","lat":43.28923,"lon":5.36369,"is_reserved":false,"is_disabled":false,"rental_uris":{"android":"levelo://app?vid=44f7d2ff-f1ab-4401-8b59-ad9276afbee9","ios":"levelo://app?vid=44f7d2ff-f1ab-4401-8b59-ad9276afbee9"},"vehicle_type_id":"4","last_reported":1762978310,"current_range_meters":3200,"station_id":"ce4bhc92rcd13ifvqetg","pricing_plan_id":"cebpf4jnsgd1na2vs0mg"},{"bike_id":"5b186b8e-837e-4a6b-8bde-461afd924efa","system_id":"levelo_inurba_marseille","lat":43.28442,"lon":5.39182,"is_reserved":false,"is_disabled":false,"rental_uris":{"android":"levelo://app?vid=5b186b8e-837e-4a6b-8bde-461afd924efa","ios":"levelo://app?vid=5b186b8e-837e-4a6b-8bde-461afd924efa"},"vehicle_type_id":"4","last_reported":1762978310,"current_range_meters":3200,"station_id":"ce4bhoh2rcd13ifvqh5g","pricing_plan_id":"cebpf4jnsgd1na2vs0mg"},{"bike_id":"d92b248b-b2af-4c46-88f9-82a1ef3d68f5","system_id":"levelo_inurba_marseille","lat":43.29577,"lon":5.36738,"is_reserved":false,"is_disabled":false,"rental_uris":{"android":"levelo://app?vid=d92b248b-b2af-4c46-88f9-82a1ef3d68f5","ios":"levelo://app?vid=d92b248b-b2af-4c46-88f9-82a1ef3d68f5"},"vehicle_type_id":"4","last_reported":1762978310,"current_range_meters":3200,"station_id":"ce4bgph2rcd13ifvqc2g","pricing_plan_id":"cebpf4jnsgd1na2vs0mg"},{"bike_id":"78c02fc6-e82d-47d7-9878-3e48a9dafbc2","system_id":"levelo_inurba_marseille","lat":43.28543,"lon":5.44097,"is_reserved":false,"is_disabled":false,"rental_uris":{"android":"levelo://app?vid=78c02fc6-e82d-47d7-9878-3e48a9dafbc2","ios":"levelo://app?vid=78c02fc6-e82d-47d7-9878-3e48a9dafbc2"},"vehicle_type_id":"4","last_reported":1762978310,"current_range_meters":3200,"station_id":"st_d3j3df2ikq2c7380ej80","pricing_plan_id":"cebpf4jnsgd1na2vs0mg"},{"bike_id":"5b72697f-89b7-455f-9fae-9756f3a3bc8d","system_id":"levelo_inurba_marseille","lat":43.30208,"lon":5.38808,"is_reserved":false,"is_disabled":false,"rental_uris":{"android":"levelo://app?vid=5b72697f-89b7-455f-9fae-9756f3a3bc8d","ios":"levelo://app?vid=5b72697f-89b7-455f-9fae-9756f3a3bc8d"},"vehicle_type_id":"4","last_reported":1762978310,"current_range_meters":3200,"station_id":"","pricing_plan_id":"cebpf4jnsgd1na2vs0mg"},{"bike_id":"a1c64497-73e6-4fe4-855a-833c63d38812","system_id":"levelo_inurba_marseille","lat":43.280734,"lon":5.396588,"is_reserved":false,"is_disabled":false,"rental_uris":{"android":"levelo://app?vid=a1c64497-73e6-4fe4-855a-833c63d38812","ios":"levelo://app?vid=a1c64497-73e6-4fe4-855a-833c63d38812"},"vehicle_type_id":"4","last_reported":1762978310,"current_range_meters":3200,"station_id":"ce4bho12rcd13ifvqh2g","pricing_plan_id":"cebpf4jnsgd1na2vs0mg"},{"bike_id":"8d42998b-b037-473c-b6b9-f4ba809e10a7","system_id":"levelo_inurba_marseille","lat":43.298998,"lon":5.436679,"is_reserved":false,"is_disabled":false,"rental_uris":{"android":"levelo://app?vid=8d42998b-b037-473c-b6b9-f4ba809e10a7","ios":"levelo://app?vid=8d42998b-b037-473c-b6b9-f4ba809e10a7"},"vehicle_type_id":"4","last_reported":1762978310,"current_range_meters":3600,"station_id":"ce4bhpp2rcd13ifvqhfg","pricing_plan_id":"cebpf4jnsgd1na2vs0mg"},{"bike_id":"fc0934ce-d7ac-474e-a7bc-f100bbc4c590","system_id":"levelo_inurba_marseille","lat":43.28339,"lon":5.38083,"is_reserved":false,"is_disabled":false,"rental_uris":{"android":"levelo://app?vid=fc0934ce-d7ac-474e-a7bc-f100bbc4c590","ios":"levelo://app?vid=fc0934ce-d7ac-474e-a7bc-f100bbc4c590"},"vehicle_type_id":"4","last_reported":1762978310,"current_range_meters":3600,"station_id":"ce4bh412rcd13ifvqdr0","pricing_plan_id":"cebpf4jnsgd1na2vs0mg"},{"bike_id":"50057850-f638-4a30-9b54-dd1a82433461","system_id":"levelo_inurba_marseille","lat":43.23997,"lon":5.3974,"is_reserved":false,"is_disabled":true,"rental_uris":{"android":"levelo://app?vid=50057850-f638-4a30-9b54-dd1a82433461","ios":"levelo://app?vid=50057850-f638-4a30-9b54-dd1a82433461"},"vehicle_type_id":"4","last_reported":1762978310,"current_range_meters":4000,"station_id":"","pricing_plan_id":"cebpf4jnsgd1na2vs0mg"},{"bike_id":"d8e7130f-fd48-4b02-b6f2-91f20d95dd0d","system_id":"levelo_inurba_marseille","lat":43.290619,"lon":5.373779,"is_reserved":false,"is_disabled":false,"rental_uris":{"android":"levelo://app?vid=d8e7130f-fd48-4b02-b6f2-91f20d95dd0d","ios":"levelo://app?vid=d8e7130f-fd48-4b02-b6f2-91f20d95dd0d"},"vehicle_type_id":"4","last_reported":1762978310,"current_range_meters":4000,"station_id":"ce4bh5p2rcd13ifvqe4g","pricing_plan_id":"cebpf4jnsgd1na2vs0mg"},{"bike_id":"16352e7f-c034-4ef1-8a6e-b54abc767aa3","system_id":"levelo_inurba_marseille","lat":43.31354,"lon":5.37585,"is_reserved":false,"is_disabled":false,"rental_uris":{"android":"levelo://app?vid=16352e7f-c034-4ef1-8a6e-b54abc767aa3","ios":"levelo://app?vid=16352e7f-c034-4ef1-8a6e-b54abc767aa3"},"vehicle_type_id":"4","last_reported":1762978310,"current_range_meters":4000,"station_id":"","pricing_plan_id":"cebpf4jnsgd1na2vs0mg"},{"bike_id":"0fb442a8-c2da-4943-abff-96d4875d126f","system_id":"levelo_inurba_marseille","lat":43.29961,"lon":5.38499,"is_reserved":false,"is_disabled":false,"rental_uris":{"android":"levelo://app?vid=0fb442a8-c2da-4943-abff-96d4875d126f","ios":"levelo://app?vid=0fb442a8-c2da-4943-abff-96d4875d126f"},"vehicle_type_id":"4","last_reported":1762978310,"current_range_meters":4000,"station_id":"ce4bgj92rcd13ifvqbd0","pricing_plan_id":"cebpf4jnsgd1na2vs0mg"},{"bike_id":"05b2d7ab-7418-4e43-b658-0672aa5fc298","system_id":"levelo_inurba_marseille","lat":43.28101,"lon":5.37834,"is_reserved":false,"is_disabled":false,"rental_uris":{"android":"levelo://app?vid=05b2d7ab-7418-4e43-b658-0672aa5fc298","ios":"levelo://app?vid=05b2d7ab-7418-4e43-b658-0672aa5fc298"},"vehicle_type_id":"4","last_reported":1762978310,"current_range_meters":4000,"station_id":"ce4bha12rcd13ifvqee0","pricing_plan_id":"cebpf4jnsgd1na2vs0mg"},{"bike_id":"dd7aec79-f86b-45d3-a1de-1309c592caca","system_id":"levelo_inurba_marseille","lat":43.2315,"lon":5.43725,"is_reserved":false,"is_disabled":false,"rental_uris":{"android":"levelo://app?vid=dd7aec79-f86b-45d3-a1de-1309c592caca","ios":"levelo://app?vid=dd7aec79-f86b-45d3-a1de-1309c592caca"},"vehicle_type_id":"4","last_reported":1762978310,"current_range_meters":4000,"station_id":"ce4bhmp2rcd13ifvqgog","pricing_plan_id":"cebpf4jnsgd1na2vs0mg"},{"bike_id":"329ac7b1-f0c1-4a2d-a57e-b091c0ce0db8","system_id":"levelo_inurba_marseille","lat":43.288601,"lon":5.358413,"is_reserved":false,"is_disabled":false,"rental_uris":{"android":"levelo://app?vid=329ac7b1-f0c1-4a2d-a57e-b091c0ce0db8","ios":"levelo://app?vid=329ac7b1-f0c1-4a2d-a57e-b091c0ce0db8"},"vehicle_type_id":"4","last_reported":1762978310,"current_range_meters":4000,"station_id":"ce4bhb12rcd13ifvqem0","pricing_plan_id":"cebpf4jnsgd1na2vs0mg"},{"bike_id":"d7026fc3-a346-49bd-8209-179291ba2736","system_id":"levelo_inurba_marseille","lat":43.29851,"lon":5.38415,"is_reserved":false,"is_disabled":false,"rental_uris":{"android":"levelo://app?vid=d7026fc3-a346-49bd-8209-179291ba2736","ios":"levelo://app?vid=d7026fc3-a346-49bd-8209-179291ba2736"},"vehicle_type_id":"4","last_reported":1762978310,"current_range_meters":4000,"station_id":"","pricing_plan_id":"cebpf4jnsgd1na2vs0mg"},{"bike_id":"90355a07-193f-4d71-ba43-1492d4e0f8d5","system_id":"levelo_inurba_marseille","lat":43.28845,"lon":5.35862,"is_reserved":false,"is_disabled":false,"rental_uris":{"android":"levelo://app?vid=90355a07-193f-4d71-ba43-1492d4e0f8d5","ios":"levelo://app?vid=90355a07-193f-4d71-ba43-1492d4e0f8d5"},"vehicle_type_id":"4","last_reported":1762978310,"current_range_meters":4400,"station_id":"ce4bhb12rcd13ifvqem0","pricing_plan_id":"cebpf4jnsgd1na2vs0mg"},{"bike_id":"943d0408-7f95-4ffb-a21c-79cdfe5e1b24","system_id":"levelo_inurba_marseille","lat":43.30218,"lon":5.39481,"is_reserved":false,"is_disabled":false,"rental_uris":{"android":"levelo://app?vid=943d0408-7f95-4ffb-a21c-79cdfe5e1b24","ios":"levelo://app?vid=943d0408-7f95-4ffb-a21c-79cdfe5e1b24"},"vehicle_type_id":"4","last_reported":1762978310,"current_range_meters":4400,"station_id":"ce4bh0p2rcd13ifvqd70","pricing_plan_id":"cebpf4jnsgd1na2vs0mg"},{"bike_id":"15c72f7c-989f-44ad-8878-865295ad47d0","system_id":"levelo_inurba_marseille","lat":43.269666,"lon":5.392915,"is_reserved":false,"is_disabled":false,"rental_uris":{"android":"levelo://app?vid=15c72f7c-989f-44ad-8878-865295ad47d0","ios":"levelo://app?vid=15c72f7c-989f-44ad-8878-865295ad47d0"},"vehicle_type_id":"4","last_reported":1762978310,"current_range_meters":4400,"station_id":"ce4bhh12rcd13ifvqfg0","pricing_plan_id":"cebpf4jnsgd1na2vs0mg"},{"bike_id":"bd8b6c88-8402-422a-b616-976a79259378","system_id":"levelo_inurba_marseille","lat":43.31369,"lon":5.38502,"is_reserved":false,"is_disabled":false,"rental_uris":{"android":"levelo://app?vid=bd8b6c88-8402-422a-b616-976a79259378","ios":"levelo://app?vid=bd8b6c88-8402-422a-b616-976a79259378"},"vehicle_type_id":"4","last_reported":1762978310,"current_range_meters":4800,"station_id":"ce4bgt92rcd13ifvqcf0","pricing_plan_id":"cebpf4jnsgd1na2vs0mg"},{"bike_id":"c40d29de-5c8e-4a1a-badf-a452cbb1f0b5","system_id":"levelo_inurba_marseille","lat":43.31247,"lon":5.36911,"is_reserved":false,"is_disabled":false,"rental_uris":{"android":"levelo://app?vid=c40d29de-5c8e-4a1a-badf-a452cbb1f0b5","ios":"levelo://app?vid=c40d29de-5c8e-4a1a-badf-a452cbb1f0b5"},"vehicle_type_id":"4","last_reported":1762978310,"current_range_meters":4800,"station_id":"","pricing_plan_id":"cebpf4jnsgd1na2vs0mg"},{"bike_id":"9aab732d-99d8-458a-aff5-1ef833353481","system_id":"levelo_inurba_marseille","lat":43.29833,"lon":5.37775,"is_reserved":false,"is_disabled":false,"rental_uris":{"android":"levelo://app?vid=9aab732d-99d8-458a-aff5-1ef833353481","ios":"levelo://app?vid=9aab732d-99d8-458a-aff5-1ef833353481"},"vehicle_type_id":"4","last_reported":1762978310,"current_range_meters":5600,"station_id":"","pricing_plan_id":"cebpf4jnsgd1na2vs0mg"},{"bike_id":"e0ed7929-20a1-4d5c-ab67-3994c5a84870","system_id":"levelo_inurba_marseille","lat":43.25251,"lon":5.40636,"is_reserved":false,"is_disabled":false,"rental_uris":{"android":"levelo://app?vid=e0ed7929-20a1-4d5c-ab67-3994c5a84870","ios":"levelo://app?vid=e0ed7929-20a1-4d5c-ab67-3994c5a84870"},"vehicle_type_id":"4","last_reported":1762978310,"current_range_meters":5600,"station_id":"","pricing_plan_id":"cebpf4jnsgd1na2vs0mg"},{"bike_id":"e0467342-2ee8-4c36-aeb9-27d25d94ead5","system_id":"levelo_inurba_marseille","lat":43.28165,"lon":5.4262,"is_reserved":false,"is_disabled":true,"rental_uris":{"android":"levelo://app?vid=e0467342-2ee8-4c36-aeb9-27d25d94ead5","ios":"levelo://app?vid=e0467342-2ee8-4c36-aeb9-27d25d94ead5"},"vehicle_type_id":"4","last_reported":1762978310,"current_range_meters":5600,"station_id":"ce4bhnh2rcd13ifvqgug","pricing_plan_id":"cebpf4jnsgd1na2vs0mg"},{"bike_id":"2d9e7bd2-f47a-44d8-bc29-e337cf794611","system_id":"levelo_inurba_marseille","lat":43.29021,"lon":5.38638,"is_reserved":false,"is_disabled":false,"rental_uris":{"android":"levelo://app?vid=2d9e7bd2-f47a-44d8-bc29-e337cf794611","ios":"levelo://app?vid=2d9e7bd2-f47a-44d8-bc29-e337cf794611"},"vehicle_type_id":"4","last_reported":1762978310,"current_range_meters":5600,"station_id":"ce4bh4p2rcd13ifvqe0g","pricing_plan_id":"cebpf4jnsgd1na2vs0mg"},{"bike_id":"5587d84a-649f-465d-9521-edcfc5066572","system_id":"levelo_inurba_marseille","lat":43.29537,"lon":5.38538,"is_reserved":false,"is_disabled":false,"rental_uris":{"android":"levelo://app?vid=5587d84a-649f-465d-9521-edcfc5066572","ios":"levelo://app?vid=5587d84a-649f-465d-9521-edcfc5066572"},"vehicle_type_id":"4","last_reported":1762978310,"current_range_meters":6000,"station_id":"ce4bgih2rcd13ifvqba0","pricing_plan_id":"cebpf4jnsgd1na2vs0mg"},{"bike_id":"f210c5d9-e6c9-4a47-a92c-7d32d99c058f","system_id":"levelo_inurba_marseille","lat":43.303512,"lon":5.39697,"is_reserved":false,"is_disabled":false,"rental_uris":{"android":"levelo://app?vid=f210c5d9-e6c9-4a47-a92c-7d32d99c058f","ios":"levelo://app?vid=f210c5d9-e6c9-4a47-a92c-7d32d99c058f"},"vehicle_type_id":"4","last_reported":1762978310,"current_range_meters":6000,"station_id":"","pricing_plan_id":"cebpf4jnsgd1na2vs0mg"},{"bike_id":"258cfa4a-e37c-4553-bf93-53421e2a9ec2","system_id":"levelo_inurba_marseille","lat":43.30198,"lon":5.36611,"is_reserved":false,"is_disabled":false,"rental_uris":{"android":"levelo://app?vid=258cfa4a-e37c-4553-bf93-53421e2a9ec2","ios":"levelo://app?vid=258cfa4a-e37c-4553-bf93-53421e2a9ec2"},"vehicle_type_id":"4","last_reported":1762978310,"current_range_meters":6000,"station_id":"ce4bgrh2rcd13ifvqc8g","pricing_plan_id":"cebpf4jnsgd1na2vs0mg"},{"bike_id":"861892f2-0af0-40fe-b698-191d9906341b","system_id":"levelo_inurba_marseille","lat":43.30887,"lon":5.37182,"is_reserved":false,"is_disabled":true,"rental_uris":{"android":"levelo://app?vid=861892f2-0af0-40fe-b698-191d9906341b","ios":"levelo://app?vid=861892f2-0af0-40fe-b698-191d9906341b"},"vehicle_type_id":"4","last_reported":1762978310,"current_range_meters":6000,"station_id":"ce4bguh2rcd13ifvqckg","pricing_plan_id":"cebpf4jnsgd1na2vs0mg"},{"bike_id":"a4dc9e21-c38c-4f19-a202-755d92d58c07","system_id":"levelo_inurba_marseille","lat":43.287,"lon":5.37394,"is_reserved":false,"is_disabled":false,"rental_uris":{"android":"levelo://app?vid=a4dc9e21-c38c-4f19-a202-755d92d58c07","ios":"levelo://app?vid=a4dc9e21-c38c-4f19-a202-755d92d58c07"},"vehicle_type_id":"4","last_reported":1762978310,"current_range_meters":6000,"station_id":"ce4bh3p2rcd13ifvqdq0","pricing_plan_id":"cebpf4jnsgd1na2vs0mg"},{"bike_id":"e9f30f12-a00b-4f88-b8a4-89a790ed951d","system_id":"levelo_inurba_marseille","lat":43.29193,"lon":5.35777,"is_reserved":false,"is_disabled":false,"rental_uris":{"android":"levelo://app?vid=e9f30f12-a00b-4f88-b8a4-89a790ed951d","ios":"levelo://app?vid=e9f30f12-a00b-4f88-b8a4-89a790ed951d"},"vehicle_type_id":"4","last_reported":1762978310,"current_range_meters":6000,"station_id":"ce4bhb12rcd13ifvqel0","pricing_plan_id":"cebpf4jnsgd1na2vs0mg"},{"bike_id":"c290ca61-929e-40eb-8712-ab17144acc50","system_id":"levelo_inurba_marseille","lat":43.280733,"lon":5.396605,"is_reserved":false,"is_disabled":false,"rental_uris":{"android":"levelo://app?vid=c290ca61-929e-40eb-8712-ab17144acc50","ios":"levelo://app?vid=c290ca61-929e-40eb-8712-ab17144acc50"},"vehicle_type_id":"4","last_reported":1762978310,"current_range_meters":6400,"station_id":"ce4bho12rcd13ifvqh2g","pricing_plan_id":"cebpf4jnsgd1na2vs0mg"},{"bike_id":"48d5f346-64ec-4e03-944c-9ed3f48cbecc","system_id":"levelo_inurba_marseille","lat":43.2755,"lon":5.38417,"is_reserved":false,"is_disabled":true,"rental_uris":{"android":"levelo://app?vid=48d5f346-64ec-4e03-944c-9ed3f48cbecc","ios":"levelo://app?vid=48d5f346-64ec-4e03-944c-9ed3f48cbecc"},"vehicle_type_id":"4","last_reported":1762978310,"current_range_meters":6400,"station_id":"ce4bhh92rcd13ifvqfi0","pricing_plan_id":"cebpf4jnsgd1na2vs0mg"},{"bike_id":"62a14efb-5f7a-4e0d-bbfa-d4a60d07f475","system_id":"levelo_inurba_marseille","lat":43.29777,"lon":5.37306,"is_reserved":false,"is_disabled":false,"rental_uris":{"android":"levelo://app?vid=62a14efb-5f7a-4e0d-bbfa-d4a60d07f475","ios":"levelo://app?vid=62a14efb-5f7a-4e0d-bbfa-d4a60d07f475"},"vehicle_type_id":"4","last_reported":1762978310,"current_range_meters":6400,"station_id":"","pricing_plan_id":"cebpf4jnsgd1na2vs0mg"},{"bike_id":"5ef17049-f000-45bd-a9da-8d60090799ff","system_id":"levelo_inurba_marseille","lat":43.26682,"lon":5.3827,"is_reserved":false,"is_disabled":false,"rental_uris":{"android":"levelo://app?vid=5ef17049-f000-45bd-a9da-8d60090799ff","ios":"levelo://app?vid=5ef17049-f000-45bd-a9da-8d60090799ff"},"vehicle_type_id":"4","last_reported":1762978310,"current_range_meters":6400,"station_id":"ce4bhg92rcd13ifvqf90","pricing_plan_id":"cebpf4jnsgd1na2vs0mg"},{"bike_id":"a4b0bffd-c315-4252-9989-d29077012299","system_id":"levelo_inurba_marseille","lat":43.26574,"lon":5.40308,"is_reserved":false,"is_disabled":false,"rental_uris":{"android":"levelo://app?vid=a4b0bffd-c315-4252-9989-d29077012299","ios":"levelo://app?vid=a4b0bffd-c315-4252-9989-d29077012299"},"vehicle_type_id":"4","last_reported":1762978310,"current_range_meters":6400,"station_id":"ce4bhmp2rcd13ifvqgng","pricing_plan_id":"cebpf4jnsgd1na2vs0mg"},{"bike_id":"2dd038f0-16fd-4402-abfb-461d0a753e0f","system_id":"levelo_inurba_marseille","lat":43.27995,"lon":5.41653,"is_reserved":false,"is_disabled":false,"rental_uris":{"android":"levelo://app?vid=2dd038f0-16fd-4402-abfb-461d0a753e0f","ios":"levelo://app?vid=2dd038f0-16fd-4402-abfb-461d0a753e0f"},"vehicle_type_id":"4","last_reported":1762978310,"current_range_meters":6400,"station_id":"ce4bho12rcd13ifvqh1g","pricing_plan_id":"cebpf4jnsgd1na2vs0mg"},{"bike_id":"05b976f5-2eb0-4376-8941-4589f2fb1876","system_id":"levelo_inurba_marseille","lat":43.27993,"lon":5.41667,"is_reserved":false,"is_disabled":false,"rental_uris":{"android":"levelo://app?vid=05b976f5-2eb0-4376-8941-4589f2fb1876","ios":"levelo://app?vid=05b976f5-2eb0-4376-8941-4589f2fb1876"},"vehicle_type_id":"4","last_reported":1762978310,"current_range_meters":6400,"station_id":"ce4bho12rcd13ifvqh1g","pricing_plan_id":"cebpf4jnsgd1na2vs0mg"},{"bike_id":"1d8e78dd-810c-4183-be1f-cab0c9fe294e","system_id":"levelo_inurba_marseille","lat":43.290313,"lon":5.3865,"is_reserved":false,"is_disabled":false,"rental_uris":{"android":"levelo://app?vid=1d8e78dd-810c-4183-be1f-cab0c9fe294e","ios":"levelo://app?vid=1d8e78dd-810c-4183-be1f-cab0c9fe294e"},"vehicle_type_id":"4","last_reported":1762978310,"current_range_meters":6400,"station_id":"ce4bh4p2rcd13ifvqe0g","pricing_plan_id":"cebpf4jnsgd1na2vs0mg"},{"bike_id":"91c3c479-94ac-49a8-b589-0fe2fed3c8bf","system_id":"levelo_inurba_marseille","lat":43.29043,"lon":5.3758,"is_reserved":false,"is_disabled":false,"rental_uris":{"android":"levelo://app?vid=91c3c479-94ac-49a8-b589-0fe2fed3c8bf","ios":"levelo://app?vid=91c3c479-94ac-49a8-b589-0fe2fed3c8bf"},"vehicle_type_id":"4","last_reported":1762978310,"current_range_meters":6800,"station_id":"ce4bh692rcd13ifvqe90","pricing_plan_id":"cebpf4jnsgd1na2vs0mg"},{"bike_id":"dc5257ff-154a-46a1-948e-9c7b757cd275","system_id":"levelo_inurba_marseille","lat":43.30932,"lon":5.40147,"is_reserved":false,"is_disabled":false,"rental_uris":{"android":"levelo://app?vid=dc5257ff-154a-46a1-948e-9c7b757cd275","ios":"levelo://app?vid=dc5257ff-154a-46a1-948e-9c7b757cd275"},"vehicle_type_id":"4","last_reported":1762978310,"current_range_meters":6800,"station_id":"ce4bgvp2rcd13ifvqct0","pricing_plan_id":"cebpf4jnsgd1na2vs0mg"},{"bike_id":"a571aa30-f6f4-455c-a723-01f7023e99a2","system_id":"levelo_inurba_marseille","lat":43.23138,"lon":5.43731,"is_reserved":false,"is_disabled":false,"rental_uris":{"android":"levelo://app?vid=a571aa30-f6f4-455c-a723-01f7023e99a2","ios":"levelo://app?vid=a571aa30-f6f4-455c-a723-01f7023e99a2"},"vehicle_type_id":"4","last_reported":1762978310,"current_range_meters":7200,"station_id":"ce4bhmp2rcd13ifvqgog","pricing_plan_id":"cebpf4jnsgd1na2vs0mg"},{"bike_id":"87e84638-15e7-4f6f-8f32-3c400090bd30","system_id":"levelo_inurba_marseille","lat":43.29262,"lon":5.38437,"is_reserved":false,"is_disabled":false,"rental_uris":{"android":"levelo://app?vid=87e84638-15e7-4f6f-8f32-3c400090bd30","ios":"levelo://app?vid=87e84638-15e7-4f6f-8f32-3c400090bd30"},"vehicle_type_id":"4","last_reported":1762978310,"current_range_meters":7200,"station_id":"ce4bh692rcd13ifvqea0","pricing_plan_id":"cebpf4jnsgd1na2vs0mg"},{"bike_id":"9273265b-6494-4472-83e6-20692ab99cc9","system_id":"levelo_inurba_marseille","lat":43.29569,"lon":5.39679,"is_reserved":false,"is_disabled":false,"rental_uris":{"android":"levelo://app?vid=9273265b-6494-4472-83e6-20692ab99cc9","ios":"levelo://app?vid=9273265b-6494-4472-83e6-20692ab99cc9"},"vehicle_type_id":"4","last_reported":1762978310,"current_range_meters":7200,"station_id":"","pricing_plan_id":"cebpf4jnsgd1na2vs0mg"},{"bike_id":"5ad62a9b-0251-433f-b808-e5dad8bd820d","system_id":"levelo_inurba_marseille","lat":43.29892,"lon":5.43689,"is_reserved":false,"is_disabled":false,"rental_uris":{"android":"levelo://app?vid=5ad62a9b-0251-433f-b808-e5dad8bd820d","ios":"levelo://app?vid=5ad62a9b-0251-433f-b808-e5dad8bd820d"},"vehicle_type_id":"4","last_reported":1762978310,"current_range_meters":8000,"station_id":"ce4bhpp2rcd13ifvqhfg","pricing_plan_id":"cebpf4jnsgd1na2vs0mg"},{"bike_id":"4e679617-a668-4b30-9ef9-b256a2cb9059","system_id":"levelo_inurba_marseille","lat":43.291962,"lon":5.39309,"is_reserved":false,"is_disabled":false,"rental_uris":{"android":"levelo://app?vid=4e679617-a668-4b30-9ef9-b256a2cb9059","ios":"levelo://app?vid=4e679617-a668-4b30-9ef9-b256a2cb9059"},"vehicle_type_id":"4","last_reported":1762978310,"current_range_meters":8000,"station_id":"ce4bh192rcd13ifvqdd0","pricing_plan_id":"cebpf4jnsgd1na2vs0mg"},{"bike_id":"2d54cdc2-ca28-44f1-863b-6ee1eee27564","system_id":"levelo_inurba_marseille","lat":43.29852,"lon":5.36263,"is_reserved":false,"is_disabled":false,"rental_uris":{"android":"levelo://app?vid=2d54cdc2-ca28-44f1-863b-6ee1eee27564","ios":"levelo://app?vid=2d54cdc2-ca28-44f1-863b-6ee1eee27564"},"vehicle_type_id":"4","last_reported":1762978310,"current_range_meters":8000,"station_id":"ce4bgpp2rcd13ifvqc3g","pricing_plan_id":"cebpf4jnsgd1na2vs0mg"},{"bike_id":"e5fffc92-24e4-43ed-8d17-f4af5b755660","system_id":"levelo_inurba_marseille","lat":43.2792,"lon":5.39572,"is_reserved":false,"is_disabled":false,"rental_uris":{"android":"levelo://app?vid=e5fffc92-24e4-43ed-8d17-f4af5b755660","ios":"levelo://app?vid=e5fffc92-24e4-43ed-8d17-f4af5b755660"},"vehicle_type_id":"4","last_reported":1762978310,"current_range_meters":8000,"station_id":"ce4bhf92rcd13ifvqf40","pricing_plan_id":"cebpf4jnsgd1na2vs0mg"},{"bike_id":"985bd4b1-2e11-42ff-b656-c65d63845b46","system_id":"levelo_inurba_marseille","lat":43.22571,"lon":5.41613,"is_reserved":false,"is_disabled":false,"rental_uris":{"android":"levelo://app?vid=985bd4b1-2e11-42ff-b656-c65d63845b46","ios":"levelo://app?vid=985bd4b1-2e11-42ff-b656-c65d63845b46"},"vehicle_type_id":"4","last_reported":1762978310,"current_range_meters":8000,"station_id":"st_d2o4gvlbi1j2169b742g","pricing_plan_id":"cebpf4jnsgd1na2vs0mg"},{"bike_id":"d586facd-ff18-4aeb-8a84-587293cf5fea","system_id":"levelo_inurba_marseille","lat":43.25733,"lon":5.41102,"is_reserved":false,"is_disabled":false,"rental_uris":{"android":"levelo://app?vid=d586facd-ff18-4aeb-8a84-587293cf5fea","ios":"levelo://app?vid=d586facd-ff18-4aeb-8a84-587293cf5fea"},"vehicle_type_id":"4","last_reported":1762978310,"current_range_meters":8000,"station_id":"ce4bhkp2rcd13ifvqgd0","pricing_plan_id":"cebpf4jnsgd1na2vs0mg"},{"bike_id":"194e1e08-1fdc-4966-a31c-d9c02d4a8d42","system_id":"levelo_inurba_marseille","lat":43.31611,"lon":5.3834,"is_reserved":false,"is_disabled":false,"rental_uris":{"android":"levelo://app?vid=194e1e08-1fdc-4966-a31c-d9c02d4a8d42","ios":"levelo://app?vid=194e1e08-1fdc-4966-a31c-d9c02d4a8d42"},"vehicle_type_id":"4","last_reported":1762978310,"current_range_meters":8400,"station_id":"","pricing_plan_id":"cebpf4jnsgd1na2vs0mg"},{"bike_id":"699cde5c-94eb-4688-9806-beab78ca5dc2","system_id":"levelo_inurba_marseille","lat":43.29703,"lon":5.36585,"is_reserved":false,"is_disabled":false,"rental_uris":{"android":"levelo://app?vid=699cde5c-94eb-4688-9806-beab78ca5dc2","ios":"levelo://app?vid=699cde5c-94eb-4688-9806-beab78ca5dc2"},"vehicle_type_id":"4","last_reported":1762978310,"current_range_meters":8400,"station_id":"ce4bgn12rcd13ifvqbt0","pricing_plan_id":"cebpf4jnsgd1na2vs0mg"},{"bike_id":"84aade2c-4b39-4bce-814f-cfa3d6ed46f7","system_id":"levelo_inurba_marseille","lat":43.28477,"lon":5.48387,"is_reserved":false,"is_disabled":false,"rental_uris":{"android":"levelo://app?vid=84aade2c-4b39-4bce-814f-cfa3d6ed46f7","ios":"levelo://app?vid=84aade2c-4b39-4bce-814f-cfa3d6ed46f7"},"vehicle_type_id":"4","last_reported":1762978310,"current_range_meters":8400,"station_id":"st_d3svhcjqgbts73a3dn0g","pricing_plan_id":"cebpf4jnsgd1na2vs0mg"},{"bike_id":"62333858-9101-4066-8daa-75732c126c46","system_id":"levelo_inurba_marseille","lat":43.29899,"lon":5.43655,"is_reserved":false,"is_disabled":false,"rental_uris":{"android":"levelo://app?vid=62333858-9101-4066-8daa-75732c126c46","ios":"levelo://app?vid=62333858-9101-4066-8daa-75732c126c46"},"vehicle_type_id":"4","last_reported":1762978310,"current_range_meters":8400,"station_id":"ce4bhpp2rcd13ifvqhfg","pricing_plan_id":"cebpf4jnsgd1na2vs0mg"},{"bike_id":"d1269637-13f8-4c08-82fa-cef36970cf64","system_id":"levelo_inurba_marseille","lat":43.31487,"lon":5.37293,"is_reserved":false,"is_disabled":false,"rental_uris":{"android":"levelo://app?vid=d1269637-13f8-4c08-82fa-cef36970cf64","ios":"levelo://app?vid=d1269637-13f8-4c08-82fa-cef36970cf64"},"vehicle_type_id":"4","last_reported":1762978310,"current_range_meters":8800,"station_id":"ce4bgt12rcd13ifvqcd0","pricing_plan_id":"cebpf4jnsgd1na2vs0mg"},{"bike_id":"e2b9d622-f034-41f9-b871-95329e8eef3a","system_id":"levelo_inurba_marseille","lat":43.30347,"lon":5.38598,"is_reserved":false,"is_disabled":false,"rental_uris":{"android":"levelo://app?vid=e2b9d622-f034-41f9-b871-95329e8eef3a","ios":"levelo://app?vid=e2b9d622-f034-41f9-b871-95329e8eef3a"},"vehicle_type_id":"4","last_reported":1762978310,"current_range_meters":8800,"station_id":"","pricing_plan_id":"cebpf4jnsgd1na2vs0mg"},{"bike_id":"f25c7579-55d4-4dff-8e10-af0725201f24","system_id":"levelo_inurba_marseille","lat":43.28851,"lon":5.39308,"is_reserved":false,"is_disabled":false,"rental_uris":{"android":"levelo://app?vid=f25c7579-55d4-4dff-8e10-af0725201f24","ios":"levelo://app?vid=f25c7579-55d4-4dff-8e10-af0725201f24"},"vehicle_type_id":"4","last_reported":1762978310,"current_range_meters":8800,"station_id":"ce4bh2p2rcd13ifvqdi0","pricing_plan_id":"cebpf4jnsgd1na2vs0mg"},{"bike_id":"c80c1c01-368c-46ce-95fa-baee6c258882","system_id":"levelo_inurba_marseille","lat":43.298968,"lon":5.436435,"is_reserved":false,"is_disabled":false,"rental_uris":{"android":"levelo://app?vid=c80c1c01-368c-46ce-95fa-baee6c258882","ios":"levelo://app?vid=c80c1c01-368c-46ce-95fa-baee6c258882"},"vehicle_type_id":"4","last_reported":1762978310,"current_range_meters":8800,"station_id":"ce4bhpp2rcd13ifvqhfg","pricing_plan_id":"cebpf4jnsgd1na2vs0mg"},{"bike_id":"20f3b91b-b76e-4158-a5b3-58a940077b21","system_id":"levelo_inurba_marseille","lat":43.26565,"lon":5.39011,"is_reserved":false,"is_disabled":false,"rental_uris":{"android":"levelo://app?vid=20f3b91b-b76e-4158-a5b3-58a940077b21","ios":"levelo://app?vid=20f3b91b-b76e-4158-a5b3-58a940077b21"},"vehicle_type_id":"4","last_reported":1762978310,"current_range_meters":8800,"station_id":"ce4bhe12rcd13ifvqf30","pricing_plan_id":"cebpf4jnsgd1na2vs0mg"},{"bike_id":"3d1c548d-58d1-4534-8007-73e34a8e93ff","system_id":"levelo_inurba_marseille","lat":43.28607,"lon":5.35123,"is_reserved":false,"is_disabled":false,"rental_uris":{"android":"levelo://app?vid=3d1c548d-58d1-4534-8007-73e34a8e93ff","ios":"levelo://app?vid=3d1c548d-58d1-4534-8007-73e34a8e93ff"},"vehicle_type_id":"4","last_reported":1762978310,"current_range_meters":8800,"station_id":"ce4bhch2rcd13ifvqeug","pricing_plan_id":"cebpf4jnsgd1na2vs0mg"},{"bike_id":"eea72cab-583d-4d51-9d23-22ddc388a40f","system_id":"levelo_inurba_marseille","lat":43.28866,"lon":5.42485,"is_reserved":false,"is_disabled":false,"rental_uris":{"android":"levelo://app?vid=eea72cab-583d-4d51-9d23-22ddc388a40f","ios":"levelo://app?vid=eea72cab-583d-4d51-9d23-22ddc388a40f"},"vehicle_type_id":"4","last_reported":1762978310,"current_range_meters":8800,"station_id":"st_d3b462108ojc7389ooeg","pricing_plan_id":"cebpf4jnsgd1na2vs0mg"},{"bike_id":"fb010b36-5885-4f21-9743-9de57d892a8c","system_id":"levelo_inurba_marseille","lat":43.290283,"lon":5.386453,"is_reserved":false,"is_disabled":false,"rental_uris":{"android":"levelo://app?vid=fb010b36-5885-4f21-9743-9de57d892a8c","ios":"levelo://app?vid=fb010b36-5885-4f21-9743-9de57d892a8c"},"vehicle_type_id":"4","last_reported":1762978310,"current_range_meters":9200,"station_id":"","pricing_plan_id":"cebpf4jnsgd1na2vs0mg"},{"bike_id":"54fee260-6388-483d-8ff8-2829065ad573","system_id":"levelo_inurba_marseille","lat":43.30093,"lon":5.39071,"is_reserved":false,"is_disabled":false,"rental_uris":{"android":"levelo://app?vid=54fee260-6388-483d-8ff8-2829065ad573","ios":"levelo://app?vid=54fee260-6388-483d-8ff8-2829065ad573"},"vehicle_type_id":"4","last_reported":1762978310,"current_range_meters":9200,"station_id":"ce4bh192rcd13ifvqdb0","pricing_plan_id":"cebpf4jnsgd1na2vs0mg"},{"bike_id":"c47023ab-2905-4a00-af93-ffd0b768cdc9","system_id":"levelo_inurba_marseille","lat":43.28864,"lon":5.42519,"is_reserved":false,"is_disabled":false,"rental_uris":{"android":"levelo://app?vid=c47023ab-2905-4a00-af93-ffd0b768cdc9","ios":"levelo://app?vid=c47023ab-2905-4a00-af93-ffd0b768cdc9"},"vehicle_type_id":"4","last_reported":1762978310,"current_range_meters":9200,"station_id":"st_d3b462108ojc7389ooeg","pricing_plan_id":"cebpf4jnsgd1na2vs0mg"},{"bike_id":"d1ffb84b-e137-494e-aaf6-ee937b9a52ea","system_id":"levelo_inurba_marseille","lat":43.30308,"lon":5.3923,"is_reserved":false,"is_disabled":false,"rental_uris":{"android":"levelo://app?vid=d1ffb84b-e137-494e-aaf6-ee937b9a52ea","ios":"levelo://app?vid=d1ffb84b-e137-494e-aaf6-ee937b9a52ea"},"vehicle_type_id":"4","last_reported":1762978310,"current_range_meters":9200,"station_id":"ce4bgkh2rcd13ifvqbk0","pricing_plan_id":"cebpf4jnsgd1na2vs0mg"},{"bike_id":"5e226eb8-1d78-45e8-aa61-cf84b3779672","system_id":"levelo_inurba_marseille","lat":43.28847,"lon":5.39298,"is_reserved":false,"is_disabled":false,"rental_uris":{"android":"levelo://app?vid=5e226eb8-1d78-45e8-aa61-cf84b3779672","ios":"levelo://app?vid=5e226eb8-1d78-45e8-aa61-cf84b3779672"},"vehicle_type_id":"4","last_reported":1762978310,"current_range_meters":9200,"station_id":"ce4bh2p2rcd13ifvqdi0","pricing_plan_id":"cebpf4jnsgd1na2vs0mg"},{"bike_id":"f9bd90ee-bbe6-4f0e-b123-6f64d72318a7","system_id":"levelo_inurba_marseille","lat":43.26688,"lon":5.38263,"is_reserved":false,"is_disabled":false,"rental_uris":{"android":"levelo://app?vid=f9bd90ee-bbe6-4f0e-b123-6f64d72318a7","ios":"levelo://app?vid=f9bd90ee-bbe6-4f0e-b123-6f64d72318a7"},"vehicle_type_id":"4","last_reported":1762978310,"current_range_meters":9200,"station_id":"ce4bhg92rcd13ifvqf90","pricing_plan_id":"cebpf4jnsgd1na2vs0mg"},{"bike_id":"4fb4dd8f-329c-444b-9c23-3c2478ccfb5d","system_id":"levelo_inurba_marseille","lat":43.23787,"lon":5.3663,"is_reserved":false,"is_disabled":false,"rental_uris":{"android":"levelo://app?vid=4fb4dd8f-329c-444b-9c23-3c2478ccfb5d","ios":"levelo://app?vid=4fb4dd8f-329c-444b-9c23-3c2478ccfb5d"},"vehicle_type_id":"4","last_reported":1762978310,"current_range_meters":9200,"station_id":"st_d3nk18o9ro0c73en2l3g","pricing_plan_id":"cebpf4jnsgd1na2vs0mg"},{"bike_id":"64636d84-c8c7-444e-b95c-488a6c636218","system_id":"levelo_inurba_marseille","lat":43.30124,"lon":5.39885,"is_reserved":false,"is_disabled":false,"rental_uris":{"android":"levelo://app?vid=64636d84-c8c7-444e-b95c-488a6c636218","ios":"levelo://app?vid=64636d84-c8c7-444e-b95c-488a6c636218"},"vehicle_type_id":"4","last_reported":1762978310,"current_range_meters":9600,"station_id":"ce4bh0h2rcd13ifvqd40","pricing_plan_id":"cebpf4jnsgd1na2vs0mg"},{"bike_id":"c0518108-1c8a-4ffd-84c2-8dc6a6aea907","system_id":"levelo_inurba_marseille","lat":43.255088,"lon":5.376549,"is_reserved":false,"is_disabled":false,"rental_uris":{"android":"levelo://app?vid=c0518108-1c8a-4ffd-84c2-8dc6a6aea907","ios":"levelo://app?vid=c0518108-1c8a-4ffd-84c2-8dc6a6aea907"},"vehicle_type_id":"4","last_reported":1762978310,"current_range_meters":9600,"station_id":"ce4bhh12rcd13ifvqff0","pricing_plan_id":"cebpf4jnsgd1na2vs0mg"},{"bike_id":"98b239dd-efd9-44f8-99c8-3bd65578f77d","system_id":"levelo_inurba_marseille","lat":43.30317,"lon":5.40429,"is_reserved":false,"is_disabled":false,"rental_uris":{"android":"levelo://app?vid=98b239dd-efd9-44f8-99c8-3bd65578f77d","ios":"levelo://app?vid=98b239dd-efd9-44f8-99c8-3bd65578f77d"},"vehicle_type_id":"4","last_reported":1762978310,"current_range_meters":9600,"station_id":"ce4bh012rcd13ifvqd10","pricing_plan_id":"cebpf4jnsgd1na2vs0mg"},{"bike_id":"af768d0a-86c5-427c-922a-bb0967ab9179","system_id":"levelo_inurba_marseille","lat":43.29004,"lon":5.35624,"is_reserved":false,"is_disabled":false,"rental_uris":{"android":"levelo://app?vid=af768d0a-86c5-427c-922a-bb0967ab9179","ios":"levelo://app?vid=af768d0a-86c5-427c-922a-bb0967ab9179"},"vehicle_type_id":"4","last_reported":1762978310,"current_range_meters":9600,"station_id":"ce4bhb92rcd13ifvqen0","pricing_plan_id":"cebpf4jnsgd1na2vs0mg"},{"bike_id":"2bf2c144-2188-4aa5-8f10-9a55e52319b5","system_id":"levelo_inurba_marseille","lat":43.31189,"lon":5.39135,"is_reserved":false,"is_disabled":false,"rental_uris":{"android":"levelo://app?vid=2bf2c144-2188-4aa5-8f10-9a55e52319b5","ios":"levelo://app?vid=2bf2c144-2188-4aa5-8f10-9a55e52319b5"},"vehicle_type_id":"4","last_reported":1762978310,"current_range_meters":10000,"station_id":"","pricing_plan_id":"cebpf4jnsgd1na2vs0mg"},{"bike_id":"01e8cce2-ff84-43ff-914a-c0c695f60ca4","system_id":"levelo_inurba_marseille","lat":43.29448,"lon":5.38036,"is_reserved":false,"is_disabled":false,"rental_uris":{"android":"levelo://app?vid=01e8cce2-ff84-43ff-914a-c0c695f60ca4","ios":"levelo://app?vid=01e8cce2-ff84-43ff-914a-c0c695f60ca4"},"vehicle_type_id":"4","last_reported":1762978310,"current_range_meters":10000,"station_id":"","pricing_plan_id":"cebpf4jnsgd1na2vs0mg"},{"bike_id":"62dcc0f9-3d2c-49ba-bfbc-29d73ac49326","system_id":"levelo_inurba_marseille","lat":43.28618,"lon":5.35093,"is_reserved":false,"is_disabled":false,"rental_uris":{"android":"levelo://app?vid=62dcc0f9-3d2c-49ba-bfbc-29d73ac49326","ios":"levelo://app?vid=62dcc0f9-3d2c-49ba-bfbc-29d73ac49326"},"vehicle_type_id":"4","last_reported":1762978310,"current_range_meters":10000,"station_id":"ce4bhch2rcd13ifvqeug","pricing_plan_id":"cebpf4jnsgd1na2vs0mg"},{"bike_id":"0c72d5f2-e21c-47bc-a1e2-53101157b776","system_id":"levelo_inurba_marseille","lat":43.31255,"lon":5.3685,"is_reserved":false,"is_disabled":false,"rental_uris":{"android":"levelo://app?vid=0c72d5f2-e21c-47bc-a1e2-53101157b776","ios":"levelo://app?vid=0c72d5f2-e21c-47bc-a1e2-53101157b776"},"vehicle_type_id":"4","last_reported":1762978310,"current_range_meters":10000,"station_id":"ce4bgl92rcd13ifvqbq0","pricing_plan_id":"cebpf4jnsgd1na2vs0mg"},{"bike_id":"36135ec0-72c4-4e4d-9809-4a048743d09a","system_id":"levelo_inurba_marseille","lat":43.29184,"lon":5.39324,"is_reserved":false,"is_disabled":false,"rental_uris":{"android":"levelo://app?vid=36135ec0-72c4-4e4d-9809-4a048743d09a","ios":"levelo://app?vid=36135ec0-72c4-4e4d-9809-4a048743d09a"},"vehicle_type_id":"4","last_reported":1762978310,"current_range_meters":10000,"station_id":"ce4bh192rcd13ifvqdd0","pricing_plan_id":"cebpf4jnsgd1na2vs0mg"},{"bike_id":"314125e4-1746-4026-b3ce-4a1b4624985a","system_id":"levelo_inurba_marseille","lat":43.32367,"lon":5.38878,"is_reserved":false,"is_disabled":false,"rental_uris":{"android":"levelo://app?vid=314125e4-1746-4026-b3ce-4a1b4624985a","ios":"levelo://app?vid=314125e4-1746-4026-b3ce-4a1b4624985a"},"vehicle_type_id":"4","last_reported":1762978310,"current_range_meters":10000,"station_id":"ce4bhqp2rcd13ifvqhog","pricing_plan_id":"cebpf4jnsgd1na2vs0mg"},{"bike_id":"442be215-9827-4775-8903-635082f0d466","system_id":"levelo_inurba_marseille","lat":43.30122,"lon":5.38784,"is_reserved":false,"is_disabled":false,"rental_uris":{"android":"levelo://app?vid=442be215-9827-4775-8903-635082f0d466","ios":"levelo://app?vid=442be215-9827-4775-8903-635082f0d466"},"vehicle_type_id":"4","last_reported":1762978310,"current_range_meters":10000,"station_id":"ce4bghh2rcd13ifvqb60","pricing_plan_id":"cebpf4jnsgd1na2vs0mg"},{"bike_id":"0a519a0c-2009-4da9-8c56-32b85503cc06","system_id":"levelo_inurba_marseille","lat":43.28536,"lon":5.44085,"is_reserved":false,"is_disabled":false,"rental_uris":{"android":"levelo://app?vid=0a519a0c-2009-4da9-8c56-32b85503cc06","ios":"levelo://app?vid=0a519a0c-2009-4da9-8c56-32b85503cc06"},"vehicle_type_id":"4","last_reported":1762978310,"current_range_meters":10000,"station_id":"st_d3j3df2ikq2c7380ej80","pricing_plan_id":"cebpf4jnsgd1na2vs0mg"},{"bike_id":"dc3de8db-80c3-491d-819f-a74fd2946698","system_id":"levelo_inurba_marseille","lat":43.27183,"lon":5.40999,"is_reserved":false,"is_disabled":true,"rental_uris":{"android":"levelo://app?vid=dc3de8db-80c3-491d-819f-a74fd2946698","ios":"levelo://app?vid=dc3de8db-80c3-491d-819f-a74fd2946698"},"vehicle_type_id":"4","last_reported":1762978310,"current_range_meters":10000,"station_id":"ce4bhl12rcd13ifvqgf0","pricing_plan_id":"cebpf4jnsgd1na2vs0mg"},{"bike_id":"f09b69fd-4220-4b51-8365-9a85828617f1","system_id":"levelo_inurba_marseille","lat":43.330268,"lon":5.390397,"is_reserved":false,"is_disabled":true,"rental_uris":{"android":"levelo://app?vid=f09b69fd-4220-4b51-8365-9a85828617f1","ios":"levelo://app?vid=f09b69fd-4220-4b51-8365-9a85828617f1"},"vehicle_type_id":"4","last_reported":1762978310,"current_range_meters":10800,"station_id":"ce4bhr92rcd13ifvqhrg","pricing_plan_id":"cebpf4jnsgd1na2vs0mg"},{"bike_id":"47289f68-3c6d-411b-94ab-da9fe5aef30e","system_id":"levelo_inurba_marseille","lat":43.28941,"lon":5.36385,"is_reserved":false,"is_disabled":false,"rental_uris":{"android":"levelo://app?vid=47289f68-3c6d-411b-94ab-da9fe5aef30e","ios":"levelo://app?vid=47289f68-3c6d-411b-94ab-da9fe5aef30e"},"vehicle_type_id":"4","last_reported":1762978310,"current_range_meters":10800,"station_id":"ce4bhc92rcd13ifvqetg","pricing_plan_id":"cebpf4jnsgd1na2vs0mg"},{"bike_id":"5804ac99-3bd4-4091-bff1-7487e9285e0c","system_id":"levelo_inurba_marseille","lat":43.29183,"lon":5.37602,"is_reserved":false,"is_disabled":false,"rental_uris":{"android":"levelo://app?vid=5804ac99-3bd4-4091-bff1-7487e9285e0c","ios":"levelo://app?vid=5804ac99-3bd4-4091-bff1-7487e9285e0c"},"vehicle_type_id":"4","last_reported":1762978310,"current_range_meters":10800,"station_id":"","pricing_plan_id":"cebpf4jnsgd1na2vs0mg"},{"bike_id":"faa20551-5bf6-46f9-af3c-73199a8b67ba","system_id":"levelo_inurba_marseille","lat":43.29535,"lon":5.39393,"is_reserved":false,"is_disabled":false,"rental_uris":{"android":"levelo://app?vid=faa20551-5bf6-46f9-af3c-73199a8b67ba","ios":"levelo://app?vid=faa20551-5bf6-46f9-af3c-73199a8b67ba"},"vehicle_type_id":"4","last_reported":1762978310,"current_range_meters":10800,"station_id":"ce4bh292rcd13ifvqdf0","pricing_plan_id":"cebpf4jnsgd1na2vs0mg"},{"bike_id":"c7524101-9639-44d4-8d85-909f4894a107","system_id":"levelo_inurba_marseille","lat":43.32476,"lon":5.36562,"is_reserved":false,"is_disabled":false,"rental_uris":{"android":"levelo://app?vid=c7524101-9639-44d4-8d85-909f4894a107","ios":"levelo://app?vid=c7524101-9639-44d4-8d85-909f4894a107"},"vehicle_type_id":"4","last_reported":1762978310,"current_range_meters":10800,"station_id":"ce4bhs12rcd13ifvqhvg","pricing_plan_id":"cebpf4jnsgd1na2vs0mg"},{"bike_id":"95c619bf-d0e0-41ab-8523-86ae58157545","system_id":"levelo_inurba_marseille","lat":43.29598,"lon":5.38099,"is_reserved":false,"is_disabled":false,"rental_uris":{"android":"levelo://app?vid=95c619bf-d0e0-41ab-8523-86ae58157545","ios":"levelo://app?vid=95c619bf-d0e0-41ab-8523-86ae58157545"},"vehicle_type_id":"4","last_reported":1762978310,"current_range_meters":10800,"station_id":"ce4bgl12rcd13ifvqbo0","pricing_plan_id":"cebpf4jnsgd1na2vs0mg"},{"bike_id":"03e6d1d7-de03-4d73-835f-04ace0493024","system_id":"levelo_inurba_marseille","lat":43.30124,"lon":5.43114,"is_reserved":false,"is_disabled":false,"rental_uris":{"android":"levelo://app?vid=03e6d1d7-de03-4d73-835f-04ace0493024","ios":"levelo://app?vid=03e6d1d7-de03-4d73-835f-04ace0493024"},"vehicle_type_id":"4","last_reported":1762978310,"current_range_meters":10800,"station_id":"st_d3js3co5814s73ftftug","pricing_plan_id":"cebpf4jnsgd1na2vs0mg"},{"bike_id":"342124fc-27b1-4d60-b9b1-3f8755eb0d0c","system_id":"levelo_inurba_marseille","lat":43.28409,"lon":5.37519,"is_reserved":false,"is_disabled":false,"rental_uris":{"android":"levelo://app?vid=342124fc-27b1-4d60-b9b1-3f8755eb0d0c","ios":"levelo://app?vid=342124fc-27b1-4d60-b9b1-3f8755eb0d0c"},"vehicle_type_id":"4","last_reported":1762978310,"current_range_meters":10800,"station_id":"ce4bh412rcd13ifvqds0","pricing_plan_id":"cebpf4jnsgd1na2vs0mg"},{"bike_id":"585ac4c7-f7a0-4d90-9ba3-ad8e6a5949e8","system_id":"levelo_inurba_marseille","lat":43.31108,"lon":5.37753,"is_reserved":false,"is_disabled":false,"rental_uris":{"android":"levelo://app?vid=585ac4c7-f7a0-4d90-9ba3-ad8e6a5949e8","ios":"levelo://app?vid=585ac4c7-f7a0-4d90-9ba3-ad8e6a5949e8"},"vehicle_type_id":"4","last_reported":1762978310,"current_range_meters":10800,"station_id":"ce4bgt92rcd13ifvqcg0","pricing_plan_id":"cebpf4jnsgd1na2vs0mg"},{"bike_id":"138acbc8-a44a-45ec-9d4e-f41258a8778e","system_id":"levelo_inurba_marseille","lat":43.298206,"lon":5.440639,"is_reserved":false,"is_disabled":false,"rental_uris":{"android":"levelo://app?vid=138acbc8-a44a-45ec-9d4e-f41258a8778e","ios":"levelo://app?vid=138acbc8-a44a-45ec-9d4e-f41258a8778e"},"vehicle_type_id":"4","last_reported":1762978310,"current_range_meters":10800,"station_id":"st_d3jp68qikq2c7381ktn0","pricing_plan_id":"cebpf4jnsgd1na2vs0mg"},{"bike_id":"4ccbf393-f877-4e78-8194-38d5445ee5a7","system_id":"levelo_inurba_marseille","lat":43.290283,"lon":5.38648,"is_reserved":false,"is_disabled":false,"rental_uris":{"android":"levelo://app?vid=4ccbf393-f877-4e78-8194-38d5445ee5a7","ios":"levelo://app?vid=4ccbf393-f877-4e78-8194-38d5445ee5a7"},"vehicle_type_id":"4","last_reported":1762978310,"current_range_meters":10800,"station_id":"","pricing_plan_id":"cebpf4jnsgd1na2vs0mg"},{"bike_id":"1c105d7d-64ed-4075-9d7b-5a8c7c85b61b","system_id":"levelo_inurba_marseille","lat":43.32655,"lon":5.40994,"is_reserved":false,"is_disabled":false,"rental_uris":{"android":"levelo://app?vid=1c105d7d-64ed-4075-9d7b-5a8c7c85b61b","ios":"levelo://app?vid=1c105d7d-64ed-4075-9d7b-5a8c7c85b61b"},"vehicle_type_id":"4","last_reported":1762978310,"current_range_meters":11200,"station_id":"ce4bhpp2rcd13ifvqhgg","pricing_plan_id":"cebpf4jnsgd1na2vs0mg"},{"bike_id":"deb22c28-c17d-4812-a479-8c21fcb2162c","system_id":"levelo_inurba_marseille","lat":43.29252,"lon":5.40911,"is_reserved":false,"is_disabled":true,"rental_uris":{"android":"levelo://app?vid=deb22c28-c17d-4812-a479-8c21fcb2162c","ios":"levelo://app?vid=deb22c28-c17d-4812-a479-8c21fcb2162c"},"vehicle_type_id":"4","last_reported":1762978310,"current_range_meters":11200,"station_id":"ce4bh192rcd13ifvqdc0","pricing_plan_id":"cebpf4jnsgd1na2vs0mg"},{"bike_id":"8a11c2ee-380a-4345-9330-021da7c4976c","system_id":"levelo_inurba_marseille","lat":43.30173,"lon":5.36606,"is_reserved":false,"is_disabled":false,"rental_uris":{"android":"levelo://app?vid=8a11c2ee-380a-4345-9330-021da7c4976c","ios":"levelo://app?vid=8a11c2ee-380a-4345-9330-021da7c4976c"},"vehicle_type_id":"4","last_reported":1762978310,"current_range_meters":11200,"station_id":"ce4bgrh2rcd13ifvqc8g","pricing_plan_id":"cebpf4jnsgd1na2vs0mg"},{"bike_id":"8b027115-1a9e-4312-923f-dbf5aec10ee4","system_id":"levelo_inurba_marseille","lat":43.30248,"lon":5.36523,"is_reserved":false,"is_disabled":false,"rental_uris":{"android":"levelo://app?vid=8b027115-1a9e-4312-923f-dbf5aec10ee4","ios":"levelo://app?vid=8b027115-1a9e-4312-923f-dbf5aec10ee4"},"vehicle_type_id":"4","last_reported":1762978310,"current_range_meters":11200,"station_id":"","pricing_plan_id":"cebpf4jnsgd1na2vs0mg"},{"bike_id":"f3c6aa57-55dc-4440-b211-ed1d48c7eb51","system_id":"levelo_inurba_marseille","lat":43.28462,"lon":5.35883,"is_reserved":false,"is_disabled":false,"rental_uris":{"android":"levelo://app?vid=f3c6aa57-55dc-4440-b211-ed1d48c7eb51","ios":"levelo://app?vid=f3c6aa57-55dc-4440-b211-ed1d48c7eb51"},"vehicle_type_id":"4","last_reported":1762978310,"current_range_meters":11600,"station_id":"ce4bhah2rcd13ifvqei0","pricing_plan_id":"cebpf4jnsgd1na2vs0mg"},{"bike_id":"1abe7de8-1f5d-4464-9c1e-74f7e6984228","system_id":"levelo_inurba_marseille","lat":43.28448,"lon":5.35805,"is_reserved":false,"is_disabled":false,"rental_uris":{"android":"levelo://app?vid=1abe7de8-1f5d-4464-9c1e-74f7e6984228","ios":"levelo://app?vid=1abe7de8-1f5d-4464-9c1e-74f7e6984228"},"vehicle_type_id":"4","last_reported":1762978310,"current_range_meters":11600,"station_id":"ce4bhah2rcd13ifvqei0","pricing_plan_id":"cebpf4jnsgd1na2vs0mg"},{"bike_id":"f19a854d-96e9-4cf0-92aa-d357813dc143","system_id":"levelo_inurba_marseille","lat":43.28483,"lon":5.38416,"is_reserved":false,"is_disabled":true,"rental_uris":{"android":"levelo://app?vid=f19a854d-96e9-4cf0-92aa-d357813dc143","ios":"levelo://app?vid=f19a854d-96e9-4cf0-92aa-d357813dc143"},"vehicle_type_id":"4","last_reported":1762978310,"current_range_meters":11600,"station_id":"ce4bh512rcd13ifvqe3g","pricing_plan_id":"cebpf4jnsgd1na2vs0mg"},{"bike_id":"82c84de1-0a11-4468-a704-90a30672509b","system_id":"levelo_inurba_marseille","lat":43.30548,"lon":5.38418,"is_reserved":false,"is_disabled":false,"rental_uris":{"android":"levelo://app?vid=82c84de1-0a11-4468-a704-90a30672509b","ios":"levelo://app?vid=82c84de1-0a11-4468-a704-90a30672509b"},"vehicle_type_id":"4","last_reported":1762978310,"current_range_meters":11600,"station_id":"ce4bgg92rcd13ifvqb30","pricing_plan_id":"cebpf4jnsgd1na2vs0mg"},{"bike_id":"0528378f-1b50-41df-b328-6686306ee922","system_id":"levelo_inurba_marseille","lat":43.21626,"lon":5.34444,"is_reserved":false,"is_disabled":false,"rental_uris":{"android":"levelo://app?vid=0528378f-1b50-41df-b328-6686306ee922","ios":"levelo://app?vid=0528378f-1b50-41df-b328-6686306ee922"},"vehicle_type_id":"4","last_reported":1762978310,"current_range_meters":11600,"station_id":"","pricing_plan_id":"cebpf4jnsgd1na2vs0mg"},{"bike_id":"f3661e75-1ed0-418a-a23f-a40a52d6c8bc","system_id":"levelo_inurba_marseille","lat":43.2835,"lon":5.38103,"is_reserved":false,"is_disabled":false,"rental_uris":{"android":"levelo://app?vid=f3661e75-1ed0-418a-a23f-a40a52d6c8bc","ios":"levelo://app?vid=f3661e75-1ed0-418a-a23f-a40a52d6c8bc"},"vehicle_type_id":"4","last_reported":1762978310,"current_range_meters":11600,"station_id":"ce4bh412rcd13ifvqdr0","pricing_plan_id":"cebpf4jnsgd1na2vs0mg"},{"bike_id":"a8a178c1-4086-45bb-9193-b8d110ee9a4d","system_id":"levelo_inurba_marseille","lat":43.28153,"lon":5.42642,"is_reserved":false,"is_disabled":false,"rental_uris":{"android":"levelo://app?vid=a8a178c1-4086-45bb-9193-b8d110ee9a4d","ios":"levelo://app?vid=a8a178c1-4086-45bb-9193-b8d110ee9a4d"},"vehicle_type_id":"4","last_reported":1762978310,"current_range_meters":11600,"station_id":"ce4bhnh2rcd13ifvqgug","pricing_plan_id":"cebpf4jnsgd1na2vs0mg"},{"bike_id":"3400a873-c4a3-46e2-8c59-fbeb12c43093","system_id":"levelo_inurba_marseille","lat":43.27837,"lon":5.39205,"is_reserved":false,"is_disabled":true,"rental_uris":{"android":"levelo://app?vid=3400a873-c4a3-46e2-8c59-fbeb12c43093","ios":"levelo://app?vid=3400a873-c4a3-46e2-8c59-fbeb12c43093"},"vehicle_type_id":"4","last_reported":1762978310,"current_range_meters":12000,"station_id":"ce4bhjp2rcd13ifvqga0","pricing_plan_id":"cebpf4jnsgd1na2vs0mg"},{"bike_id":"62da84d0-7b33-4437-9377-83a424aee13a","system_id":"levelo_inurba_marseille","lat":43.30806,"lon":5.43515,"is_reserved":false,"is_disabled":false,"rental_uris":{"android":"levelo://app?vid=62da84d0-7b33-4437-9377-83a424aee13a","ios":"levelo://app?vid=62da84d0-7b33-4437-9377-83a424aee13a"},"vehicle_type_id":"4","last_reported":1762978310,"current_range_meters":12000,"station_id":"","pricing_plan_id":"cebpf4jnsgd1na2vs0mg"},{"bike_id":"62c82852-d1f9-4674-913f-10cad8a9aea8","system_id":"levelo_inurba_marseille","lat":43.29766,"lon":5.37107,"is_reserved":false,"is_disabled":false,"rental_uris":{"android":"levelo://app?vid=62c82852-d1f9-4674-913f-10cad8a9aea8","ios":"levelo://app?vid=62c82852-d1f9-4674-913f-10cad8a9aea8"},"vehicle_type_id":"4","last_reported":1762978310,"current_range_meters":12000,"station_id":"ce4bgop2rcd13ifvqc1g","pricing_plan_id":"cebpf4jnsgd1na2vs0mg"},{"bike_id":"1826021c-78d5-4bf7-9950-ab922f7cd7e0","system_id":"levelo_inurba_marseille","lat":43.32349,"lon":5.36769,"is_reserved":false,"is_disabled":false,"rental_uris":{"android":"levelo://app?vid=1826021c-78d5-4bf7-9950-ab922f7cd7e0","ios":"levelo://app?vid=1826021c-78d5-4bf7-9950-ab922f7cd7e0"},"vehicle_type_id":"4","last_reported":1762978310,"current_range_meters":12400,"station_id":"ce4bhsh2rcd13ifvqi2g","pricing_plan_id":"cebpf4jnsgd1na2vs0mg"},{"bike_id":"7cd3fc91-8b4e-4cc9-a97a-8aec9cd4160c","system_id":"levelo_inurba_marseille","lat":43.29864,"lon":5.37218,"is_reserved":false,"is_disabled":true,"rental_uris":{"android":"levelo://app?vid=7cd3fc91-8b4e-4cc9-a97a-8aec9cd4160c","ios":"levelo://app?vid=7cd3fc91-8b4e-4cc9-a97a-8aec9cd4160c"},"vehicle_type_id":"4","last_reported":1762978310,"current_range_meters":12400,"station_id":"","pricing_plan_id":"cebpf4jnsgd1na2vs0mg"},{"bike_id":"9c1d5200-fbd4-4b99-86ec-25ca9d57af4f","system_id":"levelo_inurba_marseille","lat":43.28402,"lon":5.37524,"is_reserved":false,"is_disabled":false,"rental_uris":{"android":"levelo://app?vid=9c1d5200-fbd4-4b99-86ec-25ca9d57af4f","ios":"levelo://app?vid=9c1d5200-fbd4-4b99-86ec-25ca9d57af4f"},"vehicle_type_id":"4","last_reported":1762978310,"current_range_meters":12400,"station_id":"ce4bh412rcd13ifvqds0","pricing_plan_id":"cebpf4jnsgd1na2vs0mg"},{"bike_id":"415ac154-75e8-4461-ae3d-14fd9c115c1d","system_id":"levelo_inurba_marseille","lat":43.26826,"lon":5.40248,"is_reserved":false,"is_disabled":false,"rental_uris":{"android":"levelo://app?vid=415ac154-75e8-4461-ae3d-14fd9c115c1d","ios":"levelo://app?vid=415ac154-75e8-4461-ae3d-14fd9c115c1d"},"vehicle_type_id":"4","last_reported":1762978310,"current_range_meters":12400,"station_id":"ce501612rcd8frsf0b60","pricing_plan_id":"cebpf4jnsgd1na2vs0mg"},{"bike_id":"98971bc4-1a78-4b97-a651-08f8eedaa65c","system_id":"levelo_inurba_marseille","lat":43.25514,"lon":5.37653,"is_reserved":false,"is_disabled":false,"rental_uris":{"android":"levelo://app?vid=98971bc4-1a78-4b97-a651-08f8eedaa65c","ios":"levelo://app?vid=98971bc4-1a78-4b97-a651-08f8eedaa65c"},"vehicle_type_id":"4","last_reported":1762978310,"current_range_meters":12400,"station_id":"ce4bhh12rcd13ifvqff0","pricing_plan_id":"cebpf4jnsgd1na2vs0mg"},{"bike_id":"e13b78db-2231-48a0-b9e0-a153f32a43f4","system_id":"levelo_inurba_marseille","lat":43.23059,"lon":5.35492,"is_reserved":false,"is_disabled":false,"rental_uris":{"android":"levelo://app?vid=e13b78db-2231-48a0-b9e0-a153f32a43f4","ios":"levelo://app?vid=e13b78db-2231-48a0-b9e0-a153f32a43f4"},"vehicle_type_id":"4","last_reported":1762978310,"current_range_meters":12400,"station_id":"cpo3342slgdg3j2ifvpg","pricing_plan_id":"cebpf4jnsgd1na2vs0mg"},{"bike_id":"bff25fb5-769a-46f8-afa8-9272caaaaab9","system_id":"levelo_inurba_marseille","lat":43.29077,"lon":5.37179,"is_reserved":false,"is_disabled":false,"rental_uris":{"android":"levelo://app?vid=bff25fb5-769a-46f8-afa8-9272caaaaab9","ios":"levelo://app?vid=bff25fb5-769a-46f8-afa8-9272caaaaab9"},"vehicle_type_id":"4","last_reported":1762978310,"current_range_meters":12400,"station_id":"ce4bh5p2rcd13ifvqe4g","pricing_plan_id":"cebpf4jnsgd1na2vs0mg"},{"bike_id":"a24d1ed3-7d2a-4935-9058-4a4ebef3dc61","system_id":"levelo_inurba_marseille","lat":43.2654,"lon":5.37293,"is_reserved":false,"is_disabled":false,"rental_uris":{"android":"levelo://app?vid=a24d1ed3-7d2a-4935-9058-4a4ebef3dc61","ios":"levelo://app?vid=a24d1ed3-7d2a-4935-9058-4a4ebef3dc61"},"vehicle_type_id":"4","last_reported":1762978310,"current_range_meters":12400,"station_id":"ce4bhg12rcd13ifvqf70","pricing_plan_id":"cebpf4jnsgd1na2vs0mg"},{"bike_id":"d0bc74f0-19cd-4ffb-94cf-ca7717035b74","system_id":"levelo_inurba_marseille","lat":43.2439,"lon":5.37052,"is_reserved":false,"is_disabled":false,"rental_uris":{"android":"levelo://app?vid=d0bc74f0-19cd-4ffb-94cf-ca7717035b74","ios":"levelo://app?vid=d0bc74f0-19cd-4ffb-94cf-ca7717035b74"},"vehicle_type_id":"4","last_reported":1762978310,"current_range_meters":12400,"station_id":"ce4bhhh2rcd13ifvqfk0","pricing_plan_id":"cebpf4jnsgd1na2vs0mg"},{"bike_id":"1366d112-6b2b-4551-a4d9-5a44c6958638","system_id":"levelo_inurba_marseille","lat":43.32657,"lon":5.40994,"is_reserved":false,"is_disabled":false,"rental_uris":{"android":"levelo://app?vid=1366d112-6b2b-4551-a4d9-5a44c6958638","ios":"levelo://app?vid=1366d112-6b2b-4551-a4d9-5a44c6958638"},"vehicle_type_id":"4","last_reported":1762978310,"current_range_meters":12400,"station_id":"ce4bhpp2rcd13ifvqhgg","pricing_plan_id":"cebpf4jnsgd1na2vs0mg"},{"bike_id":"56252ebb-3d3c-4996-ab17-f095250b50cd","system_id":"levelo_inurba_marseille","lat":43.21759,"lon":5.34595,"is_reserved":false,"is_disabled":true,"rental_uris":{"android":"levelo://app?vid=56252ebb-3d3c-4996-ab17-f095250b50cd","ios":"levelo://app?vid=56252ebb-3d3c-4996-ab17-f095250b50cd"},"vehicle_type_id":"4","last_reported":1762978310,"current_range_meters":12400,"station_id":"","pricing_plan_id":"cebpf4jnsgd1na2vs0mg"},{"bike_id":"ca35fd2b-f515-4331-81c0-e93622059b13","system_id":"levelo_inurba_marseille","lat":43.2866,"lon":5.36357,"is_reserved":false,"is_disabled":false,"rental_uris":{"android":"levelo://app?vid=ca35fd2b-f515-4331-81c0-e93622059b13","ios":"levelo://app?vid=ca35fd2b-f515-4331-81c0-e93622059b13"},"vehicle_type_id":"4","last_reported":1762978310,"current_range_meters":12800,"station_id":"ce4bhah2rcd13ifvqej0","pricing_plan_id":"cebpf4jnsgd1na2vs0mg"},{"bike_id":"2a347f75-6f65-41f2-9a08-14ce913226a2","system_id":"levelo_inurba_marseille","lat":43.28936,"lon":5.36629,"is_reserved":false,"is_disabled":false,"rental_uris":{"android":"levelo://app?vid=2a347f75-6f65-41f2-9a08-14ce913226a2","ios":"levelo://app?vid=2a347f75-6f65-41f2-9a08-14ce913226a2"},"vehicle_type_id":"4","last_reported":1762978310,"current_range_meters":12800,"station_id":"ce4bhap2rcd13ifvqek0","pricing_plan_id":"cebpf4jnsgd1na2vs0mg"},{"bike_id":"e3df63a1-f3d2-4d82-8bf6-df212c4e8b69","system_id":"levelo_inurba_marseille","lat":43.28478,"lon":5.48392,"is_reserved":false,"is_disabled":false,"rental_uris":{"android":"levelo://app?vid=e3df63a1-f3d2-4d82-8bf6-df212c4e8b69","ios":"levelo://app?vid=e3df63a1-f3d2-4d82-8bf6-df212c4e8b69"},"vehicle_type_id":"4","last_reported":1762978310,"current_range_meters":12800,"station_id":"","pricing_plan_id":"cebpf4jnsgd1na2vs0mg"},{"bike_id":"fdf24c56-f376-46ab-a9d7-6b1084c4de88","system_id":"levelo_inurba_marseille","lat":43.2799,"lon":5.41659,"is_reserved":false,"is_disabled":false,"rental_uris":{"android":"levelo://app?vid=fdf24c56-f376-46ab-a9d7-6b1084c4de88","ios":"levelo://app?vid=fdf24c56-f376-46ab-a9d7-6b1084c4de88"},"vehicle_type_id":"4","last_reported":1762978310,"current_range_meters":12800,"station_id":"ce4bho12rcd13ifvqh1g","pricing_plan_id":"cebpf4jnsgd1na2vs0mg"},{"bike_id":"aeec9746-c563-44d8-9799-75e20bff96dc","system_id":"levelo_inurba_marseille","lat":43.28935,"lon":5.3664,"is_reserved":false,"is_disabled":false,"rental_uris":{"android":"levelo://app?vid=aeec9746-c563-44d8-9799-75e20bff96dc","ios":"levelo://app?vid=aeec9746-c563-44d8-9799-75e20bff96dc"},"vehicle_type_id":"4","last_reported":1762978310,"current_range_meters":12800,"station_id":"ce4bhap2rcd13ifvqek0","pricing_plan_id":"cebpf4jnsgd1na2vs0mg"},{"bike_id":"cd3c61ae-0a3b-4b94-a237-0663ca941c2c","system_id":"levelo_inurba_marseille","lat":43.30423,"lon":5.39743,"is_reserved":false,"is_disabled":false,"rental_uris":{"android":"levelo://app?vid=cd3c61ae-0a3b-4b94-a237-0663ca941c2c","ios":"levelo://app?vid=cd3c61ae-0a3b-4b94-a237-0663ca941c2c"},"vehicle_type_id":"4","last_reported":1762978310,"current_range_meters":12800,"station_id":"ce4bh092rcd13ifvqd20","pricing_plan_id":"cebpf4jnsgd1na2vs0mg"},{"bike_id":"a26712ac-c4dc-4d7c-9767-877ec57b4780","system_id":"levelo_inurba_marseille","lat":43.28489,"lon":5.48375,"is_reserved":false,"is_disabled":false,"rental_uris":{"android":"levelo://app?vid=a26712ac-c4dc-4d7c-9767-877ec57b4780","ios":"levelo://app?vid=a26712ac-c4dc-4d7c-9767-877ec57b4780"},"vehicle_type_id":"4","last_reported":1762978310,"current_range_meters":13600,"station_id":"st_d3svhcjqgbts73a3dn0g","pricing_plan_id":"cebpf4jnsgd1na2vs0mg"},{"bike_id":"4cd00cfe-7773-42e9-ace7-18bdb6b33df9","system_id":"levelo_inurba_marseille","lat":43.29968,"lon":5.38488,"is_reserved":false,"is_disabled":false,"rental_uris":{"android":"levelo://app?vid=4cd00cfe-7773-42e9-ace7-18bdb6b33df9","ios":"levelo://app?vid=4cd00cfe-7773-42e9-ace7-18bdb6b33df9"},"vehicle_type_id":"4","last_reported":1762978310,"current_range_meters":13600,"station_id":"ce4bgj92rcd13ifvqbd0","pricing_plan_id":"cebpf4jnsgd1na2vs0mg"},{"bike_id":"69d9106d-5aad-4a8d-ba87-b002f022d837","system_id":"levelo_inurba_marseille","lat":43.30253,"lon":5.40057,"is_reserved":false,"is_disabled":false,"rental_uris":{"android":"levelo://app?vid=69d9106d-5aad-4a8d-ba87-b002f022d837","ios":"levelo://app?vid=69d9106d-5aad-4a8d-ba87-b002f022d837"},"vehicle_type_id":"4","last_reported":1762978310,"current_range_meters":13600,"station_id":"ce4bgvh2rcd13ifvqcs0","pricing_plan_id":"cebpf4jnsgd1na2vs0mg"},{"bike_id":"ee24cfcb-927e-4dc4-abbc-2385878debe3","system_id":"levelo_inurba_marseille","lat":43.290026,"lon":5.355984,"is_reserved":false,"is_disabled":false,"rental_uris":{"android":"levelo://app?vid=ee24cfcb-927e-4dc4-abbc-2385878debe3","ios":"levelo://app?vid=ee24cfcb-927e-4dc4-abbc-2385878debe3"},"vehicle_type_id":"4","last_reported":1762978310,"current_range_meters":13600,"station_id":"ce4bhb92rcd13ifvqen0","pricing_plan_id":"cebpf4jnsgd1na2vs0mg"},{"bike_id":"7405fff1-54cb-4441-8d3b-98a0b2f0eb43","system_id":"levelo_inurba_marseille","lat":43.273281,"lon":5.390523,"is_reserved":false,"is_disabled":false,"rental_uris":{"android":"levelo://app?vid=7405fff1-54cb-4441-8d3b-98a0b2f0eb43","ios":"levelo://app?vid=7405fff1-54cb-4441-8d3b-98a0b2f0eb43"},"vehicle_type_id":"4","last_reported":1762978310,"current_range_meters":13600,"station_id":"","pricing_plan_id":"cebpf4jnsgd1na2vs0mg"},{"bike_id":"b3982dff-2057-4e1f-87aa-36005fbc6ecd","system_id":"levelo_inurba_marseille","lat":43.29747,"lon":5.42768,"is_reserved":false,"is_disabled":false,"rental_uris":{"android":"levelo://app?vid=b3982dff-2057-4e1f-87aa-36005fbc6ecd","ios":"levelo://app?vid=b3982dff-2057-4e1f-87aa-36005fbc6ecd"},"vehicle_type_id":"4","last_reported":1762978310,"current_range_meters":13600,"station_id":"st_d3md5207bmas73dh9klg","pricing_plan_id":"cebpf4jnsgd1na2vs0mg"},{"bike_id":"c01ee74c-0907-4ca7-82d0-a92efd488ad9","system_id":"levelo_inurba_marseille","lat":43.22553,"lon":5.41633,"is_reserved":false,"is_disabled":false,"rental_uris":{"android":"levelo://app?vid=c01ee74c-0907-4ca7-82d0-a92efd488ad9","ios":"levelo://app?vid=c01ee74c-0907-4ca7-82d0-a92efd488ad9"},"vehicle_type_id":"4","last_reported":1762978310,"current_range_meters":13600,"station_id":"st_d2o4gvlbi1j2169b742g","pricing_plan_id":"cebpf4jnsgd1na2vs0mg"},{"bike_id":"60e7fa8d-04e1-4bde-9e50-96c18d1e42a2","system_id":"levelo_inurba_marseille","lat":43.3306,"lon":5.36515,"is_reserved":false,"is_disabled":false,"rental_uris":{"android":"levelo://app?vid=60e7fa8d-04e1-4bde-9e50-96c18d1e42a2","ios":"levelo://app?vid=60e7fa8d-04e1-4bde-9e50-96c18d1e42a2"},"vehicle_type_id":"4","last_reported":1762978310,"current_range_meters":13600,"station_id":"","pricing_plan_id":"cebpf4jnsgd1na2vs0mg"},{"bike_id":"12106200-475c-4781-8815-b4a16eff2a8b","system_id":"levelo_inurba_marseille","lat":43.29768,"lon":5.38897,"is_reserved":false,"is_disabled":false,"rental_uris":{"android":"levelo://app?vid=12106200-475c-4781-8815-b4a16eff2a8b","ios":"levelo://app?vid=12106200-475c-4781-8815-b4a16eff2a8b"},"vehicle_type_id":"4","last_reported":1762978310,"current_range_meters":13600,"station_id":"","pricing_plan_id":"cebpf4jnsgd1na2vs0mg"},{"bike_id":"773e1174-a6d8-4557-aecf-23ea0bb72d04","system_id":"levelo_inurba_marseille","lat":43.27938,"lon":5.4105,"is_reserved":false,"is_disabled":false,"rental_uris":{"android":"levelo://app?vid=773e1174-a6d8-4557-aecf-23ea0bb72d04","ios":"levelo://app?vid=773e1174-a6d8-4557-aecf-23ea0bb72d04"},"vehicle_type_id":"4","last_reported":1762978310,"current_range_meters":13600,"station_id":"ce4bhnp2rcd13ifvqh0g","pricing_plan_id":"cebpf4jnsgd1na2vs0mg"},{"bike_id":"2a2ec83a-2b84-4bf4-b19a-cd864bece9fd","system_id":"levelo_inurba_marseille","lat":43.24629,"lon":5.43133,"is_reserved":false,"is_disabled":false,"rental_uris":{"android":"levelo://app?vid=2a2ec83a-2b84-4bf4-b19a-cd864bece9fd","ios":"levelo://app?vid=2a2ec83a-2b84-4bf4-b19a-cd864bece9fd"},"vehicle_type_id":"4","last_reported":1762978310,"current_range_meters":13600,"station_id":"st_d2m6c4gdas8pm72e190g","pricing_plan_id":"cebpf4jnsgd1na2vs0mg"},{"bike_id":"07cdd6c0-c821-469a-9a6b-e067fa27bb41","system_id":"levelo_inurba_marseille","lat":43.21194,"lon":5.35067,"is_reserved":false,"is_disabled":true,"rental_uris":{"android":"levelo://app?vid=07cdd6c0-c821-469a-9a6b-e067fa27bb41","ios":"levelo://app?vid=07cdd6c0-c821-469a-9a6b-e067fa27bb41"},"vehicle_type_id":"4","last_reported":1762978310,"current_range_meters":13600,"station_id":"","pricing_plan_id":"cebpf4jnsgd1na2vs0mg"},{"bike_id":"0fce9284-b5d9-4485-b133-0e9c55a5d765","system_id":"levelo_inurba_marseille","lat":43.28936,"lon":5.3661,"is_reserved":false,"is_disabled":false,"rental_uris":{"android":"levelo://app?vid=0fce9284-b5d9-4485-b133-0e9c55a5d765","ios":"levelo://app?vid=0fce9284-b5d9-4485-b133-0e9c55a5d765"},"vehicle_type_id":"4","last_reported":1762978310,"current_range_meters":14000,"station_id":"ce4bhap2rcd13ifvqek0","pricing_plan_id":"cebpf4jnsgd1na2vs0mg"},{"bike_id":"27a88fd5-0e9d-4cfd-bc61-d265b88cec7b","system_id":"levelo_inurba_marseille","lat":43.28357,"lon":5.38108,"is_reserved":false,"is_disabled":false,"rental_uris":{"android":"levelo://app?vid=27a88fd5-0e9d-4cfd-bc61-d265b88cec7b","ios":"levelo://app?vid=27a88fd5-0e9d-4cfd-bc61-d265b88cec7b"},"vehicle_type_id":"4","last_reported":1762978310,"current_range_meters":14400,"station_id":"ce4bh412rcd13ifvqdr0","pricing_plan_id":"cebpf4jnsgd1na2vs0mg"},{"bike_id":"59210900-245d-470e-a96c-0a9fcba64819","system_id":"levelo_inurba_marseille","lat":43.233528,"lon":5.399495,"is_reserved":false,"is_disabled":false,"rental_uris":{"android":"levelo://app?vid=59210900-245d-470e-a96c-0a9fcba64819","ios":"levelo://app?vid=59210900-245d-470e-a96c-0a9fcba64819"},"vehicle_type_id":"4","last_reported":1762978310,"current_range_meters":14400,"station_id":"ce4bhn12rcd13ifvqgqg","pricing_plan_id":"cebpf4jnsgd1na2vs0mg"},{"bike_id":"502a8213-e2c5-4509-8429-9fded9cb3d0a","system_id":"levelo_inurba_marseille","lat":43.292729,"lon":5.368348,"is_reserved":false,"is_disabled":true,"rental_uris":{"android":"levelo://app?vid=502a8213-e2c5-4509-8429-9fded9cb3d0a","ios":"levelo://app?vid=502a8213-e2c5-4509-8429-9fded9cb3d0a"},"vehicle_type_id":"4","last_reported":1762978310,"current_range_meters":14400,"station_id":"ce4bhbp2rcd13ifvqesg","pricing_plan_id":"cebpf4jnsgd1na2vs0mg"},{"bike_id":"63a06000-4946-4a66-a23e-6fae4e38e33e","system_id":"levelo_inurba_marseille","lat":43.31494,"lon":5.37305,"is_reserved":false,"is_disabled":false,"rental_uris":{"android":"levelo://app?vid=63a06000-4946-4a66-a23e-6fae4e38e33e","ios":"levelo://app?vid=63a06000-4946-4a66-a23e-6fae4e38e33e"},"vehicle_type_id":"4","last_reported":1762978310,"current_range_meters":14400,"station_id":"ce4bgt12rcd13ifvqcd0","pricing_plan_id":"cebpf4jnsgd1na2vs0mg"},{"bike_id":"9f77fce6-b576-455d-a43d-b1e175676c28","system_id":"levelo_inurba_marseille","lat":43.33773,"lon":5.37473,"is_reserved":false,"is_disabled":false,"rental_uris":{"android":"levelo://app?vid=9f77fce6-b576-455d-a43d-b1e175676c28","ios":"levelo://app?vid=9f77fce6-b576-455d-a43d-b1e175676c28"},"vehicle_type_id":"4","last_reported":1762978310,"current_range_meters":14400,"station_id":"","pricing_plan_id":"cebpf4jnsgd1na2vs0mg"},{"bike_id":"7fdb0343-e3f4-4268-bb2b-f58cb211fd6d","system_id":"levelo_inurba_marseille","lat":43.28149,"lon":5.42657,"is_reserved":false,"is_disabled":false,"rental_uris":{"android":"levelo://app?vid=7fdb0343-e3f4-4268-bb2b-f58cb211fd6d","ios":"levelo://app?vid=7fdb0343-e3f4-4268-bb2b-f58cb211fd6d"},"vehicle_type_id":"4","last_reported":1762978310,"current_range_meters":14400,"station_id":"ce4bhnh2rcd13ifvqgug","pricing_plan_id":"cebpf4jnsgd1na2vs0mg"},{"bike_id":"e0940536-8e97-445f-9fc3-1d0cc2c2fe80","system_id":"levelo_inurba_marseille","lat":43.288588,"lon":5.425098,"is_reserved":false,"is_disabled":false,"rental_uris":{"android":"levelo://app?vid=e0940536-8e97-445f-9fc3-1d0cc2c2fe80","ios":"levelo://app?vid=e0940536-8e97-445f-9fc3-1d0cc2c2fe80"},"vehicle_type_id":"4","last_reported":1762978310,"current_range_meters":14400,"station_id":"st_d3b462108ojc7389ooeg","pricing_plan_id":"cebpf4jnsgd1na2vs0mg"},{"bike_id":"e451326e-63a6-445a-99fd-a9b29107b59e","system_id":"levelo_inurba_marseille","lat":43.27907,"lon":5.38005,"is_reserved":false,"is_disabled":false,"rental_uris":{"android":"levelo://app?vid=e451326e-63a6-445a-99fd-a9b29107b59e","ios":"levelo://app?vid=e451326e-63a6-445a-99fd-a9b29107b59e"},"vehicle_type_id":"4","last_reported":1762978310,"current_range_meters":14400,"station_id":"ce4bhf92rcd13ifvqf50","pricing_plan_id":"cebpf4jnsgd1na2vs0mg"},{"bike_id":"fb2d799c-a882-490e-92fb-bc08b2901f56","system_id":"levelo_inurba_marseille","lat":43.28406,"lon":5.37511,"is_reserved":false,"is_disabled":false,"rental_uris":{"android":"levelo://app?vid=fb2d799c-a882-490e-92fb-bc08b2901f56","ios":"levelo://app?vid=fb2d799c-a882-490e-92fb-bc08b2901f56"},"vehicle_type_id":"4","last_reported":1762978310,"current_range_meters":14400,"station_id":"ce4bh412rcd13ifvqds0","pricing_plan_id":"cebpf4jnsgd1na2vs0mg"},{"bike_id":"79c9aeb2-4d34-4f71-8050-99d15efbe605","system_id":"levelo_inurba_marseille","lat":43.2792,"lon":5.39576,"is_reserved":false,"is_disabled":false,"rental_uris":{"android":"levelo://app?vid=79c9aeb2-4d34-4f71-8050-99d15efbe605","ios":"levelo://app?vid=79c9aeb2-4d34-4f71-8050-99d15efbe605"},"vehicle_type_id":"4","last_reported":1762978310,"current_range_meters":14400,"station_id":"ce4bhf92rcd13ifvqf40","pricing_plan_id":"cebpf4jnsgd1na2vs0mg"},{"bike_id":"2380415b-651d-4cb4-9936-c30499ae6b46","system_id":"levelo_inurba_marseille","lat":43.21745,"lon":5.346,"is_reserved":false,"is_disabled":true,"rental_uris":{"android":"levelo://app?vid=2380415b-651d-4cb4-9936-c30499ae6b46","ios":"levelo://app?vid=2380415b-651d-4cb4-9936-c30499ae6b46"},"vehicle_type_id":"4","last_reported":1762978310,"current_range_meters":14400,"station_id":"st_cvj6r9ubvosntc0bgbag","pricing_plan_id":"cebpf4jnsgd1na2vs0mg"},{"bike_id":"8e3bec78-9776-427c-a0f2-300c2a1a9311","system_id":"levelo_inurba_marseille","lat":43.27623,"lon":5.36116,"is_reserved":false,"is_disabled":false,"rental_uris":{"android":"levelo://app?vid=8e3bec78-9776-427c-a0f2-300c2a1a9311","ios":"levelo://app?vid=8e3bec78-9776-427c-a0f2-300c2a1a9311"},"vehicle_type_id":"4","last_reported":1762978310,"current_range_meters":14800,"station_id":"ce4bgj92rcd13ifvqbe0","pricing_plan_id":"cebpf4jnsgd1na2vs0mg"},{"bike_id":"94161046-126c-4f43-9b22-89c050e0789b","system_id":"levelo_inurba_marseille","lat":43.24392,"lon":5.37061,"is_reserved":false,"is_disabled":false,"rental_uris":{"android":"levelo://app?vid=94161046-126c-4f43-9b22-89c050e0789b","ios":"levelo://app?vid=94161046-126c-4f43-9b22-89c050e0789b"},"vehicle_type_id":"4","last_reported":1762978310,"current_range_meters":14800,"station_id":"ce4bhhh2rcd13ifvqfk0","pricing_plan_id":"cebpf4jnsgd1na2vs0mg"},{"bike_id":"76aab0f0-e744-47b3-a012-1332cc463995","system_id":"levelo_inurba_marseille","lat":43.2988,"lon":5.38905,"is_reserved":false,"is_disabled":false,"rental_uris":{"android":"levelo://app?vid=76aab0f0-e744-47b3-a012-1332cc463995","ios":"levelo://app?vid=76aab0f0-e744-47b3-a012-1332cc463995"},"vehicle_type_id":"4","last_reported":1762978310,"current_range_meters":14800,"station_id":"ce4bh392rcd13ifvqdl0","pricing_plan_id":"cebpf4jnsgd1na2vs0mg"},{"bike_id":"d8b1d408-d68f-404d-bf4c-221261abe2dc","system_id":"levelo_inurba_marseille","lat":43.29264,"lon":5.38437,"is_reserved":false,"is_disabled":false,"rental_uris":{"android":"levelo://app?vid=d8b1d408-d68f-404d-bf4c-221261abe2dc","ios":"levelo://app?vid=d8b1d408-d68f-404d-bf4c-221261abe2dc"},"vehicle_type_id":"4","last_reported":1762978310,"current_range_meters":15200,"station_id":"ce4bh692rcd13ifvqea0","pricing_plan_id":"cebpf4jnsgd1na2vs0mg"},{"bike_id":"b32a0ef4-2668-4fd8-9eb6-a6c5fce45fef","system_id":"levelo_inurba_marseille","lat":43.24814,"lon":5.3745,"is_reserved":false,"is_disabled":false,"rental_uris":{"android":"levelo://app?vid=b32a0ef4-2668-4fd8-9eb6-a6c5fce45fef","ios":"levelo://app?vid=b32a0ef4-2668-4fd8-9eb6-a6c5fce45fef"},"vehicle_type_id":"4","last_reported":1762978310,"current_range_meters":15200,"station_id":"","pricing_plan_id":"cebpf4jnsgd1na2vs0mg"},{"bike_id":"9f257429-210e-4187-b310-fa3b4c5c3978","system_id":"levelo_inurba_marseille","lat":43.27337,"lon":5.40146,"is_reserved":false,"is_disabled":false,"rental_uris":{"android":"levelo://app?vid=9f257429-210e-4187-b310-fa3b4c5c3978","ios":"levelo://app?vid=9f257429-210e-4187-b310-fa3b4c5c3978"},"vehicle_type_id":"4","last_reported":1762978310,"current_range_meters":15200,"station_id":"","pricing_plan_id":"cebpf4jnsgd1na2vs0mg"},{"bike_id":"a76ed384-8adb-4855-8ea9-608b64e9d92b","system_id":"levelo_inurba_marseille","lat":43.32292,"lon":5.36967,"is_reserved":false,"is_disabled":false,"rental_uris":{"android":"levelo://app?vid=a76ed384-8adb-4855-8ea9-608b64e9d92b","ios":"levelo://app?vid=a76ed384-8adb-4855-8ea9-608b64e9d92b"},"vehicle_type_id":"4","last_reported":1762978310,"current_range_meters":15200,"station_id":"","pricing_plan_id":"cebpf4jnsgd1na2vs0mg"},{"bike_id":"d8995d1f-fa9a-404e-89cf-f6cf68b74328","system_id":"levelo_inurba_marseille","lat":43.29251,"lon":5.40904,"is_reserved":false,"is_disabled":false,"rental_uris":{"android":"levelo://app?vid=d8995d1f-fa9a-404e-89cf-f6cf68b74328","ios":"levelo://app?vid=d8995d1f-fa9a-404e-89cf-f6cf68b74328"},"vehicle_type_id":"4","last_reported":1762978310,"current_range_meters":15200,"station_id":"ce4bh192rcd13ifvqdc0","pricing_plan_id":"cebpf4jnsgd1na2vs0mg"},{"bike_id":"a7b36040-2627-44b4-99cb-e1a01827e0e4","system_id":"levelo_inurba_marseille","lat":43.29205,"lon":5.359365,"is_reserved":false,"is_disabled":false,"rental_uris":{"android":"levelo://app?vid=a7b36040-2627-44b4-99cb-e1a01827e0e4","ios":"levelo://app?vid=a7b36040-2627-44b4-99cb-e1a01827e0e4"},"vehicle_type_id":"4","last_reported":1762978310,"current_range_meters":16000,"station_id":"ce4bhb12rcd13ifvqem0","pricing_plan_id":"cebpf4jnsgd1na2vs0mg"},{"bike_id":"1398122c-ad8e-45a1-8798-c922decbd217","system_id":"levelo_inurba_marseille","lat":43.30243,"lon":5.40051,"is_reserved":false,"is_disabled":false,"rental_uris":{"android":"levelo://app?vid=1398122c-ad8e-45a1-8798-c922decbd217","ios":"levelo://app?vid=1398122c-ad8e-45a1-8798-c922decbd217"},"vehicle_type_id":"4","last_reported":1762978310,"current_range_meters":16000,"station_id":"ce4bgvh2rcd13ifvqcs0","pricing_plan_id":"cebpf4jnsgd1na2vs0mg"},{"bike_id":"8268287a-a2bf-437a-b246-1707c0ebb496","system_id":"levelo_inurba_marseille","lat":43.28441,"lon":5.39202,"is_reserved":false,"is_disabled":false,"rental_uris":{"android":"levelo://app?vid=8268287a-a2bf-437a-b246-1707c0ebb496","ios":"levelo://app?vid=8268287a-a2bf-437a-b246-1707c0ebb496"},"vehicle_type_id":"4","last_reported":1762978310,"current_range_meters":16000,"station_id":"ce4bhoh2rcd13ifvqh5g","pricing_plan_id":"cebpf4jnsgd1na2vs0mg"},{"bike_id":"1b0b7981-696f-4ec5-932c-764cd2899c70","system_id":"levelo_inurba_marseille","lat":43.28476,"lon":5.48401,"is_reserved":false,"is_disabled":false,"rental_uris":{"android":"levelo://app?vid=1b0b7981-696f-4ec5-932c-764cd2899c70","ios":"levelo://app?vid=1b0b7981-696f-4ec5-932c-764cd2899c70"},"vehicle_type_id":"4","last_reported":1762978310,"current_range_meters":16000,"station_id":"","pricing_plan_id":"cebpf4jnsgd1na2vs0mg"},{"bike_id":"512d300e-4e95-4872-bc5f-940e462e51ed","system_id":"levelo_inurba_marseille","lat":43.2315,"lon":5.43718,"is_reserved":false,"is_disabled":false,"rental_uris":{"android":"levelo://app?vid=512d300e-4e95-4872-bc5f-940e462e51ed","ios":"levelo://app?vid=512d300e-4e95-4872-bc5f-940e462e51ed"},"vehicle_type_id":"4","last_reported":1762978310,"current_range_meters":16000,"station_id":"ce4bhmp2rcd13ifvqgog","pricing_plan_id":"cebpf4jnsgd1na2vs0mg"},{"bike_id":"4a8b49ba-d45d-44ab-8ccc-361e18019620","system_id":"levelo_inurba_marseille","lat":43.29076,"lon":5.37169,"is_reserved":false,"is_disabled":false,"rental_uris":{"android":"levelo://app?vid=4a8b49ba-d45d-44ab-8ccc-361e18019620","ios":"levelo://app?vid=4a8b49ba-d45d-44ab-8ccc-361e18019620"},"vehicle_type_id":"4","last_reported":1762978310,"current_range_meters":16000,"station_id":"ce4bh5p2rcd13ifvqe4g","pricing_plan_id":"cebpf4jnsgd1na2vs0mg"},{"bike_id":"230960c0-089a-4eaf-aa44-91a68d76cbca","system_id":"levelo_inurba_marseille","lat":43.2841,"lon":5.37634,"is_reserved":false,"is_disabled":false,"rental_uris":{"android":"levelo://app?vid=230960c0-089a-4eaf-aa44-91a68d76cbca","ios":"levelo://app?vid=230960c0-089a-4eaf-aa44-91a68d76cbca"},"vehicle_type_id":"4","last_reported":1762978310,"current_range_meters":16000,"station_id":"","pricing_plan_id":"cebpf4jnsgd1na2vs0mg"},{"bike_id":"b176c5bf-526a-4483-aef9-39ad0f000235","system_id":"levelo_inurba_marseille","lat":43.31991,"lon":5.38132,"is_reserved":false,"is_disabled":true,"rental_uris":{"android":"levelo://app?vid=b176c5bf-526a-4483-aef9-39ad0f000235","ios":"levelo://app?vid=b176c5bf-526a-4483-aef9-39ad0f000235"},"vehicle_type_id":"4","last_reported":1762978310,"current_range_meters":16000,"station_id":"ce4bhr12rcd13ifvqhpg","pricing_plan_id":"cebpf4jnsgd1na2vs0mg"},{"bike_id":"286b1393-8d28-412d-a289-cede002f5070","system_id":"levelo_inurba_marseille","lat":43.2757,"lon":5.38415,"is_reserved":false,"is_disabled":false,"rental_uris":{"android":"levelo://app?vid=286b1393-8d28-412d-a289-cede002f5070","ios":"levelo://app?vid=286b1393-8d28-412d-a289-cede002f5070"},"vehicle_type_id":"4","last_reported":1762978310,"current_range_meters":16000,"station_id":"ce4bhh92rcd13ifvqfi0","pricing_plan_id":"cebpf4jnsgd1na2vs0mg"},{"bike_id":"c2512e39-7458-4d01-b760-af438e3d8699","system_id":"levelo_inurba_marseille","lat":43.29873,"lon":5.39741,"is_reserved":false,"is_disabled":false,"rental_uris":{"android":"levelo://app?vid=c2512e39-7458-4d01-b760-af438e3d8699","ios":"levelo://app?vid=c2512e39-7458-4d01-b760-af438e3d8699"},"vehicle_type_id":"4","last_reported":1762978310,"current_range_meters":16000,"station_id":"ce4bh0h2rcd13ifvqd50","pricing_plan_id":"cebpf4jnsgd1na2vs0mg"},{"bike_id":"c68bf45b-2920-4bae-8e82-b17e2f0a0414","system_id":"levelo_inurba_marseille","lat":43.26806,"lon":5.4027,"is_reserved":false,"is_disabled":false,"rental_uris":{"android":"levelo://app?vid=c68bf45b-2920-4bae-8e82-b17e2f0a0414","ios":"levelo://app?vid=c68bf45b-2920-4bae-8e82-b17e2f0a0414"},"vehicle_type_id":"4","last_reported":1762978310,"current_range_meters":16000,"station_id":"ce501612rcd8frsf0b60","pricing_plan_id":"cebpf4jnsgd1na2vs0mg"},{"bike_id":"c6385a55-c574-4930-9b17-a691d347714a","system_id":"levelo_inurba_marseille","lat":43.290344,"lon":5.359293,"is_reserved":false,"is_disabled":false,"rental_uris":{"android":"levelo://app?vid=c6385a55-c574-4930-9b17-a691d347714a","ios":"levelo://app?vid=c6385a55-c574-4930-9b17-a691d347714a"},"vehicle_type_id":"4","last_reported":1762978310,"current_range_meters":16000,"station_id":"ce4bgop2rcd13ifvqc1g","pricing_plan_id":"cebpf4jnsgd1na2vs0mg"},{"bike_id":"7815f929-b4f5-4fec-9a94-f75327b01ad2","system_id":"levelo_inurba_marseille","lat":43.28152,"lon":5.42638,"is_reserved":false,"is_disabled":false,"rental_uris":{"android":"levelo://app?vid=7815f929-b4f5-4fec-9a94-f75327b01ad2","ios":"levelo://app?vid=7815f929-b4f5-4fec-9a94-f75327b01ad2"},"vehicle_type_id":"4","last_reported":1762978310,"current_range_meters":16400,"station_id":"ce4bhnh2rcd13ifvqgug","pricing_plan_id":"cebpf4jnsgd1na2vs0mg"},{"bike_id":"23f9c78c-ca0a-48be-8a9d-156c748920c2","system_id":"levelo_inurba_marseille","lat":43.27928,"lon":5.41017,"is_reserved":false,"is_disabled":false,"rental_uris":{"android":"levelo://app?vid=23f9c78c-ca0a-48be-8a9d-156c748920c2","ios":"levelo://app?vid=23f9c78c-ca0a-48be-8a9d-156c748920c2"},"vehicle_type_id":"4","last_reported":1762978310,"current_range_meters":16400,"station_id":"ce4bhnp2rcd13ifvqh0g","pricing_plan_id":"cebpf4jnsgd1na2vs0mg"},{"bike_id":"98d9ed27-1c51-4232-bb05-142a9e7f98db","system_id":"levelo_inurba_marseille","lat":43.310776,"lon":5.383493,"is_reserved":false,"is_disabled":true,"rental_uris":{"android":"levelo://app?vid=98d9ed27-1c51-4232-bb05-142a9e7f98db","ios":"levelo://app?vid=98d9ed27-1c51-4232-bb05-142a9e7f98db"},"vehicle_type_id":"4","last_reported":1762978310,"current_range_meters":16400,"station_id":"ce4bgv92rcd13ifvqcr0","pricing_plan_id":"cebpf4jnsgd1na2vs0mg"},{"bike_id":"4f27c235-11df-4df2-bfdf-8938c3d9c6ba","system_id":"levelo_inurba_marseille","lat":43.33781,"lon":5.37431,"is_reserved":false,"is_disabled":false,"rental_uris":{"android":"levelo://app?vid=4f27c235-11df-4df2-bfdf-8938c3d9c6ba","ios":"levelo://app?vid=4f27c235-11df-4df2-bfdf-8938c3d9c6ba"},"vehicle_type_id":"4","last_reported":1762978310,"current_range_meters":16400,"station_id":"","pricing_plan_id":"cebpf4jnsgd1na2vs0mg"},{"bike_id":"35923b03-6ede-4f33-9cb2-65427ae262b2","system_id":"levelo_inurba_marseille","lat":43.29277,"lon":5.40113,"is_reserved":false,"is_disabled":false,"rental_uris":{"android":"levelo://app?vid=35923b03-6ede-4f33-9cb2-65427ae262b2","ios":"levelo://app?vid=35923b03-6ede-4f33-9cb2-65427ae262b2"},"vehicle_type_id":"4","last_reported":1762978310,"current_range_meters":16400,"station_id":"ce4bh312rcd13ifvqdk0","pricing_plan_id":"cebpf4jnsgd1na2vs0mg"},{"bike_id":"b973542d-88ff-4253-9b4e-a75517007190","system_id":"levelo_inurba_marseille","lat":43.29674,"lon":5.37587,"is_reserved":false,"is_disabled":false,"rental_uris":{"android":"levelo://app?vid=b973542d-88ff-4253-9b4e-a75517007190","ios":"levelo://app?vid=b973542d-88ff-4253-9b4e-a75517007190"},"vehicle_type_id":"4","last_reported":1762978310,"current_range_meters":16400,"station_id":"","pricing_plan_id":"cebpf4jnsgd1na2vs0mg"},{"bike_id":"79404e7b-1358-4ab5-be99-b587e088403f","system_id":"levelo_inurba_marseille","lat":43.29594,"lon":5.3959,"is_reserved":false,"is_disabled":false,"rental_uris":{"android":"levelo://app?vid=79404e7b-1358-4ab5-be99-b587e088403f","ios":"levelo://app?vid=79404e7b-1358-4ab5-be99-b587e088403f"},"vehicle_type_id":"4","last_reported":1762978310,"current_range_meters":16400,"station_id":"","pricing_plan_id":"cebpf4jnsgd1na2vs0mg"},{"bike_id":"ff1b7513-d74e-4a2c-91eb-cb068932e6bc","system_id":"levelo_inurba_marseille","lat":43.290283,"lon":5.386538,"is_reserved":false,"is_disabled":false,"rental_uris":{"android":"levelo://app?vid=ff1b7513-d74e-4a2c-91eb-cb068932e6bc","ios":"levelo://app?vid=ff1b7513-d74e-4a2c-91eb-cb068932e6bc"},"vehicle_type_id":"4","last_reported":1762978310,"current_range_meters":16400,"station_id":"ce4bh4p2rcd13ifvqe0g","pricing_plan_id":"cebpf4jnsgd1na2vs0mg"},{"bike_id":"3caafccc-1fa7-43b6-83ca-fc079471ab0f","system_id":"levelo_inurba_marseille","lat":43.29538,"lon":5.39045,"is_reserved":false,"is_disabled":false,"rental_uris":{"android":"levelo://app?vid=3caafccc-1fa7-43b6-83ca-fc079471ab0f","ios":"levelo://app?vid=3caafccc-1fa7-43b6-83ca-fc079471ab0f"},"vehicle_type_id":"4","last_reported":1762978310,"current_range_meters":16400,"station_id":"ce4bh3p2rcd13ifvqdp0","pricing_plan_id":"cebpf4jnsgd1na2vs0mg"},{"bike_id":"3eca2ea7-2c41-4e92-859a-5ddc9884f501","system_id":"levelo_inurba_marseille","lat":43.30333,"lon":5.4044,"is_reserved":false,"is_disabled":false,"rental_uris":{"android":"levelo://app?vid=3eca2ea7-2c41-4e92-859a-5ddc9884f501","ios":"levelo://app?vid=3eca2ea7-2c41-4e92-859a-5ddc9884f501"},"vehicle_type_id":"4","last_reported":1762978310,"current_range_meters":16800,"station_id":"ce4bh012rcd13ifvqd10","pricing_plan_id":"cebpf4jnsgd1na2vs0mg"},{"bike_id":"4b926498-271a-4963-83a6-559ab4ed6bc8","system_id":"levelo_inurba_marseille","lat":43.299735,"lon":5.371787,"is_reserved":false,"is_disabled":false,"rental_uris":{"android":"levelo://app?vid=4b926498-271a-4963-83a6-559ab4ed6bc8","ios":"levelo://app?vid=4b926498-271a-4963-83a6-559ab4ed6bc8"},"vehicle_type_id":"4","last_reported":1762978310,"current_range_meters":16800,"station_id":"ce4bgr92rcd13ifvqc7g","pricing_plan_id":"cebpf4jnsgd1na2vs0mg"},{"bike_id":"6456e69b-1a5e-4ad6-9ace-abe8f5c52db8","system_id":"levelo_inurba_marseille","lat":43.2795,"lon":5.41025,"is_reserved":false,"is_disabled":false,"rental_uris":{"android":"levelo://app?vid=6456e69b-1a5e-4ad6-9ace-abe8f5c52db8","ios":"levelo://app?vid=6456e69b-1a5e-4ad6-9ace-abe8f5c52db8"},"vehicle_type_id":"4","last_reported":1762978310,"current_range_meters":16800,"station_id":"ce4bhnp2rcd13ifvqh0g","pricing_plan_id":"cebpf4jnsgd1na2vs0mg"},{"bike_id":"542d0c9a-c65b-4a63-af12-ec86fe7d37ab","system_id":"levelo_inurba_marseille","lat":43.26212,"lon":5.37439,"is_reserved":false,"is_disabled":false,"rental_uris":{"android":"levelo://app?vid=542d0c9a-c65b-4a63-af12-ec86fe7d37ab","ios":"levelo://app?vid=542d0c9a-c65b-4a63-af12-ec86fe7d37ab"},"vehicle_type_id":"4","last_reported":1762978310,"current_range_meters":16800,"station_id":"ce4bhgp2rcd13ifvqfc0","pricing_plan_id":"cebpf4jnsgd1na2vs0mg"},{"bike_id":"e690290b-b188-4bf4-9457-b92ed6970cb4","system_id":"levelo_inurba_marseille","lat":43.21175,"lon":5.35068,"is_reserved":false,"is_disabled":true,"rental_uris":{"android":"levelo://app?vid=e690290b-b188-4bf4-9457-b92ed6970cb4","ios":"levelo://app?vid=e690290b-b188-4bf4-9457-b92ed6970cb4"},"vehicle_type_id":"4","last_reported":1762978310,"current_range_meters":16800,"station_id":"st_cvj6sg6p6f1abm77japg","pricing_plan_id":"cebpf4jnsgd1na2vs0mg"},{"bike_id":"b80b8c27-b467-4050-91d7-19f47b806502","system_id":"levelo_inurba_marseille","lat":43.33023,"lon":5.39026,"is_reserved":false,"is_disabled":false,"rental_uris":{"android":"levelo://app?vid=b80b8c27-b467-4050-91d7-19f47b806502","ios":"levelo://app?vid=b80b8c27-b467-4050-91d7-19f47b806502"},"vehicle_type_id":"4","last_reported":1762978310,"current_range_meters":16800,"station_id":"ce4bhr92rcd13ifvqhrg","pricing_plan_id":"cebpf4jnsgd1na2vs0mg"},{"bike_id":"3a6ce359-2e10-4192-8fae-b19342b6cc17","system_id":"levelo_inurba_marseille","lat":43.289357,"lon":5.366472,"is_reserved":false,"is_disabled":false,"rental_uris":{"android":"levelo://app?vid=3a6ce359-2e10-4192-8fae-b19342b6cc17","ios":"levelo://app?vid=3a6ce359-2e10-4192-8fae-b19342b6cc17"},"vehicle_type_id":"4","last_reported":1762978310,"current_range_meters":16800,"station_id":"ce4bhap2rcd13ifvqek0","pricing_plan_id":"cebpf4jnsgd1na2vs0mg"},{"bike_id":"903287de-7d51-43b1-ac42-48539c01cfe7","system_id":"levelo_inurba_marseille","lat":43.27663,"lon":5.38873,"is_reserved":false,"is_disabled":false,"rental_uris":{"android":"levelo://app?vid=903287de-7d51-43b1-ac42-48539c01cfe7","ios":"levelo://app?vid=903287de-7d51-43b1-ac42-48539c01cfe7"},"vehicle_type_id":"4","last_reported":1762978310,"current_range_meters":16800,"station_id":"ce4bhi12rcd13ifvqfo0","pricing_plan_id":"cebpf4jnsgd1na2vs0mg"},{"bike_id":"e1706c8d-f192-4416-9870-2e84b490d3e9","system_id":"levelo_inurba_marseille","lat":43.2846,"lon":5.35877,"is_reserved":false,"is_disabled":false,"rental_uris":{"android":"levelo://app?vid=e1706c8d-f192-4416-9870-2e84b490d3e9","ios":"levelo://app?vid=e1706c8d-f192-4416-9870-2e84b490d3e9"},"vehicle_type_id":"4","last_reported":1762978310,"current_range_meters":16800,"station_id":"ce4bhah2rcd13ifvqei0","pricing_plan_id":"cebpf4jnsgd1na2vs0mg"},{"bike_id":"c95dc5fd-18e7-419d-8269-56dbac9b3251","system_id":"levelo_inurba_marseille","lat":43.29536,"lon":5.38543,"is_reserved":false,"is_disabled":false,"rental_uris":{"android":"levelo://app?vid=c95dc5fd-18e7-419d-8269-56dbac9b3251","ios":"levelo://app?vid=c95dc5fd-18e7-419d-8269-56dbac9b3251"},"vehicle_type_id":"4","last_reported":1762978310,"current_range_meters":17200,"station_id":"ce4bgih2rcd13ifvqba0","pricing_plan_id":"cebpf4jnsgd1na2vs0mg"},{"bike_id":"caf4a479-7606-4ba3-be73-6ec4b3e22403","system_id":"levelo_inurba_marseille","lat":43.27618,"lon":5.36104,"is_reserved":false,"is_disabled":false,"rental_uris":{"android":"levelo://app?vid=caf4a479-7606-4ba3-be73-6ec4b3e22403","ios":"levelo://app?vid=caf4a479-7606-4ba3-be73-6ec4b3e22403"},"vehicle_type_id":"4","last_reported":1762978310,"current_range_meters":17200,"station_id":"ce4bgj92rcd13ifvqbe0","pricing_plan_id":"cebpf4jnsgd1na2vs0mg"},{"bike_id":"3f3db3e0-8786-462c-9790-1156703a5fd2","system_id":"levelo_inurba_marseille","lat":43.229361,"lon":5.353585,"is_reserved":false,"is_disabled":false,"rental_uris":{"android":"levelo://app?vid=3f3db3e0-8786-462c-9790-1156703a5fd2","ios":"levelo://app?vid=3f3db3e0-8786-462c-9790-1156703a5fd2"},"vehicle_type_id":"4","last_reported":1762978310,"current_range_meters":17200,"station_id":"cpo3532slgdg3j2ikp40","pricing_plan_id":"cebpf4jnsgd1na2vs0mg"},{"bike_id":"b4690592-b42c-4b28-ad7d-a3949bf94fa1","system_id":"levelo_inurba_marseille","lat":43.29886,"lon":5.38905,"is_reserved":false,"is_disabled":false,"rental_uris":{"android":"levelo://app?vid=b4690592-b42c-4b28-ad7d-a3949bf94fa1","ios":"levelo://app?vid=b4690592-b42c-4b28-ad7d-a3949bf94fa1"},"vehicle_type_id":"4","last_reported":1762978310,"current_range_meters":17200,"station_id":"ce4bh392rcd13ifvqdl0","pricing_plan_id":"cebpf4jnsgd1na2vs0mg"},{"bike_id":"78a4090b-042e-49d9-aef9-8e812160d109","system_id":"levelo_inurba_marseille","lat":43.31728,"lon":5.43696,"is_reserved":false,"is_disabled":false,"rental_uris":{"android":"levelo://app?vid=78a4090b-042e-49d9-aef9-8e812160d109","ios":"levelo://app?vid=78a4090b-042e-49d9-aef9-8e812160d109"},"vehicle_type_id":"4","last_reported":1762978310,"current_range_meters":17200,"station_id":"ce4bhp92rcd13ifvqhcg","pricing_plan_id":"cebpf4jnsgd1na2vs0mg"},{"bike_id":"7b9abc87-202c-42c8-ad91-b17933b40e10","system_id":"levelo_inurba_marseille","lat":43.3065,"lon":5.40107,"is_reserved":false,"is_disabled":false,"rental_uris":{"android":"levelo://app?vid=7b9abc87-202c-42c8-ad91-b17933b40e10","ios":"levelo://app?vid=7b9abc87-202c-42c8-ad91-b17933b40e10"},"vehicle_type_id":"4","last_reported":1762978310,"current_range_meters":17200,"station_id":"ce4bh112rcd13ifvqda0","pricing_plan_id":"cebpf4jnsgd1na2vs0mg"},{"bike_id":"f43b441c-0831-4dc7-a5ed-3e9850e7fab4","system_id":"levelo_inurba_marseille","lat":43.29276,"lon":5.36851,"is_reserved":false,"is_disabled":false,"rental_uris":{"android":"levelo://app?vid=f43b441c-0831-4dc7-a5ed-3e9850e7fab4","ios":"levelo://app?vid=f43b441c-0831-4dc7-a5ed-3e9850e7fab4"},"vehicle_type_id":"4","last_reported":1762978310,"current_range_meters":17200,"station_id":"ce4bhbp2rcd13ifvqesg","pricing_plan_id":"cebpf4jnsgd1na2vs0mg"},{"bike_id":"6d5524ad-0000-4dd3-a9b1-0d0005c5d550","system_id":"levelo_inurba_marseille","lat":43.330336,"lon":5.390177,"is_reserved":false,"is_disabled":false,"rental_uris":{"android":"levelo://app?vid=6d5524ad-0000-4dd3-a9b1-0d0005c5d550","ios":"levelo://app?vid=6d5524ad-0000-4dd3-a9b1-0d0005c5d550"},"vehicle_type_id":"4","last_reported":1762978310,"current_range_meters":17600,"station_id":"ce4bhr92rcd13ifvqhrg","pricing_plan_id":"cebpf4jnsgd1na2vs0mg"},{"bike_id":"673b7232-5698-47bd-a516-6b5e51a276a1","system_id":"levelo_inurba_marseille","lat":43.30206,"lon":5.39458,"is_reserved":false,"is_disabled":false,"rental_uris":{"android":"levelo://app?vid=673b7232-5698-47bd-a516-6b5e51a276a1","ios":"levelo://app?vid=673b7232-5698-47bd-a516-6b5e51a276a1"},"vehicle_type_id":"4","last_reported":1762978310,"current_range_meters":17600,"station_id":"ce4bh0p2rcd13ifvqd70","pricing_plan_id":"cebpf4jnsgd1na2vs0mg"},{"bike_id":"30b41e82-9b75-44bc-b241-bf93939ebc74","system_id":"levelo_inurba_marseille","lat":43.28867,"lon":5.42513,"is_reserved":false,"is_disabled":false,"rental_uris":{"android":"levelo://app?vid=30b41e82-9b75-44bc-b241-bf93939ebc74","ios":"levelo://app?vid=30b41e82-9b75-44bc-b241-bf93939ebc74"},"vehicle_type_id":"4","last_reported":1762978310,"current_range_meters":17600,"station_id":"st_d3b462108ojc7389ooeg","pricing_plan_id":"cebpf4jnsgd1na2vs0mg"},{"bike_id":"cc0f8ca4-ae33-432c-aefe-5c00c9e85faf","system_id":"levelo_inurba_marseille","lat":43.28872,"lon":5.42504,"is_reserved":false,"is_disabled":false,"rental_uris":{"android":"levelo://app?vid=cc0f8ca4-ae33-432c-aefe-5c00c9e85faf","ios":"levelo://app?vid=cc0f8ca4-ae33-432c-aefe-5c00c9e85faf"},"vehicle_type_id":"4","last_reported":1762978310,"current_range_meters":17600,"station_id":"st_d3b462108ojc7389ooeg","pricing_plan_id":"cebpf4jnsgd1na2vs0mg"},{"bike_id":"4930e871-eeac-40ca-b4ee-36ddc8ee3366","system_id":"levelo_inurba_marseille","lat":43.23192,"lon":5.35558,"is_reserved":false,"is_disabled":false,"rental_uris":{"android":"levelo://app?vid=4930e871-eeac-40ca-b4ee-36ddc8ee3366","ios":"levelo://app?vid=4930e871-eeac-40ca-b4ee-36ddc8ee3366"},"vehicle_type_id":"4","last_reported":1762978310,"current_range_meters":17600,"station_id":"ce4bhu92rcd13ifvqi70","pricing_plan_id":"cebpf4jnsgd1na2vs0mg"},{"bike_id":"61259666-4479-46b9-860b-188b1964573a","system_id":"levelo_inurba_marseille","lat":43.27585,"lon":5.38431,"is_reserved":false,"is_disabled":false,"rental_uris":{"android":"levelo://app?vid=61259666-4479-46b9-860b-188b1964573a","ios":"levelo://app?vid=61259666-4479-46b9-860b-188b1964573a"},"vehicle_type_id":"4","last_reported":1762978310,"current_range_meters":17600,"station_id":"ce4bhh92rcd13ifvqfi0","pricing_plan_id":"cebpf4jnsgd1na2vs0mg"},{"bike_id":"a72cb3ca-4f34-4d6c-a478-04fdf2086834","system_id":"levelo_inurba_marseille","lat":43.280987,"lon":5.378338,"is_reserved":false,"is_disabled":false,"rental_uris":{"android":"levelo://app?vid=a72cb3ca-4f34-4d6c-a478-04fdf2086834","ios":"levelo://app?vid=a72cb3ca-4f34-4d6c-a478-04fdf2086834"},"vehicle_type_id":"4","last_reported":1762978310,"current_range_meters":17600,"station_id":"ce4bha12rcd13ifvqee0","pricing_plan_id":"cebpf4jnsgd1na2vs0mg"},{"bike_id":"4a4dd8aa-274c-4cd0-ba99-6ade21fc306a","system_id":"levelo_inurba_marseille","lat":43.28564,"lon":5.3951,"is_reserved":false,"is_disabled":false,"rental_uris":{"android":"levelo://app?vid=4a4dd8aa-274c-4cd0-ba99-6ade21fc306a","ios":"levelo://app?vid=4a4dd8aa-274c-4cd0-ba99-6ade21fc306a"},"vehicle_type_id":"4","last_reported":1762978310,"current_range_meters":18000,"station_id":"ce4bh292rcd13ifvqdg0","pricing_plan_id":"cebpf4jnsgd1na2vs0mg"},{"bike_id":"c83b5c1b-edab-4bfb-a2f2-d3468c55c2ba","system_id":"levelo_inurba_marseille","lat":43.29166,"lon":5.44874,"is_reserved":false,"is_disabled":false,"rental_uris":{"android":"levelo://app?vid=c83b5c1b-edab-4bfb-a2f2-d3468c55c2ba","ios":"levelo://app?vid=c83b5c1b-edab-4bfb-a2f2-d3468c55c2ba"},"vehicle_type_id":"4","last_reported":1762978310,"current_range_meters":18000,"station_id":"","pricing_plan_id":"cebpf4jnsgd1na2vs0mg"},{"bike_id":"7a1ef263-c216-402e-bafc-92d8214c104a","system_id":"levelo_inurba_marseille","lat":43.337444,"lon":5.374475,"is_reserved":false,"is_disabled":false,"rental_uris":{"android":"levelo://app?vid=7a1ef263-c216-402e-bafc-92d8214c104a","ios":"levelo://app?vid=7a1ef263-c216-402e-bafc-92d8214c104a"},"vehicle_type_id":"4","last_reported":1762978310,"current_range_meters":18000,"station_id":"","pricing_plan_id":"cebpf4jnsgd1na2vs0mg"},{"bike_id":"bcd2e084-91d6-4e09-95f6-e8ef61d3a345","system_id":"levelo_inurba_marseille","lat":43.29264,"lon":5.38445,"is_reserved":false,"is_disabled":false,"rental_uris":{"android":"levelo://app?vid=bcd2e084-91d6-4e09-95f6-e8ef61d3a345","ios":"levelo://app?vid=bcd2e084-91d6-4e09-95f6-e8ef61d3a345"},"vehicle_type_id":"4","last_reported":1762978310,"current_range_meters":18000,"station_id":"ce4bh692rcd13ifvqea0","pricing_plan_id":"cebpf4jnsgd1na2vs0mg"},{"bike_id":"fc49e022-916b-4364-8aae-868a9613aae0","system_id":"levelo_inurba_marseille","lat":43.27815,"lon":5.40701,"is_reserved":false,"is_disabled":false,"rental_uris":{"android":"levelo://app?vid=fc49e022-916b-4364-8aae-868a9613aae0","ios":"levelo://app?vid=fc49e022-916b-4364-8aae-868a9613aae0"},"vehicle_type_id":"4","last_reported":1762978310,"current_range_meters":18000,"station_id":"ce4bhnh2rcd13ifvqgtg","pricing_plan_id":"cebpf4jnsgd1na2vs0mg"},{"bike_id":"babf4e35-64de-4bb1-91c7-0ec7bb8cea6d","system_id":"levelo_inurba_marseille","lat":43.29195,"lon":5.39318,"is_reserved":false,"is_disabled":false,"rental_uris":{"android":"levelo://app?vid=babf4e35-64de-4bb1-91c7-0ec7bb8cea6d","ios":"levelo://app?vid=babf4e35-64de-4bb1-91c7-0ec7bb8cea6d"},"vehicle_type_id":"4","last_reported":1762978310,"current_range_meters":18000,"station_id":"ce4bh192rcd13ifvqdd0","pricing_plan_id":"cebpf4jnsgd1na2vs0mg"},{"bike_id":"8804de1c-4a0f-48bf-b7dc-799c7e34c7ad","system_id":"levelo_inurba_marseille","lat":43.29254,"lon":5.38443,"is_reserved":false,"is_disabled":false,"rental_uris":{"android":"levelo://app?vid=8804de1c-4a0f-48bf-b7dc-799c7e34c7ad","ios":"levelo://app?vid=8804de1c-4a0f-48bf-b7dc-799c7e34c7ad"},"vehicle_type_id":"4","last_reported":1762978310,"current_range_meters":18000,"station_id":"ce4bh692rcd13ifvqea0","pricing_plan_id":"cebpf4jnsgd1na2vs0mg"},{"bike_id":"06a1c1bb-f887-4ddc-a192-0a58d2567450","system_id":"levelo_inurba_marseille","lat":43.30128,"lon":5.39866,"is_reserved":false,"is_disabled":false,"rental_uris":{"android":"levelo://app?vid=06a1c1bb-f887-4ddc-a192-0a58d2567450","ios":"levelo://app?vid=06a1c1bb-f887-4ddc-a192-0a58d2567450"},"vehicle_type_id":"4","last_reported":1762978310,"current_range_meters":18000,"station_id":"ce4bh0h2rcd13ifvqd40","pricing_plan_id":"cebpf4jnsgd1na2vs0mg"},{"bike_id":"391b3278-3208-4e0c-bd19-cbc0fc131758","system_id":"levelo_inurba_marseille","lat":43.30647,"lon":5.40099,"is_reserved":false,"is_disabled":false,"rental_uris":{"android":"levelo://app?vid=391b3278-3208-4e0c-bd19-cbc0fc131758","ios":"levelo://app?vid=391b3278-3208-4e0c-bd19-cbc0fc131758"},"vehicle_type_id":"4","last_reported":1762978310,"current_range_meters":18800,"station_id":"ce4bh112rcd13ifvqda0","pricing_plan_id":"cebpf4jnsgd1na2vs0mg"},{"bike_id":"06eb574a-64cf-47d8-af69-ac973ce42a77","system_id":"levelo_inurba_marseille","lat":43.25571,"lon":5.38241,"is_reserved":false,"is_disabled":false,"rental_uris":{"android":"levelo://app?vid=06eb574a-64cf-47d8-af69-ac973ce42a77","ios":"levelo://app?vid=06eb574a-64cf-47d8-af69-ac973ce42a77"},"vehicle_type_id":"4","last_reported":1762978310,"current_range_meters":18800,"station_id":"ce4bhih2rcd13ifvqfs0","pricing_plan_id":"cebpf4jnsgd1na2vs0mg"},{"bike_id":"88350d12-f31c-4002-a3ec-e8b3cda6510b","system_id":"levelo_inurba_marseille","lat":43.23791,"lon":5.36628,"is_reserved":false,"is_disabled":false,"rental_uris":{"android":"levelo://app?vid=88350d12-f31c-4002-a3ec-e8b3cda6510b","ios":"levelo://app?vid=88350d12-f31c-4002-a3ec-e8b3cda6510b"},"vehicle_type_id":"4","last_reported":1762978310,"current_range_meters":18800,"station_id":"st_d3nk18o9ro0c73en2l3g","pricing_plan_id":"cebpf4jnsgd1na2vs0mg"},{"bike_id":"b646e2f2-b071-4c6f-89d2-eff54f20a17e","system_id":"levelo_inurba_marseille","lat":43.3135,"lon":5.39673,"is_reserved":false,"is_disabled":false,"rental_uris":{"android":"levelo://app?vid=b646e2f2-b071-4c6f-89d2-eff54f20a17e","ios":"levelo://app?vid=b646e2f2-b071-4c6f-89d2-eff54f20a17e"},"vehicle_type_id":"4","last_reported":1762978310,"current_range_meters":18800,"station_id":"ce4bgvp2rcd13ifvqcu0","pricing_plan_id":"cebpf4jnsgd1na2vs0mg"},{"bike_id":"d6fa9734-f896-4408-a7d0-0e562ae66637","system_id":"levelo_inurba_marseille","lat":43.284167,"lon":5.375101,"is_reserved":false,"is_disabled":false,"rental_uris":{"android":"levelo://app?vid=d6fa9734-f896-4408-a7d0-0e562ae66637","ios":"levelo://app?vid=d6fa9734-f896-4408-a7d0-0e562ae66637"},"vehicle_type_id":"4","last_reported":1762978310,"current_range_meters":18800,"station_id":"ce4bh412rcd13ifvqds0","pricing_plan_id":"cebpf4jnsgd1na2vs0mg"},{"bike_id":"102b23dc-55e9-45a4-b397-3aaefdf8d65a","system_id":"levelo_inurba_marseille","lat":43.27913,"lon":5.42194,"is_reserved":false,"is_disabled":false,"rental_uris":{"android":"levelo://app?vid=102b23dc-55e9-45a4-b397-3aaefdf8d65a","ios":"levelo://app?vid=102b23dc-55e9-45a4-b397-3aaefdf8d65a"},"vehicle_type_id":"4","last_reported":1762978310,"current_range_meters":18800,"station_id":"","pricing_plan_id":"cebpf4jnsgd1na2vs0mg"},