{"last_updated":1685772493,"ttl":30,"version":"2.2","data":{"bikes":[{"bike_id":"1fb4b5bf-cc44-4877-a3dc-d22f46130bca","system_id":"levelo_inurba_marseille","lat":43.314811,"lon":5.373103,"is_reserved":false,"is_disabled":false,"rental_uris":{"android":"levelo://app?vid=1fb4b5bf-cc44-4877-a3dc-d22f46130bca","ios":"levelo://app?vid=1fb4b5bf-cc44-4877-a3dc-d22f46130bca"},"vehicle_type_id":"4","last_reported":1685772493,"current_range_meters":31200,"station_id":"ce4bgt12rcd13ifvqcd0","pricing_plan_id":"free"},{"bike_id":"5fe628e7-49d0-4ada-8d54-dc0fbee87ebe","system_id":"levelo_inurba_marseille","lat":43.314811,"lon":5.373103,"is_reserved":false,"is_disabled":false,"rental_uris":{"android":"levelo://app?vid=5fe628e7-49d0-4ada-8d54-dc0fbee87ebe","ios":"levelo://app?vid=5fe628e7-49d0-4ada-8d54-dc0fbee87ebe"},"vehicle_type_id":"4","last_reported":1685772493,"current_range_meters":14400,"station_id":"ce4bgt12rcd13ifvqcd0","pricing_plan_id":"free"},{"bike_id":"82499d9c-5a38-486e-9374-f779bdcf728c","system_id":"levelo_inurba_marseille","lat":43.31553,"lon":5.37308,"is_reserved":false,"is_disabled":false,"rental_uris":{"android":"levelo://app?vid=82499d9c-5a38-486e-9374-f779bdcf728c","ios":"levelo://app?vid=82499d9c-5a38-486e-9374-f779bdcf728c"},"vehicle_type_id":"4","last_reported":1685772493,"current_range_meters":4000,"station_id":"","pricing_plan_id":"free"},{"bike_id":"e5e7ebe9-ccb8-4d4c-80d3-0ccfde231f64","system_id":"levelo_inurba_marseille","lat":43.31555,"lon":5.37319,"is_reserved":false,"is_disabled":false,"rental_uris":{"android":"levelo://app?vid=e5e7ebe9-ccb8-4d4c-80d3-0ccfde231f64","ios":"levelo://app?vid=e5e7ebe9-ccb8-4d4c-80d3-0ccfde231f64"},"vehicle_type_id":"4","last_reported":1685772493,"current_range_meters":22800,"station_id":"","pricing_plan_id":"free"},{"bike_id":"25a8dcab-ece4-42b7-a12a-a0dd7d71635f","system_id":"levelo_inurba_marseille","lat":43.30901,"lon":5.37268,"is_reserved":false,"is_disabled":false,"rental_uris":{"android":"levelo://app?vid=25a8dcab-ece4-42b7-a12a-a0dd7d71635f","ios":"levelo://app?vid=25a8dcab-ece4-42b7-a12a-a0dd7d71635f"},"vehicle_type_id":"4","last_reported":1685772493,"current_range_meters":10800,"station_id":"","pricing_plan_id":"free"},{"bike_id":"4d43e892-ec90-4fce-8475-f727fed3851f","system_id":"levelo_inurba_marseille","lat":43.31981,"lon":5.36583,"is_reserved":false,"is_disabled":false,"rental_uris":{"android":"levelo://app?vid=4d43e892-ec90-4fce-8475-f727fed3851f","ios":"levelo://app?vid=4d43e892-ec90-4fce-8475-f727fed3851f"},"vehicle_type_id":"4","last_reported":1685772493,"current_range_meters":6400,"station_id":"","pricing_plan_id":"free"},{"bike_id":"890e93ac-4bac-484a-baff-b468d73fa7c8","system_id":"levelo_inurba_marseille","lat":43.31362,"lon":5.37667,"is_reserved":false,"is_disabled":false,"rental_uris":{"android":"levelo://app?vid=890e93ac-4bac-484a-baff-b468d73fa7c8","ios":"levelo://app?vid=890e93ac-4bac-484a-baff-b468d73fa7c8"},"vehicle_type_id":"4","last_reported":1685772493,"current_range_meters":12400,"station_id":"","pricing_plan_id":"free"},{"bike_id":"c0ae5d9e-609f-486d-8740-93d21e579c29","system_id":"levelo_inurba_marseille","lat":43.305989,"lon":5.37225,"is_reserved":false,"is_disabled":false,"rental_uris":{"android":"levelo://app?vid=c0ae5d9e-609f-486d-8740-93d21e579c29","ios":"levelo://app?vid=c0ae5d9e-609f-486d-8740-93d21e579c29"},"vehicle_type_id":"4","last_reported":1685772493,"current_range_meters":1600,"station_id":"ce4bgqh2rcd13ifvqc4g","pricing_plan_id":"free"},{"bike_id":"65554d33-b508-436a-aac9-544974e5f617","system_id":"levelo_inurba_marseille","lat":43.311175,"lon":5.377713,"is_reserved":false,"is_disabled":false,"rental_uris":{"android":"levelo://app?vid=65554d33-b508-436a-aac9-544974e5f617","ios":"levelo://app?vid=65554d33-b508-436a-aac9-544974e5f617"},"vehicle_type_id":"4","last_reported":1685772493,"current_range_meters":22400,"station_id":"","pricing_plan_id":"free"},{"bike_id":"a91fb8cf-e718-479d-8e70-1fbfea89140d","system_id":"levelo_inurba_marseille","lat":43.311131,"lon":5.377651,"is_reserved":false,"is_disabled":false,"rental_uris":{"android":"levelo://app?vid=a91fb8cf-e718-479d-8e70-1fbfea89140d","ios":"levelo://app?vid=a91fb8cf-e718-479d-8e70-1fbfea89140d"},"vehicle_type_id":"4","last_reported":1685772493,"current_range_meters":31200,"station_id":"ce4bgt92rcd13ifvqcg0","pricing_plan_id":"free"},{"bike_id":"2720c82b-8f58-4e14-b6c7-3659ed4d53b3","system_id":"levelo_inurba_marseille","lat":43.30315,"lon":5.36908,"is_reserved":false,"is_disabled":false,"rental_uris":{"android":"levelo://app?vid=2720c82b-8f58-4e14-b6c7-3659ed4d53b3","ios":"levelo://app?vid=2720c82b-8f58-4e14-b6c7-3659ed4d53b3"},"vehicle_type_id":"4","last_reported":1685772493,"current_range_meters":0,"station_id":"ce4bgqh2rcd13ifvqc5g","pricing_plan_id":"free"},{"bike_id":"275b9781-71e8-4428-a75a-6359edbe9eb0","system_id":"levelo_inurba_marseille","lat":43.30303,"lon":5.36887,"is_reserved":false,"is_disabled":false,"rental_uris":{"android":"levelo://app?vid=275b9781-71e8-4428-a75a-6359edbe9eb0","ios":"levelo://app?vid=275b9781-71e8-4428-a75a-6359edbe9eb0"},"vehicle_type_id":"4","last_reported":1685772493,"current_range_meters":26400,"station_id":"ce4bgqh2rcd13ifvqc5g","pricing_plan_id":"free"},{"bike_id":"64668d62-2c56-40da-9e4a-cb84a2c2ea4d","system_id":"levelo_inurba_marseille","lat":43.31002,"lon":5.38021,"is_reserved":false,"is_disabled":false,"rental_uris":{"android":"levelo://app?vid=64668d62-2c56-40da-9e4a-cb84a2c2ea4d","ios":"levelo://app?vid=64668d62-2c56-40da-9e4a-cb84a2c2ea4d"},"vehicle_type_id":"4","last_reported":1685772493,"current_range_meters":0,"station_id":"","pricing_plan_id":"free"},{"bike_id":"fb0501dc-44ad-44c3-a3d1-a124b583b9e2","system_id":"levelo_inurba_marseille","lat":43.30464,"lon":5.37895,"is_reserved":false,"is_disabled":false,"rental_uris":{"android":"levelo://app?vid=fb0501dc-44ad-44c3-a3d1-a124b583b9e2","ios":"levelo://app?vid=fb0501dc-44ad-44c3-a3d1-a124b583b9e2"},"vehicle_type_id":"4","last_reported":1685772493,"current_range_meters":28800,"station_id":"ce4bgup2rcd13ifvqcn0","pricing_plan_id":"free"},{"bike_id":"46ca6b7e-2b8f-4eae-874b-7008be599951","system_id":"levelo_inurba_marseille","lat":43.30464,"lon":5.37899,"is_reserved":false,"is_disabled":false,"rental_uris":{"android":"levelo://app?vid=46ca6b7e-2b8f-4eae-874b-7008be599951","ios":"levelo://app?vid=46ca6b7e-2b8f-4eae-874b-7008be599951"},"vehicle_type_id":"4","last_reported":1685772493,"current_range_meters":24800,"station_id":"ce4bgup2rcd13ifvqcn0","pricing_plan_id":"free"},{"bike_id":"1b5f196e-3ce8-400b-af76-452ea47021e9","system_id":"levelo_inurba_marseille","lat":43.304606,"lon":5.379026,"is_reserved":false,"is_disabled":false,"rental_uris":{"android":"levelo://app?vid=1b5f196e-3ce8-400b-af76-452ea47021e9","ios":"levelo://app?vid=1b5f196e-3ce8-400b-af76-452ea47021e9"},"vehicle_type_id":"4","last_reported":1685772493,"current_range_meters":28800,"station_id":"ce4bgup2rcd13ifvqcn0","pricing_plan_id":"free"},{"bike_id":"d0d2f117-95b9-484e-9bde-2f761bb31f16","system_id":"levelo_inurba_marseille","lat":43.30464,"lon":5.379,"is_reserved":false,"is_disabled":false,"rental_uris":{"android":"levelo://app?vid=d0d2f117-95b9-484e-9bde-2f761bb31f16","ios":"levelo://app?vid=d0d2f117-95b9-484e-9bde-2f761bb31f16"},"vehicle_type_id":"4","last_reported":1685772493,"current_range_meters":30800,"station_id":"ce4bgup2rcd13ifvqcn0","pricing_plan_id":"free"},{"bike_id":"4c6018dc-cd43-4c35-82fa-f456180b5edc","system_id":"levelo_inurba_marseille","lat":43.304606,"lon":5.379026,"is_reserved":false,"is_disabled":false,"rental_uris":{"android":"levelo://app?vid=4c6018dc-cd43-4c35-82fa-f456180b5edc","ios":"levelo://app?vid=4c6018dc-cd43-4c35-82fa-f456180b5edc"},"vehicle_type_id":"4","last_reported":1685772493,"current_range_meters":28800,"station_id":"ce4bgup2rcd13ifvqcn0","pricing_plan_id":"free"},{"bike_id":"cd84a9c0-c682-4b60-b19c-77443aff6570","system_id":"levelo_inurba_marseille","lat":43.304606,"lon":5.379026,"is_reserved":false,"is_disabled":false,"rental_uris":{"android":"levelo://app?vid=cd84a9c0-c682-4b60-b19c-77443aff6570","ios":"levelo://app?vid=cd84a9c0-c682-4b60-b19c-77443aff6570"},"vehicle_type_id":"4","last_reported":1685772493,"current_range_meters":11600,"station_id":"ce4bgup2rcd13ifvqcn0","pricing_plan_id":"free"},{"bike_id":"2528c877-570b-429f-a573-a94c79a8b232","system_id":"levelo_inurba_marseille","lat":43.30457,"lon":5.378984,"is_reserved":false,"is_disabled":false,"rental_uris":{"android":"levelo://app?vid=2528c877-570b-429f-a573-a94c79a8b232","ios":"levelo://app?vid=2528c877-570b-429f-a573-a94c79a8b232"},"vehicle_type_id":"4","last_reported":1685772493,"current_range_meters":24800,"station_id":"ce4bgup2rcd13ifvqcn0","pricing_plan_id":"free"},{"bike_id":"e99d0f75-bc4b-4e78-940e-90422bb698a7","system_id":"levelo_inurba_marseille","lat":43.304606,"lon":5.379026,"is_reserved":false,"is_disabled":false,"rental_uris":{"android":"levelo://app?vid=e99d0f75-bc4b-4e78-940e-90422bb698a7","ios":"levelo://app?vid=e99d0f75-bc4b-4e78-940e-90422bb698a7"},"vehicle_type_id":"4","last_reported":1685772493,"current_range_meters":31200,"station_id":"ce4bgup2rcd13ifvqcn0","pricing_plan_id":"free"},{"bike_id":"b6af2cee-22c0-4696-a3cc-c5ab5878f58f","system_id":"levelo_inurba_marseille","lat":43.319935,"lon":5.381699,"is_reserved":false,"is_disabled":false,"rental_uris":{"android":"levelo://app?vid=b6af2cee-22c0-4696-a3cc-c5ab5878f58f","ios":"levelo://app?vid=b6af2cee-22c0-4696-a3cc-c5ab5878f58f"},"vehicle_type_id":"4","last_reported":1685772493,"current_range_meters":28800,"station_id":"ce4bhr12rcd13ifvqhpg","pricing_plan_id":"free"},{"bike_id":"8c3cbb59-cd72-4768-8a58-eb62ab11aad1","system_id":"levelo_inurba_marseille","lat":43.319935,"lon":5.381699,"is_reserved":false,"is_disabled":false,"rental_uris":{"android":"levelo://app?vid=8c3cbb59-cd72-4768-8a58-eb62ab11aad1","ios":"levelo://app?vid=8c3cbb59-cd72-4768-8a58-eb62ab11aad1"},"vehicle_type_id":"4","last_reported":1685772493,"current_range_meters":30000,"station_id":"ce4bhr12rcd13ifvqhpg","pricing_plan_id":"free"},{"bike_id":"05e1af9b-f1ee-43fb-8b93-6d882c6be5fe","system_id":"levelo_inurba_marseille","lat":43.313571,"lon":5.384829,"is_reserved":false,"is_disabled":false,"rental_uris":{"android":"levelo://app?vid=05e1af9b-f1ee-43fb-8b93-6d882c6be5fe","ios":"levelo://app?vid=05e1af9b-f1ee-43fb-8b93-6d882c6be5fe"},"vehicle_type_id":"4","last_reported":1685772493,"current_range_meters":31200,"station_id":"ce4bgt92rcd13ifvqcf0","pricing_plan_id":"free"},{"bike_id":"8378b03b-6ed0-41b1-8fb0-aadd3fc16f96","system_id":"levelo_inurba_marseille","lat":43.313571,"lon":5.384829,"is_reserved":false,"is_disabled":false,"rental_uris":{"android":"levelo://app?vid=8378b03b-6ed0-41b1-8fb0-aadd3fc16f96","ios":"levelo://app?vid=8378b03b-6ed0-41b1-8fb0-aadd3fc16f96"},"vehicle_type_id":"4","last_reported":1685772493,"current_range_meters":31200,"station_id":"ce4bgt92rcd13ifvqcf0","pricing_plan_id":"free"},{"bike_id":"548c349e-be6a-4430-b129-e3909ffabcea","system_id":"levelo_inurba_marseille","lat":43.313571,"lon":5.384829,"is_reserved":false,"is_disabled":false,"rental_uris":{"android":"levelo://app?vid=548c349e-be6a-4430-b129-e3909ffabcea","ios":"levelo://app?vid=548c349e-be6a-4430-b129-e3909ffabcea"},"vehicle_type_id":"4","last_reported":1685772493,"current_range_meters":28800,"station_id":"ce4bgt92rcd13ifvqcf0","pricing_plan_id":"free"},{"bike_id":"d1abcb47-b00a-4044-94d5-8d3b71645ada","system_id":"levelo_inurba_marseille","lat":43.3137,"lon":5.38517,"is_reserved":false,"is_disabled":false,"rental_uris":{"android":"levelo://app?vid=d1abcb47-b00a-4044-94d5-8d3b71645ada","ios":"levelo://app?vid=d1abcb47-b00a-4044-94d5-8d3b71645ada"},"vehicle_type_id":"4","last_reported":1685772493,"current_range_meters":4800,"station_id":"","pricing_plan_id":"free"},{"bike_id":"42e71d03-66bf-4303-87bc-d6e20f3751e2","system_id":"levelo_inurba_marseille","lat":43.29963,"lon":5.37144,"is_reserved":false,"is_disabled":false,"rental_uris":{"android":"levelo://app?vid=42e71d03-66bf-4303-87bc-d6e20f3751e2","ios":"levelo://app?vid=42e71d03-66bf-4303-87bc-d6e20f3751e2"},"vehicle_type_id":"4","last_reported":1685772493,"current_range_meters":6000,"station_id":"","pricing_plan_id":"free"},{"bike_id":"932f29d2-e9ed-4cf6-aa15-e7133c0aa201","system_id":"levelo_inurba_marseille","lat":43.298433,"lon":5.362774,"is_reserved":false,"is_disabled":false,"rental_uris":{"android":"levelo://app?vid=932f29d2-e9ed-4cf6-aa15-e7133c0aa201","ios":"levelo://app?vid=932f29d2-e9ed-4cf6-aa15-e7133c0aa201"},"vehicle_type_id":"4","last_reported":1685772493,"current_range_meters":20000,"station_id":"ce4bgpp2rcd13ifvqc3g","pricing_plan_id":"free"},{"bike_id":"1dfff621-8a84-4d91-8548-d9852d6c3825","system_id":"levelo_inurba_marseille","lat":43.30542,"lon":5.38421,"is_reserved":false,"is_disabled":false,"rental_uris":{"android":"levelo://app?vid=1dfff621-8a84-4d91-8548-d9852d6c3825","ios":"levelo://app?vid=1dfff621-8a84-4d91-8548-d9852d6c3825"},"vehicle_type_id":"4","last_reported":1685772493,"current_range_meters":24400,"station_id":"ce4bgg92rcd13ifvqb30","pricing_plan_id":"free"},{"bike_id":"3b4b9457-f3f4-4138-9308-f35402c09962","system_id":"levelo_inurba_marseille","lat":43.305364,"lon":5.384119,"is_reserved":false,"is_disabled":false,"rental_uris":{"android":"levelo://app?vid=3b4b9457-f3f4-4138-9308-f35402c09962","ios":"levelo://app?vid=3b4b9457-f3f4-4138-9308-f35402c09962"},"vehicle_type_id":"4","last_reported":1685772493,"current_range_meters":31200,"station_id":"ce4bgg92rcd13ifvqb30","pricing_plan_id":"free"},{"bike_id":"c2cfb580-9c22-4fac-abdf-17ed60e5d711","system_id":"levelo_inurba_marseille","lat":43.298433,"lon":5.362774,"is_reserved":false,"is_disabled":false,"rental_uris":{"android":"levelo://app?vid=c2cfb580-9c22-4fac-abdf-17ed60e5d711","ios":"levelo://app?vid=c2cfb580-9c22-4fac-abdf-17ed60e5d711"},"vehicle_type_id":"4","last_reported":1685772493,"current_range_meters":28800,"station_id":"ce4bgpp2rcd13ifvqc3g","pricing_plan_id":"free"},{"bike_id":"7d2d61e5-cac9-4d75-8c10-950593915fec","system_id":"levelo_inurba_marseille","lat":43.31173,"lon":5.38719,"is_reserved":false,"is_disabled":false,"rental_uris":{"android":"levelo://app?vid=7d2d61e5-cac9-4d75-8c10-950593915fec","ios":"levelo://app?vid=7d2d61e5-cac9-4d75-8c10-950593915fec"},"vehicle_type_id":"4","last_reported":1685772493,"current_range_meters":800,"station_id":"ce4bgv12rcd13ifvqcp0","pricing_plan_id":"free"},{"bike_id":"048d6a5e-97c9-4f67-bf89-16ecba2081b0","system_id":"levelo_inurba_marseille","lat":43.328371,"lon":5.366909,"is_reserved":false,"is_disabled":false,"rental_uris":{"android":"levelo://app?vid=048d6a5e-97c9-4f67-bf89-16ecba2081b0","ios":"levelo://app?vid=048d6a5e-97c9-4f67-bf89-16ecba2081b0"},"vehicle_type_id":"4","last_reported":1685772493,"current_range_meters":20400,"station_id":"ce4bhs92rcd13ifvqi0g","pricing_plan_id":"free"},{"bike_id":"73358a4c-93c0-4eda-a88d-776a673cd973","system_id":"levelo_inurba_marseille","lat":43.328371,"lon":5.366909,"is_reserved":false,"is_disabled":false,"rental_uris":{"android":"levelo://app?vid=73358a4c-93c0-4eda-a88d-776a673cd973","ios":"levelo://app?vid=73358a4c-93c0-4eda-a88d-776a673cd973"},"vehicle_type_id":"4","last_reported":1685772493,"current_range_meters":29200,"station_id":"ce4bhs92rcd13ifvqi0g","pricing_plan_id":"free"},{"bike_id":"44461937-e383-441a-8ed9-77517a1c8c2f","system_id":"levelo_inurba_marseille","lat":43.328371,"lon":5.366909,"is_reserved":false,"is_disabled":false,"rental_uris":{"android":"levelo://app?vid=44461937-e383-441a-8ed9-77517a1c8c2f","ios":"levelo://app?vid=44461937-e383-441a-8ed9-77517a1c8c2f"},"vehicle_type_id":"4","last_reported":1685772493,"current_range_meters":18800,"station_id":"ce4bhs92rcd13ifvqi0g","pricing_plan_id":"free"},{"bike_id":"6dab6eca-b352-49ea-add2-026ea7782376","system_id":"levelo_inurba_marseille","lat":43.328371,"lon":5.366909,"is_reserved":false,"is_disabled":false,"rental_uris":{"android":"levelo://app?vid=6dab6eca-b352-49ea-add2-026ea7782376","ios":"levelo://app?vid=6dab6eca-b352-49ea-add2-026ea7782376"},"vehicle_type_id":"4","last_reported":1685772493,"current_range_meters":30800,"station_id":"ce4bhs92rcd13ifvqi0g","pricing_plan_id":"free"},{"bike_id":"3df85bc5-dfcb-4777-95e4-83da0b168eb3","system_id":"levelo_inurba_marseille","lat":43.328371,"lon":5.366909,"is_reserved":false,"is_disabled":false,"rental_uris":{"android":"levelo://app?vid=3df85bc5-dfcb-4777-95e4-83da0b168eb3","ios":"levelo://app?vid=3df85bc5-dfcb-4777-95e4-83da0b168eb3"},"vehicle_type_id":"4","last_reported":1685772493,"current_range_meters":28400,"station_id":"ce4bhs92rcd13ifvqi0g","pricing_plan_id":"free"},{"bike_id":"832e9e1f-969f-4cd2-b40b-5ca39621432e","system_id":"levelo_inurba_marseille","lat":43.295774,"lon":5.367142,"is_reserved":false,"is_disabled":false,"rental_uris":{"android":"levelo://app?vid=832e9e1f-969f-4cd2-b40b-5ca39621432e","ios":"levelo://app?vid=832e9e1f-969f-4cd2-b40b-5ca39621432e"},"vehicle_type_id":"4","last_reported":1685772493,"current_range_meters":27600,"station_id":"ce4bgph2rcd13ifvqc2g","pricing_plan_id":"free"},{"bike_id":"8bb074be-346f-494f-9b6c-7a70d8cbaf58","system_id":"levelo_inurba_marseille","lat":43.309589,"lon":5.390258,"is_reserved":false,"is_disabled":false,"rental_uris":{"android":"levelo://app?vid=8bb074be-346f-494f-9b6c-7a70d8cbaf58","ios":"levelo://app?vid=8bb074be-346f-494f-9b6c-7a70d8cbaf58"},"vehicle_type_id":"4","last_reported":1685772493,"current_range_meters":29200,"station_id":"ce4bgup2rcd13ifvqco0","pricing_plan_id":"free"},{"bike_id":"6f4ab275-515d-4942-bd81-693c13f10cf0","system_id":"levelo_inurba_marseille","lat":43.317557,"lon":5.390173,"is_reserved":false,"is_disabled":false,"rental_uris":{"android":"levelo://app?vid=6f4ab275-515d-4942-bd81-693c13f10cf0","ios":"levelo://app?vid=6f4ab275-515d-4942-bd81-693c13f10cf0"},"vehicle_type_id":"4","last_reported":1685772493,"current_range_meters":21600,"station_id":"ce4bhqp2rcd13ifvqhng","pricing_plan_id":"free"},{"bike_id":"8142fb10-e6f0-4cbd-a950-3089a659608f","system_id":"levelo_inurba_marseille","lat":43.317557,"lon":5.390173,"is_reserved":false,"is_disabled":false,"rental_uris":{"android":"levelo://app?vid=8142fb10-e6f0-4cbd-a950-3089a659608f","ios":"levelo://app?vid=8142fb10-e6f0-4cbd-a950-3089a659608f"},"vehicle_type_id":"4","last_reported":1685772493,"current_range_meters":18000,"station_id":"ce4bhqp2rcd13ifvqhng","pricing_plan_id":"free"},{"bike_id":"89f4aedc-771e-4f66-8d72-d66e26bdde90","system_id":"levelo_inurba_marseille","lat":43.317557,"lon":5.390173,"is_reserved":false,"is_disabled":false,"rental_uris":{"android":"levelo://app?vid=89f4aedc-771e-4f66-8d72-d66e26bdde90","ios":"levelo://app?vid=89f4aedc-771e-4f66-8d72-d66e26bdde90"},"vehicle_type_id":"4","last_reported":1685772493,"current_range_meters":30800,"station_id":"ce4bhqp2rcd13ifvqhng","pricing_plan_id":"free"},{"bike_id":"1d532ab5-38fb-49ef-97e2-04eb3e3d3a7d","system_id":"levelo_inurba_marseille","lat":43.317557,"lon":5.390173,"is_reserved":false,"is_disabled":false,"rental_uris":{"android":"levelo://app?vid=1d532ab5-38fb-49ef-97e2-04eb3e3d3a7d","ios":"levelo://app?vid=1d532ab5-38fb-49ef-97e2-04eb3e3d3a7d"},"vehicle_type_id":"4","last_reported":1685772493,"current_range_meters":31200,"station_id":"ce4bhqp2rcd13ifvqhng","pricing_plan_id":"free"},{"bike_id":"07974fb4-088f-4350-8966-67a25abd9cf2","system_id":"levelo_inurba_marseille","lat":43.317557,"lon":5.390173,"is_reserved":false,"is_disabled":false,"rental_uris":{"android":"levelo://app?vid=07974fb4-088f-4350-8966-67a25abd9cf2","ios":"levelo://app?vid=07974fb4-088f-4350-8966-67a25abd9cf2"},"vehicle_type_id":"4","last_reported":1685772493,"current_range_meters":0,"station_id":"ce4bhqp2rcd13ifvqhng","pricing_plan_id":"free"},{"bike_id":"d6616f3b-4b00-403f-87b0-2dfb3762cd00","system_id":"levelo_inurba_marseille","lat":43.298037,"lon":5.381066,"is_reserved":false,"is_disabled":false,"rental_uris":{"android":"levelo://app?vid=d6616f3b-4b00-403f-87b0-2dfb3762cd00","ios":"levelo://app?vid=d6616f3b-4b00-403f-87b0-2dfb3762cd00"},"vehicle_type_id":"4","last_reported":1685772493,"current_range_meters":20400,"station_id":"ce4bgip2rcd13ifvqbb0","pricing_plan_id":"free"},{"bike_id":"ebb1fde3-4e8e-412e-ad6a-6083e1a84b66","system_id":"levelo_inurba_marseille","lat":43.30445,"lon":5.38893,"is_reserved":false,"is_disabled":false,"rental_uris":{"android":"levelo://app?vid=ebb1fde3-4e8e-412e-ad6a-6083e1a84b66","ios":"levelo://app?vid=ebb1fde3-4e8e-412e-ad6a-6083e1a84b66"},"vehicle_type_id":"4","last_reported":1685772493,"current_range_meters":31200,"station_id":"ce4bgk12rcd13ifvqbi0","pricing_plan_id":"free"},{"bike_id":"5225f6a0-291b-46ea-aae1-1fc73c070787","system_id":"levelo_inurba_marseille","lat":43.295748,"lon":5.37522,"is_reserved":false,"is_disabled":false,"rental_uris":{"android":"levelo://app?vid=5225f6a0-291b-46ea-aae1-1fc73c070787","ios":"levelo://app?vid=5225f6a0-291b-46ea-aae1-1fc73c070787"},"vehicle_type_id":"4","last_reported":1685772493,"current_range_meters":26400,"station_id":"ce4bgh92rcd13ifvqb50","pricing_plan_id":"free"},{"bike_id":"67a4fa49-0676-4611-ba8f-e0a9dfa6bffd","system_id":"levelo_inurba_marseille","lat":43.30426,"lon":5.38888,"is_reserved":false,"is_disabled":false,"rental_uris":{"android":"levelo://app?vid=67a4fa49-0676-4611-ba8f-e0a9dfa6bffd","ios":"levelo://app?vid=67a4fa49-0676-4611-ba8f-e0a9dfa6bffd"},"vehicle_type_id":"4","last_reported":1685772493,"current_range_meters":30800,"station_id":"ce4bgk12rcd13ifvqbi0","pricing_plan_id":"free"},{"bike_id":"b57fcdd4-cf69-4050-b1a7-c0cf1686aafa","system_id":"levelo_inurba_marseille","lat":43.298037,"lon":5.381066,"is_reserved":false,"is_disabled":false,"rental_uris":{"android":"levelo://app?vid=b57fcdd4-cf69-4050-b1a7-c0cf1686aafa","ios":"levelo://app?vid=b57fcdd4-cf69-4050-b1a7-c0cf1686aafa"},"vehicle_type_id":"4","last_reported":1685772493,"current_range_meters":28800,"station_id":"ce4bgip2rcd13ifvqbb0","pricing_plan_id":"free"},{"bike_id":"64f6f9a3-8ad2-4134-a3db-9261bda2c224","system_id":"levelo_inurba_marseille","lat":43.296263,"lon":5.377094,"is_reserved":false,"is_disabled":false,"rental_uris":{"android":"levelo://app?vid=64f6f9a3-8ad2-4134-a3db-9261bda2c224","ios":"levelo://app?vid=64f6f9a3-8ad2-4134-a3db-9261bda2c224"},"vehicle_type_id":"4","last_reported":1685772493,"current_range_meters":15200,"station_id":"ce4bgi92rcd13ifvqb90","pricing_plan_id":"free"},{"bike_id":"6b85691d-4b1b-403d-9adc-39f63c55fbb0","system_id":"levelo_inurba_marseille","lat":43.295279,"lon":5.375048,"is_reserved":false,"is_disabled":false,"rental_uris":{"android":"levelo://app?vid=6b85691d-4b1b-403d-9adc-39f63c55fbb0","ios":"levelo://app?vid=6b85691d-4b1b-403d-9adc-39f63c55fbb0"},"vehicle_type_id":"4","last_reported":1685772493,"current_range_meters":30400,"station_id":"ce4bgkp2rcd13ifvqbmg","pricing_plan_id":"free"},{"bike_id":"62ddb48e-265f-4629-b6fc-70ac1cddb70a","system_id":"levelo_inurba_marseille","lat":43.32367,"lon":5.388836,"is_reserved":false,"is_disabled":false,"rental_uris":{"android":"levelo://app?vid=62ddb48e-265f-4629-b6fc-70ac1cddb70a","ios":"levelo://app?vid=62ddb48e-265f-4629-b6fc-70ac1cddb70a"},"vehicle_type_id":"4","last_reported":1685772493,"current_range_meters":31200,"station_id":"ce4bhqp2rcd13ifvqhog","pricing_plan_id":"free"},{"bike_id":"d321ec47-f166-4381-afa6-7bf9afc7eee8","system_id":"levelo_inurba_marseille","lat":43.32367,"lon":5.388836,"is_reserved":false,"is_disabled":false,"rental_uris":{"android":"levelo://app?vid=d321ec47-f166-4381-afa6-7bf9afc7eee8","ios":"levelo://app?vid=d321ec47-f166-4381-afa6-7bf9afc7eee8"},"vehicle_type_id":"4","last_reported":1685772493,"current_range_meters":26400,"station_id":"ce4bhqp2rcd13ifvqhog","pricing_plan_id":"free"},{"bike_id":"0c7ce3fd-9fe0-458e-9687-20b832dfee04","system_id":"levelo_inurba_marseille","lat":43.32367,"lon":5.388836,"is_reserved":false,"is_disabled":false,"rental_uris":{"android":"levelo://app?vid=0c7ce3fd-9fe0-458e-9687-20b832dfee04","ios":"levelo://app?vid=0c7ce3fd-9fe0-458e-9687-20b832dfee04"},"vehicle_type_id":"4","last_reported":1685772493,"current_range_meters":31200,"station_id":"ce4bhqp2rcd13ifvqhog","pricing_plan_id":"free"},{"bike_id":"90bbfd03-d00c-4933-b38d-99b5da852988","system_id":"levelo_inurba_marseille","lat":43.32367,"lon":5.388836,"is_reserved":false,"is_disabled":false,"rental_uris":{"android":"levelo://app?vid=90bbfd03-d00c-4933-b38d-99b5da852988","ios":"levelo://app?vid=90bbfd03-d00c-4933-b38d-99b5da852988"},"vehicle_type_id":"4","last_reported":1685772493,"current_range_meters":31200,"station_id":"ce4bhqp2rcd13ifvqhog","pricing_plan_id":"free"},{"bike_id":"d9b3487e-4661-4b3b-a198-2212de300ca1","system_id":"levelo_inurba_marseille","lat":43.32363,"lon":5.38882,"is_reserved":false,"is_disabled":false,"rental_uris":{"android":"levelo://app?vid=d9b3487e-4661-4b3b-a198-2212de300ca1","ios":"levelo://app?vid=d9b3487e-4661-4b3b-a198-2212de300ca1"},"vehicle_type_id":"4","last_reported":1685772493,"current_range_meters":30000,"station_id":"ce4bhqp2rcd13ifvqhog","pricing_plan_id":"free"},{"bike_id":"2bf9f571-8ae5-431e-aedf-1c815125cefd","system_id":"levelo_inurba_marseille","lat":43.32367,"lon":5.388836,"is_reserved":false,"is_disabled":false,"rental_uris":{"android":"levelo://app?vid=2bf9f571-8ae5-431e-aedf-1c815125cefd","ios":"levelo://app?vid=2bf9f571-8ae5-431e-aedf-1c815125cefd"},"vehicle_type_id":"4","last_reported":1685772493,"current_range_meters":23200,"station_id":"ce4bhqp2rcd13ifvqhog","pricing_plan_id":"free"},{"bike_id":"c07fe0f2-772a-435f-9629-10108908cbeb","system_id":"levelo_inurba_marseille","lat":43.32367,"lon":5.388836,"is_reserved":false,"is_disabled":false,"rental_uris":{"android":"levelo://app?vid=c07fe0f2-772a-435f-9629-10108908cbeb","ios":"levelo://app?vid=c07fe0f2-772a-435f-9629-10108908cbeb"},"vehicle_type_id":"4","last_reported":1685772493,"current_range_meters":29200,"station_id":"ce4bhqp2rcd13ifvqhog","pricing_plan_id":"free"},{"bike_id":"eb500a68-299c-4bfe-996b-c50aa893b955","system_id":"levelo_inurba_marseille","lat":43.32367,"lon":5.388836,"is_reserved":false,"is_disabled":false,"rental_uris":{"android":"levelo://app?vid=eb500a68-299c-4bfe-996b-c50aa893b955","ios":"levelo://app?vid=eb500a68-299c-4bfe-996b-c50aa893b955"},"vehicle_type_id":"4","last_reported":1685772493,"current_range_meters":31200,"station_id":"ce4bhqp2rcd13ifvqhog","pricing_plan_id":"free"},{"bike_id":"6fc29a8e-dd3c-4337-a158-4eb59c4b2f33","system_id":"levelo_inurba_marseille","lat":43.32367,"lon":5.388836,"is_reserved":false,"is_disabled":false,"rental_uris":{"android":"levelo://app?vid=6fc29a8e-dd3c-4337-a158-4eb59c4b2f33","ios":"levelo://app?vid=6fc29a8e-dd3c-4337-a158-4eb59c4b2f33"},"vehicle_type_id":"4","last_reported":1685772493,"current_range_meters":29600,"station_id":"ce4bhqp2rcd13ifvqhog","pricing_plan_id":"free"},{"bike_id":"89de6b20-c43a-4dd8-89d0-68075829fe85","system_id":"levelo_inurba_marseille","lat":43.32364,"lon":5.38895,"is_reserved":false,"is_disabled":false,"rental_uris":{"android":"levelo://app?vid=89de6b20-c43a-4dd8-89d0-68075829fe85","ios":"levelo://app?vid=89de6b20-c43a-4dd8-89d0-68075829fe85"},"vehicle_type_id":"4","last_reported":1685772493,"current_range_meters":31200,"station_id":"ce4bhqp2rcd13ifvqhog","pricing_plan_id":"free"},{"bike_id":"93366e4e-d3fb-4be7-a36c-0c2fad416ea2","system_id":"levelo_inurba_marseille","lat":43.2928,"lon":5.36834,"is_reserved":false,"is_disabled":false,"rental_uris":{"android":"levelo://app?vid=93366e4e-d3fb-4be7-a36c-0c2fad416ea2","ios":"levelo://app?vid=93366e4e-d3fb-4be7-a36c-0c2fad416ea2"},"vehicle_type_id":"4","last_reported":1685772493,"current_range_meters":10400,"station_id":"ce4bhbp2rcd13ifvqesg","pricing_plan_id":"free"},{"bike_id":"143ba757-3d0f-4011-b834-dedba721bfdd","system_id":"levelo_inurba_marseille","lat":43.29302,"lon":5.3745,"is_reserved":false,"is_disabled":false,"rental_uris":{"android":"levelo://app?vid=143ba757-3d0f-4011-b834-dedba721bfdd","ios":"levelo://app?vid=143ba757-3d0f-4011-b834-dedba721bfdd"},"vehicle_type_id":"4","last_reported":1685772493,"current_range_meters":0,"station_id":"ce4bgi12rcd13ifvqb70","pricing_plan_id":"free"},{"bike_id":"9c4fc8da-b114-41b1-ac71-902a53b1cbb8","system_id":"levelo_inurba_marseille","lat":43.293009,"lon":5.374584,"is_reserved":false,"is_disabled":false,"rental_uris":{"android":"levelo://app?vid=9c4fc8da-b114-41b1-ac71-902a53b1cbb8","ios":"levelo://app?vid=9c4fc8da-b114-41b1-ac71-902a53b1cbb8"},"vehicle_type_id":"4","last_reported":1685772493,"current_range_meters":29600,"station_id":"ce4bgi12rcd13ifvqb70","pricing_plan_id":"free"},{"bike_id":"550c96f3-1963-4bcb-8511-de045dfa045c","system_id":"levelo_inurba_marseille","lat":43.305994,"lon":5.393687,"is_reserved":false,"is_disabled":false,"rental_uris":{"android":"levelo://app?vid=550c96f3-1963-4bcb-8511-de045dfa045c","ios":"levelo://app?vid=550c96f3-1963-4bcb-8511-de045dfa045c"},"vehicle_type_id":"4","last_reported":1685772493,"current_range_meters":31200,"station_id":"ce4bh0p2rcd13ifvqd80","pricing_plan_id":"free"},{"bike_id":"a4e81497-a4f4-4443-aea7-f79dae266972","system_id":"levelo_inurba_marseille","lat":43.29298,"lon":5.37458,"is_reserved":false,"is_disabled":false,"rental_uris":{"android":"levelo://app?vid=a4e81497-a4f4-4443-aea7-f79dae266972","ios":"levelo://app?vid=a4e81497-a4f4-4443-aea7-f79dae266972"},"vehicle_type_id":"4","last_reported":1685772493,"current_range_meters":0,"station_id":"ce4bgi12rcd13ifvqb70","pricing_plan_id":"free"},{"bike_id":"69b52bc5-09bd-4e07-924a-cfc4b48d1296","system_id":"levelo_inurba_marseille","lat":43.305994,"lon":5.393687,"is_reserved":false,"is_disabled":false,"rental_uris":{"android":"levelo://app?vid=69b52bc5-09bd-4e07-924a-cfc4b48d1296","ios":"levelo://app?vid=69b52bc5-09bd-4e07-924a-cfc4b48d1296"},"vehicle_type_id":"4","last_reported":1685772493,"current_range_meters":25600,"station_id":"ce4bh0p2rcd13ifvqd80","pricing_plan_id":"free"},{"bike_id":"467476a3-75c8-4718-8973-853da1c6d8ce","system_id":"levelo_inurba_marseille","lat":43.29602,"lon":5.381084,"is_reserved":false,"is_disabled":false,"rental_uris":{"android":"levelo://app?vid=467476a3-75c8-4718-8973-853da1c6d8ce","ios":"levelo://app?vid=467476a3-75c8-4718-8973-853da1c6d8ce"},"vehicle_type_id":"4","last_reported":1685772493,"current_range_meters":24800,"station_id":"ce4bgl12rcd13ifvqbo0","pricing_plan_id":"free"},{"bike_id":"01ef37ce-f7ca-481c-b313-7ac5866de03f","system_id":"levelo_inurba_marseille","lat":43.293009,"lon":5.374584,"is_reserved":false,"is_disabled":false,"rental_uris":{"android":"levelo://app?vid=01ef37ce-f7ca-481c-b313-7ac5866de03f","ios":"levelo://app?vid=01ef37ce-f7ca-481c-b313-7ac5866de03f"},"vehicle_type_id":"4","last_reported":1685772493,"current_range_meters":19600,"station_id":"ce4bgi12rcd13ifvqb70","pricing_plan_id":"free"},{"bike_id":"aafbfa7f-2f57-4616-b9e0-1436015e90f6","system_id":"levelo_inurba_marseille","lat":43.29508,"lon":5.38181,"is_reserved":false,"is_disabled":false,"rental_uris":{"android":"levelo://app?vid=aafbfa7f-2f57-4616-b9e0-1436015e90f6","ios":"levelo://app?vid=aafbfa7f-2f57-4616-b9e0-1436015e90f6"},"vehicle_type_id":"4","last_reported":1685772493,"current_range_meters":0,"station_id":"","pricing_plan_id":"free"},{"bike_id":"a30d9b53-0934-4489-9f19-ef743c47b5a4","system_id":"levelo_inurba_marseille","lat":43.29372,"lon":5.37826,"is_reserved":false,"is_disabled":false,"rental_uris":{"android":"levelo://app?vid=a30d9b53-0934-4489-9f19-ef743c47b5a4","ios":"levelo://app?vid=a30d9b53-0934-4489-9f19-ef743c47b5a4"},"vehicle_type_id":"4","last_reported":1685772493,"current_range_meters":30800,"station_id":"ce4bgjh2rcd13ifvqbf0","pricing_plan_id":"free"},{"bike_id":"363b86b9-8401-40f7-9dcd-3c261f0fa9ef","system_id":"levelo_inurba_marseille","lat":43.30296,"lon":5.39206,"is_reserved":false,"is_disabled":false,"rental_uris":{"android":"levelo://app?vid=363b86b9-8401-40f7-9dcd-3c261f0fa9ef","ios":"levelo://app?vid=363b86b9-8401-40f7-9dcd-3c261f0fa9ef"},"vehicle_type_id":"4","last_reported":1685772493,"current_range_meters":21200,"station_id":"ce4bgkh2rcd13ifvqbk0","pricing_plan_id":"free"},{"bike_id":"006a678a-78ac-40dd-be6b-5f93442dfa24","system_id":"levelo_inurba_marseille","lat":43.302992,"lon":5.392136,"is_reserved":false,"is_disabled":false,"rental_uris":{"android":"levelo://app?vid=006a678a-78ac-40dd-be6b-5f93442dfa24","ios":"levelo://app?vid=006a678a-78ac-40dd-be6b-5f93442dfa24"},"vehicle_type_id":"4","last_reported":1685772493,"current_range_meters":16800,"station_id":"ce4bgkh2rcd13ifvqbk0","pricing_plan_id":"free"},{"bike_id":"dbb09b35-45cb-4dca-a177-4c77a16cef66","system_id":"levelo_inurba_marseille","lat":43.302992,"lon":5.392136,"is_reserved":false,"is_disabled":false,"rental_uris":{"android":"levelo://app?vid=dbb09b35-45cb-4dca-a177-4c77a16cef66","ios":"levelo://app?vid=dbb09b35-45cb-4dca-a177-4c77a16cef66"},"vehicle_type_id":"4","last_reported":1685772493,"current_range_meters":31200,"station_id":"ce4bgkh2rcd13ifvqbk0","pricing_plan_id":"free"},{"bike_id":"1f49ef82-45b4-4ab2-9aa3-5b0de0c437f4","system_id":"levelo_inurba_marseille","lat":43.30294,"lon":5.39221,"is_reserved":false,"is_disabled":false,"rental_uris":{"android":"levelo://app?vid=1f49ef82-45b4-4ab2-9aa3-5b0de0c437f4","ios":"levelo://app?vid=1f49ef82-45b4-4ab2-9aa3-5b0de0c437f4"},"vehicle_type_id":"4","last_reported":1685772493,"current_range_meters":31200,"station_id":"ce4bgkh2rcd13ifvqbk0","pricing_plan_id":"free"},{"bike_id":"7279b47d-e1b2-4510-a5ee-f58f16156673","system_id":"levelo_inurba_marseille","lat":43.298838,"lon":5.388985,"is_reserved":false,"is_disabled":false,"rental_uris":{"android":"levelo://app?vid=7279b47d-e1b2-4510-a5ee-f58f16156673","ios":"levelo://app?vid=7279b47d-e1b2-4510-a5ee-f58f16156673"},"vehicle_type_id":"4","last_reported":1685772493,"current_range_meters":31200,"station_id":"ce4bh392rcd13ifvqdl0","pricing_plan_id":"free"},{"bike_id":"d6d6588b-d902-4f45-bcb0-431686a96ba0","system_id":"levelo_inurba_marseille","lat":43.298857,"lon":5.389034,"is_reserved":false,"is_disabled":false,"rental_uris":{"android":"levelo://app?vid=d6d6588b-d902-4f45-bcb0-431686a96ba0","ios":"levelo://app?vid=d6d6588b-d902-4f45-bcb0-431686a96ba0"},"vehicle_type_id":"4","last_reported":1685772493,"current_range_meters":31200,"station_id":"ce4bh392rcd13ifvqdl0","pricing_plan_id":"free"},{"bike_id":"170ab145-2431-453e-b6b7-27c3126f361e","system_id":"levelo_inurba_marseille","lat":43.292663,"lon":5.376389,"is_reserved":false,"is_disabled":false,"rental_uris":{"android":"levelo://app?vid=170ab145-2431-453e-b6b7-27c3126f361e","ios":"levelo://app?vid=170ab145-2431-453e-b6b7-27c3126f361e"},"vehicle_type_id":"4","last_reported":1685772493,"current_range_meters":28800,"station_id":"ce4bgi12rcd13ifvqb80","pricing_plan_id":"free"},{"bike_id":"37b8ece4-7cc4-4f74-86e7-c43d86c7b5ff","system_id":"levelo_inurba_marseille","lat":43.29879,"lon":5.389,"is_reserved":false,"is_disabled":false,"rental_uris":{"android":"levelo://app?vid=37b8ece4-7cc4-4f74-86e7-c43d86c7b5ff","ios":"levelo://app?vid=37b8ece4-7cc4-4f74-86e7-c43d86c7b5ff"},"vehicle_type_id":"4","last_reported":1685772493,"current_range_meters":20800,"station_id":"ce4bh392rcd13ifvqdl0","pricing_plan_id":"free"},{"bike_id":"a721f8db-3315-46ae-b841-8130a7e137c3","system_id":"levelo_inurba_marseille","lat":43.298795,"lon":5.389027,"is_reserved":false,"is_disabled":false,"rental_uris":{"android":"levelo://app?vid=a721f8db-3315-46ae-b841-8130a7e137c3","ios":"levelo://app?vid=a721f8db-3315-46ae-b841-8130a7e137c3"},"vehicle_type_id":"4","last_reported":1685772493,"current_range_meters":18800,"station_id":"ce4bh392rcd13ifvqdl0","pricing_plan_id":"free"},{"bike_id":"56003e9e-80d7-4a61-b68e-b37204b3cc16","system_id":"levelo_inurba_marseille","lat":43.298812,"lon":5.389134,"is_reserved":false,"is_disabled":false,"rental_uris":{"android":"levelo://app?vid=56003e9e-80d7-4a61-b68e-b37204b3cc16","ios":"levelo://app?vid=56003e9e-80d7-4a61-b68e-b37204b3cc16"},"vehicle_type_id":"4","last_reported":1685772493,"current_range_meters":31200,"station_id":"ce4bh392rcd13ifvqdl0","pricing_plan_id":"free"},{"bike_id":"77a9206c-340e-49a3-82ad-812b1a3050f0","system_id":"levelo_inurba_marseille","lat":43.29877,"lon":5.3891,"is_reserved":false,"is_disabled":false,"rental_uris":{"android":"levelo://app?vid=77a9206c-340e-49a3-82ad-812b1a3050f0","ios":"levelo://app?vid=77a9206c-340e-49a3-82ad-812b1a3050f0"},"vehicle_type_id":"4","last_reported":1685772493,"current_range_meters":30000,"station_id":"ce4bh392rcd13ifvqdl0","pricing_plan_id":"free"},{"bike_id":"bf4f66b6-d19a-4bbb-8c96-635a9c8f6c6e","system_id":"levelo_inurba_marseille","lat":43.309047,"lon":5.396551,"is_reserved":false,"is_disabled":false,"rental_uris":{"android":"levelo://app?vid=bf4f66b6-d19a-4bbb-8c96-635a9c8f6c6e","ios":"levelo://app?vid=bf4f66b6-d19a-4bbb-8c96-635a9c8f6c6e"},"vehicle_type_id":"4","last_reported":1685772493,"current_range_meters":31200,"station_id":"ce4bh012rcd13ifvqcv0","pricing_plan_id":"free"},{"bike_id":"62f45c81-2c35-405e-bfc8-b836d16ebc41","system_id":"levelo_inurba_marseille","lat":43.33256,"lon":5.3793,"is_reserved":false,"is_disabled":false,"rental_uris":{"android":"levelo://app?vid=62f45c81-2c35-405e-bfc8-b836d16ebc41","ios":"levelo://app?vid=62f45c81-2c35-405e-bfc8-b836d16ebc41"},"vehicle_type_id":"4","last_reported":1685772493,"current_range_meters":0,"station_id":"","pricing_plan_id":"free"},{"bike_id":"4358e34b-5910-4761-bd1e-0ec8ea81613c","system_id":"levelo_inurba_marseille","lat":43.313291,"lon":5.396838,"is_reserved":false,"is_disabled":false,"rental_uris":{"android":"levelo://app?vid=4358e34b-5910-4761-bd1e-0ec8ea81613c","ios":"levelo://app?vid=4358e34b-5910-4761-bd1e-0ec8ea81613c"},"vehicle_type_id":"4","last_reported":1685772493,"current_range_meters":31200,"station_id":"ce4bgvp2rcd13ifvqcu0","pricing_plan_id":"free"},{"bike_id":"ccd939e3-45bd-4ad5-a686-9ff2d0cc3893","system_id":"levelo_inurba_marseille","lat":43.309038,"lon":5.396546,"is_reserved":false,"is_disabled":false,"rental_uris":{"android":"levelo://app?vid=ccd939e3-45bd-4ad5-a686-9ff2d0cc3893","ios":"levelo://app?vid=ccd939e3-45bd-4ad5-a686-9ff2d0cc3893"},"vehicle_type_id":"4","last_reported":1685772493,"current_range_meters":31200,"station_id":"ce4bh012rcd13ifvqcv0","pricing_plan_id":"free"},{"bike_id":"32f9a4a8-e94c-477d-9f4d-1587098b798e","system_id":"levelo_inurba_marseille","lat":43.3132,"lon":5.39686,"is_reserved":false,"is_disabled":false,"rental_uris":{"android":"levelo://app?vid=32f9a4a8-e94c-477d-9f4d-1587098b798e","ios":"levelo://app?vid=32f9a4a8-e94c-477d-9f4d-1587098b798e"},"vehicle_type_id":"4","last_reported":1685772493,"current_range_meters":1600,"station_id":"ce4bgvp2rcd13ifvqcu0","pricing_plan_id":"free"},{"bike_id":"e2570e38-a6a6-40bc-9654-bd32bb297228","system_id":"levelo_inurba_marseille","lat":43.309038,"lon":5.396546,"is_reserved":false,"is_disabled":false,"rental_uris":{"android":"levelo://app?vid=e2570e38-a6a6-40bc-9654-bd32bb297228","ios":"levelo://app?vid=e2570e38-a6a6-40bc-9654-bd32bb297228"},"vehicle_type_id":"4","last_reported":1685772493,"current_range_meters":18000,"station_id":"ce4bh012rcd13ifvqcv0","pricing_plan_id":"free"},{"bike_id":"ee82b8cf-78f5-4f94-a9d0-1a7087e9925c","system_id":"levelo_inurba_marseille","lat":43.31328,"lon":5.39688,"is_reserved":false,"is_disabled":false,"rental_uris":{"android":"levelo://app?vid=ee82b8cf-78f5-4f94-a9d0-1a7087e9925c","ios":"levelo://app?vid=ee82b8cf-78f5-4f94-a9d0-1a7087e9925c"},"vehicle_type_id":"4","last_reported":1685772493,"current_range_meters":31600,"station_id":"ce4bgvp2rcd13ifvqcu0","pricing_plan_id":"free"},{"bike_id":"1e4b93b8-b47b-4d54-8cc0-9aa25f8b4c90","system_id":"levelo_inurba_marseille","lat":43.31327,"lon":5.39691,"is_reserved":false,"is_disabled":false,"rental_uris":{"android":"levelo://app?vid=1e4b93b8-b47b-4d54-8cc0-9aa25f8b4c90","ios":"levelo://app?vid=1e4b93b8-b47b-4d54-8cc0-9aa25f8b4c90"},"vehicle_type_id":"4","last_reported":1685772493,"current_range_meters":31600,"station_id":"ce4bgvp2rcd13ifvqcu0","pricing_plan_id":"free"},{"bike_id":"4c861b9c-27fa-4c22-adeb-eb6cf031204b","system_id":"levelo_inurba_marseille","lat":43.309038,"lon":5.396546,"is_reserved":false,"is_disabled":false,"rental_uris":{"android":"levelo://app?vid=4c861b9c-27fa-4c22-adeb-eb6cf031204b","ios":"levelo://app?vid=4c861b9c-27fa-4c22-adeb-eb6cf031204b"},"vehicle_type_id":"4","last_reported":1685772493,"current_range_meters":31200,"station_id":"ce4bh012rcd13ifvqcv0","pricing_plan_id":"free"},{"bike_id":"d1a6650d-935a-419a-a873-62e13d60b6c2","system_id":"levelo_inurba_marseille","lat":43.309038,"lon":5.396546,"is_reserved":false,"is_disabled":false,"rental_uris":{"android":"levelo://app?vid=d1a6650d-935a-419a-a873-62e13d60b6c2","ios":"levelo://app?vid=d1a6650d-935a-419a-a873-62e13d60b6c2"},"vehicle_type_id":"4","last_reported":1685772493,"current_range_meters":11600,"station_id":"ce4bh012rcd13ifvqcv0","pricing_plan_id":"free"},{"bike_id":"adf8ec18-3a4b-4dcd-803c-846068b7f320","system_id":"levelo_inurba_marseille","lat":43.31317,"lon":5.39694,"is_reserved":false,"is_disabled":false,"rental_uris":{"android":"levelo://app?vid=adf8ec18-3a4b-4dcd-803c-846068b7f320","ios":"levelo://app?vid=adf8ec18-3a4b-4dcd-803c-846068b7f320"},"vehicle_type_id":"4","last_reported":1685772493,"current_range_meters":24400,"station_id":"ce4bgvp2rcd13ifvqcu0","pricing_plan_id":"free"},{"bike_id":"f8899689-2612-4c53-9348-89f986fbe78d","system_id":"levelo_inurba_marseille","lat":43.291994,"lon":5.357886,"is_reserved":false,"is_disabled":false,"rental_uris":{"android":"levelo://app?vid=f8899689-2612-4c53-9348-89f986fbe78d","ios":"levelo://app?vid=f8899689-2612-4c53-9348-89f986fbe78d"},"vehicle_type_id":"4","last_reported":1685772493,"current_range_meters":22800,"station_id":"ce4bhb12rcd13ifvqel0","pricing_plan_id":"free"},{"bike_id":"57c46827-5c60-4f83-b592-c2852eeb779d","system_id":"levelo_inurba_marseille","lat":43.31321,"lon":5.39695,"is_reserved":false,"is_disabled":false,"rental_uris":{"android":"levelo://app?vid=57c46827-5c60-4f83-b592-c2852eeb779d","ios":"levelo://app?vid=57c46827-5c60-4f83-b592-c2852eeb779d"},"vehicle_type_id":"4","last_reported":1685772493,"current_range_meters":31200,"station_id":"ce4bgvp2rcd13ifvqcu0","pricing_plan_id":"free"},{"bike_id":"e79598f5-7a3d-4734-8fa1-aa447d4c1019","system_id":"levelo_inurba_marseille","lat":43.313291,"lon":5.396838,"is_reserved":false,"is_disabled":false,"rental_uris":{"android":"levelo://app?vid=e79598f5-7a3d-4734-8fa1-aa447d4c1019","ios":"levelo://app?vid=e79598f5-7a3d-4734-8fa1-aa447d4c1019"},"vehicle_type_id":"4","last_reported":1685772493,"current_range_meters":2000,"station_id":"ce4bgvp2rcd13ifvqcu0","pricing_plan_id":"free"},{"bike_id":"0ea733ff-4d0a-405d-a8c2-ef10d28e67ba","system_id":"levelo_inurba_marseille","lat":43.31326,"lon":5.39695,"is_reserved":false,"is_disabled":false,"rental_uris":{"android":"levelo://app?vid=0ea733ff-4d0a-405d-a8c2-ef10d28e67ba","ios":"levelo://app?vid=0ea733ff-4d0a-405d-a8c2-ef10d28e67ba"},"vehicle_type_id":"4","last_reported":1685772493,"current_range_meters":31600,"station_id":"ce4bgvp2rcd13ifvqcu0","pricing_plan_id":"free"},{"bike_id":"654c442b-68a1-40ec-b4f0-237a22b84156","system_id":"levelo_inurba_marseille","lat":43.31326,"lon":5.39696,"is_reserved":false,"is_disabled":false,"rental_uris":{"android":"levelo://app?vid=654c442b-68a1-40ec-b4f0-237a22b84156","ios":"levelo://app?vid=654c442b-68a1-40ec-b4f0-237a22b84156"},"vehicle_type_id":"4","last_reported":1685772493,"current_range_meters":28400,"station_id":"ce4bgvp2rcd13ifvqcu0","pricing_plan_id":"free"},{"bike_id":"c9299836-1e52-40f6-9f52-955d6ca987d7","system_id":"levelo_inurba_marseille","lat":43.29529,"lon":5.385581,"is_reserved":false,"is_disabled":false,"rental_uris":{"android":"levelo://app?vid=c9299836-1e52-40f6-9f52-955d6ca987d7","ios":"levelo://app?vid=c9299836-1e52-40f6-9f52-955d6ca987d7"},"vehicle_type_id":"4","last_reported":1685772493,"current_range_meters":22400,"station_id":"ce4bgih2rcd13ifvqba0","pricing_plan_id":"free"},{"bike_id":"a1d588f9-8125-4a8f-9f59-c1cf1bdc5430","system_id":"levelo_inurba_marseille","lat":43.3283,"lon":5.38895,"is_reserved":false,"is_disabled":false,"rental_uris":{"android":"levelo://app?vid=a1d588f9-8125-4a8f-9f59-c1cf1bdc5430","ios":"levelo://app?vid=a1d588f9-8125-4a8f-9f59-c1cf1bdc5430"},"vehicle_type_id":"4","last_reported":1685772493,"current_range_meters":18000,"station_id":"","pricing_plan_id":"free"},{"bike_id":"77212865-af0c-42d6-af71-d9902d00955b","system_id":"levelo_inurba_marseille","lat":43.290631,"lon":5.359244,"is_reserved":false,"is_disabled":false,"rental_uris":{"android":"levelo://app?vid=77212865-af0c-42d6-af71-d9902d00955b","ios":"levelo://app?vid=77212865-af0c-42d6-af71-d9902d00955b"},"vehicle_type_id":"4","last_reported":1685772493,"current_range_meters":26000,"station_id":"ce4bha92rcd13ifvqeg0","pricing_plan_id":"free"},{"bike_id":"14b06fec-0565-4e2e-b267-a11f1d1a7d86","system_id":"levelo_inurba_marseille","lat":43.2904,"lon":5.35915,"is_reserved":false,"is_disabled":false,"rental_uris":{"android":"levelo://app?vid=14b06fec-0565-4e2e-b267-a11f1d1a7d86","ios":"levelo://app?vid=14b06fec-0565-4e2e-b267-a11f1d1a7d86"},"vehicle_type_id":"4","last_reported":1685772493,"current_range_meters":0,"station_id":"ce4bha92rcd13ifvqeg0","pricing_plan_id":"free"},{"bike_id":"0e1e7373-1c7c-4da4-b6da-af974ebee562","system_id":"levelo_inurba_marseille","lat":43.29034,"lon":5.35927,"is_reserved":false,"is_disabled":false,"rental_uris":{"android":"levelo://app?vid=0e1e7373-1c7c-4da4-b6da-af974ebee562","ios":"levelo://app?vid=0e1e7373-1c7c-4da4-b6da-af974ebee562"},"vehicle_type_id":"4","last_reported":1685772493,"current_range_meters":0,"station_id":"ce4bha92rcd13ifvqeg0","pricing_plan_id":"free"},{"bike_id":"d2a20312-5c7a-4c61-afa2-731bd42410b3","system_id":"levelo_inurba_marseille","lat":43.289468,"lon":5.363719,"is_reserved":false,"is_disabled":false,"rental_uris":{"android":"levelo://app?vid=d2a20312-5c7a-4c61-afa2-731bd42410b3","ios":"levelo://app?vid=d2a20312-5c7a-4c61-afa2-731bd42410b3"},"vehicle_type_id":"4","last_reported":1685772493,"current_range_meters":30800,"station_id":"ce4bhc92rcd13ifvqetg","pricing_plan_id":"free"},{"bike_id":"06fe2623-9336-4f8b-ade1-aad3e039624d","system_id":"levelo_inurba_marseille","lat":43.28927,"lon":5.36377,"is_reserved":false,"is_disabled":false,"rental_uris":{"android":"levelo://app?vid=06fe2623-9336-4f8b-ade1-aad3e039624d","ios":"levelo://app?vid=06fe2623-9336-4f8b-ade1-aad3e039624d"},"vehicle_type_id":"4","last_reported":1685772493,"current_range_meters":28000,"station_id":"ce4bhc92rcd13ifvqetg","pricing_plan_id":"free"},{"bike_id":"238bdd80-20ed-403e-b7a9-80e9eac0c4be","system_id":"levelo_inurba_marseille","lat":43.289468,"lon":5.363719,"is_reserved":false,"is_disabled":false,"rental_uris":{"android":"levelo://app?vid=238bdd80-20ed-403e-b7a9-80e9eac0c4be","ios":"levelo://app?vid=238bdd80-20ed-403e-b7a9-80e9eac0c4be"},"vehicle_type_id":"4","last_reported":1685772493,"current_range_meters":31200,"station_id":"ce4bhc92rcd13ifvqetg","pricing_plan_id":"free"},{"bike_id":"aaefcfe6-fecd-418e-965c-c5d3a860a360","system_id":"levelo_inurba_marseille","lat":43.292732,"lon":5.384388,"is_reserved":false,"is_disabled":false,"rental_uris":{"android":"levelo://app?vid=aaefcfe6-fecd-418e-965c-c5d3a860a360","ios":"levelo://app?vid=aaefcfe6-fecd-418e-965c-c5d3a860a360"},"vehicle_type_id":"4","last_reported":1685772493,"current_range_meters":800,"station_id":"","pricing_plan_id":"free"},{"bike_id":"05f1a2c7-d830-495c-86b8-292585194459","system_id":"levelo_inurba_marseille","lat":43.3304,"lon":5.38919,"is_reserved":false,"is_disabled":false,"rental_uris":{"android":"levelo://app?vid=05f1a2c7-d830-495c-86b8-292585194459","ios":"levelo://app?vid=05f1a2c7-d830-495c-86b8-292585194459"},"vehicle_type_id":"4","last_reported":1685772493,"current_range_meters":24000,"station_id":"ce4bhr92rcd13ifvqhrg","pricing_plan_id":"free"},{"bike_id":"a05aa7b2-65ae-4c00-9ac7-36200056da53","system_id":"levelo_inurba_marseille","lat":43.3304,"lon":5.3892,"is_reserved":false,"is_disabled":false,"rental_uris":{"android":"levelo://app?vid=a05aa7b2-65ae-4c00-9ac7-36200056da53","ios":"levelo://app?vid=a05aa7b2-65ae-4c00-9ac7-36200056da53"},"vehicle_type_id":"4","last_reported":1685772493,"current_range_meters":30400,"station_id":"ce4bhr92rcd13ifvqhrg","pricing_plan_id":"free"},{"bike_id":"2364282a-cb9d-46e5-8a93-f3855a133753","system_id":"levelo_inurba_marseille","lat":43.330427,"lon":5.38921,"is_reserved":false,"is_disabled":false,"rental_uris":{"android":"levelo://app?vid=2364282a-cb9d-46e5-8a93-f3855a133753","ios":"levelo://app?vid=2364282a-cb9d-46e5-8a93-f3855a133753"},"vehicle_type_id":"4","last_reported":1685772493,"current_range_meters":21600,"station_id":"ce4bhr92rcd13ifvqhrg","pricing_plan_id":"free"},{"bike_id":"982319b6-81fb-49e9-b8c5-da162418c1ce","system_id":"levelo_inurba_marseille","lat":43.29094,"lon":5.38154,"is_reserved":false,"is_disabled":false,"rental_uris":{"android":"levelo://app?vid=982319b6-81fb-49e9-b8c5-da162418c1ce","ios":"levelo://app?vid=982319b6-81fb-49e9-b8c5-da162418c1ce"},"vehicle_type_id":"4","last_reported":1685772493,"current_range_meters":0,"station_id":"ce4bh512rcd13ifvqe2g","pricing_plan_id":"free"},{"bike_id":"3ca82d25-7d34-4416-8649-066f76d6b877","system_id":"levelo_inurba_marseille","lat":43.290995,"lon":5.381361,"is_reserved":false,"is_disabled":false,"rental_uris":{"android":"levelo://app?vid=3ca82d25-7d34-4416-8649-066f76d6b877","ios":"levelo://app?vid=3ca82d25-7d34-4416-8649-066f76d6b877"},"vehicle_type_id":"4","last_reported":1685772493,"current_range_meters":0,"station_id":"ce4bh512rcd13ifvqe2g","pricing_plan_id":"free"},{"bike_id":"7650d29f-589f-489a-9842-1cf5ddea9dc5","system_id":"levelo_inurba_marseille","lat":43.297814,"lon":5.393513,"is_reserved":false,"is_disabled":false,"rental_uris":{"android":"levelo://app?vid=7650d29f-589f-489a-9842-1cf5ddea9dc5","ios":"levelo://app?vid=7650d29f-589f-489a-9842-1cf5ddea9dc5"},"vehicle_type_id":"4","last_reported":1685772493,"current_range_meters":14400,"station_id":"chh1huq6cuj3fo74tm60","pricing_plan_id":"free"},{"bike_id":"d419b30b-1292-4786-9cfa-1b2a5b1839ce","system_id":"levelo_inurba_marseille","lat":43.289732,"lon":5.378425,"is_reserved":false,"is_disabled":false,"rental_uris":{"android":"levelo://app?vid=d419b30b-1292-4786-9cfa-1b2a5b1839ce","ios":"levelo://app?vid=d419b30b-1292-4786-9cfa-1b2a5b1839ce"},"vehicle_type_id":"4","last_reported":1685772493,"current_range_meters":13200,"station_id":"ce4bh9p2rcd13ifvqed0","pricing_plan_id":"free"},{"bike_id":"d2d22ada-ab7a-43df-8c6e-c627b2b9b36e","system_id":"levelo_inurba_marseille","lat":43.3092,"lon":5.4014,"is_reserved":false,"is_disabled":false,"rental_uris":{"android":"levelo://app?vid=d2d22ada-ab7a-43df-8c6e-c627b2b9b36e","ios":"levelo://app?vid=d2d22ada-ab7a-43df-8c6e-c627b2b9b36e"},"vehicle_type_id":"4","last_reported":1685772493,"current_range_meters":29200,"station_id":"","pricing_plan_id":"free"},{"bike_id":"a5c23062-7c79-4017-836c-d3338f24ba8e","system_id":"levelo_inurba_marseille","lat":43.30661,"lon":5.40071,"is_reserved":false,"is_disabled":false,"rental_uris":{"android":"levelo://app?vid=a5c23062-7c79-4017-836c-d3338f24ba8e","ios":"levelo://app?vid=a5c23062-7c79-4017-836c-d3338f24ba8e"},"vehicle_type_id":"4","last_reported":1685772493,"current_range_meters":31200,"station_id":"ce4bh112rcd13ifvqda0","pricing_plan_id":"free"},{"bike_id":"1dcaa270-78fa-460e-81ea-78c9a76c8a12","system_id":"levelo_inurba_marseille","lat":43.30927,"lon":5.40146,"is_reserved":false,"is_disabled":false,"rental_uris":{"android":"levelo://app?vid=1dcaa270-78fa-460e-81ea-78c9a76c8a12","ios":"levelo://app?vid=1dcaa270-78fa-460e-81ea-78c9a76c8a12"},"vehicle_type_id":"4","last_reported":1685772493,"current_range_meters":4800,"station_id":"","pricing_plan_id":"free"},{"bike_id":"078b0493-3cdb-4be0-9172-7ed80122f3ae","system_id":"levelo_inurba_marseille","lat":43.3063,"lon":5.4007,"is_reserved":false,"is_disabled":false,"rental_uris":{"android":"levelo://app?vid=078b0493-3cdb-4be0-9172-7ed80122f3ae","ios":"levelo://app?vid=078b0493-3cdb-4be0-9172-7ed80122f3ae"},"vehicle_type_id":"4","last_reported":1685772493,"current_range_meters":15200,"station_id":"ce4bh112rcd13ifvqda0","pricing_plan_id":"free"},{"bike_id":"a7d6869f-0a9c-4078-8ded-78674e9862e5","system_id":"levelo_inurba_marseille","lat":43.3065,"lon":5.40078,"is_reserved":false,"is_disabled":false,"rental_uris":{"android":"levelo://app?vid=a7d6869f-0a9c-4078-8ded-78674e9862e5","ios":"levelo://app?vid=a7d6869f-0a9c-4078-8ded-78674e9862e5"},"vehicle_type_id":"4","last_reported":1685772493,"current_range_meters":23200,"station_id":"ce4bh112rcd13ifvqda0","pricing_plan_id":"free"},{"bike_id":"bae974bb-cb49-4ceb-b06d-aa8b29365088","system_id":"levelo_inurba_marseille","lat":43.30642,"lon":5.40077,"is_reserved":false,"is_disabled":false,"rental_uris":{"android":"levelo://app?vid=bae974bb-cb49-4ceb-b06d-aa8b29365088","ios":"levelo://app?vid=bae974bb-cb49-4ceb-b06d-aa8b29365088"},"vehicle_type_id":"4","last_reported":1685772493,"current_range_meters":31200,"station_id":"ce4bh112rcd13ifvqda0","pricing_plan_id":"free"},{"bike_id":"09044982-2e58-4a53-993c-2701ccdb63d8","system_id":"levelo_inurba_marseille","lat":43.33758,"lon":5.3744,"is_reserved":false,"is_disabled":false,"rental_uris":{"android":"levelo://app?vid=09044982-2e58-4a53-993c-2701ccdb63d8","ios":"levelo://app?vid=09044982-2e58-4a53-993c-2701ccdb63d8"},"vehicle_type_id":"4","last_reported":1685772493,"current_range_meters":17200,"station_id":"","pricing_plan_id":"free"},{"bike_id":"5524a949-1ef1-475c-a36d-ee73a6528238","system_id":"levelo_inurba_marseille","lat":43.3064,"lon":5.40079,"is_reserved":false,"is_disabled":false,"rental_uris":{"android":"levelo://app?vid=5524a949-1ef1-475c-a36d-ee73a6528238","ios":"levelo://app?vid=5524a949-1ef1-475c-a36d-ee73a6528238"},"vehicle_type_id":"4","last_reported":1685772493,"current_range_meters":31200,"station_id":"ce4bh112rcd13ifvqda0","pricing_plan_id":"free"},{"bike_id":"65e4f83c-7431-45cc-8619-e4ea0790620f","system_id":"levelo_inurba_marseille","lat":43.33763,"lon":5.37455,"is_reserved":false,"is_disabled":false,"rental_uris":{"android":"levelo://app?vid=65e4f83c-7431-45cc-8619-e4ea0790620f","ios":"levelo://app?vid=65e4f83c-7431-45cc-8619-e4ea0790620f"},"vehicle_type_id":"4","last_reported":1685772493,"current_range_meters":31200,"station_id":"","pricing_plan_id":"free"},{"bike_id":"0113e38e-96e8-443e-8ffa-9a4f8c786a1e","system_id":"levelo_inurba_marseille","lat":43.33767,"lon":5.37436,"is_reserved":false,"is_disabled":false,"rental_uris":{"android":"levelo://app?vid=0113e38e-96e8-443e-8ffa-9a4f8c786a1e","ios":"levelo://app?vid=0113e38e-96e8-443e-8ffa-9a4f8c786a1e"},"vehicle_type_id":"4","last_reported":1685772493,"current_range_meters":22000,"station_id":"","pricing_plan_id":"free"},{"bike_id":"6e595a9e-0562-46a0-8383-52e1308e21cf","system_id":"levelo_inurba_marseille","lat":43.30651,"lon":5.40095,"is_reserved":false,"is_disabled":false,"rental_uris":{"android":"levelo://app?vid=6e595a9e-0562-46a0-8383-52e1308e21cf","ios":"levelo://app?vid=6e595a9e-0562-46a0-8383-52e1308e21cf"},"vehicle_type_id":"4","last_reported":1685772493,"current_range_meters":27600,"station_id":"ce4bh112rcd13ifvqda0","pricing_plan_id":"free"},{"bike_id":"9d1dcca5-8c40-4357-a3d8-707dd9f3c91e","system_id":"levelo_inurba_marseille","lat":43.30644,"lon":5.40099,"is_reserved":false,"is_disabled":false,"rental_uris":{"android":"levelo://app?vid=9d1dcca5-8c40-4357-a3d8-707dd9f3c91e","ios":"levelo://app?vid=9d1dcca5-8c40-4357-a3d8-707dd9f3c91e"},"vehicle_type_id":"4","last_reported":1685772493,"current_range_meters":16800,"station_id":"ce4bh112rcd13ifvqda0","pricing_plan_id":"free"},{"bike_id":"ff623794-17a5-4a1f-acc6-f94f4c80336d","system_id":"levelo_inurba_marseille","lat":43.3064,"lon":5.40112,"is_reserved":false,"is_disabled":false,"rental_uris":{"android":"levelo://app?vid=ff623794-17a5-4a1f-acc6-f94f4c80336d","ios":"levelo://app?vid=ff623794-17a5-4a1f-acc6-f94f4c80336d"},"vehicle_type_id":"4","last_reported":1685772493,"current_range_meters":29600,"station_id":"ce4bh112rcd13ifvqda0","pricing_plan_id":"free"},{"bike_id":"cf0caa37-cec8-408b-98f7-37211a80813c","system_id":"levelo_inurba_marseille","lat":43.33789,"lon":5.37428,"is_reserved":false,"is_disabled":false,"rental_uris":{"android":"levelo://app?vid=cf0caa37-cec8-408b-98f7-37211a80813c","ios":"levelo://app?vid=cf0caa37-cec8-408b-98f7-37211a80813c"},"vehicle_type_id":"4","last_reported":1685772493,"current_range_meters":26000,"station_id":"","pricing_plan_id":"free"},{"bike_id":"1bbd3025-9a76-4b64-8ef0-27b95c3f6653","system_id":"levelo_inurba_marseille","lat":43.282754,"lon":5.350519,"is_reserved":false,"is_disabled":false,"rental_uris":{"android":"levelo://app?vid=1bbd3025-9a76-4b64-8ef0-27b95c3f6653","ios":"levelo://app?vid=1bbd3025-9a76-4b64-8ef0-27b95c3f6653"},"vehicle_type_id":"4","last_reported":1685772493,"current_range_meters":5600,"station_id":"ce4bhbp2rcd13ifvqerg","pricing_plan_id":"free"},{"bike_id":"96633d3d-6459-489c-ada3-5256246c08ee","system_id":"levelo_inurba_marseille","lat":43.294153,"lon":5.386305,"is_reserved":false,"is_disabled":false,"rental_uris":{"android":"levelo://app?vid=96633d3d-6459-489c-ada3-5256246c08ee","ios":"levelo://app?vid=96633d3d-6459-489c-ada3-5256246c08ee"},"vehicle_type_id":"4","last_reported":1685772493,"current_range_meters":12800,"station_id":"ce4bh2h2rcd13ifvqdh0","pricing_plan_id":"free"},{"bike_id":"73a46448-0260-49b0-a18b-c8aca0b3d05a","system_id":"levelo_inurba_marseille","lat":43.295174,"lon":5.394022,"is_reserved":false,"is_disabled":false,"rental_uris":{"android":"levelo://app?vid=73a46448-0260-49b0-a18b-c8aca0b3d05a","ios":"levelo://app?vid=73a46448-0260-49b0-a18b-c8aca0b3d05a"},"vehicle_type_id":"4","last_reported":1685772493,"current_range_meters":0,"station_id":"ce4bh292rcd13ifvqdf0","pricing_plan_id":"free"},{"bike_id":"a88cee53-c917-45e6-9a38-8f512ad8b9d4","system_id":"levelo_inurba_marseille","lat":43.295194,"lon":5.39397,"is_reserved":false,"is_disabled":false,"rental_uris":{"android":"levelo://app?vid=a88cee53-c917-45e6-9a38-8f512ad8b9d4","ios":"levelo://app?vid=a88cee53-c917-45e6-9a38-8f512ad8b9d4"},"vehicle_type_id":"4","last_reported":1685772493,"current_range_meters":31200,"station_id":"ce4bh292rcd13ifvqdf0","pricing_plan_id":"free"},{"bike_id":"d30ba1a8-2da3-4698-b1d9-8acc866ce69c","system_id":"levelo_inurba_marseille","lat":43.316517,"lon":5.404375,"is_reserved":false,"is_disabled":false,"rental_uris":{"android":"levelo://app?vid=d30ba1a8-2da3-4698-b1d9-8acc866ce69c","ios":"levelo://app?vid=d30ba1a8-2da3-4698-b1d9-8acc866ce69c"},"vehicle_type_id":"4","last_reported":1685772493,"current_range_meters":11200,"station_id":"ce4bh012rcd13ifvqd00","pricing_plan_id":"free"},{"bike_id":"81845646-15f0-4d60-ac16-1cce172a2eba","system_id":"levelo_inurba_marseille","lat":43.284534,"lon":5.358662,"is_reserved":false,"is_disabled":false,"rental_uris":{"android":"levelo://app?vid=81845646-15f0-4d60-ac16-1cce172a2eba","ios":"levelo://app?vid=81845646-15f0-4d60-ac16-1cce172a2eba"},"vehicle_type_id":"4","last_reported":1685772493,"current_range_meters":30000,"station_id":"ce4bhah2rcd13ifvqei0","pricing_plan_id":"free"},{"bike_id":"840a2823-123b-4d6f-b7df-44dee700ffcd","system_id":"levelo_inurba_marseille","lat":43.284538,"lon":5.358657,"is_reserved":false,"is_disabled":false,"rental_uris":{"android":"levelo://app?vid=840a2823-123b-4d6f-b7df-44dee700ffcd","ios":"levelo://app?vid=840a2823-123b-4d6f-b7df-44dee700ffcd"},"vehicle_type_id":"4","last_reported":1685772493,"current_range_meters":30800,"station_id":"ce4bhah2rcd13ifvqei0","pricing_plan_id":"free"},{"bike_id":"60bbacbe-f001-45a7-b4e9-26ffa98ff739","system_id":"levelo_inurba_marseille","lat":43.284538,"lon":5.358657,"is_reserved":false,"is_disabled":false,"rental_uris":{"android":"levelo://app?vid=60bbacbe-f001-45a7-b4e9-26ffa98ff739","ios":"levelo://app?vid=60bbacbe-f001-45a7-b4e9-26ffa98ff739"},"vehicle_type_id":"4","last_reported":1685772493,"current_range_meters":31200,"station_id":"ce4bhah2rcd13ifvqei0","pricing_plan_id":"free"},{"bike_id":"4343154b-e5ef-4aff-ad4c-3b79d2f72d14","system_id":"levelo_inurba_marseille","lat":43.284534,"lon":5.358662,"is_reserved":false,"is_disabled":false,"rental_uris":{"android":"levelo://app?vid=4343154b-e5ef-4aff-ad4c-3b79d2f72d14","ios":"levelo://app?vid=4343154b-e5ef-4aff-ad4c-3b79d2f72d14"},"vehicle_type_id":"4","last_reported":1685772493,"current_range_meters":27200,"station_id":"ce4bhah2rcd13ifvqei0","pricing_plan_id":"free"},{"bike_id":"6575b98c-747d-445d-85b0-6f6a8fe4f574","system_id":"levelo_inurba_marseille","lat":43.28455,"lon":5.35899,"is_reserved":false,"is_disabled":false,"rental_uris":{"android":"levelo://app?vid=6575b98c-747d-445d-85b0-6f6a8fe4f574","ios":"levelo://app?vid=6575b98c-747d-445d-85b0-6f6a8fe4f574"},"vehicle_type_id":"4","last_reported":1685772493,"current_range_meters":22000,"station_id":"ce4bhah2rcd13ifvqei0","pricing_plan_id":"free"},{"bike_id":"02cc54b5-f526-42f4-b034-9c6235a969aa","system_id":"levelo_inurba_marseille","lat":43.284534,"lon":5.358662,"is_reserved":false,"is_disabled":false,"rental_uris":{"android":"levelo://app?vid=02cc54b5-f526-42f4-b034-9c6235a969aa","ios":"levelo://app?vid=02cc54b5-f526-42f4-b034-9c6235a969aa"},"vehicle_type_id":"4","last_reported":1685772493,"current_range_meters":26400,"station_id":"ce4bhah2rcd13ifvqei0","pricing_plan_id":"free"},{"bike_id":"3f5342c9-8fec-441d-b63c-fdd3cbbf2d63","system_id":"levelo_inurba_marseille","lat":43.284538,"lon":5.358657,"is_reserved":false,"is_disabled":false,"rental_uris":{"android":"levelo://app?vid=3f5342c9-8fec-441d-b63c-fdd3cbbf2d63","ios":"levelo://app?vid=3f5342c9-8fec-441d-b63c-fdd3cbbf2d63"},"vehicle_type_id":"4","last_reported":1685772493,"current_range_meters":27200,"station_id":"ce4bhah2rcd13ifvqei0","pricing_plan_id":"free"},{"bike_id":"0a8aba60-b51b-427d-be66-8709066b23d1","system_id":"levelo_inurba_marseille","lat":43.33154,"lon":5.39819,"is_reserved":false,"is_disabled":false,"rental_uris":{"android":"levelo://app?vid=0a8aba60-b51b-427d-be66-8709066b23d1","ios":"levelo://app?vid=0a8aba60-b51b-427d-be66-8709066b23d1"},"vehicle_type_id":"4","last_reported":1685772493,"current_range_meters":30400,"station_id":"","pricing_plan_id":"free"},{"bike_id":"b205e703-9cc6-479d-b47b-dcec15459f4d","system_id":"levelo_inurba_marseille","lat":43.32699,"lon":5.40374,"is_reserved":false,"is_disabled":false,"rental_uris":{"android":"levelo://app?vid=b205e703-9cc6-479d-b47b-dcec15459f4d","ios":"levelo://app?vid=b205e703-9cc6-479d-b47b-dcec15459f4d"},"vehicle_type_id":"4","last_reported":1685772493,"current_range_meters":18400,"station_id":"","pricing_plan_id":"free"},{"bike_id":"b4fa9470-cecd-4e05-8c5d-47b75f84e216","system_id":"levelo_inurba_marseille","lat":43.323464,"lon":5.406297,"is_reserved":false,"is_disabled":false,"rental_uris":{"android":"levelo://app?vid=b4fa9470-cecd-4e05-8c5d-47b75f84e216","ios":"levelo://app?vid=b4fa9470-cecd-4e05-8c5d-47b75f84e216"},"vehicle_type_id":"4","last_reported":1685772493,"current_range_meters":30400,"station_id":"ce4bhq92rcd13ifvqhjg","pricing_plan_id":"free"},{"bike_id":"0a1605d6-87c9-472d-8606-00b4cb8bcbb4","system_id":"levelo_inurba_marseille","lat":43.323464,"lon":5.406297,"is_reserved":false,"is_disabled":false,"rental_uris":{"android":"levelo://app?vid=0a1605d6-87c9-472d-8606-00b4cb8bcbb4","ios":"levelo://app?vid=0a1605d6-87c9-472d-8606-00b4cb8bcbb4"},"vehicle_type_id":"4","last_reported":1685772493,"current_range_meters":16400,"station_id":"ce4bhq92rcd13ifvqhjg","pricing_plan_id":"free"},{"bike_id":"c6efa6ac-d327-4735-a284-170628c19eab","system_id":"levelo_inurba_marseille","lat":43.323464,"lon":5.406297,"is_reserved":false,"is_disabled":false,"rental_uris":{"android":"levelo://app?vid=c6efa6ac-d327-4735-a284-170628c19eab","ios":"levelo://app?vid=c6efa6ac-d327-4735-a284-170628c19eab"},"vehicle_type_id":"4","last_reported":1685772493,"current_range_meters":30000,"station_id":"ce4bhq92rcd13ifvqhjg","pricing_plan_id":"free"},{"bike_id":"f6a081b5-4909-4ee2-86fd-e67319ff0539","system_id":"levelo_inurba_marseille","lat":43.28478,"lon":5.38407,"is_reserved":false,"is_disabled":false,"rental_uris":{"android":"levelo://app?vid=f6a081b5-4909-4ee2-86fd-e67319ff0539","ios":"levelo://app?vid=f6a081b5-4909-4ee2-86fd-e67319ff0539"},"vehicle_type_id":"4","last_reported":1685772493,"current_range_meters":31200,"station_id":"ce4bh512rcd13ifvqe3g","pricing_plan_id":"free"},{"bike_id":"3bdd1f24-aee9-4ee2-974e-f1a85efce795","system_id":"levelo_inurba_marseille","lat":43.28475,"lon":5.3841,"is_reserved":false,"is_disabled":false,"rental_uris":{"android":"levelo://app?vid=3bdd1f24-aee9-4ee2-974e-f1a85efce795","ios":"levelo://app?vid=3bdd1f24-aee9-4ee2-974e-f1a85efce795"},"vehicle_type_id":"4","last_reported":1685772493,"current_range_meters":30800,"station_id":"ce4bh512rcd13ifvqe3g","pricing_plan_id":"free"},{"bike_id":"d2e36a1e-730e-429d-a6f1-d54132f86127","system_id":"levelo_inurba_marseille","lat":43.28471,"lon":5.38407,"is_reserved":false,"is_disabled":false,"rental_uris":{"android":"levelo://app?vid=d2e36a1e-730e-429d-a6f1-d54132f86127","ios":"levelo://app?vid=d2e36a1e-730e-429d-a6f1-d54132f86127"},"vehicle_type_id":"4","last_reported":1685772493,"current_range_meters":15600,"station_id":"ce4bh512rcd13ifvqe3g","pricing_plan_id":"free"},{"bike_id":"2e4799f0-90e8-4707-88e3-52f7ec22618c","system_id":"levelo_inurba_marseille","lat":43.284219,"lon":5.3497,"is_reserved":false,"is_disabled":false,"rental_uris":{"android":"levelo://app?vid=2e4799f0-90e8-4707-88e3-52f7ec22618c","ios":"levelo://app?vid=2e4799f0-90e8-4707-88e3-52f7ec22618c"},"vehicle_type_id":"4","last_reported":1685772493,"current_range_meters":22400,"station_id":"ce4bhbh2rcd13ifvqepg","pricing_plan_id":"free"},{"bike_id":"e8400f1d-d6c8-420c-b84f-2c09c73b50da","system_id":"levelo_inurba_marseille","lat":43.28422,"lon":5.34998,"is_reserved":false,"is_disabled":false,"rental_uris":{"android":"levelo://app?vid=e8400f1d-d6c8-420c-b84f-2c09c73b50da","ios":"levelo://app?vid=e8400f1d-d6c8-420c-b84f-2c09c73b50da"},"vehicle_type_id":"4","last_reported":1685772493,"current_range_meters":31600,"station_id":"ce4bhbh2rcd13ifvqepg","pricing_plan_id":"free"},{"bike_id":"116371d7-297f-4354-b067-2b57f496b55b","system_id":"levelo_inurba_marseille","lat":43.284217,"lon":5.349697,"is_reserved":false,"is_disabled":false,"rental_uris":{"android":"levelo://app?vid=116371d7-297f-4354-b067-2b57f496b55b","ios":"levelo://app?vid=116371d7-297f-4354-b067-2b57f496b55b"},"vehicle_type_id":"4","last_reported":1685772493,"current_range_meters":30400,"station_id":"ce4bhbh2rcd13ifvqepg","pricing_plan_id":"free"},{"bike_id":"bd2a67e7-d574-4fbf-8dac-f03b83bee552","system_id":"levelo_inurba_marseille","lat":43.284219,"lon":5.3497,"is_reserved":false,"is_disabled":false,"rental_uris":{"android":"levelo://app?vid=bd2a67e7-d574-4fbf-8dac-f03b83bee552","ios":"levelo://app?vid=bd2a67e7-d574-4fbf-8dac-f03b83bee552"},"vehicle_type_id":"4","last_reported":1685772493,"current_range_meters":31200,"station_id":"ce4bhbh2rcd13ifvqepg","pricing_plan_id":"free"},{"bike_id":"1c141bdb-1ff2-4181-a8aa-9d103464648d","system_id":"levelo_inurba_marseille","lat":43.284219,"lon":5.3497,"is_reserved":false,"is_disabled":false,"rental_uris":{"android":"levelo://app?vid=1c141bdb-1ff2-4181-a8aa-9d103464648d","ios":"levelo://app?vid=1c141bdb-1ff2-4181-a8aa-9d103464648d"},"vehicle_type_id":"4","last_reported":1685772493,"current_range_meters":28400,"station_id":"ce4bhbh2rcd13ifvqepg","pricing_plan_id":"free"},{"bike_id":"bfa5803a-60c1-4d27-8744-bcab9b20e932","system_id":"levelo_inurba_marseille","lat":43.284219,"lon":5.3497,"is_reserved":false,"is_disabled":false,"rental_uris":{"android":"levelo://app?vid=bfa5803a-60c1-4d27-8744-bcab9b20e932","ios":"levelo://app?vid=bfa5803a-60c1-4d27-8744-bcab9b20e932"},"vehicle_type_id":"4","last_reported":1685772493,"current_range_meters":29600,"station_id":"ce4bhbh2rcd13ifvqepg","pricing_plan_id":"free"},{"bike_id":"6b26d359-6b37-4b3d-8503-3149bec908dc","system_id":"levelo_inurba_marseille","lat":43.284217,"lon":5.349697,"is_reserved":false,"is_disabled":false,"rental_uris":{"android":"levelo://app?vid=6b26d359-6b37-4b3d-8503-3149bec908dc","ios":"levelo://app?vid=6b26d359-6b37-4b3d-8503-3149bec908dc"},"vehicle_type_id":"4","last_reported":1685772493,"current_range_meters":31200,"station_id":"ce4bhbh2rcd13ifvqepg","pricing_plan_id":"free"},{"bike_id":"fee7ee8b-9689-499f-bb2f-50348ebe565b","system_id":"levelo_inurba_marseille","lat":43.284187,"lon":5.34971,"is_reserved":false,"is_disabled":false,"rental_uris":{"android":"levelo://app?vid=fee7ee8b-9689-499f-bb2f-50348ebe565b","ios":"levelo://app?vid=fee7ee8b-9689-499f-bb2f-50348ebe565b"},"vehicle_type_id":"4","last_reported":1685772493,"current_range_meters":18400,"station_id":"ce4bhbh2rcd13ifvqepg","pricing_plan_id":"free"},{"bike_id":"d0ae8f4a-0881-4445-9807-fe072e3f85e9","system_id":"levelo_inurba_marseille","lat":43.29278,"lon":5.40114,"is_reserved":false,"is_disabled":false,"rental_uris":{"android":"levelo://app?vid=d0ae8f4a-0881-4445-9807-fe072e3f85e9","ios":"levelo://app?vid=d0ae8f4a-0881-4445-9807-fe072e3f85e9"},"vehicle_type_id":"4","last_reported":1685772493,"current_range_meters":28800,"station_id":"ce4bh312rcd13ifvqdk0","pricing_plan_id":"free"},{"bike_id":"3130445e-039d-47cf-845a-53b49cb21d6b","system_id":"levelo_inurba_marseille","lat":43.282754,"lon":5.350519,"is_reserved":false,"is_disabled":false,"rental_uris":{"android":"levelo://app?vid=3130445e-039d-47cf-845a-53b49cb21d6b","ios":"levelo://app?vid=3130445e-039d-47cf-845a-53b49cb21d6b"},"vehicle_type_id":"4","last_reported":1685772493,"current_range_meters":31200,"station_id":"ce4bhbp2rcd13ifvqerg","pricing_plan_id":"free"},{"bike_id":"1b563f93-ce44-435a-b09d-c58c7e4935c9","system_id":"levelo_inurba_marseille","lat":43.282754,"lon":5.350519,"is_reserved":false,"is_disabled":false,"rental_uris":{"android":"levelo://app?vid=1b563f93-ce44-435a-b09d-c58c7e4935c9","ios":"levelo://app?vid=1b563f93-ce44-435a-b09d-c58c7e4935c9"},"vehicle_type_id":"4","last_reported":1685772493,"current_range_meters":29200,"station_id":"ce4bhbp2rcd13ifvqerg","pricing_plan_id":"free"},{"bike_id":"d9094ffc-b805-48a8-95f1-b398f8a4b188","system_id":"levelo_inurba_marseille","lat":43.283502,"lon":5.386471,"is_reserved":false,"is_disabled":false,"rental_uris":{"android":"levelo://app?vid=d9094ffc-b805-48a8-95f1-b398f8a4b188","ios":"levelo://app?vid=d9094ffc-b805-48a8-95f1-b398f8a4b188"},"vehicle_type_id":"4","last_reported":1685772493,"current_range_meters":31600,"station_id":"ce4bh492rcd13ifvqdvg","pricing_plan_id":"free"},{"bike_id":"5c4a3886-169f-483f-9521-46605f028117","system_id":"levelo_inurba_marseille","lat":43.282744,"lon":5.350533,"is_reserved":false,"is_disabled":false,"rental_uris":{"android":"levelo://app?vid=5c4a3886-169f-483f-9521-46605f028117","ios":"levelo://app?vid=5c4a3886-169f-483f-9521-46605f028117"},"vehicle_type_id":"4","last_reported":1685772493,"current_range_meters":29200,"station_id":"ce4bhbp2rcd13ifvqerg","pricing_plan_id":"free"},{"bike_id":"8af67f3c-edce-4d54-93b0-2ef8111f31fb","system_id":"levelo_inurba_marseille","lat":43.283502,"lon":5.386471,"is_reserved":false,"is_disabled":false,"rental_uris":{"android":"levelo://app?vid=8af67f3c-edce-4d54-93b0-2ef8111f31fb","ios":"levelo://app?vid=8af67f3c-edce-4d54-93b0-2ef8111f31fb"},"vehicle_type_id":"4","last_reported":1685772493,"current_range_meters":31200,"station_id":"ce4bh492rcd13ifvqdvg","pricing_plan_id":"free"},{"bike_id":"34a779cb-cb8c-4bc1-a1b5-a8ddc7d488c1","system_id":"levelo_inurba_marseille","lat":43.28363,"lon":5.38629,"is_reserved":false,"is_disabled":false,"rental_uris":{"android":"levelo://app?vid=34a779cb-cb8c-4bc1-a1b5-a8ddc7d488c1","ios":"levelo://app?vid=34a779cb-cb8c-4bc1-a1b5-a8ddc7d488c1"},"vehicle_type_id":"4","last_reported":1685772493,"current_range_meters":3600,"station_id":"ce4bh492rcd13ifvqdvg","pricing_plan_id":"free"},{"bike_id":"603c6f10-f06c-4886-972e-5218ac1ad59a","system_id":"levelo_inurba_marseille","lat":43.28039,"lon":5.369297,"is_reserved":false,"is_disabled":false,"rental_uris":{"android":"levelo://app?vid=603c6f10-f06c-4886-972e-5218ac1ad59a","ios":"levelo://app?vid=603c6f10-f06c-4886-972e-5218ac1ad59a"},"vehicle_type_id":"4","last_reported":1685772493,"current_range_meters":26000,"station_id":"ce4bha12rcd13ifvqef0","pricing_plan_id":"free"},{"bike_id":"8447ad29-6da1-4db6-8730-151f1b57a324","system_id":"levelo_inurba_marseille","lat":43.283502,"lon":5.386471,"is_reserved":false,"is_disabled":false,"rental_uris":{"android":"levelo://app?vid=8447ad29-6da1-4db6-8730-151f1b57a324","ios":"levelo://app?vid=8447ad29-6da1-4db6-8730-151f1b57a324"},"vehicle_type_id":"4","last_reported":1685772493,"current_range_meters":31200,"station_id":"ce4bh492rcd13ifvqdvg","pricing_plan_id":"free"},{"bike_id":"4a275dc4-a47e-4554-a00b-528f847cf18f","system_id":"levelo_inurba_marseille","lat":43.284462,"lon":5.392121,"is_reserved":false,"is_disabled":false,"rental_uris":{"android":"levelo://app?vid=4a275dc4-a47e-4554-a00b-528f847cf18f","ios":"levelo://app?vid=4a275dc4-a47e-4554-a00b-528f847cf18f"},"vehicle_type_id":"4","last_reported":1685772493,"current_range_meters":23200,"station_id":"ce4bhoh2rcd13ifvqh5g","pricing_plan_id":"free"},{"bike_id":"4e5a2f24-6cff-4b00-b622-2cd1c67427c7","system_id":"levelo_inurba_marseille","lat":43.304188,"lon":5.412904,"is_reserved":false,"is_disabled":false,"rental_uris":{"android":"levelo://app?vid=4e5a2f24-6cff-4b00-b622-2cd1c67427c7","ios":"levelo://app?vid=4e5a2f24-6cff-4b00-b622-2cd1c67427c7"},"vehicle_type_id":"4","last_reported":1685772493,"current_range_meters":1200,"station_id":"ce4bhop2rcd13ifvqh8g","pricing_plan_id":"free"},{"bike_id":"ca702cd9-b41f-4146-8bbc-2a4ff0b324b2","system_id":"levelo_inurba_marseille","lat":43.304188,"lon":5.412904,"is_reserved":false,"is_disabled":false,"rental_uris":{"android":"levelo://app?vid=ca702cd9-b41f-4146-8bbc-2a4ff0b324b2","ios":"levelo://app?vid=ca702cd9-b41f-4146-8bbc-2a4ff0b324b2"},"vehicle_type_id":"4","last_reported":1685772493,"current_range_meters":4800,"station_id":"ce4bhop2rcd13ifvqh8g","pricing_plan_id":"free"},{"bike_id":"4e0ac645-a893-4045-a69f-f7488007fe7a","system_id":"levelo_inurba_marseille","lat":43.304188,"lon":5.412904,"is_reserved":false,"is_disabled":false,"rental_uris":{"android":"levelo://app?vid=4e0ac645-a893-4045-a69f-f7488007fe7a","ios":"levelo://app?vid=4e0ac645-a893-4045-a69f-f7488007fe7a"},"vehicle_type_id":"4","last_reported":1685772493,"current_range_meters":22400,"station_id":"ce4bhop2rcd13ifvqh8g","pricing_plan_id":"free"},{"bike_id":"64276e10-ce58-4087-bf84-bf27b35a1165","system_id":"levelo_inurba_marseille","lat":43.304188,"lon":5.412904,"is_reserved":false,"is_disabled":false,"rental_uris":{"android":"levelo://app?vid=64276e10-ce58-4087-bf84-bf27b35a1165","ios":"levelo://app?vid=64276e10-ce58-4087-bf84-bf27b35a1165"},"vehicle_type_id":"4","last_reported":1685772493,"current_range_meters":14400,"station_id":"ce4bhop2rcd13ifvqh8g","pricing_plan_id":"free"},{"bike_id":"ecc99947-5ed1-4bd2-84ee-04505db5300d","system_id":"levelo_inurba_marseille","lat":43.27907,"lon":5.3801,"is_reserved":false,"is_disabled":false,"rental_uris":{"android":"levelo://app?vid=ecc99947-5ed1-4bd2-84ee-04505db5300d","ios":"levelo://app?vid=ecc99947-5ed1-4bd2-84ee-04505db5300d"},"vehicle_type_id":"4","last_reported":1685772493,"current_range_meters":2400,"station_id":"","pricing_plan_id":"free"},{"bike_id":"5ba43f0e-9370-401e-a4ac-38da2d243a64","system_id":"levelo_inurba_marseille","lat":43.27902,"lon":5.3801,"is_reserved":false,"is_disabled":false,"rental_uris":{"android":"levelo://app?vid=5ba43f0e-9370-401e-a4ac-38da2d243a64","ios":"levelo://app?vid=5ba43f0e-9370-401e-a4ac-38da2d243a64"},"vehicle_type_id":"4","last_reported":1685772493,"current_range_meters":30800,"station_id":"","pricing_plan_id":"free"},{"bike_id":"e43adc24-ea26-4446-8922-5d5adf51c217","system_id":"levelo_inurba_marseille","lat":43.28712,"lon":5.39984,"is_reserved":false,"is_disabled":false,"rental_uris":{"android":"levelo://app?vid=e43adc24-ea26-4446-8922-5d5adf51c217","ios":"levelo://app?vid=e43adc24-ea26-4446-8922-5d5adf51c217"},"vehicle_type_id":"4","last_reported":1685772493,"current_range_meters":31200,"station_id":"ce4bho92rcd13ifvqh3g","pricing_plan_id":"free"},{"bike_id":"f5d7bead-d5de-4eb7-9345-cff881197143","system_id":"levelo_inurba_marseille","lat":43.2871,"lon":5.39984,"is_reserved":false,"is_disabled":false,"rental_uris":{"android":"levelo://app?vid=f5d7bead-d5de-4eb7-9345-cff881197143","ios":"levelo://app?vid=f5d7bead-d5de-4eb7-9345-cff881197143"},"vehicle_type_id":"4","last_reported":1685772493,"current_range_meters":19200,"station_id":"ce4bho92rcd13ifvqh3g","pricing_plan_id":"free"},{"bike_id":"6eec6bb4-e649-4004-afe5-986d5575f916","system_id":"levelo_inurba_marseille","lat":43.28712,"lon":5.39989,"is_reserved":false,"is_disabled":false,"rental_uris":{"android":"levelo://app?vid=6eec6bb4-e649-4004-afe5-986d5575f916","ios":"levelo://app?vid=6eec6bb4-e649-4004-afe5-986d5575f916"},"vehicle_type_id":"4","last_reported":1685772493,"current_range_meters":28000,"station_id":"ce4bho92rcd13ifvqh3g","pricing_plan_id":"free"},{"bike_id":"ed530ae4-75eb-4fbd-8765-f582fba6c516","system_id":"levelo_inurba_marseille","lat":43.3464,"lon":5.38061,"is_reserved":false,"is_disabled":false,"rental_uris":{"android":"levelo://app?vid=ed530ae4-75eb-4fbd-8765-f582fba6c516","ios":"levelo://app?vid=ed530ae4-75eb-4fbd-8765-f582fba6c516"},"vehicle_type_id":"4","last_reported":1685772493,"current_range_meters":0,"station_id":"","pricing_plan_id":"free"},{"bike_id":"f98f2ccd-3d75-4ce0-8367-f0d5b1ac1478","system_id":"levelo_inurba_marseille","lat":43.287083,"lon":5.399886,"is_reserved":false,"is_disabled":false,"rental_uris":{"android":"levelo://app?vid=f98f2ccd-3d75-4ce0-8367-f0d5b1ac1478","ios":"levelo://app?vid=f98f2ccd-3d75-4ce0-8367-f0d5b1ac1478"},"vehicle_type_id":"4","last_reported":1685772493,"current_range_meters":20800,"station_id":"ce4bho92rcd13ifvqh3g","pricing_plan_id":"free"},{"bike_id":"b9f88bda-7823-4fb1-9ea1-7b4f43603d46","system_id":"levelo_inurba_marseille","lat":43.287154,"lon":5.399979,"is_reserved":false,"is_disabled":false,"rental_uris":{"android":"levelo://app?vid=b9f88bda-7823-4fb1-9ea1-7b4f43603d46","ios":"levelo://app?vid=b9f88bda-7823-4fb1-9ea1-7b4f43603d46"},"vehicle_type_id":"4","last_reported":1685772493,"current_range_meters":31200,"station_id":"ce4bho92rcd13ifvqh3g","pricing_plan_id":"free"},{"bike_id":"bf48e14b-d457-4eac-ba1f-b3afb9910cd4","system_id":"levelo_inurba_marseille","lat":43.279742,"lon":5.38744,"is_reserved":false,"is_disabled":false,"rental_uris":{"android":"levelo://app?vid=bf48e14b-d457-4eac-ba1f-b3afb9910cd4","ios":"levelo://app?vid=bf48e14b-d457-4eac-ba1f-b3afb9910cd4"},"vehicle_type_id":"4","last_reported":1685772493,"current_range_meters":29600,"station_id":"ce4bhg12rcd13ifvqf80","pricing_plan_id":"free"},{"bike_id":"82b6947a-32fb-4388-bf28-5a44eae1c551","system_id":"levelo_inurba_marseille","lat":43.320045,"lon":5.415046,"is_reserved":false,"is_disabled":false,"rental_uris":{"android":"levelo://app?vid=82b6947a-32fb-4388-bf28-5a44eae1c551","ios":"levelo://app?vid=82b6947a-32fb-4388-bf28-5a44eae1c551"},"vehicle_type_id":"4","last_reported":1685772493,"current_range_meters":30400,"station_id":"ce4bhq92rcd13ifvqhkg","pricing_plan_id":"free"},{"bike_id":"8822cc1c-d6c1-4712-acb9-f6cca8f5e795","system_id":"levelo_inurba_marseille","lat":43.292569,"lon":5.409107,"is_reserved":false,"is_disabled":false,"rental_uris":{"android":"levelo://app?vid=8822cc1c-d6c1-4712-acb9-f6cca8f5e795","ios":"levelo://app?vid=8822cc1c-d6c1-4712-acb9-f6cca8f5e795"},"vehicle_type_id":"4","last_reported":1685772493,"current_range_meters":9200,"station_id":"ce4bh192rcd13ifvqdc0","pricing_plan_id":"free"},{"bike_id":"3e4b0161-6deb-4f2f-9446-bd5731c1ed2e","system_id":"levelo_inurba_marseille","lat":43.325233,"lon":5.414318,"is_reserved":false,"is_disabled":false,"rental_uris":{"android":"levelo://app?vid=3e4b0161-6deb-4f2f-9446-bd5731c1ed2e","ios":"levelo://app?vid=3e4b0161-6deb-4f2f-9446-bd5731c1ed2e"},"vehicle_type_id":"4","last_reported":1685772493,"current_range_meters":16400,"station_id":"ce4bhq12rcd13ifvqhhg","pricing_plan_id":"free"},{"bike_id":"7e9b5bce-dc75-43f3-913a-1533e7097042","system_id":"levelo_inurba_marseille","lat":43.292569,"lon":5.409107,"is_reserved":false,"is_disabled":false,"rental_uris":{"android":"levelo://app?vid=7e9b5bce-dc75-43f3-913a-1533e7097042","ios":"levelo://app?vid=7e9b5bce-dc75-43f3-913a-1533e7097042"},"vehicle_type_id":"4","last_reported":1685772493,"current_range_meters":2000,"station_id":"ce4bh192rcd13ifvqdc0","pricing_plan_id":"free"},{"bike_id":"45ce5223-a02d-445c-b06f-e819e3f2973a","system_id":"levelo_inurba_marseille","lat":43.29258,"lon":5.40915,"is_reserved":false,"is_disabled":false,"rental_uris":{"android":"levelo://app?vid=45ce5223-a02d-445c-b06f-e819e3f2973a","ios":"levelo://app?vid=45ce5223-a02d-445c-b06f-e819e3f2973a"},"vehicle_type_id":"4","last_reported":1685772493,"current_range_meters":0,"station_id":"ce4bh192rcd13ifvqdc0","pricing_plan_id":"free"},{"bike_id":"3a3fd791-e951-45b9-ad2c-af12ba987ffd","system_id":"levelo_inurba_marseille","lat":43.27618,"lon":5.361009,"is_reserved":false,"is_disabled":false,"rental_uris":{"android":"levelo://app?vid=3a3fd791-e951-45b9-ad2c-af12ba987ffd","ios":"levelo://app?vid=3a3fd791-e951-45b9-ad2c-af12ba987ffd"},"vehicle_type_id":"4","last_reported":1685772493,"current_range_meters":0,"station_id":"ce4bgj92rcd13ifvqbe0","pricing_plan_id":"free"},{"bike_id":"5fccf78e-1b26-4af2-9d5d-f14aa0074ff6","system_id":"levelo_inurba_marseille","lat":43.27618,"lon":5.361009,"is_reserved":false,"is_disabled":false,"rental_uris":{"android":"levelo://app?vid=5fccf78e-1b26-4af2-9d5d-f14aa0074ff6","ios":"levelo://app?vid=5fccf78e-1b26-4af2-9d5d-f14aa0074ff6"},"vehicle_type_id":"4","last_reported":1685772493,"current_range_meters":12400,"station_id":"ce4bgj92rcd13ifvqbe0","pricing_plan_id":"free"},{"bike_id":"281d6c4d-c443-41e2-803f-e71b109dd0f9","system_id":"levelo_inurba_marseille","lat":43.276179,"lon":5.361009,"is_reserved":false,"is_disabled":false,"rental_uris":{"android":"levelo://app?vid=281d6c4d-c443-41e2-803f-e71b109dd0f9","ios":"levelo://app?vid=281d6c4d-c443-41e2-803f-e71b109dd0f9"},"vehicle_type_id":"4","last_reported":1685772493,"current_range_meters":25600,"station_id":"ce4bgj92rcd13ifvqbe0","pricing_plan_id":"free"},{"bike_id":"3772e999-3ab2-429c-8c74-ebf3c52f7b06","system_id":"levelo_inurba_marseille","lat":43.276179,"lon":5.361009,"is_reserved":false,"is_disabled":false,"rental_uris":{"android":"levelo://app?vid=3772e999-3ab2-429c-8c74-ebf3c52f7b06","ios":"levelo://app?vid=3772e999-3ab2-429c-8c74-ebf3c52f7b06"},"vehicle_type_id":"4","last_reported":1685772493,"current_range_meters":19600,"station_id":"ce4bgj92rcd13ifvqbe0","pricing_plan_id":"free"},{"bike_id":"6ad4e901-191c-401f-a468-150fff2d30e2","system_id":"levelo_inurba_marseille","lat":43.27618,"lon":5.361009,"is_reserved":false,"is_disabled":false,"rental_uris":{"android":"levelo://app?vid=6ad4e901-191c-401f-a468-150fff2d30e2","ios":"levelo://app?vid=6ad4e901-191c-401f-a468-150fff2d30e2"},"vehicle_type_id":"4","last_reported":1685772493,"current_range_meters":31200,"station_id":"ce4bgj92rcd13ifvqbe0","pricing_plan_id":"free"},{"bike_id":"9e702849-8d9b-4edf-8f9b-274639fd1e93","system_id":"levelo_inurba_marseille","lat":43.276179,"lon":5.361009,"is_reserved":false,"is_disabled":false,"rental_uris":{"android":"levelo://app?vid=9e702849-8d9b-4edf-8f9b-274639fd1e93","ios":"levelo://app?vid=9e702849-8d9b-4edf-8f9b-274639fd1e93"},"vehicle_type_id":"4","last_reported":1685772493,"current_range_meters":17600,"station_id":"ce4bgj92rcd13ifvqbe0","pricing_plan_id":"free"},{"bike_id":"8a0cf1a9-197b-4ef8-878f-8e170697b227","system_id":"levelo_inurba_marseille","lat":43.303837,"lon":5.418724,"is_reserved":false,"is_disabled":false,"rental_uris":{"android":"levelo://app?vid=8a0cf1a9-197b-4ef8-878f-8e170697b227","ios":"levelo://app?vid=8a0cf1a9-197b-4ef8-878f-8e170697b227"},"vehicle_type_id":"4","last_reported":1685772493,"current_range_meters":23200,"station_id":"ce4bhop2rcd13ifvqh7g","pricing_plan_id":"free"},{"bike_id":"67b6e695-a581-409f-8849-f21aacb3b38b","system_id":"levelo_inurba_marseille","lat":43.303837,"lon":5.418724,"is_reserved":false,"is_disabled":false,"rental_uris":{"android":"levelo://app?vid=67b6e695-a581-409f-8849-f21aacb3b38b","ios":"levelo://app?vid=67b6e695-a581-409f-8849-f21aacb3b38b"},"vehicle_type_id":"4","last_reported":1685772493,"current_range_meters":0,"station_id":"ce4bhop2rcd13ifvqh7g","pricing_plan_id":"free"},{"bike_id":"cb3bb1c8-6484-472f-b262-1553f46b0d97","system_id":"levelo_inurba_marseille","lat":43.28047,"lon":5.39692,"is_reserved":false,"is_disabled":false,"rental_uris":{"android":"levelo://app?vid=cb3bb1c8-6484-472f-b262-1553f46b0d97","ios":"levelo://app?vid=cb3bb1c8-6484-472f-b262-1553f46b0d97"},"vehicle_type_id":"4","last_reported":1685772493,"current_range_meters":0,"station_id":"","pricing_plan_id":"free"},{"bike_id":"58e206d3-dff7-4eb6-99c0-9d27a0184883","system_id":"levelo_inurba_marseille","lat":43.33612,"lon":5.410321,"is_reserved":false,"is_disabled":false,"rental_uris":{"android":"levelo://app?vid=58e206d3-dff7-4eb6-99c0-9d27a0184883","ios":"levelo://app?vid=58e206d3-dff7-4eb6-99c0-9d27a0184883"},"vehicle_type_id":"4","last_reported":1685772493,"current_range_meters":31200,"station_id":"ce4bhqh2rcd13ifvqhmg","pricing_plan_id":"free"},{"bike_id":"23b88c47-0836-44e6-a39b-dfcd8efb74f3","system_id":"levelo_inurba_marseille","lat":43.33612,"lon":5.410321,"is_reserved":false,"is_disabled":false,"rental_uris":{"android":"levelo://app?vid=23b88c47-0836-44e6-a39b-dfcd8efb74f3","ios":"levelo://app?vid=23b88c47-0836-44e6-a39b-dfcd8efb74f3"},"vehicle_type_id":"4","last_reported":1685772493,"current_range_meters":24800,"station_id":"ce4bhqh2rcd13ifvqhmg","pricing_plan_id":"free"},{"bike_id":"50bb9802-5c27-4d7f-93fd-fa65e98fbad4","system_id":"levelo_inurba_marseille","lat":43.336134,"lon":5.410341,"is_reserved":false,"is_disabled":false,"rental_uris":{"android":"levelo://app?vid=50bb9802-5c27-4d7f-93fd-fa65e98fbad4","ios":"levelo://app?vid=50bb9802-5c27-4d7f-93fd-fa65e98fbad4"},"vehicle_type_id":"4","last_reported":1685772493,"current_range_meters":20800,"station_id":"ce4bhqh2rcd13ifvqhmg","pricing_plan_id":"free"},{"bike_id":"b788d885-8749-43c2-8fc2-f6662e04a807","system_id":"levelo_inurba_marseille","lat":43.336134,"lon":5.410341,"is_reserved":false,"is_disabled":false,"rental_uris":{"android":"levelo://app?vid=b788d885-8749-43c2-8fc2-f6662e04a807","ios":"levelo://app?vid=b788d885-8749-43c2-8fc2-f6662e04a807"},"vehicle_type_id":"4","last_reported":1685772493,"current_range_meters":30000,"station_id":"ce4bhqh2rcd13ifvqhmg","pricing_plan_id":"free"},{"bike_id":"2c008554-0042-49d7-ad19-f32a8e15309f","system_id":"levelo_inurba_marseille","lat":43.276769,"lon":5.388787,"is_reserved":false,"is_disabled":false,"rental_uris":{"android":"levelo://app?vid=2c008554-0042-49d7-ad19-f32a8e15309f","ios":"levelo://app?vid=2c008554-0042-49d7-ad19-f32a8e15309f"},"vehicle_type_id":"4","last_reported":1685772493,"current_range_meters":11200,"station_id":"ce4bhi12rcd13ifvqfo0","pricing_plan_id":"free"},{"bike_id":"6e8d25ee-59c4-4f91-b18a-b8bc2708fac2","system_id":"levelo_inurba_marseille","lat":43.33612,"lon":5.410321,"is_reserved":false,"is_disabled":false,"rental_uris":{"android":"levelo://app?vid=6e8d25ee-59c4-4f91-b18a-b8bc2708fac2","ios":"levelo://app?vid=6e8d25ee-59c4-4f91-b18a-b8bc2708fac2"},"vehicle_type_id":"4","last_reported":1685772493,"current_range_meters":31200,"station_id":"ce4bhqh2rcd13ifvqhmg","pricing_plan_id":"free"},{"bike_id":"9db9545d-f63d-42be-a674-9c25625f916b","system_id":"levelo_inurba_marseille","lat":43.29387,"lon":5.41928,"is_reserved":false,"is_disabled":false,"rental_uris":{"android":"levelo://app?vid=9db9545d-f63d-42be-a674-9c25625f916b","ios":"levelo://app?vid=9db9545d-f63d-42be-a674-9c25625f916b"},"vehicle_type_id":"4","last_reported":1685772493,"current_range_meters":13600,"station_id":"","pricing_plan_id":"free"},{"bike_id":"6b41c33a-a2ab-4b78-b350-c2f9c48cfba2","system_id":"levelo_inurba_marseille","lat":43.304088,"lon":5.425388,"is_reserved":false,"is_disabled":false,"rental_uris":{"android":"levelo://app?vid=6b41c33a-a2ab-4b78-b350-c2f9c48cfba2","ios":"levelo://app?vid=6b41c33a-a2ab-4b78-b350-c2f9c48cfba2"},"vehicle_type_id":"4","last_reported":1685772493,"current_range_meters":18000,"station_id":"ce4bhoh2rcd13ifvqh6g","pricing_plan_id":"free"},{"bike_id":"3689be65-5976-4156-b7e7-93b3498102f5","system_id":"levelo_inurba_marseille","lat":43.304088,"lon":5.425388,"is_reserved":false,"is_disabled":false,"rental_uris":{"android":"levelo://app?vid=3689be65-5976-4156-b7e7-93b3498102f5","ios":"levelo://app?vid=3689be65-5976-4156-b7e7-93b3498102f5"},"vehicle_type_id":"4","last_reported":1685772493,"current_range_meters":0,"station_id":"ce4bhoh2rcd13ifvqh6g","pricing_plan_id":"free"},{"bike_id":"28e28263-1e4a-4307-9d03-c0b5eaba4031","system_id":"levelo_inurba_marseille","lat":43.295523,"lon":5.422926,"is_reserved":false,"is_disabled":false,"rental_uris":{"android":"levelo://app?vid=28e28263-1e4a-4307-9d03-c0b5eaba4031","ios":"levelo://app?vid=28e28263-1e4a-4307-9d03-c0b5eaba4031"},"vehicle_type_id":"4","last_reported":1685772493,"current_range_meters":24400,"station_id":"ce4bhph2rcd13ifvqhdg","pricing_plan_id":"free"},{"bike_id":"6fa4c3f8-5165-44e1-a959-fb880a3ee57c","system_id":"levelo_inurba_marseille","lat":43.295523,"lon":5.422926,"is_reserved":false,"is_disabled":false,"rental_uris":{"android":"levelo://app?vid=6fa4c3f8-5165-44e1-a959-fb880a3ee57c","ios":"levelo://app?vid=6fa4c3f8-5165-44e1-a959-fb880a3ee57c"},"vehicle_type_id":"4","last_reported":1685772493,"current_range_meters":26400,"station_id":"ce4bhph2rcd13ifvqhdg","pricing_plan_id":"free"},{"bike_id":"4f44adc4-6ab4-4398-8c19-3d30547ee166","system_id":"levelo_inurba_marseille","lat":43.272118,"lon":5.391758,"is_reserved":false,"is_disabled":false,"rental_uris":{"android":"levelo://app?vid=4f44adc4-6ab4-4398-8c19-3d30547ee166","ios":"levelo://app?vid=4f44adc4-6ab4-4398-8c19-3d30547ee166"},"vehicle_type_id":"4","last_reported":1685772493,"current_range_meters":0,"station_id":"ce4bhhp2rcd13ifvqfm0","pricing_plan_id":"free"},{"bike_id":"aaa570ca-76e9-4b7d-854e-d93650056d95","system_id":"levelo_inurba_marseille","lat":43.278128,"lon":5.407195,"is_reserved":false,"is_disabled":false,"rental_uris":{"android":"levelo://app?vid=aaa570ca-76e9-4b7d-854e-d93650056d95","ios":"levelo://app?vid=aaa570ca-76e9-4b7d-854e-d93650056d95"},"vehicle_type_id":"4","last_reported":1685772493,"current_range_meters":25200,"station_id":"ce4bhnh2rcd13ifvqgtg","pricing_plan_id":"free"},{"bike_id":"4cc695ff-946f-433d-a86c-f0687a656e46","system_id":"levelo_inurba_marseille","lat":43.26681,"lon":5.382694,"is_reserved":false,"is_disabled":false,"rental_uris":{"android":"levelo://app?vid=4cc695ff-946f-433d-a86c-f0687a656e46","ios":"levelo://app?vid=4cc695ff-946f-433d-a86c-f0687a656e46"},"vehicle_type_id":"4","last_reported":1685772493,"current_range_meters":28400,"station_id":"ce4bhg92rcd13ifvqf90","pricing_plan_id":"free"},{"bike_id":"c072fc1b-a001-4309-9a74-eabaa1f2a61c","system_id":"levelo_inurba_marseille","lat":43.265714,"lon":5.372891,"is_reserved":false,"is_disabled":false,"rental_uris":{"android":"levelo://app?vid=c072fc1b-a001-4309-9a74-eabaa1f2a61c","ios":"levelo://app?vid=c072fc1b-a001-4309-9a74-eabaa1f2a61c"},"vehicle_type_id":"4","last_reported":1685772493,"current_range_meters":20000,"station_id":"ce4bhg12rcd13ifvqf70","pricing_plan_id":"free"},{"bike_id":"0510fd62-dd7f-448b-80e0-966f7b32d639","system_id":"levelo_inurba_marseille","lat":43.265714,"lon":5.372891,"is_reserved":false,"is_disabled":false,"rental_uris":{"android":"levelo://app?vid=0510fd62-dd7f-448b-80e0-966f7b32d639","ios":"levelo://app?vid=0510fd62-dd7f-448b-80e0-966f7b32d639"},"vehicle_type_id":"4","last_reported":1685772493,"current_range_meters":14800,"station_id":"ce4bhg12rcd13ifvqf70","pricing_plan_id":"free"},{"bike_id":"4830acd4-f7c2-464b-9e2d-adad2a7fe8c5","system_id":"levelo_inurba_marseille","lat":43.265714,"lon":5.372891,"is_reserved":false,"is_disabled":false,"rental_uris":{"android":"levelo://app?vid=4830acd4-f7c2-464b-9e2d-adad2a7fe8c5","ios":"levelo://app?vid=4830acd4-f7c2-464b-9e2d-adad2a7fe8c5"},"vehicle_type_id":"4","last_reported":1685772493,"current_range_meters":26400,"station_id":"ce4bhg12rcd13ifvqf70","pricing_plan_id":"free"},{"bike_id":"13c5750c-ab02-4b84-aaaf-438240a826ea","system_id":"levelo_inurba_marseille","lat":43.265714,"lon":5.372891,"is_reserved":false,"is_disabled":false,"rental_uris":{"android":"levelo://app?vid=13c5750c-ab02-4b84-aaaf-438240a826ea","ios":"levelo://app?vid=13c5750c-ab02-4b84-aaaf-438240a826ea"},"vehicle_type_id":"4","last_reported":1685772493,"current_range_meters":29200,"station_id":"ce4bhg12rcd13ifvqf70","pricing_plan_id":"free"},{"bike_id":"8fed6ad7-2b91-4890-b081-fafc7c17798f","system_id":"levelo_inurba_marseille","lat":43.265714,"lon":5.372891,"is_reserved":false,"is_disabled":false,"rental_uris":{"android":"levelo://app?vid=8fed6ad7-2b91-4890-b081-fafc7c17798f","ios":"levelo://app?vid=8fed6ad7-2b91-4890-b081-fafc7c17798f"},"vehicle_type_id":"4","last_reported":1685772493,"current_range_meters":29600,"station_id":"ce4bhg12rcd13ifvqf70","pricing_plan_id":"free"},{"bike_id":"06538980-c887-4f73-a2df-b6985c28bed8","system_id":"levelo_inurba_marseille","lat":43.265714,"lon":5.372891,"is_reserved":false,"is_disabled":false,"rental_uris":{"android":"levelo://app?vid=06538980-c887-4f73-a2df-b6985c28bed8","ios":"levelo://app?vid=06538980-c887-4f73-a2df-b6985c28bed8"},"vehicle_type_id":"4","last_reported":1685772493,"current_range_meters":20800,"station_id":"ce4bhg12rcd13ifvqf70","pricing_plan_id":"free"},{"bike_id":"c1d5292e-862a-4acb-885a-8be5468fd2f3","system_id":"levelo_inurba_marseille","lat":43.265714,"lon":5.372891,"is_reserved":false,"is_disabled":false,"rental_uris":{"android":"levelo://app?vid=c1d5292e-862a-4acb-885a-8be5468fd2f3","ios":"levelo://app?vid=c1d5292e-862a-4acb-885a-8be5468fd2f3"},"vehicle_type_id":"4","last_reported":1685772493,"current_range_meters":22400,"station_id":"ce4bhg12rcd13ifvqf70","pricing_plan_id":"free"},{"bike_id":"c6cb5599-e718-4af4-8c4b-4d1deb710381","system_id":"levelo_inurba_marseille","lat":43.265714,"lon":5.372891,"is_reserved":false,"is_disabled":false,"rental_uris":{"android":"levelo://app?vid=c6cb5599-e718-4af4-8c4b-4d1deb710381","ios":"levelo://app?vid=c6cb5599-e718-4af4-8c4b-4d1deb710381"},"vehicle_type_id":"4","last_reported":1685772493,"current_range_meters":31200,"station_id":"ce4bhg12rcd13ifvqf70","pricing_plan_id":"free"},{"bike_id":"aa65ffa8-39de-49fb-9968-335dd7261f08","system_id":"levelo_inurba_marseille","lat":43.265714,"lon":5.372891,"is_reserved":false,"is_disabled":false,"rental_uris":{"android":"levelo://app?vid=aa65ffa8-39de-49fb-9968-335dd7261f08","ios":"levelo://app?vid=aa65ffa8-39de-49fb-9968-335dd7261f08"},"vehicle_type_id":"4","last_reported":1685772493,"current_range_meters":30400,"station_id":"ce4bhg12rcd13ifvqf70","pricing_plan_id":"free"},{"bike_id":"477c9b24-a1bd-4af2-9e3a-7a10b9af13d1","system_id":"levelo_inurba_marseille","lat":43.31719,"lon":5.43313,"is_reserved":false,"is_disabled":false,"rental_uris":{"android":"levelo://app?vid=477c9b24-a1bd-4af2-9e3a-7a10b9af13d1","ios":"levelo://app?vid=477c9b24-a1bd-4af2-9e3a-7a10b9af13d1"},"vehicle_type_id":"4","last_reported":1685772493,"current_range_meters":0,"station_id":"","pricing_plan_id":"free"},{"bike_id":"13d2b631-42e8-471d-bd10-78f10c8555a9","system_id":"levelo_inurba_marseille","lat":43.27993,"lon":5.41669,"is_reserved":false,"is_disabled":false,"rental_uris":{"android":"levelo://app?vid=13d2b631-42e8-471d-bd10-78f10c8555a9","ios":"levelo://app?vid=13d2b631-42e8-471d-bd10-78f10c8555a9"},"vehicle_type_id":"4","last_reported":1685772493,"current_range_meters":23200,"station_id":"ce4bho12rcd13ifvqh1g","pricing_plan_id":"free"},{"bike_id":"1d0d511f-c782-4696-a46d-da0ac58e0f0f","system_id":"levelo_inurba_marseille","lat":43.27993,"lon":5.41673,"is_reserved":false,"is_disabled":false,"rental_uris":{"android":"levelo://app?vid=1d0d511f-c782-4696-a46d-da0ac58e0f0f","ios":"levelo://app?vid=1d0d511f-c782-4696-a46d-da0ac58e0f0f"},"vehicle_type_id":"4","last_reported":1685772493,"current_range_meters":22800,"station_id":"ce4bho12rcd13ifvqh1g","pricing_plan_id":"free"},{"bike_id":"26e1ac57-a65a-48de-b4e4-bcfc0b364a7a","system_id":"levelo_inurba_marseille","lat":43.308,"lon":5.43525,"is_reserved":false,"is_disabled":false,"rental_uris":{"android":"levelo://app?vid=26e1ac57-a65a-48de-b4e4-bcfc0b364a7a","ios":"levelo://app?vid=26e1ac57-a65a-48de-b4e4-bcfc0b364a7a"},"vehicle_type_id":"4","last_reported":1685772493,"current_range_meters":4000,"station_id":"","pricing_plan_id":"free"},{"bike_id":"72db3e4e-d48e-4eac-bda2-bfc6a07d17b8","system_id":"levelo_inurba_marseille","lat":43.265569,"lon":5.390047,"is_reserved":false,"is_disabled":false,"rental_uris":{"android":"levelo://app?vid=72db3e4e-d48e-4eac-bda2-bfc6a07d17b8","ios":"levelo://app?vid=72db3e4e-d48e-4eac-bda2-bfc6a07d17b8"},"vehicle_type_id":"4","last_reported":1685772493,"current_range_meters":22400,"station_id":"ce4bhe12rcd13ifvqf30","pricing_plan_id":"free"},{"bike_id":"df18bcba-8c12-452b-961a-aea12c9e49ad","system_id":"levelo_inurba_marseille","lat":43.30795,"lon":5.43527,"is_reserved":false,"is_disabled":false,"rental_uris":{"android":"levelo://app?vid=df18bcba-8c12-452b-961a-aea12c9e49ad","ios":"levelo://app?vid=df18bcba-8c12-452b-961a-aea12c9e49ad"},"vehicle_type_id":"4","last_reported":1685772493,"current_range_meters":25200,"station_id":"","pricing_plan_id":"free"},{"bike_id":"738b92db-c800-46f8-8ffb-9b7385992fcb","system_id":"levelo_inurba_marseille","lat":43.26564,"lon":5.39014,"is_reserved":false,"is_disabled":false,"rental_uris":{"android":"levelo://app?vid=738b92db-c800-46f8-8ffb-9b7385992fcb","ios":"levelo://app?vid=738b92db-c800-46f8-8ffb-9b7385992fcb"},"vehicle_type_id":"4","last_reported":1685772493,"current_range_meters":26800,"station_id":"ce4bhe12rcd13ifvqf30","pricing_plan_id":"free"},{"bike_id":"79757db1-da4f-4885-bdb5-277afadc293a","system_id":"levelo_inurba_marseille","lat":43.261782,"lon":5.374515,"is_reserved":false,"is_disabled":false,"rental_uris":{"android":"levelo://app?vid=79757db1-da4f-4885-bdb5-277afadc293a","ios":"levelo://app?vid=79757db1-da4f-4885-bdb5-277afadc293a"},"vehicle_type_id":"4","last_reported":1685772493,"current_range_meters":29200,"station_id":"ce4bhgp2rcd13ifvqfc0","pricing_plan_id":"free"},{"bike_id":"a8d4b38c-fe99-4e73-82e8-06e0f3b0604c","system_id":"levelo_inurba_marseille","lat":43.261782,"lon":5.374515,"is_reserved":false,"is_disabled":false,"rental_uris":{"android":"levelo://app?vid=a8d4b38c-fe99-4e73-82e8-06e0f3b0604c","ios":"levelo://app?vid=a8d4b38c-fe99-4e73-82e8-06e0f3b0604c"},"vehicle_type_id":"4","last_reported":1685772493,"current_range_meters":24800,"station_id":"ce4bhgp2rcd13ifvqfc0","pricing_plan_id":"free"},{"bike_id":"4b2ba530-12a4-4620-bf45-bff11be34897","system_id":"levelo_inurba_marseille","lat":43.261782,"lon":5.374515,"is_reserved":false,"is_disabled":false,"rental_uris":{"android":"levelo://app?vid=4b2ba530-12a4-4620-bf45-bff11be34897","ios":"levelo://app?vid=4b2ba530-12a4-4620-bf45-bff11be34897"},"vehicle_type_id":"4","last_reported":1685772493,"current_range_meters":28000,"station_id":"ce4bhgp2rcd13ifvqfc0","pricing_plan_id":"free"},