{"last_updated":1736597729,"ttl":60,"version":"2.2","data":{"bikes":[{"bike_id":"b0cfe6a2-901d-436f-a381-c7dbb59df959","system_id":"levelo_inurba_marseille","lat":43.30494,"lon":5.3789,"is_reserved":false,"is_disabled":false,"rental_uris":{"android":"levelo://app?vid=b0cfe6a2-901d-436f-a381-c7dbb59df959","ios":"levelo://app?vid=b0cfe6a2-901d-436f-a381-c7dbb59df959"},"vehicle_type_id":"4","last_reported":1736597729,"current_range_meters":27600,"station_id":"ce4bgup2rcd13ifvqcn0","pricing_plan_id":"cebpf4jnsgd1na2vs0mg"},{"bike_id":"36501932-8119-479c-b74a-9f02ad8e165e","system_id":"levelo_inurba_marseille","lat":43.24803,"lon":5.37451,"is_reserved":false,"is_disabled":false,"rental_uris":{"android":"levelo://app?vid=36501932-8119-479c-b74a-9f02ad8e165e","ios":"levelo://app?vid=36501932-8119-479c-b74a-9f02ad8e165e"},"vehicle_type_id":"4","last_reported":1736597729,"current_range_meters":36800,"station_id":"ce4bhgh2rcd13ifvqfb0","pricing_plan_id":"cebpf4jnsgd1na2vs0mg"},{"bike_id":"e8808539-df5c-4e9e-878f-7bb7a23037ac","system_id":"levelo_inurba_marseille","lat":43.27987,"lon":5.41658,"is_reserved":false,"is_disabled":false,"rental_uris":{"android":"levelo://app?vid=e8808539-df5c-4e9e-878f-7bb7a23037ac","ios":"levelo://app?vid=e8808539-df5c-4e9e-878f-7bb7a23037ac"},"vehicle_type_id":"4","last_reported":1736597729,"current_range_meters":21600,"station_id":"ce4bho12rcd13ifvqh1g","pricing_plan_id":"cebpf4jnsgd1na2vs0mg"},{"bike_id":"e853a1b2-9fdd-47b8-b4a0-55a38520852d","system_id":"levelo_inurba_marseille","lat":43.2903,"lon":5.35925,"is_reserved":false,"is_disabled":false,"rental_uris":{"android":"levelo://app?vid=e853a1b2-9fdd-47b8-b4a0-55a38520852d","ios":"levelo://app?vid=e853a1b2-9fdd-47b8-b4a0-55a38520852d"},"vehicle_type_id":"4","last_reported":1736597729,"current_range_meters":22000,"station_id":"ce4bha92rcd13ifvqeg0","pricing_plan_id":"cebpf4jnsgd1na2vs0mg"},{"bike_id":"9a726580-d24a-40bf-bc6a-5c0d23912864","system_id":"levelo_inurba_marseille","lat":43.30606,"lon":5.37206,"is_reserved":false,"is_disabled":false,"rental_uris":{"android":"levelo://app?vid=9a726580-d24a-40bf-bc6a-5c0d23912864","ios":"levelo://app?vid=9a726580-d24a-40bf-bc6a-5c0d23912864"},"vehicle_type_id":"4","last_reported":1736597729,"current_range_meters":11600,"station_id":"ce4bgqh2rcd13ifvqc4g","pricing_plan_id":"cebpf4jnsgd1na2vs0mg"},{"bike_id":"14f3feea-c78a-4059-b0b9-de31c40e61af","system_id":"levelo_inurba_marseille","lat":43.26034,"lon":5.375482,"is_reserved":false,"is_disabled":false,"rental_uris":{"android":"levelo://app?vid=14f3feea-c78a-4059-b0b9-de31c40e61af","ios":"levelo://app?vid=14f3feea-c78a-4059-b0b9-de31c40e61af"},"vehicle_type_id":"4","last_reported":1736597729,"current_range_meters":38800,"station_id":"ce4bhgh2rcd13ifvqfa0","pricing_plan_id":"cebpf4jnsgd1na2vs0mg"},{"bike_id":"02fa8d23-b641-466a-8661-f76f63fb8c6e","system_id":"levelo_inurba_marseille","lat":43.31538,"lon":5.38035,"is_reserved":false,"is_disabled":false,"rental_uris":{"android":"levelo://app?vid=02fa8d23-b641-466a-8661-f76f63fb8c6e","ios":"levelo://app?vid=02fa8d23-b641-466a-8661-f76f63fb8c6e"},"vehicle_type_id":"4","last_reported":1736597729,"current_range_meters":38800,"station_id":"ce4bhsp2rcd13ifvqi50","pricing_plan_id":"cebpf4jnsgd1na2vs0mg"},{"bike_id":"c219f1c3-610d-42f7-8a1f-fafd4006ea33","system_id":"levelo_inurba_marseille","lat":43.2927,"lon":5.38439,"is_reserved":false,"is_disabled":false,"rental_uris":{"android":"levelo://app?vid=c219f1c3-610d-42f7-8a1f-fafd4006ea33","ios":"levelo://app?vid=c219f1c3-610d-42f7-8a1f-fafd4006ea33"},"vehicle_type_id":"4","last_reported":1736597729,"current_range_meters":35600,"station_id":"ce4bh692rcd13ifvqea0","pricing_plan_id":"cebpf4jnsgd1na2vs0mg"},{"bike_id":"86fd816e-462e-4af7-802e-42d9ef60e928","system_id":"levelo_inurba_marseille","lat":43.29003,"lon":5.35616,"is_reserved":false,"is_disabled":false,"rental_uris":{"android":"levelo://app?vid=86fd816e-462e-4af7-802e-42d9ef60e928","ios":"levelo://app?vid=86fd816e-462e-4af7-802e-42d9ef60e928"},"vehicle_type_id":"4","last_reported":1736597729,"current_range_meters":30800,"station_id":"ce4bhb92rcd13ifvqen0","pricing_plan_id":"cebpf4jnsgd1na2vs0mg"},{"bike_id":"230b25ba-08ad-4536-893c-30ebe8d45916","system_id":"levelo_inurba_marseille","lat":43.29633,"lon":5.40598,"is_reserved":false,"is_disabled":false,"rental_uris":{"android":"levelo://app?vid=230b25ba-08ad-4536-893c-30ebe8d45916","ios":"levelo://app?vid=230b25ba-08ad-4536-893c-30ebe8d45916"},"vehicle_type_id":"4","last_reported":1736597729,"current_range_meters":39200,"station_id":"ce4bh0h2rcd13ifvqd60","pricing_plan_id":"cebpf4jnsgd1na2vs0mg"},{"bike_id":"a444a04d-7a75-4bb0-b921-23a4f692b157","system_id":"levelo_inurba_marseille","lat":43.24647,"lon":5.38927,"is_reserved":false,"is_disabled":false,"rental_uris":{"android":"levelo://app?vid=a444a04d-7a75-4bb0-b921-23a4f692b157","ios":"levelo://app?vid=a444a04d-7a75-4bb0-b921-23a4f692b157"},"vehicle_type_id":"4","last_reported":1736597729,"current_range_meters":19200,"station_id":"ce4bhg12rcd13ifvqf60","pricing_plan_id":"cebpf4jnsgd1na2vs0mg"},{"bike_id":"23b995e3-70bb-4837-aafa-d164d2f448af","system_id":"levelo_inurba_marseille","lat":43.30538,"lon":5.36545,"is_reserved":false,"is_disabled":false,"rental_uris":{"android":"levelo://app?vid=23b995e3-70bb-4837-aafa-d164d2f448af","ios":"levelo://app?vid=23b995e3-70bb-4837-aafa-d164d2f448af"},"vehicle_type_id":"4","last_reported":1736597729,"current_range_meters":12000,"station_id":"ce4bgs12rcd13ifvqcag","pricing_plan_id":"cebpf4jnsgd1na2vs0mg"},{"bike_id":"9c3f6bb4-fd78-490a-8cd7-7d7694c0f9a0","system_id":"levelo_inurba_marseille","lat":43.29007,"lon":5.3561,"is_reserved":false,"is_disabled":false,"rental_uris":{"android":"levelo://app?vid=9c3f6bb4-fd78-490a-8cd7-7d7694c0f9a0","ios":"levelo://app?vid=9c3f6bb4-fd78-490a-8cd7-7d7694c0f9a0"},"vehicle_type_id":"4","last_reported":1736597729,"current_range_meters":28800,"station_id":"ce4bhb92rcd13ifvqen0","pricing_plan_id":"cebpf4jnsgd1na2vs0mg"},{"bike_id":"f27315e5-5b6e-4c1c-bf3c-bb19556d13a1","system_id":"levelo_inurba_marseille","lat":43.33625,"lon":5.40968,"is_reserved":false,"is_disabled":false,"rental_uris":{"android":"levelo://app?vid=f27315e5-5b6e-4c1c-bf3c-bb19556d13a1","ios":"levelo://app?vid=f27315e5-5b6e-4c1c-bf3c-bb19556d13a1"},"vehicle_type_id":"4","last_reported":1736597729,"current_range_meters":38800,"station_id":"","pricing_plan_id":"cebpf4jnsgd1na2vs0mg"},{"bike_id":"c4eee644-ddb0-4eee-b729-6091b1fb39e7","system_id":"levelo_inurba_marseille","lat":43.2903,"lon":5.38644,"is_reserved":false,"is_disabled":false,"rental_uris":{"android":"levelo://app?vid=c4eee644-ddb0-4eee-b729-6091b1fb39e7","ios":"levelo://app?vid=c4eee644-ddb0-4eee-b729-6091b1fb39e7"},"vehicle_type_id":"4","last_reported":1736597729,"current_range_meters":24400,"station_id":"ce4bh4p2rcd13ifvqe0g","pricing_plan_id":"cebpf4jnsgd1na2vs0mg"},{"bike_id":"853d56cd-3451-4764-beab-a40e85523b05","system_id":"levelo_inurba_marseille","lat":43.246474,"lon":5.389061,"is_reserved":false,"is_disabled":false,"rental_uris":{"android":"levelo://app?vid=853d56cd-3451-4764-beab-a40e85523b05","ios":"levelo://app?vid=853d56cd-3451-4764-beab-a40e85523b05"},"vehicle_type_id":"4","last_reported":1736597729,"current_range_meters":4800,"station_id":"ce4bhg12rcd13ifvqf60","pricing_plan_id":"cebpf4jnsgd1na2vs0mg"},{"bike_id":"e9f99034-2c34-4d9b-bada-c6fd257a3315","system_id":"levelo_inurba_marseille","lat":43.30411,"lon":5.39767,"is_reserved":false,"is_disabled":false,"rental_uris":{"android":"levelo://app?vid=e9f99034-2c34-4d9b-bada-c6fd257a3315","ios":"levelo://app?vid=e9f99034-2c34-4d9b-bada-c6fd257a3315"},"vehicle_type_id":"4","last_reported":1736597729,"current_range_meters":24400,"station_id":"ce4bh092rcd13ifvqd20","pricing_plan_id":"cebpf4jnsgd1na2vs0mg"},{"bike_id":"087a1d42-08c9-494f-83e2-392f1fc456fd","system_id":"levelo_inurba_marseille","lat":43.30664,"lon":5.40078,"is_reserved":false,"is_disabled":false,"rental_uris":{"android":"levelo://app?vid=087a1d42-08c9-494f-83e2-392f1fc456fd","ios":"levelo://app?vid=087a1d42-08c9-494f-83e2-392f1fc456fd"},"vehicle_type_id":"4","last_reported":1736597729,"current_range_meters":32000,"station_id":"ce4bh112rcd13ifvqda0","pricing_plan_id":"cebpf4jnsgd1na2vs0mg"},{"bike_id":"004c2ac5-7f25-4e48-8a80-9a02537f6ba6","system_id":"levelo_inurba_marseille","lat":43.321028,"lon":5.367814,"is_reserved":false,"is_disabled":false,"rental_uris":{"android":"levelo://app?vid=004c2ac5-7f25-4e48-8a80-9a02537f6ba6","ios":"levelo://app?vid=004c2ac5-7f25-4e48-8a80-9a02537f6ba6"},"vehicle_type_id":"4","last_reported":1736597729,"current_range_meters":30400,"station_id":"ce4bhrh2rcd13ifvqhug","pricing_plan_id":"cebpf4jnsgd1na2vs0mg"},{"bike_id":"6a8dc65c-8c47-4239-8815-8efa2acdc338","system_id":"levelo_inurba_marseille","lat":43.27992,"lon":5.41663,"is_reserved":false,"is_disabled":true,"rental_uris":{"android":"levelo://app?vid=6a8dc65c-8c47-4239-8815-8efa2acdc338","ios":"levelo://app?vid=6a8dc65c-8c47-4239-8815-8efa2acdc338"},"vehicle_type_id":"4","last_reported":1736597729,"current_range_meters":10800,"station_id":"ce4bho12rcd13ifvqh1g","pricing_plan_id":"cebpf4jnsgd1na2vs0mg"},{"bike_id":"2f457c0c-5283-4f66-b319-69a87ce07d89","system_id":"levelo_inurba_marseille","lat":43.25009,"lon":5.38914,"is_reserved":false,"is_disabled":false,"rental_uris":{"android":"levelo://app?vid=2f457c0c-5283-4f66-b319-69a87ce07d89","ios":"levelo://app?vid=2f457c0c-5283-4f66-b319-69a87ce07d89"},"vehicle_type_id":"4","last_reported":1736597729,"current_range_meters":30800,"station_id":"ce4bhgp2rcd13ifvqfd0","pricing_plan_id":"cebpf4jnsgd1na2vs0mg"},{"bike_id":"115ff9ac-8aed-416f-a608-180960b90992","system_id":"levelo_inurba_marseille","lat":43.32675,"lon":5.4096,"is_reserved":false,"is_disabled":false,"rental_uris":{"android":"levelo://app?vid=115ff9ac-8aed-416f-a608-180960b90992","ios":"levelo://app?vid=115ff9ac-8aed-416f-a608-180960b90992"},"vehicle_type_id":"4","last_reported":1736597729,"current_range_meters":36400,"station_id":"ce4bhpp2rcd13ifvqhgg","pricing_plan_id":"cebpf4jnsgd1na2vs0mg"},{"bike_id":"86cd1141-6e96-4c04-94b3-22ca752a46a1","system_id":"levelo_inurba_marseille","lat":43.23191,"lon":5.40004,"is_reserved":false,"is_disabled":false,"rental_uris":{"android":"levelo://app?vid=86cd1141-6e96-4c04-94b3-22ca752a46a1","ios":"levelo://app?vid=86cd1141-6e96-4c04-94b3-22ca752a46a1"},"vehicle_type_id":"4","last_reported":1736597729,"current_range_meters":34000,"station_id":"ce4bhn12rcd13ifvqgqg","pricing_plan_id":"cebpf4jnsgd1na2vs0mg"},{"bike_id":"95205a68-0909-4d57-84f0-1809339b43bc","system_id":"levelo_inurba_marseille","lat":43.29556,"lon":5.40034,"is_reserved":false,"is_disabled":false,"rental_uris":{"android":"levelo://app?vid=95205a68-0909-4d57-84f0-1809339b43bc","ios":"levelo://app?vid=95205a68-0909-4d57-84f0-1809339b43bc"},"vehicle_type_id":"4","last_reported":1736597729,"current_range_meters":16000,"station_id":"ce4bhnh2rcd13ifvqgug","pricing_plan_id":"cebpf4jnsgd1na2vs0mg"},{"bike_id":"b802d5de-604b-4e0d-b105-fe2039150c85","system_id":"levelo_inurba_marseille","lat":43.27309,"lon":5.39109,"is_reserved":false,"is_disabled":false,"rental_uris":{"android":"levelo://app?vid=b802d5de-604b-4e0d-b105-fe2039150c85","ios":"levelo://app?vid=b802d5de-604b-4e0d-b105-fe2039150c85"},"vehicle_type_id":"4","last_reported":1736597729,"current_range_meters":7200,"station_id":"ce4bhgp2rcd13ifvqfe0","pricing_plan_id":"cebpf4jnsgd1na2vs0mg"},{"bike_id":"50bd41a2-4134-4514-bd21-8188f8f923aa","system_id":"levelo_inurba_marseille","lat":43.28728,"lon":5.39985,"is_reserved":false,"is_disabled":false,"rental_uris":{"android":"levelo://app?vid=50bd41a2-4134-4514-bd21-8188f8f923aa","ios":"levelo://app?vid=50bd41a2-4134-4514-bd21-8188f8f923aa"},"vehicle_type_id":"4","last_reported":1736597729,"current_range_meters":38800,"station_id":"ce4bho92rcd13ifvqh3g","pricing_plan_id":"cebpf4jnsgd1na2vs0mg"},{"bike_id":"c1dea8eb-dedb-48c3-82b9-ba4d059a0755","system_id":"levelo_inurba_marseille","lat":43.26555,"lon":5.3728,"is_reserved":false,"is_disabled":true,"rental_uris":{"android":"levelo://app?vid=c1dea8eb-dedb-48c3-82b9-ba4d059a0755","ios":"levelo://app?vid=c1dea8eb-dedb-48c3-82b9-ba4d059a0755"},"vehicle_type_id":"4","last_reported":1736597729,"current_range_meters":9200,"station_id":"ce4bhg12rcd13ifvqf70","pricing_plan_id":"cebpf4jnsgd1na2vs0mg"},{"bike_id":"666c0c92-428a-4f95-8531-2a4d6f4a5bb0","system_id":"levelo_inurba_marseille","lat":43.24664,"lon":5.38168,"is_reserved":false,"is_disabled":false,"rental_uris":{"android":"levelo://app?vid=666c0c92-428a-4f95-8531-2a4d6f4a5bb0","ios":"levelo://app?vid=666c0c92-428a-4f95-8531-2a4d6f4a5bb0"},"vehicle_type_id":"4","last_reported":1736597729,"current_range_meters":8400,"station_id":"ce4bhih2rcd13ifvqfr0","pricing_plan_id":"cebpf4jnsgd1na2vs0mg"},{"bike_id":"3e35ef7b-3237-4c6e-a7b1-693543e13672","system_id":"levelo_inurba_marseille","lat":43.24633,"lon":5.38909,"is_reserved":false,"is_disabled":false,"rental_uris":{"android":"levelo://app?vid=3e35ef7b-3237-4c6e-a7b1-693543e13672","ios":"levelo://app?vid=3e35ef7b-3237-4c6e-a7b1-693543e13672"},"vehicle_type_id":"4","last_reported":1736597729,"current_range_meters":28800,"station_id":"ce4bhg12rcd13ifvqf60","pricing_plan_id":"cebpf4jnsgd1na2vs0mg"},{"bike_id":"eb927f4a-386b-48f8-9749-d7349c5063b2","system_id":"levelo_inurba_marseille","lat":43.3132,"lon":5.3972,"is_reserved":false,"is_disabled":false,"rental_uris":{"android":"levelo://app?vid=eb927f4a-386b-48f8-9749-d7349c5063b2","ios":"levelo://app?vid=eb927f4a-386b-48f8-9749-d7349c5063b2"},"vehicle_type_id":"4","last_reported":1736597729,"current_range_meters":20800,"station_id":"ce4bh092rcd13ifvqd20","pricing_plan_id":"cebpf4jnsgd1na2vs0mg"},{"bike_id":"df9c47a7-6695-49c4-ab68-637bf31ef6fc","system_id":"levelo_inurba_marseille","lat":43.32052,"lon":5.41537,"is_reserved":false,"is_disabled":false,"rental_uris":{"android":"levelo://app?vid=df9c47a7-6695-49c4-ab68-637bf31ef6fc","ios":"levelo://app?vid=df9c47a7-6695-49c4-ab68-637bf31ef6fc"},"vehicle_type_id":"4","last_reported":1736597729,"current_range_meters":32400,"station_id":"ce4bhq92rcd13ifvqhkg","pricing_plan_id":"cebpf4jnsgd1na2vs0mg"},{"bike_id":"3de0da0c-42c1-4153-89bc-81f1c629b055","system_id":"levelo_inurba_marseille","lat":43.30913,"lon":5.36873,"is_reserved":false,"is_disabled":false,"rental_uris":{"android":"levelo://app?vid=3de0da0c-42c1-4153-89bc-81f1c629b055","ios":"levelo://app?vid=3de0da0c-42c1-4153-89bc-81f1c629b055"},"vehicle_type_id":"4","last_reported":1736597729,"current_range_meters":38400,"station_id":"ce4bgn92rcd13ifvqbvg","pricing_plan_id":"cebpf4jnsgd1na2vs0mg"},{"bike_id":"9cac00ca-3f57-48f3-a23b-73d746d3248c","system_id":"levelo_inurba_marseille","lat":43.29416,"lon":5.38645,"is_reserved":false,"is_disabled":false,"rental_uris":{"android":"levelo://app?vid=9cac00ca-3f57-48f3-a23b-73d746d3248c","ios":"levelo://app?vid=9cac00ca-3f57-48f3-a23b-73d746d3248c"},"vehicle_type_id":"4","last_reported":1736597729,"current_range_meters":22400,"station_id":"ce4bh2h2rcd13ifvqdh0","pricing_plan_id":"cebpf4jnsgd1na2vs0mg"},{"bike_id":"40aa582d-815a-4ab4-b49f-d3b3d622ee04","system_id":"levelo_inurba_marseille","lat":43.23069,"lon":5.35503,"is_reserved":false,"is_disabled":false,"rental_uris":{"android":"levelo://app?vid=40aa582d-815a-4ab4-b49f-d3b3d622ee04","ios":"levelo://app?vid=40aa582d-815a-4ab4-b49f-d3b3d622ee04"},"vehicle_type_id":"4","last_reported":1736597729,"current_range_meters":38400,"station_id":"cpo3342slgdg3j2ifvpg","pricing_plan_id":"cebpf4jnsgd1na2vs0mg"},{"bike_id":"6b750947-fb43-40e2-9931-495446cc2b3f","system_id":"levelo_inurba_marseille","lat":43.22921,"lon":5.35379,"is_reserved":false,"is_disabled":false,"rental_uris":{"android":"levelo://app?vid=6b750947-fb43-40e2-9931-495446cc2b3f","ios":"levelo://app?vid=6b750947-fb43-40e2-9931-495446cc2b3f"},"vehicle_type_id":"4","last_reported":1736597729,"current_range_meters":37600,"station_id":"cpo3532slgdg3j2ikp40","pricing_plan_id":"cebpf4jnsgd1na2vs0mg"},{"bike_id":"c8e997c0-8580-4d0f-8d9f-0766596381e1","system_id":"levelo_inurba_marseille","lat":43.34037,"lon":5.37534,"is_reserved":false,"is_disabled":false,"rental_uris":{"android":"levelo://app?vid=c8e997c0-8580-4d0f-8d9f-0766596381e1","ios":"levelo://app?vid=c8e997c0-8580-4d0f-8d9f-0766596381e1"},"vehicle_type_id":"4","last_reported":1736597729,"current_range_meters":6400,"station_id":"","pricing_plan_id":"cebpf4jnsgd1na2vs0mg"},{"bike_id":"2dc62668-e201-47ab-9a79-bbc1fdaf76ba","system_id":"levelo_inurba_marseille","lat":43.29623,"lon":5.37197,"is_reserved":false,"is_disabled":false,"rental_uris":{"android":"levelo://app?vid=2dc62668-e201-47ab-9a79-bbc1fdaf76ba","ios":"levelo://app?vid=2dc62668-e201-47ab-9a79-bbc1fdaf76ba"},"vehicle_type_id":"4","last_reported":1736597729,"current_range_meters":13600,"station_id":"ce4bgnh2rcd13ifvqc0g","pricing_plan_id":"cebpf4jnsgd1na2vs0mg"},{"bike_id":"ba5df164-d25c-4a1c-8679-1bd1a1db0642","system_id":"levelo_inurba_marseille","lat":43.33718,"lon":5.3919,"is_reserved":false,"is_disabled":false,"rental_uris":{"android":"levelo://app?vid=ba5df164-d25c-4a1c-8679-1bd1a1db0642","ios":"levelo://app?vid=ba5df164-d25c-4a1c-8679-1bd1a1db0642"},"vehicle_type_id":"4","last_reported":1736597729,"current_range_meters":28000,"station_id":"ce4bhr92rcd13ifvqhsg","pricing_plan_id":"cebpf4jnsgd1na2vs0mg"},{"bike_id":"bf166754-674a-476f-8fe7-2aac8b8cb98b","system_id":"levelo_inurba_marseille","lat":43.25664,"lon":5.41048,"is_reserved":false,"is_disabled":false,"rental_uris":{"android":"levelo://app?vid=bf166754-674a-476f-8fe7-2aac8b8cb98b","ios":"levelo://app?vid=bf166754-674a-476f-8fe7-2aac8b8cb98b"},"vehicle_type_id":"4","last_reported":1736597729,"current_range_meters":38800,"station_id":"ce4bhkp2rcd13ifvqgd0","pricing_plan_id":"cebpf4jnsgd1na2vs0mg"},{"bike_id":"6d907632-b7a4-409f-98d5-031bae93ab87","system_id":"levelo_inurba_marseille","lat":43.2396,"lon":5.36634,"is_reserved":false,"is_disabled":false,"rental_uris":{"android":"levelo://app?vid=6d907632-b7a4-409f-98d5-031bae93ab87","ios":"levelo://app?vid=6d907632-b7a4-409f-98d5-031bae93ab87"},"vehicle_type_id":"4","last_reported":1736597729,"current_range_meters":37600,"station_id":"ce4bhi12rcd13ifvqfp0","pricing_plan_id":"cebpf4jnsgd1na2vs0mg"},{"bike_id":"edf015d2-ecd1-40d2-a506-81d1098fdc72","system_id":"levelo_inurba_marseille","lat":43.30527,"lon":5.36725,"is_reserved":false,"is_disabled":false,"rental_uris":{"android":"levelo://app?vid=edf015d2-ecd1-40d2-a506-81d1098fdc72","ios":"levelo://app?vid=edf015d2-ecd1-40d2-a506-81d1098fdc72"},"vehicle_type_id":"4","last_reported":1736597729,"current_range_meters":8400,"station_id":"ce4bgrp2rcd13ifvqc9g","pricing_plan_id":"cebpf4jnsgd1na2vs0mg"},{"bike_id":"eb9b2df2-fdc1-4d66-abed-6bda4748c4f1","system_id":"levelo_inurba_marseille","lat":43.26191,"lon":5.3791,"is_reserved":false,"is_disabled":false,"rental_uris":{"android":"levelo://app?vid=eb9b2df2-fdc1-4d66-abed-6bda4748c4f1","ios":"levelo://app?vid=eb9b2df2-fdc1-4d66-abed-6bda4748c4f1"},"vehicle_type_id":"4","last_reported":1736597729,"current_range_meters":27600,"station_id":"ce4bhjp2rcd13ifvqg90","pricing_plan_id":"cebpf4jnsgd1na2vs0mg"},{"bike_id":"756acf7b-5e79-461a-9a9d-14e00e8d684f","system_id":"levelo_inurba_marseille","lat":43.3048,"lon":5.37911,"is_reserved":false,"is_disabled":true,"rental_uris":{"android":"levelo://app?vid=756acf7b-5e79-461a-9a9d-14e00e8d684f","ios":"levelo://app?vid=756acf7b-5e79-461a-9a9d-14e00e8d684f"},"vehicle_type_id":"4","last_reported":1736597729,"current_range_meters":35200,"station_id":"ce4bgup2rcd13ifvqcn0","pricing_plan_id":"cebpf4jnsgd1na2vs0mg"},{"bike_id":"6b764e8c-1a43-46a3-97d7-14881c8e848c","system_id":"levelo_inurba_marseille","lat":43.25823,"lon":5.39421,"is_reserved":false,"is_disabled":false,"rental_uris":{"android":"levelo://app?vid=6b764e8c-1a43-46a3-97d7-14881c8e848c","ios":"levelo://app?vid=6b764e8c-1a43-46a3-97d7-14881c8e848c"},"vehicle_type_id":"4","last_reported":1736597729,"current_range_meters":38400,"station_id":"ce4bhip2rcd13ifvqft0","pricing_plan_id":"cebpf4jnsgd1na2vs0mg"},{"bike_id":"d8327471-e10e-4e1d-a46b-c43156fc0620","system_id":"levelo_inurba_marseille","lat":43.26849,"lon":5.39477,"is_reserved":false,"is_disabled":true,"rental_uris":{"android":"levelo://app?vid=d8327471-e10e-4e1d-a46b-c43156fc0620","ios":"levelo://app?vid=d8327471-e10e-4e1d-a46b-c43156fc0620"},"vehicle_type_id":"4","last_reported":1736597729,"current_range_meters":0,"station_id":"ce4bhh12rcd13ifvqfg0","pricing_plan_id":"cebpf4jnsgd1na2vs0mg"},{"bike_id":"f404313a-b453-4ed2-9cf2-f503539db699","system_id":"levelo_inurba_marseille","lat":43.27983,"lon":5.399817,"is_reserved":false,"is_disabled":true,"rental_uris":{"android":"levelo://app?vid=f404313a-b453-4ed2-9cf2-f503539db699","ios":"levelo://app?vid=f404313a-b453-4ed2-9cf2-f503539db699"},"vehicle_type_id":"4","last_reported":1736597729,"current_range_meters":800,"station_id":"ce4bho92rcd13ifvqh4g","pricing_plan_id":"cebpf4jnsgd1na2vs0mg"},{"bike_id":"d1e60870-c265-4acc-92db-6275919774f5","system_id":"levelo_inurba_marseille","lat":43.30434,"lon":5.39745,"is_reserved":false,"is_disabled":false,"rental_uris":{"android":"levelo://app?vid=d1e60870-c265-4acc-92db-6275919774f5","ios":"levelo://app?vid=d1e60870-c265-4acc-92db-6275919774f5"},"vehicle_type_id":"4","last_reported":1736597729,"current_range_meters":36000,"station_id":"ce4bh092rcd13ifvqd20","pricing_plan_id":"cebpf4jnsgd1na2vs0mg"},{"bike_id":"e0807d9a-e6e0-49fa-b303-f10d1cc851d9","system_id":"levelo_inurba_marseille","lat":43.29216,"lon":5.36048,"is_reserved":false,"is_disabled":false,"rental_uris":{"android":"levelo://app?vid=e0807d9a-e6e0-49fa-b303-f10d1cc851d9","ios":"levelo://app?vid=e0807d9a-e6e0-49fa-b303-f10d1cc851d9"},"vehicle_type_id":"4","last_reported":1736597729,"current_range_meters":38800,"station_id":"ce4bhbh2rcd13ifvqeqg","pricing_plan_id":"cebpf4jnsgd1na2vs0mg"},{"bike_id":"b8a70a4d-0bda-4b8b-9e34-99ec66f6e055","system_id":"levelo_inurba_marseille","lat":43.27968,"lon":5.38703,"is_reserved":false,"is_disabled":true,"rental_uris":{"android":"levelo://app?vid=b8a70a4d-0bda-4b8b-9e34-99ec66f6e055","ios":"levelo://app?vid=b8a70a4d-0bda-4b8b-9e34-99ec66f6e055"},"vehicle_type_id":"4","last_reported":1736597729,"current_range_meters":16800,"station_id":"ce4bhg12rcd13ifvqf80","pricing_plan_id":"cebpf4jnsgd1na2vs0mg"},{"bike_id":"fc091fb3-8973-4256-b287-db82b9648835","system_id":"levelo_inurba_marseille","lat":43.27807,"lon":5.40709,"is_reserved":false,"is_disabled":false,"rental_uris":{"android":"levelo://app?vid=fc091fb3-8973-4256-b287-db82b9648835","ios":"levelo://app?vid=fc091fb3-8973-4256-b287-db82b9648835"},"vehicle_type_id":"4","last_reported":1736597729,"current_range_meters":31200,"station_id":"ce4bhnh2rcd13ifvqgtg","pricing_plan_id":"cebpf4jnsgd1na2vs0mg"},{"bike_id":"fd75e0f0-43a1-460e-8161-6f4563840366","system_id":"levelo_inurba_marseille","lat":43.30446,"lon":5.39755,"is_reserved":false,"is_disabled":false,"rental_uris":{"android":"levelo://app?vid=fd75e0f0-43a1-460e-8161-6f4563840366","ios":"levelo://app?vid=fd75e0f0-43a1-460e-8161-6f4563840366"},"vehicle_type_id":"4","last_reported":1736597729,"current_range_meters":39200,"station_id":"ce4bh092rcd13ifvqd20","pricing_plan_id":"cebpf4jnsgd1na2vs0mg"},{"bike_id":"426ee80e-06b0-4d0f-86a5-ea8ad64aaa11","system_id":"levelo_inurba_marseille","lat":43.28914,"lon":5.43768,"is_reserved":false,"is_disabled":false,"rental_uris":{"android":"levelo://app?vid=426ee80e-06b0-4d0f-86a5-ea8ad64aaa11","ios":"levelo://app?vid=426ee80e-06b0-4d0f-86a5-ea8ad64aaa11"},"vehicle_type_id":"4","last_reported":1736597729,"current_range_meters":17600,"station_id":"","pricing_plan_id":"cebpf4jnsgd1na2vs0mg"},{"bike_id":"000221d2-332a-4818-9b79-d91c077ba0f7","system_id":"levelo_inurba_marseille","lat":43.30886,"lon":5.39659,"is_reserved":false,"is_disabled":false,"rental_uris":{"android":"levelo://app?vid=000221d2-332a-4818-9b79-d91c077ba0f7","ios":"levelo://app?vid=000221d2-332a-4818-9b79-d91c077ba0f7"},"vehicle_type_id":"4","last_reported":1736597729,"current_range_meters":14800,"station_id":"ce4bh012rcd13ifvqcv0","pricing_plan_id":"cebpf4jnsgd1na2vs0mg"},{"bike_id":"dc97ba32-e217-4a82-838d-ecbb0e74d49d","system_id":"levelo_inurba_marseille","lat":43.29715,"lon":5.37309,"is_reserved":false,"is_disabled":false,"rental_uris":{"android":"levelo://app?vid=dc97ba32-e217-4a82-838d-ecbb0e74d49d","ios":"levelo://app?vid=dc97ba32-e217-4a82-838d-ecbb0e74d49d"},"vehicle_type_id":"4","last_reported":1736597729,"current_range_meters":39200,"station_id":"ce4bgk12rcd13ifvqbj0","pricing_plan_id":"cebpf4jnsgd1na2vs0mg"},{"bike_id":"b27cc99f-6b66-4ab0-833d-ef1cae10794f","system_id":"levelo_inurba_marseille","lat":43.25868,"lon":5.39933,"is_reserved":false,"is_disabled":false,"rental_uris":{"android":"levelo://app?vid=b27cc99f-6b66-4ab0-833d-ef1cae10794f","ios":"levelo://app?vid=b27cc99f-6b66-4ab0-833d-ef1cae10794f"},"vehicle_type_id":"4","last_reported":1736597729,"current_range_meters":38800,"station_id":"ce4bhl92rcd13ifvqghg","pricing_plan_id":"cebpf4jnsgd1na2vs0mg"},{"bike_id":"dcb694da-6678-41d9-9edc-27005b7078ba","system_id":"levelo_inurba_marseille","lat":43.28463,"lon":5.38425,"is_reserved":false,"is_disabled":false,"rental_uris":{"android":"levelo://app?vid=dcb694da-6678-41d9-9edc-27005b7078ba","ios":"levelo://app?vid=dcb694da-6678-41d9-9edc-27005b7078ba"},"vehicle_type_id":"4","last_reported":1736597729,"current_range_meters":17600,"station_id":"ce4bh512rcd13ifvqe3g","pricing_plan_id":"cebpf4jnsgd1na2vs0mg"},{"bike_id":"64e22768-79ef-4593-847f-a621c4893945","system_id":"levelo_inurba_marseille","lat":43.31535,"lon":5.38008,"is_reserved":false,"is_disabled":false,"rental_uris":{"android":"levelo://app?vid=64e22768-79ef-4593-847f-a621c4893945","ios":"levelo://app?vid=64e22768-79ef-4593-847f-a621c4893945"},"vehicle_type_id":"4","last_reported":1736597729,"current_range_meters":39200,"station_id":"ce4bhsp2rcd13ifvqi50","pricing_plan_id":"cebpf4jnsgd1na2vs0mg"},{"bike_id":"f4dbc556-58b0-4dfd-be99-18a51c032520","system_id":"levelo_inurba_marseille","lat":43.24166,"lon":5.39773,"is_reserved":false,"is_disabled":true,"rental_uris":{"android":"levelo://app?vid=f4dbc556-58b0-4dfd-be99-18a51c032520","ios":"levelo://app?vid=f4dbc556-58b0-4dfd-be99-18a51c032520"},"vehicle_type_id":"4","last_reported":1736597729,"current_range_meters":38400,"station_id":"ce4bhn12rcd13ifvqgpg","pricing_plan_id":"cebpf4jnsgd1na2vs0mg"},{"bike_id":"9c62e164-6cf9-4292-996f-7c2ed5673e8e","system_id":"levelo_inurba_marseille","lat":43.23949,"lon":5.36619,"is_reserved":false,"is_disabled":false,"rental_uris":{"android":"levelo://app?vid=9c62e164-6cf9-4292-996f-7c2ed5673e8e","ios":"levelo://app?vid=9c62e164-6cf9-4292-996f-7c2ed5673e8e"},"vehicle_type_id":"4","last_reported":1736597729,"current_range_meters":30000,"station_id":"ce4bhi12rcd13ifvqfp0","pricing_plan_id":"cebpf4jnsgd1na2vs0mg"},{"bike_id":"3efe1a20-ca9f-4ebd-b942-877ceeaa1866","system_id":"levelo_inurba_marseille","lat":43.30597,"lon":5.39356,"is_reserved":false,"is_disabled":false,"rental_uris":{"android":"levelo://app?vid=3efe1a20-ca9f-4ebd-b942-877ceeaa1866","ios":"levelo://app?vid=3efe1a20-ca9f-4ebd-b942-877ceeaa1866"},"vehicle_type_id":"4","last_reported":1736597729,"current_range_meters":2000,"station_id":"ce4bh0p2rcd13ifvqd80","pricing_plan_id":"cebpf4jnsgd1na2vs0mg"},{"bike_id":"400c8f8b-64a0-4a68-ba12-7139d40158c6","system_id":"levelo_inurba_marseille","lat":43.26682,"lon":5.38268,"is_reserved":false,"is_disabled":false,"rental_uris":{"android":"levelo://app?vid=400c8f8b-64a0-4a68-ba12-7139d40158c6","ios":"levelo://app?vid=400c8f8b-64a0-4a68-ba12-7139d40158c6"},"vehicle_type_id":"4","last_reported":1736597729,"current_range_meters":24800,"station_id":"ce4bhg92rcd13ifvqf90","pricing_plan_id":"cebpf4jnsgd1na2vs0mg"},{"bike_id":"6cb4fa8f-42f8-4f8b-affb-7fa6c322feac","system_id":"levelo_inurba_marseille","lat":43.29681,"lon":5.37291,"is_reserved":false,"is_disabled":false,"rental_uris":{"android":"levelo://app?vid=6cb4fa8f-42f8-4f8b-affb-7fa6c322feac","ios":"levelo://app?vid=6cb4fa8f-42f8-4f8b-affb-7fa6c322feac"},"vehicle_type_id":"4","last_reported":1736597729,"current_range_meters":39200,"station_id":"ce4bgk12rcd13ifvqbj0","pricing_plan_id":"cebpf4jnsgd1na2vs0mg"},{"bike_id":"8e286290-8a3b-48fb-aeb0-360a310f4328","system_id":"levelo_inurba_marseille","lat":43.28932,"lon":5.38399,"is_reserved":false,"is_disabled":false,"rental_uris":{"android":"levelo://app?vid=8e286290-8a3b-48fb-aeb0-360a310f4328","ios":"levelo://app?vid=8e286290-8a3b-48fb-aeb0-360a310f4328"},"vehicle_type_id":"4","last_reported":1736597729,"current_range_meters":32800,"station_id":"ce4bh612rcd13ifvqe6g","pricing_plan_id":"cebpf4jnsgd1na2vs0mg"},{"bike_id":"80609ff8-7d7d-4ae2-9159-aea837c7c52b","system_id":"levelo_inurba_marseille","lat":43.23952,"lon":5.36629,"is_reserved":false,"is_disabled":false,"rental_uris":{"android":"levelo://app?vid=80609ff8-7d7d-4ae2-9159-aea837c7c52b","ios":"levelo://app?vid=80609ff8-7d7d-4ae2-9159-aea837c7c52b"},"vehicle_type_id":"4","last_reported":1736597729,"current_range_meters":10800,"station_id":"ce4bhi12rcd13ifvqfp0","pricing_plan_id":"cebpf4jnsgd1na2vs0mg"},{"bike_id":"3d8a5db0-c55f-4a20-8bc8-5f50d71b1907","system_id":"levelo_inurba_marseille","lat":43.2861,"lon":5.35102,"is_reserved":false,"is_disabled":false,"rental_uris":{"android":"levelo://app?vid=3d8a5db0-c55f-4a20-8bc8-5f50d71b1907","ios":"levelo://app?vid=3d8a5db0-c55f-4a20-8bc8-5f50d71b1907"},"vehicle_type_id":"4","last_reported":1736597729,"current_range_meters":30800,"station_id":"ce4bhch2rcd13ifvqeug","pricing_plan_id":"cebpf4jnsgd1na2vs0mg"},{"bike_id":"5edb9b21-4917-4f45-9961-6635931db922","system_id":"levelo_inurba_marseille","lat":43.22925,"lon":5.35387,"is_reserved":false,"is_disabled":false,"rental_uris":{"android":"levelo://app?vid=5edb9b21-4917-4f45-9961-6635931db922","ios":"levelo://app?vid=5edb9b21-4917-4f45-9961-6635931db922"},"vehicle_type_id":"4","last_reported":1736597729,"current_range_meters":38800,"station_id":"cpo3532slgdg3j2ikp40","pricing_plan_id":"cebpf4jnsgd1na2vs0mg"},{"bike_id":"baf74963-7d44-43cf-b2a2-efc3c98b4e82","system_id":"levelo_inurba_marseille","lat":43.27412,"lon":5.39395,"is_reserved":false,"is_disabled":false,"rental_uris":{"android":"levelo://app?vid=baf74963-7d44-43cf-b2a2-efc3c98b4e82","ios":"levelo://app?vid=baf74963-7d44-43cf-b2a2-efc3c98b4e82"},"vehicle_type_id":"4","last_reported":1736597729,"current_range_meters":39200,"station_id":"ce4bhdp2rcd13ifvqf20","pricing_plan_id":"cebpf4jnsgd1na2vs0mg"},{"bike_id":"22826189-66f7-40f5-8662-62fb2337f62c","system_id":"levelo_inurba_marseille","lat":43.2991,"lon":5.37492,"is_reserved":false,"is_disabled":false,"rental_uris":{"android":"levelo://app?vid=22826189-66f7-40f5-8662-62fb2337f62c","ios":"levelo://app?vid=22826189-66f7-40f5-8662-62fb2337f62c"},"vehicle_type_id":"4","last_reported":1736597729,"current_range_meters":24400,"station_id":"ce4bgjh2rcd13ifvqbg0","pricing_plan_id":"cebpf4jnsgd1na2vs0mg"},{"bike_id":"816f16d8-6ff0-4785-861d-d7f867697579","system_id":"levelo_inurba_marseille","lat":43.315339,"lon":5.380277,"is_reserved":false,"is_disabled":false,"rental_uris":{"android":"levelo://app?vid=816f16d8-6ff0-4785-861d-d7f867697579","ios":"levelo://app?vid=816f16d8-6ff0-4785-861d-d7f867697579"},"vehicle_type_id":"4","last_reported":1736597729,"current_range_meters":38800,"station_id":"ce4bhsp2rcd13ifvqi50","pricing_plan_id":"cebpf4jnsgd1na2vs0mg"},{"bike_id":"2ccac4b7-b427-4f81-b79d-58eb99198f3a","system_id":"levelo_inurba_marseille","lat":43.24803,"lon":5.37456,"is_reserved":false,"is_disabled":true,"rental_uris":{"android":"levelo://app?vid=2ccac4b7-b427-4f81-b79d-58eb99198f3a","ios":"levelo://app?vid=2ccac4b7-b427-4f81-b79d-58eb99198f3a"},"vehicle_type_id":"4","last_reported":1736597729,"current_range_meters":0,"station_id":"ce4bhgh2rcd13ifvqfb0","pricing_plan_id":"cebpf4jnsgd1na2vs0mg"},{"bike_id":"5520a195-8b13-46c6-8b61-7d88d703660d","system_id":"levelo_inurba_marseille","lat":43.30205,"lon":5.39481,"is_reserved":false,"is_disabled":false,"rental_uris":{"android":"levelo://app?vid=5520a195-8b13-46c6-8b61-7d88d703660d","ios":"levelo://app?vid=5520a195-8b13-46c6-8b61-7d88d703660d"},"vehicle_type_id":"4","last_reported":1736597729,"current_range_meters":38800,"station_id":"ce4bh0p2rcd13ifvqd70","pricing_plan_id":"cebpf4jnsgd1na2vs0mg"},{"bike_id":"125e3e37-3f30-4761-a249-1beea305da1b","system_id":"levelo_inurba_marseille","lat":43.27208,"lon":5.39195,"is_reserved":false,"is_disabled":false,"rental_uris":{"android":"levelo://app?vid=125e3e37-3f30-4761-a249-1beea305da1b","ios":"levelo://app?vid=125e3e37-3f30-4761-a249-1beea305da1b"},"vehicle_type_id":"4","last_reported":1736597729,"current_range_meters":30000,"station_id":"ce4bhhp2rcd13ifvqfm0","pricing_plan_id":"cebpf4jnsgd1na2vs0mg"},{"bike_id":"534c6702-dfa1-401b-970b-2ac69bdd882a","system_id":"levelo_inurba_marseille","lat":43.24084,"lon":5.37743,"is_reserved":false,"is_disabled":false,"rental_uris":{"android":"levelo://app?vid=534c6702-dfa1-401b-970b-2ac69bdd882a","ios":"levelo://app?vid=534c6702-dfa1-401b-970b-2ac69bdd882a"},"vehicle_type_id":"4","last_reported":1736597729,"current_range_meters":28800,"station_id":"ce4bhnp2rcd13ifvqgvg","pricing_plan_id":"cebpf4jnsgd1na2vs0mg"},{"bike_id":"066fc890-cce1-4b7e-a941-320c51e991c9","system_id":"levelo_inurba_marseille","lat":43.23964,"lon":5.36639,"is_reserved":false,"is_disabled":false,"rental_uris":{"android":"levelo://app?vid=066fc890-cce1-4b7e-a941-320c51e991c9","ios":"levelo://app?vid=066fc890-cce1-4b7e-a941-320c51e991c9"},"vehicle_type_id":"4","last_reported":1736597729,"current_range_meters":22800,"station_id":"ce4bhi12rcd13ifvqfp0","pricing_plan_id":"cebpf4jnsgd1na2vs0mg"},{"bike_id":"5f50eb76-c20c-4230-926b-27928bb7844b","system_id":"levelo_inurba_marseille","lat":43.29188,"lon":5.35812,"is_reserved":false,"is_disabled":false,"rental_uris":{"android":"levelo://app?vid=5f50eb76-c20c-4230-926b-27928bb7844b","ios":"levelo://app?vid=5f50eb76-c20c-4230-926b-27928bb7844b"},"vehicle_type_id":"4","last_reported":1736597729,"current_range_meters":33600,"station_id":"ce4bhb12rcd13ifvqel0","pricing_plan_id":"cebpf4jnsgd1na2vs0mg"},{"bike_id":"b1cd05bd-cc6d-452b-8b8c-f24ee7fb627f","system_id":"levelo_inurba_marseille","lat":43.258271,"lon":5.394284,"is_reserved":false,"is_disabled":false,"rental_uris":{"android":"levelo://app?vid=b1cd05bd-cc6d-452b-8b8c-f24ee7fb627f","ios":"levelo://app?vid=b1cd05bd-cc6d-452b-8b8c-f24ee7fb627f"},"vehicle_type_id":"4","last_reported":1736597729,"current_range_meters":32400,"station_id":"ce4bhip2rcd13ifvqft0","pricing_plan_id":"cebpf4jnsgd1na2vs0mg"},{"bike_id":"1090494e-98ba-4a9f-8613-383441e3c1ed","system_id":"levelo_inurba_marseille","lat":43.28492,"lon":5.38419,"is_reserved":false,"is_disabled":false,"rental_uris":{"android":"levelo://app?vid=1090494e-98ba-4a9f-8613-383441e3c1ed","ios":"levelo://app?vid=1090494e-98ba-4a9f-8613-383441e3c1ed"},"vehicle_type_id":"4","last_reported":1736597729,"current_range_meters":22800,"station_id":"ce4bh512rcd13ifvqe3g","pricing_plan_id":"cebpf4jnsgd1na2vs0mg"},{"bike_id":"43003876-73ff-4d12-b22e-7c36900c0f8c","system_id":"levelo_inurba_marseille","lat":43.24666,"lon":5.38163,"is_reserved":false,"is_disabled":false,"rental_uris":{"android":"levelo://app?vid=43003876-73ff-4d12-b22e-7c36900c0f8c","ios":"levelo://app?vid=43003876-73ff-4d12-b22e-7c36900c0f8c"},"vehicle_type_id":"4","last_reported":1736597729,"current_range_meters":6400,"station_id":"ce4bhih2rcd13ifvqfr0","pricing_plan_id":"cebpf4jnsgd1na2vs0mg"},{"bike_id":"3f1c785d-f4db-48c3-8fab-d7359eef83a2","system_id":"levelo_inurba_marseille","lat":43.30421,"lon":5.41291,"is_reserved":false,"is_disabled":false,"rental_uris":{"android":"levelo://app?vid=3f1c785d-f4db-48c3-8fab-d7359eef83a2","ios":"levelo://app?vid=3f1c785d-f4db-48c3-8fab-d7359eef83a2"},"vehicle_type_id":"4","last_reported":1736597729,"current_range_meters":32400,"station_id":"ce4bhop2rcd13ifvqh8g","pricing_plan_id":"cebpf4jnsgd1na2vs0mg"},{"bike_id":"2b772690-1e82-4b69-b95e-d885d9c184e6","system_id":"levelo_inurba_marseille","lat":43.30607,"lon":5.37222,"is_reserved":false,"is_disabled":false,"rental_uris":{"android":"levelo://app?vid=2b772690-1e82-4b69-b95e-d885d9c184e6","ios":"levelo://app?vid=2b772690-1e82-4b69-b95e-d885d9c184e6"},"vehicle_type_id":"4","last_reported":1736597729,"current_range_meters":37600,"station_id":"ce4bgqh2rcd13ifvqc4g","pricing_plan_id":"cebpf4jnsgd1na2vs0mg"},{"bike_id":"74341cd4-f4d3-470e-b9a1-2e778a9f9c9d","system_id":"levelo_inurba_marseille","lat":43.29257,"lon":5.38441,"is_reserved":false,"is_disabled":false,"rental_uris":{"android":"levelo://app?vid=74341cd4-f4d3-470e-b9a1-2e778a9f9c9d","ios":"levelo://app?vid=74341cd4-f4d3-470e-b9a1-2e778a9f9c9d"},"vehicle_type_id":"4","last_reported":1736597729,"current_range_meters":34800,"station_id":"ce4bh692rcd13ifvqea0","pricing_plan_id":"cebpf4jnsgd1na2vs0mg"},{"bike_id":"22617daf-f25f-4eb2-bd5a-85116a3fcaa7","system_id":"levelo_inurba_marseille","lat":43.2928,"lon":5.37449,"is_reserved":false,"is_disabled":false,"rental_uris":{"android":"levelo://app?vid=22617daf-f25f-4eb2-bd5a-85116a3fcaa7","ios":"levelo://app?vid=22617daf-f25f-4eb2-bd5a-85116a3fcaa7"},"vehicle_type_id":"4","last_reported":1736597729,"current_range_meters":38400,"station_id":"ce4bgi12rcd13ifvqb70","pricing_plan_id":"cebpf4jnsgd1na2vs0mg"},{"bike_id":"2c9dd628-c688-4c37-b6d2-d665ced3ed71","system_id":"levelo_inurba_marseille","lat":43.25001,"lon":5.38906,"is_reserved":false,"is_disabled":false,"rental_uris":{"android":"levelo://app?vid=2c9dd628-c688-4c37-b6d2-d665ced3ed71","ios":"levelo://app?vid=2c9dd628-c688-4c37-b6d2-d665ced3ed71"},"vehicle_type_id":"4","last_reported":1736597729,"current_range_meters":38400,"station_id":"ce4bhgp2rcd13ifvqfd0","pricing_plan_id":"cebpf4jnsgd1na2vs0mg"},{"bike_id":"dea36c55-6edf-4c74-91be-15f04a3f87af","system_id":"levelo_inurba_marseille","lat":43.27583,"lon":5.38402,"is_reserved":false,"is_disabled":false,"rental_uris":{"android":"levelo://app?vid=dea36c55-6edf-4c74-91be-15f04a3f87af","ios":"levelo://app?vid=dea36c55-6edf-4c74-91be-15f04a3f87af"},"vehicle_type_id":"4","last_reported":1736597729,"current_range_meters":38800,"station_id":"ce4bhh92rcd13ifvqfi0","pricing_plan_id":"cebpf4jnsgd1na2vs0mg"},{"bike_id":"85077f2d-96d6-4799-acc0-68a7354da011","system_id":"levelo_inurba_marseille","lat":43.25492,"lon":5.37661,"is_reserved":false,"is_disabled":false,"rental_uris":{"android":"levelo://app?vid=85077f2d-96d6-4799-acc0-68a7354da011","ios":"levelo://app?vid=85077f2d-96d6-4799-acc0-68a7354da011"},"vehicle_type_id":"4","last_reported":1736597729,"current_range_meters":32800,"station_id":"ce4bhh12rcd13ifvqff0","pricing_plan_id":"cebpf4jnsgd1na2vs0mg"},{"bike_id":"f7f49bc2-5a70-438d-ab6f-26cbacc54252","system_id":"levelo_inurba_marseille","lat":43.29713,"lon":5.37152,"is_reserved":false,"is_disabled":false,"rental_uris":{"android":"levelo://app?vid=f7f49bc2-5a70-438d-ab6f-26cbacc54252","ios":"levelo://app?vid=f7f49bc2-5a70-438d-ab6f-26cbacc54252"},"vehicle_type_id":"4","last_reported":1736597729,"current_range_meters":34800,"station_id":"ce4bgnh2rcd13ifvqc0g","pricing_plan_id":"cebpf4jnsgd1na2vs0mg"},{"bike_id":"6f5d218f-db1a-4b96-bcf2-b235eea71c2f","system_id":"levelo_inurba_marseille","lat":43.25507,"lon":5.37649,"is_reserved":false,"is_disabled":false,"rental_uris":{"android":"levelo://app?vid=6f5d218f-db1a-4b96-bcf2-b235eea71c2f","ios":"levelo://app?vid=6f5d218f-db1a-4b96-bcf2-b235eea71c2f"},"vehicle_type_id":"4","last_reported":1736597729,"current_range_meters":4800,"station_id":"ce4bhh12rcd13ifvqff0","pricing_plan_id":"cebpf4jnsgd1na2vs0mg"},{"bike_id":"e38a17ae-ca56-484a-af8f-de0b72db3ed1","system_id":"levelo_inurba_marseille","lat":43.27836,"lon":5.39213,"is_reserved":false,"is_disabled":false,"rental_uris":{"android":"levelo://app?vid=e38a17ae-ca56-484a-af8f-de0b72db3ed1","ios":"levelo://app?vid=e38a17ae-ca56-484a-af8f-de0b72db3ed1"},"vehicle_type_id":"4","last_reported":1736597729,"current_range_meters":16400,"station_id":"ce4bhjp2rcd13ifvqga0","pricing_plan_id":"cebpf4jnsgd1na2vs0mg"},{"bike_id":"89cba5ca-b4db-4a88-9f47-817730a13f96","system_id":"levelo_inurba_marseille","lat":43.30136,"lon":5.39857,"is_reserved":false,"is_disabled":false,"rental_uris":{"android":"levelo://app?vid=89cba5ca-b4db-4a88-9f47-817730a13f96","ios":"levelo://app?vid=89cba5ca-b4db-4a88-9f47-817730a13f96"},"vehicle_type_id":"4","last_reported":1736597729,"current_range_meters":21600,"station_id":"ce4bh0h2rcd13ifvqd40","pricing_plan_id":"cebpf4jnsgd1na2vs0mg"},{"bike_id":"10365879-1263-494b-962f-8ad20baa0824","system_id":"levelo_inurba_marseille","lat":43.25002,"lon":5.38946,"is_reserved":false,"is_disabled":false,"rental_uris":{"android":"levelo://app?vid=10365879-1263-494b-962f-8ad20baa0824","ios":"levelo://app?vid=10365879-1263-494b-962f-8ad20baa0824"},"vehicle_type_id":"4","last_reported":1736597729,"current_range_meters":33200,"station_id":"ce4bhgp2rcd13ifvqfd0","pricing_plan_id":"cebpf4jnsgd1na2vs0mg"},{"bike_id":"b9a625c6-f08a-486a-84db-1663d9d856a4","system_id":"levelo_inurba_marseille","lat":43.30167,"lon":5.37409,"is_reserved":false,"is_disabled":false,"rental_uris":{"android":"levelo://app?vid=b9a625c6-f08a-486a-84db-1663d9d856a4","ios":"levelo://app?vid=b9a625c6-f08a-486a-84db-1663d9d856a4"},"vehicle_type_id":"4","last_reported":1736597729,"current_range_meters":22800,"station_id":"ce4bgs92rcd13ifvqcc0","pricing_plan_id":"cebpf4jnsgd1na2vs0mg"},{"bike_id":"cdd589a6-cc5d-48f2-9993-8953777bdc8d","system_id":"levelo_inurba_marseille","lat":43.292279,"lon":5.360784,"is_reserved":false,"is_disabled":false,"rental_uris":{"android":"levelo://app?vid=cdd589a6-cc5d-48f2-9993-8953777bdc8d","ios":"levelo://app?vid=cdd589a6-cc5d-48f2-9993-8953777bdc8d"},"vehicle_type_id":"4","last_reported":1736597729,"current_range_meters":33200,"station_id":"ce4bhbh2rcd13ifvqeqg","pricing_plan_id":"cebpf4jnsgd1na2vs0mg"},{"bike_id":"7e9a745e-c82d-4677-a3f0-c081269f42e9","system_id":"levelo_inurba_marseille","lat":43.28968,"lon":5.3561,"is_reserved":false,"is_disabled":true,"rental_uris":{"android":"levelo://app?vid=7e9a745e-c82d-4677-a3f0-c081269f42e9","ios":"levelo://app?vid=7e9a745e-c82d-4677-a3f0-c081269f42e9"},"vehicle_type_id":"4","last_reported":1736597729,"current_range_meters":27200,"station_id":"ce4bhb92rcd13ifvqen0","pricing_plan_id":"cebpf4jnsgd1na2vs0mg"},{"bike_id":"e0602ccf-d795-4950-9f1e-64696a208c91","system_id":"levelo_inurba_marseille","lat":43.30545,"lon":5.38411,"is_reserved":false,"is_disabled":false,"rental_uris":{"android":"levelo://app?vid=e0602ccf-d795-4950-9f1e-64696a208c91","ios":"levelo://app?vid=e0602ccf-d795-4950-9f1e-64696a208c91"},"vehicle_type_id":"4","last_reported":1736597729,"current_range_meters":35600,"station_id":"ce4bgg92rcd13ifvqb30","pricing_plan_id":"cebpf4jnsgd1na2vs0mg"},{"bike_id":"bc2ecfb6-7911-4f67-9761-2fa9eb95f393","system_id":"levelo_inurba_marseille","lat":43.29723,"lon":5.37682,"is_reserved":false,"is_disabled":false,"rental_uris":{"android":"levelo://app?vid=bc2ecfb6-7911-4f67-9761-2fa9eb95f393","ios":"levelo://app?vid=bc2ecfb6-7911-4f67-9761-2fa9eb95f393"},"vehicle_type_id":"4","last_reported":1736597729,"current_range_meters":37600,"station_id":"ce4bgkh2rcd13ifvqbl0","pricing_plan_id":"cebpf4jnsgd1na2vs0mg"},{"bike_id":"93013716-c8c7-40c1-bdf8-23fc4dc88f33","system_id":"levelo_inurba_marseille","lat":43.29915,"lon":5.38151,"is_reserved":false,"is_disabled":false,"rental_uris":{"android":"levelo://app?vid=93013716-c8c7-40c1-bdf8-23fc4dc88f33","ios":"levelo://app?vid=93013716-c8c7-40c1-bdf8-23fc4dc88f33"},"vehicle_type_id":"4","last_reported":1736597729,"current_range_meters":23200,"station_id":"ce4bgj12rcd13ifvqbc0","pricing_plan_id":"cebpf4jnsgd1na2vs0mg"},{"bike_id":"b984475e-70f5-478d-a365-e48ebf91675f","system_id":"levelo_inurba_marseille","lat":43.29594,"lon":5.38418,"is_reserved":false,"is_disabled":true,"rental_uris":{"android":"levelo://app?vid=b984475e-70f5-478d-a365-e48ebf91675f","ios":"levelo://app?vid=b984475e-70f5-478d-a365-e48ebf91675f"},"vehicle_type_id":"4","last_reported":1736597729,"current_range_meters":0,"station_id":"ce4bgih2rcd13ifvqba0","pricing_plan_id":"cebpf4jnsgd1na2vs0mg"},{"bike_id":"ad942e8a-4a20-4239-b2c1-819d7eefea53","system_id":"levelo_inurba_marseille","lat":43.27214,"lon":5.39176,"is_reserved":false,"is_disabled":false,"rental_uris":{"android":"levelo://app?vid=ad942e8a-4a20-4239-b2c1-819d7eefea53","ios":"levelo://app?vid=ad942e8a-4a20-4239-b2c1-819d7eefea53"},"vehicle_type_id":"4","last_reported":1736597729,"current_range_meters":34000,"station_id":"ce4bhhp2rcd13ifvqfm0","pricing_plan_id":"cebpf4jnsgd1na2vs0mg"},{"bike_id":"f34fc04b-b351-4ac8-a47c-a2006c27444b","system_id":"levelo_inurba_marseille","lat":43.31552,"lon":5.38013,"is_reserved":false,"is_disabled":true,"rental_uris":{"android":"levelo://app?vid=f34fc04b-b351-4ac8-a47c-a2006c27444b","ios":"levelo://app?vid=f34fc04b-b351-4ac8-a47c-a2006c27444b"},"vehicle_type_id":"4","last_reported":1736597729,"current_range_meters":25600,"station_id":"ce4bhsp2rcd13ifvqi50","pricing_plan_id":"cebpf4jnsgd1na2vs0mg"},{"bike_id":"57470373-fa92-49f6-ab59-dce961733e68","system_id":"levelo_inurba_marseille","lat":43.29739,"lon":5.37707,"is_reserved":false,"is_disabled":false,"rental_uris":{"android":"levelo://app?vid=57470373-fa92-49f6-ab59-dce961733e68","ios":"levelo://app?vid=57470373-fa92-49f6-ab59-dce961733e68"},"vehicle_type_id":"4","last_reported":1736597729,"current_range_meters":38800,"station_id":"ce4bgkh2rcd13ifvqbl0","pricing_plan_id":"cebpf4jnsgd1na2vs0mg"},{"bike_id":"d2ff887b-198f-4a48-b3f7-d6c06a3e71c1","system_id":"levelo_inurba_marseille","lat":43.30783,"lon":5.43565,"is_reserved":false,"is_disabled":false,"rental_uris":{"android":"levelo://app?vid=d2ff887b-198f-4a48-b3f7-d6c06a3e71c1","ios":"levelo://app?vid=d2ff887b-198f-4a48-b3f7-d6c06a3e71c1"},"vehicle_type_id":"4","last_reported":1736597729,"current_range_meters":34800,"station_id":"ce4bhph2rcd13ifvqheg","pricing_plan_id":"cebpf4jnsgd1na2vs0mg"},{"bike_id":"dcf1cd1d-7caf-40e3-96da-ef397fbf823d","system_id":"levelo_inurba_marseille","lat":43.297163,"lon":5.366033,"is_reserved":false,"is_disabled":false,"rental_uris":{"android":"levelo://app?vid=dcf1cd1d-7caf-40e3-96da-ef397fbf823d","ios":"levelo://app?vid=dcf1cd1d-7caf-40e3-96da-ef397fbf823d"},"vehicle_type_id":"4","last_reported":1736597729,"current_range_meters":39200,"station_id":"ce4bgn12rcd13ifvqbt0","pricing_plan_id":"cebpf4jnsgd1na2vs0mg"},{"bike_id":"234c111c-654a-4771-b73b-d35bb756f1c8","system_id":"levelo_inurba_marseille","lat":43.265813,"lon":5.381077,"is_reserved":false,"is_disabled":false,"rental_uris":{"android":"levelo://app?vid=234c111c-654a-4771-b73b-d35bb756f1c8","ios":"levelo://app?vid=234c111c-654a-4771-b73b-d35bb756f1c8"},"vehicle_type_id":"4","last_reported":1736597729,"current_range_meters":14000,"station_id":"ce4bh412rcd13ifvqdr0","pricing_plan_id":"cebpf4jnsgd1na2vs0mg"},{"bike_id":"07b8b9a3-a564-434b-90a6-202790eb4cd3","system_id":"levelo_inurba_marseille","lat":43.305448,"lon":5.365329,"is_reserved":false,"is_disabled":false,"rental_uris":{"android":"levelo://app?vid=07b8b9a3-a564-434b-90a6-202790eb4cd3","ios":"levelo://app?vid=07b8b9a3-a564-434b-90a6-202790eb4cd3"},"vehicle_type_id":"4","last_reported":1736597729,"current_range_meters":38800,"station_id":"ce4bgs12rcd13ifvqcag","pricing_plan_id":"cebpf4jnsgd1na2vs0mg"},{"bike_id":"c26bac80-84b2-4c5a-9fe0-7877c54600d7","system_id":"levelo_inurba_marseille","lat":43.27811,"lon":5.40711,"is_reserved":false,"is_disabled":false,"rental_uris":{"android":"levelo://app?vid=c26bac80-84b2-4c5a-9fe0-7877c54600d7","ios":"levelo://app?vid=c26bac80-84b2-4c5a-9fe0-7877c54600d7"},"vehicle_type_id":"4","last_reported":1736597729,"current_range_meters":39200,"station_id":"ce4bhnh2rcd13ifvqgtg","pricing_plan_id":"cebpf4jnsgd1na2vs0mg"},{"bike_id":"9d19643c-d149-49be-bc25-949474e6e069","system_id":"levelo_inurba_marseille","lat":43.29033,"lon":5.38145,"is_reserved":false,"is_disabled":true,"rental_uris":{"android":"levelo://app?vid=9d19643c-d149-49be-bc25-949474e6e069","ios":"levelo://app?vid=9d19643c-d149-49be-bc25-949474e6e069"},"vehicle_type_id":"4","last_reported":1736597729,"current_range_meters":38400,"station_id":"ce4bh4p2rcd13ifvqe1g","pricing_plan_id":"cebpf4jnsgd1na2vs0mg"},{"bike_id":"86e75628-d9a8-438a-aad6-d19cdd4c6715","system_id":"levelo_inurba_marseille","lat":43.27059,"lon":5.42286,"is_reserved":false,"is_disabled":false,"rental_uris":{"android":"levelo://app?vid=86e75628-d9a8-438a-aad6-d19cdd4c6715","ios":"levelo://app?vid=86e75628-d9a8-438a-aad6-d19cdd4c6715"},"vehicle_type_id":"4","last_reported":1736597729,"current_range_meters":26800,"station_id":"ce4bhk92rcd13ifvqgb0","pricing_plan_id":"cebpf4jnsgd1na2vs0mg"},{"bike_id":"d06b7eb8-c93f-480c-809e-a1c21dcdb771","system_id":"levelo_inurba_marseille","lat":43.28947,"lon":5.36644,"is_reserved":false,"is_disabled":false,"rental_uris":{"android":"levelo://app?vid=d06b7eb8-c93f-480c-809e-a1c21dcdb771","ios":"levelo://app?vid=d06b7eb8-c93f-480c-809e-a1c21dcdb771"},"vehicle_type_id":"4","last_reported":1736597729,"current_range_meters":2000,"station_id":"ce4bhap2rcd13ifvqek0","pricing_plan_id":"cebpf4jnsgd1na2vs0mg"},{"bike_id":"474bb99c-ef39-4613-bc2c-51582b9b40bd","system_id":"levelo_inurba_marseille","lat":43.28161,"lon":5.42634,"is_reserved":false,"is_disabled":false,"rental_uris":{"android":"levelo://app?vid=474bb99c-ef39-4613-bc2c-51582b9b40bd","ios":"levelo://app?vid=474bb99c-ef39-4613-bc2c-51582b9b40bd"},"vehicle_type_id":"4","last_reported":1736597729,"current_range_meters":16800,"station_id":"ce4bhnh2rcd13ifvqgug","pricing_plan_id":"cebpf4jnsgd1na2vs0mg"},{"bike_id":"1ff4d6af-d168-4206-80a1-8f85ab0c0a00","system_id":"levelo_inurba_marseille","lat":43.25866,"lon":5.3992,"is_reserved":false,"is_disabled":true,"rental_uris":{"android":"levelo://app?vid=1ff4d6af-d168-4206-80a1-8f85ab0c0a00","ios":"levelo://app?vid=1ff4d6af-d168-4206-80a1-8f85ab0c0a00"},"vehicle_type_id":"4","last_reported":1736597729,"current_range_meters":18000,"station_id":"ce4bhl92rcd13ifvqghg","pricing_plan_id":"cebpf4jnsgd1na2vs0mg"},{"bike_id":"42279478-0bfd-4d2f-8801-7086d6a02c3e","system_id":"levelo_inurba_marseille","lat":43.30129,"lon":5.39866,"is_reserved":false,"is_disabled":false,"rental_uris":{"android":"levelo://app?vid=42279478-0bfd-4d2f-8801-7086d6a02c3e","ios":"levelo://app?vid=42279478-0bfd-4d2f-8801-7086d6a02c3e"},"vehicle_type_id":"4","last_reported":1736597729,"current_range_meters":35600,"station_id":"ce4bh0h2rcd13ifvqd40","pricing_plan_id":"cebpf4jnsgd1na2vs0mg"},{"bike_id":"86abeea7-c434-4e10-8df8-12c24097eeb0","system_id":"levelo_inurba_marseille","lat":43.30418,"lon":5.39746,"is_reserved":false,"is_disabled":true,"rental_uris":{"android":"levelo://app?vid=86abeea7-c434-4e10-8df8-12c24097eeb0","ios":"levelo://app?vid=86abeea7-c434-4e10-8df8-12c24097eeb0"},"vehicle_type_id":"4","last_reported":1736597729,"current_range_meters":30000,"station_id":"ce4bh092rcd13ifvqd20","pricing_plan_id":"cebpf4jnsgd1na2vs0mg"},{"bike_id":"4568528e-2291-42f6-a522-cc5b2e288658","system_id":"levelo_inurba_marseille","lat":43.29624,"lon":5.37736,"is_reserved":false,"is_disabled":false,"rental_uris":{"android":"levelo://app?vid=4568528e-2291-42f6-a522-cc5b2e288658","ios":"levelo://app?vid=4568528e-2291-42f6-a522-cc5b2e288658"},"vehicle_type_id":"4","last_reported":1736597729,"current_range_meters":34800,"station_id":"ce4bgi92rcd13ifvqb90","pricing_plan_id":"cebpf4jnsgd1na2vs0mg"},{"bike_id":"e109ab90-3097-48f7-92b8-f1857b448a2f","system_id":"levelo_inurba_marseille","lat":43.278285,"lon":5.391797,"is_reserved":false,"is_disabled":false,"rental_uris":{"android":"levelo://app?vid=e109ab90-3097-48f7-92b8-f1857b448a2f","ios":"levelo://app?vid=e109ab90-3097-48f7-92b8-f1857b448a2f"},"vehicle_type_id":"4","last_reported":1736597729,"current_range_meters":27600,"station_id":"ce4bh412rcd13ifvqdr0","pricing_plan_id":"cebpf4jnsgd1na2vs0mg"},{"bike_id":"fed5eb1a-abda-4070-aa40-ce49d22d0407","system_id":"levelo_inurba_marseille","lat":43.30555,"lon":5.36499,"is_reserved":false,"is_disabled":false,"rental_uris":{"android":"levelo://app?vid=fed5eb1a-abda-4070-aa40-ce49d22d0407","ios":"levelo://app?vid=fed5eb1a-abda-4070-aa40-ce49d22d0407"},"vehicle_type_id":"4","last_reported":1736597729,"current_range_meters":16800,"station_id":"ce4bgs12rcd13ifvqcag","pricing_plan_id":"cebpf4jnsgd1na2vs0mg"},{"bike_id":"b83a81d3-5f39-4c0c-8b11-a9b102a1e985","system_id":"levelo_inurba_marseille","lat":43.27204,"lon":5.39274,"is_reserved":false,"is_disabled":false,"rental_uris":{"android":"levelo://app?vid=b83a81d3-5f39-4c0c-8b11-a9b102a1e985","ios":"levelo://app?vid=b83a81d3-5f39-4c0c-8b11-a9b102a1e985"},"vehicle_type_id":"4","last_reported":1736597729,"current_range_meters":4400,"station_id":"","pricing_plan_id":"cebpf4jnsgd1na2vs0mg"},{"bike_id":"10f7d31a-ef8d-4e8a-acbf-8aa9a8c72143","system_id":"levelo_inurba_marseille","lat":43.24383,"lon":5.37102,"is_reserved":false,"is_disabled":false,"rental_uris":{"android":"levelo://app?vid=10f7d31a-ef8d-4e8a-acbf-8aa9a8c72143","ios":"levelo://app?vid=10f7d31a-ef8d-4e8a-acbf-8aa9a8c72143"},"vehicle_type_id":"4","last_reported":1736597729,"current_range_meters":18000,"station_id":"ce4bhhh2rcd13ifvqfk0","pricing_plan_id":"cebpf4jnsgd1na2vs0mg"},{"bike_id":"1fedc598-f70f-4c41-a2c3-d78b434b4e36","system_id":"levelo_inurba_marseille","lat":43.26191,"lon":5.37454,"is_reserved":false,"is_disabled":false,"rental_uris":{"android":"levelo://app?vid=1fedc598-f70f-4c41-a2c3-d78b434b4e36","ios":"levelo://app?vid=1fedc598-f70f-4c41-a2c3-d78b434b4e36"},"vehicle_type_id":"4","last_reported":1736597729,"current_range_meters":24800,"station_id":"ce4bhgp2rcd13ifvqfc0","pricing_plan_id":"cebpf4jnsgd1na2vs0mg"},{"bike_id":"e30f8d47-39fa-4f8a-af35-756aa27358d2","system_id":"levelo_inurba_marseille","lat":43.2894,"lon":5.39629,"is_reserved":false,"is_disabled":false,"rental_uris":{"android":"levelo://app?vid=e30f8d47-39fa-4f8a-af35-756aa27358d2","ios":"levelo://app?vid=e30f8d47-39fa-4f8a-af35-756aa27358d2"},"vehicle_type_id":"4","last_reported":1736597729,"current_range_meters":38400,"station_id":"ce4bh3h2rcd13ifvqdn0","pricing_plan_id":"cebpf4jnsgd1na2vs0mg"},{"bike_id":"fa83e855-89d6-4b8f-b525-99e81ef8f1af","system_id":"levelo_inurba_marseille","lat":43.28446,"lon":5.39206,"is_reserved":false,"is_disabled":false,"rental_uris":{"android":"levelo://app?vid=fa83e855-89d6-4b8f-b525-99e81ef8f1af","ios":"levelo://app?vid=fa83e855-89d6-4b8f-b525-99e81ef8f1af"},"vehicle_type_id":"4","last_reported":1736597729,"current_range_meters":27200,"station_id":"ce4bhoh2rcd13ifvqh5g","pricing_plan_id":"cebpf4jnsgd1na2vs0mg"},{"bike_id":"ae29e0de-7b5a-45d6-ace3-313c5e88010a","system_id":"levelo_inurba_marseille","lat":43.27987,"lon":5.41663,"is_reserved":false,"is_disabled":true,"rental_uris":{"android":"levelo://app?vid=ae29e0de-7b5a-45d6-ace3-313c5e88010a","ios":"levelo://app?vid=ae29e0de-7b5a-45d6-ace3-313c5e88010a"},"vehicle_type_id":"4","last_reported":1736597729,"current_range_meters":800,"station_id":"ce4bho12rcd13ifvqh1g","pricing_plan_id":"cebpf4jnsgd1na2vs0mg"},{"bike_id":"931d873d-7c0f-44bb-bab3-92c6d2a6e163","system_id":"levelo_inurba_marseille","lat":43.276388,"lon":5.38939,"is_reserved":false,"is_disabled":false,"rental_uris":{"android":"levelo://app?vid=931d873d-7c0f-44bb-bab3-92c6d2a6e163","ios":"levelo://app?vid=931d873d-7c0f-44bb-bab3-92c6d2a6e163"},"vehicle_type_id":"4","last_reported":1736597729,"current_range_meters":36400,"station_id":"ce4bhi12rcd13ifvqfo0","pricing_plan_id":"cebpf4jnsgd1na2vs0mg"},{"bike_id":"572f0254-11cf-4ef2-b3f9-66737ed8298a","system_id":"levelo_inurba_marseille","lat":43.28423,"lon":5.34993,"is_reserved":false,"is_disabled":true,"rental_uris":{"android":"levelo://app?vid=572f0254-11cf-4ef2-b3f9-66737ed8298a","ios":"levelo://app?vid=572f0254-11cf-4ef2-b3f9-66737ed8298a"},"vehicle_type_id":"4","last_reported":1736597729,"current_range_meters":0,"station_id":"ce4bhbh2rcd13ifvqepg","pricing_plan_id":"cebpf4jnsgd1na2vs0mg"},{"bike_id":"d2a3646f-410b-4c71-b1c9-6faf46be44c7","system_id":"levelo_inurba_marseille","lat":43.29545,"lon":5.42293,"is_reserved":false,"is_disabled":false,"rental_uris":{"android":"levelo://app?vid=d2a3646f-410b-4c71-b1c9-6faf46be44c7","ios":"levelo://app?vid=d2a3646f-410b-4c71-b1c9-6faf46be44c7"},"vehicle_type_id":"4","last_reported":1736597729,"current_range_meters":39200,"station_id":"ce4bhph2rcd13ifvqhdg","pricing_plan_id":"cebpf4jnsgd1na2vs0mg"},{"bike_id":"f9b69526-4044-46d2-a806-76c808e4e6f4","system_id":"levelo_inurba_marseille","lat":43.27206,"lon":5.39192,"is_reserved":false,"is_disabled":false,"rental_uris":{"android":"levelo://app?vid=f9b69526-4044-46d2-a806-76c808e4e6f4","ios":"levelo://app?vid=f9b69526-4044-46d2-a806-76c808e4e6f4"},"vehicle_type_id":"4","last_reported":1736597729,"current_range_meters":21600,"station_id":"ce4bhhp2rcd13ifvqfm0","pricing_plan_id":"cebpf4jnsgd1na2vs0mg"},{"bike_id":"eb257bb1-3fa7-4167-b1f7-63e7c0f4d074","system_id":"levelo_inurba_marseille","lat":43.2322,"lon":5.35571,"is_reserved":false,"is_disabled":false,"rental_uris":{"android":"levelo://app?vid=eb257bb1-3fa7-4167-b1f7-63e7c0f4d074","ios":"levelo://app?vid=eb257bb1-3fa7-4167-b1f7-63e7c0f4d074"},"vehicle_type_id":"4","last_reported":1736597729,"current_range_meters":29600,"station_id":"ce4bhu92rcd13ifvqi70","pricing_plan_id":"cebpf4jnsgd1na2vs0mg"},{"bike_id":"c86df6dc-be10-4b6f-aed3-e8e53e5fc2a4","system_id":"levelo_inurba_marseille","lat":43.27984,"lon":5.38748,"is_reserved":false,"is_disabled":false,"rental_uris":{"android":"levelo://app?vid=c86df6dc-be10-4b6f-aed3-e8e53e5fc2a4","ios":"levelo://app?vid=c86df6dc-be10-4b6f-aed3-e8e53e5fc2a4"},"vehicle_type_id":"4","last_reported":1736597729,"current_range_meters":39200,"station_id":"ce4bhg12rcd13ifvqf80","pricing_plan_id":"cebpf4jnsgd1na2vs0mg"},{"bike_id":"3e0dda11-bd29-4a47-a000-9730555dbb4f","system_id":"levelo_inurba_marseille","lat":43.24074,"lon":5.37773,"is_reserved":false,"is_disabled":false,"rental_uris":{"android":"levelo://app?vid=3e0dda11-bd29-4a47-a000-9730555dbb4f","ios":"levelo://app?vid=3e0dda11-bd29-4a47-a000-9730555dbb4f"},"vehicle_type_id":"4","last_reported":1736597729,"current_range_meters":38000,"station_id":"ce4bhnp2rcd13ifvqgvg","pricing_plan_id":"cebpf4jnsgd1na2vs0mg"},{"bike_id":"bc624fca-1286-42f8-b873-f9e63f2ded01","system_id":"levelo_inurba_marseille","lat":43.30956,"lon":5.3903,"is_reserved":false,"is_disabled":false,"rental_uris":{"android":"levelo://app?vid=bc624fca-1286-42f8-b873-f9e63f2ded01","ios":"levelo://app?vid=bc624fca-1286-42f8-b873-f9e63f2ded01"},"vehicle_type_id":"4","last_reported":1736597729,"current_range_meters":18800,"station_id":"ce4bgup2rcd13ifvqco0","pricing_plan_id":"cebpf4jnsgd1na2vs0mg"},{"bike_id":"958bfc2f-35fe-450b-93a8-1a0c14dd99ce","system_id":"levelo_inurba_marseille","lat":43.28707,"lon":5.37915,"is_reserved":false,"is_disabled":false,"rental_uris":{"android":"levelo://app?vid=958bfc2f-35fe-450b-93a8-1a0c14dd99ce","ios":"levelo://app?vid=958bfc2f-35fe-450b-93a8-1a0c14dd99ce"},"vehicle_type_id":"4","last_reported":1736597729,"current_range_meters":8800,"station_id":"ce4bh9p2rcd13ifvqec0","pricing_plan_id":"cebpf4jnsgd1na2vs0mg"},{"bike_id":"30653996-9326-4bca-864c-21ac92f61041","system_id":"levelo_inurba_marseille","lat":43.24662,"lon":5.38921,"is_reserved":false,"is_disabled":false,"rental_uris":{"android":"levelo://app?vid=30653996-9326-4bca-864c-21ac92f61041","ios":"levelo://app?vid=30653996-9326-4bca-864c-21ac92f61041"},"vehicle_type_id":"4","last_reported":1736597729,"current_range_meters":33200,"station_id":"ce4bhg12rcd13ifvqf60","pricing_plan_id":"cebpf4jnsgd1na2vs0mg"},{"bike_id":"e7bed24c-76b8-4bfe-8ea5-51efa81df6c2","system_id":"levelo_inurba_marseille","lat":43.27495,"lon":5.42451,"is_reserved":false,"is_disabled":true,"rental_uris":{"android":"levelo://app?vid=e7bed24c-76b8-4bfe-8ea5-51efa81df6c2","ios":"levelo://app?vid=e7bed24c-76b8-4bfe-8ea5-51efa81df6c2"},"vehicle_type_id":"4","last_reported":1736597729,"current_range_meters":400,"station_id":"ce4bhn92rcd13ifvqgrg","pricing_plan_id":"cebpf4jnsgd1na2vs0mg"},{"bike_id":"a4de5071-dd1c-452c-a877-311a543c6eda","system_id":"levelo_inurba_marseille","lat":43.23148,"lon":5.43767,"is_reserved":false,"is_disabled":false,"rental_uris":{"android":"levelo://app?vid=a4de5071-dd1c-452c-a877-311a543c6eda","ios":"levelo://app?vid=a4de5071-dd1c-452c-a877-311a543c6eda"},"vehicle_type_id":"4","last_reported":1736597729,"current_range_meters":38800,"station_id":"","pricing_plan_id":"cebpf4jnsgd1na2vs0mg"},{"bike_id":"d131def1-15b2-46e4-9d97-55cf4d798e39","system_id":"levelo_inurba_marseille","lat":43.28097,"lon":5.37835,"is_reserved":false,"is_disabled":false,"rental_uris":{"android":"levelo://app?vid=d131def1-15b2-46e4-9d97-55cf4d798e39","ios":"levelo://app?vid=d131def1-15b2-46e4-9d97-55cf4d798e39"},"vehicle_type_id":"4","last_reported":1736597729,"current_range_meters":24800,"station_id":"ce4bha12rcd13ifvqee0","pricing_plan_id":"cebpf4jnsgd1na2vs0mg"},{"bike_id":"4d0fce21-800c-42f9-847f-9baafc74bda7","system_id":"levelo_inurba_marseille","lat":43.27435,"lon":5.39413,"is_reserved":false,"is_disabled":false,"rental_uris":{"android":"levelo://app?vid=4d0fce21-800c-42f9-847f-9baafc74bda7","ios":"levelo://app?vid=4d0fce21-800c-42f9-847f-9baafc74bda7"},"vehicle_type_id":"4","last_reported":1736597729,"current_range_meters":35200,"station_id":"ce4bhdp2rcd13ifvqf20","pricing_plan_id":"cebpf4jnsgd1na2vs0mg"},{"bike_id":"b704bf42-2bc7-4506-b669-8ca7a3330fef","system_id":"levelo_inurba_marseille","lat":43.28192,"lon":5.42647,"is_reserved":false,"is_disabled":true,"rental_uris":{"android":"levelo://app?vid=b704bf42-2bc7-4506-b669-8ca7a3330fef","ios":"levelo://app?vid=b704bf42-2bc7-4506-b669-8ca7a3330fef"},"vehicle_type_id":"4","last_reported":1736597729,"current_range_meters":32400,"station_id":"ce4bhnh2rcd13ifvqgug","pricing_plan_id":"cebpf4jnsgd1na2vs0mg"},{"bike_id":"68f135fc-4bd4-4724-b03e-262958a6d5dd","system_id":"levelo_inurba_marseille","lat":43.33788,"lon":5.3742,"is_reserved":false,"is_disabled":false,"rental_uris":{"android":"levelo://app?vid=68f135fc-4bd4-4724-b03e-262958a6d5dd","ios":"levelo://app?vid=68f135fc-4bd4-4724-b03e-262958a6d5dd"},"vehicle_type_id":"4","last_reported":1736597729,"current_range_meters":38800,"station_id":"","pricing_plan_id":"cebpf4jnsgd1na2vs0mg"},{"bike_id":"31fd7356-e300-459e-bb2e-5d33dbc6161c","system_id":"levelo_inurba_marseille","lat":43.308128,"lon":5.381438,"is_reserved":false,"is_disabled":false,"rental_uris":{"android":"levelo://app?vid=31fd7356-e300-459e-bb2e-5d33dbc6161c","ios":"levelo://app?vid=31fd7356-e300-459e-bb2e-5d33dbc6161c"},"vehicle_type_id":"4","last_reported":1736597729,"current_range_meters":38800,"station_id":"ce4bgt12rcd13ifvqce0","pricing_plan_id":"cebpf4jnsgd1na2vs0mg"},{"bike_id":"ede473a8-4ad3-4177-9dfc-dc40ae6098e2","system_id":"levelo_inurba_marseille","lat":43.24657,"lon":5.38172,"is_reserved":false,"is_disabled":false,"rental_uris":{"android":"levelo://app?vid=ede473a8-4ad3-4177-9dfc-dc40ae6098e2","ios":"levelo://app?vid=ede473a8-4ad3-4177-9dfc-dc40ae6098e2"},"vehicle_type_id":"4","last_reported":1736597729,"current_range_meters":8000,"station_id":"ce4bhih2rcd13ifvqfr0","pricing_plan_id":"cebpf4jnsgd1na2vs0mg"},{"bike_id":"f62a7ed4-7c80-4ed8-9568-a4dea62069d1","system_id":"levelo_inurba_marseille","lat":43.28095,"lon":5.39654,"is_reserved":false,"is_disabled":true,"rental_uris":{"android":"levelo://app?vid=f62a7ed4-7c80-4ed8-9568-a4dea62069d1","ios":"levelo://app?vid=f62a7ed4-7c80-4ed8-9568-a4dea62069d1"},"vehicle_type_id":"4","last_reported":1736597729,"current_range_meters":37600,"station_id":"ce4bho12rcd13ifvqh2g","pricing_plan_id":"cebpf4jnsgd1na2vs0mg"},{"bike_id":"e2744ec8-2f1a-4025-9ec0-6a07f5db3fc4","system_id":"levelo_inurba_marseille","lat":43.25494,"lon":5.3768,"is_reserved":false,"is_disabled":false,"rental_uris":{"android":"levelo://app?vid=e2744ec8-2f1a-4025-9ec0-6a07f5db3fc4","ios":"levelo://app?vid=e2744ec8-2f1a-4025-9ec0-6a07f5db3fc4"},"vehicle_type_id":"4","last_reported":1736597729,"current_range_meters":38800,"station_id":"ce4bhh12rcd13ifvqff0","pricing_plan_id":"cebpf4jnsgd1na2vs0mg"},{"bike_id":"9c413fb1-8955-4528-ba15-78d41b7bda61","system_id":"levelo_inurba_marseille","lat":43.28726,"lon":5.36088,"is_reserved":false,"is_disabled":false,"rental_uris":{"android":"levelo://app?vid=9c413fb1-8955-4528-ba15-78d41b7bda61","ios":"levelo://app?vid=9c413fb1-8955-4528-ba15-78d41b7bda61"},"vehicle_type_id":"4","last_reported":1736597729,"current_range_meters":39200,"station_id":"cki0cbj6b192h4jlfktg","pricing_plan_id":"cebpf4jnsgd1na2vs0mg"},{"bike_id":"6dd3f00c-81f6-4c51-aca4-ad394704f490","system_id":"levelo_inurba_marseille","lat":43.30249,"lon":5.400743,"is_reserved":false,"is_disabled":false,"rental_uris":{"android":"levelo://app?vid=6dd3f00c-81f6-4c51-aca4-ad394704f490","ios":"levelo://app?vid=6dd3f00c-81f6-4c51-aca4-ad394704f490"},"vehicle_type_id":"4","last_reported":1736597729,"current_range_meters":28000,"station_id":"ce4bgvh2rcd13ifvqcs0","pricing_plan_id":"cebpf4jnsgd1na2vs0mg"},{"bike_id":"5f27d986-3a06-45f0-aed9-f4f0dc26dc4f","system_id":"levelo_inurba_marseille","lat":43.26565,"lon":5.39007,"is_reserved":false,"is_disabled":false,"rental_uris":{"android":"levelo://app?vid=5f27d986-3a06-45f0-aed9-f4f0dc26dc4f","ios":"levelo://app?vid=5f27d986-3a06-45f0-aed9-f4f0dc26dc4f"},"vehicle_type_id":"4","last_reported":1736597729,"current_range_meters":27600,"station_id":"ce4bhe12rcd13ifvqf30","pricing_plan_id":"cebpf4jnsgd1na2vs0mg"},{"bike_id":"c60f5105-31fe-4a50-8f42-f74bab4bd149","system_id":"levelo_inurba_marseille","lat":43.29585,"lon":5.37126,"is_reserved":false,"is_disabled":false,"rental_uris":{"android":"levelo://app?vid=c60f5105-31fe-4a50-8f42-f74bab4bd149","ios":"levelo://app?vid=c60f5105-31fe-4a50-8f42-f74bab4bd149"},"vehicle_type_id":"4","last_reported":1736597729,"current_range_meters":35600,"station_id":"ce4bgnh2rcd13ifvqc0g","pricing_plan_id":"cebpf4jnsgd1na2vs0mg"},{"bike_id":"ded4b24a-6406-453d-ba13-921dae357f5d","system_id":"levelo_inurba_marseille","lat":43.29412,"lon":5.38606,"is_reserved":false,"is_disabled":false,"rental_uris":{"android":"levelo://app?vid=ded4b24a-6406-453d-ba13-921dae357f5d","ios":"levelo://app?vid=ded4b24a-6406-453d-ba13-921dae357f5d"},"vehicle_type_id":"4","last_reported":1736597729,"current_range_meters":26800,"station_id":"ce4bh2h2rcd13ifvqdh0","pricing_plan_id":"cebpf4jnsgd1na2vs0mg"},{"bike_id":"e852a9e7-a797-4614-b49f-5b0fd280197a","system_id":"levelo_inurba_marseille","lat":43.325,"lon":5.38301,"is_reserved":false,"is_disabled":false,"rental_uris":{"android":"levelo://app?vid=e852a9e7-a797-4614-b49f-5b0fd280197a","ios":"levelo://app?vid=e852a9e7-a797-4614-b49f-5b0fd280197a"},"vehicle_type_id":"4","last_reported":1736597729,"current_range_meters":38000,"station_id":"","pricing_plan_id":"cebpf4jnsgd1na2vs0mg"},{"bike_id":"a5e0dc49-0174-4a8e-b087-e337f53d81df","system_id":"levelo_inurba_marseille","lat":43.231843,"lon":5.399837,"is_reserved":false,"is_disabled":true,"rental_uris":{"android":"levelo://app?vid=a5e0dc49-0174-4a8e-b087-e337f53d81df","ios":"levelo://app?vid=a5e0dc49-0174-4a8e-b087-e337f53d81df"},"vehicle_type_id":"4","last_reported":1736597729,"current_range_meters":800,"station_id":"ce4bhn12rcd13ifvqgqg","pricing_plan_id":"cebpf4jnsgd1na2vs0mg"},{"bike_id":"7856f76b-884a-4a31-b423-b79376e55bb7","system_id":"levelo_inurba_marseille","lat":43.30807,"lon":5.38143,"is_reserved":false,"is_disabled":false,"rental_uris":{"android":"levelo://app?vid=7856f76b-884a-4a31-b423-b79376e55bb7","ios":"levelo://app?vid=7856f76b-884a-4a31-b423-b79376e55bb7"},"vehicle_type_id":"4","last_reported":1736597729,"current_range_meters":38800,"station_id":"ce4bgt12rcd13ifvqce0","pricing_plan_id":"cebpf4jnsgd1na2vs0mg"},{"bike_id":"1e2223a2-c032-49e7-8dbf-982df86a0520","system_id":"levelo_inurba_marseille","lat":43.22912,"lon":5.35347,"is_reserved":false,"is_disabled":false,"rental_uris":{"android":"levelo://app?vid=1e2223a2-c032-49e7-8dbf-982df86a0520","ios":"levelo://app?vid=1e2223a2-c032-49e7-8dbf-982df86a0520"},"vehicle_type_id":"4","last_reported":1736597729,"current_range_meters":28400,"station_id":"cpo3532slgdg3j2ikp40","pricing_plan_id":"cebpf4jnsgd1na2vs0mg"},{"bike_id":"3941b2a6-2370-4c31-b9dc-069613b5c68f","system_id":"levelo_inurba_marseille","lat":43.29571,"lon":5.37516,"is_reserved":false,"is_disabled":false,"rental_uris":{"android":"levelo://app?vid=3941b2a6-2370-4c31-b9dc-069613b5c68f","ios":"levelo://app?vid=3941b2a6-2370-4c31-b9dc-069613b5c68f"},"vehicle_type_id":"4","last_reported":1736597729,"current_range_meters":38800,"station_id":"ce4bgh92rcd13ifvqb50","pricing_plan_id":"cebpf4jnsgd1na2vs0mg"},{"bike_id":"540fad5b-d975-43cc-b386-6dd08caf613c","system_id":"levelo_inurba_marseille","lat":43.240713,"lon":5.377473,"is_reserved":false,"is_disabled":true,"rental_uris":{"android":"levelo://app?vid=540fad5b-d975-43cc-b386-6dd08caf613c","ios":"levelo://app?vid=540fad5b-d975-43cc-b386-6dd08caf613c"},"vehicle_type_id":"4","last_reported":1736597729,"current_range_meters":800,"station_id":"ce4bhnp2rcd13ifvqgvg","pricing_plan_id":"cebpf4jnsgd1na2vs0mg"},{"bike_id":"5f2cf356-122a-4d24-85ba-e38bc4612223","system_id":"levelo_inurba_marseille","lat":43.25557,"lon":5.38213,"is_reserved":false,"is_disabled":true,"rental_uris":{"android":"levelo://app?vid=5f2cf356-122a-4d24-85ba-e38bc4612223","ios":"levelo://app?vid=5f2cf356-122a-4d24-85ba-e38bc4612223"},"vehicle_type_id":"4","last_reported":1736597729,"current_range_meters":33200,"station_id":"ce4bhih2rcd13ifvqfs0","pricing_plan_id":"cebpf4jnsgd1na2vs0mg"},{"bike_id":"be8a233f-ad85-41b2-af03-bfa1e3033438","system_id":"levelo_inurba_marseille","lat":43.23202,"lon":5.35551,"is_reserved":false,"is_disabled":false,"rental_uris":{"android":"levelo://app?vid=be8a233f-ad85-41b2-af03-bfa1e3033438","ios":"levelo://app?vid=be8a233f-ad85-41b2-af03-bfa1e3033438"},"vehicle_type_id":"4","last_reported":1736597729,"current_range_meters":19600,"station_id":"ce4bhu92rcd13ifvqi70","pricing_plan_id":"cebpf4jnsgd1na2vs0mg"},{"bike_id":"d7284d59-0fa0-4e55-88c3-9102035d8a99","system_id":"levelo_inurba_marseille","lat":43.30241,"lon":5.40083,"is_reserved":false,"is_disabled":true,"rental_uris":{"android":"levelo://app?vid=d7284d59-0fa0-4e55-88c3-9102035d8a99","ios":"levelo://app?vid=d7284d59-0fa0-4e55-88c3-9102035d8a99"},"vehicle_type_id":"4","last_reported":1736597729,"current_range_meters":38800,"station_id":"ce4bgvh2rcd13ifvqcs0","pricing_plan_id":"cebpf4jnsgd1na2vs0mg"},{"bike_id":"d5e8e877-66ee-40a0-a176-1b975cb89c1e","system_id":"levelo_inurba_marseille","lat":43.29619,"lon":5.37714,"is_reserved":false,"is_disabled":false,"rental_uris":{"android":"levelo://app?vid=d5e8e877-66ee-40a0-a176-1b975cb89c1e","ios":"levelo://app?vid=d5e8e877-66ee-40a0-a176-1b975cb89c1e"},"vehicle_type_id":"4","last_reported":1736597729,"current_range_meters":25600,"station_id":"ce4bgi92rcd13ifvqb90","pricing_plan_id":"cebpf4jnsgd1na2vs0mg"},{"bike_id":"049cc9e4-2f8e-4d46-986b-fac77d19d852","system_id":"levelo_inurba_marseille","lat":43.30541,"lon":5.36542,"is_reserved":false,"is_disabled":false,"rental_uris":{"android":"levelo://app?vid=049cc9e4-2f8e-4d46-986b-fac77d19d852","ios":"levelo://app?vid=049cc9e4-2f8e-4d46-986b-fac77d19d852"},"vehicle_type_id":"4","last_reported":1736597729,"current_range_meters":38800,"station_id":"ce4bgs12rcd13ifvqcag","pricing_plan_id":"cebpf4jnsgd1na2vs0mg"},{"bike_id":"b0f5be54-1dfd-4c59-933c-ce10424e88c6","system_id":"levelo_inurba_marseille","lat":43.27183,"lon":5.39189,"is_reserved":false,"is_disabled":false,"rental_uris":{"android":"levelo://app?vid=b0f5be54-1dfd-4c59-933c-ce10424e88c6","ios":"levelo://app?vid=b0f5be54-1dfd-4c59-933c-ce10424e88c6"},"vehicle_type_id":"4","last_reported":1736597729,"current_range_meters":35200,"station_id":"ce4bhhp2rcd13ifvqfm0","pricing_plan_id":"cebpf4jnsgd1na2vs0mg"},{"bike_id":"8242826e-ab20-43ea-95c1-e76b426a119e","system_id":"levelo_inurba_marseille","lat":43.33797,"lon":5.37414,"is_reserved":false,"is_disabled":false,"rental_uris":{"android":"levelo://app?vid=8242826e-ab20-43ea-95c1-e76b426a119e","ios":"levelo://app?vid=8242826e-ab20-43ea-95c1-e76b426a119e"},"vehicle_type_id":"4","last_reported":1736597729,"current_range_meters":36800,"station_id":"","pricing_plan_id":"cebpf4jnsgd1na2vs0mg"},{"bike_id":"57f5a8a9-f2e5-4673-966d-ca04b8d8c8e6","system_id":"levelo_inurba_marseille","lat":43.31123,"lon":5.37788,"is_reserved":false,"is_disabled":true,"rental_uris":{"android":"levelo://app?vid=57f5a8a9-f2e5-4673-966d-ca04b8d8c8e6","ios":"levelo://app?vid=57f5a8a9-f2e5-4673-966d-ca04b8d8c8e6"},"vehicle_type_id":"4","last_reported":1736597729,"current_range_meters":6800,"station_id":"ce4bgt92rcd13ifvqcg0","pricing_plan_id":"cebpf4jnsgd1na2vs0mg"},{"bike_id":"85427a88-99f5-4856-b496-8ef79c1ec2f5","system_id":"levelo_inurba_marseille","lat":43.24681,"lon":5.38149,"is_reserved":false,"is_disabled":false,"rental_uris":{"android":"levelo://app?vid=85427a88-99f5-4856-b496-8ef79c1ec2f5","ios":"levelo://app?vid=85427a88-99f5-4856-b496-8ef79c1ec2f5"},"vehicle_type_id":"4","last_reported":1736597729,"current_range_meters":34000,"station_id":"ce4bhih2rcd13ifvqfr0","pricing_plan_id":"cebpf4jnsgd1na2vs0mg"},{"bike_id":"4d0b9e25-a23e-49aa-95b0-e254e4d3dd52","system_id":"levelo_inurba_marseille","lat":43.28704,"lon":5.39987,"is_reserved":false,"is_disabled":false,"rental_uris":{"android":"levelo://app?vid=4d0b9e25-a23e-49aa-95b0-e254e4d3dd52","ios":"levelo://app?vid=4d0b9e25-a23e-49aa-95b0-e254e4d3dd52"},"vehicle_type_id":"4","last_reported":1736597729,"current_range_meters":38800,"station_id":"ce4bho92rcd13ifvqh3g","pricing_plan_id":"cebpf4jnsgd1na2vs0mg"},{"bike_id":"2ebbe722-1578-4260-86ec-9d078af85fb5","system_id":"levelo_inurba_marseille","lat":43.27063,"lon":5.42267,"is_reserved":false,"is_disabled":false,"rental_uris":{"android":"levelo://app?vid=2ebbe722-1578-4260-86ec-9d078af85fb5","ios":"levelo://app?vid=2ebbe722-1578-4260-86ec-9d078af85fb5"},"vehicle_type_id":"4","last_reported":1736597729,"current_range_meters":20000,"station_id":"ce4bhk92rcd13ifvqgb0","pricing_plan_id":"cebpf4jnsgd1na2vs0mg"},{"bike_id":"91291e8f-d824-472a-8638-bad6f379f32e","system_id":"levelo_inurba_marseille","lat":43.30497,"lon":5.38092,"is_reserved":false,"is_disabled":false,"rental_uris":{"android":"levelo://app?vid=91291e8f-d824-472a-8638-bad6f379f32e","ios":"levelo://app?vid=91291e8f-d824-472a-8638-bad6f379f32e"},"vehicle_type_id":"4","last_reported":1736597729,"current_range_meters":34000,"station_id":"","pricing_plan_id":"cebpf4jnsgd1na2vs0mg"},{"bike_id":"cced33da-b95a-43a7-a931-f965a5fbae5b","system_id":"levelo_inurba_marseille","lat":43.27614,"lon":5.36108,"is_reserved":false,"is_disabled":false,"rental_uris":{"android":"levelo://app?vid=cced33da-b95a-43a7-a931-f965a5fbae5b","ios":"levelo://app?vid=cced33da-b95a-43a7-a931-f965a5fbae5b"},"vehicle_type_id":"4","last_reported":1736597729,"current_range_meters":29600,"station_id":"ce4bgj92rcd13ifvqbe0","pricing_plan_id":"cebpf4jnsgd1na2vs0mg"},{"bike_id":"ad28bd53-1c8c-44ea-9a1c-1e5a5b2498fe","system_id":"levelo_inurba_marseille","lat":43.24164,"lon":5.364,"is_reserved":false,"is_disabled":false,"rental_uris":{"android":"levelo://app?vid=ad28bd53-1c8c-44ea-9a1c-1e5a5b2498fe","ios":"levelo://app?vid=ad28bd53-1c8c-44ea-9a1c-1e5a5b2498fe"},"vehicle_type_id":"4","last_reported":1736597729,"current_range_meters":7200,"station_id":"cpo36qri1sfpv3e86is0","pricing_plan_id":"cebpf4jnsgd1na2vs0mg"},{"bike_id":"319daa23-21bf-44c1-a9e3-bc1073d071a7","system_id":"levelo_inurba_marseille","lat":43.29789,"lon":5.37104,"is_reserved":false,"is_disabled":false,"rental_uris":{"android":"levelo://app?vid=319daa23-21bf-44c1-a9e3-bc1073d071a7","ios":"levelo://app?vid=319daa23-21bf-44c1-a9e3-bc1073d071a7"},"vehicle_type_id":"4","last_reported":1736597729,"current_range_meters":10000,"station_id":"ce4bgop2rcd13ifvqc1g","pricing_plan_id":"cebpf4jnsgd1na2vs0mg"},{"bike_id":"1fc43924-8229-46cc-a390-fc1b6c620f97","system_id":"levelo_inurba_marseille","lat":43.27844,"lon":5.40694,"is_reserved":false,"is_disabled":false,"rental_uris":{"android":"levelo://app?vid=1fc43924-8229-46cc-a390-fc1b6c620f97","ios":"levelo://app?vid=1fc43924-8229-46cc-a390-fc1b6c620f97"},"vehicle_type_id":"4","last_reported":1736597729,"current_range_meters":23200,"station_id":"ce4bhnh2rcd13ifvqgtg","pricing_plan_id":"cebpf4jnsgd1na2vs0mg"},{"bike_id":"ddbb6c22-ce6c-4a2b-9053-6349e4af3c9a","system_id":"levelo_inurba_marseille","lat":43.25866,"lon":5.39927,"is_reserved":false,"is_disabled":false,"rental_uris":{"android":"levelo://app?vid=ddbb6c22-ce6c-4a2b-9053-6349e4af3c9a","ios":"levelo://app?vid=ddbb6c22-ce6c-4a2b-9053-6349e4af3c9a"},"vehicle_type_id":"4","last_reported":1736597729,"current_range_meters":37600,"station_id":"ce4bhl92rcd13ifvqghg","pricing_plan_id":"cebpf4jnsgd1na2vs0mg"},{"bike_id":"8734c63c-de88-47be-82ce-8357004fef31","system_id":"levelo_inurba_marseille","lat":43.29562,"lon":5.37512,"is_reserved":false,"is_disabled":false,"rental_uris":{"android":"levelo://app?vid=8734c63c-de88-47be-82ce-8357004fef31","ios":"levelo://app?vid=8734c63c-de88-47be-82ce-8357004fef31"},"vehicle_type_id":"4","last_reported":1736597729,"current_range_meters":31200,"station_id":"ce4bgh92rcd13ifvqb50","pricing_plan_id":"cebpf4jnsgd1na2vs0mg"},{"bike_id":"b52cf5d7-d0ff-45b3-ac5b-ffe5c33591d4","system_id":"levelo_inurba_marseille","lat":43.23157,"lon":5.3553,"is_reserved":false,"is_disabled":false,"rental_uris":{"android":"levelo://app?vid=b52cf5d7-d0ff-45b3-ac5b-ffe5c33591d4","ios":"levelo://app?vid=b52cf5d7-d0ff-45b3-ac5b-ffe5c33591d4"},"vehicle_type_id":"4","last_reported":1736597729,"current_range_meters":3600,"station_id":"ce4bhu92rcd13ifvqi70","pricing_plan_id":"cebpf4jnsgd1na2vs0mg"},{"bike_id":"bacabedd-17ac-45c9-8a4f-0cda3ab6137f","system_id":"levelo_inurba_marseille","lat":43.29781,"lon":5.3711,"is_reserved":false,"is_disabled":false,"rental_uris":{"android":"levelo://app?vid=bacabedd-17ac-45c9-8a4f-0cda3ab6137f","ios":"levelo://app?vid=bacabedd-17ac-45c9-8a4f-0cda3ab6137f"},"vehicle_type_id":"4","last_reported":1736597729,"current_range_meters":32000,"station_id":"ce4bgop2rcd13ifvqc1g","pricing_plan_id":"cebpf4jnsgd1na2vs0mg"},{"bike_id":"8b88170d-e695-4530-8583-a66b3ec41a93","system_id":"levelo_inurba_marseille","lat":43.33602,"lon":5.40995,"is_reserved":false,"is_disabled":true,"rental_uris":{"android":"levelo://app?vid=8b88170d-e695-4530-8583-a66b3ec41a93","ios":"levelo://app?vid=8b88170d-e695-4530-8583-a66b3ec41a93"},"vehicle_type_id":"4","last_reported":1736597729,"current_range_meters":11600,"station_id":"ce4bhqh2rcd13ifvqhmg","pricing_plan_id":"cebpf4jnsgd1na2vs0mg"},{"bike_id":"3af0f9ea-e5f4-4961-9922-d3d9a1108472","system_id":"levelo_inurba_marseille","lat":43.32038,"lon":5.41561,"is_reserved":false,"is_disabled":false,"rental_uris":{"android":"levelo://app?vid=3af0f9ea-e5f4-4961-9922-d3d9a1108472","ios":"levelo://app?vid=3af0f9ea-e5f4-4961-9922-d3d9a1108472"},"vehicle_type_id":"4","last_reported":1736597729,"current_range_meters":36800,"station_id":"ce4bhq92rcd13ifvqhkg","pricing_plan_id":"cebpf4jnsgd1na2vs0mg"},{"bike_id":"b8acbba0-a715-4ced-a2aa-0517db10ac9d","system_id":"levelo_inurba_marseille","lat":43.22916,"lon":5.35405,"is_reserved":false,"is_disabled":true,"rental_uris":{"android":"levelo://app?vid=b8acbba0-a715-4ced-a2aa-0517db10ac9d","ios":"levelo://app?vid=b8acbba0-a715-4ced-a2aa-0517db10ac9d"},"vehicle_type_id":"4","last_reported":1736597729,"current_range_meters":36400,"station_id":"cpo3532slgdg3j2ikp40","pricing_plan_id":"cebpf4jnsgd1na2vs0mg"},{"bike_id":"f7a5e165-5043-4ba0-b06c-270f257dffbd","system_id":"levelo_inurba_marseille","lat":43.27312,"lon":5.39102,"is_reserved":false,"is_disabled":false,"rental_uris":{"android":"levelo://app?vid=f7a5e165-5043-4ba0-b06c-270f257dffbd","ios":"levelo://app?vid=f7a5e165-5043-4ba0-b06c-270f257dffbd"},"vehicle_type_id":"4","last_reported":1736597729,"current_range_meters":39200,"station_id":"ce4bhgp2rcd13ifvqfe0","pricing_plan_id":"cebpf4jnsgd1na2vs0mg"},{"bike_id":"10805d30-f651-42fc-83dc-af6ada96f984","system_id":"levelo_inurba_marseille","lat":43.231879,"lon":5.399872,"is_reserved":false,"is_disabled":false,"rental_uris":{"android":"levelo://app?vid=10805d30-f651-42fc-83dc-af6ada96f984","ios":"levelo://app?vid=10805d30-f651-42fc-83dc-af6ada96f984"},"vehicle_type_id":"4","last_reported":1736597729,"current_range_meters":34000,"station_id":"ce4bhn12rcd13ifvqgqg","pricing_plan_id":"cebpf4jnsgd1na2vs0mg"},{"bike_id":"100a4f23-ec2b-4825-8f0c-65e84ef19fc7","system_id":"levelo_inurba_marseille","lat":43.33025,"lon":5.39044,"is_reserved":false,"is_disabled":false,"rental_uris":{"android":"levelo://app?vid=100a4f23-ec2b-4825-8f0c-65e84ef19fc7","ios":"levelo://app?vid=100a4f23-ec2b-4825-8f0c-65e84ef19fc7"},"vehicle_type_id":"4","last_reported":1736597729,"current_range_meters":17200,"station_id":"ce4bhr92rcd13ifvqhrg","pricing_plan_id":"cebpf4jnsgd1na2vs0mg"},{"bike_id":"a629db01-3382-4ad3-9e7a-94c3ab64ac1e","system_id":"levelo_inurba_marseille","lat":43.29961,"lon":5.4132,"is_reserved":false,"is_disabled":false,"rental_uris":{"android":"levelo://app?vid=a629db01-3382-4ad3-9e7a-94c3ab64ac1e","ios":"levelo://app?vid=a629db01-3382-4ad3-9e7a-94c3ab64ac1e"},"vehicle_type_id":"4","last_reported":1736597729,"current_range_meters":18800,"station_id":"ce4bhp12rcd13ifvqh9g","pricing_plan_id":"cebpf4jnsgd1na2vs0mg"},{"bike_id":"c3926312-10e0-4f30-9f36-a231eb70171a","system_id":"levelo_inurba_marseille","lat":43.295955,"lon":5.381065,"is_reserved":false,"is_disabled":false,"rental_uris":{"android":"levelo://app?vid=c3926312-10e0-4f30-9f36-a231eb70171a","ios":"levelo://app?vid=c3926312-10e0-4f30-9f36-a231eb70171a"},"vehicle_type_id":"4","last_reported":1736597729,"current_range_meters":30000,"station_id":"ce4bgl12rcd13ifvqbo0","pricing_plan_id":"cebpf4jnsgd1na2vs0mg"},{"bike_id":"4b8c33e7-74a1-4207-be15-77e7c78cd342","system_id":"levelo_inurba_marseille","lat":43.30131,"lon":5.39862,"is_reserved":false,"is_disabled":false,"rental_uris":{"android":"levelo://app?vid=4b8c33e7-74a1-4207-be15-77e7c78cd342","ios":"levelo://app?vid=4b8c33e7-74a1-4207-be15-77e7c78cd342"},"vehicle_type_id":"4","last_reported":1736597729,"current_range_meters":38000,"station_id":"ce4bh0h2rcd13ifvqd40","pricing_plan_id":"cebpf4jnsgd1na2vs0mg"},{"bike_id":"efbf880a-e7c2-4bb1-8313-3c963a5b6b4f","system_id":"levelo_inurba_marseille","lat":43.27202,"lon":5.3919,"is_reserved":false,"is_disabled":false,"rental_uris":{"android":"levelo://app?vid=efbf880a-e7c2-4bb1-8313-3c963a5b6b4f","ios":"levelo://app?vid=efbf880a-e7c2-4bb1-8313-3c963a5b6b4f"},"vehicle_type_id":"4","last_reported":1736597729,"current_range_meters":19200,"station_id":"ce4bhhp2rcd13ifvqfm0","pricing_plan_id":"cebpf4jnsgd1na2vs0mg"},{"bike_id":"377730c6-0336-4c78-9c46-cdee41ff19a9","system_id":"levelo_inurba_marseille","lat":43.28045,"lon":5.41122,"is_reserved":false,"is_disabled":true,"rental_uris":{"android":"levelo://app?vid=377730c6-0336-4c78-9c46-cdee41ff19a9","ios":"levelo://app?vid=377730c6-0336-4c78-9c46-cdee41ff19a9"},"vehicle_type_id":"4","last_reported":1736597729,"current_range_meters":1200,"station_id":"","pricing_plan_id":"cebpf4jnsgd1na2vs0mg"},{"bike_id":"b1b24f98-043c-4231-96fe-58721ab44066","system_id":"levelo_inurba_marseille","lat":43.30356,"lon":5.41885,"is_reserved":false,"is_disabled":false,"rental_uris":{"android":"levelo://app?vid=b1b24f98-043c-4231-96fe-58721ab44066","ios":"levelo://app?vid=b1b24f98-043c-4231-96fe-58721ab44066"},"vehicle_type_id":"4","last_reported":1736597729,"current_range_meters":28800,"station_id":"ce4bhop2rcd13ifvqh7g","pricing_plan_id":"cebpf4jnsgd1na2vs0mg"},{"bike_id":"054cd636-1c92-4b02-9f52-65bb09761079","system_id":"levelo_inurba_marseille","lat":43.27608,"lon":5.36128,"is_reserved":false,"is_disabled":true,"rental_uris":{"android":"levelo://app?vid=054cd636-1c92-4b02-9f52-65bb09761079","ios":"levelo://app?vid=054cd636-1c92-4b02-9f52-65bb09761079"},"vehicle_type_id":"4","last_reported":1736597729,"current_range_meters":38800,"station_id":"ce4bgj92rcd13ifvqbe0","pricing_plan_id":"cebpf4jnsgd1na2vs0mg"},{"bike_id":"266859f2-18fe-482a-8c9f-5bdad982c716","system_id":"levelo_inurba_marseille","lat":43.28045,"lon":5.41145,"is_reserved":false,"is_disabled":true,"rental_uris":{"android":"levelo://app?vid=266859f2-18fe-482a-8c9f-5bdad982c716","ios":"levelo://app?vid=266859f2-18fe-482a-8c9f-5bdad982c716"},"vehicle_type_id":"4","last_reported":1736597729,"current_range_meters":0,"station_id":"","pricing_plan_id":"cebpf4jnsgd1na2vs0mg"},{"bike_id":"fd01bc8c-af59-4352-a996-47a66c3328f9","system_id":"levelo_inurba_marseille","lat":43.29901,"lon":5.38153,"is_reserved":false,"is_disabled":true,"rental_uris":{"android":"levelo://app?vid=fd01bc8c-af59-4352-a996-47a66c3328f9","ios":"levelo://app?vid=fd01bc8c-af59-4352-a996-47a66c3328f9"},"vehicle_type_id":"4","last_reported":1736597729,"current_range_meters":38800,"station_id":"ce4bgj12rcd13ifvqbc0","pricing_plan_id":"cebpf4jnsgd1na2vs0mg"},{"bike_id":"faf6436b-987a-4030-a338-13aebbb35c63","system_id":"levelo_inurba_marseille","lat":43.30552,"lon":5.36557,"is_reserved":false,"is_disabled":false,"rental_uris":{"android":"levelo://app?vid=faf6436b-987a-4030-a338-13aebbb35c63","ios":"levelo://app?vid=faf6436b-987a-4030-a338-13aebbb35c63"},"vehicle_type_id":"4","last_reported":1736597729,"current_range_meters":12800,"station_id":"ce4bgs12rcd13ifvqcag","pricing_plan_id":"cebpf4jnsgd1na2vs0mg"},{"bike_id":"a870f0d0-8259-430d-ada5-5ec3744b52a6","system_id":"levelo_inurba_marseille","lat":43.29227,"lon":5.36063,"is_reserved":false,"is_disabled":false,"rental_uris":{"android":"levelo://app?vid=a870f0d0-8259-430d-ada5-5ec3744b52a6","ios":"levelo://app?vid=a870f0d0-8259-430d-ada5-5ec3744b52a6"},"vehicle_type_id":"4","last_reported":1736597729,"current_range_meters":19600,"station_id":"ce4bhbh2rcd13ifvqeqg","pricing_plan_id":"cebpf4jnsgd1na2vs0mg"},{"bike_id":"e53ac43a-53d3-47b2-af6c-16783631ac47","system_id":"levelo_inurba_marseille","lat":43.28003,"lon":5.40012,"is_reserved":false,"is_disabled":false,"rental_uris":{"android":"levelo://app?vid=e53ac43a-53d3-47b2-af6c-16783631ac47","ios":"levelo://app?vid=e53ac43a-53d3-47b2-af6c-16783631ac47"},"vehicle_type_id":"4","last_reported":1736597729,"current_range_meters":38800,"station_id":"ce4bho92rcd13ifvqh4g","pricing_plan_id":"cebpf4jnsgd1na2vs0mg"},{"bike_id":"fa2ca9db-1b78-4239-b60c-fb8c4e90b039","system_id":"levelo_inurba_marseille","lat":43.25497,"lon":5.37691,"is_reserved":false,"is_disabled":false,"rental_uris":{"android":"levelo://app?vid=fa2ca9db-1b78-4239-b60c-fb8c4e90b039","ios":"levelo://app?vid=fa2ca9db-1b78-4239-b60c-fb8c4e90b039"},"vehicle_type_id":"4","last_reported":1736597729,"current_range_meters":16000,"station_id":"ce4bhh12rcd13ifvqff0","pricing_plan_id":"cebpf4jnsgd1na2vs0mg"},{"bike_id":"a23482a5-488f-4785-8b0f-1ed1c66e2853","system_id":"levelo_inurba_marseille","lat":43.29217,"lon":5.36062,"is_reserved":false,"is_disabled":false,"rental_uris":{"android":"levelo://app?vid=a23482a5-488f-4785-8b0f-1ed1c66e2853","ios":"levelo://app?vid=a23482a5-488f-4785-8b0f-1ed1c66e2853"},"vehicle_type_id":"4","last_reported":1736597729,"current_range_meters":30400,"station_id":"ce4bhbh2rcd13ifvqeqg","pricing_plan_id":"cebpf4jnsgd1na2vs0mg"},{"bike_id":"c8aef9ab-ffaf-4274-a001-16a43e134b7d","system_id":"levelo_inurba_marseille","lat":43.308569,"lon":5.377844,"is_reserved":false,"is_disabled":false,"rental_uris":{"android":"levelo://app?vid=c8aef9ab-ffaf-4274-a001-16a43e134b7d","ios":"levelo://app?vid=c8aef9ab-ffaf-4274-a001-16a43e134b7d"},"vehicle_type_id":"4","last_reported":1736597729,"current_range_meters":30400,"station_id":"","pricing_plan_id":"cebpf4jnsgd1na2vs0mg"},{"bike_id":"e1cf2823-1b48-4a2a-a96a-bbc41e753ad0","system_id":"levelo_inurba_marseille","lat":43.25873,"lon":5.3995,"is_reserved":false,"is_disabled":false,"rental_uris":{"android":"levelo://app?vid=e1cf2823-1b48-4a2a-a96a-bbc41e753ad0","ios":"levelo://app?vid=e1cf2823-1b48-4a2a-a96a-bbc41e753ad0"},"vehicle_type_id":"4","last_reported":1736597729,"current_range_meters":32400,"station_id":"ce4bhl92rcd13ifvqghg","pricing_plan_id":"cebpf4jnsgd1na2vs0mg"},{"bike_id":"e8e29e9f-ef94-4308-8a5c-1d87b761a0b0","system_id":"levelo_inurba_marseille","lat":43.29609,"lon":5.37703,"is_reserved":false,"is_disabled":false,"rental_uris":{"android":"levelo://app?vid=e8e29e9f-ef94-4308-8a5c-1d87b761a0b0","ios":"levelo://app?vid=e8e29e9f-ef94-4308-8a5c-1d87b761a0b0"},"vehicle_type_id":"4","last_reported":1736597729,"current_range_meters":37600,"station_id":"ce4bgi92rcd13ifvqb90","pricing_plan_id":"cebpf4jnsgd1na2vs0mg"},{"bike_id":"b8af2b22-7237-4c9a-b7c6-d06fa1cc6804","system_id":"levelo_inurba_marseille","lat":43.28118,"lon":5.37854,"is_reserved":false,"is_disabled":false,"rental_uris":{"android":"levelo://app?vid=b8af2b22-7237-4c9a-b7c6-d06fa1cc6804","ios":"levelo://app?vid=b8af2b22-7237-4c9a-b7c6-d06fa1cc6804"},"vehicle_type_id":"4","last_reported":1736597729,"current_range_meters":12400,"station_id":"ce4bha12rcd13ifvqee0","pricing_plan_id":"cebpf4jnsgd1na2vs0mg"},{"bike_id":"7e1aa8be-c5d8-4762-b051-e4859be99d9c","system_id":"levelo_inurba_marseille","lat":43.24648,"lon":5.38904,"is_reserved":false,"is_disabled":false,"rental_uris":{"android":"levelo://app?vid=7e1aa8be-c5d8-4762-b051-e4859be99d9c","ios":"levelo://app?vid=7e1aa8be-c5d8-4762-b051-e4859be99d9c"},"vehicle_type_id":"4","last_reported":1736597729,"current_range_meters":11200,"station_id":"ce4bhg12rcd13ifvqf60","pricing_plan_id":"cebpf4jnsgd1na2vs0mg"},{"bike_id":"9980ebe4-545a-4ed5-9741-fc0c2e2489b7","system_id":"levelo_inurba_marseille","lat":43.30896,"lon":5.37205,"is_reserved":false,"is_disabled":false,"rental_uris":{"android":"levelo://app?vid=9980ebe4-545a-4ed5-9741-fc0c2e2489b7","ios":"levelo://app?vid=9980ebe4-545a-4ed5-9741-fc0c2e2489b7"},"vehicle_type_id":"4","last_reported":1736597729,"current_range_meters":38800,"station_id":"ce4bguh2rcd13ifvqckg","pricing_plan_id":"cebpf4jnsgd1na2vs0mg"},{"bike_id":"3e8b7527-e89d-4d31-a3a1-bab5d9961c5a","system_id":"levelo_inurba_marseille","lat":43.33608,"lon":5.4103,"is_reserved":false,"is_disabled":true,"rental_uris":{"android":"levelo://app?vid=3e8b7527-e89d-4d31-a3a1-bab5d9961c5a","ios":"levelo://app?vid=3e8b7527-e89d-4d31-a3a1-bab5d9961c5a"},"vehicle_type_id":"4","last_reported":1736597729,"current_range_meters":32800,"station_id":"ce4bhqh2rcd13ifvqhmg","pricing_plan_id":"cebpf4jnsgd1na2vs0mg"},{"bike_id":"c5a4cc0a-368f-444e-923b-d63fe711e2e2","system_id":"levelo_inurba_marseille","lat":43.28005,"lon":5.40003,"is_reserved":false,"is_disabled":false,"rental_uris":{"android":"levelo://app?vid=c5a4cc0a-368f-444e-923b-d63fe711e2e2","ios":"levelo://app?vid=c5a4cc0a-368f-444e-923b-d63fe711e2e2"},"vehicle_type_id":"4","last_reported":1736597729,"current_range_meters":25600,"station_id":"ce4bho92rcd13ifvqh4g","pricing_plan_id":"cebpf4jnsgd1na2vs0mg"},{"bike_id":"a3fefaf9-4ba7-4bbe-ad11-cda9aaf6b6a6","system_id":"levelo_inurba_marseille","lat":43.31715,"lon":5.43701,"is_reserved":false,"is_disabled":false,"rental_uris":{"android":"levelo://app?vid=a3fefaf9-4ba7-4bbe-ad11-cda9aaf6b6a6","ios":"levelo://app?vid=a3fefaf9-4ba7-4bbe-ad11-cda9aaf6b6a6"},"vehicle_type_id":"4","last_reported":1736597729,"current_range_meters":38400,"station_id":"ce4bhp92rcd13ifvqhcg","pricing_plan_id":"cebpf4jnsgd1na2vs0mg"},{"bike_id":"cfbaf99c-c14a-433d-9b69-8289fb3cd1c5","system_id":"levelo_inurba_marseille","lat":43.26929,"lon":5.40314,"is_reserved":false,"is_disabled":false,"rental_uris":{"android":"levelo://app?vid=cfbaf99c-c14a-433d-9b69-8289fb3cd1c5","ios":"levelo://app?vid=cfbaf99c-c14a-433d-9b69-8289fb3cd1c5"},"vehicle_type_id":"4","last_reported":1736597729,"current_range_meters":38800,"station_id":"cjm6bp8fraef2m0cb0m0","pricing_plan_id":"cebpf4jnsgd1na2vs0mg"},{"bike_id":"b9619dd7-91f7-432e-b0ef-695b4d3f299d","system_id":"levelo_inurba_marseille","lat":43.3201,"lon":5.3817,"is_reserved":false,"is_disabled":false,"rental_uris":{"android":"levelo://app?vid=b9619dd7-91f7-432e-b0ef-695b4d3f299d","ios":"levelo://app?vid=b9619dd7-91f7-432e-b0ef-695b4d3f299d"},"vehicle_type_id":"4","last_reported":1736597729,"current_range_meters":38800,"station_id":"ce4bhr12rcd13ifvqhpg","pricing_plan_id":"cebpf4jnsgd1na2vs0mg"},{"bike_id":"8a7c98d6-cf32-4b26-a183-69599a9c2286","system_id":"levelo_inurba_marseille","lat":43.30201,"lon":5.39775,"is_reserved":false,"is_disabled":false,"rental_uris":{"android":"levelo://app?vid=8a7c98d6-cf32-4b26-a183-69599a9c2286","ios":"levelo://app?vid=8a7c98d6-cf32-4b26-a183-69599a9c2286"},"vehicle_type_id":"4","last_reported":1736597729,"current_range_meters":38800,"station_id":"ce4bh0h2rcd13ifvqd40","pricing_plan_id":"cebpf4jnsgd1na2vs0mg"},{"bike_id":"5d9eed08-78e2-4a38-a095-72f7217e17dd","system_id":"levelo_inurba_marseille","lat":43.3047,"lon":5.37896,"is_reserved":false,"is_disabled":false,"rental_uris":{"android":"levelo://app?vid=5d9eed08-78e2-4a38-a095-72f7217e17dd","ios":"levelo://app?vid=5d9eed08-78e2-4a38-a095-72f7217e17dd"},"vehicle_type_id":"4","last_reported":1736597729,"current_range_meters":38800,"station_id":"ce4bgup2rcd13ifvqcn0","pricing_plan_id":"cebpf4jnsgd1na2vs0mg"},{"bike_id":"2033c6a5-9e03-4366-ac9f-439c16e4814f","system_id":"levelo_inurba_marseille","lat":43.28093,"lon":5.37859,"is_reserved":false,"is_disabled":false,"rental_uris":{"android":"levelo://app?vid=2033c6a5-9e03-4366-ac9f-439c16e4814f","ios":"levelo://app?vid=2033c6a5-9e03-4366-ac9f-439c16e4814f"},"vehicle_type_id":"4","last_reported":1736597729,"current_range_meters":23200,"station_id":"ce4bha12rcd13ifvqee0","pricing_plan_id":"cebpf4jnsgd1na2vs0mg"},{"bike_id":"b475faa3-c77c-4679-b4a7-98d80a3aaf54","system_id":"levelo_inurba_marseille","lat":43.30147,"lon":5.37427,"is_reserved":false,"is_disabled":false,"rental_uris":{"android":"levelo://app?vid=b475faa3-c77c-4679-b4a7-98d80a3aaf54","ios":"levelo://app?vid=b475faa3-c77c-4679-b4a7-98d80a3aaf54"},"vehicle_type_id":"4","last_reported":1736597729,"current_range_meters":34000,"station_id":"ce4bgs92rcd13ifvqcc0","pricing_plan_id":"cebpf4jnsgd1na2vs0mg"},{"bike_id":"ca2450e7-5c66-4bdc-b528-943118702b91","system_id":"levelo_inurba_marseille","lat":43.33721,"lon":5.39211,"is_reserved":false,"is_disabled":false,"rental_uris":{"android":"levelo://app?vid=ca2450e7-5c66-4bdc-b528-943118702b91","ios":"levelo://app?vid=ca2450e7-5c66-4bdc-b528-943118702b91"},"vehicle_type_id":"4","last_reported":1736597729,"current_range_meters":38800,"station_id":"ce4bhr92rcd13ifvqhsg","pricing_plan_id":"cebpf4jnsgd1na2vs0mg"},{"bike_id":"22bca05e-2b13-452a-8c9f-edb6d06e933a","system_id":"levelo_inurba_marseille","lat":43.29251,"lon":5.40899,"is_reserved":false,"is_disabled":false,"rental_uris":{"android":"levelo://app?vid=22bca05e-2b13-452a-8c9f-edb6d06e933a","ios":"levelo://app?vid=22bca05e-2b13-452a-8c9f-edb6d06e933a"},"vehicle_type_id":"4","last_reported":1736597729,"current_range_meters":20000,"station_id":"ce4bh192rcd13ifvqdc0","pricing_plan_id":"cebpf4jnsgd1na2vs0mg"},{"bike_id":"9417f5e2-fd0d-41fb-a081-845b7126b20e","system_id":"levelo_inurba_marseille","lat":43.288421,"lon":5.358499,"is_reserved":false,"is_disabled":false,"rental_uris":{"android":"levelo://app?vid=9417f5e2-fd0d-41fb-a081-845b7126b20e","ios":"levelo://app?vid=9417f5e2-fd0d-41fb-a081-845b7126b20e"},"vehicle_type_id":"4","last_reported":1736597729,"current_range_meters":38400,"station_id":"ce4bhb12rcd13ifvqem0","pricing_plan_id":"cebpf4jnsgd1na2vs0mg"},{"bike_id":"c5c40bd5-a97f-43f4-9a85-295622de6544","system_id":"levelo_inurba_marseille","lat":43.31083,"lon":5.42444,"is_reserved":false,"is_disabled":false,"rental_uris":{"android":"levelo://app?vid=c5c40bd5-a97f-43f4-9a85-295622de6544","ios":"levelo://app?vid=c5c40bd5-a97f-43f4-9a85-295622de6544"},"vehicle_type_id":"4","last_reported":1736597729,"current_range_meters":36800,"station_id":"ce4bhp92rcd13ifvqhag","pricing_plan_id":"cebpf4jnsgd1na2vs0mg"},{"bike_id":"5a991b7a-c697-4172-95ec-446b0a8c490e","system_id":"levelo_inurba_marseille","lat":43.30794,"lon":5.38166,"is_reserved":false,"is_disabled":false,"rental_uris":{"android":"levelo://app?vid=5a991b7a-c697-4172-95ec-446b0a8c490e","ios":"levelo://app?vid=5a991b7a-c697-4172-95ec-446b0a8c490e"},"vehicle_type_id":"4","last_reported":1736597729,"current_range_meters":37600,"station_id":"ce4bgt12rcd13ifvqce0","pricing_plan_id":"cebpf4jnsgd1na2vs0mg"},{"bike_id":"64876223-c354-4a17-a3b3-079acdfc7eea","system_id":"levelo_inurba_marseille","lat":43.29806,"lon":5.38087,"is_reserved":false,"is_disabled":false,"rental_uris":{"android":"levelo://app?vid=64876223-c354-4a17-a3b3-079acdfc7eea","ios":"levelo://app?vid=64876223-c354-4a17-a3b3-079acdfc7eea"},"vehicle_type_id":"4","last_reported":1736597729,"current_range_meters":38800,"station_id":"ce4bgip2rcd13ifvqbb0","pricing_plan_id":"cebpf4jnsgd1na2vs0mg"},{"bike_id":"829ddfbe-8cdb-4dcc-abde-9acf8693e400","system_id":"levelo_inurba_marseille","lat":43.30456,"lon":5.379075,"is_reserved":false,"is_disabled":false,"rental_uris":{"android":"levelo://app?vid=829ddfbe-8cdb-4dcc-abde-9acf8693e400","ios":"levelo://app?vid=829ddfbe-8cdb-4dcc-abde-9acf8693e400"},"vehicle_type_id":"4","last_reported":1736597729,"current_range_meters":34800,"station_id":"ce4bgup2rcd13ifvqcn0","pricing_plan_id":"cebpf4jnsgd1na2vs0mg"},{"bike_id":"a5363611-b409-4b82-872f-bcbdcc80ff67","system_id":"levelo_inurba_marseille","lat":43.23143,"lon":5.43714,"is_reserved":false,"is_disabled":false,"rental_uris":{"android":"levelo://app?vid=a5363611-b409-4b82-872f-bcbdcc80ff67","ios":"levelo://app?vid=a5363611-b409-4b82-872f-bcbdcc80ff67"},"vehicle_type_id":"4","last_reported":1736597729,"current_range_meters":18000,"station_id":"ce4bhmp2rcd13ifvqgog","pricing_plan_id":"cebpf4jnsgd1na2vs0mg"},{"bike_id":"b3cb95fb-9c38-4961-8032-9e7e1343adcd","system_id":"levelo_inurba_marseille","lat":43.32359,"lon":5.38923,"is_reserved":false,"is_disabled":false,"rental_uris":{"android":"levelo://app?vid=b3cb95fb-9c38-4961-8032-9e7e1343adcd","ios":"levelo://app?vid=b3cb95fb-9c38-4961-8032-9e7e1343adcd"},"vehicle_type_id":"4","last_reported":1736597729,"current_range_meters":23200,"station_id":"ce4bhqp2rcd13ifvqhog","pricing_plan_id":"cebpf4jnsgd1na2vs0mg"},{"bike_id":"6fdecff2-2545-405f-8c66-4d246590b289","system_id":"levelo_inurba_marseille","lat":43.24167,"lon":5.36396,"is_reserved":false,"is_disabled":false,"rental_uris":{"android":"levelo://app?vid=6fdecff2-2545-405f-8c66-4d246590b289","ios":"levelo://app?vid=6fdecff2-2545-405f-8c66-4d246590b289"},"vehicle_type_id":"4","last_reported":1736597729,"current_range_meters":9600,"station_id":"cpo36qri1sfpv3e86is0","pricing_plan_id":"cebpf4jnsgd1na2vs0mg"},{"bike_id":"0bf41908-d988-4252-9b22-29c7186471a1","system_id":"levelo_inurba_marseille","lat":43.29571,"lon":5.42262,"is_reserved":false,"is_disabled":false,"rental_uris":{"android":"levelo://app?vid=0bf41908-d988-4252-9b22-29c7186471a1","ios":"levelo://app?vid=0bf41908-d988-4252-9b22-29c7186471a1"},"vehicle_type_id":"4","last_reported":1736597729,"current_range_meters":37600,"station_id":"ce4bhph2rcd13ifvqhdg","pricing_plan_id":"cebpf4jnsgd1na2vs0mg"},{"bike_id":"f7973d72-13b3-4867-ac03-2e87826aba3a","system_id":"levelo_inurba_marseille","lat":43.31361,"lon":5.38488,"is_reserved":false,"is_disabled":false,"rental_uris":{"android":"levelo://app?vid=f7973d72-13b3-4867-ac03-2e87826aba3a","ios":"levelo://app?vid=f7973d72-13b3-4867-ac03-2e87826aba3a"},"vehicle_type_id":"4","last_reported":1736597729,"current_range_meters":17600,"station_id":"ce4bgt92rcd13ifvqcf0","pricing_plan_id":"cebpf4jnsgd1na2vs0mg"},