{"last_updated":1765873080,"ttl":60,"version":"2.2","data":{"bikes":[{"bike_id":"32e9fa08-9553-439c-9928-cba630a720b0","system_id":"levelo_inurba_marseille","lat":43.2926,"lon":5.38283,"is_reserved":false,"is_disabled":false,"rental_uris":{"android":"levelo://app?vid=32e9fa08-9553-439c-9928-cba630a720b0","ios":"levelo://app?vid=32e9fa08-9553-439c-9928-cba630a720b0"},"vehicle_type_id":"4","last_reported":1765873080,"current_range_meters":2800,"station_id":"","pricing_plan_id":"cebpf4jnsgd1na2vs0mg"},{"bike_id":"6affd799-4482-438f-94f4-a604b23c6925","system_id":"levelo_inurba_marseille","lat":43.297914,"lon":5.381091,"is_reserved":false,"is_disabled":false,"rental_uris":{"android":"levelo://app?vid=6affd799-4482-438f-94f4-a604b23c6925","ios":"levelo://app?vid=6affd799-4482-438f-94f4-a604b23c6925"},"vehicle_type_id":"4","last_reported":1765873080,"current_range_meters":2800,"station_id":"ce4bhn12rcd13ifvqgpg","pricing_plan_id":"cebpf4jnsgd1na2vs0mg"},{"bike_id":"3715503d-b04f-44ac-b6a3-9a987a809781","system_id":"levelo_inurba_marseille","lat":43.29032,"lon":5.39958,"is_reserved":false,"is_disabled":false,"rental_uris":{"android":"levelo://app?vid=3715503d-b04f-44ac-b6a3-9a987a809781","ios":"levelo://app?vid=3715503d-b04f-44ac-b6a3-9a987a809781"},"vehicle_type_id":"4","last_reported":1765873080,"current_range_meters":3200,"station_id":"ce4bh392rcd13ifvqdm0","pricing_plan_id":"cebpf4jnsgd1na2vs0mg"},{"bike_id":"a8279719-3a38-45ee-8ab5-d08982a418a9","system_id":"levelo_inurba_marseille","lat":43.29902,"lon":5.38318,"is_reserved":false,"is_disabled":false,"rental_uris":{"android":"levelo://app?vid=a8279719-3a38-45ee-8ab5-d08982a418a9","ios":"levelo://app?vid=a8279719-3a38-45ee-8ab5-d08982a418a9"},"vehicle_type_id":"4","last_reported":1765873080,"current_range_meters":3200,"station_id":"","pricing_plan_id":"cebpf4jnsgd1na2vs0mg"},{"bike_id":"9e95a51e-9a8d-46fe-af32-c5c79462efbe","system_id":"levelo_inurba_marseille","lat":43.23156,"lon":5.43739,"is_reserved":false,"is_disabled":false,"rental_uris":{"android":"levelo://app?vid=9e95a51e-9a8d-46fe-af32-c5c79462efbe","ios":"levelo://app?vid=9e95a51e-9a8d-46fe-af32-c5c79462efbe"},"vehicle_type_id":"4","last_reported":1765873080,"current_range_meters":3200,"station_id":"ce4bhmp2rcd13ifvqgog","pricing_plan_id":"cebpf4jnsgd1na2vs0mg"},{"bike_id":"dbd5deb5-901d-43a0-9f04-2420bcdd6087","system_id":"levelo_inurba_marseille","lat":43.2904,"lon":5.39952,"is_reserved":false,"is_disabled":false,"rental_uris":{"android":"levelo://app?vid=dbd5deb5-901d-43a0-9f04-2420bcdd6087","ios":"levelo://app?vid=dbd5deb5-901d-43a0-9f04-2420bcdd6087"},"vehicle_type_id":"4","last_reported":1765873080,"current_range_meters":3200,"station_id":"ce4bh392rcd13ifvqdm0","pricing_plan_id":"cebpf4jnsgd1na2vs0mg"},{"bike_id":"05eb7c76-6eff-473c-951d-6328ee53bc60","system_id":"levelo_inurba_marseille","lat":43.32479,"lon":5.36557,"is_reserved":false,"is_disabled":false,"rental_uris":{"android":"levelo://app?vid=05eb7c76-6eff-473c-951d-6328ee53bc60","ios":"levelo://app?vid=05eb7c76-6eff-473c-951d-6328ee53bc60"},"vehicle_type_id":"4","last_reported":1765873080,"current_range_meters":3200,"station_id":"ce4bhs12rcd13ifvqhvg","pricing_plan_id":"cebpf4jnsgd1na2vs0mg"},{"bike_id":"4dae8c31-ebea-4fac-b6ec-73ed96419bb4","system_id":"levelo_inurba_marseille","lat":43.29024,"lon":5.38126,"is_reserved":false,"is_disabled":false,"rental_uris":{"android":"levelo://app?vid=4dae8c31-ebea-4fac-b6ec-73ed96419bb4","ios":"levelo://app?vid=4dae8c31-ebea-4fac-b6ec-73ed96419bb4"},"vehicle_type_id":"4","last_reported":1765873080,"current_range_meters":3600,"station_id":"ce4bh4p2rcd13ifvqe1g","pricing_plan_id":"cebpf4jnsgd1na2vs0mg"},{"bike_id":"d83d4c07-7ae8-422b-b191-d0ee24128a49","system_id":"levelo_inurba_marseille","lat":43.30948,"lon":5.39036,"is_reserved":false,"is_disabled":false,"rental_uris":{"android":"levelo://app?vid=d83d4c07-7ae8-422b-b191-d0ee24128a49","ios":"levelo://app?vid=d83d4c07-7ae8-422b-b191-d0ee24128a49"},"vehicle_type_id":"4","last_reported":1765873080,"current_range_meters":3600,"station_id":"ce4bgup2rcd13ifvqco0","pricing_plan_id":"cebpf4jnsgd1na2vs0mg"},{"bike_id":"6ec3da5f-c138-463b-8fcf-d8f9dbefe88a","system_id":"levelo_inurba_marseille","lat":43.28775,"lon":5.3915,"is_reserved":false,"is_disabled":false,"rental_uris":{"android":"levelo://app?vid=6ec3da5f-c138-463b-8fcf-d8f9dbefe88a","ios":"levelo://app?vid=6ec3da5f-c138-463b-8fcf-d8f9dbefe88a"},"vehicle_type_id":"4","last_reported":1765873080,"current_range_meters":3600,"station_id":"","pricing_plan_id":"cebpf4jnsgd1na2vs0mg"},{"bike_id":"d6751c7f-2386-4efa-9d98-92c69d02e307","system_id":"levelo_inurba_marseille","lat":43.3134,"lon":5.36712,"is_reserved":false,"is_disabled":false,"rental_uris":{"android":"levelo://app?vid=d6751c7f-2386-4efa-9d98-92c69d02e307","ios":"levelo://app?vid=d6751c7f-2386-4efa-9d98-92c69d02e307"},"vehicle_type_id":"4","last_reported":1765873080,"current_range_meters":3600,"station_id":"ce4bgr92rcd13ifvqc6g","pricing_plan_id":"cebpf4jnsgd1na2vs0mg"},{"bike_id":"00681ec5-3066-4d35-8ff4-8f9df4662e2b","system_id":"levelo_inurba_marseille","lat":43.25925,"lon":5.40904,"is_reserved":false,"is_disabled":false,"rental_uris":{"android":"levelo://app?vid=00681ec5-3066-4d35-8ff4-8f9df4662e2b","ios":"levelo://app?vid=00681ec5-3066-4d35-8ff4-8f9df4662e2b"},"vehicle_type_id":"4","last_reported":1765873080,"current_range_meters":4000,"station_id":"ce4bhm92rcd13ifvqglg","pricing_plan_id":"cebpf4jnsgd1na2vs0mg"},{"bike_id":"badd8d20-9209-4436-9c1f-a017c0e70e8a","system_id":"levelo_inurba_marseille","lat":43.3256,"lon":5.39321,"is_reserved":false,"is_disabled":false,"rental_uris":{"android":"levelo://app?vid=badd8d20-9209-4436-9c1f-a017c0e70e8a","ios":"levelo://app?vid=badd8d20-9209-4436-9c1f-a017c0e70e8a"},"vehicle_type_id":"4","last_reported":1765873080,"current_range_meters":4000,"station_id":"","pricing_plan_id":"cebpf4jnsgd1na2vs0mg"},{"bike_id":"b42813b4-f454-464f-89a3-450a3d7874a7","system_id":"levelo_inurba_marseille","lat":43.255034,"lon":5.376485,"is_reserved":false,"is_disabled":false,"rental_uris":{"android":"levelo://app?vid=b42813b4-f454-464f-89a3-450a3d7874a7","ios":"levelo://app?vid=b42813b4-f454-464f-89a3-450a3d7874a7"},"vehicle_type_id":"4","last_reported":1765873080,"current_range_meters":4400,"station_id":"ce4bhh12rcd13ifvqff0","pricing_plan_id":"cebpf4jnsgd1na2vs0mg"},{"bike_id":"5069808a-73de-4acb-92f8-a0ee21c25681","system_id":"levelo_inurba_marseille","lat":43.29046,"lon":5.37574,"is_reserved":false,"is_disabled":false,"rental_uris":{"android":"levelo://app?vid=5069808a-73de-4acb-92f8-a0ee21c25681","ios":"levelo://app?vid=5069808a-73de-4acb-92f8-a0ee21c25681"},"vehicle_type_id":"4","last_reported":1765873080,"current_range_meters":4800,"station_id":"ce4bh692rcd13ifvqe90","pricing_plan_id":"cebpf4jnsgd1na2vs0mg"},{"bike_id":"6b289801-995f-45e9-b858-a4ffff7cc104","system_id":"levelo_inurba_marseille","lat":43.29915,"lon":5.37463,"is_reserved":false,"is_disabled":false,"rental_uris":{"android":"levelo://app?vid=6b289801-995f-45e9-b858-a4ffff7cc104","ios":"levelo://app?vid=6b289801-995f-45e9-b858-a4ffff7cc104"},"vehicle_type_id":"4","last_reported":1765873080,"current_range_meters":4800,"station_id":"ce4bgjh2rcd13ifvqbg0","pricing_plan_id":"cebpf4jnsgd1na2vs0mg"},{"bike_id":"38c64b6e-9cda-486f-af8f-95acb5f77ec9","system_id":"levelo_inurba_marseille","lat":43.32478,"lon":5.36557,"is_reserved":false,"is_disabled":false,"rental_uris":{"android":"levelo://app?vid=38c64b6e-9cda-486f-af8f-95acb5f77ec9","ios":"levelo://app?vid=38c64b6e-9cda-486f-af8f-95acb5f77ec9"},"vehicle_type_id":"4","last_reported":1765873080,"current_range_meters":4800,"station_id":"ce4bhs12rcd13ifvqhvg","pricing_plan_id":"cebpf4jnsgd1na2vs0mg"},{"bike_id":"9dd15f3b-1796-45c1-a597-84581ce70358","system_id":"levelo_inurba_marseille","lat":43.25936,"lon":5.40912,"is_reserved":false,"is_disabled":false,"rental_uris":{"android":"levelo://app?vid=9dd15f3b-1796-45c1-a597-84581ce70358","ios":"levelo://app?vid=9dd15f3b-1796-45c1-a597-84581ce70358"},"vehicle_type_id":"4","last_reported":1765873080,"current_range_meters":4800,"station_id":"ce4bhm92rcd13ifvqglg","pricing_plan_id":"cebpf4jnsgd1na2vs0mg"},{"bike_id":"36f23e0d-8490-4c41-8a07-eea38ed2b0a0","system_id":"levelo_inurba_marseille","lat":43.2903,"lon":5.39945,"is_reserved":false,"is_disabled":false,"rental_uris":{"android":"levelo://app?vid=36f23e0d-8490-4c41-8a07-eea38ed2b0a0","ios":"levelo://app?vid=36f23e0d-8490-4c41-8a07-eea38ed2b0a0"},"vehicle_type_id":"4","last_reported":1765873080,"current_range_meters":5600,"station_id":"ce4bh392rcd13ifvqdm0","pricing_plan_id":"cebpf4jnsgd1na2vs0mg"},{"bike_id":"82f0d081-f8d9-4a2a-b46b-f85507d9a075","system_id":"levelo_inurba_marseille","lat":43.30879,"lon":5.3965,"is_reserved":false,"is_disabled":false,"rental_uris":{"android":"levelo://app?vid=82f0d081-f8d9-4a2a-b46b-f85507d9a075","ios":"levelo://app?vid=82f0d081-f8d9-4a2a-b46b-f85507d9a075"},"vehicle_type_id":"4","last_reported":1765873080,"current_range_meters":5600,"station_id":"ce4bh012rcd13ifvqcv0","pricing_plan_id":"cebpf4jnsgd1na2vs0mg"},{"bike_id":"d6875d1b-aecd-4b19-a838-b81f425dbb97","system_id":"levelo_inurba_marseille","lat":43.27308,"lon":5.39113,"is_reserved":false,"is_disabled":false,"rental_uris":{"android":"levelo://app?vid=d6875d1b-aecd-4b19-a838-b81f425dbb97","ios":"levelo://app?vid=d6875d1b-aecd-4b19-a838-b81f425dbb97"},"vehicle_type_id":"4","last_reported":1765873080,"current_range_meters":5600,"station_id":"ce4bhgp2rcd13ifvqfe0","pricing_plan_id":"cebpf4jnsgd1na2vs0mg"},{"bike_id":"7c96f970-a449-424b-b5b7-edba2f4e4936","system_id":"levelo_inurba_marseille","lat":43.3248,"lon":5.36561,"is_reserved":false,"is_disabled":false,"rental_uris":{"android":"levelo://app?vid=7c96f970-a449-424b-b5b7-edba2f4e4936","ios":"levelo://app?vid=7c96f970-a449-424b-b5b7-edba2f4e4936"},"vehicle_type_id":"4","last_reported":1765873080,"current_range_meters":6000,"station_id":"ce4bhs12rcd13ifvqhvg","pricing_plan_id":"cebpf4jnsgd1na2vs0mg"},{"bike_id":"aa884115-3daf-4ce2-a807-f2c418d9c48d","system_id":"levelo_inurba_marseille","lat":43.270691,"lon":5.38874,"is_reserved":false,"is_disabled":false,"rental_uris":{"android":"levelo://app?vid=aa884115-3daf-4ce2-a807-f2c418d9c48d","ios":"levelo://app?vid=aa884115-3daf-4ce2-a807-f2c418d9c48d"},"vehicle_type_id":"4","last_reported":1765873080,"current_range_meters":6000,"station_id":"","pricing_plan_id":"cebpf4jnsgd1na2vs0mg"},{"bike_id":"9baf6957-c329-44e2-8a3b-e3e9a8e70385","system_id":"levelo_inurba_marseille","lat":43.292239,"lon":5.360665,"is_reserved":false,"is_disabled":false,"rental_uris":{"android":"levelo://app?vid=9baf6957-c329-44e2-8a3b-e3e9a8e70385","ios":"levelo://app?vid=9baf6957-c329-44e2-8a3b-e3e9a8e70385"},"vehicle_type_id":"4","last_reported":1765873080,"current_range_meters":6000,"station_id":"ce4bhbh2rcd13ifvqeqg","pricing_plan_id":"cebpf4jnsgd1na2vs0mg"},{"bike_id":"77f5bfc6-92e7-4fda-a7bd-e591ccc8dab7","system_id":"levelo_inurba_marseille","lat":43.25938,"lon":5.40906,"is_reserved":false,"is_disabled":false,"rental_uris":{"android":"levelo://app?vid=77f5bfc6-92e7-4fda-a7bd-e591ccc8dab7","ios":"levelo://app?vid=77f5bfc6-92e7-4fda-a7bd-e591ccc8dab7"},"vehicle_type_id":"4","last_reported":1765873080,"current_range_meters":6000,"station_id":"ce4bhm92rcd13ifvqglg","pricing_plan_id":"cebpf4jnsgd1na2vs0mg"},{"bike_id":"9fcb4cf2-00b0-40e0-930f-072e877775ff","system_id":"levelo_inurba_marseille","lat":43.31757,"lon":5.39016,"is_reserved":false,"is_disabled":false,"rental_uris":{"android":"levelo://app?vid=9fcb4cf2-00b0-40e0-930f-072e877775ff","ios":"levelo://app?vid=9fcb4cf2-00b0-40e0-930f-072e877775ff"},"vehicle_type_id":"4","last_reported":1765873080,"current_range_meters":6400,"station_id":"ce4bhqp2rcd13ifvqhng","pricing_plan_id":"cebpf4jnsgd1na2vs0mg"},{"bike_id":"5cfcac19-e885-4209-96ab-a70a0192b25a","system_id":"levelo_inurba_marseille","lat":43.337819,"lon":5.374201,"is_reserved":false,"is_disabled":false,"rental_uris":{"android":"levelo://app?vid=5cfcac19-e885-4209-96ab-a70a0192b25a","ios":"levelo://app?vid=5cfcac19-e885-4209-96ab-a70a0192b25a"},"vehicle_type_id":"4","last_reported":1765873080,"current_range_meters":6400,"station_id":"","pricing_plan_id":"cebpf4jnsgd1na2vs0mg"},{"bike_id":"7376277b-ae5e-481e-9c22-e5496e5fef64","system_id":"levelo_inurba_marseille","lat":43.25574,"lon":5.38235,"is_reserved":false,"is_disabled":false,"rental_uris":{"android":"levelo://app?vid=7376277b-ae5e-481e-9c22-e5496e5fef64","ios":"levelo://app?vid=7376277b-ae5e-481e-9c22-e5496e5fef64"},"vehicle_type_id":"4","last_reported":1765873080,"current_range_meters":6400,"station_id":"ce4bhih2rcd13ifvqfs0","pricing_plan_id":"cebpf4jnsgd1na2vs0mg"},{"bike_id":"46274f3a-fd56-4a7d-9e16-159fdb3dc108","system_id":"levelo_inurba_marseille","lat":43.30461,"lon":5.37909,"is_reserved":false,"is_disabled":false,"rental_uris":{"android":"levelo://app?vid=46274f3a-fd56-4a7d-9e16-159fdb3dc108","ios":"levelo://app?vid=46274f3a-fd56-4a7d-9e16-159fdb3dc108"},"vehicle_type_id":"4","last_reported":1765873080,"current_range_meters":6400,"station_id":"ce4bgup2rcd13ifvqcn0","pricing_plan_id":"cebpf4jnsgd1na2vs0mg"},{"bike_id":"66e10194-8e2d-4634-89ad-d66d649b5e60","system_id":"levelo_inurba_marseille","lat":43.28477,"lon":5.48392,"is_reserved":false,"is_disabled":false,"rental_uris":{"android":"levelo://app?vid=66e10194-8e2d-4634-89ad-d66d649b5e60","ios":"levelo://app?vid=66e10194-8e2d-4634-89ad-d66d649b5e60"},"vehicle_type_id":"4","last_reported":1765873080,"current_range_meters":6400,"station_id":"","pricing_plan_id":"cebpf4jnsgd1na2vs0mg"},{"bike_id":"3cba2ea0-2276-44ee-a40b-00b218ca099d","system_id":"levelo_inurba_marseille","lat":43.27967,"lon":5.38743,"is_reserved":false,"is_disabled":false,"rental_uris":{"android":"levelo://app?vid=3cba2ea0-2276-44ee-a40b-00b218ca099d","ios":"levelo://app?vid=3cba2ea0-2276-44ee-a40b-00b218ca099d"},"vehicle_type_id":"4","last_reported":1765873080,"current_range_meters":6400,"station_id":"ce4bhg12rcd13ifvqf80","pricing_plan_id":"cebpf4jnsgd1na2vs0mg"},{"bike_id":"28c90eba-cc71-4815-92f2-972a00f37ca0","system_id":"levelo_inurba_marseille","lat":43.27058,"lon":5.42268,"is_reserved":false,"is_disabled":false,"rental_uris":{"android":"levelo://app?vid=28c90eba-cc71-4815-92f2-972a00f37ca0","ios":"levelo://app?vid=28c90eba-cc71-4815-92f2-972a00f37ca0"},"vehicle_type_id":"4","last_reported":1765873080,"current_range_meters":6400,"station_id":"ce4bhk92rcd13ifvqgb0","pricing_plan_id":"cebpf4jnsgd1na2vs0mg"},{"bike_id":"af60ad45-1773-4b17-8cbf-b5714f9a120e","system_id":"levelo_inurba_marseille","lat":43.337684,"lon":5.374361,"is_reserved":false,"is_disabled":false,"rental_uris":{"android":"levelo://app?vid=af60ad45-1773-4b17-8cbf-b5714f9a120e","ios":"levelo://app?vid=af60ad45-1773-4b17-8cbf-b5714f9a120e"},"vehicle_type_id":"4","last_reported":1765873080,"current_range_meters":6800,"station_id":"","pricing_plan_id":"cebpf4jnsgd1na2vs0mg"},{"bike_id":"a6bfd9b2-7f15-426c-b73b-e405e8711977","system_id":"levelo_inurba_marseille","lat":43.31027,"lon":5.37519,"is_reserved":false,"is_disabled":false,"rental_uris":{"android":"levelo://app?vid=a6bfd9b2-7f15-426c-b73b-e405e8711977","ios":"levelo://app?vid=a6bfd9b2-7f15-426c-b73b-e405e8711977"},"vehicle_type_id":"4","last_reported":1765873080,"current_range_meters":6800,"station_id":"","pricing_plan_id":"cebpf4jnsgd1na2vs0mg"},{"bike_id":"6fe3060f-17ee-4243-91a2-653d74d75a11","system_id":"levelo_inurba_marseille","lat":43.22544,"lon":5.34814,"is_reserved":false,"is_disabled":false,"rental_uris":{"android":"levelo://app?vid=6fe3060f-17ee-4243-91a2-653d74d75a11","ios":"levelo://app?vid=6fe3060f-17ee-4243-91a2-653d74d75a11"},"vehicle_type_id":"4","last_reported":1765873080,"current_range_meters":6800,"station_id":"","pricing_plan_id":"cebpf4jnsgd1na2vs0mg"},{"bike_id":"4a0d3cd1-7adf-484f-a589-90c80406ab4e","system_id":"levelo_inurba_marseille","lat":43.237798,"lon":5.435787,"is_reserved":false,"is_disabled":false,"rental_uris":{"android":"levelo://app?vid=4a0d3cd1-7adf-484f-a589-90c80406ab4e","ios":"levelo://app?vid=4a0d3cd1-7adf-484f-a589-90c80406ab4e"},"vehicle_type_id":"4","last_reported":1765873080,"current_range_meters":6800,"station_id":"","pricing_plan_id":"cebpf4jnsgd1na2vs0mg"},{"bike_id":"2a07c919-fc58-40dc-b8eb-041eaad3830e","system_id":"levelo_inurba_marseille","lat":43.31218,"lon":5.36864,"is_reserved":false,"is_disabled":false,"rental_uris":{"android":"levelo://app?vid=2a07c919-fc58-40dc-b8eb-041eaad3830e","ios":"levelo://app?vid=2a07c919-fc58-40dc-b8eb-041eaad3830e"},"vehicle_type_id":"4","last_reported":1765873080,"current_range_meters":6800,"station_id":"ce4bgl92rcd13ifvqbq0","pricing_plan_id":"cebpf4jnsgd1na2vs0mg"},{"bike_id":"28810418-b9bc-40f9-a643-a1a1409d3020","system_id":"levelo_inurba_marseille","lat":43.28613,"lon":5.35106,"is_reserved":false,"is_disabled":false,"rental_uris":{"android":"levelo://app?vid=28810418-b9bc-40f9-a643-a1a1409d3020","ios":"levelo://app?vid=28810418-b9bc-40f9-a643-a1a1409d3020"},"vehicle_type_id":"4","last_reported":1765873080,"current_range_meters":6800,"station_id":"ce4bhch2rcd13ifvqeug","pricing_plan_id":"cebpf4jnsgd1na2vs0mg"},{"bike_id":"5009bae7-4038-4bd4-a382-48be6e7178e6","system_id":"levelo_inurba_marseille","lat":43.27962,"lon":5.38743,"is_reserved":false,"is_disabled":false,"rental_uris":{"android":"levelo://app?vid=5009bae7-4038-4bd4-a382-48be6e7178e6","ios":"levelo://app?vid=5009bae7-4038-4bd4-a382-48be6e7178e6"},"vehicle_type_id":"4","last_reported":1765873080,"current_range_meters":6800,"station_id":"ce4bhg12rcd13ifvqf80","pricing_plan_id":"cebpf4jnsgd1na2vs0mg"},{"bike_id":"7fe1e075-5876-4645-8fd6-4b1045accfa6","system_id":"levelo_inurba_marseille","lat":43.23156,"lon":5.43719,"is_reserved":false,"is_disabled":false,"rental_uris":{"android":"levelo://app?vid=7fe1e075-5876-4645-8fd6-4b1045accfa6","ios":"levelo://app?vid=7fe1e075-5876-4645-8fd6-4b1045accfa6"},"vehicle_type_id":"4","last_reported":1765873080,"current_range_meters":7200,"station_id":"ce4bhmp2rcd13ifvqgog","pricing_plan_id":"cebpf4jnsgd1na2vs0mg"},{"bike_id":"c2afa061-79ac-445b-bfc1-5946c79c3c87","system_id":"levelo_inurba_marseille","lat":43.29283,"lon":5.376976,"is_reserved":false,"is_disabled":false,"rental_uris":{"android":"levelo://app?vid=c2afa061-79ac-445b-bfc1-5946c79c3c87","ios":"levelo://app?vid=c2afa061-79ac-445b-bfc1-5946c79c3c87"},"vehicle_type_id":"4","last_reported":1765873080,"current_range_meters":7200,"station_id":"ce4bha92rcd13ifvqeh0","pricing_plan_id":"cebpf4jnsgd1na2vs0mg"},{"bike_id":"29e809e1-6ac9-4fb2-aa1e-828d4446b672","system_id":"levelo_inurba_marseille","lat":43.256132,"lon":5.376742,"is_reserved":false,"is_disabled":true,"rental_uris":{"android":"levelo://app?vid=29e809e1-6ac9-4fb2-aa1e-828d4446b672","ios":"levelo://app?vid=29e809e1-6ac9-4fb2-aa1e-828d4446b672"},"vehicle_type_id":"4","last_reported":1765873080,"current_range_meters":7200,"station_id":"","pricing_plan_id":"cebpf4jnsgd1na2vs0mg"},{"bike_id":"e960d8ca-fd11-4832-a0f2-08bf8b151651","system_id":"levelo_inurba_marseille","lat":43.25002,"lon":5.38921,"is_reserved":false,"is_disabled":false,"rental_uris":{"android":"levelo://app?vid=e960d8ca-fd11-4832-a0f2-08bf8b151651","ios":"levelo://app?vid=e960d8ca-fd11-4832-a0f2-08bf8b151651"},"vehicle_type_id":"4","last_reported":1765873080,"current_range_meters":7200,"station_id":"ce4bhgp2rcd13ifvqfd0","pricing_plan_id":"cebpf4jnsgd1na2vs0mg"},{"bike_id":"aac3a556-eab0-4156-bc9c-29564664e6f5","system_id":"levelo_inurba_marseille","lat":43.337725,"lon":5.374316,"is_reserved":false,"is_disabled":false,"rental_uris":{"android":"levelo://app?vid=aac3a556-eab0-4156-bc9c-29564664e6f5","ios":"levelo://app?vid=aac3a556-eab0-4156-bc9c-29564664e6f5"},"vehicle_type_id":"4","last_reported":1765873080,"current_range_meters":7200,"station_id":"","pricing_plan_id":"cebpf4jnsgd1na2vs0mg"},{"bike_id":"b5d63cab-7292-4c85-8075-cef67fadeb9d","system_id":"levelo_inurba_marseille","lat":43.28477,"lon":5.48386,"is_reserved":false,"is_disabled":false,"rental_uris":{"android":"levelo://app?vid=b5d63cab-7292-4c85-8075-cef67fadeb9d","ios":"levelo://app?vid=b5d63cab-7292-4c85-8075-cef67fadeb9d"},"vehicle_type_id":"4","last_reported":1765873080,"current_range_meters":7200,"station_id":"st_d3svhcjqgbts73a3dn0g","pricing_plan_id":"cebpf4jnsgd1na2vs0mg"},{"bike_id":"67685305-0cea-4646-b58d-01f26e518c2b","system_id":"levelo_inurba_marseille","lat":43.29486,"lon":5.43305,"is_reserved":false,"is_disabled":false,"rental_uris":{"android":"levelo://app?vid=67685305-0cea-4646-b58d-01f26e518c2b","ios":"levelo://app?vid=67685305-0cea-4646-b58d-01f26e518c2b"},"vehicle_type_id":"4","last_reported":1765873080,"current_range_meters":7200,"station_id":"st_d3j5ugp08ojc73fj9d10","pricing_plan_id":"cebpf4jnsgd1na2vs0mg"},{"bike_id":"f7af100c-c03c-4a2e-92c5-30051a9b0dca","system_id":"levelo_inurba_marseille","lat":43.2316,"lon":5.43695,"is_reserved":false,"is_disabled":false,"rental_uris":{"android":"levelo://app?vid=f7af100c-c03c-4a2e-92c5-30051a9b0dca","ios":"levelo://app?vid=f7af100c-c03c-4a2e-92c5-30051a9b0dca"},"vehicle_type_id":"4","last_reported":1765873080,"current_range_meters":7200,"station_id":"ce4bhmp2rcd13ifvqgog","pricing_plan_id":"cebpf4jnsgd1na2vs0mg"},{"bike_id":"eb80173c-73c1-4829-832b-93fd0187ed5f","system_id":"levelo_inurba_marseille","lat":43.30467,"lon":5.37906,"is_reserved":false,"is_disabled":false,"rental_uris":{"android":"levelo://app?vid=eb80173c-73c1-4829-832b-93fd0187ed5f","ios":"levelo://app?vid=eb80173c-73c1-4829-832b-93fd0187ed5f"},"vehicle_type_id":"4","last_reported":1765873080,"current_range_meters":7200,"station_id":"ce4bgup2rcd13ifvqcn0","pricing_plan_id":"cebpf4jnsgd1na2vs0mg"},{"bike_id":"af8c00f6-e7eb-411b-96cd-651e4a186d22","system_id":"levelo_inurba_marseille","lat":43.285744,"lon":5.395047,"is_reserved":false,"is_disabled":false,"rental_uris":{"android":"levelo://app?vid=af8c00f6-e7eb-411b-96cd-651e4a186d22","ios":"levelo://app?vid=af8c00f6-e7eb-411b-96cd-651e4a186d22"},"vehicle_type_id":"4","last_reported":1765873080,"current_range_meters":8000,"station_id":"ce4bh292rcd13ifvqdg0","pricing_plan_id":"cebpf4jnsgd1na2vs0mg"},{"bike_id":"471c732c-dc6c-4773-b6c0-ae2cd4a7b4f4","system_id":"levelo_inurba_marseille","lat":43.24544,"lon":5.39529,"is_reserved":false,"is_disabled":false,"rental_uris":{"android":"levelo://app?vid=471c732c-dc6c-4773-b6c0-ae2cd4a7b4f4","ios":"levelo://app?vid=471c732c-dc6c-4773-b6c0-ae2cd4a7b4f4"},"vehicle_type_id":"4","last_reported":1765873080,"current_range_meters":8000,"station_id":"ce4bhlp2rcd13ifvqgjg","pricing_plan_id":"cebpf4jnsgd1na2vs0mg"},{"bike_id":"13db745f-25e4-4cec-881c-2a3d284988a6","system_id":"levelo_inurba_marseille","lat":43.30136,"lon":5.39868,"is_reserved":false,"is_disabled":false,"rental_uris":{"android":"levelo://app?vid=13db745f-25e4-4cec-881c-2a3d284988a6","ios":"levelo://app?vid=13db745f-25e4-4cec-881c-2a3d284988a6"},"vehicle_type_id":"4","last_reported":1765873080,"current_range_meters":8000,"station_id":"ce4bh0h2rcd13ifvqd40","pricing_plan_id":"cebpf4jnsgd1na2vs0mg"},{"bike_id":"c20612fe-f90c-43be-9fc6-eb3352e4f94f","system_id":"levelo_inurba_marseille","lat":43.33608,"lon":5.41023,"is_reserved":false,"is_disabled":false,"rental_uris":{"android":"levelo://app?vid=c20612fe-f90c-43be-9fc6-eb3352e4f94f","ios":"levelo://app?vid=c20612fe-f90c-43be-9fc6-eb3352e4f94f"},"vehicle_type_id":"4","last_reported":1765873080,"current_range_meters":8000,"station_id":"ce4bhqh2rcd13ifvqhmg","pricing_plan_id":"cebpf4jnsgd1na2vs0mg"},{"bike_id":"44591f7e-0a15-4ed3-a280-8efe9ff749b4","system_id":"levelo_inurba_marseille","lat":43.2922,"lon":5.36073,"is_reserved":false,"is_disabled":true,"rental_uris":{"android":"levelo://app?vid=44591f7e-0a15-4ed3-a280-8efe9ff749b4","ios":"levelo://app?vid=44591f7e-0a15-4ed3-a280-8efe9ff749b4"},"vehicle_type_id":"4","last_reported":1765873080,"current_range_meters":8000,"station_id":"ce4bhbh2rcd13ifvqeqg","pricing_plan_id":"cebpf4jnsgd1na2vs0mg"},{"bike_id":"0300703c-eb70-486d-8dcb-3ab8dd70d6cc","system_id":"levelo_inurba_marseille","lat":43.28536,"lon":5.44104,"is_reserved":false,"is_disabled":false,"rental_uris":{"android":"levelo://app?vid=0300703c-eb70-486d-8dcb-3ab8dd70d6cc","ios":"levelo://app?vid=0300703c-eb70-486d-8dcb-3ab8dd70d6cc"},"vehicle_type_id":"4","last_reported":1765873080,"current_range_meters":8000,"station_id":"st_d3j3df2ikq2c7380ej80","pricing_plan_id":"cebpf4jnsgd1na2vs0mg"},{"bike_id":"0da57dab-998c-4f4c-9a83-44eee61d567a","system_id":"levelo_inurba_marseille","lat":43.262297,"lon":5.404526,"is_reserved":false,"is_disabled":false,"rental_uris":{"android":"levelo://app?vid=0da57dab-998c-4f4c-9a83-44eee61d567a","ios":"levelo://app?vid=0da57dab-998c-4f4c-9a83-44eee61d567a"},"vehicle_type_id":"4","last_reported":1765873080,"current_range_meters":8000,"station_id":"ce4bhmh2rcd13ifvqgmg","pricing_plan_id":"cebpf4jnsgd1na2vs0mg"},{"bike_id":"aef4a348-56ac-4f3a-839b-3101a181b04e","system_id":"levelo_inurba_marseille","lat":43.25937,"lon":5.40904,"is_reserved":false,"is_disabled":false,"rental_uris":{"android":"levelo://app?vid=aef4a348-56ac-4f3a-839b-3101a181b04e","ios":"levelo://app?vid=aef4a348-56ac-4f3a-839b-3101a181b04e"},"vehicle_type_id":"4","last_reported":1765873080,"current_range_meters":8000,"station_id":"ce4bhm92rcd13ifvqglg","pricing_plan_id":"cebpf4jnsgd1na2vs0mg"},{"bike_id":"4d8c8447-aa5f-489a-808b-8d8ff57c378e","system_id":"levelo_inurba_marseille","lat":43.25528,"lon":5.37633,"is_reserved":false,"is_disabled":true,"rental_uris":{"android":"levelo://app?vid=4d8c8447-aa5f-489a-808b-8d8ff57c378e","ios":"levelo://app?vid=4d8c8447-aa5f-489a-808b-8d8ff57c378e"},"vehicle_type_id":"4","last_reported":1765873080,"current_range_meters":8000,"station_id":"ce4bhh12rcd13ifvqff0","pricing_plan_id":"cebpf4jnsgd1na2vs0mg"},{"bike_id":"bb2cb207-2f86-4c5a-b7c1-1c3586df9f8b","system_id":"levelo_inurba_marseille","lat":43.24178,"lon":5.39745,"is_reserved":false,"is_disabled":false,"rental_uris":{"android":"levelo://app?vid=bb2cb207-2f86-4c5a-b7c1-1c3586df9f8b","ios":"levelo://app?vid=bb2cb207-2f86-4c5a-b7c1-1c3586df9f8b"},"vehicle_type_id":"4","last_reported":1765873080,"current_range_meters":8000,"station_id":"ce4bhn12rcd13ifvqgpg","pricing_plan_id":"cebpf4jnsgd1na2vs0mg"},{"bike_id":"f84b9fe9-3b89-400b-b1b7-4c6334d03a24","system_id":"levelo_inurba_marseille","lat":43.301513,"lon":5.380924,"is_reserved":false,"is_disabled":false,"rental_uris":{"android":"levelo://app?vid=f84b9fe9-3b89-400b-b1b7-4c6334d03a24","ios":"levelo://app?vid=f84b9fe9-3b89-400b-b1b7-4c6334d03a24"},"vehicle_type_id":"4","last_reported":1765873080,"current_range_meters":8000,"station_id":"ce4bgjp2rcd13ifvqbh0","pricing_plan_id":"cebpf4jnsgd1na2vs0mg"},{"bike_id":"e9373aba-e472-47a0-9c3a-688fd31f9560","system_id":"levelo_inurba_marseille","lat":43.2417,"lon":5.36397,"is_reserved":false,"is_disabled":false,"rental_uris":{"android":"levelo://app?vid=e9373aba-e472-47a0-9c3a-688fd31f9560","ios":"levelo://app?vid=e9373aba-e472-47a0-9c3a-688fd31f9560"},"vehicle_type_id":"4","last_reported":1765873080,"current_range_meters":8000,"station_id":"cpo36qri1sfpv3e86is0","pricing_plan_id":"cebpf4jnsgd1na2vs0mg"},{"bike_id":"eaa5fb4d-00fb-4623-aee1-de3b9947b49e","system_id":"levelo_inurba_marseille","lat":43.336108,"lon":5.410344,"is_reserved":false,"is_disabled":false,"rental_uris":{"android":"levelo://app?vid=eaa5fb4d-00fb-4623-aee1-de3b9947b49e","ios":"levelo://app?vid=eaa5fb4d-00fb-4623-aee1-de3b9947b49e"},"vehicle_type_id":"4","last_reported":1765873080,"current_range_meters":8000,"station_id":"ce4bhqh2rcd13ifvqhmg","pricing_plan_id":"cebpf4jnsgd1na2vs0mg"},{"bike_id":"a5518504-2023-4e18-86cb-66af3ec2c491","system_id":"levelo_inurba_marseille","lat":43.32308,"lon":5.37133,"is_reserved":false,"is_disabled":false,"rental_uris":{"android":"levelo://app?vid=a5518504-2023-4e18-86cb-66af3ec2c491","ios":"levelo://app?vid=a5518504-2023-4e18-86cb-66af3ec2c491"},"vehicle_type_id":"4","last_reported":1765873080,"current_range_meters":8000,"station_id":"","pricing_plan_id":"cebpf4jnsgd1na2vs0mg"},{"bike_id":"0e49c737-64fa-42df-b477-b17639740d5d","system_id":"levelo_inurba_marseille","lat":43.21186,"lon":5.35076,"is_reserved":false,"is_disabled":false,"rental_uris":{"android":"levelo://app?vid=0e49c737-64fa-42df-b477-b17639740d5d","ios":"levelo://app?vid=0e49c737-64fa-42df-b477-b17639740d5d"},"vehicle_type_id":"4","last_reported":1765873080,"current_range_meters":8000,"station_id":"","pricing_plan_id":"cebpf4jnsgd1na2vs0mg"},{"bike_id":"c0ea174b-e17a-4993-a892-01b51dab9fc4","system_id":"levelo_inurba_marseille","lat":43.23158,"lon":5.43709,"is_reserved":false,"is_disabled":false,"rental_uris":{"android":"levelo://app?vid=c0ea174b-e17a-4993-a892-01b51dab9fc4","ios":"levelo://app?vid=c0ea174b-e17a-4993-a892-01b51dab9fc4"},"vehicle_type_id":"4","last_reported":1765873080,"current_range_meters":8000,"station_id":"ce4bhmp2rcd13ifvqgog","pricing_plan_id":"cebpf4jnsgd1na2vs0mg"},{"bike_id":"0224f08a-bd8a-4dcc-9ae0-e6df47d6d7f2","system_id":"levelo_inurba_marseille","lat":43.337444,"lon":5.374475,"is_reserved":false,"is_disabled":false,"rental_uris":{"android":"levelo://app?vid=0224f08a-bd8a-4dcc-9ae0-e6df47d6d7f2","ios":"levelo://app?vid=0224f08a-bd8a-4dcc-9ae0-e6df47d6d7f2"},"vehicle_type_id":"4","last_reported":1765873080,"current_range_meters":8000,"station_id":"","pricing_plan_id":"cebpf4jnsgd1na2vs0mg"},{"bike_id":"58b6056a-1f21-46c0-b6e4-67b08196f11e","system_id":"levelo_inurba_marseille","lat":43.29369,"lon":5.37861,"is_reserved":false,"is_disabled":false,"rental_uris":{"android":"levelo://app?vid=58b6056a-1f21-46c0-b6e4-67b08196f11e","ios":"levelo://app?vid=58b6056a-1f21-46c0-b6e4-67b08196f11e"},"vehicle_type_id":"4","last_reported":1765873080,"current_range_meters":8000,"station_id":"ce4bgjh2rcd13ifvqbf0","pricing_plan_id":"cebpf4jnsgd1na2vs0mg"},{"bike_id":"9741f9d1-0749-4c54-9d88-227690d6af0c","system_id":"levelo_inurba_marseille","lat":43.26203,"lon":5.37929,"is_reserved":false,"is_disabled":false,"rental_uris":{"android":"levelo://app?vid=9741f9d1-0749-4c54-9d88-227690d6af0c","ios":"levelo://app?vid=9741f9d1-0749-4c54-9d88-227690d6af0c"},"vehicle_type_id":"4","last_reported":1765873080,"current_range_meters":8000,"station_id":"ce4bhjp2rcd13ifvqg90","pricing_plan_id":"cebpf4jnsgd1na2vs0mg"},{"bike_id":"63332f30-5bf6-403c-9156-3e59b8502d98","system_id":"levelo_inurba_marseille","lat":43.250887,"lon":5.39527,"is_reserved":false,"is_disabled":true,"rental_uris":{"android":"levelo://app?vid=63332f30-5bf6-403c-9156-3e59b8502d98","ios":"levelo://app?vid=63332f30-5bf6-403c-9156-3e59b8502d98"},"vehicle_type_id":"4","last_reported":1765873080,"current_range_meters":8400,"station_id":"ce4bhm12rcd13ifvqgkg","pricing_plan_id":"cebpf4jnsgd1na2vs0mg"},{"bike_id":"bf3328b4-a126-41a3-a802-d73cfdd2e9b3","system_id":"levelo_inurba_marseille","lat":43.24083,"lon":5.37743,"is_reserved":false,"is_disabled":false,"rental_uris":{"android":"levelo://app?vid=bf3328b4-a126-41a3-a802-d73cfdd2e9b3","ios":"levelo://app?vid=bf3328b4-a126-41a3-a802-d73cfdd2e9b3"},"vehicle_type_id":"4","last_reported":1765873080,"current_range_meters":8400,"station_id":"ce4bhnp2rcd13ifvqgvg","pricing_plan_id":"cebpf4jnsgd1na2vs0mg"},{"bike_id":"9cf68f79-d336-42b4-98d2-f3399d75a0fa","system_id":"levelo_inurba_marseille","lat":43.314821,"lon":5.373226,"is_reserved":false,"is_disabled":false,"rental_uris":{"android":"levelo://app?vid=9cf68f79-d336-42b4-98d2-f3399d75a0fa","ios":"levelo://app?vid=9cf68f79-d336-42b4-98d2-f3399d75a0fa"},"vehicle_type_id":"4","last_reported":1765873080,"current_range_meters":8400,"station_id":"ce4bgr92rcd13ifvqc6g","pricing_plan_id":"cebpf4jnsgd1na2vs0mg"},{"bike_id":"d3c83fe0-d981-40bd-809a-723ce3ba3f18","system_id":"levelo_inurba_marseille","lat":43.31564,"lon":5.3667,"is_reserved":false,"is_disabled":false,"rental_uris":{"android":"levelo://app?vid=d3c83fe0-d981-40bd-809a-723ce3ba3f18","ios":"levelo://app?vid=d3c83fe0-d981-40bd-809a-723ce3ba3f18"},"vehicle_type_id":"4","last_reported":1765873080,"current_range_meters":8400,"station_id":"","pricing_plan_id":"cebpf4jnsgd1na2vs0mg"},{"bike_id":"4a1f25c7-6d68-48a5-af50-dce97ab3d3d8","system_id":"levelo_inurba_marseille","lat":43.30576,"lon":5.37217,"is_reserved":false,"is_disabled":false,"rental_uris":{"android":"levelo://app?vid=4a1f25c7-6d68-48a5-af50-dce97ab3d3d8","ios":"levelo://app?vid=4a1f25c7-6d68-48a5-af50-dce97ab3d3d8"},"vehicle_type_id":"4","last_reported":1765873080,"current_range_meters":8400,"station_id":"ce4bgqh2rcd13ifvqc4g","pricing_plan_id":"cebpf4jnsgd1na2vs0mg"},{"bike_id":"1826ec89-198b-4cc1-977e-bafe3608ecf3","system_id":"levelo_inurba_marseille","lat":43.291726,"lon":5.375183,"is_reserved":false,"is_disabled":false,"rental_uris":{"android":"levelo://app?vid=1826ec89-198b-4cc1-977e-bafe3608ecf3","ios":"levelo://app?vid=1826ec89-198b-4cc1-977e-bafe3608ecf3"},"vehicle_type_id":"4","last_reported":1765873080,"current_range_meters":8400,"station_id":"ce4bgi12rcd13ifvqb80","pricing_plan_id":"cebpf4jnsgd1na2vs0mg"},{"bike_id":"8f2fd512-f1e5-4ad1-80ef-cde024037399","system_id":"levelo_inurba_marseille","lat":43.28257,"lon":5.39083,"is_reserved":false,"is_disabled":false,"rental_uris":{"android":"levelo://app?vid=8f2fd512-f1e5-4ad1-80ef-cde024037399","ios":"levelo://app?vid=8f2fd512-f1e5-4ad1-80ef-cde024037399"},"vehicle_type_id":"4","last_reported":1765873080,"current_range_meters":8400,"station_id":"ce4bhn92rcd13ifvqgsg","pricing_plan_id":"cebpf4jnsgd1na2vs0mg"},{"bike_id":"5e7e082d-c949-4efd-b442-be6d0cf3943e","system_id":"levelo_inurba_marseille","lat":43.24533,"lon":5.40005,"is_reserved":false,"is_disabled":false,"rental_uris":{"android":"levelo://app?vid=5e7e082d-c949-4efd-b442-be6d0cf3943e","ios":"levelo://app?vid=5e7e082d-c949-4efd-b442-be6d0cf3943e"},"vehicle_type_id":"4","last_reported":1765873080,"current_range_meters":8400,"station_id":"","pricing_plan_id":"cebpf4jnsgd1na2vs0mg"},{"bike_id":"f85fbcc2-43b7-431b-87b0-1ec9eecd5176","system_id":"levelo_inurba_marseille","lat":43.31224,"lon":5.36843,"is_reserved":false,"is_disabled":false,"rental_uris":{"android":"levelo://app?vid=f85fbcc2-43b7-431b-87b0-1ec9eecd5176","ios":"levelo://app?vid=f85fbcc2-43b7-431b-87b0-1ec9eecd5176"},"vehicle_type_id":"4","last_reported":1765873080,"current_range_meters":8400,"station_id":"ce4bgl92rcd13ifvqbq0","pricing_plan_id":"cebpf4jnsgd1na2vs0mg"},{"bike_id":"6232ce8f-5150-4652-a023-744e45fc7cff","system_id":"levelo_inurba_marseille","lat":43.25314,"lon":5.40221,"is_reserved":false,"is_disabled":true,"rental_uris":{"android":"levelo://app?vid=6232ce8f-5150-4652-a023-744e45fc7cff","ios":"levelo://app?vid=6232ce8f-5150-4652-a023-744e45fc7cff"},"vehicle_type_id":"4","last_reported":1765873080,"current_range_meters":8400,"station_id":"","pricing_plan_id":"cebpf4jnsgd1na2vs0mg"},{"bike_id":"9916aee8-38ee-4718-8ab5-188be146fb87","system_id":"levelo_inurba_marseille","lat":43.30109,"lon":5.36554,"is_reserved":false,"is_disabled":false,"rental_uris":{"android":"levelo://app?vid=9916aee8-38ee-4718-8ab5-188be146fb87","ios":"levelo://app?vid=9916aee8-38ee-4718-8ab5-188be146fb87"},"vehicle_type_id":"4","last_reported":1765873080,"current_range_meters":8400,"station_id":"","pricing_plan_id":"cebpf4jnsgd1na2vs0mg"},{"bike_id":"d539bdd0-6ce2-43e1-872b-617430659b95","system_id":"levelo_inurba_marseille","lat":43.27533,"lon":5.423888,"is_reserved":false,"is_disabled":false,"rental_uris":{"android":"levelo://app?vid=d539bdd0-6ce2-43e1-872b-617430659b95","ios":"levelo://app?vid=d539bdd0-6ce2-43e1-872b-617430659b95"},"vehicle_type_id":"4","last_reported":1765873080,"current_range_meters":8400,"station_id":"ce4bhkp2rcd13ifvqgd0","pricing_plan_id":"cebpf4jnsgd1na2vs0mg"},{"bike_id":"2a8bada9-5768-40be-8c1a-c6eea934d5f7","system_id":"levelo_inurba_marseille","lat":43.279617,"lon":5.387071,"is_reserved":false,"is_disabled":false,"rental_uris":{"android":"levelo://app?vid=2a8bada9-5768-40be-8c1a-c6eea934d5f7","ios":"levelo://app?vid=2a8bada9-5768-40be-8c1a-c6eea934d5f7"},"vehicle_type_id":"4","last_reported":1765873080,"current_range_meters":8800,"station_id":"ce4bhg12rcd13ifvqf80","pricing_plan_id":"cebpf4jnsgd1na2vs0mg"},{"bike_id":"eb43cc8c-2b72-4b8d-8128-f7fd3e6f9e6d","system_id":"levelo_inurba_marseille","lat":43.28756,"lon":5.37971,"is_reserved":false,"is_disabled":false,"rental_uris":{"android":"levelo://app?vid=eb43cc8c-2b72-4b8d-8128-f7fd3e6f9e6d","ios":"levelo://app?vid=eb43cc8c-2b72-4b8d-8128-f7fd3e6f9e6d"},"vehicle_type_id":"4","last_reported":1765873080,"current_range_meters":8800,"station_id":"ce4bh9p2rcd13ifvqec0","pricing_plan_id":"cebpf4jnsgd1na2vs0mg"},{"bike_id":"00504226-847c-49a0-9c79-6b614bc8e830","system_id":"levelo_inurba_marseille","lat":43.244817,"lon":5.396016,"is_reserved":false,"is_disabled":false,"rental_uris":{"android":"levelo://app?vid=00504226-847c-49a0-9c79-6b614bc8e830","ios":"levelo://app?vid=00504226-847c-49a0-9c79-6b614bc8e830"},"vehicle_type_id":"4","last_reported":1765873080,"current_range_meters":8800,"station_id":"ce4bhh92rcd13ifvqfj0","pricing_plan_id":"cebpf4jnsgd1na2vs0mg"},{"bike_id":"7c39609e-dc77-4cc0-885b-f4bdf8c8fb3a","system_id":"levelo_inurba_marseille","lat":43.32347,"lon":5.36726,"is_reserved":false,"is_disabled":false,"rental_uris":{"android":"levelo://app?vid=7c39609e-dc77-4cc0-885b-f4bdf8c8fb3a","ios":"levelo://app?vid=7c39609e-dc77-4cc0-885b-f4bdf8c8fb3a"},"vehicle_type_id":"4","last_reported":1765873080,"current_range_meters":8800,"station_id":"ce4bhsh2rcd13ifvqi2g","pricing_plan_id":"cebpf4jnsgd1na2vs0mg"},{"bike_id":"e9821f77-d69e-4478-862a-e32869449655","system_id":"levelo_inurba_marseille","lat":43.24162,"lon":5.364,"is_reserved":false,"is_disabled":false,"rental_uris":{"android":"levelo://app?vid=e9821f77-d69e-4478-862a-e32869449655","ios":"levelo://app?vid=e9821f77-d69e-4478-862a-e32869449655"},"vehicle_type_id":"4","last_reported":1765873080,"current_range_meters":8800,"station_id":"cpo36qri1sfpv3e86is0","pricing_plan_id":"cebpf4jnsgd1na2vs0mg"},{"bike_id":"52091023-05d4-48e3-8fb0-f59c094096be","system_id":"levelo_inurba_marseille","lat":43.28225,"lon":5.39059,"is_reserved":false,"is_disabled":false,"rental_uris":{"android":"levelo://app?vid=52091023-05d4-48e3-8fb0-f59c094096be","ios":"levelo://app?vid=52091023-05d4-48e3-8fb0-f59c094096be"},"vehicle_type_id":"4","last_reported":1765873080,"current_range_meters":8800,"station_id":"ce4bhn92rcd13ifvqgsg","pricing_plan_id":"cebpf4jnsgd1na2vs0mg"},{"bike_id":"c9748c19-2d05-4f62-8243-55cd64489012","system_id":"levelo_inurba_marseille","lat":43.31349,"lon":5.36718,"is_reserved":false,"is_disabled":false,"rental_uris":{"android":"levelo://app?vid=c9748c19-2d05-4f62-8243-55cd64489012","ios":"levelo://app?vid=c9748c19-2d05-4f62-8243-55cd64489012"},"vehicle_type_id":"4","last_reported":1765873080,"current_range_meters":8800,"station_id":"ce4bgr92rcd13ifvqc6g","pricing_plan_id":"cebpf4jnsgd1na2vs0mg"},{"bike_id":"eeeee458-bcb8-4831-9f1e-0cb0a83966c8","system_id":"levelo_inurba_marseille","lat":43.29569,"lon":5.37538,"is_reserved":false,"is_disabled":false,"rental_uris":{"android":"levelo://app?vid=eeeee458-bcb8-4831-9f1e-0cb0a83966c8","ios":"levelo://app?vid=eeeee458-bcb8-4831-9f1e-0cb0a83966c8"},"vehicle_type_id":"4","last_reported":1765873080,"current_range_meters":9200,"station_id":"ce4bgh92rcd13ifvqb50","pricing_plan_id":"cebpf4jnsgd1na2vs0mg"},{"bike_id":"985e76d9-f377-42e6-8fe2-ca92cc88db73","system_id":"levelo_inurba_marseille","lat":43.313426,"lon":5.367132,"is_reserved":false,"is_disabled":false,"rental_uris":{"android":"levelo://app?vid=985e76d9-f377-42e6-8fe2-ca92cc88db73","ios":"levelo://app?vid=985e76d9-f377-42e6-8fe2-ca92cc88db73"},"vehicle_type_id":"4","last_reported":1765873080,"current_range_meters":9200,"station_id":"ce4bgr92rcd13ifvqc6g","pricing_plan_id":"cebpf4jnsgd1na2vs0mg"},{"bike_id":"28367758-0a16-4e28-b1aa-86f9986dd43c","system_id":"levelo_inurba_marseille","lat":43.24078,"lon":5.37745,"is_reserved":false,"is_disabled":false,"rental_uris":{"android":"levelo://app?vid=28367758-0a16-4e28-b1aa-86f9986dd43c","ios":"levelo://app?vid=28367758-0a16-4e28-b1aa-86f9986dd43c"},"vehicle_type_id":"4","last_reported":1765873080,"current_range_meters":9200,"station_id":"ce4bhnp2rcd13ifvqgvg","pricing_plan_id":"cebpf4jnsgd1na2vs0mg"},{"bike_id":"ae7030ab-2ef4-43fe-969b-2771e6ce928f","system_id":"levelo_inurba_marseille","lat":43.27981,"lon":5.41653,"is_reserved":false,"is_disabled":false,"rental_uris":{"android":"levelo://app?vid=ae7030ab-2ef4-43fe-969b-2771e6ce928f","ios":"levelo://app?vid=ae7030ab-2ef4-43fe-969b-2771e6ce928f"},"vehicle_type_id":"4","last_reported":1765873080,"current_range_meters":9200,"station_id":"ce4bho12rcd13ifvqh1g","pricing_plan_id":"cebpf4jnsgd1na2vs0mg"},{"bike_id":"e080d691-4951-43e9-9ffd-9277319373bb","system_id":"levelo_inurba_marseille","lat":43.316035,"lon":5.379218,"is_reserved":false,"is_disabled":false,"rental_uris":{"android":"levelo://app?vid=e080d691-4951-43e9-9ffd-9277319373bb","ios":"levelo://app?vid=e080d691-4951-43e9-9ffd-9277319373bb"},"vehicle_type_id":"4","last_reported":1765873080,"current_range_meters":9200,"station_id":"","pricing_plan_id":"cebpf4jnsgd1na2vs0mg"},{"bike_id":"b3017178-55b4-4238-8f58-051c7a4b328b","system_id":"levelo_inurba_marseille","lat":43.28537,"lon":5.44115,"is_reserved":false,"is_disabled":false,"rental_uris":{"android":"levelo://app?vid=b3017178-55b4-4238-8f58-051c7a4b328b","ios":"levelo://app?vid=b3017178-55b4-4238-8f58-051c7a4b328b"},"vehicle_type_id":"4","last_reported":1765873080,"current_range_meters":9200,"station_id":"st_d3j3df2ikq2c7380ej80","pricing_plan_id":"cebpf4jnsgd1na2vs0mg"},{"bike_id":"7c36070f-bddc-40ed-a333-875a2d58c60c","system_id":"levelo_inurba_marseille","lat":43.26523,"lon":5.39488,"is_reserved":false,"is_disabled":false,"rental_uris":{"android":"levelo://app?vid=7c36070f-bddc-40ed-a333-875a2d58c60c","ios":"levelo://app?vid=7c36070f-bddc-40ed-a333-875a2d58c60c"},"vehicle_type_id":"4","last_reported":1765873080,"current_range_meters":9200,"station_id":"","pricing_plan_id":"cebpf4jnsgd1na2vs0mg"},{"bike_id":"3de2a075-a10e-4d92-beb9-0af3e8cd5e05","system_id":"levelo_inurba_marseille","lat":43.24367,"lon":5.37114,"is_reserved":false,"is_disabled":false,"rental_uris":{"android":"levelo://app?vid=3de2a075-a10e-4d92-beb9-0af3e8cd5e05","ios":"levelo://app?vid=3de2a075-a10e-4d92-beb9-0af3e8cd5e05"},"vehicle_type_id":"4","last_reported":1765873080,"current_range_meters":9200,"station_id":"ce4bhhh2rcd13ifvqfk0","pricing_plan_id":"cebpf4jnsgd1na2vs0mg"},{"bike_id":"dcfadab8-6e86-45e7-bb8d-ee08fa5cf4ac","system_id":"levelo_inurba_marseille","lat":43.292658,"lon":5.384332,"is_reserved":false,"is_disabled":false,"rental_uris":{"android":"levelo://app?vid=dcfadab8-6e86-45e7-bb8d-ee08fa5cf4ac","ios":"levelo://app?vid=dcfadab8-6e86-45e7-bb8d-ee08fa5cf4ac"},"vehicle_type_id":"4","last_reported":1765873080,"current_range_meters":9200,"station_id":"ce4bh692rcd13ifvqea0","pricing_plan_id":"cebpf4jnsgd1na2vs0mg"},{"bike_id":"71c374e3-46db-4c02-bb99-654d45f755db","system_id":"levelo_inurba_marseille","lat":43.301384,"lon":5.374319,"is_reserved":false,"is_disabled":false,"rental_uris":{"android":"levelo://app?vid=71c374e3-46db-4c02-bb99-654d45f755db","ios":"levelo://app?vid=71c374e3-46db-4c02-bb99-654d45f755db"},"vehicle_type_id":"4","last_reported":1765873080,"current_range_meters":9200,"station_id":"ce4bgs92rcd13ifvqcc0","pricing_plan_id":"cebpf4jnsgd1na2vs0mg"},{"bike_id":"cc80642b-199d-4022-8dd5-08fd34cff241","system_id":"levelo_inurba_marseille","lat":43.23135,"lon":5.43715,"is_reserved":false,"is_disabled":false,"rental_uris":{"android":"levelo://app?vid=cc80642b-199d-4022-8dd5-08fd34cff241","ios":"levelo://app?vid=cc80642b-199d-4022-8dd5-08fd34cff241"},"vehicle_type_id":"4","last_reported":1765873080,"current_range_meters":9200,"station_id":"ce4bhmp2rcd13ifvqgog","pricing_plan_id":"cebpf4jnsgd1na2vs0mg"},{"bike_id":"a295ca49-051d-48c7-83a5-0e5433263418","system_id":"levelo_inurba_marseille","lat":43.24081,"lon":5.37761,"is_reserved":false,"is_disabled":false,"rental_uris":{"android":"levelo://app?vid=a295ca49-051d-48c7-83a5-0e5433263418","ios":"levelo://app?vid=a295ca49-051d-48c7-83a5-0e5433263418"},"vehicle_type_id":"4","last_reported":1765873080,"current_range_meters":9200,"station_id":"ce4bhnp2rcd13ifvqgvg","pricing_plan_id":"cebpf4jnsgd1na2vs0mg"},{"bike_id":"3048db32-4eef-415b-a243-a937fd278390","system_id":"levelo_inurba_marseille","lat":43.26679,"lon":5.38273,"is_reserved":false,"is_disabled":false,"rental_uris":{"android":"levelo://app?vid=3048db32-4eef-415b-a243-a937fd278390","ios":"levelo://app?vid=3048db32-4eef-415b-a243-a937fd278390"},"vehicle_type_id":"4","last_reported":1765873080,"current_range_meters":9200,"station_id":"ce4bhg92rcd13ifvqf90","pricing_plan_id":"cebpf4jnsgd1na2vs0mg"},{"bike_id":"a745c9ba-0f0a-4fe8-8d48-adb1bf365573","system_id":"levelo_inurba_marseille","lat":43.24949,"lon":5.40477,"is_reserved":false,"is_disabled":false,"rental_uris":{"android":"levelo://app?vid=a745c9ba-0f0a-4fe8-8d48-adb1bf365573","ios":"levelo://app?vid=a745c9ba-0f0a-4fe8-8d48-adb1bf365573"},"vehicle_type_id":"4","last_reported":1765873080,"current_range_meters":9600,"station_id":"st_d2ngiaodas8pm72gd1h0","pricing_plan_id":"cebpf4jnsgd1na2vs0mg"},{"bike_id":"d7344932-edb2-43d9-a60c-a889e3fd7da0","system_id":"levelo_inurba_marseille","lat":43.27826,"lon":5.39208,"is_reserved":false,"is_disabled":false,"rental_uris":{"android":"levelo://app?vid=d7344932-edb2-43d9-a60c-a889e3fd7da0","ios":"levelo://app?vid=d7344932-edb2-43d9-a60c-a889e3fd7da0"},"vehicle_type_id":"4","last_reported":1765873080,"current_range_meters":9600,"station_id":"","pricing_plan_id":"cebpf4jnsgd1na2vs0mg"},{"bike_id":"093f0ea0-0a2c-4205-a948-53d344b04156","system_id":"levelo_inurba_marseille","lat":43.24668,"lon":5.38171,"is_reserved":false,"is_disabled":false,"rental_uris":{"android":"levelo://app?vid=093f0ea0-0a2c-4205-a948-53d344b04156","ios":"levelo://app?vid=093f0ea0-0a2c-4205-a948-53d344b04156"},"vehicle_type_id":"4","last_reported":1765873080,"current_range_meters":9600,"station_id":"ce4bhih2rcd13ifvqfr0","pricing_plan_id":"cebpf4jnsgd1na2vs0mg"},{"bike_id":"ec1d195a-bb3b-4d9e-b117-956760699971","system_id":"levelo_inurba_marseille","lat":43.265598,"lon":5.372963,"is_reserved":false,"is_disabled":false,"rental_uris":{"android":"levelo://app?vid=ec1d195a-bb3b-4d9e-b117-956760699971","ios":"levelo://app?vid=ec1d195a-bb3b-4d9e-b117-956760699971"},"vehicle_type_id":"4","last_reported":1765873080,"current_range_meters":9600,"station_id":"ce4bhg12rcd13ifvqf70","pricing_plan_id":"cebpf4jnsgd1na2vs0mg"},{"bike_id":"643eaa91-ad0e-4ec1-8669-7acd46c268f8","system_id":"levelo_inurba_marseille","lat":43.26218,"lon":5.40469,"is_reserved":false,"is_disabled":false,"rental_uris":{"android":"levelo://app?vid=643eaa91-ad0e-4ec1-8669-7acd46c268f8","ios":"levelo://app?vid=643eaa91-ad0e-4ec1-8669-7acd46c268f8"},"vehicle_type_id":"4","last_reported":1765873080,"current_range_meters":9600,"station_id":"ce4bhmh2rcd13ifvqgmg","pricing_plan_id":"cebpf4jnsgd1na2vs0mg"},{"bike_id":"3117ca1d-378a-467e-b15e-c4566a545417","system_id":"levelo_inurba_marseille","lat":43.31687,"lon":5.4047,"is_reserved":false,"is_disabled":false,"rental_uris":{"android":"levelo://app?vid=3117ca1d-378a-467e-b15e-c4566a545417","ios":"levelo://app?vid=3117ca1d-378a-467e-b15e-c4566a545417"},"vehicle_type_id":"4","last_reported":1765873080,"current_range_meters":9600,"station_id":"ce4bh012rcd13ifvqd00","pricing_plan_id":"cebpf4jnsgd1na2vs0mg"},{"bike_id":"8f107a47-cb82-4e3c-83ec-ebb13ce22fd8","system_id":"levelo_inurba_marseille","lat":43.31314,"lon":5.36922,"is_reserved":false,"is_disabled":true,"rental_uris":{"android":"levelo://app?vid=8f107a47-cb82-4e3c-83ec-ebb13ce22fd8","ios":"levelo://app?vid=8f107a47-cb82-4e3c-83ec-ebb13ce22fd8"},"vehicle_type_id":"4","last_reported":1765873080,"current_range_meters":9600,"station_id":"ce4bgl92rcd13ifvqbq0","pricing_plan_id":"cebpf4jnsgd1na2vs0mg"},{"bike_id":"2f9fe49c-fe53-4b27-9b66-9ceda4778597","system_id":"levelo_inurba_marseille","lat":43.3055,"lon":5.36541,"is_reserved":false,"is_disabled":false,"rental_uris":{"android":"levelo://app?vid=2f9fe49c-fe53-4b27-9b66-9ceda4778597","ios":"levelo://app?vid=2f9fe49c-fe53-4b27-9b66-9ceda4778597"},"vehicle_type_id":"4","last_reported":1765873080,"current_range_meters":9600,"station_id":"ce4bgs12rcd13ifvqcag","pricing_plan_id":"cebpf4jnsgd1na2vs0mg"},{"bike_id":"d0c0ef1a-0cc3-4dac-b7e8-9af1d11cd42e","system_id":"levelo_inurba_marseille","lat":43.24959,"lon":5.40502,"is_reserved":false,"is_disabled":false,"rental_uris":{"android":"levelo://app?vid=d0c0ef1a-0cc3-4dac-b7e8-9af1d11cd42e","ios":"levelo://app?vid=d0c0ef1a-0cc3-4dac-b7e8-9af1d11cd42e"},"vehicle_type_id":"4","last_reported":1765873080,"current_range_meters":9600,"station_id":"st_d2ngiaodas8pm72gd1h0","pricing_plan_id":"cebpf4jnsgd1na2vs0mg"},{"bike_id":"ddd06005-60d5-489c-b0b1-170875a9f9b2","system_id":"levelo_inurba_marseille","lat":43.24169,"lon":5.36389,"is_reserved":false,"is_disabled":false,"rental_uris":{"android":"levelo://app?vid=ddd06005-60d5-489c-b0b1-170875a9f9b2","ios":"levelo://app?vid=ddd06005-60d5-489c-b0b1-170875a9f9b2"},"vehicle_type_id":"4","last_reported":1765873080,"current_range_meters":9600,"station_id":"cpo36qri1sfpv3e86is0","pricing_plan_id":"cebpf4jnsgd1na2vs0mg"},{"bike_id":"c12a537f-314a-40f0-92d0-107922a246c3","system_id":"levelo_inurba_marseille","lat":43.30531,"lon":5.36707,"is_reserved":false,"is_disabled":false,"rental_uris":{"android":"levelo://app?vid=c12a537f-314a-40f0-92d0-107922a246c3","ios":"levelo://app?vid=c12a537f-314a-40f0-92d0-107922a246c3"},"vehicle_type_id":"4","last_reported":1765873080,"current_range_meters":10000,"station_id":"ce4bgrp2rcd13ifvqc9g","pricing_plan_id":"cebpf4jnsgd1na2vs0mg"},{"bike_id":"30d5dbed-003c-42f7-b550-ec562ee677b4","system_id":"levelo_inurba_marseille","lat":43.2985,"lon":5.3721,"is_reserved":false,"is_disabled":false,"rental_uris":{"android":"levelo://app?vid=30d5dbed-003c-42f7-b550-ec562ee677b4","ios":"levelo://app?vid=30d5dbed-003c-42f7-b550-ec562ee677b4"},"vehicle_type_id":"4","last_reported":1765873080,"current_range_meters":10000,"station_id":"","pricing_plan_id":"cebpf4jnsgd1na2vs0mg"},{"bike_id":"ef1e1dc5-0962-45c1-8729-677fcf0a776d","system_id":"levelo_inurba_marseille","lat":43.26936,"lon":5.40244,"is_reserved":false,"is_disabled":false,"rental_uris":{"android":"levelo://app?vid=ef1e1dc5-0962-45c1-8729-677fcf0a776d","ios":"levelo://app?vid=ef1e1dc5-0962-45c1-8729-677fcf0a776d"},"vehicle_type_id":"4","last_reported":1765873080,"current_range_meters":10000,"station_id":"cjm6bp8fraef2m0cb0m0","pricing_plan_id":"cebpf4jnsgd1na2vs0mg"},{"bike_id":"71c6674f-8a51-476d-bbe5-276ee5eae537","system_id":"levelo_inurba_marseille","lat":43.27062,"lon":5.42268,"is_reserved":false,"is_disabled":false,"rental_uris":{"android":"levelo://app?vid=71c6674f-8a51-476d-bbe5-276ee5eae537","ios":"levelo://app?vid=71c6674f-8a51-476d-bbe5-276ee5eae537"},"vehicle_type_id":"4","last_reported":1765873080,"current_range_meters":10000,"station_id":"ce4bhk92rcd13ifvqgb0","pricing_plan_id":"cebpf4jnsgd1na2vs0mg"},{"bike_id":"7a3e6838-9d3e-4c76-bcee-bdbba33b8ca3","system_id":"levelo_inurba_marseille","lat":43.284749,"lon":5.483974,"is_reserved":false,"is_disabled":false,"rental_uris":{"android":"levelo://app?vid=7a3e6838-9d3e-4c76-bcee-bdbba33b8ca3","ios":"levelo://app?vid=7a3e6838-9d3e-4c76-bcee-bdbba33b8ca3"},"vehicle_type_id":"4","last_reported":1765873080,"current_range_meters":10000,"station_id":"st_d3svhcjqgbts73a3dn0g","pricing_plan_id":"cebpf4jnsgd1na2vs0mg"},{"bike_id":"c73f5e3e-29f0-44b5-a8a6-2e065d742992","system_id":"levelo_inurba_marseille","lat":43.231541,"lon":5.437142,"is_reserved":false,"is_disabled":false,"rental_uris":{"android":"levelo://app?vid=c73f5e3e-29f0-44b5-a8a6-2e065d742992","ios":"levelo://app?vid=c73f5e3e-29f0-44b5-a8a6-2e065d742992"},"vehicle_type_id":"4","last_reported":1765873080,"current_range_meters":10000,"station_id":"ce4bhmp2rcd13ifvqgog","pricing_plan_id":"cebpf4jnsgd1na2vs0mg"},{"bike_id":"7f494338-d5bb-48a1-84cb-c387da3741d5","system_id":"levelo_inurba_marseille","lat":43.30176,"lon":5.36606,"is_reserved":false,"is_disabled":false,"rental_uris":{"android":"levelo://app?vid=7f494338-d5bb-48a1-84cb-c387da3741d5","ios":"levelo://app?vid=7f494338-d5bb-48a1-84cb-c387da3741d5"},"vehicle_type_id":"4","last_reported":1765873080,"current_range_meters":10000,"station_id":"ce4bgrh2rcd13ifvqc8g","pricing_plan_id":"cebpf4jnsgd1na2vs0mg"},{"bike_id":"73fd77d1-bab1-4717-aa3c-a92fadf6b506","system_id":"levelo_inurba_marseille","lat":43.308,"lon":5.38154,"is_reserved":false,"is_disabled":false,"rental_uris":{"android":"levelo://app?vid=73fd77d1-bab1-4717-aa3c-a92fadf6b506","ios":"levelo://app?vid=73fd77d1-bab1-4717-aa3c-a92fadf6b506"},"vehicle_type_id":"4","last_reported":1765873080,"current_range_meters":10800,"station_id":"ce4bgt12rcd13ifvqce0","pricing_plan_id":"cebpf4jnsgd1na2vs0mg"},{"bike_id":"bdedb51b-c0c7-4e81-8046-2d1b2001a496","system_id":"levelo_inurba_marseille","lat":43.295428,"lon":5.385475,"is_reserved":false,"is_disabled":true,"rental_uris":{"android":"levelo://app?vid=bdedb51b-c0c7-4e81-8046-2d1b2001a496","ios":"levelo://app?vid=bdedb51b-c0c7-4e81-8046-2d1b2001a496"},"vehicle_type_id":"4","last_reported":1765873080,"current_range_meters":10800,"station_id":"ce4bgih2rcd13ifvqba0","pricing_plan_id":"cebpf4jnsgd1na2vs0mg"},{"bike_id":"46aae398-32bb-4d2f-9904-ea7f73f63ecb","system_id":"levelo_inurba_marseille","lat":43.323317,"lon":5.367537,"is_reserved":false,"is_disabled":false,"rental_uris":{"android":"levelo://app?vid=46aae398-32bb-4d2f-9904-ea7f73f63ecb","ios":"levelo://app?vid=46aae398-32bb-4d2f-9904-ea7f73f63ecb"},"vehicle_type_id":"4","last_reported":1765873080,"current_range_meters":10800,"station_id":"ce4bhsh2rcd13ifvqi2g","pricing_plan_id":"cebpf4jnsgd1na2vs0mg"},{"bike_id":"8a3b2715-e8ca-4e45-af07-09c3831119c1","system_id":"levelo_inurba_marseille","lat":43.26198,"lon":5.37449,"is_reserved":false,"is_disabled":false,"rental_uris":{"android":"levelo://app?vid=8a3b2715-e8ca-4e45-af07-09c3831119c1","ios":"levelo://app?vid=8a3b2715-e8ca-4e45-af07-09c3831119c1"},"vehicle_type_id":"4","last_reported":1765873080,"current_range_meters":10800,"station_id":"ce4bhgp2rcd13ifvqfc0","pricing_plan_id":"cebpf4jnsgd1na2vs0mg"},{"bike_id":"3ef5cbca-5c9b-4cc1-b33e-56a9b9477f50","system_id":"levelo_inurba_marseille","lat":43.25934,"lon":5.40913,"is_reserved":false,"is_disabled":false,"rental_uris":{"android":"levelo://app?vid=3ef5cbca-5c9b-4cc1-b33e-56a9b9477f50","ios":"levelo://app?vid=3ef5cbca-5c9b-4cc1-b33e-56a9b9477f50"},"vehicle_type_id":"4","last_reported":1765873080,"current_range_meters":10800,"station_id":"ce4bhm92rcd13ifvqglg","pricing_plan_id":"cebpf4jnsgd1na2vs0mg"},{"bike_id":"a2fc18e1-707a-4672-a80f-86891d3176d3","system_id":"levelo_inurba_marseille","lat":43.24169,"lon":5.36395,"is_reserved":false,"is_disabled":false,"rental_uris":{"android":"levelo://app?vid=a2fc18e1-707a-4672-a80f-86891d3176d3","ios":"levelo://app?vid=a2fc18e1-707a-4672-a80f-86891d3176d3"},"vehicle_type_id":"4","last_reported":1765873080,"current_range_meters":10800,"station_id":"cpo36qri1sfpv3e86is0","pricing_plan_id":"cebpf4jnsgd1na2vs0mg"},{"bike_id":"263900a4-61b7-4741-8038-b11b0b0be0ed","system_id":"levelo_inurba_marseille","lat":43.26208,"lon":5.38851,"is_reserved":false,"is_disabled":false,"rental_uris":{"android":"levelo://app?vid=263900a4-61b7-4741-8038-b11b0b0be0ed","ios":"levelo://app?vid=263900a4-61b7-4741-8038-b11b0b0be0ed"},"vehicle_type_id":"4","last_reported":1765873080,"current_range_meters":10800,"station_id":"","pricing_plan_id":"cebpf4jnsgd1na2vs0mg"},{"bike_id":"de703928-a818-43ad-b2be-d85e3a5f72c8","system_id":"levelo_inurba_marseille","lat":43.2849,"lon":5.48392,"is_reserved":false,"is_disabled":false,"rental_uris":{"android":"levelo://app?vid=de703928-a818-43ad-b2be-d85e3a5f72c8","ios":"levelo://app?vid=de703928-a818-43ad-b2be-d85e3a5f72c8"},"vehicle_type_id":"4","last_reported":1765873080,"current_range_meters":10800,"station_id":"st_d3svhcjqgbts73a3dn0g","pricing_plan_id":"cebpf4jnsgd1na2vs0mg"},{"bike_id":"9a9f227a-939f-48b9-ac70-d2a1769bbf19","system_id":"levelo_inurba_marseille","lat":43.2951,"lon":5.37505,"is_reserved":false,"is_disabled":false,"rental_uris":{"android":"levelo://app?vid=9a9f227a-939f-48b9-ac70-d2a1769bbf19","ios":"levelo://app?vid=9a9f227a-939f-48b9-ac70-d2a1769bbf19"},"vehicle_type_id":"4","last_reported":1765873080,"current_range_meters":10800,"station_id":"ce4bgkp2rcd13ifvqbmg","pricing_plan_id":"cebpf4jnsgd1na2vs0mg"},{"bike_id":"dd423d26-5f78-43a6-bc5e-82662f91f3d3","system_id":"levelo_inurba_marseille","lat":43.280989,"lon":5.406496,"is_reserved":false,"is_disabled":false,"rental_uris":{"android":"levelo://app?vid=dd423d26-5f78-43a6-bc5e-82662f91f3d3","ios":"levelo://app?vid=dd423d26-5f78-43a6-bc5e-82662f91f3d3"},"vehicle_type_id":"4","last_reported":1765873080,"current_range_meters":11200,"station_id":"ce4bhnp2rcd13ifvqh0g","pricing_plan_id":"cebpf4jnsgd1na2vs0mg"},{"bike_id":"787c48a6-fe95-4f8b-b232-85050067ce78","system_id":"levelo_inurba_marseille","lat":43.28977,"lon":5.37838,"is_reserved":false,"is_disabled":false,"rental_uris":{"android":"levelo://app?vid=787c48a6-fe95-4f8b-b232-85050067ce78","ios":"levelo://app?vid=787c48a6-fe95-4f8b-b232-85050067ce78"},"vehicle_type_id":"4","last_reported":1765873080,"current_range_meters":11200,"station_id":"ce4bh9p2rcd13ifvqed0","pricing_plan_id":"cebpf4jnsgd1na2vs0mg"},{"bike_id":"6548654c-e9fc-4bba-bd8e-ce04115acc7a","system_id":"levelo_inurba_marseille","lat":43.31438,"lon":5.37425,"is_reserved":false,"is_disabled":false,"rental_uris":{"android":"levelo://app?vid=6548654c-e9fc-4bba-bd8e-ce04115acc7a","ios":"levelo://app?vid=6548654c-e9fc-4bba-bd8e-ce04115acc7a"},"vehicle_type_id":"4","last_reported":1765873080,"current_range_meters":11200,"station_id":"","pricing_plan_id":"cebpf4jnsgd1na2vs0mg"},{"bike_id":"dbec88c0-235f-491f-afbd-59cea4570332","system_id":"levelo_inurba_marseille","lat":43.31764,"lon":5.39008,"is_reserved":false,"is_disabled":false,"rental_uris":{"android":"levelo://app?vid=dbec88c0-235f-491f-afbd-59cea4570332","ios":"levelo://app?vid=dbec88c0-235f-491f-afbd-59cea4570332"},"vehicle_type_id":"4","last_reported":1765873080,"current_range_meters":11200,"station_id":"ce4bhqp2rcd13ifvqhng","pricing_plan_id":"cebpf4jnsgd1na2vs0mg"},{"bike_id":"a0250cd9-047b-4dcb-96a7-b1959783fdaf","system_id":"levelo_inurba_marseille","lat":43.33751,"lon":5.37439,"is_reserved":false,"is_disabled":false,"rental_uris":{"android":"levelo://app?vid=a0250cd9-047b-4dcb-96a7-b1959783fdaf","ios":"levelo://app?vid=a0250cd9-047b-4dcb-96a7-b1959783fdaf"},"vehicle_type_id":"4","last_reported":1765873080,"current_range_meters":11200,"station_id":"","pricing_plan_id":"cebpf4jnsgd1na2vs0mg"},{"bike_id":"9b173e86-3ede-4973-b8cb-b42ea2c91907","system_id":"levelo_inurba_marseille","lat":43.310213,"lon":5.393437,"is_reserved":false,"is_disabled":false,"rental_uris":{"android":"levelo://app?vid=9b173e86-3ede-4973-b8cb-b42ea2c91907","ios":"levelo://app?vid=9b173e86-3ede-4973-b8cb-b42ea2c91907"},"vehicle_type_id":"4","last_reported":1765873080,"current_range_meters":11200,"station_id":"","pricing_plan_id":"cebpf4jnsgd1na2vs0mg"},{"bike_id":"91c4a3d0-f9b3-4496-a027-806e24def1e5","system_id":"levelo_inurba_marseille","lat":43.23192,"lon":5.399695,"is_reserved":false,"is_disabled":false,"rental_uris":{"android":"levelo://app?vid=91c4a3d0-f9b3-4496-a027-806e24def1e5","ios":"levelo://app?vid=91c4a3d0-f9b3-4496-a027-806e24def1e5"},"vehicle_type_id":"4","last_reported":1765873080,"current_range_meters":11200,"station_id":"ce4bhn12rcd13ifvqgqg","pricing_plan_id":"cebpf4jnsgd1na2vs0mg"},{"bike_id":"e4f28ea0-61a9-4851-b44c-3eb4e7ab6875","system_id":"levelo_inurba_marseille","lat":43.29004,"lon":5.35613,"is_reserved":false,"is_disabled":false,"rental_uris":{"android":"levelo://app?vid=e4f28ea0-61a9-4851-b44c-3eb4e7ab6875","ios":"levelo://app?vid=e4f28ea0-61a9-4851-b44c-3eb4e7ab6875"},"vehicle_type_id":"4","last_reported":1765873080,"current_range_meters":11200,"station_id":"ce4bhb92rcd13ifvqen0","pricing_plan_id":"cebpf4jnsgd1na2vs0mg"},{"bike_id":"4d8c92d6-3619-42ef-a0d6-86695e73cb78","system_id":"levelo_inurba_marseille","lat":43.3027,"lon":5.36946,"is_reserved":false,"is_disabled":false,"rental_uris":{"android":"levelo://app?vid=4d8c92d6-3619-42ef-a0d6-86695e73cb78","ios":"levelo://app?vid=4d8c92d6-3619-42ef-a0d6-86695e73cb78"},"vehicle_type_id":"4","last_reported":1765873080,"current_range_meters":11600,"station_id":"","pricing_plan_id":"cebpf4jnsgd1na2vs0mg"},{"bike_id":"b22f70f8-c38a-48c8-ba8a-3d0213881cc7","system_id":"levelo_inurba_marseille","lat":43.24081,"lon":5.3775,"is_reserved":false,"is_disabled":false,"rental_uris":{"android":"levelo://app?vid=b22f70f8-c38a-48c8-ba8a-3d0213881cc7","ios":"levelo://app?vid=b22f70f8-c38a-48c8-ba8a-3d0213881cc7"},"vehicle_type_id":"4","last_reported":1765873080,"current_range_meters":11600,"station_id":"ce4bhnp2rcd13ifvqgvg","pricing_plan_id":"cebpf4jnsgd1na2vs0mg"},{"bike_id":"9f0f320a-9e34-4af8-8f6f-7a4152825910","system_id":"levelo_inurba_marseille","lat":43.301265,"lon":5.431118,"is_reserved":false,"is_disabled":false,"rental_uris":{"android":"levelo://app?vid=9f0f320a-9e34-4af8-8f6f-7a4152825910","ios":"levelo://app?vid=9f0f320a-9e34-4af8-8f6f-7a4152825910"},"vehicle_type_id":"4","last_reported":1765873080,"current_range_meters":11600,"station_id":"st_d3js3co5814s73ftftug","pricing_plan_id":"cebpf4jnsgd1na2vs0mg"},{"bike_id":"d8c538d2-aacd-459c-b1e1-26100903242e","system_id":"levelo_inurba_marseille","lat":43.31358,"lon":5.36695,"is_reserved":false,"is_disabled":false,"rental_uris":{"android":"levelo://app?vid=d8c538d2-aacd-459c-b1e1-26100903242e","ios":"levelo://app?vid=d8c538d2-aacd-459c-b1e1-26100903242e"},"vehicle_type_id":"4","last_reported":1765873080,"current_range_meters":11600,"station_id":"ce4bgr92rcd13ifvqc6g","pricing_plan_id":"cebpf4jnsgd1na2vs0mg"},{"bike_id":"46b9da8e-600f-4b77-a964-111e9eafd3fa","system_id":"levelo_inurba_marseille","lat":43.26457,"lon":5.37361,"is_reserved":false,"is_disabled":false,"rental_uris":{"android":"levelo://app?vid=46b9da8e-600f-4b77-a964-111e9eafd3fa","ios":"levelo://app?vid=46b9da8e-600f-4b77-a964-111e9eafd3fa"},"vehicle_type_id":"4","last_reported":1765873080,"current_range_meters":11600,"station_id":"","pricing_plan_id":"cebpf4jnsgd1na2vs0mg"},{"bike_id":"d983aa07-16c7-467c-93ab-2f19c3dc06bb","system_id":"levelo_inurba_marseille","lat":43.2898,"lon":5.3784,"is_reserved":false,"is_disabled":false,"rental_uris":{"android":"levelo://app?vid=d983aa07-16c7-467c-93ab-2f19c3dc06bb","ios":"levelo://app?vid=d983aa07-16c7-467c-93ab-2f19c3dc06bb"},"vehicle_type_id":"4","last_reported":1765873080,"current_range_meters":11600,"station_id":"","pricing_plan_id":"cebpf4jnsgd1na2vs0mg"},{"bike_id":"ff9b51ad-3f95-4e59-a805-56b1e104b3d0","system_id":"levelo_inurba_marseille","lat":43.24077,"lon":5.37755,"is_reserved":false,"is_disabled":false,"rental_uris":{"android":"levelo://app?vid=ff9b51ad-3f95-4e59-a805-56b1e104b3d0","ios":"levelo://app?vid=ff9b51ad-3f95-4e59-a805-56b1e104b3d0"},"vehicle_type_id":"4","last_reported":1765873080,"current_range_meters":11600,"station_id":"ce4bhnp2rcd13ifvqgvg","pricing_plan_id":"cebpf4jnsgd1na2vs0mg"},{"bike_id":"a163db2b-47cb-4232-bb06-5c8fd5958467","system_id":"levelo_inurba_marseille","lat":43.25836,"lon":5.39485,"is_reserved":false,"is_disabled":false,"rental_uris":{"android":"levelo://app?vid=a163db2b-47cb-4232-bb06-5c8fd5958467","ios":"levelo://app?vid=a163db2b-47cb-4232-bb06-5c8fd5958467"},"vehicle_type_id":"4","last_reported":1765873080,"current_range_meters":11600,"station_id":"ce4bhip2rcd13ifvqft0","pricing_plan_id":"cebpf4jnsgd1na2vs0mg"},{"bike_id":"17a1eb67-701f-4c59-86b7-20cd06b3ac4b","system_id":"levelo_inurba_marseille","lat":43.336,"lon":5.41036,"is_reserved":false,"is_disabled":false,"rental_uris":{"android":"levelo://app?vid=17a1eb67-701f-4c59-86b7-20cd06b3ac4b","ios":"levelo://app?vid=17a1eb67-701f-4c59-86b7-20cd06b3ac4b"},"vehicle_type_id":"4","last_reported":1765873080,"current_range_meters":11600,"station_id":"ce4bhqh2rcd13ifvqhmg","pricing_plan_id":"cebpf4jnsgd1na2vs0mg"},{"bike_id":"08e06d6d-9496-4403-b8a2-10349ecf84a3","system_id":"levelo_inurba_marseille","lat":43.30118,"lon":5.43119,"is_reserved":false,"is_disabled":false,"rental_uris":{"android":"levelo://app?vid=08e06d6d-9496-4403-b8a2-10349ecf84a3","ios":"levelo://app?vid=08e06d6d-9496-4403-b8a2-10349ecf84a3"},"vehicle_type_id":"4","last_reported":1765873080,"current_range_meters":12000,"station_id":"st_d3js3co5814s73ftftug","pricing_plan_id":"cebpf4jnsgd1na2vs0mg"},{"bike_id":"6df4c56c-c6f5-4fb1-84fc-9f50cb5ef178","system_id":"levelo_inurba_marseille","lat":43.23186,"lon":5.35535,"is_reserved":false,"is_disabled":true,"rental_uris":{"android":"levelo://app?vid=6df4c56c-c6f5-4fb1-84fc-9f50cb5ef178","ios":"levelo://app?vid=6df4c56c-c6f5-4fb1-84fc-9f50cb5ef178"},"vehicle_type_id":"4","last_reported":1765873080,"current_range_meters":12000,"station_id":"ce4bhu92rcd13ifvqi70","pricing_plan_id":"cebpf4jnsgd1na2vs0mg"},{"bike_id":"cac87912-c676-4b2a-bd7b-433323e0f09c","system_id":"levelo_inurba_marseille","lat":43.28538,"lon":5.44077,"is_reserved":false,"is_disabled":false,"rental_uris":{"android":"levelo://app?vid=cac87912-c676-4b2a-bd7b-433323e0f09c","ios":"levelo://app?vid=cac87912-c676-4b2a-bd7b-433323e0f09c"},"vehicle_type_id":"4","last_reported":1765873080,"current_range_meters":12000,"station_id":"st_d3j3df2ikq2c7380ej80","pricing_plan_id":"cebpf4jnsgd1na2vs0mg"},{"bike_id":"7bf7a65c-4c17-43bc-bd0b-d4d0208f9159","system_id":"levelo_inurba_marseille","lat":43.283537,"lon":5.380975,"is_reserved":false,"is_disabled":false,"rental_uris":{"android":"levelo://app?vid=7bf7a65c-4c17-43bc-bd0b-d4d0208f9159","ios":"levelo://app?vid=7bf7a65c-4c17-43bc-bd0b-d4d0208f9159"},"vehicle_type_id":"4","last_reported":1765873080,"current_range_meters":12000,"station_id":"ce4bh412rcd13ifvqdr0","pricing_plan_id":"cebpf4jnsgd1na2vs0mg"},{"bike_id":"72ed8329-b704-4a69-b544-e527154655f8","system_id":"levelo_inurba_marseille","lat":43.25721,"lon":5.41111,"is_reserved":false,"is_disabled":false,"rental_uris":{"android":"levelo://app?vid=72ed8329-b704-4a69-b544-e527154655f8","ios":"levelo://app?vid=72ed8329-b704-4a69-b544-e527154655f8"},"vehicle_type_id":"4","last_reported":1765873080,"current_range_meters":12000,"station_id":"ce4bhkp2rcd13ifvqgd0","pricing_plan_id":"cebpf4jnsgd1na2vs0mg"},{"bike_id":"5af242e8-7e04-4d52-adb3-be60671fad57","system_id":"levelo_inurba_marseille","lat":43.30133,"lon":5.43132,"is_reserved":false,"is_disabled":false,"rental_uris":{"android":"levelo://app?vid=5af242e8-7e04-4d52-adb3-be60671fad57","ios":"levelo://app?vid=5af242e8-7e04-4d52-adb3-be60671fad57"},"vehicle_type_id":"4","last_reported":1765873080,"current_range_meters":12000,"station_id":"st_d3js3co5814s73ftftug","pricing_plan_id":"cebpf4jnsgd1na2vs0mg"},{"bike_id":"1b610a4c-5b4a-4f37-9c20-f84d42466071","system_id":"levelo_inurba_marseille","lat":43.24077,"lon":5.37757,"is_reserved":false,"is_disabled":false,"rental_uris":{"android":"levelo://app?vid=1b610a4c-5b4a-4f37-9c20-f84d42466071","ios":"levelo://app?vid=1b610a4c-5b4a-4f37-9c20-f84d42466071"},"vehicle_type_id":"4","last_reported":1765873080,"current_range_meters":12000,"station_id":"ce4bhnp2rcd13ifvqgvg","pricing_plan_id":"cebpf4jnsgd1na2vs0mg"},{"bike_id":"a3d8b7bf-5661-4735-8391-0efcce344185","system_id":"levelo_inurba_marseille","lat":43.24391,"lon":5.37048,"is_reserved":false,"is_disabled":false,"rental_uris":{"android":"levelo://app?vid=a3d8b7bf-5661-4735-8391-0efcce344185","ios":"levelo://app?vid=a3d8b7bf-5661-4735-8391-0efcce344185"},"vehicle_type_id":"4","last_reported":1765873080,"current_range_meters":12000,"station_id":"ce4bhhh2rcd13ifvqfk0","pricing_plan_id":"cebpf4jnsgd1na2vs0mg"},{"bike_id":"b593cff5-e01f-4ab9-81a7-7ac8b5572e94","system_id":"levelo_inurba_marseille","lat":43.271138,"lon":5.391801,"is_reserved":false,"is_disabled":false,"rental_uris":{"android":"levelo://app?vid=b593cff5-e01f-4ab9-81a7-7ac8b5572e94","ios":"levelo://app?vid=b593cff5-e01f-4ab9-81a7-7ac8b5572e94"},"vehicle_type_id":"4","last_reported":1765873080,"current_range_meters":12000,"station_id":"ce4bhh12rcd13ifvqfg0","pricing_plan_id":"cebpf4jnsgd1na2vs0mg"},{"bike_id":"056b8779-e09b-48b9-b8a5-535649baa808","system_id":"levelo_inurba_marseille","lat":43.24995,"lon":5.38934,"is_reserved":false,"is_disabled":false,"rental_uris":{"android":"levelo://app?vid=056b8779-e09b-48b9-b8a5-535649baa808","ios":"levelo://app?vid=056b8779-e09b-48b9-b8a5-535649baa808"},"vehicle_type_id":"4","last_reported":1765873080,"current_range_meters":12400,"station_id":"ce4bhgp2rcd13ifvqfd0","pricing_plan_id":"cebpf4jnsgd1na2vs0mg"},{"bike_id":"42eccea4-4be3-44a3-bfb9-44342627f9f3","system_id":"levelo_inurba_marseille","lat":43.31882,"lon":5.37208,"is_reserved":false,"is_disabled":false,"rental_uris":{"android":"levelo://app?vid=42eccea4-4be3-44a3-bfb9-44342627f9f3","ios":"levelo://app?vid=42eccea4-4be3-44a3-bfb9-44342627f9f3"},"vehicle_type_id":"4","last_reported":1765873080,"current_range_meters":12400,"station_id":"","pricing_plan_id":"cebpf4jnsgd1na2vs0mg"},{"bike_id":"fd7fe341-e9e1-43e0-9282-b94a778a6675","system_id":"levelo_inurba_marseille","lat":43.337444,"lon":5.374475,"is_reserved":false,"is_disabled":false,"rental_uris":{"android":"levelo://app?vid=fd7fe341-e9e1-43e0-9282-b94a778a6675","ios":"levelo://app?vid=fd7fe341-e9e1-43e0-9282-b94a778a6675"},"vehicle_type_id":"4","last_reported":1765873080,"current_range_meters":12400,"station_id":"","pricing_plan_id":"cebpf4jnsgd1na2vs0mg"},{"bike_id":"c2dbecdc-0ef9-48e5-a6d6-1106c2dfe04a","system_id":"levelo_inurba_marseille","lat":43.27492,"lon":5.42444,"is_reserved":false,"is_disabled":false,"rental_uris":{"android":"levelo://app?vid=c2dbecdc-0ef9-48e5-a6d6-1106c2dfe04a","ios":"levelo://app?vid=c2dbecdc-0ef9-48e5-a6d6-1106c2dfe04a"},"vehicle_type_id":"4","last_reported":1765873080,"current_range_meters":12400,"station_id":"ce4bhn92rcd13ifvqgrg","pricing_plan_id":"cebpf4jnsgd1na2vs0mg"},{"bike_id":"1dbaa383-1aa6-47ef-8b06-6969a979b35e","system_id":"levelo_inurba_marseille","lat":43.299397,"lon":5.365481,"is_reserved":false,"is_disabled":false,"rental_uris":{"android":"levelo://app?vid=1dbaa383-1aa6-47ef-8b06-6969a979b35e","ios":"levelo://app?vid=1dbaa383-1aa6-47ef-8b06-6969a979b35e"},"vehicle_type_id":"4","last_reported":1765873080,"current_range_meters":12400,"station_id":"ce4bgm92rcd13ifvqbr0","pricing_plan_id":"cebpf4jnsgd1na2vs0mg"},{"bike_id":"88009fd1-4964-4861-9d79-7f8e3fc220eb","system_id":"levelo_inurba_marseille","lat":43.33594,"lon":5.41037,"is_reserved":false,"is_disabled":false,"rental_uris":{"android":"levelo://app?vid=88009fd1-4964-4861-9d79-7f8e3fc220eb","ios":"levelo://app?vid=88009fd1-4964-4861-9d79-7f8e3fc220eb"},"vehicle_type_id":"4","last_reported":1765873080,"current_range_meters":12400,"station_id":"ce4bhqh2rcd13ifvqhmg","pricing_plan_id":"cebpf4jnsgd1na2vs0mg"},{"bike_id":"69ec8f9a-2d04-4a19-b9e7-0962d4f5bd8b","system_id":"levelo_inurba_marseille","lat":43.24076,"lon":5.3776,"is_reserved":false,"is_disabled":false,"rental_uris":{"android":"levelo://app?vid=69ec8f9a-2d04-4a19-b9e7-0962d4f5bd8b","ios":"levelo://app?vid=69ec8f9a-2d04-4a19-b9e7-0962d4f5bd8b"},"vehicle_type_id":"4","last_reported":1765873080,"current_range_meters":12400,"station_id":"ce4bhnp2rcd13ifvqgvg","pricing_plan_id":"cebpf4jnsgd1na2vs0mg"},{"bike_id":"e93d026f-23fb-4c9e-a2a2-aeb77eb2dbbf","system_id":"levelo_inurba_marseille","lat":43.303044,"lon":5.368794,"is_reserved":false,"is_disabled":false,"rental_uris":{"android":"levelo://app?vid=e93d026f-23fb-4c9e-a2a2-aeb77eb2dbbf","ios":"levelo://app?vid=e93d026f-23fb-4c9e-a2a2-aeb77eb2dbbf"},"vehicle_type_id":"4","last_reported":1765873080,"current_range_meters":12400,"station_id":"ce4bgqh2rcd13ifvqc5g","pricing_plan_id":"cebpf4jnsgd1na2vs0mg"},{"bike_id":"6255e6f2-0633-4dc3-80f0-4eaa89ad6edb","system_id":"levelo_inurba_marseille","lat":43.30243,"lon":5.37699,"is_reserved":false,"is_disabled":false,"rental_uris":{"android":"levelo://app?vid=6255e6f2-0633-4dc3-80f0-4eaa89ad6edb","ios":"levelo://app?vid=6255e6f2-0633-4dc3-80f0-4eaa89ad6edb"},"vehicle_type_id":"4","last_reported":1765873080,"current_range_meters":12800,"station_id":"ce4bguh2rcd13ifvqcj0","pricing_plan_id":"cebpf4jnsgd1na2vs0mg"},{"bike_id":"dcf86aea-2e35-4fc9-b06f-cfd052d91d73","system_id":"levelo_inurba_marseille","lat":43.211955,"lon":5.350762,"is_reserved":false,"is_disabled":false,"rental_uris":{"android":"levelo://app?vid=dcf86aea-2e35-4fc9-b06f-cfd052d91d73","ios":"levelo://app?vid=dcf86aea-2e35-4fc9-b06f-cfd052d91d73"},"vehicle_type_id":"4","last_reported":1765873080,"current_range_meters":12800,"station_id":"st_cvj6sg6p6f1abm77japg","pricing_plan_id":"cebpf4jnsgd1na2vs0mg"},{"bike_id":"f5d9a9b3-558f-4d87-a4a3-2e93dcd5a3b9","system_id":"levelo_inurba_marseille","lat":43.284792,"lon":5.484003,"is_reserved":false,"is_disabled":false,"rental_uris":{"android":"levelo://app?vid=f5d9a9b3-558f-4d87-a4a3-2e93dcd5a3b9","ios":"levelo://app?vid=f5d9a9b3-558f-4d87-a4a3-2e93dcd5a3b9"},"vehicle_type_id":"4","last_reported":1765873080,"current_range_meters":12800,"station_id":"","pricing_plan_id":"cebpf4jnsgd1na2vs0mg"},{"bike_id":"5a015a9a-fc6a-4412-961e-8b275c5ed707","system_id":"levelo_inurba_marseille","lat":43.2732,"lon":5.39099,"is_reserved":false,"is_disabled":false,"rental_uris":{"android":"levelo://app?vid=5a015a9a-fc6a-4412-961e-8b275c5ed707","ios":"levelo://app?vid=5a015a9a-fc6a-4412-961e-8b275c5ed707"},"vehicle_type_id":"4","last_reported":1765873080,"current_range_meters":12800,"station_id":"ce4bhgp2rcd13ifvqfe0","pricing_plan_id":"cebpf4jnsgd1na2vs0mg"},{"bike_id":"b959cc19-b00a-4f78-bf9b-f737abeb0c3b","system_id":"levelo_inurba_marseille","lat":43.2947,"lon":5.38282,"is_reserved":false,"is_disabled":false,"rental_uris":{"android":"levelo://app?vid=b959cc19-b00a-4f78-bf9b-f737abeb0c3b","ios":"levelo://app?vid=b959cc19-b00a-4f78-bf9b-f737abeb0c3b"},"vehicle_type_id":"4","last_reported":1765873080,"current_range_meters":12800,"station_id":"","pricing_plan_id":"cebpf4jnsgd1na2vs0mg"},{"bike_id":"0d4cca34-aa81-43ce-baf2-2689db48a4cb","system_id":"levelo_inurba_marseille","lat":43.24071,"lon":5.37759,"is_reserved":false,"is_disabled":false,"rental_uris":{"android":"levelo://app?vid=0d4cca34-aa81-43ce-baf2-2689db48a4cb","ios":"levelo://app?vid=0d4cca34-aa81-43ce-baf2-2689db48a4cb"},"vehicle_type_id":"4","last_reported":1765873080,"current_range_meters":12800,"station_id":"ce4bhnp2rcd13ifvqgvg","pricing_plan_id":"cebpf4jnsgd1na2vs0mg"},{"bike_id":"4c1c7053-1690-46ae-b248-e8260967b03f","system_id":"levelo_inurba_marseille","lat":43.316791,"lon":5.375612,"is_reserved":false,"is_disabled":false,"rental_uris":{"android":"levelo://app?vid=4c1c7053-1690-46ae-b248-e8260967b03f","ios":"levelo://app?vid=4c1c7053-1690-46ae-b248-e8260967b03f"},"vehicle_type_id":"4","last_reported":1765873080,"current_range_meters":13600,"station_id":"","pricing_plan_id":"cebpf4jnsgd1na2vs0mg"},{"bike_id":"ddfdde9d-182d-490b-a2ef-8903b754c49b","system_id":"levelo_inurba_marseille","lat":43.27072,"lon":5.42277,"is_reserved":false,"is_disabled":false,"rental_uris":{"android":"levelo://app?vid=ddfdde9d-182d-490b-a2ef-8903b754c49b","ios":"levelo://app?vid=ddfdde9d-182d-490b-a2ef-8903b754c49b"},"vehicle_type_id":"4","last_reported":1765873080,"current_range_meters":13600,"station_id":"ce4bhk92rcd13ifvqgb0","pricing_plan_id":"cebpf4jnsgd1na2vs0mg"},{"bike_id":"d3a2e4e7-6aac-4366-981a-52d89642477a","system_id":"levelo_inurba_marseille","lat":43.30301,"lon":5.3778,"is_reserved":false,"is_disabled":true,"rental_uris":{"android":"levelo://app?vid=d3a2e4e7-6aac-4366-981a-52d89642477a","ios":"levelo://app?vid=d3a2e4e7-6aac-4366-981a-52d89642477a"},"vehicle_type_id":"4","last_reported":1765873080,"current_range_meters":13600,"station_id":"","pricing_plan_id":"cebpf4jnsgd1na2vs0mg"},{"bike_id":"bc74ef6c-60c8-4f6c-abb8-03b7a515cf09","system_id":"levelo_inurba_marseille","lat":43.31585,"lon":5.37305,"is_reserved":false,"is_disabled":false,"rental_uris":{"android":"levelo://app?vid=bc74ef6c-60c8-4f6c-abb8-03b7a515cf09","ios":"levelo://app?vid=bc74ef6c-60c8-4f6c-abb8-03b7a515cf09"},"vehicle_type_id":"4","last_reported":1765873080,"current_range_meters":13600,"station_id":"","pricing_plan_id":"cebpf4jnsgd1na2vs0mg"},{"bike_id":"7b946d06-8ad0-423c-b498-310624b35355","system_id":"levelo_inurba_marseille","lat":43.2407,"lon":5.37765,"is_reserved":false,"is_disabled":false,"rental_uris":{"android":"levelo://app?vid=7b946d06-8ad0-423c-b498-310624b35355","ios":"levelo://app?vid=7b946d06-8ad0-423c-b498-310624b35355"},"vehicle_type_id":"4","last_reported":1765873080,"current_range_meters":13600,"station_id":"ce4bhnp2rcd13ifvqgvg","pricing_plan_id":"cebpf4jnsgd1na2vs0mg"},{"bike_id":"f1a4a9fd-b0b8-4d64-b82b-1c462bef34d2","system_id":"levelo_inurba_marseille","lat":43.26565,"lon":5.39001,"is_reserved":false,"is_disabled":false,"rental_uris":{"android":"levelo://app?vid=f1a4a9fd-b0b8-4d64-b82b-1c462bef34d2","ios":"levelo://app?vid=f1a4a9fd-b0b8-4d64-b82b-1c462bef34d2"},"vehicle_type_id":"4","last_reported":1765873080,"current_range_meters":13600,"station_id":"ce4bhe12rcd13ifvqf30","pricing_plan_id":"cebpf4jnsgd1na2vs0mg"},{"bike_id":"06368d7d-97f4-4ac5-b30f-81cf32805215","system_id":"levelo_inurba_marseille","lat":43.22566,"lon":5.41621,"is_reserved":false,"is_disabled":false,"rental_uris":{"android":"levelo://app?vid=06368d7d-97f4-4ac5-b30f-81cf32805215","ios":"levelo://app?vid=06368d7d-97f4-4ac5-b30f-81cf32805215"},"vehicle_type_id":"4","last_reported":1765873080,"current_range_meters":13600,"station_id":"st_d2o4gvlbi1j2169b742g","pricing_plan_id":"cebpf4jnsgd1na2vs0mg"},{"bike_id":"830f241c-9eb4-421b-9917-3e9ae4524e77","system_id":"levelo_inurba_marseille","lat":43.248009,"lon":5.374539,"is_reserved":false,"is_disabled":true,"rental_uris":{"android":"levelo://app?vid=830f241c-9eb4-421b-9917-3e9ae4524e77","ios":"levelo://app?vid=830f241c-9eb4-421b-9917-3e9ae4524e77"},"vehicle_type_id":"4","last_reported":1765873080,"current_range_meters":13600,"station_id":"ce4bhgh2rcd13ifvqfb0","pricing_plan_id":"cebpf4jnsgd1na2vs0mg"},{"bike_id":"d6f90051-adc4-44d1-a726-3c1a90bf2e04","system_id":"levelo_inurba_marseille","lat":43.28222,"lon":5.34912,"is_reserved":false,"is_disabled":false,"rental_uris":{"android":"levelo://app?vid=d6f90051-adc4-44d1-a726-3c1a90bf2e04","ios":"levelo://app?vid=d6f90051-adc4-44d1-a726-3c1a90bf2e04"},"vehicle_type_id":"4","last_reported":1765873080,"current_range_meters":14000,"station_id":"","pricing_plan_id":"cebpf4jnsgd1na2vs0mg"},{"bike_id":"2ef24484-8e4e-49c0-a3a9-f83b77f53191","system_id":"levelo_inurba_marseille","lat":43.27065,"lon":5.42259,"is_reserved":false,"is_disabled":true,"rental_uris":{"android":"levelo://app?vid=2ef24484-8e4e-49c0-a3a9-f83b77f53191","ios":"levelo://app?vid=2ef24484-8e4e-49c0-a3a9-f83b77f53191"},"vehicle_type_id":"4","last_reported":1765873080,"current_range_meters":14000,"station_id":"ce4bhk92rcd13ifvqgb0","pricing_plan_id":"cebpf4jnsgd1na2vs0mg"},{"bike_id":"7c1eac78-61ca-48ec-846e-57b4d04cbbf3","system_id":"levelo_inurba_marseille","lat":43.28283,"lon":5.35071,"is_reserved":false,"is_disabled":false,"rental_uris":{"android":"levelo://app?vid=7c1eac78-61ca-48ec-846e-57b4d04cbbf3","ios":"levelo://app?vid=7c1eac78-61ca-48ec-846e-57b4d04cbbf3"},"vehicle_type_id":"4","last_reported":1765873080,"current_range_meters":14000,"station_id":"ce4bhbp2rcd13ifvqerg","pricing_plan_id":"cebpf4jnsgd1na2vs0mg"},{"bike_id":"f2a972ba-7ea7-4c6c-a643-2271db7ed079","system_id":"levelo_inurba_marseille","lat":43.24665,"lon":5.38161,"is_reserved":false,"is_disabled":false,"rental_uris":{"android":"levelo://app?vid=f2a972ba-7ea7-4c6c-a643-2271db7ed079","ios":"levelo://app?vid=f2a972ba-7ea7-4c6c-a643-2271db7ed079"},"vehicle_type_id":"4","last_reported":1765873080,"current_range_meters":14000,"station_id":"ce4bhih2rcd13ifvqfr0","pricing_plan_id":"cebpf4jnsgd1na2vs0mg"},{"bike_id":"24d8cb63-d3c8-48d5-b579-9ad1bd7a1011","system_id":"levelo_inurba_marseille","lat":43.24077,"lon":5.37756,"is_reserved":false,"is_disabled":false,"rental_uris":{"android":"levelo://app?vid=24d8cb63-d3c8-48d5-b579-9ad1bd7a1011","ios":"levelo://app?vid=24d8cb63-d3c8-48d5-b579-9ad1bd7a1011"},"vehicle_type_id":"4","last_reported":1765873080,"current_range_meters":14000,"station_id":"ce4bhnp2rcd13ifvqgvg","pricing_plan_id":"cebpf4jnsgd1na2vs0mg"},{"bike_id":"48496c29-f075-4c26-8c9c-ad83ec892e6d","system_id":"levelo_inurba_marseille","lat":43.297892,"lon":5.370659,"is_reserved":false,"is_disabled":false,"rental_uris":{"android":"levelo://app?vid=48496c29-f075-4c26-8c9c-ad83ec892e6d","ios":"levelo://app?vid=48496c29-f075-4c26-8c9c-ad83ec892e6d"},"vehicle_type_id":"4","last_reported":1765873080,"current_range_meters":14000,"station_id":"ce4bgop2rcd13ifvqc1g","pricing_plan_id":"cebpf4jnsgd1na2vs0mg"},{"bike_id":"2833047e-5d18-4b3c-9479-5d7320904cd9","system_id":"levelo_inurba_marseille","lat":43.28538,"lon":5.44082,"is_reserved":false,"is_disabled":false,"rental_uris":{"android":"levelo://app?vid=2833047e-5d18-4b3c-9479-5d7320904cd9","ios":"levelo://app?vid=2833047e-5d18-4b3c-9479-5d7320904cd9"},"vehicle_type_id":"4","last_reported":1765873080,"current_range_meters":14000,"station_id":"st_d3j3df2ikq2c7380ej80","pricing_plan_id":"cebpf4jnsgd1na2vs0mg"},{"bike_id":"9fe80c5b-37b8-4c1c-bb97-0d949d70234a","system_id":"levelo_inurba_marseille","lat":43.2958,"lon":5.36738,"is_reserved":false,"is_disabled":false,"rental_uris":{"android":"levelo://app?vid=9fe80c5b-37b8-4c1c-bb97-0d949d70234a","ios":"levelo://app?vid=9fe80c5b-37b8-4c1c-bb97-0d949d70234a"},"vehicle_type_id":"4","last_reported":1765873080,"current_range_meters":14400,"station_id":"ce4bgph2rcd13ifvqc2g","pricing_plan_id":"cebpf4jnsgd1na2vs0mg"},{"bike_id":"e4d7cb7a-d9de-42cd-9f06-4a9812794496","system_id":"levelo_inurba_marseille","lat":43.29194,"lon":5.35801,"is_reserved":false,"is_disabled":false,"rental_uris":{"android":"levelo://app?vid=e4d7cb7a-d9de-42cd-9f06-4a9812794496","ios":"levelo://app?vid=e4d7cb7a-d9de-42cd-9f06-4a9812794496"},"vehicle_type_id":"4","last_reported":1765873080,"current_range_meters":14400,"station_id":"ce4bhb12rcd13ifvqel0","pricing_plan_id":"cebpf4jnsgd1na2vs0mg"},{"bike_id":"a0f42821-757e-4c29-8bcc-110487f133f2","system_id":"levelo_inurba_marseille","lat":43.29976,"lon":5.37177,"is_reserved":false,"is_disabled":false,"rental_uris":{"android":"levelo://app?vid=a0f42821-757e-4c29-8bcc-110487f133f2","ios":"levelo://app?vid=a0f42821-757e-4c29-8bcc-110487f133f2"},"vehicle_type_id":"4","last_reported":1765873080,"current_range_meters":14400,"station_id":"ce4bgr92rcd13ifvqc7g","pricing_plan_id":"cebpf4jnsgd1na2vs0mg"},{"bike_id":"ec025ddd-e46a-46ed-b97d-7c73102604e0","system_id":"levelo_inurba_marseille","lat":43.27316,"lon":5.39067,"is_reserved":false,"is_disabled":false,"rental_uris":{"android":"levelo://app?vid=ec025ddd-e46a-46ed-b97d-7c73102604e0","ios":"levelo://app?vid=ec025ddd-e46a-46ed-b97d-7c73102604e0"},"vehicle_type_id":"4","last_reported":1765873080,"current_range_meters":14400,"station_id":"ce4bhgp2rcd13ifvqfe0","pricing_plan_id":"cebpf4jnsgd1na2vs0mg"},{"bike_id":"eb479364-649c-4e59-b035-b23aa12faf5a","system_id":"levelo_inurba_marseille","lat":43.24964,"lon":5.40488,"is_reserved":false,"is_disabled":false,"rental_uris":{"android":"levelo://app?vid=eb479364-649c-4e59-b035-b23aa12faf5a","ios":"levelo://app?vid=eb479364-649c-4e59-b035-b23aa12faf5a"},"vehicle_type_id":"4","last_reported":1765873080,"current_range_meters":14400,"station_id":"st_d2ngiaodas8pm72gd1h0","pricing_plan_id":"cebpf4jnsgd1na2vs0mg"},{"bike_id":"9ecfcc98-9439-4f28-98af-9a537a3b5056","system_id":"levelo_inurba_marseille","lat":43.28598,"lon":5.35094,"is_reserved":false,"is_disabled":false,"rental_uris":{"android":"levelo://app?vid=9ecfcc98-9439-4f28-98af-9a537a3b5056","ios":"levelo://app?vid=9ecfcc98-9439-4f28-98af-9a537a3b5056"},"vehicle_type_id":"4","last_reported":1765873080,"current_range_meters":14400,"station_id":"ce4bhch2rcd13ifvqeug","pricing_plan_id":"cebpf4jnsgd1na2vs0mg"},{"bike_id":"9ebcaad2-2e19-4608-9c02-cecea313b5ae","system_id":"levelo_inurba_marseille","lat":43.24635,"lon":5.43142,"is_reserved":false,"is_disabled":false,"rental_uris":{"android":"levelo://app?vid=9ebcaad2-2e19-4608-9c02-cecea313b5ae","ios":"levelo://app?vid=9ebcaad2-2e19-4608-9c02-cecea313b5ae"},"vehicle_type_id":"4","last_reported":1765873080,"current_range_meters":14800,"station_id":"st_d2m6c4gdas8pm72e190g","pricing_plan_id":"cebpf4jnsgd1na2vs0mg"},{"bike_id":"094e6f42-8188-456e-b536-25ce771d7e44","system_id":"levelo_inurba_marseille","lat":43.24167,"lon":5.36408,"is_reserved":false,"is_disabled":false,"rental_uris":{"android":"levelo://app?vid=094e6f42-8188-456e-b536-25ce771d7e44","ios":"levelo://app?vid=094e6f42-8188-456e-b536-25ce771d7e44"},"vehicle_type_id":"4","last_reported":1765873080,"current_range_meters":14800,"station_id":"cpo36qri1sfpv3e86is0","pricing_plan_id":"cebpf4jnsgd1na2vs0mg"},{"bike_id":"b5ae6e46-55cd-43d2-a3d0-34a885858b7a","system_id":"levelo_inurba_marseille","lat":43.27918,"lon":5.39578,"is_reserved":false,"is_disabled":true,"rental_uris":{"android":"levelo://app?vid=b5ae6e46-55cd-43d2-a3d0-34a885858b7a","ios":"levelo://app?vid=b5ae6e46-55cd-43d2-a3d0-34a885858b7a"},"vehicle_type_id":"4","last_reported":1765873080,"current_range_meters":14800,"station_id":"ce4bhf92rcd13ifvqf40","pricing_plan_id":"cebpf4jnsgd1na2vs0mg"},{"bike_id":"c88d0eb5-8289-4975-83ee-7eb3e0052f0d","system_id":"levelo_inurba_marseille","lat":43.292985,"lon":5.374638,"is_reserved":false,"is_disabled":false,"rental_uris":{"android":"levelo://app?vid=c88d0eb5-8289-4975-83ee-7eb3e0052f0d","ios":"levelo://app?vid=c88d0eb5-8289-4975-83ee-7eb3e0052f0d"},"vehicle_type_id":"4","last_reported":1765873080,"current_range_meters":14800,"station_id":"ce4bgi12rcd13ifvqb70","pricing_plan_id":"cebpf4jnsgd1na2vs0mg"},{"bike_id":"8377e891-0775-4522-a52c-48ab9aeb4664","system_id":"levelo_inurba_marseille","lat":43.30372,"lon":5.42471,"is_reserved":false,"is_disabled":false,"rental_uris":{"android":"levelo://app?vid=8377e891-0775-4522-a52c-48ab9aeb4664","ios":"levelo://app?vid=8377e891-0775-4522-a52c-48ab9aeb4664"},"vehicle_type_id":"4","last_reported":1765873080,"current_range_meters":14800,"station_id":"ce4bhoh2rcd13ifvqh6g","pricing_plan_id":"cebpf4jnsgd1na2vs0mg"},{"bike_id":"084d3234-f6a7-4a85-bb35-31befb3d6727","system_id":"levelo_inurba_marseille","lat":43.23153,"lon":5.43715,"is_reserved":false,"is_disabled":false,"rental_uris":{"android":"levelo://app?vid=084d3234-f6a7-4a85-bb35-31befb3d6727","ios":"levelo://app?vid=084d3234-f6a7-4a85-bb35-31befb3d6727"},"vehicle_type_id":"4","last_reported":1765873080,"current_range_meters":14800,"station_id":"ce4bhmp2rcd13ifvqgog","pricing_plan_id":"cebpf4jnsgd1na2vs0mg"},{"bike_id":"1d26076b-1ed7-4dac-80a0-203e04a24c68","system_id":"levelo_inurba_marseille","lat":43.27381,"lon":5.3626,"is_reserved":false,"is_disabled":false,"rental_uris":{"android":"levelo://app?vid=1d26076b-1ed7-4dac-80a0-203e04a24c68","ios":"levelo://app?vid=1d26076b-1ed7-4dac-80a0-203e04a24c68"},"vehicle_type_id":"4","last_reported":1765873080,"current_range_meters":15200,"station_id":"ce4bhbh2rcd13ifvqeo0","pricing_plan_id":"cebpf4jnsgd1na2vs0mg"},{"bike_id":"d1a89298-e69c-44b8-8e70-ad76b9f10abd","system_id":"levelo_inurba_marseille","lat":43.30087,"lon":5.39087,"is_reserved":false,"is_disabled":false,"rental_uris":{"android":"levelo://app?vid=d1a89298-e69c-44b8-8e70-ad76b9f10abd","ios":"levelo://app?vid=d1a89298-e69c-44b8-8e70-ad76b9f10abd"},"vehicle_type_id":"4","last_reported":1765873080,"current_range_meters":15200,"station_id":"ce4bh192rcd13ifvqdb0","pricing_plan_id":"cebpf4jnsgd1na2vs0mg"},{"bike_id":"88f4ad3e-336d-4da2-afda-6d2e5cb49341","system_id":"levelo_inurba_marseille","lat":43.25722,"lon":5.41113,"is_reserved":false,"is_disabled":false,"rental_uris":{"android":"levelo://app?vid=88f4ad3e-336d-4da2-afda-6d2e5cb49341","ios":"levelo://app?vid=88f4ad3e-336d-4da2-afda-6d2e5cb49341"},"vehicle_type_id":"4","last_reported":1765873080,"current_range_meters":15200,"station_id":"ce4bhkp2rcd13ifvqgd0","pricing_plan_id":"cebpf4jnsgd1na2vs0mg"},{"bike_id":"37c64312-bacf-418e-938c-ab682523f7de","system_id":"levelo_inurba_marseille","lat":43.2853,"lon":5.44095,"is_reserved":false,"is_disabled":false,"rental_uris":{"android":"levelo://app?vid=37c64312-bacf-418e-938c-ab682523f7de","ios":"levelo://app?vid=37c64312-bacf-418e-938c-ab682523f7de"},"vehicle_type_id":"4","last_reported":1765873080,"current_range_meters":15200,"station_id":"st_d3j3df2ikq2c7380ej80","pricing_plan_id":"cebpf4jnsgd1na2vs0mg"},{"bike_id":"21131018-3fc5-49b4-9c86-831df9d92167","system_id":"levelo_inurba_marseille","lat":43.26568,"lon":5.37272,"is_reserved":false,"is_disabled":false,"rental_uris":{"android":"levelo://app?vid=21131018-3fc5-49b4-9c86-831df9d92167","ios":"levelo://app?vid=21131018-3fc5-49b4-9c86-831df9d92167"},"vehicle_type_id":"4","last_reported":1765873080,"current_range_meters":16000,"station_id":"ce4bhg12rcd13ifvqf70","pricing_plan_id":"cebpf4jnsgd1na2vs0mg"},{"bike_id":"22ba5e64-4d4e-4757-b0b6-9a833ad02d51","system_id":"levelo_inurba_marseille","lat":43.24663,"lon":5.38145,"is_reserved":false,"is_disabled":false,"rental_uris":{"android":"levelo://app?vid=22ba5e64-4d4e-4757-b0b6-9a833ad02d51","ios":"levelo://app?vid=22ba5e64-4d4e-4757-b0b6-9a833ad02d51"},"vehicle_type_id":"4","last_reported":1765873080,"current_range_meters":16000,"station_id":"ce4bhih2rcd13ifvqfr0","pricing_plan_id":"cebpf4jnsgd1na2vs0mg"},{"bike_id":"5b9b0249-af26-48bc-a6fd-72f489db67a9","system_id":"levelo_inurba_marseille","lat":43.323853,"lon":5.367356,"is_reserved":false,"is_disabled":false,"rental_uris":{"android":"levelo://app?vid=5b9b0249-af26-48bc-a6fd-72f489db67a9","ios":"levelo://app?vid=5b9b0249-af26-48bc-a6fd-72f489db67a9"},"vehicle_type_id":"4","last_reported":1765873080,"current_range_meters":16000,"station_id":"ce4bhsh2rcd13ifvqi2g","pricing_plan_id":"cebpf4jnsgd1na2vs0mg"},{"bike_id":"b32e4917-4651-4915-accd-6ad72ebf913f","system_id":"levelo_inurba_marseille","lat":43.2921,"lon":5.36052,"is_reserved":false,"is_disabled":true,"rental_uris":{"android":"levelo://app?vid=b32e4917-4651-4915-accd-6ad72ebf913f","ios":"levelo://app?vid=b32e4917-4651-4915-accd-6ad72ebf913f"},"vehicle_type_id":"4","last_reported":1765873080,"current_range_meters":16000,"station_id":"ce4bhbh2rcd13ifvqeqg","pricing_plan_id":"cebpf4jnsgd1na2vs0mg"},{"bike_id":"68ca2263-2502-4478-bdcb-ffc8c1d5da7b","system_id":"levelo_inurba_marseille","lat":43.25939,"lon":5.40907,"is_reserved":false,"is_disabled":false,"rental_uris":{"android":"levelo://app?vid=68ca2263-2502-4478-bdcb-ffc8c1d5da7b","ios":"levelo://app?vid=68ca2263-2502-4478-bdcb-ffc8c1d5da7b"},"vehicle_type_id":"4","last_reported":1765873080,"current_range_meters":16000,"station_id":"ce4bhm92rcd13ifvqglg","pricing_plan_id":"cebpf4jnsgd1na2vs0mg"},{"bike_id":"ed40211b-d896-479c-9133-53f24950534c","system_id":"levelo_inurba_marseille","lat":43.276178,"lon":5.361172,"is_reserved":false,"is_disabled":false,"rental_uris":{"android":"levelo://app?vid=ed40211b-d896-479c-9133-53f24950534c","ios":"levelo://app?vid=ed40211b-d896-479c-9133-53f24950534c"},"vehicle_type_id":"4","last_reported":1765873080,"current_range_meters":16000,"station_id":"ce4bgj92rcd13ifvqbe0","pricing_plan_id":"cebpf4jnsgd1na2vs0mg"},{"bike_id":"2ab2710b-733d-44fe-a9f8-fe4cbf8606c7","system_id":"levelo_inurba_marseille","lat":43.33547,"lon":5.37473,"is_reserved":false,"is_disabled":false,"rental_uris":{"android":"levelo://app?vid=2ab2710b-733d-44fe-a9f8-fe4cbf8606c7","ios":"levelo://app?vid=2ab2710b-733d-44fe-a9f8-fe4cbf8606c7"},"vehicle_type_id":"4","last_reported":1765873080,"current_range_meters":16000,"station_id":"st_d46tts09ee8s73dlu43g","pricing_plan_id":"cebpf4jnsgd1na2vs0mg"},{"bike_id":"8c2c2ce3-73da-4ebf-ba92-d3797395fcb1","system_id":"levelo_inurba_marseille","lat":43.24628,"lon":5.43172,"is_reserved":false,"is_disabled":true,"rental_uris":{"android":"levelo://app?vid=8c2c2ce3-73da-4ebf-ba92-d3797395fcb1","ios":"levelo://app?vid=8c2c2ce3-73da-4ebf-ba92-d3797395fcb1"},"vehicle_type_id":"4","last_reported":1765873080,"current_range_meters":16400,"station_id":"st_d2m6c4gdas8pm72e190g","pricing_plan_id":"cebpf4jnsgd1na2vs0mg"},{"bike_id":"b972c994-16b3-47fe-974f-b887645957a5","system_id":"levelo_inurba_marseille","lat":43.265576,"lon":5.372854,"is_reserved":false,"is_disabled":false,"rental_uris":{"android":"levelo://app?vid=b972c994-16b3-47fe-974f-b887645957a5","ios":"levelo://app?vid=b972c994-16b3-47fe-974f-b887645957a5"},"vehicle_type_id":"4","last_reported":1765873080,"current_range_meters":16400,"station_id":"ce4bhih2rcd13ifvqfr0","pricing_plan_id":"cebpf4jnsgd1na2vs0mg"},{"bike_id":"f96d197e-d68e-4b9e-b261-84222baa54d9","system_id":"levelo_inurba_marseille","lat":43.23785,"lon":5.36635,"is_reserved":false,"is_disabled":false,"rental_uris":{"android":"levelo://app?vid=f96d197e-d68e-4b9e-b261-84222baa54d9","ios":"levelo://app?vid=f96d197e-d68e-4b9e-b261-84222baa54d9"},"vehicle_type_id":"4","last_reported":1765873080,"current_range_meters":16400,"station_id":"st_d3nk18o9ro0c73en2l3g","pricing_plan_id":"cebpf4jnsgd1na2vs0mg"},{"bike_id":"651b29d3-4f51-4bd5-bf59-d7b9bcb7f108","system_id":"levelo_inurba_marseille","lat":43.25353,"lon":5.42164,"is_reserved":false,"is_disabled":true,"rental_uris":{"android":"levelo://app?vid=651b29d3-4f51-4bd5-bf59-d7b9bcb7f108","ios":"levelo://app?vid=651b29d3-4f51-4bd5-bf59-d7b9bcb7f108"},"vehicle_type_id":"4","last_reported":1765873080,"current_range_meters":16400,"station_id":"st_d2m65c5bi1j21697t3ng","pricing_plan_id":"cebpf4jnsgd1na2vs0mg"},{"bike_id":"73622435-c5fd-4005-8594-c94cc5b0c5e3","system_id":"levelo_inurba_marseille","lat":43.29534,"lon":5.39012,"is_reserved":false,"is_disabled":true,"rental_uris":{"android":"levelo://app?vid=73622435-c5fd-4005-8594-c94cc5b0c5e3","ios":"levelo://app?vid=73622435-c5fd-4005-8594-c94cc5b0c5e3"},"vehicle_type_id":"4","last_reported":1765873080,"current_range_meters":16400,"station_id":"ce4bh3p2rcd13ifvqdp0","pricing_plan_id":"cebpf4jnsgd1na2vs0mg"},{"bike_id":"19b66638-3211-46a9-8beb-4f12406d7672","system_id":"levelo_inurba_marseille","lat":43.27283,"lon":5.41078,"is_reserved":false,"is_disabled":false,"rental_uris":{"android":"levelo://app?vid=19b66638-3211-46a9-8beb-4f12406d7672","ios":"levelo://app?vid=19b66638-3211-46a9-8beb-4f12406d7672"},"vehicle_type_id":"4","last_reported":1765873080,"current_range_meters":16400,"station_id":"","pricing_plan_id":"cebpf4jnsgd1na2vs0mg"},{"bike_id":"6d2b7267-ae67-41db-9a3b-cc6a7577f2f0","system_id":"levelo_inurba_marseille","lat":43.288641,"lon":5.42516,"is_reserved":false,"is_disabled":false,"rental_uris":{"android":"levelo://app?vid=6d2b7267-ae67-41db-9a3b-cc6a7577f2f0","ios":"levelo://app?vid=6d2b7267-ae67-41db-9a3b-cc6a7577f2f0"},"vehicle_type_id":"4","last_reported":1765873080,"current_range_meters":16800,"station_id":"st_d3b462108ojc7389ooeg","pricing_plan_id":"cebpf4jnsgd1na2vs0mg"},{"bike_id":"ddb7d15d-3f99-4d7a-aae0-1a9d45669c33","system_id":"levelo_inurba_marseille","lat":43.23149,"lon":5.43709,"is_reserved":false,"is_disabled":true,"rental_uris":{"android":"levelo://app?vid=ddb7d15d-3f99-4d7a-aae0-1a9d45669c33","ios":"levelo://app?vid=ddb7d15d-3f99-4d7a-aae0-1a9d45669c33"},"vehicle_type_id":"4","last_reported":1765873080,"current_range_meters":16800,"station_id":"ce4bhmp2rcd13ifvqgog","pricing_plan_id":"cebpf4jnsgd1na2vs0mg"},{"bike_id":"4fa41bf2-a255-4eea-86fc-52affbe7875d","system_id":"levelo_inurba_marseille","lat":43.26193,"lon":5.3745,"is_reserved":false,"is_disabled":false,"rental_uris":{"android":"levelo://app?vid=4fa41bf2-a255-4eea-86fc-52affbe7875d","ios":"levelo://app?vid=4fa41bf2-a255-4eea-86fc-52affbe7875d"},"vehicle_type_id":"4","last_reported":1765873080,"current_range_meters":16800,"station_id":"ce4bhgp2rcd13ifvqfc0","pricing_plan_id":"cebpf4jnsgd1na2vs0mg"},{"bike_id":"b87f237b-bed1-4605-8614-65c124626701","system_id":"levelo_inurba_marseille","lat":43.31354,"lon":5.36714,"is_reserved":false,"is_disabled":false,"rental_uris":{"android":"levelo://app?vid=b87f237b-bed1-4605-8614-65c124626701","ios":"levelo://app?vid=b87f237b-bed1-4605-8614-65c124626701"},"vehicle_type_id":"4","last_reported":1765873080,"current_range_meters":16800,"station_id":"ce4bgr92rcd13ifvqc6g","pricing_plan_id":"cebpf4jnsgd1na2vs0mg"},{"bike_id":"a46445b0-0e05-4854-90e8-7e9116d714dc","system_id":"levelo_inurba_marseille","lat":43.337444,"lon":5.374475,"is_reserved":false,"is_disabled":false,"rental_uris":{"android":"levelo://app?vid=a46445b0-0e05-4854-90e8-7e9116d714dc","ios":"levelo://app?vid=a46445b0-0e05-4854-90e8-7e9116d714dc"},"vehicle_type_id":"4","last_reported":1765873080,"current_range_meters":16800,"station_id":"","pricing_plan_id":"cebpf4jnsgd1na2vs0mg"},{"bike_id":"d2e5b3a0-c3df-47b2-89a3-604f4485f33c","system_id":"levelo_inurba_marseille","lat":43.337444,"lon":5.374475,"is_reserved":false,"is_disabled":true,"rental_uris":{"android":"levelo://app?vid=d2e5b3a0-c3df-47b2-89a3-604f4485f33c","ios":"levelo://app?vid=d2e5b3a0-c3df-47b2-89a3-604f4485f33c"},"vehicle_type_id":"4","last_reported":1765873080,"current_range_meters":16800,"station_id":"","pricing_plan_id":"cebpf4jnsgd1na2vs0mg"},{"bike_id":"43c136e2-0285-414b-afc3-b9c777c2f2f8","system_id":"levelo_inurba_marseille","lat":43.33112,"lon":5.38202,"is_reserved":false,"is_disabled":false,"rental_uris":{"android":"levelo://app?vid=43c136e2-0285-414b-afc3-b9c777c2f2f8","ios":"levelo://app?vid=43c136e2-0285-414b-afc3-b9c777c2f2f8"},"vehicle_type_id":"4","last_reported":1765873080,"current_range_meters":16800,"station_id":"","pricing_plan_id":"cebpf4jnsgd1na2vs0mg"},{"bike_id":"1985a16d-974e-4764-a075-1c51a005d839","system_id":"levelo_inurba_marseille","lat":43.29815,"lon":5.44069,"is_reserved":false,"is_disabled":false,"rental_uris":{"android":"levelo://app?vid=1985a16d-974e-4764-a075-1c51a005d839","ios":"levelo://app?vid=1985a16d-974e-4764-a075-1c51a005d839"},"vehicle_type_id":"4","last_reported":1765873080,"current_range_meters":16800,"station_id":"st_d3jp68qikq2c7381ktn0","pricing_plan_id":"cebpf4jnsgd1na2vs0mg"},{"bike_id":"5158b791-9a54-42f5-ab55-ddeca4ae408c","system_id":"levelo_inurba_marseille","lat":43.301642,"lon":5.366157,"is_reserved":false,"is_disabled":false,"rental_uris":{"android":"levelo://app?vid=5158b791-9a54-42f5-ab55-ddeca4ae408c","ios":"levelo://app?vid=5158b791-9a54-42f5-ab55-ddeca4ae408c"},"vehicle_type_id":"4","last_reported":1765873080,"current_range_meters":16800,"station_id":"ce4bgrh2rcd13ifvqc8g","pricing_plan_id":"cebpf4jnsgd1na2vs0mg"},{"bike_id":"52c8093b-7d05-4920-8272-4419976dcf78","system_id":"levelo_inurba_marseille","lat":43.28963,"lon":5.39065,"is_reserved":false,"is_disabled":false,"rental_uris":{"android":"levelo://app?vid=52c8093b-7d05-4920-8272-4419976dcf78","ios":"levelo://app?vid=52c8093b-7d05-4920-8272-4419976dcf78"},"vehicle_type_id":"4","last_reported":1765873080,"current_range_meters":16800,"station_id":"","pricing_plan_id":"cebpf4jnsgd1na2vs0mg"},{"bike_id":"e8120811-5f3a-4fab-81ff-46c477c62d01","system_id":"levelo_inurba_marseille","lat":43.29572,"lon":5.39813,"is_reserved":false,"is_disabled":false,"rental_uris":{"android":"levelo://app?vid=e8120811-5f3a-4fab-81ff-46c477c62d01","ios":"levelo://app?vid=e8120811-5f3a-4fab-81ff-46c477c62d01"},"vehicle_type_id":"4","last_reported":1765873080,"current_range_meters":16800,"station_id":"","pricing_plan_id":"cebpf4jnsgd1na2vs0mg"},