{"last_updated":1726139239,"ttl":30,"version":"2.2","data":{"bikes":[{"bike_id":"8eda120e-c86d-4990-9ecb-6e0cf4f9f6c4","system_id":"levelo_inurba_marseille","lat":43.286194,"lon":5.385019,"is_reserved":false,"is_disabled":false,"rental_uris":{"android":"levelo://app?vid=8eda120e-c86d-4990-9ecb-6e0cf4f9f6c4","ios":"levelo://app?vid=8eda120e-c86d-4990-9ecb-6e0cf4f9f6c4"},"vehicle_type_id":"4","last_reported":1726139240,"current_range_meters":6800,"station_id":"ce4bh492rcd13ifvqdug","pricing_plan_id":"cebpf4jnsgd1na2vs0mg"},{"bike_id":"601742e7-f458-40d7-a62d-ef4ad8aa692e","system_id":"levelo_inurba_marseille","lat":43.25495,"lon":5.37646,"is_reserved":false,"is_disabled":false,"rental_uris":{"android":"levelo://app?vid=601742e7-f458-40d7-a62d-ef4ad8aa692e","ios":"levelo://app?vid=601742e7-f458-40d7-a62d-ef4ad8aa692e"},"vehicle_type_id":"4","last_reported":1726139240,"current_range_meters":28800,"station_id":"ce4bhh12rcd13ifvqff0","pricing_plan_id":"cebpf4jnsgd1na2vs0mg"},{"bike_id":"a70ab998-78da-4e7b-b20a-92f34697eb9d","system_id":"levelo_inurba_marseille","lat":43.26566,"lon":5.37288,"is_reserved":false,"is_disabled":false,"rental_uris":{"android":"levelo://app?vid=a70ab998-78da-4e7b-b20a-92f34697eb9d","ios":"levelo://app?vid=a70ab998-78da-4e7b-b20a-92f34697eb9d"},"vehicle_type_id":"4","last_reported":1726139240,"current_range_meters":12400,"station_id":"ce4bhg12rcd13ifvqf70","pricing_plan_id":"cebpf4jnsgd1na2vs0mg"},{"bike_id":"d3d0bf1e-8766-4413-be09-513aa812b8d5","system_id":"levelo_inurba_marseille","lat":43.24072,"lon":5.37764,"is_reserved":false,"is_disabled":false,"rental_uris":{"android":"levelo://app?vid=d3d0bf1e-8766-4413-be09-513aa812b8d5","ios":"levelo://app?vid=d3d0bf1e-8766-4413-be09-513aa812b8d5"},"vehicle_type_id":"4","last_reported":1726139240,"current_range_meters":35200,"station_id":"ce4bhnp2rcd13ifvqgvg","pricing_plan_id":"cebpf4jnsgd1na2vs0mg"},{"bike_id":"c5c3bd44-3118-4ce0-afbd-fd0c81275852","system_id":"levelo_inurba_marseille","lat":43.31085,"lon":5.42438,"is_reserved":false,"is_disabled":false,"rental_uris":{"android":"levelo://app?vid=c5c3bd44-3118-4ce0-afbd-fd0c81275852","ios":"levelo://app?vid=c5c3bd44-3118-4ce0-afbd-fd0c81275852"},"vehicle_type_id":"4","last_reported":1726139240,"current_range_meters":24800,"station_id":"ce4bhp92rcd13ifvqhag","pricing_plan_id":"cebpf4jnsgd1na2vs0mg"},{"bike_id":"456c5403-ebe0-4316-9960-1125ab4993e1","system_id":"levelo_inurba_marseille","lat":43.23064,"lon":5.35494,"is_reserved":false,"is_disabled":false,"rental_uris":{"android":"levelo://app?vid=456c5403-ebe0-4316-9960-1125ab4993e1","ios":"levelo://app?vid=456c5403-ebe0-4316-9960-1125ab4993e1"},"vehicle_type_id":"4","last_reported":1726139240,"current_range_meters":35200,"station_id":"cpo3342slgdg3j2ifvpg","pricing_plan_id":"cebpf4jnsgd1na2vs0mg"},{"bike_id":"032cca34-153b-4a2a-88a7-b47b5003aec0","system_id":"levelo_inurba_marseille","lat":43.30915,"lon":5.36859,"is_reserved":false,"is_disabled":false,"rental_uris":{"android":"levelo://app?vid=032cca34-153b-4a2a-88a7-b47b5003aec0","ios":"levelo://app?vid=032cca34-153b-4a2a-88a7-b47b5003aec0"},"vehicle_type_id":"4","last_reported":1726139240,"current_range_meters":39200,"station_id":"ce4bgn92rcd13ifvqbvg","pricing_plan_id":"cebpf4jnsgd1na2vs0mg"},{"bike_id":"eaf54997-f73b-4879-a1f6-d6c3924f9654","system_id":"levelo_inurba_marseille","lat":43.2829,"lon":5.35076,"is_reserved":false,"is_disabled":false,"rental_uris":{"android":"levelo://app?vid=eaf54997-f73b-4879-a1f6-d6c3924f9654","ios":"levelo://app?vid=eaf54997-f73b-4879-a1f6-d6c3924f9654"},"vehicle_type_id":"4","last_reported":1726139240,"current_range_meters":14000,"station_id":"ce4bhbp2rcd13ifvqerg","pricing_plan_id":"cebpf4jnsgd1na2vs0mg"},{"bike_id":"ea1f807b-d279-4c79-850d-1c4f3e2b832f","system_id":"levelo_inurba_marseille","lat":43.30886,"lon":5.36858,"is_reserved":false,"is_disabled":false,"rental_uris":{"android":"levelo://app?vid=ea1f807b-d279-4c79-850d-1c4f3e2b832f","ios":"levelo://app?vid=ea1f807b-d279-4c79-850d-1c4f3e2b832f"},"vehicle_type_id":"4","last_reported":1726139240,"current_range_meters":7200,"station_id":"ce4bgn92rcd13ifvqbvg","pricing_plan_id":"cebpf4jnsgd1na2vs0mg"},{"bike_id":"1fb287d3-ea32-4024-b97e-f3732098e1f9","system_id":"levelo_inurba_marseille","lat":43.266834,"lon":5.382736,"is_reserved":false,"is_disabled":false,"rental_uris":{"android":"levelo://app?vid=1fb287d3-ea32-4024-b97e-f3732098e1f9","ios":"levelo://app?vid=1fb287d3-ea32-4024-b97e-f3732098e1f9"},"vehicle_type_id":"4","last_reported":1726139240,"current_range_meters":19200,"station_id":"ce4bhg12rcd13ifvqf80","pricing_plan_id":"cebpf4jnsgd1na2vs0mg"},{"bike_id":"10d4c428-e318-42ae-8126-5211f249afd6","system_id":"levelo_inurba_marseille","lat":43.30562,"lon":5.36533,"is_reserved":false,"is_disabled":false,"rental_uris":{"android":"levelo://app?vid=10d4c428-e318-42ae-8126-5211f249afd6","ios":"levelo://app?vid=10d4c428-e318-42ae-8126-5211f249afd6"},"vehicle_type_id":"4","last_reported":1726139240,"current_range_meters":12000,"station_id":"ce4bgs12rcd13ifvqcag","pricing_plan_id":"cebpf4jnsgd1na2vs0mg"},{"bike_id":"a3d2f1db-1f3e-4a94-b314-8a4b1cd70014","system_id":"levelo_inurba_marseille","lat":43.29291,"lon":5.36847,"is_reserved":false,"is_disabled":false,"rental_uris":{"android":"levelo://app?vid=a3d2f1db-1f3e-4a94-b314-8a4b1cd70014","ios":"levelo://app?vid=a3d2f1db-1f3e-4a94-b314-8a4b1cd70014"},"vehicle_type_id":"4","last_reported":1726139240,"current_range_meters":25200,"station_id":"ce4bhbp2rcd13ifvqesg","pricing_plan_id":"cebpf4jnsgd1na2vs0mg"},{"bike_id":"831ad933-e41a-4e0c-adcd-f8f4044446aa","system_id":"levelo_inurba_marseille","lat":43.23148,"lon":5.43727,"is_reserved":false,"is_disabled":false,"rental_uris":{"android":"levelo://app?vid=831ad933-e41a-4e0c-adcd-f8f4044446aa","ios":"levelo://app?vid=831ad933-e41a-4e0c-adcd-f8f4044446aa"},"vehicle_type_id":"4","last_reported":1726139240,"current_range_meters":20800,"station_id":"ce4bhmp2rcd13ifvqgog","pricing_plan_id":"cebpf4jnsgd1na2vs0mg"},{"bike_id":"acb7a154-2c4a-4a8c-8b78-d20c225e7a06","system_id":"levelo_inurba_marseille","lat":43.30547,"lon":5.36708,"is_reserved":false,"is_disabled":false,"rental_uris":{"android":"levelo://app?vid=acb7a154-2c4a-4a8c-8b78-d20c225e7a06","ios":"levelo://app?vid=acb7a154-2c4a-4a8c-8b78-d20c225e7a06"},"vehicle_type_id":"4","last_reported":1726139240,"current_range_meters":32800,"station_id":"ce4bgrp2rcd13ifvqc9g","pricing_plan_id":"cebpf4jnsgd1na2vs0mg"},{"bike_id":"13ec4916-f0ea-4897-8afc-596425b42c42","system_id":"levelo_inurba_marseille","lat":43.23192,"lon":5.35561,"is_reserved":false,"is_disabled":false,"rental_uris":{"android":"levelo://app?vid=13ec4916-f0ea-4897-8afc-596425b42c42","ios":"levelo://app?vid=13ec4916-f0ea-4897-8afc-596425b42c42"},"vehicle_type_id":"4","last_reported":1726139240,"current_range_meters":35200,"station_id":"ce4bhu92rcd13ifvqi70","pricing_plan_id":"cebpf4jnsgd1na2vs0mg"},{"bike_id":"a68df08b-f9fa-4991-9775-134d012f2510","system_id":"levelo_inurba_marseille","lat":43.23064,"lon":5.35487,"is_reserved":false,"is_disabled":false,"rental_uris":{"android":"levelo://app?vid=a68df08b-f9fa-4991-9775-134d012f2510","ios":"levelo://app?vid=a68df08b-f9fa-4991-9775-134d012f2510"},"vehicle_type_id":"4","last_reported":1726139240,"current_range_meters":16400,"station_id":"cpo3342slgdg3j2ifvpg","pricing_plan_id":"cebpf4jnsgd1na2vs0mg"},{"bike_id":"a053b8fb-e8ac-474f-8a4e-4da0d15250b1","system_id":"levelo_inurba_marseille","lat":43.30547,"lon":5.36549,"is_reserved":false,"is_disabled":false,"rental_uris":{"android":"levelo://app?vid=a053b8fb-e8ac-474f-8a4e-4da0d15250b1","ios":"levelo://app?vid=a053b8fb-e8ac-474f-8a4e-4da0d15250b1"},"vehicle_type_id":"4","last_reported":1726139240,"current_range_meters":38800,"station_id":"ce4bgs12rcd13ifvqcag","pricing_plan_id":"cebpf4jnsgd1na2vs0mg"},{"bike_id":"176a48f0-910c-412f-b53a-35c1297b49c1","system_id":"levelo_inurba_marseille","lat":43.30281,"lon":5.37682,"is_reserved":false,"is_disabled":false,"rental_uris":{"android":"levelo://app?vid=176a48f0-910c-412f-b53a-35c1297b49c1","ios":"levelo://app?vid=176a48f0-910c-412f-b53a-35c1297b49c1"},"vehicle_type_id":"4","last_reported":1726139240,"current_range_meters":25600,"station_id":"ce4bguh2rcd13ifvqcj0","pricing_plan_id":"cebpf4jnsgd1na2vs0mg"},{"bike_id":"48b4e90a-311b-4e1f-afe2-9fe21bedd9ce","system_id":"levelo_inurba_marseille","lat":43.30146,"lon":5.39842,"is_reserved":false,"is_disabled":false,"rental_uris":{"android":"levelo://app?vid=48b4e90a-311b-4e1f-afe2-9fe21bedd9ce","ios":"levelo://app?vid=48b4e90a-311b-4e1f-afe2-9fe21bedd9ce"},"vehicle_type_id":"4","last_reported":1726139240,"current_range_meters":36800,"station_id":"ce4bh0h2rcd13ifvqd40","pricing_plan_id":"cebpf4jnsgd1na2vs0mg"},{"bike_id":"dec90c19-e143-4511-8606-32eae6afcdea","system_id":"levelo_inurba_marseille","lat":43.24073,"lon":5.37761,"is_reserved":false,"is_disabled":false,"rental_uris":{"android":"levelo://app?vid=dec90c19-e143-4511-8606-32eae6afcdea","ios":"levelo://app?vid=dec90c19-e143-4511-8606-32eae6afcdea"},"vehicle_type_id":"4","last_reported":1726139240,"current_range_meters":32000,"station_id":"ce4bhnp2rcd13ifvqgvg","pricing_plan_id":"cebpf4jnsgd1na2vs0mg"},{"bike_id":"74c67d55-8a5f-40c9-8066-d68354718f8c","system_id":"levelo_inurba_marseille","lat":43.23193,"lon":5.3555,"is_reserved":false,"is_disabled":false,"rental_uris":{"android":"levelo://app?vid=74c67d55-8a5f-40c9-8066-d68354718f8c","ios":"levelo://app?vid=74c67d55-8a5f-40c9-8066-d68354718f8c"},"vehicle_type_id":"4","last_reported":1726139240,"current_range_meters":32000,"station_id":"ce4bhu92rcd13ifvqi70","pricing_plan_id":"cebpf4jnsgd1na2vs0mg"},{"bike_id":"2be564dc-8ce3-4d25-a9ae-bf66d58cc913","system_id":"levelo_inurba_marseille","lat":43.3249,"lon":5.36562,"is_reserved":false,"is_disabled":false,"rental_uris":{"android":"levelo://app?vid=2be564dc-8ce3-4d25-a9ae-bf66d58cc913","ios":"levelo://app?vid=2be564dc-8ce3-4d25-a9ae-bf66d58cc913"},"vehicle_type_id":"4","last_reported":1726139240,"current_range_meters":24400,"station_id":"ce4bgt92rcd13ifvqcf0","pricing_plan_id":"cebpf4jnsgd1na2vs0mg"},{"bike_id":"cb1f3f5d-ef80-460b-a7b4-ffd596007895","system_id":"levelo_inurba_marseille","lat":43.2985,"lon":5.3627,"is_reserved":false,"is_disabled":false,"rental_uris":{"android":"levelo://app?vid=cb1f3f5d-ef80-460b-a7b4-ffd596007895","ios":"levelo://app?vid=cb1f3f5d-ef80-460b-a7b4-ffd596007895"},"vehicle_type_id":"4","last_reported":1726139240,"current_range_meters":28800,"station_id":"ce4bgpp2rcd13ifvqc3g","pricing_plan_id":"cebpf4jnsgd1na2vs0mg"},{"bike_id":"f26c1504-1d02-4a96-9cce-a8d8d09650ab","system_id":"levelo_inurba_marseille","lat":43.31224,"lon":5.3686,"is_reserved":false,"is_disabled":false,"rental_uris":{"android":"levelo://app?vid=f26c1504-1d02-4a96-9cce-a8d8d09650ab","ios":"levelo://app?vid=f26c1504-1d02-4a96-9cce-a8d8d09650ab"},"vehicle_type_id":"4","last_reported":1726139240,"current_range_meters":39200,"station_id":"ce4bgl92rcd13ifvqbq0","pricing_plan_id":"cebpf4jnsgd1na2vs0mg"},{"bike_id":"eb685eeb-f508-4424-9ea7-a6e3d7e8091e","system_id":"levelo_inurba_marseille","lat":43.25931,"lon":5.40903,"is_reserved":false,"is_disabled":false,"rental_uris":{"android":"levelo://app?vid=eb685eeb-f508-4424-9ea7-a6e3d7e8091e","ios":"levelo://app?vid=eb685eeb-f508-4424-9ea7-a6e3d7e8091e"},"vehicle_type_id":"4","last_reported":1726139240,"current_range_meters":28800,"station_id":"ce4bhm92rcd13ifvqglg","pricing_plan_id":"cebpf4jnsgd1na2vs0mg"},{"bike_id":"6d094fd2-0ec4-4fb4-9cf8-16628054406a","system_id":"levelo_inurba_marseille","lat":43.23149,"lon":5.43727,"is_reserved":false,"is_disabled":false,"rental_uris":{"android":"levelo://app?vid=6d094fd2-0ec4-4fb4-9cf8-16628054406a","ios":"levelo://app?vid=6d094fd2-0ec4-4fb4-9cf8-16628054406a"},"vehicle_type_id":"4","last_reported":1726139240,"current_range_meters":24800,"station_id":"ce4bhmp2rcd13ifvqgog","pricing_plan_id":"cebpf4jnsgd1na2vs0mg"},{"bike_id":"cdb94f9e-c85d-473c-88f9-ed0b7ea90c2b","system_id":"levelo_inurba_marseille","lat":43.26952,"lon":5.38631,"is_reserved":false,"is_disabled":false,"rental_uris":{"android":"levelo://app?vid=cdb94f9e-c85d-473c-88f9-ed0b7ea90c2b","ios":"levelo://app?vid=cdb94f9e-c85d-473c-88f9-ed0b7ea90c2b"},"vehicle_type_id":"4","last_reported":1726139240,"current_range_meters":2800,"station_id":"ce4bhh92rcd13ifvqfh0","pricing_plan_id":"cebpf4jnsgd1na2vs0mg"},{"bike_id":"75a4a8d2-685b-4063-8c38-66bb9ce0d55a","system_id":"levelo_inurba_marseille","lat":43.30934,"lon":5.40148,"is_reserved":false,"is_disabled":false,"rental_uris":{"android":"levelo://app?vid=75a4a8d2-685b-4063-8c38-66bb9ce0d55a","ios":"levelo://app?vid=75a4a8d2-685b-4063-8c38-66bb9ce0d55a"},"vehicle_type_id":"4","last_reported":1726139240,"current_range_meters":10800,"station_id":"ce4bgvp2rcd13ifvqct0","pricing_plan_id":"cebpf4jnsgd1na2vs0mg"},{"bike_id":"8b3a98fe-a428-4311-a1cd-a7f11f45c1eb","system_id":"levelo_inurba_marseille","lat":43.23155,"lon":5.43709,"is_reserved":false,"is_disabled":false,"rental_uris":{"android":"levelo://app?vid=8b3a98fe-a428-4311-a1cd-a7f11f45c1eb","ios":"levelo://app?vid=8b3a98fe-a428-4311-a1cd-a7f11f45c1eb"},"vehicle_type_id":"4","last_reported":1726139240,"current_range_meters":38800,"station_id":"ce4bhmp2rcd13ifvqgog","pricing_plan_id":"cebpf4jnsgd1na2vs0mg"},{"bike_id":"286b7ced-97f5-44da-942a-5b007929bb7f","system_id":"levelo_inurba_marseille","lat":43.31481,"lon":5.37311,"is_reserved":false,"is_disabled":false,"rental_uris":{"android":"levelo://app?vid=286b7ced-97f5-44da-942a-5b007929bb7f","ios":"levelo://app?vid=286b7ced-97f5-44da-942a-5b007929bb7f"},"vehicle_type_id":"4","last_reported":1726139240,"current_range_meters":36800,"station_id":"ce4bgt12rcd13ifvqcd0","pricing_plan_id":"cebpf4jnsgd1na2vs0mg"},{"bike_id":"11944b44-cc54-4fe0-896f-7b982db000ce","system_id":"levelo_inurba_marseille","lat":43.24086,"lon":5.37749,"is_reserved":false,"is_disabled":false,"rental_uris":{"android":"levelo://app?vid=11944b44-cc54-4fe0-896f-7b982db000ce","ios":"levelo://app?vid=11944b44-cc54-4fe0-896f-7b982db000ce"},"vehicle_type_id":"4","last_reported":1726139240,"current_range_meters":34000,"station_id":"ce4bhnp2rcd13ifvqgvg","pricing_plan_id":"cebpf4jnsgd1na2vs0mg"},{"bike_id":"e0167212-ee16-41be-bd9f-933550ccaf06","system_id":"levelo_inurba_marseille","lat":43.29919,"lon":5.38129,"is_reserved":false,"is_disabled":false,"rental_uris":{"android":"levelo://app?vid=e0167212-ee16-41be-bd9f-933550ccaf06","ios":"levelo://app?vid=e0167212-ee16-41be-bd9f-933550ccaf06"},"vehicle_type_id":"4","last_reported":1726139240,"current_range_meters":30800,"station_id":"ce4bgj12rcd13ifvqbc0","pricing_plan_id":"cebpf4jnsgd1na2vs0mg"},{"bike_id":"399e11e5-05e9-413c-9d9f-0f6fa5bc8030","system_id":"levelo_inurba_marseille","lat":43.30561,"lon":5.36529,"is_reserved":false,"is_disabled":false,"rental_uris":{"android":"levelo://app?vid=399e11e5-05e9-413c-9d9f-0f6fa5bc8030","ios":"levelo://app?vid=399e11e5-05e9-413c-9d9f-0f6fa5bc8030"},"vehicle_type_id":"4","last_reported":1726139240,"current_range_meters":14000,"station_id":"ce4bgs12rcd13ifvqcag","pricing_plan_id":"cebpf4jnsgd1na2vs0mg"},{"bike_id":"f0dbcb79-f813-46bb-a082-491c47f04f44","system_id":"levelo_inurba_marseille","lat":43.30608,"lon":5.37231,"is_reserved":false,"is_disabled":false,"rental_uris":{"android":"levelo://app?vid=f0dbcb79-f813-46bb-a082-491c47f04f44","ios":"levelo://app?vid=f0dbcb79-f813-46bb-a082-491c47f04f44"},"vehicle_type_id":"4","last_reported":1726139240,"current_range_meters":26000,"station_id":"ce4bgqh2rcd13ifvqc4g","pricing_plan_id":"cebpf4jnsgd1na2vs0mg"},{"bike_id":"02cfcf5d-f125-4b6a-8dc7-1d20358961ab","system_id":"levelo_inurba_marseille","lat":43.30458,"lon":5.37915,"is_reserved":false,"is_disabled":false,"rental_uris":{"android":"levelo://app?vid=02cfcf5d-f125-4b6a-8dc7-1d20358961ab","ios":"levelo://app?vid=02cfcf5d-f125-4b6a-8dc7-1d20358961ab"},"vehicle_type_id":"4","last_reported":1726139240,"current_range_meters":9200,"station_id":"ce4bgup2rcd13ifvqcn0","pricing_plan_id":"cebpf4jnsgd1na2vs0mg"},{"bike_id":"c3a84de0-e074-45d2-96a4-3ff17abba9fe","system_id":"levelo_inurba_marseille","lat":43.2408,"lon":5.37737,"is_reserved":false,"is_disabled":false,"rental_uris":{"android":"levelo://app?vid=c3a84de0-e074-45d2-96a4-3ff17abba9fe","ios":"levelo://app?vid=c3a84de0-e074-45d2-96a4-3ff17abba9fe"},"vehicle_type_id":"4","last_reported":1726139240,"current_range_meters":9600,"station_id":"ce4bhnp2rcd13ifvqgvg","pricing_plan_id":"cebpf4jnsgd1na2vs0mg"},{"bike_id":"8add014a-8c18-49d8-9d64-75979ca60819","system_id":"levelo_inurba_marseille","lat":43.26858,"lon":5.39353,"is_reserved":false,"is_disabled":false,"rental_uris":{"android":"levelo://app?vid=8add014a-8c18-49d8-9d64-75979ca60819","ios":"levelo://app?vid=8add014a-8c18-49d8-9d64-75979ca60819"},"vehicle_type_id":"4","last_reported":1726139240,"current_range_meters":9200,"station_id":"ce4bhg12rcd13ifvqf60","pricing_plan_id":"cebpf4jnsgd1na2vs0mg"},{"bike_id":"3ea251e8-ae26-43a1-b52a-50ca8a84c993","system_id":"levelo_inurba_marseille","lat":43.291658,"lon":5.371401,"is_reserved":false,"is_disabled":false,"rental_uris":{"android":"levelo://app?vid=3ea251e8-ae26-43a1-b52a-50ca8a84c993","ios":"levelo://app?vid=3ea251e8-ae26-43a1-b52a-50ca8a84c993"},"vehicle_type_id":"4","last_reported":1726139240,"current_range_meters":18800,"station_id":"ce4bha92rcd13ifvqeh0","pricing_plan_id":"cebpf4jnsgd1na2vs0mg"},{"bike_id":"d55bec3e-cd2b-4f49-91b2-7a9da15ee7fd","system_id":"levelo_inurba_marseille","lat":43.23152,"lon":5.43718,"is_reserved":false,"is_disabled":false,"rental_uris":{"android":"levelo://app?vid=d55bec3e-cd2b-4f49-91b2-7a9da15ee7fd","ios":"levelo://app?vid=d55bec3e-cd2b-4f49-91b2-7a9da15ee7fd"},"vehicle_type_id":"4","last_reported":1726139240,"current_range_meters":27200,"station_id":"ce4bhmp2rcd13ifvqgog","pricing_plan_id":"cebpf4jnsgd1na2vs0mg"},{"bike_id":"bf2d2172-be9c-4d8b-b2a9-e8472749e9f2","system_id":"levelo_inurba_marseille","lat":43.24547,"lon":5.39529,"is_reserved":false,"is_disabled":false,"rental_uris":{"android":"levelo://app?vid=bf2d2172-be9c-4d8b-b2a9-e8472749e9f2","ios":"levelo://app?vid=bf2d2172-be9c-4d8b-b2a9-e8472749e9f2"},"vehicle_type_id":"4","last_reported":1726139240,"current_range_meters":28000,"station_id":"ce4bhlp2rcd13ifvqgjg","pricing_plan_id":"cebpf4jnsgd1na2vs0mg"},{"bike_id":"0a1f63c4-8197-4edd-9c0f-886e05340093","system_id":"levelo_inurba_marseille","lat":43.26214,"lon":5.37442,"is_reserved":false,"is_disabled":false,"rental_uris":{"android":"levelo://app?vid=0a1f63c4-8197-4edd-9c0f-886e05340093","ios":"levelo://app?vid=0a1f63c4-8197-4edd-9c0f-886e05340093"},"vehicle_type_id":"4","last_reported":1726139240,"current_range_meters":36400,"station_id":"ce4bhgp2rcd13ifvqfc0","pricing_plan_id":"cebpf4jnsgd1na2vs0mg"},{"bike_id":"fe54d2c4-eff0-4540-9bb2-07f1b144e817","system_id":"levelo_inurba_marseille","lat":43.29847,"lon":5.36269,"is_reserved":false,"is_disabled":false,"rental_uris":{"android":"levelo://app?vid=fe54d2c4-eff0-4540-9bb2-07f1b144e817","ios":"levelo://app?vid=fe54d2c4-eff0-4540-9bb2-07f1b144e817"},"vehicle_type_id":"4","last_reported":1726139240,"current_range_meters":39200,"station_id":"ce4bgpp2rcd13ifvqc3g","pricing_plan_id":"cebpf4jnsgd1na2vs0mg"},{"bike_id":"721fa92c-defe-4678-b6eb-96834f836f63","system_id":"levelo_inurba_marseille","lat":43.3054,"lon":5.36545,"is_reserved":false,"is_disabled":false,"rental_uris":{"android":"levelo://app?vid=721fa92c-defe-4678-b6eb-96834f836f63","ios":"levelo://app?vid=721fa92c-defe-4678-b6eb-96834f836f63"},"vehicle_type_id":"4","last_reported":1726139240,"current_range_meters":36800,"station_id":"ce4bgs12rcd13ifvqcag","pricing_plan_id":"cebpf4jnsgd1na2vs0mg"},{"bike_id":"a52ae3d9-58a5-4929-a1fa-7958ae557e7d","system_id":"levelo_inurba_marseille","lat":43.25939,"lon":5.40904,"is_reserved":false,"is_disabled":false,"rental_uris":{"android":"levelo://app?vid=a52ae3d9-58a5-4929-a1fa-7958ae557e7d","ios":"levelo://app?vid=a52ae3d9-58a5-4929-a1fa-7958ae557e7d"},"vehicle_type_id":"4","last_reported":1726139240,"current_range_meters":14000,"station_id":"ce4bhm92rcd13ifvqglg","pricing_plan_id":"cebpf4jnsgd1na2vs0mg"},{"bike_id":"554beb7c-19ba-440e-a211-532f35657004","system_id":"levelo_inurba_marseille","lat":43.29553,"lon":5.42285,"is_reserved":false,"is_disabled":false,"rental_uris":{"android":"levelo://app?vid=554beb7c-19ba-440e-a211-532f35657004","ios":"levelo://app?vid=554beb7c-19ba-440e-a211-532f35657004"},"vehicle_type_id":"4","last_reported":1726139240,"current_range_meters":21600,"station_id":"ce4bhph2rcd13ifvqhdg","pricing_plan_id":"cebpf4jnsgd1na2vs0mg"},{"bike_id":"4e969dbe-d0ae-4c38-960f-25adf6a40146","system_id":"levelo_inurba_marseille","lat":43.30284,"lon":5.37689,"is_reserved":false,"is_disabled":false,"rental_uris":{"android":"levelo://app?vid=4e969dbe-d0ae-4c38-960f-25adf6a40146","ios":"levelo://app?vid=4e969dbe-d0ae-4c38-960f-25adf6a40146"},"vehicle_type_id":"4","last_reported":1726139240,"current_range_meters":20800,"station_id":"ce4bguh2rcd13ifvqcj0","pricing_plan_id":"cebpf4jnsgd1na2vs0mg"},{"bike_id":"1654b7b3-ec53-4d5e-8993-e5f3179428df","system_id":"levelo_inurba_marseille","lat":43.30889,"lon":5.37184,"is_reserved":false,"is_disabled":false,"rental_uris":{"android":"levelo://app?vid=1654b7b3-ec53-4d5e-8993-e5f3179428df","ios":"levelo://app?vid=1654b7b3-ec53-4d5e-8993-e5f3179428df"},"vehicle_type_id":"4","last_reported":1726139240,"current_range_meters":33600,"station_id":"ce4bguh2rcd13ifvqckg","pricing_plan_id":"cebpf4jnsgd1na2vs0mg"},{"bike_id":"4067cf6c-6e3d-4ac9-99bf-c1b92b69f736","system_id":"levelo_inurba_marseille","lat":43.32484,"lon":5.36572,"is_reserved":false,"is_disabled":false,"rental_uris":{"android":"levelo://app?vid=4067cf6c-6e3d-4ac9-99bf-c1b92b69f736","ios":"levelo://app?vid=4067cf6c-6e3d-4ac9-99bf-c1b92b69f736"},"vehicle_type_id":"4","last_reported":1726139240,"current_range_meters":26000,"station_id":"ce4bhs12rcd13ifvqhvg","pricing_plan_id":"cebpf4jnsgd1na2vs0mg"},{"bike_id":"352085d8-a232-4bdb-94c4-7e4bc5d644a1","system_id":"levelo_inurba_marseille","lat":43.25929,"lon":5.40914,"is_reserved":false,"is_disabled":false,"rental_uris":{"android":"levelo://app?vid=352085d8-a232-4bdb-94c4-7e4bc5d644a1","ios":"levelo://app?vid=352085d8-a232-4bdb-94c4-7e4bc5d644a1"},"vehicle_type_id":"4","last_reported":1726139240,"current_range_meters":29600,"station_id":"ce4bhm92rcd13ifvqglg","pricing_plan_id":"cebpf4jnsgd1na2vs0mg"},{"bike_id":"cf5a6d6a-12c1-45cd-b415-051d5156920d","system_id":"levelo_inurba_marseille","lat":43.33621,"lon":5.41004,"is_reserved":false,"is_disabled":false,"rental_uris":{"android":"levelo://app?vid=cf5a6d6a-12c1-45cd-b415-051d5156920d","ios":"levelo://app?vid=cf5a6d6a-12c1-45cd-b415-051d5156920d"},"vehicle_type_id":"4","last_reported":1726139240,"current_range_meters":30800,"station_id":"ce4bhqh2rcd13ifvqhmg","pricing_plan_id":"cebpf4jnsgd1na2vs0mg"},{"bike_id":"7ed0d1bd-53f3-47fc-a3b0-a3fc3686360f","system_id":"levelo_inurba_marseille","lat":43.29723,"lon":5.366,"is_reserved":false,"is_disabled":false,"rental_uris":{"android":"levelo://app?vid=7ed0d1bd-53f3-47fc-a3b0-a3fc3686360f","ios":"levelo://app?vid=7ed0d1bd-53f3-47fc-a3b0-a3fc3686360f"},"vehicle_type_id":"4","last_reported":1726139240,"current_range_meters":26800,"station_id":"ce4bgn12rcd13ifvqbt0","pricing_plan_id":"cebpf4jnsgd1na2vs0mg"},{"bike_id":"a36a6131-7175-4d21-afcf-16a3b952996a","system_id":"levelo_inurba_marseille","lat":43.30807,"lon":5.37666,"is_reserved":false,"is_disabled":false,"rental_uris":{"android":"levelo://app?vid=a36a6131-7175-4d21-afcf-16a3b952996a","ios":"levelo://app?vid=a36a6131-7175-4d21-afcf-16a3b952996a"},"vehicle_type_id":"4","last_reported":1726139240,"current_range_meters":4800,"station_id":"ce4bgv92rcd13ifvqcq0","pricing_plan_id":"cebpf4jnsgd1na2vs0mg"},{"bike_id":"ef423b08-7e28-4a7e-bdb8-5d2d125f7b5c","system_id":"levelo_inurba_marseille","lat":43.23969,"lon":5.36636,"is_reserved":false,"is_disabled":false,"rental_uris":{"android":"levelo://app?vid=ef423b08-7e28-4a7e-bdb8-5d2d125f7b5c","ios":"levelo://app?vid=ef423b08-7e28-4a7e-bdb8-5d2d125f7b5c"},"vehicle_type_id":"4","last_reported":1726139240,"current_range_meters":23200,"station_id":"ce4bhi12rcd13ifvqfp0","pricing_plan_id":"cebpf4jnsgd1na2vs0mg"},{"bike_id":"18133a1b-df7b-42d0-89d1-ccdedf5f5524","system_id":"levelo_inurba_marseille","lat":43.30534,"lon":5.36541,"is_reserved":false,"is_disabled":false,"rental_uris":{"android":"levelo://app?vid=18133a1b-df7b-42d0-89d1-ccdedf5f5524","ios":"levelo://app?vid=18133a1b-df7b-42d0-89d1-ccdedf5f5524"},"vehicle_type_id":"4","last_reported":1726139240,"current_range_meters":39200,"station_id":"ce4bgs12rcd13ifvqcag","pricing_plan_id":"cebpf4jnsgd1na2vs0mg"},{"bike_id":"df4b2802-380e-4294-83b5-1679afb45ac3","system_id":"levelo_inurba_marseille","lat":43.30464,"lon":5.3791,"is_reserved":false,"is_disabled":false,"rental_uris":{"android":"levelo://app?vid=df4b2802-380e-4294-83b5-1679afb45ac3","ios":"levelo://app?vid=df4b2802-380e-4294-83b5-1679afb45ac3"},"vehicle_type_id":"4","last_reported":1726139240,"current_range_meters":39200,"station_id":"ce4bgup2rcd13ifvqcn0","pricing_plan_id":"cebpf4jnsgd1na2vs0mg"},{"bike_id":"866e8ab3-70b5-4088-8ec9-0ac7df7850eb","system_id":"levelo_inurba_marseille","lat":43.28338,"lon":5.38106,"is_reserved":false,"is_disabled":false,"rental_uris":{"android":"levelo://app?vid=866e8ab3-70b5-4088-8ec9-0ac7df7850eb","ios":"levelo://app?vid=866e8ab3-70b5-4088-8ec9-0ac7df7850eb"},"vehicle_type_id":"4","last_reported":1726139240,"current_range_meters":30400,"station_id":"ce4bh412rcd13ifvqdr0","pricing_plan_id":"cebpf4jnsgd1na2vs0mg"},{"bike_id":"b413d41f-7993-42f5-a3cc-daaaeaf22886","system_id":"levelo_inurba_marseille","lat":43.32485,"lon":5.36556,"is_reserved":false,"is_disabled":false,"rental_uris":{"android":"levelo://app?vid=b413d41f-7993-42f5-a3cc-daaaeaf22886","ios":"levelo://app?vid=b413d41f-7993-42f5-a3cc-daaaeaf22886"},"vehicle_type_id":"4","last_reported":1726139240,"current_range_meters":27600,"station_id":"ce4bhs12rcd13ifvqhvg","pricing_plan_id":"cebpf4jnsgd1na2vs0mg"},{"bike_id":"1e539d1a-a3f0-48ce-8c1f-d448b8de9c50","system_id":"levelo_inurba_marseille","lat":43.292065,"lon":5.358055,"is_reserved":false,"is_disabled":false,"rental_uris":{"android":"levelo://app?vid=1e539d1a-a3f0-48ce-8c1f-d448b8de9c50","ios":"levelo://app?vid=1e539d1a-a3f0-48ce-8c1f-d448b8de9c50"},"vehicle_type_id":"4","last_reported":1726139240,"current_range_meters":35200,"station_id":"ce4bgi92rcd13ifvqb90","pricing_plan_id":"cebpf4jnsgd1na2vs0mg"},{"bike_id":"ce436c74-8382-49a0-9037-30b6397e19af","system_id":"levelo_inurba_marseille","lat":43.24082,"lon":5.37742,"is_reserved":false,"is_disabled":false,"rental_uris":{"android":"levelo://app?vid=ce436c74-8382-49a0-9037-30b6397e19af","ios":"levelo://app?vid=ce436c74-8382-49a0-9037-30b6397e19af"},"vehicle_type_id":"4","last_reported":1726139240,"current_range_meters":30400,"station_id":"ce4bhnp2rcd13ifvqgvg","pricing_plan_id":"cebpf4jnsgd1na2vs0mg"},{"bike_id":"b4fb803e-3420-48eb-ab3f-006ba2df970a","system_id":"levelo_inurba_marseille","lat":43.25816,"lon":5.39434,"is_reserved":false,"is_disabled":false,"rental_uris":{"android":"levelo://app?vid=b4fb803e-3420-48eb-ab3f-006ba2df970a","ios":"levelo://app?vid=b4fb803e-3420-48eb-ab3f-006ba2df970a"},"vehicle_type_id":"4","last_reported":1726139240,"current_range_meters":20000,"station_id":"ce4bhip2rcd13ifvqft0","pricing_plan_id":"cebpf4jnsgd1na2vs0mg"},{"bike_id":"9e69e5c8-e64c-40fa-bb85-8b83deeaac02","system_id":"levelo_inurba_marseille","lat":43.28475,"lon":5.38422,"is_reserved":false,"is_disabled":false,"rental_uris":{"android":"levelo://app?vid=9e69e5c8-e64c-40fa-bb85-8b83deeaac02","ios":"levelo://app?vid=9e69e5c8-e64c-40fa-bb85-8b83deeaac02"},"vehicle_type_id":"4","last_reported":1726139240,"current_range_meters":10800,"station_id":"ce4bh512rcd13ifvqe3g","pricing_plan_id":"cebpf4jnsgd1na2vs0mg"},{"bike_id":"763ce531-4554-4ce4-91de-402eab6cb9bb","system_id":"levelo_inurba_marseille","lat":43.25,"lon":5.38923,"is_reserved":false,"is_disabled":false,"rental_uris":{"android":"levelo://app?vid=763ce531-4554-4ce4-91de-402eab6cb9bb","ios":"levelo://app?vid=763ce531-4554-4ce4-91de-402eab6cb9bb"},"vehicle_type_id":"4","last_reported":1726139240,"current_range_meters":23200,"station_id":"ce4bhgp2rcd13ifvqfd0","pricing_plan_id":"cebpf4jnsgd1na2vs0mg"},{"bike_id":"f397724e-693c-41fc-8549-c68109fb4bbd","system_id":"levelo_inurba_marseille","lat":43.27321,"lon":5.391,"is_reserved":false,"is_disabled":false,"rental_uris":{"android":"levelo://app?vid=f397724e-693c-41fc-8549-c68109fb4bbd","ios":"levelo://app?vid=f397724e-693c-41fc-8549-c68109fb4bbd"},"vehicle_type_id":"4","last_reported":1726139240,"current_range_meters":28000,"station_id":"ce4bhgp2rcd13ifvqfe0","pricing_plan_id":"cebpf4jnsgd1na2vs0mg"},{"bike_id":"ae3ad6c7-b322-42bb-bf54-fd91ef0db7c7","system_id":"levelo_inurba_marseille","lat":43.24083,"lon":5.37742,"is_reserved":false,"is_disabled":false,"rental_uris":{"android":"levelo://app?vid=ae3ad6c7-b322-42bb-bf54-fd91ef0db7c7","ios":"levelo://app?vid=ae3ad6c7-b322-42bb-bf54-fd91ef0db7c7"},"vehicle_type_id":"4","last_reported":1726139240,"current_range_meters":35600,"station_id":"ce4bhnp2rcd13ifvqgvg","pricing_plan_id":"cebpf4jnsgd1na2vs0mg"},{"bike_id":"b30bfc6e-e268-4030-a53f-06746572ff63","system_id":"levelo_inurba_marseille","lat":43.3237,"lon":5.38887,"is_reserved":false,"is_disabled":false,"rental_uris":{"android":"levelo://app?vid=b30bfc6e-e268-4030-a53f-06746572ff63","ios":"levelo://app?vid=b30bfc6e-e268-4030-a53f-06746572ff63"},"vehicle_type_id":"4","last_reported":1726139240,"current_range_meters":4800,"station_id":"ce4bhqp2rcd13ifvqhog","pricing_plan_id":"cebpf4jnsgd1na2vs0mg"},{"bike_id":"1a3dc256-b974-4b9a-87ae-7f63cf20eba5","system_id":"levelo_inurba_marseille","lat":43.29643,"lon":5.40587,"is_reserved":false,"is_disabled":false,"rental_uris":{"android":"levelo://app?vid=1a3dc256-b974-4b9a-87ae-7f63cf20eba5","ios":"levelo://app?vid=1a3dc256-b974-4b9a-87ae-7f63cf20eba5"},"vehicle_type_id":"4","last_reported":1726139240,"current_range_meters":31200,"station_id":"ce4bh0h2rcd13ifvqd60","pricing_plan_id":"cebpf4jnsgd1na2vs0mg"},{"bike_id":"ca33d2bf-c9f2-4944-aec8-d1b6204ec37b","system_id":"levelo_inurba_marseille","lat":43.29548,"lon":5.42281,"is_reserved":false,"is_disabled":false,"rental_uris":{"android":"levelo://app?vid=ca33d2bf-c9f2-4944-aec8-d1b6204ec37b","ios":"levelo://app?vid=ca33d2bf-c9f2-4944-aec8-d1b6204ec37b"},"vehicle_type_id":"4","last_reported":1726139240,"current_range_meters":24800,"station_id":"ce4bhph2rcd13ifvqhdg","pricing_plan_id":"cebpf4jnsgd1na2vs0mg"},{"bike_id":"ea725dd4-8715-426e-9c29-6ff15e8219b1","system_id":"levelo_inurba_marseille","lat":43.24081,"lon":5.37756,"is_reserved":false,"is_disabled":false,"rental_uris":{"android":"levelo://app?vid=ea725dd4-8715-426e-9c29-6ff15e8219b1","ios":"levelo://app?vid=ea725dd4-8715-426e-9c29-6ff15e8219b1"},"vehicle_type_id":"4","last_reported":1726139240,"current_range_meters":27600,"station_id":"ce4bhnp2rcd13ifvqgvg","pricing_plan_id":"cebpf4jnsgd1na2vs0mg"},{"bike_id":"e4a5e406-b72a-4f07-9791-f4133102a158","system_id":"levelo_inurba_marseille","lat":43.32486,"lon":5.36565,"is_reserved":false,"is_disabled":false,"rental_uris":{"android":"levelo://app?vid=e4a5e406-b72a-4f07-9791-f4133102a158","ios":"levelo://app?vid=e4a5e406-b72a-4f07-9791-f4133102a158"},"vehicle_type_id":"4","last_reported":1726139240,"current_range_meters":12800,"station_id":"ce4bhs12rcd13ifvqhvg","pricing_plan_id":"cebpf4jnsgd1na2vs0mg"},{"bike_id":"5c5af0d3-c9be-4bdb-9114-5f1231192da8","system_id":"levelo_inurba_marseille","lat":43.31228,"lon":5.36863,"is_reserved":false,"is_disabled":false,"rental_uris":{"android":"levelo://app?vid=5c5af0d3-c9be-4bdb-9114-5f1231192da8","ios":"levelo://app?vid=5c5af0d3-c9be-4bdb-9114-5f1231192da8"},"vehicle_type_id":"4","last_reported":1726139240,"current_range_meters":28400,"station_id":"ce4bgl92rcd13ifvqbq0","pricing_plan_id":"cebpf4jnsgd1na2vs0mg"},{"bike_id":"59837249-2cbd-4c07-8a6c-d3192d173b09","system_id":"levelo_inurba_marseille","lat":43.29919,"lon":5.3748,"is_reserved":false,"is_disabled":false,"rental_uris":{"android":"levelo://app?vid=59837249-2cbd-4c07-8a6c-d3192d173b09","ios":"levelo://app?vid=59837249-2cbd-4c07-8a6c-d3192d173b09"},"vehicle_type_id":"4","last_reported":1726139240,"current_range_meters":12400,"station_id":"ce4bgjh2rcd13ifvqbg0","pricing_plan_id":"cebpf4jnsgd1na2vs0mg"},{"bike_id":"25d751f7-8dda-4903-bdc2-e23d4d494216","system_id":"levelo_inurba_marseille","lat":43.23156,"lon":5.43703,"is_reserved":false,"is_disabled":false,"rental_uris":{"android":"levelo://app?vid=25d751f7-8dda-4903-bdc2-e23d4d494216","ios":"levelo://app?vid=25d751f7-8dda-4903-bdc2-e23d4d494216"},"vehicle_type_id":"4","last_reported":1726139240,"current_range_meters":38800,"station_id":"ce4bhmp2rcd13ifvqgog","pricing_plan_id":"cebpf4jnsgd1na2vs0mg"},{"bike_id":"db2b1e41-7799-4d24-86a4-8b1ea58dca12","system_id":"levelo_inurba_marseille","lat":43.29555,"lon":5.42294,"is_reserved":false,"is_disabled":false,"rental_uris":{"android":"levelo://app?vid=db2b1e41-7799-4d24-86a4-8b1ea58dca12","ios":"levelo://app?vid=db2b1e41-7799-4d24-86a4-8b1ea58dca12"},"vehicle_type_id":"4","last_reported":1726139240,"current_range_meters":16000,"station_id":"ce4bhph2rcd13ifvqhdg","pricing_plan_id":"cebpf4jnsgd1na2vs0mg"},{"bike_id":"0e346e90-6296-4fab-8d76-a2efb73245b6","system_id":"levelo_inurba_marseille","lat":43.23147,"lon":5.43715,"is_reserved":false,"is_disabled":false,"rental_uris":{"android":"levelo://app?vid=0e346e90-6296-4fab-8d76-a2efb73245b6","ios":"levelo://app?vid=0e346e90-6296-4fab-8d76-a2efb73245b6"},"vehicle_type_id":"4","last_reported":1726139240,"current_range_meters":9600,"station_id":"ce4bhmp2rcd13ifvqgog","pricing_plan_id":"cebpf4jnsgd1na2vs0mg"},{"bike_id":"81f07673-dfe5-435a-a081-ff73a26a9256","system_id":"levelo_inurba_marseille","lat":43.24082,"lon":5.37756,"is_reserved":false,"is_disabled":false,"rental_uris":{"android":"levelo://app?vid=81f07673-dfe5-435a-a081-ff73a26a9256","ios":"levelo://app?vid=81f07673-dfe5-435a-a081-ff73a26a9256"},"vehicle_type_id":"4","last_reported":1726139240,"current_range_meters":10800,"station_id":"ce4bhnp2rcd13ifvqgvg","pricing_plan_id":"cebpf4jnsgd1na2vs0mg"},{"bike_id":"7ce587b3-eff6-4385-aed2-96acfc8e123a","system_id":"levelo_inurba_marseille","lat":43.30913,"lon":5.36852,"is_reserved":false,"is_disabled":false,"rental_uris":{"android":"levelo://app?vid=7ce587b3-eff6-4385-aed2-96acfc8e123a","ios":"levelo://app?vid=7ce587b3-eff6-4385-aed2-96acfc8e123a"},"vehicle_type_id":"4","last_reported":1726139240,"current_range_meters":34800,"station_id":"ce4bgn92rcd13ifvqbvg","pricing_plan_id":"cebpf4jnsgd1na2vs0mg"},{"bike_id":"d75380cf-78aa-42db-a28e-f5bbe886725a","system_id":"levelo_inurba_marseille","lat":43.28836,"lon":5.35853,"is_reserved":false,"is_disabled":false,"rental_uris":{"android":"levelo://app?vid=d75380cf-78aa-42db-a28e-f5bbe886725a","ios":"levelo://app?vid=d75380cf-78aa-42db-a28e-f5bbe886725a"},"vehicle_type_id":"4","last_reported":1726139240,"current_range_meters":7200,"station_id":"ce4bhb12rcd13ifvqem0","pricing_plan_id":"cebpf4jnsgd1na2vs0mg"},{"bike_id":"fd9e5aa0-c448-4356-9d4d-a856faf8b847","system_id":"levelo_inurba_marseille","lat":43.30414,"lon":5.41282,"is_reserved":false,"is_disabled":false,"rental_uris":{"android":"levelo://app?vid=fd9e5aa0-c448-4356-9d4d-a856faf8b847","ios":"levelo://app?vid=fd9e5aa0-c448-4356-9d4d-a856faf8b847"},"vehicle_type_id":"4","last_reported":1726139240,"current_range_meters":6000,"station_id":"ce4bhop2rcd13ifvqh8g","pricing_plan_id":"cebpf4jnsgd1na2vs0mg"},{"bike_id":"2f51a789-eea0-44dd-98f7-aa48c80747d9","system_id":"levelo_inurba_marseille","lat":43.27205,"lon":5.39194,"is_reserved":false,"is_disabled":false,"rental_uris":{"android":"levelo://app?vid=2f51a789-eea0-44dd-98f7-aa48c80747d9","ios":"levelo://app?vid=2f51a789-eea0-44dd-98f7-aa48c80747d9"},"vehicle_type_id":"4","last_reported":1726139240,"current_range_meters":26000,"station_id":"ce4bhhp2rcd13ifvqfm0","pricing_plan_id":"cebpf4jnsgd1na2vs0mg"},{"bike_id":"b16bb329-10f2-4ed4-b05b-7be1eb93eef0","system_id":"levelo_inurba_marseille","lat":43.26939,"lon":5.38918,"is_reserved":false,"is_disabled":false,"rental_uris":{"android":"levelo://app?vid=b16bb329-10f2-4ed4-b05b-7be1eb93eef0","ios":"levelo://app?vid=b16bb329-10f2-4ed4-b05b-7be1eb93eef0"},"vehicle_type_id":"4","last_reported":1726139240,"current_range_meters":6400,"station_id":"ce4bhhh2rcd13ifvqfl0","pricing_plan_id":"cebpf4jnsgd1na2vs0mg"},{"bike_id":"cfdd0e5d-34af-414f-999a-c01c6f568ccf","system_id":"levelo_inurba_marseille","lat":43.24546,"lon":5.39524,"is_reserved":false,"is_disabled":false,"rental_uris":{"android":"levelo://app?vid=cfdd0e5d-34af-414f-999a-c01c6f568ccf","ios":"levelo://app?vid=cfdd0e5d-34af-414f-999a-c01c6f568ccf"},"vehicle_type_id":"4","last_reported":1726139240,"current_range_meters":4000,"station_id":"ce4bhlp2rcd13ifvqgjg","pricing_plan_id":"cebpf4jnsgd1na2vs0mg"},{"bike_id":"2c4577b3-3689-495e-a3c3-a78eafd4dc43","system_id":"levelo_inurba_marseille","lat":43.26555,"lon":5.37286,"is_reserved":false,"is_disabled":false,"rental_uris":{"android":"levelo://app?vid=2c4577b3-3689-495e-a3c3-a78eafd4dc43","ios":"levelo://app?vid=2c4577b3-3689-495e-a3c3-a78eafd4dc43"},"vehicle_type_id":"4","last_reported":1726139240,"current_range_meters":27200,"station_id":"ce4bhg12rcd13ifvqf70","pricing_plan_id":"cebpf4jnsgd1na2vs0mg"},{"bike_id":"dc015658-d53f-47a4-b68d-0c6ca08211bb","system_id":"levelo_inurba_marseille","lat":43.23151,"lon":5.43718,"is_reserved":false,"is_disabled":false,"rental_uris":{"android":"levelo://app?vid=dc015658-d53f-47a4-b68d-0c6ca08211bb","ios":"levelo://app?vid=dc015658-d53f-47a4-b68d-0c6ca08211bb"},"vehicle_type_id":"4","last_reported":1726139240,"current_range_meters":5600,"station_id":"ce4bhmp2rcd13ifvqgog","pricing_plan_id":"cebpf4jnsgd1na2vs0mg"},{"bike_id":"c3baa9f4-1a80-441e-aae4-6876a6aba553","system_id":"levelo_inurba_marseille","lat":43.3229,"lon":5.3826,"is_reserved":false,"is_disabled":false,"rental_uris":{"android":"levelo://app?vid=c3baa9f4-1a80-441e-aae4-6876a6aba553","ios":"levelo://app?vid=c3baa9f4-1a80-441e-aae4-6876a6aba553"},"vehicle_type_id":"4","last_reported":1726139240,"current_range_meters":35200,"station_id":"ce4bhr12rcd13ifvqhqg","pricing_plan_id":"cebpf4jnsgd1na2vs0mg"},{"bike_id":"1de49c78-0af1-439a-b625-da2c38e06562","system_id":"levelo_inurba_marseille","lat":43.30892,"lon":5.37183,"is_reserved":false,"is_disabled":false,"rental_uris":{"android":"levelo://app?vid=1de49c78-0af1-439a-b625-da2c38e06562","ios":"levelo://app?vid=1de49c78-0af1-439a-b625-da2c38e06562"},"vehicle_type_id":"4","last_reported":1726139240,"current_range_meters":16000,"station_id":"ce4bguh2rcd13ifvqckg","pricing_plan_id":"cebpf4jnsgd1na2vs0mg"},{"bike_id":"63c8ef1b-e414-4be5-8157-63c30170851f","system_id":"levelo_inurba_marseille","lat":43.26943,"lon":5.40254,"is_reserved":false,"is_disabled":false,"rental_uris":{"android":"levelo://app?vid=63c8ef1b-e414-4be5-8157-63c30170851f","ios":"levelo://app?vid=63c8ef1b-e414-4be5-8157-63c30170851f"},"vehicle_type_id":"4","last_reported":1726139240,"current_range_meters":14400,"station_id":"cjm6bp8fraef2m0cb0m0","pricing_plan_id":"cebpf4jnsgd1na2vs0mg"},{"bike_id":"60d5bda9-f640-405a-935d-62d1314e50fa","system_id":"levelo_inurba_marseille","lat":43.23971,"lon":5.36627,"is_reserved":false,"is_disabled":false,"rental_uris":{"android":"levelo://app?vid=60d5bda9-f640-405a-935d-62d1314e50fa","ios":"levelo://app?vid=60d5bda9-f640-405a-935d-62d1314e50fa"},"vehicle_type_id":"4","last_reported":1726139240,"current_range_meters":30000,"station_id":"ce4bhi12rcd13ifvqfp0","pricing_plan_id":"cebpf4jnsgd1na2vs0mg"},{"bike_id":"f2b92cba-7238-4bd4-80aa-bb0908046a7b","system_id":"levelo_inurba_marseille","lat":43.26867,"lon":5.40786,"is_reserved":false,"is_disabled":false,"rental_uris":{"android":"levelo://app?vid=f2b92cba-7238-4bd4-80aa-bb0908046a7b","ios":"levelo://app?vid=f2b92cba-7238-4bd4-80aa-bb0908046a7b"},"vehicle_type_id":"4","last_reported":1726139240,"current_range_meters":21600,"station_id":"","pricing_plan_id":"cebpf4jnsgd1na2vs0mg"},{"bike_id":"d970b38c-7387-43bd-989f-d6f74d17f57e","system_id":"levelo_inurba_marseille","lat":43.30537,"lon":5.36546,"is_reserved":false,"is_disabled":false,"rental_uris":{"android":"levelo://app?vid=d970b38c-7387-43bd-989f-d6f74d17f57e","ios":"levelo://app?vid=d970b38c-7387-43bd-989f-d6f74d17f57e"},"vehicle_type_id":"4","last_reported":1726139240,"current_range_meters":39200,"station_id":"ce4bgs12rcd13ifvqcag","pricing_plan_id":"cebpf4jnsgd1na2vs0mg"},{"bike_id":"cdf2209c-cb4a-468b-8bfa-5fe2cae87824","system_id":"levelo_inurba_marseille","lat":43.31077,"lon":5.42431,"is_reserved":false,"is_disabled":false,"rental_uris":{"android":"levelo://app?vid=cdf2209c-cb4a-468b-8bfa-5fe2cae87824","ios":"levelo://app?vid=cdf2209c-cb4a-468b-8bfa-5fe2cae87824"},"vehicle_type_id":"4","last_reported":1726139240,"current_range_meters":29600,"station_id":"ce4bhp92rcd13ifvqhag","pricing_plan_id":"cebpf4jnsgd1na2vs0mg"},{"bike_id":"4c5647cf-fe09-49cb-ae2b-6634d495d981","system_id":"levelo_inurba_marseille","lat":43.28716,"lon":5.37947,"is_reserved":false,"is_disabled":false,"rental_uris":{"android":"levelo://app?vid=4c5647cf-fe09-49cb-ae2b-6634d495d981","ios":"levelo://app?vid=4c5647cf-fe09-49cb-ae2b-6634d495d981"},"vehicle_type_id":"4","last_reported":1726139240,"current_range_meters":14400,"station_id":"ce4bh9p2rcd13ifvqec0","pricing_plan_id":"cebpf4jnsgd1na2vs0mg"},{"bike_id":"79307c45-43b6-4519-b034-5a30831e758c","system_id":"levelo_inurba_marseille","lat":43.30618,"lon":5.37227,"is_reserved":false,"is_disabled":false,"rental_uris":{"android":"levelo://app?vid=79307c45-43b6-4519-b034-5a30831e758c","ios":"levelo://app?vid=79307c45-43b6-4519-b034-5a30831e758c"},"vehicle_type_id":"4","last_reported":1726139240,"current_range_meters":33200,"station_id":"ce4bgqh2rcd13ifvqc4g","pricing_plan_id":"cebpf4jnsgd1na2vs0mg"},{"bike_id":"ac61b3d5-4a9a-4e8e-8909-e3b91f61a358","system_id":"levelo_inurba_marseille","lat":43.30293,"lon":5.37706,"is_reserved":false,"is_disabled":false,"rental_uris":{"android":"levelo://app?vid=ac61b3d5-4a9a-4e8e-8909-e3b91f61a358","ios":"levelo://app?vid=ac61b3d5-4a9a-4e8e-8909-e3b91f61a358"},"vehicle_type_id":"4","last_reported":1726139240,"current_range_meters":38400,"station_id":"ce4bguh2rcd13ifvqcj0","pricing_plan_id":"cebpf4jnsgd1na2vs0mg"},{"bike_id":"dd99ab3d-cb76-4b60-b553-275a65eef40e","system_id":"levelo_inurba_marseille","lat":43.25936,"lon":5.40908,"is_reserved":false,"is_disabled":false,"rental_uris":{"android":"levelo://app?vid=dd99ab3d-cb76-4b60-b553-275a65eef40e","ios":"levelo://app?vid=dd99ab3d-cb76-4b60-b553-275a65eef40e"},"vehicle_type_id":"4","last_reported":1726139240,"current_range_meters":33200,"station_id":"ce4bhm92rcd13ifvqglg","pricing_plan_id":"cebpf4jnsgd1na2vs0mg"},{"bike_id":"a794bbd9-e83e-4910-83a4-566ea7e762eb","system_id":"levelo_inurba_marseille","lat":43.24995,"lon":5.38935,"is_reserved":false,"is_disabled":false,"rental_uris":{"android":"levelo://app?vid=a794bbd9-e83e-4910-83a4-566ea7e762eb","ios":"levelo://app?vid=a794bbd9-e83e-4910-83a4-566ea7e762eb"},"vehicle_type_id":"4","last_reported":1726139240,"current_range_meters":6800,"station_id":"ce4bhgp2rcd13ifvqfd0","pricing_plan_id":"cebpf4jnsgd1na2vs0mg"},{"bike_id":"ac990218-e320-466b-b8bd-4a1f4844c212","system_id":"levelo_inurba_marseille","lat":43.27379,"lon":5.36257,"is_reserved":false,"is_disabled":false,"rental_uris":{"android":"levelo://app?vid=ac990218-e320-466b-b8bd-4a1f4844c212","ios":"levelo://app?vid=ac990218-e320-466b-b8bd-4a1f4844c212"},"vehicle_type_id":"4","last_reported":1726139240,"current_range_meters":4000,"station_id":"ce4bhbh2rcd13ifvqeo0","pricing_plan_id":"cebpf4jnsgd1na2vs0mg"},{"bike_id":"82b821f8-6e0d-4a70-a0ca-df900bc21fc8","system_id":"levelo_inurba_marseille","lat":43.29975,"lon":5.38489,"is_reserved":false,"is_disabled":false,"rental_uris":{"android":"levelo://app?vid=82b821f8-6e0d-4a70-a0ca-df900bc21fc8","ios":"levelo://app?vid=82b821f8-6e0d-4a70-a0ca-df900bc21fc8"},"vehicle_type_id":"4","last_reported":1726139240,"current_range_meters":17600,"station_id":"ce4bgj92rcd13ifvqbd0","pricing_plan_id":"cebpf4jnsgd1na2vs0mg"},{"bike_id":"17cf805d-1f6c-40c3-93db-94c2af171f3b","system_id":"levelo_inurba_marseille","lat":43.31817,"lon":5.40545,"is_reserved":false,"is_disabled":false,"rental_uris":{"android":"levelo://app?vid=17cf805d-1f6c-40c3-93db-94c2af171f3b","ios":"levelo://app?vid=17cf805d-1f6c-40c3-93db-94c2af171f3b"},"vehicle_type_id":"4","last_reported":1726139240,"current_range_meters":28800,"station_id":"","pricing_plan_id":"cebpf4jnsgd1na2vs0mg"},{"bike_id":"10e7e032-ccbd-46cd-b9a4-50be4d18ac8b","system_id":"levelo_inurba_marseille","lat":43.24666,"lon":5.38161,"is_reserved":false,"is_disabled":false,"rental_uris":{"android":"levelo://app?vid=10e7e032-ccbd-46cd-b9a4-50be4d18ac8b","ios":"levelo://app?vid=10e7e032-ccbd-46cd-b9a4-50be4d18ac8b"},"vehicle_type_id":"4","last_reported":1726139240,"current_range_meters":36000,"station_id":"ce4bhih2rcd13ifvqfr0","pricing_plan_id":"cebpf4jnsgd1na2vs0mg"},{"bike_id":"cb16290f-1b68-4ac4-897a-62170d60528d","system_id":"levelo_inurba_marseille","lat":43.33766,"lon":5.37421,"is_reserved":false,"is_disabled":false,"rental_uris":{"android":"levelo://app?vid=cb16290f-1b68-4ac4-897a-62170d60528d","ios":"levelo://app?vid=cb16290f-1b68-4ac4-897a-62170d60528d"},"vehicle_type_id":"4","last_reported":1726139240,"current_range_meters":30400,"station_id":"","pricing_plan_id":"cebpf4jnsgd1na2vs0mg"},{"bike_id":"9f3066bd-94ad-4b6a-b0f8-8a46517297de","system_id":"levelo_inurba_marseille","lat":43.30594,"lon":5.37214,"is_reserved":false,"is_disabled":false,"rental_uris":{"android":"levelo://app?vid=9f3066bd-94ad-4b6a-b0f8-8a46517297de","ios":"levelo://app?vid=9f3066bd-94ad-4b6a-b0f8-8a46517297de"},"vehicle_type_id":"4","last_reported":1726139240,"current_range_meters":39200,"station_id":"ce4bgqh2rcd13ifvqc4g","pricing_plan_id":"cebpf4jnsgd1na2vs0mg"},{"bike_id":"2eac0f31-2c74-47b2-b432-9b295a6c364c","system_id":"levelo_inurba_marseille","lat":43.34144,"lon":5.40905,"is_reserved":false,"is_disabled":false,"rental_uris":{"android":"levelo://app?vid=2eac0f31-2c74-47b2-b432-9b295a6c364c","ios":"levelo://app?vid=2eac0f31-2c74-47b2-b432-9b295a6c364c"},"vehicle_type_id":"4","last_reported":1726139240,"current_range_meters":4400,"station_id":"ce4bhqh2rcd13ifvqhlg","pricing_plan_id":"cebpf4jnsgd1na2vs0mg"},{"bike_id":"e43aa60c-1314-4d9e-ab0a-d4cc3c0584a4","system_id":"levelo_inurba_marseille","lat":43.2408,"lon":5.37752,"is_reserved":false,"is_disabled":false,"rental_uris":{"android":"levelo://app?vid=e43aa60c-1314-4d9e-ab0a-d4cc3c0584a4","ios":"levelo://app?vid=e43aa60c-1314-4d9e-ab0a-d4cc3c0584a4"},"vehicle_type_id":"4","last_reported":1726139240,"current_range_meters":37600,"station_id":"ce4bhnp2rcd13ifvqgvg","pricing_plan_id":"cebpf4jnsgd1na2vs0mg"},{"bike_id":"c8d291f1-0c46-4e09-8e79-c7c2d106ea12","system_id":"levelo_inurba_marseille","lat":43.30463,"lon":5.37902,"is_reserved":false,"is_disabled":false,"rental_uris":{"android":"levelo://app?vid=c8d291f1-0c46-4e09-8e79-c7c2d106ea12","ios":"levelo://app?vid=c8d291f1-0c46-4e09-8e79-c7c2d106ea12"},"vehicle_type_id":"4","last_reported":1726139240,"current_range_meters":20400,"station_id":"ce4bgup2rcd13ifvqcn0","pricing_plan_id":"cebpf4jnsgd1na2vs0mg"},{"bike_id":"42f4c576-b9c9-451e-bb09-e9ba24f78231","system_id":"levelo_inurba_marseille","lat":43.24076,"lon":5.37756,"is_reserved":false,"is_disabled":false,"rental_uris":{"android":"levelo://app?vid=42f4c576-b9c9-451e-bb09-e9ba24f78231","ios":"levelo://app?vid=42f4c576-b9c9-451e-bb09-e9ba24f78231"},"vehicle_type_id":"4","last_reported":1726139240,"current_range_meters":34000,"station_id":"ce4bhnp2rcd13ifvqgvg","pricing_plan_id":"cebpf4jnsgd1na2vs0mg"},{"bike_id":"dfd604c4-221b-442d-8f0c-5524a0446526","system_id":"levelo_inurba_marseille","lat":43.3029,"lon":5.3771,"is_reserved":false,"is_disabled":false,"rental_uris":{"android":"levelo://app?vid=dfd604c4-221b-442d-8f0c-5524a0446526","ios":"levelo://app?vid=dfd604c4-221b-442d-8f0c-5524a0446526"},"vehicle_type_id":"4","last_reported":1726139240,"current_range_meters":39200,"station_id":"ce4bguh2rcd13ifvqcj0","pricing_plan_id":"cebpf4jnsgd1na2vs0mg"},{"bike_id":"7d348dd9-aba5-4535-bda9-b52ada6017ef","system_id":"levelo_inurba_marseille","lat":43.26191,"lon":5.37446,"is_reserved":false,"is_disabled":false,"rental_uris":{"android":"levelo://app?vid=7d348dd9-aba5-4535-bda9-b52ada6017ef","ios":"levelo://app?vid=7d348dd9-aba5-4535-bda9-b52ada6017ef"},"vehicle_type_id":"4","last_reported":1726139240,"current_range_meters":36800,"station_id":"ce4bhgp2rcd13ifvqfc0","pricing_plan_id":"cebpf4jnsgd1na2vs0mg"},{"bike_id":"9f7ee0be-e9c7-4974-9a33-f647d44b45df","system_id":"levelo_inurba_marseille","lat":43.31226,"lon":5.36858,"is_reserved":false,"is_disabled":false,"rental_uris":{"android":"levelo://app?vid=9f7ee0be-e9c7-4974-9a33-f647d44b45df","ios":"levelo://app?vid=9f7ee0be-e9c7-4974-9a33-f647d44b45df"},"vehicle_type_id":"4","last_reported":1726139240,"current_range_meters":32000,"station_id":"ce4bgl92rcd13ifvqbq0","pricing_plan_id":"cebpf4jnsgd1na2vs0mg"},{"bike_id":"db560bbf-7475-4a99-a0c9-3ed933d0d4ad","system_id":"levelo_inurba_marseille","lat":43.29967,"lon":5.38507,"is_reserved":false,"is_disabled":false,"rental_uris":{"android":"levelo://app?vid=db560bbf-7475-4a99-a0c9-3ed933d0d4ad","ios":"levelo://app?vid=db560bbf-7475-4a99-a0c9-3ed933d0d4ad"},"vehicle_type_id":"4","last_reported":1726139240,"current_range_meters":26000,"station_id":"ce4bgj92rcd13ifvqbd0","pricing_plan_id":"cebpf4jnsgd1na2vs0mg"},{"bike_id":"59c63ac3-c7c2-492d-8faf-09af45f74270","system_id":"levelo_inurba_marseille","lat":43.24803,"lon":5.37449,"is_reserved":false,"is_disabled":false,"rental_uris":{"android":"levelo://app?vid=59c63ac3-c7c2-492d-8faf-09af45f74270","ios":"levelo://app?vid=59c63ac3-c7c2-492d-8faf-09af45f74270"},"vehicle_type_id":"4","last_reported":1726139240,"current_range_meters":15200,"station_id":"ce4bhgh2rcd13ifvqfb0","pricing_plan_id":"cebpf4jnsgd1na2vs0mg"},{"bike_id":"e44c9ce9-6843-4c55-8ea6-964cf1e6f9bd","system_id":"levelo_inurba_marseille","lat":43.31262,"lon":5.4017,"is_reserved":false,"is_disabled":false,"rental_uris":{"android":"levelo://app?vid=e44c9ce9-6843-4c55-8ea6-964cf1e6f9bd","ios":"levelo://app?vid=e44c9ce9-6843-4c55-8ea6-964cf1e6f9bd"},"vehicle_type_id":"4","last_reported":1726139240,"current_range_meters":8800,"station_id":"ce4bh092rcd13ifvqd30","pricing_plan_id":"cebpf4jnsgd1na2vs0mg"},{"bike_id":"02964caf-f190-471e-a530-d0fefedd8874","system_id":"levelo_inurba_marseille","lat":43.25932,"lon":5.409,"is_reserved":false,"is_disabled":false,"rental_uris":{"android":"levelo://app?vid=02964caf-f190-471e-a530-d0fefedd8874","ios":"levelo://app?vid=02964caf-f190-471e-a530-d0fefedd8874"},"vehicle_type_id":"4","last_reported":1726139240,"current_range_meters":27200,"station_id":"ce4bhm92rcd13ifvqglg","pricing_plan_id":"cebpf4jnsgd1na2vs0mg"},{"bike_id":"19510ac0-bff4-45d4-bdb2-93c175745534","system_id":"levelo_inurba_marseille","lat":43.29721,"lon":5.3768,"is_reserved":false,"is_disabled":false,"rental_uris":{"android":"levelo://app?vid=19510ac0-bff4-45d4-bdb2-93c175745534","ios":"levelo://app?vid=19510ac0-bff4-45d4-bdb2-93c175745534"},"vehicle_type_id":"4","last_reported":1726139240,"current_range_meters":33600,"station_id":"ce4bgkh2rcd13ifvqbl0","pricing_plan_id":"cebpf4jnsgd1na2vs0mg"},{"bike_id":"cd2104e9-fe8f-4a8d-a2d7-15eafb601787","system_id":"levelo_inurba_marseille","lat":43.31224,"lon":5.36842,"is_reserved":false,"is_disabled":false,"rental_uris":{"android":"levelo://app?vid=cd2104e9-fe8f-4a8d-a2d7-15eafb601787","ios":"levelo://app?vid=cd2104e9-fe8f-4a8d-a2d7-15eafb601787"},"vehicle_type_id":"4","last_reported":1726139240,"current_range_meters":38400,"station_id":"ce4bgl92rcd13ifvqbq0","pricing_plan_id":"cebpf4jnsgd1na2vs0mg"},{"bike_id":"d61ea60c-bb3a-4925-ab8c-f9f09d963cac","system_id":"levelo_inurba_marseille","lat":43.29614,"lon":5.37724,"is_reserved":false,"is_disabled":false,"rental_uris":{"android":"levelo://app?vid=d61ea60c-bb3a-4925-ab8c-f9f09d963cac","ios":"levelo://app?vid=d61ea60c-bb3a-4925-ab8c-f9f09d963cac"},"vehicle_type_id":"4","last_reported":1726139240,"current_range_meters":27200,"station_id":"ce4bgi92rcd13ifvqb90","pricing_plan_id":"cebpf4jnsgd1na2vs0mg"},{"bike_id":"2e124a7a-275a-4db2-b3b6-68381ae43f6d","system_id":"levelo_inurba_marseille","lat":43.29008,"lon":5.3561,"is_reserved":false,"is_disabled":false,"rental_uris":{"android":"levelo://app?vid=2e124a7a-275a-4db2-b3b6-68381ae43f6d","ios":"levelo://app?vid=2e124a7a-275a-4db2-b3b6-68381ae43f6d"},"vehicle_type_id":"4","last_reported":1726139240,"current_range_meters":38800,"station_id":"ce4bhb92rcd13ifvqen0","pricing_plan_id":"cebpf4jnsgd1na2vs0mg"},{"bike_id":"dc5dca54-8ebf-43b2-acf8-9ae498c9992e","system_id":"levelo_inurba_marseille","lat":43.29545,"lon":5.38545,"is_reserved":false,"is_disabled":false,"rental_uris":{"android":"levelo://app?vid=dc5dca54-8ebf-43b2-acf8-9ae498c9992e","ios":"levelo://app?vid=dc5dca54-8ebf-43b2-acf8-9ae498c9992e"},"vehicle_type_id":"4","last_reported":1726139240,"current_range_meters":36400,"station_id":"ce4bgih2rcd13ifvqba0","pricing_plan_id":"cebpf4jnsgd1na2vs0mg"},{"bike_id":"4e3ca368-a30a-4554-a315-c5011666e147","system_id":"levelo_inurba_marseille","lat":43.295553,"lon":5.422876,"is_reserved":false,"is_disabled":false,"rental_uris":{"android":"levelo://app?vid=4e3ca368-a30a-4554-a315-c5011666e147","ios":"levelo://app?vid=4e3ca368-a30a-4554-a315-c5011666e147"},"vehicle_type_id":"4","last_reported":1726139240,"current_range_meters":22000,"station_id":"ce4bh2p2rcd13ifvqdi0","pricing_plan_id":"cebpf4jnsgd1na2vs0mg"},{"bike_id":"deaeb920-23ab-4b51-a90a-3a4d369b9959","system_id":"levelo_inurba_marseille","lat":43.26557,"lon":5.37289,"is_reserved":false,"is_disabled":false,"rental_uris":{"android":"levelo://app?vid=deaeb920-23ab-4b51-a90a-3a4d369b9959","ios":"levelo://app?vid=deaeb920-23ab-4b51-a90a-3a4d369b9959"},"vehicle_type_id":"4","last_reported":1726139240,"current_range_meters":12800,"station_id":"ce4bhg12rcd13ifvqf70","pricing_plan_id":"cebpf4jnsgd1na2vs0mg"},{"bike_id":"2e9b69bd-dd39-439b-9196-b0372d2737db","system_id":"levelo_inurba_marseille","lat":43.26031,"lon":5.37546,"is_reserved":false,"is_disabled":false,"rental_uris":{"android":"levelo://app?vid=2e9b69bd-dd39-439b-9196-b0372d2737db","ios":"levelo://app?vid=2e9b69bd-dd39-439b-9196-b0372d2737db"},"vehicle_type_id":"4","last_reported":1726139240,"current_range_meters":2000,"station_id":"ce4bhgh2rcd13ifvqfa0","pricing_plan_id":"cebpf4jnsgd1na2vs0mg"},{"bike_id":"fc13766f-b902-40e7-8a20-6d02842a3ec2","system_id":"levelo_inurba_marseille","lat":43.29269,"lon":5.36856,"is_reserved":false,"is_disabled":false,"rental_uris":{"android":"levelo://app?vid=fc13766f-b902-40e7-8a20-6d02842a3ec2","ios":"levelo://app?vid=fc13766f-b902-40e7-8a20-6d02842a3ec2"},"vehicle_type_id":"4","last_reported":1726139240,"current_range_meters":38400,"station_id":"ce4bhbp2rcd13ifvqesg","pricing_plan_id":"cebpf4jnsgd1na2vs0mg"},{"bike_id":"c1142c8d-e336-4538-9544-b15b7b40b9ec","system_id":"levelo_inurba_marseille","lat":43.30942,"lon":5.39033,"is_reserved":false,"is_disabled":false,"rental_uris":{"android":"levelo://app?vid=c1142c8d-e336-4538-9544-b15b7b40b9ec","ios":"levelo://app?vid=c1142c8d-e336-4538-9544-b15b7b40b9ec"},"vehicle_type_id":"4","last_reported":1726139240,"current_range_meters":6400,"station_id":"ce4bgup2rcd13ifvqco0","pricing_plan_id":"cebpf4jnsgd1na2vs0mg"},{"bike_id":"ba72e858-571b-4d91-a29b-a577f810152e","system_id":"levelo_inurba_marseille","lat":43.25727,"lon":5.41111,"is_reserved":false,"is_disabled":false,"rental_uris":{"android":"levelo://app?vid=ba72e858-571b-4d91-a29b-a577f810152e","ios":"levelo://app?vid=ba72e858-571b-4d91-a29b-a577f810152e"},"vehicle_type_id":"4","last_reported":1726139240,"current_range_meters":22800,"station_id":"ce4bhkp2rcd13ifvqgd0","pricing_plan_id":"cebpf4jnsgd1na2vs0mg"},{"bike_id":"5b447c57-133e-42cd-827f-e526e0bfeef2","system_id":"levelo_inurba_marseille","lat":43.31356,"lon":5.36707,"is_reserved":false,"is_disabled":false,"rental_uris":{"android":"levelo://app?vid=5b447c57-133e-42cd-827f-e526e0bfeef2","ios":"levelo://app?vid=5b447c57-133e-42cd-827f-e526e0bfeef2"},"vehicle_type_id":"4","last_reported":1726139240,"current_range_meters":38800,"station_id":"ce4bgr92rcd13ifvqc6g","pricing_plan_id":"cebpf4jnsgd1na2vs0mg"},{"bike_id":"b339ada7-e3c9-4078-8ab9-62d2173286d7","system_id":"levelo_inurba_marseille","lat":43.30539,"lon":5.36538,"is_reserved":false,"is_disabled":false,"rental_uris":{"android":"levelo://app?vid=b339ada7-e3c9-4078-8ab9-62d2173286d7","ios":"levelo://app?vid=b339ada7-e3c9-4078-8ab9-62d2173286d7"},"vehicle_type_id":"4","last_reported":1726139240,"current_range_meters":24400,"station_id":"ce4bgs12rcd13ifvqcag","pricing_plan_id":"cebpf4jnsgd1na2vs0mg"},{"bike_id":"3a402e5d-763c-46ac-b2c9-c8d83fbce851","system_id":"levelo_inurba_marseille","lat":43.337444,"lon":5.374475,"is_reserved":false,"is_disabled":false,"rental_uris":{"android":"levelo://app?vid=3a402e5d-763c-46ac-b2c9-c8d83fbce851","ios":"levelo://app?vid=3a402e5d-763c-46ac-b2c9-c8d83fbce851"},"vehicle_type_id":"4","last_reported":1726139240,"current_range_meters":8000,"station_id":"ce4bhoh2rcd13ifvqh5g","pricing_plan_id":"cebpf4jnsgd1na2vs0mg"},{"bike_id":"7a9db6cc-034f-4ca0-a824-db851afb7f24","system_id":"levelo_inurba_marseille","lat":43.31212,"lon":5.36852,"is_reserved":false,"is_disabled":false,"rental_uris":{"android":"levelo://app?vid=7a9db6cc-034f-4ca0-a824-db851afb7f24","ios":"levelo://app?vid=7a9db6cc-034f-4ca0-a824-db851afb7f24"},"vehicle_type_id":"4","last_reported":1726139240,"current_range_meters":28000,"station_id":"ce4bgl92rcd13ifvqbq0","pricing_plan_id":"cebpf4jnsgd1na2vs0mg"},{"bike_id":"d84e1855-9776-4720-b93f-2773164bd933","system_id":"levelo_inurba_marseille","lat":43.287062,"lon":5.399901,"is_reserved":false,"is_disabled":false,"rental_uris":{"android":"levelo://app?vid=d84e1855-9776-4720-b93f-2773164bd933","ios":"levelo://app?vid=d84e1855-9776-4720-b93f-2773164bd933"},"vehicle_type_id":"4","last_reported":1726139240,"current_range_meters":38800,"station_id":"ce4bho92rcd13ifvqh3g","pricing_plan_id":"cebpf4jnsgd1na2vs0mg"},{"bike_id":"c73ba865-18e7-4e6c-b5cd-1391ac57c031","system_id":"levelo_inurba_marseille","lat":43.29626,"lon":5.37712,"is_reserved":false,"is_disabled":false,"rental_uris":{"android":"levelo://app?vid=c73ba865-18e7-4e6c-b5cd-1391ac57c031","ios":"levelo://app?vid=c73ba865-18e7-4e6c-b5cd-1391ac57c031"},"vehicle_type_id":"4","last_reported":1726139240,"current_range_meters":24800,"station_id":"ce4bgi92rcd13ifvqb90","pricing_plan_id":"cebpf4jnsgd1na2vs0mg"},{"bike_id":"a78102a0-bfeb-4bfd-a176-51b3099f4535","system_id":"levelo_inurba_marseille","lat":43.24083,"lon":5.37762,"is_reserved":false,"is_disabled":false,"rental_uris":{"android":"levelo://app?vid=a78102a0-bfeb-4bfd-a176-51b3099f4535","ios":"levelo://app?vid=a78102a0-bfeb-4bfd-a176-51b3099f4535"},"vehicle_type_id":"4","last_reported":1726139240,"current_range_meters":25600,"station_id":"ce4bhnp2rcd13ifvqgvg","pricing_plan_id":"cebpf4jnsgd1na2vs0mg"},{"bike_id":"b3e31451-b409-4829-89f1-b5cfe9fb7e02","system_id":"levelo_inurba_marseille","lat":43.33615,"lon":5.41028,"is_reserved":false,"is_disabled":false,"rental_uris":{"android":"levelo://app?vid=b3e31451-b409-4829-89f1-b5cfe9fb7e02","ios":"levelo://app?vid=b3e31451-b409-4829-89f1-b5cfe9fb7e02"},"vehicle_type_id":"4","last_reported":1726139240,"current_range_meters":35600,"station_id":"ce4bhqh2rcd13ifvqhmg","pricing_plan_id":"cebpf4jnsgd1na2vs0mg"},{"bike_id":"d1f931ec-3a64-446d-8229-ef8f629e09cc","system_id":"levelo_inurba_marseille","lat":43.29568,"lon":5.3751,"is_reserved":false,"is_disabled":false,"rental_uris":{"android":"levelo://app?vid=d1f931ec-3a64-446d-8229-ef8f629e09cc","ios":"levelo://app?vid=d1f931ec-3a64-446d-8229-ef8f629e09cc"},"vehicle_type_id":"4","last_reported":1726139240,"current_range_meters":38800,"station_id":"ce4bgh92rcd13ifvqb50","pricing_plan_id":"cebpf4jnsgd1na2vs0mg"},{"bike_id":"ee6e775e-fa7b-4eed-ae51-cd05ca1ee5a7","system_id":"levelo_inurba_marseille","lat":43.2848,"lon":5.38411,"is_reserved":false,"is_disabled":false,"rental_uris":{"android":"levelo://app?vid=ee6e775e-fa7b-4eed-ae51-cd05ca1ee5a7","ios":"levelo://app?vid=ee6e775e-fa7b-4eed-ae51-cd05ca1ee5a7"},"vehicle_type_id":"4","last_reported":1726139240,"current_range_meters":4000,"station_id":"ce4bh512rcd13ifvqe3g","pricing_plan_id":"cebpf4jnsgd1na2vs0mg"},{"bike_id":"c45eece6-266b-4ac3-948c-78fa647870d7","system_id":"levelo_inurba_marseille","lat":43.26066,"lon":5.39395,"is_reserved":false,"is_disabled":false,"rental_uris":{"android":"levelo://app?vid=c45eece6-266b-4ac3-948c-78fa647870d7","ios":"levelo://app?vid=c45eece6-266b-4ac3-948c-78fa647870d7"},"vehicle_type_id":"4","last_reported":1726139240,"current_range_meters":32400,"station_id":"ce4bhh92rcd13ifvqfj0","pricing_plan_id":"cebpf4jnsgd1na2vs0mg"},{"bike_id":"af8c0a14-60b2-4a5d-9719-eb72f29d7968","system_id":"levelo_inurba_marseille","lat":43.31465,"lon":5.37578,"is_reserved":false,"is_disabled":false,"rental_uris":{"android":"levelo://app?vid=af8c0a14-60b2-4a5d-9719-eb72f29d7968","ios":"levelo://app?vid=af8c0a14-60b2-4a5d-9719-eb72f29d7968"},"vehicle_type_id":"4","last_reported":1726139240,"current_range_meters":32000,"station_id":"ce4bgt12rcd13ifvqcd0","pricing_plan_id":"cebpf4jnsgd1na2vs0mg"},{"bike_id":"06d3e68a-c925-4410-88fc-385486a37072","system_id":"levelo_inurba_marseille","lat":43.30144,"lon":5.39834,"is_reserved":false,"is_disabled":false,"rental_uris":{"android":"levelo://app?vid=06d3e68a-c925-4410-88fc-385486a37072","ios":"levelo://app?vid=06d3e68a-c925-4410-88fc-385486a37072"},"vehicle_type_id":"4","last_reported":1726139240,"current_range_meters":29600,"station_id":"ce4bh0h2rcd13ifvqd40","pricing_plan_id":"cebpf4jnsgd1na2vs0mg"},{"bike_id":"7467638d-e69b-486f-a102-30f19d08fa1f","system_id":"levelo_inurba_marseille","lat":43.29845,"lon":5.36273,"is_reserved":false,"is_disabled":false,"rental_uris":{"android":"levelo://app?vid=7467638d-e69b-486f-a102-30f19d08fa1f","ios":"levelo://app?vid=7467638d-e69b-486f-a102-30f19d08fa1f"},"vehicle_type_id":"4","last_reported":1726139240,"current_range_meters":24800,"station_id":"ce4bgpp2rcd13ifvqc3g","pricing_plan_id":"cebpf4jnsgd1na2vs0mg"},{"bike_id":"9f87805c-0db3-48a8-a3a2-0d0938a01b37","system_id":"levelo_inurba_marseille","lat":43.28718,"lon":5.39987,"is_reserved":false,"is_disabled":false,"rental_uris":{"android":"levelo://app?vid=9f87805c-0db3-48a8-a3a2-0d0938a01b37","ios":"levelo://app?vid=9f87805c-0db3-48a8-a3a2-0d0938a01b37"},"vehicle_type_id":"4","last_reported":1726139240,"current_range_meters":27200,"station_id":"ce4bho92rcd13ifvqh3g","pricing_plan_id":"cebpf4jnsgd1na2vs0mg"},{"bike_id":"9b8f0a3a-7dff-4fff-96a7-b5a6deeace85","system_id":"levelo_inurba_marseille","lat":43.23974,"lon":5.36623,"is_reserved":false,"is_disabled":false,"rental_uris":{"android":"levelo://app?vid=9b8f0a3a-7dff-4fff-96a7-b5a6deeace85","ios":"levelo://app?vid=9b8f0a3a-7dff-4fff-96a7-b5a6deeace85"},"vehicle_type_id":"4","last_reported":1726139240,"current_range_meters":8000,"station_id":"ce4bhi12rcd13ifvqfp0","pricing_plan_id":"cebpf4jnsgd1na2vs0mg"},{"bike_id":"849eb538-95cd-4aed-ba39-b18a7589f412","system_id":"levelo_inurba_marseille","lat":43.270163,"lon":5.387383,"is_reserved":false,"is_disabled":false,"rental_uris":{"android":"levelo://app?vid=849eb538-95cd-4aed-ba39-b18a7589f412","ios":"levelo://app?vid=849eb538-95cd-4aed-ba39-b18a7589f412"},"vehicle_type_id":"4","last_reported":1726139240,"current_range_meters":16800,"station_id":"ce4bhh92rcd13ifvqfh0","pricing_plan_id":"cebpf4jnsgd1na2vs0mg"},{"bike_id":"2991a6fa-0248-469e-a3fb-b9b75d12fb45","system_id":"levelo_inurba_marseille","lat":43.33606,"lon":5.4103,"is_reserved":false,"is_disabled":false,"rental_uris":{"android":"levelo://app?vid=2991a6fa-0248-469e-a3fb-b9b75d12fb45","ios":"levelo://app?vid=2991a6fa-0248-469e-a3fb-b9b75d12fb45"},"vehicle_type_id":"4","last_reported":1726139240,"current_range_meters":38000,"station_id":"ce4bhqh2rcd13ifvqhmg","pricing_plan_id":"cebpf4jnsgd1na2vs0mg"},{"bike_id":"06743032-90dd-4f30-8c0c-5f60738f87ac","system_id":"levelo_inurba_marseille","lat":43.2996,"lon":5.38492,"is_reserved":false,"is_disabled":false,"rental_uris":{"android":"levelo://app?vid=06743032-90dd-4f30-8c0c-5f60738f87ac","ios":"levelo://app?vid=06743032-90dd-4f30-8c0c-5f60738f87ac"},"vehicle_type_id":"4","last_reported":1726139240,"current_range_meters":14800,"station_id":"ce4bgj92rcd13ifvqbd0","pricing_plan_id":"cebpf4jnsgd1na2vs0mg"},{"bike_id":"8dff30ed-bea6-490f-9a43-12ef94fb32fc","system_id":"levelo_inurba_marseille","lat":43.29855,"lon":5.36275,"is_reserved":false,"is_disabled":false,"rental_uris":{"android":"levelo://app?vid=8dff30ed-bea6-490f-9a43-12ef94fb32fc","ios":"levelo://app?vid=8dff30ed-bea6-490f-9a43-12ef94fb32fc"},"vehicle_type_id":"4","last_reported":1726139240,"current_range_meters":22000,"station_id":"ce4bgpp2rcd13ifvqc3g","pricing_plan_id":"cebpf4jnsgd1na2vs0mg"},{"bike_id":"2efe19d8-d411-42cd-aac8-19d00c64dea2","system_id":"levelo_inurba_marseille","lat":43.26683,"lon":5.38272,"is_reserved":false,"is_disabled":false,"rental_uris":{"android":"levelo://app?vid=2efe19d8-d411-42cd-aac8-19d00c64dea2","ios":"levelo://app?vid=2efe19d8-d411-42cd-aac8-19d00c64dea2"},"vehicle_type_id":"4","last_reported":1726139240,"current_range_meters":28000,"station_id":"ce4bhg92rcd13ifvqf90","pricing_plan_id":"cebpf4jnsgd1na2vs0mg"},{"bike_id":"dd2d66a6-976d-43e6-83be-d6211ff78acc","system_id":"levelo_inurba_marseille","lat":43.33724,"lon":5.39178,"is_reserved":false,"is_disabled":false,"rental_uris":{"android":"levelo://app?vid=dd2d66a6-976d-43e6-83be-d6211ff78acc","ios":"levelo://app?vid=dd2d66a6-976d-43e6-83be-d6211ff78acc"},"vehicle_type_id":"4","last_reported":1726139240,"current_range_meters":12000,"station_id":"ce4bhr92rcd13ifvqhsg","pricing_plan_id":"cebpf4jnsgd1na2vs0mg"},{"bike_id":"5ef7b96a-1cb8-4f42-af16-3a0d049b19cc","system_id":"levelo_inurba_marseille","lat":43.29553,"lon":5.42287,"is_reserved":false,"is_disabled":false,"rental_uris":{"android":"levelo://app?vid=5ef7b96a-1cb8-4f42-af16-3a0d049b19cc","ios":"levelo://app?vid=5ef7b96a-1cb8-4f42-af16-3a0d049b19cc"},"vehicle_type_id":"4","last_reported":1726139240,"current_range_meters":14000,"station_id":"ce4bhph2rcd13ifvqhdg","pricing_plan_id":"cebpf4jnsgd1na2vs0mg"},{"bike_id":"6f79406f-d95f-40b7-ade5-94f81478ea3a","system_id":"levelo_inurba_marseille","lat":43.23195,"lon":5.35548,"is_reserved":false,"is_disabled":false,"rental_uris":{"android":"levelo://app?vid=6f79406f-d95f-40b7-ade5-94f81478ea3a","ios":"levelo://app?vid=6f79406f-d95f-40b7-ade5-94f81478ea3a"},"vehicle_type_id":"4","last_reported":1726139240,"current_range_meters":2800,"station_id":"ce4bhu92rcd13ifvqi70","pricing_plan_id":"cebpf4jnsgd1na2vs0mg"},{"bike_id":"a4f01b8b-d347-48b7-b3da-11ced5b95847","system_id":"levelo_inurba_marseille","lat":43.31235,"lon":5.36868,"is_reserved":false,"is_disabled":false,"rental_uris":{"android":"levelo://app?vid=a4f01b8b-d347-48b7-b3da-11ced5b95847","ios":"levelo://app?vid=a4f01b8b-d347-48b7-b3da-11ced5b95847"},"vehicle_type_id":"4","last_reported":1726139240,"current_range_meters":6000,"station_id":"ce4bgl92rcd13ifvqbq0","pricing_plan_id":"cebpf4jnsgd1na2vs0mg"},{"bike_id":"d77ab7fd-9bd3-427d-992f-fc0984b68be8","system_id":"levelo_inurba_marseille","lat":43.27067,"lon":5.42273,"is_reserved":false,"is_disabled":false,"rental_uris":{"android":"levelo://app?vid=d77ab7fd-9bd3-427d-992f-fc0984b68be8","ios":"levelo://app?vid=d77ab7fd-9bd3-427d-992f-fc0984b68be8"},"vehicle_type_id":"4","last_reported":1726139240,"current_range_meters":10800,"station_id":"ce4bhk92rcd13ifvqgb0","pricing_plan_id":"cebpf4jnsgd1na2vs0mg"},{"bike_id":"0481c513-43bf-474b-98cd-436496f21a19","system_id":"levelo_inurba_marseille","lat":43.33756,"lon":5.37446,"is_reserved":false,"is_disabled":false,"rental_uris":{"android":"levelo://app?vid=0481c513-43bf-474b-98cd-436496f21a19","ios":"levelo://app?vid=0481c513-43bf-474b-98cd-436496f21a19"},"vehicle_type_id":"4","last_reported":1726139240,"current_range_meters":14800,"station_id":"","pricing_plan_id":"cebpf4jnsgd1na2vs0mg"},{"bike_id":"26c97bd2-540c-44b3-af7c-b18094827976","system_id":"levelo_inurba_marseille","lat":43.266724,"lon":5.394718,"is_reserved":false,"is_disabled":false,"rental_uris":{"android":"levelo://app?vid=26c97bd2-540c-44b3-af7c-b18094827976","ios":"levelo://app?vid=26c97bd2-540c-44b3-af7c-b18094827976"},"vehicle_type_id":"4","last_reported":1726139240,"current_range_meters":35600,"station_id":"ce4bhhp2rcd13ifvqfm0","pricing_plan_id":"cebpf4jnsgd1na2vs0mg"},{"bike_id":"d32c8681-5c25-4caa-8515-f43cd3d9d0d7","system_id":"levelo_inurba_marseille","lat":43.24082,"lon":5.37744,"is_reserved":false,"is_disabled":false,"rental_uris":{"android":"levelo://app?vid=d32c8681-5c25-4caa-8515-f43cd3d9d0d7","ios":"levelo://app?vid=d32c8681-5c25-4caa-8515-f43cd3d9d0d7"},"vehicle_type_id":"4","last_reported":1726139240,"current_range_meters":26800,"station_id":"ce4bhnp2rcd13ifvqgvg","pricing_plan_id":"cebpf4jnsgd1na2vs0mg"},{"bike_id":"908558fc-af51-49be-a019-0e16afa07ae8","system_id":"levelo_inurba_marseille","lat":43.27489,"lon":5.42459,"is_reserved":false,"is_disabled":false,"rental_uris":{"android":"levelo://app?vid=908558fc-af51-49be-a019-0e16afa07ae8","ios":"levelo://app?vid=908558fc-af51-49be-a019-0e16afa07ae8"},"vehicle_type_id":"4","last_reported":1726139240,"current_range_meters":8800,"station_id":"ce4bhn92rcd13ifvqgrg","pricing_plan_id":"cebpf4jnsgd1na2vs0mg"},{"bike_id":"7ad9c4c2-8e82-4e19-bf1e-a8777466a1dc","system_id":"levelo_inurba_marseille","lat":43.28422,"lon":5.3499,"is_reserved":false,"is_disabled":false,"rental_uris":{"android":"levelo://app?vid=7ad9c4c2-8e82-4e19-bf1e-a8777466a1dc","ios":"levelo://app?vid=7ad9c4c2-8e82-4e19-bf1e-a8777466a1dc"},"vehicle_type_id":"4","last_reported":1726139240,"current_range_meters":38800,"station_id":"ce4bhbh2rcd13ifvqepg","pricing_plan_id":"cebpf4jnsgd1na2vs0mg"},{"bike_id":"ea089342-7e5a-4518-9e1c-0475d2f9e19e","system_id":"levelo_inurba_marseille","lat":43.30558,"lon":5.36537,"is_reserved":false,"is_disabled":false,"rental_uris":{"android":"levelo://app?vid=ea089342-7e5a-4518-9e1c-0475d2f9e19e","ios":"levelo://app?vid=ea089342-7e5a-4518-9e1c-0475d2f9e19e"},"vehicle_type_id":"4","last_reported":1726139240,"current_range_meters":24000,"station_id":"ce4bgs12rcd13ifvqcag","pricing_plan_id":"cebpf4jnsgd1na2vs0mg"},{"bike_id":"8c2900ff-896a-4004-bf6e-2b32ae5553f3","system_id":"levelo_inurba_marseille","lat":43.26193,"lon":5.37451,"is_reserved":false,"is_disabled":false,"rental_uris":{"android":"levelo://app?vid=8c2900ff-896a-4004-bf6e-2b32ae5553f3","ios":"levelo://app?vid=8c2900ff-896a-4004-bf6e-2b32ae5553f3"},"vehicle_type_id":"4","last_reported":1726139240,"current_range_meters":34000,"station_id":"ce4bhgp2rcd13ifvqfc0","pricing_plan_id":"cebpf4jnsgd1na2vs0mg"},{"bike_id":"dccadc39-7e75-4ff6-801e-d97b0e1812f2","system_id":"levelo_inurba_marseille","lat":43.33023,"lon":5.39036,"is_reserved":false,"is_disabled":false,"rental_uris":{"android":"levelo://app?vid=dccadc39-7e75-4ff6-801e-d97b0e1812f2","ios":"levelo://app?vid=dccadc39-7e75-4ff6-801e-d97b0e1812f2"},"vehicle_type_id":"4","last_reported":1726139240,"current_range_meters":28800,"station_id":"ce4bhr92rcd13ifvqhrg","pricing_plan_id":"cebpf4jnsgd1na2vs0mg"},{"bike_id":"41e2e5fd-b260-448a-a951-bddcd9555fd0","system_id":"levelo_inurba_marseille","lat":43.25828,"lon":5.39432,"is_reserved":false,"is_disabled":false,"rental_uris":{"android":"levelo://app?vid=41e2e5fd-b260-448a-a951-bddcd9555fd0","ios":"levelo://app?vid=41e2e5fd-b260-448a-a951-bddcd9555fd0"},"vehicle_type_id":"4","last_reported":1726139240,"current_range_meters":32000,"station_id":"ce4bhip2rcd13ifvqft0","pricing_plan_id":"cebpf4jnsgd1na2vs0mg"},{"bike_id":"703c5b25-1435-45b2-8c89-d7647aa322b9","system_id":"levelo_inurba_marseille","lat":43.31296,"lon":5.36751,"is_reserved":false,"is_disabled":false,"rental_uris":{"android":"levelo://app?vid=703c5b25-1435-45b2-8c89-d7647aa322b9","ios":"levelo://app?vid=703c5b25-1435-45b2-8c89-d7647aa322b9"},"vehicle_type_id":"4","last_reported":1726139240,"current_range_meters":38800,"station_id":"ce4bgr92rcd13ifvqc6g","pricing_plan_id":"cebpf4jnsgd1na2vs0mg"},{"bike_id":"4b02a7e9-8265-4f92-8a5b-523194dc96fe","system_id":"levelo_inurba_marseille","lat":43.2582,"lon":5.39431,"is_reserved":false,"is_disabled":false,"rental_uris":{"android":"levelo://app?vid=4b02a7e9-8265-4f92-8a5b-523194dc96fe","ios":"levelo://app?vid=4b02a7e9-8265-4f92-8a5b-523194dc96fe"},"vehicle_type_id":"4","last_reported":1726139240,"current_range_meters":27600,"station_id":"ce4bhip2rcd13ifvqft0","pricing_plan_id":"cebpf4jnsgd1na2vs0mg"},{"bike_id":"07c5ca23-898b-4c34-bd22-a2473ea55f5e","system_id":"levelo_inurba_marseille","lat":43.30539,"lon":5.36547,"is_reserved":false,"is_disabled":false,"rental_uris":{"android":"levelo://app?vid=07c5ca23-898b-4c34-bd22-a2473ea55f5e","ios":"levelo://app?vid=07c5ca23-898b-4c34-bd22-a2473ea55f5e"},"vehicle_type_id":"4","last_reported":1726139240,"current_range_meters":32400,"station_id":"ce4bgs12rcd13ifvqcag","pricing_plan_id":"cebpf4jnsgd1na2vs0mg"},{"bike_id":"dd3fecec-0a50-4eb9-8dfc-5c61faf672e9","system_id":"levelo_inurba_marseille","lat":43.23158,"lon":5.43713,"is_reserved":false,"is_disabled":false,"rental_uris":{"android":"levelo://app?vid=dd3fecec-0a50-4eb9-8dfc-5c61faf672e9","ios":"levelo://app?vid=dd3fecec-0a50-4eb9-8dfc-5c61faf672e9"},"vehicle_type_id":"4","last_reported":1726139240,"current_range_meters":38800,"station_id":"ce4bhmp2rcd13ifvqgog","pricing_plan_id":"cebpf4jnsgd1na2vs0mg"},{"bike_id":"0ae4c82d-7bf7-4f75-9cfc-82f2792f9ace","system_id":"levelo_inurba_marseille","lat":43.30905,"lon":5.36857,"is_reserved":false,"is_disabled":false,"rental_uris":{"android":"levelo://app?vid=0ae4c82d-7bf7-4f75-9cfc-82f2792f9ace","ios":"levelo://app?vid=0ae4c82d-7bf7-4f75-9cfc-82f2792f9ace"},"vehicle_type_id":"4","last_reported":1726139240,"current_range_meters":16400,"station_id":"ce4bgn92rcd13ifvqbvg","pricing_plan_id":"cebpf4jnsgd1na2vs0mg"},{"bike_id":"1aad23a3-9538-4fbd-aeef-137b8853f3af","system_id":"levelo_inurba_marseille","lat":43.29611,"lon":5.37737,"is_reserved":false,"is_disabled":false,"rental_uris":{"android":"levelo://app?vid=1aad23a3-9538-4fbd-aeef-137b8853f3af","ios":"levelo://app?vid=1aad23a3-9538-4fbd-aeef-137b8853f3af"},"vehicle_type_id":"4","last_reported":1726139240,"current_range_meters":28800,"station_id":"ce4bgi92rcd13ifvqb90","pricing_plan_id":"cebpf4jnsgd1na2vs0mg"},{"bike_id":"7551d42d-8659-416d-896d-f767a7f37efa","system_id":"levelo_inurba_marseille","lat":43.24539,"lon":5.39526,"is_reserved":false,"is_disabled":false,"rental_uris":{"android":"levelo://app?vid=7551d42d-8659-416d-896d-f767a7f37efa","ios":"levelo://app?vid=7551d42d-8659-416d-896d-f767a7f37efa"},"vehicle_type_id":"4","last_reported":1726139240,"current_range_meters":37600,"station_id":"ce4bhlp2rcd13ifvqgjg","pricing_plan_id":"cebpf4jnsgd1na2vs0mg"},{"bike_id":"c2e80259-2b10-4e5d-92c2-0b2d5eb1e3bb","system_id":"levelo_inurba_marseille","lat":43.30906,"lon":5.36848,"is_reserved":false,"is_disabled":false,"rental_uris":{"android":"levelo://app?vid=c2e80259-2b10-4e5d-92c2-0b2d5eb1e3bb","ios":"levelo://app?vid=c2e80259-2b10-4e5d-92c2-0b2d5eb1e3bb"},"vehicle_type_id":"4","last_reported":1726139240,"current_range_meters":21600,"station_id":"ce4bgn92rcd13ifvqbvg","pricing_plan_id":"cebpf4jnsgd1na2vs0mg"},{"bike_id":"df6ed36f-2858-461b-b85c-4778dc8f3c09","system_id":"levelo_inurba_marseille","lat":43.30603,"lon":5.37218,"is_reserved":false,"is_disabled":false,"rental_uris":{"android":"levelo://app?vid=df6ed36f-2858-461b-b85c-4778dc8f3c09","ios":"levelo://app?vid=df6ed36f-2858-461b-b85c-4778dc8f3c09"},"vehicle_type_id":"4","last_reported":1726139240,"current_range_meters":34800,"station_id":"ce4bgqh2rcd13ifvqc4g","pricing_plan_id":"cebpf4jnsgd1na2vs0mg"},{"bike_id":"bf1bc4c2-4f9e-4cfb-a97d-7eb3a7c2572d","system_id":"levelo_inurba_marseille","lat":43.29849,"lon":5.40095,"is_reserved":false,"is_disabled":false,"rental_uris":{"android":"levelo://app?vid=bf1bc4c2-4f9e-4cfb-a97d-7eb3a7c2572d","ios":"levelo://app?vid=bf1bc4c2-4f9e-4cfb-a97d-7eb3a7c2572d"},"vehicle_type_id":"4","last_reported":1726139240,"current_range_meters":10800,"station_id":"","pricing_plan_id":"cebpf4jnsgd1na2vs0mg"},{"bike_id":"dbffc40a-ad29-4e86-8073-3c24ef7376f6","system_id":"levelo_inurba_marseille","lat":43.24074,"lon":5.3776,"is_reserved":false,"is_disabled":false,"rental_uris":{"android":"levelo://app?vid=dbffc40a-ad29-4e86-8073-3c24ef7376f6","ios":"levelo://app?vid=dbffc40a-ad29-4e86-8073-3c24ef7376f6"},"vehicle_type_id":"4","last_reported":1726139240,"current_range_meters":22400,"station_id":"ce4bhnp2rcd13ifvqgvg","pricing_plan_id":"cebpf4jnsgd1na2vs0mg"},{"bike_id":"5c910826-d918-4ca3-b937-8c88f58ea365","system_id":"levelo_inurba_marseille","lat":43.27064,"lon":5.40257,"is_reserved":false,"is_disabled":false,"rental_uris":{"android":"levelo://app?vid=5c910826-d918-4ca3-b937-8c88f58ea365","ios":"levelo://app?vid=5c910826-d918-4ca3-b937-8c88f58ea365"},"vehicle_type_id":"4","last_reported":1726139240,"current_range_meters":33200,"station_id":"ce4bhk92rcd13ifvqgc0","pricing_plan_id":"cebpf4jnsgd1na2vs0mg"},{"bike_id":"f2fe78e6-19ce-45cc-8f6f-70b6ae5aa69e","system_id":"levelo_inurba_marseille","lat":43.29823,"lon":5.38314,"is_reserved":false,"is_disabled":false,"rental_uris":{"android":"levelo://app?vid=f2fe78e6-19ce-45cc-8f6f-70b6ae5aa69e","ios":"levelo://app?vid=f2fe78e6-19ce-45cc-8f6f-70b6ae5aa69e"},"vehicle_type_id":"4","last_reported":1726139240,"current_range_meters":28400,"station_id":"","pricing_plan_id":"cebpf4jnsgd1na2vs0mg"},{"bike_id":"2665568f-5c24-4523-9878-6df6164d3dbb","system_id":"levelo_inurba_marseille","lat":43.24081,"lon":5.37753,"is_reserved":false,"is_disabled":false,"rental_uris":{"android":"levelo://app?vid=2665568f-5c24-4523-9878-6df6164d3dbb","ios":"levelo://app?vid=2665568f-5c24-4523-9878-6df6164d3dbb"},"vehicle_type_id":"4","last_reported":1726139240,"current_range_meters":19200,"station_id":"ce4bhnp2rcd13ifvqgvg","pricing_plan_id":"cebpf4jnsgd1na2vs0mg"},{"bike_id":"aea3b9fc-8bc6-4e46-b052-6f51bc19832b","system_id":"levelo_inurba_marseille","lat":43.30275,"lon":5.37698,"is_reserved":false,"is_disabled":false,"rental_uris":{"android":"levelo://app?vid=aea3b9fc-8bc6-4e46-b052-6f51bc19832b","ios":"levelo://app?vid=aea3b9fc-8bc6-4e46-b052-6f51bc19832b"},"vehicle_type_id":"4","last_reported":1726139240,"current_range_meters":35600,"station_id":"ce4bguh2rcd13ifvqcj0","pricing_plan_id":"cebpf4jnsgd1na2vs0mg"},{"bike_id":"3c51cbb9-4e46-4e56-8647-db01c8c52176","system_id":"levelo_inurba_marseille","lat":43.24181,"lon":5.39724,"is_reserved":false,"is_disabled":false,"rental_uris":{"android":"levelo://app?vid=3c51cbb9-4e46-4e56-8647-db01c8c52176","ios":"levelo://app?vid=3c51cbb9-4e46-4e56-8647-db01c8c52176"},"vehicle_type_id":"4","last_reported":1726139240,"current_range_meters":27200,"station_id":"ce4bhn12rcd13ifvqgpg","pricing_plan_id":"cebpf4jnsgd1na2vs0mg"},{"bike_id":"f1ead754-bc83-4090-9415-e728670744f4","system_id":"levelo_inurba_marseille","lat":43.31062,"lon":5.3836,"is_reserved":false,"is_disabled":false,"rental_uris":{"android":"levelo://app?vid=f1ead754-bc83-4090-9415-e728670744f4","ios":"levelo://app?vid=f1ead754-bc83-4090-9415-e728670744f4"},"vehicle_type_id":"4","last_reported":1726139240,"current_range_meters":19200,"station_id":"ce4bgv92rcd13ifvqcr0","pricing_plan_id":"cebpf4jnsgd1na2vs0mg"},{"bike_id":"35e327a1-1955-4d12-a070-7da01b3f8826","system_id":"levelo_inurba_marseille","lat":43.30909,"lon":5.36857,"is_reserved":false,"is_disabled":false,"rental_uris":{"android":"levelo://app?vid=35e327a1-1955-4d12-a070-7da01b3f8826","ios":"levelo://app?vid=35e327a1-1955-4d12-a070-7da01b3f8826"},"vehicle_type_id":"4","last_reported":1726139240,"current_range_meters":30800,"station_id":"ce4bgn92rcd13ifvqbvg","pricing_plan_id":"cebpf4jnsgd1na2vs0mg"},{"bike_id":"d3b74321-755a-49d3-a230-973c7b57381f","system_id":"levelo_inurba_marseille","lat":43.27947,"lon":5.41052,"is_reserved":false,"is_disabled":false,"rental_uris":{"android":"levelo://app?vid=d3b74321-755a-49d3-a230-973c7b57381f","ios":"levelo://app?vid=d3b74321-755a-49d3-a230-973c7b57381f"},"vehicle_type_id":"4","last_reported":1726139240,"current_range_meters":8000,"station_id":"ce4bhnp2rcd13ifvqh0g","pricing_plan_id":"cebpf4jnsgd1na2vs0mg"},{"bike_id":"169b89a5-86bb-46d1-8e35-3cf5d6380dc0","system_id":"levelo_inurba_marseille","lat":43.301412,"lon":5.387677,"is_reserved":false,"is_disabled":false,"rental_uris":{"android":"levelo://app?vid=169b89a5-86bb-46d1-8e35-3cf5d6380dc0","ios":"levelo://app?vid=169b89a5-86bb-46d1-8e35-3cf5d6380dc0"},"vehicle_type_id":"4","last_reported":1726139240,"current_range_meters":3600,"station_id":"ce4bh0h2rcd13ifvqd40","pricing_plan_id":"cebpf4jnsgd1na2vs0mg"},{"bike_id":"aa19fc99-f16a-4819-a418-d51a1a9bdec5","system_id":"levelo_inurba_marseille","lat":43.25504,"lon":5.37655,"is_reserved":false,"is_disabled":false,"rental_uris":{"android":"levelo://app?vid=aa19fc99-f16a-4819-a418-d51a1a9bdec5","ios":"levelo://app?vid=aa19fc99-f16a-4819-a418-d51a1a9bdec5"},"vehicle_type_id":"4","last_reported":1726139240,"current_range_meters":39200,"station_id":"ce4bhh12rcd13ifvqff0","pricing_plan_id":"cebpf4jnsgd1na2vs0mg"},{"bike_id":"e74371d2-992f-4eff-a867-24d8c9f79f52","system_id":"levelo_inurba_marseille","lat":43.33608,"lon":5.41037,"is_reserved":false,"is_disabled":false,"rental_uris":{"android":"levelo://app?vid=e74371d2-992f-4eff-a867-24d8c9f79f52","ios":"levelo://app?vid=e74371d2-992f-4eff-a867-24d8c9f79f52"},"vehicle_type_id":"4","last_reported":1726139240,"current_range_meters":33600,"station_id":"ce4bhqh2rcd13ifvqhmg","pricing_plan_id":"cebpf4jnsgd1na2vs0mg"},{"bike_id":"c217685f-038e-4d17-8d81-0fe6d1e6bab0","system_id":"levelo_inurba_marseille","lat":43.313147,"lon":5.38603,"is_reserved":false,"is_disabled":false,"rental_uris":{"android":"levelo://app?vid=c217685f-038e-4d17-8d81-0fe6d1e6bab0","ios":"levelo://app?vid=c217685f-038e-4d17-8d81-0fe6d1e6bab0"},"vehicle_type_id":"4","last_reported":1726139240,"current_range_meters":4000,"station_id":"ce4bh0p2rcd13ifvqd80","pricing_plan_id":"cebpf4jnsgd1na2vs0mg"},{"bike_id":"7bca7a3d-5138-49be-ac0b-a9c8e5e57044","system_id":"levelo_inurba_marseille","lat":43.28003,"lon":5.40015,"is_reserved":false,"is_disabled":false,"rental_uris":{"android":"levelo://app?vid=7bca7a3d-5138-49be-ac0b-a9c8e5e57044","ios":"levelo://app?vid=7bca7a3d-5138-49be-ac0b-a9c8e5e57044"},"vehicle_type_id":"4","last_reported":1726139240,"current_range_meters":30800,"station_id":"ce4bho92rcd13ifvqh4g","pricing_plan_id":"cebpf4jnsgd1na2vs0mg"},{"bike_id":"f0ab1e44-8ac5-4033-a7ac-b3e3da389903","system_id":"levelo_inurba_marseille","lat":43.27066,"lon":5.42273,"is_reserved":false,"is_disabled":false,"rental_uris":{"android":"levelo://app?vid=f0ab1e44-8ac5-4033-a7ac-b3e3da389903","ios":"levelo://app?vid=f0ab1e44-8ac5-4033-a7ac-b3e3da389903"},"vehicle_type_id":"4","last_reported":1726139240,"current_range_meters":39200,"station_id":"ce4bhk92rcd13ifvqgb0","pricing_plan_id":"cebpf4jnsgd1na2vs0mg"},{"bike_id":"52e22a5b-3df9-4473-b947-08c5665ae282","system_id":"levelo_inurba_marseille","lat":43.29297,"lon":5.3744,"is_reserved":false,"is_disabled":false,"rental_uris":{"android":"levelo://app?vid=52e22a5b-3df9-4473-b947-08c5665ae282","ios":"levelo://app?vid=52e22a5b-3df9-4473-b947-08c5665ae282"},"vehicle_type_id":"4","last_reported":1726139240,"current_range_meters":38800,"station_id":"ce4bgi12rcd13ifvqb70","pricing_plan_id":"cebpf4jnsgd1na2vs0mg"},{"bike_id":"f02eb49d-aef7-4405-892c-4d0fc43caf52","system_id":"levelo_inurba_marseille","lat":43.2962,"lon":5.37155,"is_reserved":false,"is_disabled":false,"rental_uris":{"android":"levelo://app?vid=f02eb49d-aef7-4405-892c-4d0fc43caf52","ios":"levelo://app?vid=f02eb49d-aef7-4405-892c-4d0fc43caf52"},"vehicle_type_id":"4","last_reported":1726139240,"current_range_meters":11600,"station_id":"ce4bgnh2rcd13ifvqc0g","pricing_plan_id":"cebpf4jnsgd1na2vs0mg"},{"bike_id":"35412aca-6d4a-43cd-8918-d09821b5c7a5","system_id":"levelo_inurba_marseille","lat":43.31263,"lon":5.40185,"is_reserved":false,"is_disabled":false,"rental_uris":{"android":"levelo://app?vid=35412aca-6d4a-43cd-8918-d09821b5c7a5","ios":"levelo://app?vid=35412aca-6d4a-43cd-8918-d09821b5c7a5"},"vehicle_type_id":"4","last_reported":1726139240,"current_range_meters":16400,"station_id":"ce4bh092rcd13ifvqd30","pricing_plan_id":"cebpf4jnsgd1na2vs0mg"},{"bike_id":"0812723c-bd87-43d9-ba80-42e1368ee507","system_id":"levelo_inurba_marseille","lat":43.25937,"lon":5.409,"is_reserved":false,"is_disabled":false,"rental_uris":{"android":"levelo://app?vid=0812723c-bd87-43d9-ba80-42e1368ee507","ios":"levelo://app?vid=0812723c-bd87-43d9-ba80-42e1368ee507"},"vehicle_type_id":"4","last_reported":1726139240,"current_range_meters":25600,"station_id":"ce4bhm92rcd13ifvqglg","pricing_plan_id":"cebpf4jnsgd1na2vs0mg"},{"bike_id":"43f324fc-000b-4ca8-a7c3-f866285e436b","system_id":"levelo_inurba_marseille","lat":43.24073,"lon":5.37763,"is_reserved":false,"is_disabled":false,"rental_uris":{"android":"levelo://app?vid=43f324fc-000b-4ca8-a7c3-f866285e436b","ios":"levelo://app?vid=43f324fc-000b-4ca8-a7c3-f866285e436b"},"vehicle_type_id":"4","last_reported":1726139240,"current_range_meters":4800,"station_id":"ce4bhnp2rcd13ifvqgvg","pricing_plan_id":"cebpf4jnsgd1na2vs0mg"},{"bike_id":"311c52a0-3633-4333-a278-a5bc9ad87381","system_id":"levelo_inurba_marseille","lat":43.2481,"lon":5.37457,"is_reserved":false,"is_disabled":false,"rental_uris":{"android":"levelo://app?vid=311c52a0-3633-4333-a278-a5bc9ad87381","ios":"levelo://app?vid=311c52a0-3633-4333-a278-a5bc9ad87381"},"vehicle_type_id":"4","last_reported":1726139240,"current_range_meters":27200,"station_id":"ce4bhgh2rcd13ifvqfb0","pricing_plan_id":"cebpf4jnsgd1na2vs0mg"},{"bike_id":"64b528f7-596e-4842-8f7a-56bcf72d3cb9","system_id":"levelo_inurba_marseille","lat":43.2885,"lon":5.35841,"is_reserved":false,"is_disabled":false,"rental_uris":{"android":"levelo://app?vid=64b528f7-596e-4842-8f7a-56bcf72d3cb9","ios":"levelo://app?vid=64b528f7-596e-4842-8f7a-56bcf72d3cb9"},"vehicle_type_id":"4","last_reported":1726139240,"current_range_meters":4800,"station_id":"ce4bhb12rcd13ifvqem0","pricing_plan_id":"cebpf4jnsgd1na2vs0mg"},{"bike_id":"579641ed-2c24-4796-a1d8-c864c4daf845","system_id":"levelo_inurba_marseille","lat":43.33023,"lon":5.39033,"is_reserved":false,"is_disabled":false,"rental_uris":{"android":"levelo://app?vid=579641ed-2c24-4796-a1d8-c864c4daf845","ios":"levelo://app?vid=579641ed-2c24-4796-a1d8-c864c4daf845"},"vehicle_type_id":"4","last_reported":1726139240,"current_range_meters":7200,"station_id":"ce4bhr92rcd13ifvqhrg","pricing_plan_id":"cebpf4jnsgd1na2vs0mg"},{"bike_id":"35715524-14b0-4a8c-af85-28e32c6af954","system_id":"levelo_inurba_marseille","lat":43.2481,"lon":5.37449,"is_reserved":false,"is_disabled":false,"rental_uris":{"android":"levelo://app?vid=35715524-14b0-4a8c-af85-28e32c6af954","ios":"levelo://app?vid=35715524-14b0-4a8c-af85-28e32c6af954"},"vehicle_type_id":"4","last_reported":1726139240,"current_range_meters":14800,"station_id":"ce4bhgh2rcd13ifvqfb0","pricing_plan_id":"cebpf4jnsgd1na2vs0mg"},{"bike_id":"0218e6b6-7a98-43cd-a684-b3ec59ebfecc","system_id":"levelo_inurba_marseille","lat":43.30613,"lon":5.37229,"is_reserved":false,"is_disabled":false,"rental_uris":{"android":"levelo://app?vid=0218e6b6-7a98-43cd-a684-b3ec59ebfecc","ios":"levelo://app?vid=0218e6b6-7a98-43cd-a684-b3ec59ebfecc"},"vehicle_type_id":"4","last_reported":1726139240,"current_range_meters":33600,"station_id":"ce4bgqh2rcd13ifvqc4g","pricing_plan_id":"cebpf4jnsgd1na2vs0mg"},{"bike_id":"f7383583-f6d9-4a1f-9651-744703bbb837","system_id":"levelo_inurba_marseille","lat":43.30801,"lon":5.43523,"is_reserved":false,"is_disabled":false,"rental_uris":{"android":"levelo://app?vid=f7383583-f6d9-4a1f-9651-744703bbb837","ios":"levelo://app?vid=f7383583-f6d9-4a1f-9651-744703bbb837"},"vehicle_type_id":"4","last_reported":1726139240,"current_range_meters":8000,"station_id":"ce4bhph2rcd13ifvqheg","pricing_plan_id":"cebpf4jnsgd1na2vs0mg"},{"bike_id":"eadd6469-1309-4c77-b811-34718ae1c75b","system_id":"levelo_inurba_marseille","lat":43.29905,"lon":5.38145,"is_reserved":false,"is_disabled":false,"rental_uris":{"android":"levelo://app?vid=eadd6469-1309-4c77-b811-34718ae1c75b","ios":"levelo://app?vid=eadd6469-1309-4c77-b811-34718ae1c75b"},"vehicle_type_id":"4","last_reported":1726139240,"current_range_meters":38000,"station_id":"ce4bgj12rcd13ifvqbc0","pricing_plan_id":"cebpf4jnsgd1na2vs0mg"},{"bike_id":"b522eb40-aae4-4af8-831c-fad27074f4dd","system_id":"levelo_inurba_marseille","lat":43.299286,"lon":5.376686,"is_reserved":false,"is_disabled":false,"rental_uris":{"android":"levelo://app?vid=b522eb40-aae4-4af8-831c-fad27074f4dd","ios":"levelo://app?vid=b522eb40-aae4-4af8-831c-fad27074f4dd"},"vehicle_type_id":"4","last_reported":1726139240,"current_range_meters":30000,"station_id":"ce4bgr92rcd13ifvqc7g","pricing_plan_id":"cebpf4jnsgd1na2vs0mg"},{"bike_id":"3940d142-a00b-4fa3-9ae1-02a7d9832b2f","system_id":"levelo_inurba_marseille","lat":43.29607,"lon":5.3772,"is_reserved":false,"is_disabled":false,"rental_uris":{"android":"levelo://app?vid=3940d142-a00b-4fa3-9ae1-02a7d9832b2f","ios":"levelo://app?vid=3940d142-a00b-4fa3-9ae1-02a7d9832b2f"},"vehicle_type_id":"4","last_reported":1726139240,"current_range_meters":12000,"station_id":"ce4bgi92rcd13ifvqb90","pricing_plan_id":"cebpf4jnsgd1na2vs0mg"},{"bike_id":"4e42d4b8-957a-476a-942b-81b69f703bf5","system_id":"levelo_inurba_marseille","lat":43.29967,"lon":5.38501,"is_reserved":false,"is_disabled":false,"rental_uris":{"android":"levelo://app?vid=4e42d4b8-957a-476a-942b-81b69f703bf5","ios":"levelo://app?vid=4e42d4b8-957a-476a-942b-81b69f703bf5"},"vehicle_type_id":"4","last_reported":1726139240,"current_range_meters":32000,"station_id":"ce4bgj92rcd13ifvqbd0","pricing_plan_id":"cebpf4jnsgd1na2vs0mg"},{"bike_id":"1eaf20b5-e693-47f6-a4e0-406082b0704c","system_id":"levelo_inurba_marseille","lat":43.30461,"lon":5.37911,"is_reserved":false,"is_disabled":false,"rental_uris":{"android":"levelo://app?vid=1eaf20b5-e693-47f6-a4e0-406082b0704c","ios":"levelo://app?vid=1eaf20b5-e693-47f6-a4e0-406082b0704c"},"vehicle_type_id":"4","last_reported":1726139240,"current_range_meters":24800,"station_id":"ce4bgup2rcd13ifvqcn0","pricing_plan_id":"cebpf4jnsgd1na2vs0mg"},{"bike_id":"9ea056c9-28a3-42c0-a5e7-90ba9360dae4","system_id":"levelo_inurba_marseille","lat":43.29305,"lon":5.37461,"is_reserved":false,"is_disabled":false,"rental_uris":{"android":"levelo://app?vid=9ea056c9-28a3-42c0-a5e7-90ba9360dae4","ios":"levelo://app?vid=9ea056c9-28a3-42c0-a5e7-90ba9360dae4"},"vehicle_type_id":"4","last_reported":1726139240,"current_range_meters":30400,"station_id":"ce4bgi12rcd13ifvqb70","pricing_plan_id":"cebpf4jnsgd1na2vs0mg"},{"bike_id":"ca67b363-fb8e-4b7b-8058-52b7e75e6e73","system_id":"levelo_inurba_marseille","lat":43.3054,"lon":5.36542,"is_reserved":false,"is_disabled":false,"rental_uris":{"android":"levelo://app?vid=ca67b363-fb8e-4b7b-8058-52b7e75e6e73","ios":"levelo://app?vid=ca67b363-fb8e-4b7b-8058-52b7e75e6e73"},"vehicle_type_id":"4","last_reported":1726139240,"current_range_meters":39200,"station_id":"ce4bgs12rcd13ifvqcag","pricing_plan_id":"cebpf4jnsgd1na2vs0mg"},{"bike_id":"f4a94560-b74f-49e2-aaa1-40adb5c41a8d","system_id":"levelo_inurba_marseille","lat":43.31234,"lon":5.36853,"is_reserved":false,"is_disabled":false,"rental_uris":{"android":"levelo://app?vid=f4a94560-b74f-49e2-aaa1-40adb5c41a8d","ios":"levelo://app?vid=f4a94560-b74f-49e2-aaa1-40adb5c41a8d"},"vehicle_type_id":"4","last_reported":1726139240,"current_range_meters":26800,"station_id":"ce4bgl92rcd13ifvqbq0","pricing_plan_id":"cebpf4jnsgd1na2vs0mg"},{"bike_id":"dc346b80-33dd-4e8d-bd17-85fcf95d706f","system_id":"levelo_inurba_marseille","lat":43.33616,"lon":5.41034,"is_reserved":false,"is_disabled":false,"rental_uris":{"android":"levelo://app?vid=dc346b80-33dd-4e8d-bd17-85fcf95d706f","ios":"levelo://app?vid=dc346b80-33dd-4e8d-bd17-85fcf95d706f"},"vehicle_type_id":"4","last_reported":1726139240,"current_range_meters":24000,"station_id":"ce4bhqh2rcd13ifvqhmg","pricing_plan_id":"cebpf4jnsgd1na2vs0mg"},{"bike_id":"af9421c8-e08e-45c9-9f79-72574fc04e9d","system_id":"levelo_inurba_marseille","lat":43.24167,"lon":5.36395,"is_reserved":false,"is_disabled":false,"rental_uris":{"android":"levelo://app?vid=af9421c8-e08e-45c9-9f79-72574fc04e9d","ios":"levelo://app?vid=af9421c8-e08e-45c9-9f79-72574fc04e9d"},"vehicle_type_id":"4","last_reported":1726139240,"current_range_meters":36000,"station_id":"cpo36qri1sfpv3e86is0","pricing_plan_id":"cebpf4jnsgd1na2vs0mg"},{"bike_id":"50fb3a76-2918-4cef-b29a-33342c8bfe02","system_id":"levelo_inurba_marseille","lat":43.33721,"lon":5.39181,"is_reserved":false,"is_disabled":false,"rental_uris":{"android":"levelo://app?vid=50fb3a76-2918-4cef-b29a-33342c8bfe02","ios":"levelo://app?vid=50fb3a76-2918-4cef-b29a-33342c8bfe02"},"vehicle_type_id":"4","last_reported":1726139240,"current_range_meters":15200,"station_id":"ce4bhr92rcd13ifvqhsg","pricing_plan_id":"cebpf4jnsgd1na2vs0mg"},{"bike_id":"f400d370-a20e-4ced-86f0-64f62510749c","system_id":"levelo_inurba_marseille","lat":43.3237,"lon":5.38926,"is_reserved":false,"is_disabled":false,"rental_uris":{"android":"levelo://app?vid=f400d370-a20e-4ced-86f0-64f62510749c","ios":"levelo://app?vid=f400d370-a20e-4ced-86f0-64f62510749c"},"vehicle_type_id":"4","last_reported":1726139240,"current_range_meters":9600,"station_id":"","pricing_plan_id":"cebpf4jnsgd1na2vs0mg"},{"bike_id":"ec3c23c6-cd0b-4c92-b43e-5f0da23f9939","system_id":"levelo_inurba_marseille","lat":43.30538,"lon":5.36541,"is_reserved":false,"is_disabled":false,"rental_uris":{"android":"levelo://app?vid=ec3c23c6-cd0b-4c92-b43e-5f0da23f9939","ios":"levelo://app?vid=ec3c23c6-cd0b-4c92-b43e-5f0da23f9939"},"vehicle_type_id":"4","last_reported":1726139240,"current_range_meters":35600,"station_id":"ce4bgs12rcd13ifvqcag","pricing_plan_id":"cebpf4jnsgd1na2vs0mg"},{"bike_id":"1c113703-95ba-4466-b3d9-ea0ff698d715","system_id":"levelo_inurba_marseille","lat":43.24079,"lon":5.37731,"is_reserved":false,"is_disabled":false,"rental_uris":{"android":"levelo://app?vid=1c113703-95ba-4466-b3d9-ea0ff698d715","ios":"levelo://app?vid=1c113703-95ba-4466-b3d9-ea0ff698d715"},"vehicle_type_id":"4","last_reported":1726139240,"current_range_meters":16800,"station_id":"ce4bhnp2rcd13ifvqgvg","pricing_plan_id":"cebpf4jnsgd1na2vs0mg"},{"bike_id":"43f79be1-e45e-4e3c-9f64-a38d59be5d7a","system_id":"levelo_inurba_marseille","lat":43.337444,"lon":5.374475,"is_reserved":false,"is_disabled":false,"rental_uris":{"android":"levelo://app?vid=43f79be1-e45e-4e3c-9f64-a38d59be5d7a","ios":"levelo://app?vid=43f79be1-e45e-4e3c-9f64-a38d59be5d7a"},"vehicle_type_id":"4","last_reported":1726139240,"current_range_meters":24000,"station_id":"ce4bhoh2rcd13ifvqh5g","pricing_plan_id":"cebpf4jnsgd1na2vs0mg"},{"bike_id":"7e13e1ae-66b9-467f-8f4d-a54a20321b12","system_id":"levelo_inurba_marseille","lat":43.32485,"lon":5.36565,"is_reserved":false,"is_disabled":false,"rental_uris":{"android":"levelo://app?vid=7e13e1ae-66b9-467f-8f4d-a54a20321b12","ios":"levelo://app?vid=7e13e1ae-66b9-467f-8f4d-a54a20321b12"},"vehicle_type_id":"4","last_reported":1726139240,"current_range_meters":22800,"station_id":"ce4bhs12rcd13ifvqhvg","pricing_plan_id":"cebpf4jnsgd1na2vs0mg"},{"bike_id":"808b3468-140c-4a6c-8994-f26937afb145","system_id":"levelo_inurba_marseille","lat":43.23966,"lon":5.36624,"is_reserved":false,"is_disabled":false,"rental_uris":{"android":"levelo://app?vid=808b3468-140c-4a6c-8994-f26937afb145","ios":"levelo://app?vid=808b3468-140c-4a6c-8994-f26937afb145"},"vehicle_type_id":"4","last_reported":1726139240,"current_range_meters":7200,"station_id":"ce4bhi12rcd13ifvqfp0","pricing_plan_id":"cebpf4jnsgd1na2vs0mg"},{"bike_id":"ccf5076a-2e6e-40f0-8f65-6692f3dec532","system_id":"levelo_inurba_marseille","lat":43.298645,"lon":5.389152,"is_reserved":false,"is_disabled":false,"rental_uris":{"android":"levelo://app?vid=ccf5076a-2e6e-40f0-8f65-6692f3dec532","ios":"levelo://app?vid=ccf5076a-2e6e-40f0-8f65-6692f3dec532"},"vehicle_type_id":"4","last_reported":1726139240,"current_range_meters":19600,"station_id":"ce4bh392rcd13ifvqdl0","pricing_plan_id":"cebpf4jnsgd1na2vs0mg"},{"bike_id":"d31f3121-0002-4f04-a85c-dd1554362d8c","system_id":"levelo_inurba_marseille","lat":43.305969,"lon":5.393606,"is_reserved":false,"is_disabled":false,"rental_uris":{"android":"levelo://app?vid=d31f3121-0002-4f04-a85c-dd1554362d8c","ios":"levelo://app?vid=d31f3121-0002-4f04-a85c-dd1554362d8c"},"vehicle_type_id":"4","last_reported":1726139240,"current_range_meters":16800,"station_id":"ce4bh0p2rcd13ifvqd80","pricing_plan_id":"cebpf4jnsgd1na2vs0mg"},{"bike_id":"c1ed1e8c-b6d2-4dc2-9b14-36a1f2a7fb7f","system_id":"levelo_inurba_marseille","lat":43.29111,"lon":5.38122,"is_reserved":false,"is_disabled":false,"rental_uris":{"android":"levelo://app?vid=c1ed1e8c-b6d2-4dc2-9b14-36a1f2a7fb7f","ios":"levelo://app?vid=c1ed1e8c-b6d2-4dc2-9b14-36a1f2a7fb7f"},"vehicle_type_id":"4","last_reported":1726139240,"current_range_meters":9200,"station_id":"ce4bh512rcd13ifvqe2g","pricing_plan_id":"cebpf4jnsgd1na2vs0mg"},{"bike_id":"88628886-747c-4191-966c-0b9b1832cfda","system_id":"levelo_inurba_marseille","lat":43.27567,"lon":5.38424,"is_reserved":false,"is_disabled":false,"rental_uris":{"android":"levelo://app?vid=88628886-747c-4191-966c-0b9b1832cfda","ios":"levelo://app?vid=88628886-747c-4191-966c-0b9b1832cfda"},"vehicle_type_id":"4","last_reported":1726139240,"current_range_meters":19200,"station_id":"ce4bhh92rcd13ifvqfi0","pricing_plan_id":"cebpf4jnsgd1na2vs0mg"},{"bike_id":"b86efea5-d9b7-4a8b-bb81-baba989c2673","system_id":"levelo_inurba_marseille","lat":43.316711,"lon":5.374928,"is_reserved":false,"is_disabled":false,"rental_uris":{"android":"levelo://app?vid=b86efea5-d9b7-4a8b-bb81-baba989c2673","ios":"levelo://app?vid=b86efea5-d9b7-4a8b-bb81-baba989c2673"},"vehicle_type_id":"4","last_reported":1726139240,"current_range_meters":24000,"station_id":"ce4bhb12rcd13ifvqem0","pricing_plan_id":"cebpf4jnsgd1na2vs0mg"},{"bike_id":"e24d4b6f-69a5-464d-8112-5b0531d219b6","system_id":"levelo_inurba_marseille","lat":43.27491,"lon":5.42462,"is_reserved":false,"is_disabled":false,"rental_uris":{"android":"levelo://app?vid=e24d4b6f-69a5-464d-8112-5b0531d219b6","ios":"levelo://app?vid=e24d4b6f-69a5-464d-8112-5b0531d219b6"},"vehicle_type_id":"4","last_reported":1726139240,"current_range_meters":14400,"station_id":"ce4bhn92rcd13ifvqgrg","pricing_plan_id":"cebpf4jnsgd1na2vs0mg"},{"bike_id":"d2b5438d-c3ce-408a-97f0-f77b818c95bf","system_id":"levelo_inurba_marseille","lat":43.25934,"lon":5.40909,"is_reserved":false,"is_disabled":false,"rental_uris":{"android":"levelo://app?vid=d2b5438d-c3ce-408a-97f0-f77b818c95bf","ios":"levelo://app?vid=d2b5438d-c3ce-408a-97f0-f77b818c95bf"},"vehicle_type_id":"4","last_reported":1726139240,"current_range_meters":10000,"station_id":"ce4bhm92rcd13ifvqglg","pricing_plan_id":"cebpf4jnsgd1na2vs0mg"},{"bike_id":"4d94081f-ba0d-4109-b4fc-263d36aa8a4d","system_id":"levelo_inurba_marseille","lat":43.2918,"lon":5.35813,"is_reserved":false,"is_disabled":false,"rental_uris":{"android":"levelo://app?vid=4d94081f-ba0d-4109-b4fc-263d36aa8a4d","ios":"levelo://app?vid=4d94081f-ba0d-4109-b4fc-263d36aa8a4d"},"vehicle_type_id":"4","last_reported":1726139240,"current_range_meters":19200,"station_id":"ce4bh9p2rcd13ifvqed0","pricing_plan_id":"cebpf4jnsgd1na2vs0mg"},