{"last_updated":1699805239,"ttl":30,"version":"2.2","data":{"bikes":[{"bike_id":"151c44ed-c78e-4ed5-8349-c3eb9529449d","system_id":"levelo_inurba_marseille","lat":43.313391,"lon":5.36706,"is_reserved":false,"is_disabled":false,"rental_uris":{"android":"levelo://app?vid=151c44ed-c78e-4ed5-8349-c3eb9529449d","ios":"levelo://app?vid=151c44ed-c78e-4ed5-8349-c3eb9529449d"},"vehicle_type_id":"4","last_reported":1699805240,"current_range_meters":29600,"station_id":"ce4bgr92rcd13ifvqc6g","pricing_plan_id":"free"},{"bike_id":"829a3b24-5537-4994-8be6-f4bd05db3b69","system_id":"levelo_inurba_marseille","lat":43.314811,"lon":5.373103,"is_reserved":false,"is_disabled":false,"rental_uris":{"android":"levelo://app?vid=829a3b24-5537-4994-8be6-f4bd05db3b69","ios":"levelo://app?vid=829a3b24-5537-4994-8be6-f4bd05db3b69"},"vehicle_type_id":"4","last_reported":1699805240,"current_range_meters":2800,"station_id":"ce4bgt12rcd13ifvqcd0","pricing_plan_id":"free"},{"bike_id":"dca4852f-90c5-40ee-a355-8e955ba1ebb3","system_id":"levelo_inurba_marseille","lat":43.314811,"lon":5.373103,"is_reserved":false,"is_disabled":false,"rental_uris":{"android":"levelo://app?vid=dca4852f-90c5-40ee-a355-8e955ba1ebb3","ios":"levelo://app?vid=dca4852f-90c5-40ee-a355-8e955ba1ebb3"},"vehicle_type_id":"4","last_reported":1699805240,"current_range_meters":18400,"station_id":"ce4bgt12rcd13ifvqcd0","pricing_plan_id":"free"},{"bike_id":"9d253e08-cfae-4d61-a0ca-5122c2732c3d","system_id":"levelo_inurba_marseille","lat":43.314811,"lon":5.373104,"is_reserved":false,"is_disabled":false,"rental_uris":{"android":"levelo://app?vid=9d253e08-cfae-4d61-a0ca-5122c2732c3d","ios":"levelo://app?vid=9d253e08-cfae-4d61-a0ca-5122c2732c3d"},"vehicle_type_id":"4","last_reported":1699805240,"current_range_meters":6000,"station_id":"ce4bgt12rcd13ifvqcd0","pricing_plan_id":"free"},{"bike_id":"77223068-8d4d-4361-b098-8874cd9af798","system_id":"levelo_inurba_marseille","lat":43.31493,"lon":5.37315,"is_reserved":false,"is_disabled":false,"rental_uris":{"android":"levelo://app?vid=77223068-8d4d-4361-b098-8874cd9af798","ios":"levelo://app?vid=77223068-8d4d-4361-b098-8874cd9af798"},"vehicle_type_id":"4","last_reported":1699805240,"current_range_meters":7600,"station_id":"ce4bgt12rcd13ifvqcd0","pricing_plan_id":"free"},{"bike_id":"5691b5b7-067a-4422-9f0c-a6907daf74a4","system_id":"levelo_inurba_marseille","lat":43.31655,"lon":5.372937,"is_reserved":false,"is_disabled":false,"rental_uris":{"android":"levelo://app?vid=5691b5b7-067a-4422-9f0c-a6907daf74a4","ios":"levelo://app?vid=5691b5b7-067a-4422-9f0c-a6907daf74a4"},"vehicle_type_id":"4","last_reported":1699805240,"current_range_meters":4400,"station_id":"","pricing_plan_id":"free"},{"bike_id":"76b359af-c20b-45d0-a1df-78f4c9a6553a","system_id":"levelo_inurba_marseille","lat":43.305706,"lon":5.365654,"is_reserved":false,"is_disabled":false,"rental_uris":{"android":"levelo://app?vid=76b359af-c20b-45d0-a1df-78f4c9a6553a","ios":"levelo://app?vid=76b359af-c20b-45d0-a1df-78f4c9a6553a"},"vehicle_type_id":"4","last_reported":1699805240,"current_range_meters":14000,"station_id":"ce4bgs12rcd13ifvqcag","pricing_plan_id":"free"},{"bike_id":"290eecd9-99b5-4e00-bf9c-060090c8d08f","system_id":"levelo_inurba_marseille","lat":43.311125,"lon":5.377624,"is_reserved":false,"is_disabled":false,"rental_uris":{"android":"levelo://app?vid=290eecd9-99b5-4e00-bf9c-060090c8d08f","ios":"levelo://app?vid=290eecd9-99b5-4e00-bf9c-060090c8d08f"},"vehicle_type_id":"4","last_reported":1699805240,"current_range_meters":7600,"station_id":"ce4bgt92rcd13ifvqcg0","pricing_plan_id":"free"},{"bike_id":"b7bedd80-470d-445c-a209-e7dd6e9e4053","system_id":"levelo_inurba_marseille","lat":43.311125,"lon":5.377624,"is_reserved":false,"is_disabled":false,"rental_uris":{"android":"levelo://app?vid=b7bedd80-470d-445c-a209-e7dd6e9e4053","ios":"levelo://app?vid=b7bedd80-470d-445c-a209-e7dd6e9e4053"},"vehicle_type_id":"4","last_reported":1699805240,"current_range_meters":6000,"station_id":"ce4bgt92rcd13ifvqcg0","pricing_plan_id":"free"},{"bike_id":"924b7e2e-8172-4af0-be30-9476b336c367","system_id":"levelo_inurba_marseille","lat":43.31116,"lon":5.37824,"is_reserved":false,"is_disabled":false,"rental_uris":{"android":"levelo://app?vid=924b7e2e-8172-4af0-be30-9476b336c367","ios":"levelo://app?vid=924b7e2e-8172-4af0-be30-9476b336c367"},"vehicle_type_id":"4","last_reported":1699805240,"current_range_meters":23200,"station_id":"","pricing_plan_id":"free"},{"bike_id":"57053367-5328-4d78-8951-737f56b37ed9","system_id":"levelo_inurba_marseille","lat":43.319924,"lon":5.373389,"is_reserved":false,"is_disabled":false,"rental_uris":{"android":"levelo://app?vid=57053367-5328-4d78-8951-737f56b37ed9","ios":"levelo://app?vid=57053367-5328-4d78-8951-737f56b37ed9"},"vehicle_type_id":"4","last_reported":1699805240,"current_range_meters":14400,"station_id":"","pricing_plan_id":"free"},{"bike_id":"a26a672c-8f86-40f5-9e8e-9856cf399a24","system_id":"levelo_inurba_marseille","lat":43.308103,"lon":5.381546,"is_reserved":false,"is_disabled":false,"rental_uris":{"android":"levelo://app?vid=a26a672c-8f86-40f5-9e8e-9856cf399a24","ios":"levelo://app?vid=a26a672c-8f86-40f5-9e8e-9856cf399a24"},"vehicle_type_id":"4","last_reported":1699805240,"current_range_meters":22000,"station_id":"ce4bgt12rcd13ifvqce0","pricing_plan_id":"free"},{"bike_id":"3fb4984a-6013-4ebb-8773-c308071699ec","system_id":"levelo_inurba_marseille","lat":43.324771,"lon":5.36557,"is_reserved":false,"is_disabled":false,"rental_uris":{"android":"levelo://app?vid=3fb4984a-6013-4ebb-8773-c308071699ec","ios":"levelo://app?vid=3fb4984a-6013-4ebb-8773-c308071699ec"},"vehicle_type_id":"4","last_reported":1699805240,"current_range_meters":20800,"station_id":"ce4bhs12rcd13ifvqhvg","pricing_plan_id":"free"},{"bike_id":"13d060b6-819f-4429-893b-0a109219ae35","system_id":"levelo_inurba_marseille","lat":43.324771,"lon":5.36557,"is_reserved":false,"is_disabled":false,"rental_uris":{"android":"levelo://app?vid=13d060b6-819f-4429-893b-0a109219ae35","ios":"levelo://app?vid=13d060b6-819f-4429-893b-0a109219ae35"},"vehicle_type_id":"4","last_reported":1699805240,"current_range_meters":9600,"station_id":"ce4bhs12rcd13ifvqhvg","pricing_plan_id":"free"},{"bike_id":"473fe780-b86c-493d-900d-ada9d8d3ba6b","system_id":"levelo_inurba_marseille","lat":43.30059,"lon":5.36653,"is_reserved":false,"is_disabled":false,"rental_uris":{"android":"levelo://app?vid=473fe780-b86c-493d-900d-ada9d8d3ba6b","ios":"levelo://app?vid=473fe780-b86c-493d-900d-ada9d8d3ba6b"},"vehicle_type_id":"4","last_reported":1699805240,"current_range_meters":0,"station_id":"","pricing_plan_id":"free"},{"bike_id":"afa39de6-32d2-4911-bc51-a29cdca12eba","system_id":"levelo_inurba_marseille","lat":43.301429,"lon":5.37413,"is_reserved":false,"is_disabled":false,"rental_uris":{"android":"levelo://app?vid=afa39de6-32d2-4911-bc51-a29cdca12eba","ios":"levelo://app?vid=afa39de6-32d2-4911-bc51-a29cdca12eba"},"vehicle_type_id":"4","last_reported":1699805240,"current_range_meters":0,"station_id":"ce4bgs92rcd13ifvqcc0","pricing_plan_id":"free"},{"bike_id":"3819deec-fe3d-41c7-8346-2b107cb07054","system_id":"levelo_inurba_marseille","lat":43.315237,"lon":5.383797,"is_reserved":false,"is_disabled":false,"rental_uris":{"android":"levelo://app?vid=3819deec-fe3d-41c7-8346-2b107cb07054","ios":"levelo://app?vid=3819deec-fe3d-41c7-8346-2b107cb07054"},"vehicle_type_id":"4","last_reported":1699805240,"current_range_meters":0,"station_id":"","pricing_plan_id":"free"},{"bike_id":"69166d53-ec8e-4a0a-864c-7a29f7650dd8","system_id":"levelo_inurba_marseille","lat":43.321111,"lon":5.380089,"is_reserved":false,"is_disabled":false,"rental_uris":{"android":"levelo://app?vid=69166d53-ec8e-4a0a-864c-7a29f7650dd8","ios":"levelo://app?vid=69166d53-ec8e-4a0a-864c-7a29f7650dd8"},"vehicle_type_id":"4","last_reported":1699805240,"current_range_meters":14000,"station_id":"","pricing_plan_id":"free"},{"bike_id":"13d78257-2559-4a10-97b8-aaa7032179bc","system_id":"levelo_inurba_marseille","lat":43.319975,"lon":5.381519,"is_reserved":false,"is_disabled":false,"rental_uris":{"android":"levelo://app?vid=13d78257-2559-4a10-97b8-aaa7032179bc","ios":"levelo://app?vid=13d78257-2559-4a10-97b8-aaa7032179bc"},"vehicle_type_id":"4","last_reported":1699805240,"current_range_meters":0,"station_id":"","pricing_plan_id":"free"},{"bike_id":"4035832f-8f31-40d5-aefd-b94c840a37dc","system_id":"levelo_inurba_marseille","lat":43.313571,"lon":5.384829,"is_reserved":false,"is_disabled":false,"rental_uris":{"android":"levelo://app?vid=4035832f-8f31-40d5-aefd-b94c840a37dc","ios":"levelo://app?vid=4035832f-8f31-40d5-aefd-b94c840a37dc"},"vehicle_type_id":"4","last_reported":1699805240,"current_range_meters":4400,"station_id":"ce4bgt92rcd13ifvqcf0","pricing_plan_id":"free"},{"bike_id":"c0cb0b40-95d5-4ddb-8027-5ec67afa09de","system_id":"levelo_inurba_marseille","lat":43.299222,"lon":5.365554,"is_reserved":false,"is_disabled":false,"rental_uris":{"android":"levelo://app?vid=c0cb0b40-95d5-4ddb-8027-5ec67afa09de","ios":"levelo://app?vid=c0cb0b40-95d5-4ddb-8027-5ec67afa09de"},"vehicle_type_id":"4","last_reported":1699805240,"current_range_meters":0,"station_id":"ce4bgm92rcd13ifvqbr0","pricing_plan_id":"free"},{"bike_id":"28de7bc3-3c91-4b1c-94e9-c1af7333a806","system_id":"levelo_inurba_marseille","lat":43.299222,"lon":5.365554,"is_reserved":false,"is_disabled":false,"rental_uris":{"android":"levelo://app?vid=28de7bc3-3c91-4b1c-94e9-c1af7333a806","ios":"levelo://app?vid=28de7bc3-3c91-4b1c-94e9-c1af7333a806"},"vehicle_type_id":"4","last_reported":1699805240,"current_range_meters":12000,"station_id":"ce4bgm92rcd13ifvqbr0","pricing_plan_id":"free"},{"bike_id":"388a5576-7e8a-40c7-afb2-15a5be77375b","system_id":"levelo_inurba_marseille","lat":43.29849,"lon":5.36293,"is_reserved":false,"is_disabled":false,"rental_uris":{"android":"levelo://app?vid=388a5576-7e8a-40c7-afb2-15a5be77375b","ios":"levelo://app?vid=388a5576-7e8a-40c7-afb2-15a5be77375b"},"vehicle_type_id":"4","last_reported":1699805240,"current_range_meters":14800,"station_id":"ce4bgpp2rcd13ifvqc3g","pricing_plan_id":"free"},{"bike_id":"8950f55a-e75d-4fac-9a7c-f529bc0580a5","system_id":"levelo_inurba_marseille","lat":43.320464,"lon":5.384144,"is_reserved":false,"is_disabled":false,"rental_uris":{"android":"levelo://app?vid=8950f55a-e75d-4fac-9a7c-f529bc0580a5","ios":"levelo://app?vid=8950f55a-e75d-4fac-9a7c-f529bc0580a5"},"vehicle_type_id":"4","last_reported":1699805240,"current_range_meters":8800,"station_id":"","pricing_plan_id":"free"},{"bike_id":"60de5b2f-4cf6-437d-85b0-f5a98bad264b","system_id":"levelo_inurba_marseille","lat":43.311722,"lon":5.387247,"is_reserved":false,"is_disabled":false,"rental_uris":{"android":"levelo://app?vid=60de5b2f-4cf6-437d-85b0-f5a98bad264b","ios":"levelo://app?vid=60de5b2f-4cf6-437d-85b0-f5a98bad264b"},"vehicle_type_id":"4","last_reported":1699805240,"current_range_meters":20800,"station_id":"ce4bgv12rcd13ifvqcp0","pricing_plan_id":"free"},{"bike_id":"b8acb459-9dd6-4554-92f9-3eacb4e45a37","system_id":"levelo_inurba_marseille","lat":43.297774,"lon":5.370875,"is_reserved":false,"is_disabled":false,"rental_uris":{"android":"levelo://app?vid=b8acb459-9dd6-4554-92f9-3eacb4e45a37","ios":"levelo://app?vid=b8acb459-9dd6-4554-92f9-3eacb4e45a37"},"vehicle_type_id":"4","last_reported":1699805240,"current_range_meters":28800,"station_id":"ce4bgop2rcd13ifvqc1g","pricing_plan_id":"free"},{"bike_id":"90a6cda6-ce5c-4e65-bd16-d0f2f495fa60","system_id":"levelo_inurba_marseille","lat":43.32798,"lon":5.35981,"is_reserved":false,"is_disabled":false,"rental_uris":{"android":"levelo://app?vid=90a6cda6-ce5c-4e65-bd16-d0f2f495fa60","ios":"levelo://app?vid=90a6cda6-ce5c-4e65-bd16-d0f2f495fa60"},"vehicle_type_id":"4","last_reported":1699805240,"current_range_meters":18000,"station_id":"","pricing_plan_id":"free"},{"bike_id":"f0812d0f-256a-478f-9681-2e0e9d074993","system_id":"levelo_inurba_marseille","lat":43.29618,"lon":5.36833,"is_reserved":false,"is_disabled":false,"rental_uris":{"android":"levelo://app?vid=f0812d0f-256a-478f-9681-2e0e9d074993","ios":"levelo://app?vid=f0812d0f-256a-478f-9681-2e0e9d074993"},"vehicle_type_id":"4","last_reported":1699805240,"current_range_meters":27200,"station_id":"","pricing_plan_id":"free"},{"bike_id":"d447991a-59b4-4778-a190-7d2b0920a414","system_id":"levelo_inurba_marseille","lat":43.32215,"lon":5.38613,"is_reserved":false,"is_disabled":false,"rental_uris":{"android":"levelo://app?vid=d447991a-59b4-4778-a190-7d2b0920a414","ios":"levelo://app?vid=d447991a-59b4-4778-a190-7d2b0920a414"},"vehicle_type_id":"4","last_reported":1699805240,"current_range_meters":16400,"station_id":"","pricing_plan_id":"free"},{"bike_id":"408e1bba-ac1b-479c-ad30-32026784c873","system_id":"levelo_inurba_marseille","lat":43.2966,"lon":5.37463,"is_reserved":false,"is_disabled":false,"rental_uris":{"android":"levelo://app?vid=408e1bba-ac1b-479c-ad30-32026784c873","ios":"levelo://app?vid=408e1bba-ac1b-479c-ad30-32026784c873"},"vehicle_type_id":"4","last_reported":1699805240,"current_range_meters":11200,"station_id":"","pricing_plan_id":"free"},{"bike_id":"4ec6e997-8d24-48ff-91ef-e51a2284a879","system_id":"levelo_inurba_marseille","lat":43.296921,"lon":5.376579,"is_reserved":false,"is_disabled":false,"rental_uris":{"android":"levelo://app?vid=4ec6e997-8d24-48ff-91ef-e51a2284a879","ios":"levelo://app?vid=4ec6e997-8d24-48ff-91ef-e51a2284a879"},"vehicle_type_id":"4","last_reported":1699805240,"current_range_meters":6800,"station_id":"ce4bgkh2rcd13ifvqbl0","pricing_plan_id":"free"},{"bike_id":"00997dbe-f28e-4a27-a4de-12c90a4607d9","system_id":"levelo_inurba_marseille","lat":43.309589,"lon":5.390258,"is_reserved":false,"is_disabled":false,"rental_uris":{"android":"levelo://app?vid=00997dbe-f28e-4a27-a4de-12c90a4607d9","ios":"levelo://app?vid=00997dbe-f28e-4a27-a4de-12c90a4607d9"},"vehicle_type_id":"4","last_reported":1699805240,"current_range_meters":3600,"station_id":"ce4bgup2rcd13ifvqco0","pricing_plan_id":"free"},{"bike_id":"7ff3e75b-be39-4974-9e92-533248a4b5b9","system_id":"levelo_inurba_marseille","lat":43.296935,"lon":5.376544,"is_reserved":false,"is_disabled":false,"rental_uris":{"android":"levelo://app?vid=7ff3e75b-be39-4974-9e92-533248a4b5b9","ios":"levelo://app?vid=7ff3e75b-be39-4974-9e92-533248a4b5b9"},"vehicle_type_id":"4","last_reported":1699805240,"current_range_meters":10000,"station_id":"ce4bgkh2rcd13ifvqbl0","pricing_plan_id":"free"},{"bike_id":"feff7d8e-9456-4b4b-b917-4f91bb23e023","system_id":"levelo_inurba_marseille","lat":43.3175,"lon":5.39022,"is_reserved":false,"is_disabled":false,"rental_uris":{"android":"levelo://app?vid=feff7d8e-9456-4b4b-b917-4f91bb23e023","ios":"levelo://app?vid=feff7d8e-9456-4b4b-b917-4f91bb23e023"},"vehicle_type_id":"4","last_reported":1699805240,"current_range_meters":14400,"station_id":"","pricing_plan_id":"free"},{"bike_id":"5baa30b0-3e79-410c-873c-14f9cd1bdb7b","system_id":"levelo_inurba_marseille","lat":43.295748,"lon":5.37522,"is_reserved":false,"is_disabled":false,"rental_uris":{"android":"levelo://app?vid=5baa30b0-3e79-410c-873c-14f9cd1bdb7b","ios":"levelo://app?vid=5baa30b0-3e79-410c-873c-14f9cd1bdb7b"},"vehicle_type_id":"4","last_reported":1699805240,"current_range_meters":5200,"station_id":"ce4bgh92rcd13ifvqb50","pricing_plan_id":"free"},{"bike_id":"0dfc1003-89a4-404f-a173-3eaf50467e37","system_id":"levelo_inurba_marseille","lat":43.304274,"lon":5.388873,"is_reserved":false,"is_disabled":false,"rental_uris":{"android":"levelo://app?vid=0dfc1003-89a4-404f-a173-3eaf50467e37","ios":"levelo://app?vid=0dfc1003-89a4-404f-a173-3eaf50467e37"},"vehicle_type_id":"4","last_reported":1699805240,"current_range_meters":7200,"station_id":"ce4bgk12rcd13ifvqbi0","pricing_plan_id":"free"},{"bike_id":"c978a63c-e168-4ad0-b538-9d7c841d0f11","system_id":"levelo_inurba_marseille","lat":43.29615,"lon":5.377317,"is_reserved":false,"is_disabled":false,"rental_uris":{"android":"levelo://app?vid=c978a63c-e168-4ad0-b538-9d7c841d0f11","ios":"levelo://app?vid=c978a63c-e168-4ad0-b538-9d7c841d0f11"},"vehicle_type_id":"4","last_reported":1699805240,"current_range_meters":0,"station_id":"ce4bgi92rcd13ifvqb90","pricing_plan_id":"free"},{"bike_id":"084f9351-3946-48c6-865e-15aff8356ec4","system_id":"levelo_inurba_marseille","lat":43.299717,"lon":5.384845,"is_reserved":false,"is_disabled":false,"rental_uris":{"android":"levelo://app?vid=084f9351-3946-48c6-865e-15aff8356ec4","ios":"levelo://app?vid=084f9351-3946-48c6-865e-15aff8356ec4"},"vehicle_type_id":"4","last_reported":1699805240,"current_range_meters":0,"station_id":"ce4bgj92rcd13ifvqbd0","pricing_plan_id":"free"},{"bike_id":"53d3f7c6-61b5-4687-b899-0009dde1d985","system_id":"levelo_inurba_marseille","lat":43.32364,"lon":5.38892,"is_reserved":false,"is_disabled":false,"rental_uris":{"android":"levelo://app?vid=53d3f7c6-61b5-4687-b899-0009dde1d985","ios":"levelo://app?vid=53d3f7c6-61b5-4687-b899-0009dde1d985"},"vehicle_type_id":"4","last_reported":1699805240,"current_range_meters":1600,"station_id":"ce4bhqp2rcd13ifvqhog","pricing_plan_id":"free"},{"bike_id":"1f2edeec-835f-4188-b75a-b19c37bb1dac","system_id":"levelo_inurba_marseille","lat":43.30109,"lon":5.3894,"is_reserved":false,"is_disabled":false,"rental_uris":{"android":"levelo://app?vid=1f2edeec-835f-4188-b75a-b19c37bb1dac","ios":"levelo://app?vid=1f2edeec-835f-4188-b75a-b19c37bb1dac"},"vehicle_type_id":"4","last_reported":1699805240,"current_range_meters":800,"station_id":"","pricing_plan_id":"free"},{"bike_id":"0b463e5d-744e-49f1-886a-5abdfb1c4a87","system_id":"levelo_inurba_marseille","lat":43.303002,"lon":5.392142,"is_reserved":false,"is_disabled":false,"rental_uris":{"android":"levelo://app?vid=0b463e5d-744e-49f1-886a-5abdfb1c4a87","ios":"levelo://app?vid=0b463e5d-744e-49f1-886a-5abdfb1c4a87"},"vehicle_type_id":"4","last_reported":1699805240,"current_range_meters":1600,"station_id":"ce4bgkh2rcd13ifvqbk0","pricing_plan_id":"free"},{"bike_id":"81ef8014-427a-421b-8521-2ceea24bde05","system_id":"levelo_inurba_marseille","lat":43.298764,"lon":5.388973,"is_reserved":false,"is_disabled":false,"rental_uris":{"android":"levelo://app?vid=81ef8014-427a-421b-8521-2ceea24bde05","ios":"levelo://app?vid=81ef8014-427a-421b-8521-2ceea24bde05"},"vehicle_type_id":"4","last_reported":1699805240,"current_range_meters":800,"station_id":"ce4bh392rcd13ifvqdl0","pricing_plan_id":"free"},{"bike_id":"74234097-675e-4f0f-9b50-8b8b4b88f743","system_id":"levelo_inurba_marseille","lat":43.291553,"lon":5.371563,"is_reserved":false,"is_disabled":false,"rental_uris":{"android":"levelo://app?vid=74234097-675e-4f0f-9b50-8b8b4b88f743","ios":"levelo://app?vid=74234097-675e-4f0f-9b50-8b8b4b88f743"},"vehicle_type_id":"4","last_reported":1699805240,"current_range_meters":0,"station_id":"ce4bha92rcd13ifvqeh0","pricing_plan_id":"free"},{"bike_id":"611af782-4267-4c9b-8245-cd069565dedb","system_id":"levelo_inurba_marseille","lat":43.31331,"lon":5.39691,"is_reserved":false,"is_disabled":false,"rental_uris":{"android":"levelo://app?vid=611af782-4267-4c9b-8245-cd069565dedb","ios":"levelo://app?vid=611af782-4267-4c9b-8245-cd069565dedb"},"vehicle_type_id":"4","last_reported":1699805240,"current_range_meters":17200,"station_id":"ce4bgvp2rcd13ifvqcu0","pricing_plan_id":"free"},{"bike_id":"aac06094-2179-434c-82b2-54601e229fca","system_id":"levelo_inurba_marseille","lat":43.31328,"lon":5.39693,"is_reserved":false,"is_disabled":false,"rental_uris":{"android":"levelo://app?vid=aac06094-2179-434c-82b2-54601e229fca","ios":"levelo://app?vid=aac06094-2179-434c-82b2-54601e229fca"},"vehicle_type_id":"4","last_reported":1699805240,"current_range_meters":2800,"station_id":"ce4bgvp2rcd13ifvqcu0","pricing_plan_id":"free"},{"bike_id":"9f7d72b2-b974-44d8-8a32-ce64a2b98a9b","system_id":"levelo_inurba_marseille","lat":43.309038,"lon":5.396546,"is_reserved":false,"is_disabled":false,"rental_uris":{"android":"levelo://app?vid=9f7d72b2-b974-44d8-8a32-ce64a2b98a9b","ios":"levelo://app?vid=9f7d72b2-b974-44d8-8a32-ce64a2b98a9b"},"vehicle_type_id":"4","last_reported":1699805240,"current_range_meters":6800,"station_id":"ce4bh012rcd13ifvqcv0","pricing_plan_id":"free"},{"bike_id":"c961464a-f7b1-4b66-b99c-2834fb8aaf4e","system_id":"levelo_inurba_marseille","lat":43.31326,"lon":5.39701,"is_reserved":false,"is_disabled":false,"rental_uris":{"android":"levelo://app?vid=c961464a-f7b1-4b66-b99c-2834fb8aaf4e","ios":"levelo://app?vid=c961464a-f7b1-4b66-b99c-2834fb8aaf4e"},"vehicle_type_id":"4","last_reported":1699805240,"current_range_meters":0,"station_id":"ce4bgvp2rcd13ifvqcu0","pricing_plan_id":"free"},{"bike_id":"e30707b9-312d-463e-8939-3a90e101f7fc","system_id":"levelo_inurba_marseille","lat":43.309038,"lon":5.396546,"is_reserved":false,"is_disabled":false,"rental_uris":{"android":"levelo://app?vid=e30707b9-312d-463e-8939-3a90e101f7fc","ios":"levelo://app?vid=e30707b9-312d-463e-8939-3a90e101f7fc"},"vehicle_type_id":"4","last_reported":1699805240,"current_range_meters":17600,"station_id":"ce4bh012rcd13ifvqcv0","pricing_plan_id":"free"},{"bike_id":"f500a78d-2abf-41f4-8756-7b61eb6362ab","system_id":"levelo_inurba_marseille","lat":43.309038,"lon":5.396546,"is_reserved":false,"is_disabled":false,"rental_uris":{"android":"levelo://app?vid=f500a78d-2abf-41f4-8756-7b61eb6362ab","ios":"levelo://app?vid=f500a78d-2abf-41f4-8756-7b61eb6362ab"},"vehicle_type_id":"4","last_reported":1699805240,"current_range_meters":1600,"station_id":"ce4bh012rcd13ifvqcv0","pricing_plan_id":"free"},{"bike_id":"13a9ca52-ea3c-414d-b229-0089ea565c3a","system_id":"levelo_inurba_marseille","lat":43.29529,"lon":5.385581,"is_reserved":false,"is_disabled":false,"rental_uris":{"android":"levelo://app?vid=13a9ca52-ea3c-414d-b229-0089ea565c3a","ios":"levelo://app?vid=13a9ca52-ea3c-414d-b229-0089ea565c3a"},"vehicle_type_id":"4","last_reported":1699805240,"current_range_meters":0,"station_id":"ce4bgih2rcd13ifvqba0","pricing_plan_id":"free"},{"bike_id":"a4eff44d-ad5b-4c6e-b914-cc3f8431ddbc","system_id":"levelo_inurba_marseille","lat":43.29529,"lon":5.385581,"is_reserved":false,"is_disabled":false,"rental_uris":{"android":"levelo://app?vid=a4eff44d-ad5b-4c6e-b914-cc3f8431ddbc","ios":"levelo://app?vid=a4eff44d-ad5b-4c6e-b914-cc3f8431ddbc"},"vehicle_type_id":"4","last_reported":1699805240,"current_range_meters":8400,"station_id":"ce4bgih2rcd13ifvqba0","pricing_plan_id":"free"},{"bike_id":"ce9f91c3-5b6c-439f-b833-45ff45eaf499","system_id":"levelo_inurba_marseille","lat":43.29529,"lon":5.385581,"is_reserved":false,"is_disabled":false,"rental_uris":{"android":"levelo://app?vid=ce9f91c3-5b6c-439f-b833-45ff45eaf499","ios":"levelo://app?vid=ce9f91c3-5b6c-439f-b833-45ff45eaf499"},"vehicle_type_id":"4","last_reported":1699805240,"current_range_meters":12000,"station_id":"ce4bgih2rcd13ifvqba0","pricing_plan_id":"free"},{"bike_id":"47c9c0f8-fe2c-498f-9de2-bed4f543d5d1","system_id":"levelo_inurba_marseille","lat":43.290624,"lon":5.359245,"is_reserved":false,"is_disabled":false,"rental_uris":{"android":"levelo://app?vid=47c9c0f8-fe2c-498f-9de2-bed4f543d5d1","ios":"levelo://app?vid=47c9c0f8-fe2c-498f-9de2-bed4f543d5d1"},"vehicle_type_id":"4","last_reported":1699805240,"current_range_meters":7600,"station_id":"ce4bha92rcd13ifvqeg0","pricing_plan_id":"free"},{"bike_id":"6538c0ce-3d89-46a3-a474-2f6d6ecd005b","system_id":"levelo_inurba_marseille","lat":43.289184,"lon":5.366408,"is_reserved":false,"is_disabled":false,"rental_uris":{"android":"levelo://app?vid=6538c0ce-3d89-46a3-a474-2f6d6ecd005b","ios":"levelo://app?vid=6538c0ce-3d89-46a3-a474-2f6d6ecd005b"},"vehicle_type_id":"4","last_reported":1699805240,"current_range_meters":16400,"station_id":"ce4bhap2rcd13ifvqek0","pricing_plan_id":"free"},{"bike_id":"bd428647-ab65-4252-9d77-ac1402b322bf","system_id":"levelo_inurba_marseille","lat":43.289184,"lon":5.366408,"is_reserved":false,"is_disabled":false,"rental_uris":{"android":"levelo://app?vid=bd428647-ab65-4252-9d77-ac1402b322bf","ios":"levelo://app?vid=bd428647-ab65-4252-9d77-ac1402b322bf"},"vehicle_type_id":"4","last_reported":1699805240,"current_range_meters":18000,"station_id":"ce4bhap2rcd13ifvqek0","pricing_plan_id":"free"},{"bike_id":"3401446e-1922-4708-adb3-271997ae30a2","system_id":"levelo_inurba_marseille","lat":43.29275,"lon":5.38435,"is_reserved":false,"is_disabled":false,"rental_uris":{"android":"levelo://app?vid=3401446e-1922-4708-adb3-271997ae30a2","ios":"levelo://app?vid=3401446e-1922-4708-adb3-271997ae30a2"},"vehicle_type_id":"4","last_reported":1699805240,"current_range_meters":0,"station_id":"ce4bh692rcd13ifvqea0","pricing_plan_id":"free"},{"bike_id":"1c23b98b-284c-47fd-8b46-3bebedce7d6c","system_id":"levelo_inurba_marseille","lat":43.290104,"lon":5.356111,"is_reserved":false,"is_disabled":false,"rental_uris":{"android":"levelo://app?vid=1c23b98b-284c-47fd-8b46-3bebedce7d6c","ios":"levelo://app?vid=1c23b98b-284c-47fd-8b46-3bebedce7d6c"},"vehicle_type_id":"4","last_reported":1699805240,"current_range_meters":8000,"station_id":"ce4bhb92rcd13ifvqen0","pricing_plan_id":"free"},{"bike_id":"41a0aebd-633c-4a12-876c-043e326903f9","system_id":"levelo_inurba_marseille","lat":43.290995,"lon":5.381361,"is_reserved":false,"is_disabled":false,"rental_uris":{"android":"levelo://app?vid=41a0aebd-633c-4a12-876c-043e326903f9","ios":"levelo://app?vid=41a0aebd-633c-4a12-876c-043e326903f9"},"vehicle_type_id":"4","last_reported":1699805240,"current_range_meters":23600,"station_id":"ce4bh512rcd13ifvqe2g","pricing_plan_id":"free"},{"bike_id":"92fbaedb-8f42-484d-804e-b69a3a21903c","system_id":"levelo_inurba_marseille","lat":43.288667,"lon":5.37314,"is_reserved":false,"is_disabled":false,"rental_uris":{"android":"levelo://app?vid=92fbaedb-8f42-484d-804e-b69a3a21903c","ios":"levelo://app?vid=92fbaedb-8f42-484d-804e-b69a3a21903c"},"vehicle_type_id":"4","last_reported":1699805240,"current_range_meters":0,"station_id":"","pricing_plan_id":"free"},{"bike_id":"dc07b4df-f46c-4b2a-851b-c02f4e171228","system_id":"levelo_inurba_marseille","lat":43.2897,"lon":5.37849,"is_reserved":false,"is_disabled":false,"rental_uris":{"android":"levelo://app?vid=dc07b4df-f46c-4b2a-851b-c02f4e171228","ios":"levelo://app?vid=dc07b4df-f46c-4b2a-851b-c02f4e171228"},"vehicle_type_id":"4","last_reported":1699805240,"current_range_meters":0,"station_id":"ce4bh9p2rcd13ifvqed0","pricing_plan_id":"free"},{"bike_id":"7a1356b5-2437-4bfa-bb34-cf55b7f00bb1","system_id":"levelo_inurba_marseille","lat":43.33063,"lon":5.39051,"is_reserved":false,"is_disabled":false,"rental_uris":{"android":"levelo://app?vid=7a1356b5-2437-4bfa-bb34-cf55b7f00bb1","ios":"levelo://app?vid=7a1356b5-2437-4bfa-bb34-cf55b7f00bb1"},"vehicle_type_id":"4","last_reported":1699805240,"current_range_meters":10400,"station_id":"","pricing_plan_id":"free"},{"bike_id":"93f30188-6612-49fc-8bb2-85a5d89617b0","system_id":"levelo_inurba_marseille","lat":43.28856,"lon":5.358371,"is_reserved":false,"is_disabled":false,"rental_uris":{"android":"levelo://app?vid=93f30188-6612-49fc-8bb2-85a5d89617b0","ios":"levelo://app?vid=93f30188-6612-49fc-8bb2-85a5d89617b0"},"vehicle_type_id":"4","last_reported":1699805240,"current_range_meters":2800,"station_id":"ce4bhb12rcd13ifvqem0","pricing_plan_id":"free"},{"bike_id":"de86e3d1-a596-40c7-ba28-8077c5a08266","system_id":"levelo_inurba_marseille","lat":43.33765,"lon":5.37489,"is_reserved":false,"is_disabled":false,"rental_uris":{"android":"levelo://app?vid=de86e3d1-a596-40c7-ba28-8077c5a08266","ios":"levelo://app?vid=de86e3d1-a596-40c7-ba28-8077c5a08266"},"vehicle_type_id":"4","last_reported":1699805240,"current_range_meters":28400,"station_id":"","pricing_plan_id":"free"},{"bike_id":"743f3bc5-43c9-45a3-8965-b67b169c6c30","system_id":"levelo_inurba_marseille","lat":43.30513,"lon":5.40077,"is_reserved":false,"is_disabled":false,"rental_uris":{"android":"levelo://app?vid=743f3bc5-43c9-45a3-8965-b67b169c6c30","ios":"levelo://app?vid=743f3bc5-43c9-45a3-8965-b67b169c6c30"},"vehicle_type_id":"4","last_reported":1699805240,"current_range_meters":7200,"station_id":"","pricing_plan_id":"free"},{"bike_id":"416e7c30-c9b8-4e31-a4a7-e34035ecfb40","system_id":"levelo_inurba_marseille","lat":43.28727,"lon":5.36078,"is_reserved":false,"is_disabled":false,"rental_uris":{"android":"levelo://app?vid=416e7c30-c9b8-4e31-a4a7-e34035ecfb40","ios":"levelo://app?vid=416e7c30-c9b8-4e31-a4a7-e34035ecfb40"},"vehicle_type_id":"4","last_reported":1699805240,"current_range_meters":13600,"station_id":"cki0cbj6b192h4jlfktg","pricing_plan_id":"free"},{"bike_id":"3e2ab2df-a549-40c1-bfa1-24db6cd7aaac","system_id":"levelo_inurba_marseille","lat":43.286591,"lon":5.363346,"is_reserved":false,"is_disabled":false,"rental_uris":{"android":"levelo://app?vid=3e2ab2df-a549-40c1-bfa1-24db6cd7aaac","ios":"levelo://app?vid=3e2ab2df-a549-40c1-bfa1-24db6cd7aaac"},"vehicle_type_id":"4","last_reported":1699805240,"current_range_meters":16400,"station_id":"ce4bhah2rcd13ifvqej0","pricing_plan_id":"free"},{"bike_id":"be60811b-79ef-42c1-81eb-081725ece3aa","system_id":"levelo_inurba_marseille","lat":43.286593,"lon":5.363346,"is_reserved":false,"is_disabled":false,"rental_uris":{"android":"levelo://app?vid=be60811b-79ef-42c1-81eb-081725ece3aa","ios":"levelo://app?vid=be60811b-79ef-42c1-81eb-081725ece3aa"},"vehicle_type_id":"4","last_reported":1699805240,"current_range_meters":30400,"station_id":"ce4bhah2rcd13ifvqej0","pricing_plan_id":"free"},{"bike_id":"93d3f195-7f39-41dd-8d19-ef89b7eb61e2","system_id":"levelo_inurba_marseille","lat":43.295196,"lon":5.39397,"is_reserved":false,"is_disabled":false,"rental_uris":{"android":"levelo://app?vid=93d3f195-7f39-41dd-8d19-ef89b7eb61e2","ios":"levelo://app?vid=93d3f195-7f39-41dd-8d19-ef89b7eb61e2"},"vehicle_type_id":"4","last_reported":1699805240,"current_range_meters":6000,"station_id":"ce4bh292rcd13ifvqdf0","pricing_plan_id":"free"},{"bike_id":"1caf45a4-c3fd-4dbb-ab88-0fddc652f092","system_id":"levelo_inurba_marseille","lat":43.286961,"lon":5.373785,"is_reserved":false,"is_disabled":false,"rental_uris":{"android":"levelo://app?vid=1caf45a4-c3fd-4dbb-ab88-0fddc652f092","ios":"levelo://app?vid=1caf45a4-c3fd-4dbb-ab88-0fddc652f092"},"vehicle_type_id":"4","last_reported":1699805240,"current_range_meters":30000,"station_id":"ce4bh3p2rcd13ifvqdq0","pricing_plan_id":"free"},{"bike_id":"d94a1452-e3c4-4e62-b0f4-3aa942b696fc","system_id":"levelo_inurba_marseille","lat":43.302759,"lon":5.400793,"is_reserved":false,"is_disabled":false,"rental_uris":{"android":"levelo://app?vid=d94a1452-e3c4-4e62-b0f4-3aa942b696fc","ios":"levelo://app?vid=d94a1452-e3c4-4e62-b0f4-3aa942b696fc"},"vehicle_type_id":"4","last_reported":1699805240,"current_range_meters":2000,"station_id":"ce4bgvh2rcd13ifvqcs0","pricing_plan_id":"free"},{"bike_id":"d8485b5a-daa3-421b-9264-4d102047a239","system_id":"levelo_inurba_marseille","lat":43.28605,"lon":5.37067,"is_reserved":false,"is_disabled":false,"rental_uris":{"android":"levelo://app?vid=d8485b5a-daa3-421b-9264-4d102047a239","ios":"levelo://app?vid=d8485b5a-daa3-421b-9264-4d102047a239"},"vehicle_type_id":"4","last_reported":1699805240,"current_range_meters":10400,"station_id":"ce4bht12rcd13ifvqi60","pricing_plan_id":"free"},{"bike_id":"8d90b799-d31c-4dec-9075-af0dcf636ff2","system_id":"levelo_inurba_marseille","lat":43.316517,"lon":5.404375,"is_reserved":false,"is_disabled":false,"rental_uris":{"android":"levelo://app?vid=8d90b799-d31c-4dec-9075-af0dcf636ff2","ios":"levelo://app?vid=8d90b799-d31c-4dec-9075-af0dcf636ff2"},"vehicle_type_id":"4","last_reported":1699805240,"current_range_meters":7600,"station_id":"ce4bh012rcd13ifvqd00","pricing_plan_id":"free"},{"bike_id":"c4efd839-6b38-46a6-86a7-c2e347ec179a","system_id":"levelo_inurba_marseille","lat":43.316436,"lon":5.404378,"is_reserved":false,"is_disabled":false,"rental_uris":{"android":"levelo://app?vid=c4efd839-6b38-46a6-86a7-c2e347ec179a","ios":"levelo://app?vid=c4efd839-6b38-46a6-86a7-c2e347ec179a"},"vehicle_type_id":"4","last_reported":1699805240,"current_range_meters":0,"station_id":"","pricing_plan_id":"free"},{"bike_id":"7bcff914-ba04-4fb6-864c-ee21a07b4e83","system_id":"levelo_inurba_marseille","lat":43.316438,"lon":5.404384,"is_reserved":false,"is_disabled":false,"rental_uris":{"android":"levelo://app?vid=7bcff914-ba04-4fb6-864c-ee21a07b4e83","ios":"levelo://app?vid=7bcff914-ba04-4fb6-864c-ee21a07b4e83"},"vehicle_type_id":"4","last_reported":1699805240,"current_range_meters":2400,"station_id":"ce4bh012rcd13ifvqd00","pricing_plan_id":"free"},{"bike_id":"a50b3ee0-5223-4d24-b2db-95104d67b5ac","system_id":"levelo_inurba_marseille","lat":43.316517,"lon":5.404375,"is_reserved":false,"is_disabled":false,"rental_uris":{"android":"levelo://app?vid=a50b3ee0-5223-4d24-b2db-95104d67b5ac","ios":"levelo://app?vid=a50b3ee0-5223-4d24-b2db-95104d67b5ac"},"vehicle_type_id":"4","last_reported":1699805240,"current_range_meters":26000,"station_id":"ce4bh012rcd13ifvqd00","pricing_plan_id":"free"},{"bike_id":"a054e0e3-9bd9-4bc2-ab5f-918287f761d0","system_id":"levelo_inurba_marseille","lat":43.316517,"lon":5.404375,"is_reserved":false,"is_disabled":false,"rental_uris":{"android":"levelo://app?vid=a054e0e3-9bd9-4bc2-ab5f-918287f761d0","ios":"levelo://app?vid=a054e0e3-9bd9-4bc2-ab5f-918287f761d0"},"vehicle_type_id":"4","last_reported":1699805240,"current_range_meters":2400,"station_id":"ce4bh012rcd13ifvqd00","pricing_plan_id":"free"},{"bike_id":"8cfbfe9d-9d7a-4651-9439-203bdb80c6c9","system_id":"levelo_inurba_marseille","lat":43.31642,"lon":5.40447,"is_reserved":false,"is_disabled":false,"rental_uris":{"android":"levelo://app?vid=8cfbfe9d-9d7a-4651-9439-203bdb80c6c9","ios":"levelo://app?vid=8cfbfe9d-9d7a-4651-9439-203bdb80c6c9"},"vehicle_type_id":"4","last_reported":1699805240,"current_range_meters":5200,"station_id":"ce4bh012rcd13ifvqd00","pricing_plan_id":"free"},{"bike_id":"e57449c2-d088-47cf-8bf2-271593713c89","system_id":"levelo_inurba_marseille","lat":43.328576,"lon":5.398841,"is_reserved":false,"is_disabled":false,"rental_uris":{"android":"levelo://app?vid=e57449c2-d088-47cf-8bf2-271593713c89","ios":"levelo://app?vid=e57449c2-d088-47cf-8bf2-271593713c89"},"vehicle_type_id":"4","last_reported":1699805240,"current_range_meters":4000,"station_id":"","pricing_plan_id":"free"},{"bike_id":"f0d9c451-eb3e-4947-aa87-ccd5980c3567","system_id":"levelo_inurba_marseille","lat":43.28682,"lon":5.35174,"is_reserved":false,"is_disabled":false,"rental_uris":{"android":"levelo://app?vid=f0d9c451-eb3e-4947-aa87-ccd5980c3567","ios":"levelo://app?vid=f0d9c451-eb3e-4947-aa87-ccd5980c3567"},"vehicle_type_id":"4","last_reported":1699805240,"current_range_meters":0,"station_id":"","pricing_plan_id":"free"},{"bike_id":"b682f943-acd3-4dfb-8bc9-a74afa713320","system_id":"levelo_inurba_marseille","lat":43.292044,"lon":5.393251,"is_reserved":false,"is_disabled":false,"rental_uris":{"android":"levelo://app?vid=b682f943-acd3-4dfb-8bc9-a74afa713320","ios":"levelo://app?vid=b682f943-acd3-4dfb-8bc9-a74afa713320"},"vehicle_type_id":"4","last_reported":1699805240,"current_range_meters":24800,"station_id":"","pricing_plan_id":"free"},{"bike_id":"8b602db7-3933-4e4f-af07-3532eae594f1","system_id":"levelo_inurba_marseille","lat":43.291994,"lon":5.392907,"is_reserved":false,"is_disabled":false,"rental_uris":{"android":"levelo://app?vid=8b602db7-3933-4e4f-af07-3532eae594f1","ios":"levelo://app?vid=8b602db7-3933-4e4f-af07-3532eae594f1"},"vehicle_type_id":"4","last_reported":1699805240,"current_range_meters":6400,"station_id":"ce4bh192rcd13ifvqdd0","pricing_plan_id":"free"},{"bike_id":"97f69896-ff45-4fcf-af23-450a1241bec7","system_id":"levelo_inurba_marseille","lat":43.29194,"lon":5.39316,"is_reserved":false,"is_disabled":false,"rental_uris":{"android":"levelo://app?vid=97f69896-ff45-4fcf-af23-450a1241bec7","ios":"levelo://app?vid=97f69896-ff45-4fcf-af23-450a1241bec7"},"vehicle_type_id":"4","last_reported":1699805240,"current_range_meters":10800,"station_id":"ce4bh192rcd13ifvqdd0","pricing_plan_id":"free"},{"bike_id":"b4b8b3b0-5dc4-418a-99c9-3d6cfbdee45e","system_id":"levelo_inurba_marseille","lat":43.291994,"lon":5.392907,"is_reserved":false,"is_disabled":false,"rental_uris":{"android":"levelo://app?vid=b4b8b3b0-5dc4-418a-99c9-3d6cfbdee45e","ios":"levelo://app?vid=b4b8b3b0-5dc4-418a-99c9-3d6cfbdee45e"},"vehicle_type_id":"4","last_reported":1699805240,"current_range_meters":10800,"station_id":"ce4bh192rcd13ifvqdd0","pricing_plan_id":"free"},{"bike_id":"b860e289-9987-494c-ae7c-05309f444201","system_id":"levelo_inurba_marseille","lat":43.28458,"lon":5.35894,"is_reserved":false,"is_disabled":false,"rental_uris":{"android":"levelo://app?vid=b860e289-9987-494c-ae7c-05309f444201","ios":"levelo://app?vid=b860e289-9987-494c-ae7c-05309f444201"},"vehicle_type_id":"4","last_reported":1699805240,"current_range_meters":0,"station_id":"ce4bhah2rcd13ifvqei0","pricing_plan_id":"free"},{"bike_id":"8b29ff90-4ea0-4b16-b9f0-b91926227516","system_id":"levelo_inurba_marseille","lat":43.28616,"lon":5.35111,"is_reserved":false,"is_disabled":false,"rental_uris":{"android":"levelo://app?vid=8b29ff90-4ea0-4b16-b9f0-b91926227516","ios":"levelo://app?vid=8b29ff90-4ea0-4b16-b9f0-b91926227516"},"vehicle_type_id":"4","last_reported":1699805240,"current_range_meters":31200,"station_id":"ce4bhch2rcd13ifvqeug","pricing_plan_id":"free"},{"bike_id":"0af98c0c-fecc-4747-8537-8717b20c4855","system_id":"levelo_inurba_marseille","lat":43.28617,"lon":5.35106,"is_reserved":false,"is_disabled":false,"rental_uris":{"android":"levelo://app?vid=0af98c0c-fecc-4747-8537-8717b20c4855","ios":"levelo://app?vid=0af98c0c-fecc-4747-8537-8717b20c4855"},"vehicle_type_id":"4","last_reported":1699805240,"current_range_meters":28400,"station_id":"ce4bhch2rcd13ifvqeug","pricing_plan_id":"free"},{"bike_id":"a4c9d700-1097-4fa2-bbff-d6f2d63661dc","system_id":"levelo_inurba_marseille","lat":43.284,"lon":5.37523,"is_reserved":false,"is_disabled":false,"rental_uris":{"android":"levelo://app?vid=a4c9d700-1097-4fa2-bbff-d6f2d63661dc","ios":"levelo://app?vid=a4c9d700-1097-4fa2-bbff-d6f2d63661dc"},"vehicle_type_id":"4","last_reported":1699805240,"current_range_meters":8400,"station_id":"ce4bh412rcd13ifvqds0","pricing_plan_id":"free"},{"bike_id":"030625bd-f8ba-4389-9944-df2973894a22","system_id":"levelo_inurba_marseille","lat":43.325731,"lon":5.404186,"is_reserved":false,"is_disabled":false,"rental_uris":{"android":"levelo://app?vid=030625bd-f8ba-4389-9944-df2973894a22","ios":"levelo://app?vid=030625bd-f8ba-4389-9944-df2973894a22"},"vehicle_type_id":"4","last_reported":1699805240,"current_range_meters":0,"station_id":"","pricing_plan_id":"free"},{"bike_id":"9caec048-a3aa-428b-9d1e-66ad6c2d8e58","system_id":"levelo_inurba_marseille","lat":43.33241,"lon":5.39852,"is_reserved":false,"is_disabled":false,"rental_uris":{"android":"levelo://app?vid=9caec048-a3aa-428b-9d1e-66ad6c2d8e58","ios":"levelo://app?vid=9caec048-a3aa-428b-9d1e-66ad6c2d8e58"},"vehicle_type_id":"4","last_reported":1699805240,"current_range_meters":20400,"station_id":"","pricing_plan_id":"free"},{"bike_id":"fd4453ca-443e-40fb-8cb1-027f379fdf21","system_id":"levelo_inurba_marseille","lat":43.33717,"lon":5.391857,"is_reserved":false,"is_disabled":false,"rental_uris":{"android":"levelo://app?vid=fd4453ca-443e-40fb-8cb1-027f379fdf21","ios":"levelo://app?vid=fd4453ca-443e-40fb-8cb1-027f379fdf21"},"vehicle_type_id":"4","last_reported":1699805240,"current_range_meters":13600,"station_id":"ce4bhr92rcd13ifvqhsg","pricing_plan_id":"free"},{"bike_id":"f4756849-790c-4dd2-9085-4ab43509fc3f","system_id":"levelo_inurba_marseille","lat":43.284793,"lon":5.384113,"is_reserved":false,"is_disabled":false,"rental_uris":{"android":"levelo://app?vid=f4756849-790c-4dd2-9085-4ab43509fc3f","ios":"levelo://app?vid=f4756849-790c-4dd2-9085-4ab43509fc3f"},"vehicle_type_id":"4","last_reported":1699805240,"current_range_meters":0,"station_id":"ce4bh512rcd13ifvqe3g","pricing_plan_id":"free"},{"bike_id":"694cc18d-6823-481a-9d09-67d990c2d197","system_id":"levelo_inurba_marseille","lat":43.324289,"lon":5.407562,"is_reserved":false,"is_disabled":false,"rental_uris":{"android":"levelo://app?vid=694cc18d-6823-481a-9d09-67d990c2d197","ios":"levelo://app?vid=694cc18d-6823-481a-9d09-67d990c2d197"},"vehicle_type_id":"4","last_reported":1699805240,"current_range_meters":0,"station_id":"","pricing_plan_id":"free"},{"bike_id":"da6f327e-6f4b-40af-9e96-06d68556cc14","system_id":"levelo_inurba_marseille","lat":43.292724,"lon":5.401131,"is_reserved":false,"is_disabled":false,"rental_uris":{"android":"levelo://app?vid=da6f327e-6f4b-40af-9e96-06d68556cc14","ios":"levelo://app?vid=da6f327e-6f4b-40af-9e96-06d68556cc14"},"vehicle_type_id":"4","last_reported":1699805240,"current_range_meters":22800,"station_id":"ce4bh312rcd13ifvqdk0","pricing_plan_id":"free"},{"bike_id":"ef67e0fa-d62c-4d2e-abe1-a0023cad0e75","system_id":"levelo_inurba_marseille","lat":43.282725,"lon":5.350562,"is_reserved":false,"is_disabled":false,"rental_uris":{"android":"levelo://app?vid=ef67e0fa-d62c-4d2e-abe1-a0023cad0e75","ios":"levelo://app?vid=ef67e0fa-d62c-4d2e-abe1-a0023cad0e75"},"vehicle_type_id":"4","last_reported":1699805240,"current_range_meters":27600,"station_id":"ce4bhbp2rcd13ifvqerg","pricing_plan_id":"free"},{"bike_id":"a6a1a2aa-b0aa-4ce6-b86c-633691fdc5a1","system_id":"levelo_inurba_marseille","lat":43.28047,"lon":5.36944,"is_reserved":false,"is_disabled":false,"rental_uris":{"android":"levelo://app?vid=a6a1a2aa-b0aa-4ce6-b86c-633691fdc5a1","ios":"levelo://app?vid=a6a1a2aa-b0aa-4ce6-b86c-633691fdc5a1"},"vehicle_type_id":"4","last_reported":1699805240,"current_range_meters":16400,"station_id":"ce4bha12rcd13ifvqef0","pricing_plan_id":"free"},{"bike_id":"fe623948-1f15-4805-b01f-a5168ea5f542","system_id":"levelo_inurba_marseille","lat":43.282754,"lon":5.350519,"is_reserved":false,"is_disabled":false,"rental_uris":{"android":"levelo://app?vid=fe623948-1f15-4805-b01f-a5168ea5f542","ios":"levelo://app?vid=fe623948-1f15-4805-b01f-a5168ea5f542"},"vehicle_type_id":"4","last_reported":1699805240,"current_range_meters":2800,"station_id":"ce4bhbp2rcd13ifvqerg","pricing_plan_id":"free"},{"bike_id":"3e7a424f-7a9c-4abb-9809-b22b7112b800","system_id":"levelo_inurba_marseille","lat":43.28039,"lon":5.369297,"is_reserved":false,"is_disabled":false,"rental_uris":{"android":"levelo://app?vid=3e7a424f-7a9c-4abb-9809-b22b7112b800","ios":"levelo://app?vid=3e7a424f-7a9c-4abb-9809-b22b7112b800"},"vehicle_type_id":"4","last_reported":1699805240,"current_range_meters":25200,"station_id":"ce4bha12rcd13ifvqef0","pricing_plan_id":"free"},{"bike_id":"b233655a-680d-4125-8fd0-c2d6185e2fa6","system_id":"levelo_inurba_marseille","lat":43.280382,"lon":5.369291,"is_reserved":false,"is_disabled":false,"rental_uris":{"android":"levelo://app?vid=b233655a-680d-4125-8fd0-c2d6185e2fa6","ios":"levelo://app?vid=b233655a-680d-4125-8fd0-c2d6185e2fa6"},"vehicle_type_id":"4","last_reported":1699805240,"current_range_meters":25200,"station_id":"ce4bha12rcd13ifvqef0","pricing_plan_id":"free"},{"bike_id":"29f112ae-b8e7-4534-880d-ef4854d5a864","system_id":"levelo_inurba_marseille","lat":43.280382,"lon":5.369291,"is_reserved":false,"is_disabled":false,"rental_uris":{"android":"levelo://app?vid=29f112ae-b8e7-4534-880d-ef4854d5a864","ios":"levelo://app?vid=29f112ae-b8e7-4534-880d-ef4854d5a864"},"vehicle_type_id":"4","last_reported":1699805240,"current_range_meters":24400,"station_id":"ce4bha12rcd13ifvqef0","pricing_plan_id":"free"},{"bike_id":"87ad7a0e-9e37-49d5-90c4-80b3281bac1d","system_id":"levelo_inurba_marseille","lat":43.28039,"lon":5.369297,"is_reserved":false,"is_disabled":false,"rental_uris":{"android":"levelo://app?vid=87ad7a0e-9e37-49d5-90c4-80b3281bac1d","ios":"levelo://app?vid=87ad7a0e-9e37-49d5-90c4-80b3281bac1d"},"vehicle_type_id":"4","last_reported":1699805240,"current_range_meters":8800,"station_id":"ce4bha12rcd13ifvqef0","pricing_plan_id":"free"},{"bike_id":"a3c0d47f-d677-455d-934f-9d791d6022e6","system_id":"levelo_inurba_marseille","lat":43.282499,"lon":5.350742,"is_reserved":false,"is_disabled":false,"rental_uris":{"android":"levelo://app?vid=a3c0d47f-d677-455d-934f-9d791d6022e6","ios":"levelo://app?vid=a3c0d47f-d677-455d-934f-9d791d6022e6"},"vehicle_type_id":"4","last_reported":1699805240,"current_range_meters":3200,"station_id":"ce4bhnp2rcd13ifvqgvg","pricing_plan_id":"free"},{"bike_id":"b67b1e50-c7eb-4f2a-93e0-8772bc4e09b8","system_id":"levelo_inurba_marseille","lat":43.28039,"lon":5.369297,"is_reserved":false,"is_disabled":false,"rental_uris":{"android":"levelo://app?vid=b67b1e50-c7eb-4f2a-93e0-8772bc4e09b8","ios":"levelo://app?vid=b67b1e50-c7eb-4f2a-93e0-8772bc4e09b8"},"vehicle_type_id":"4","last_reported":1699805240,"current_range_meters":6400,"station_id":"ce4bha12rcd13ifvqef0","pricing_plan_id":"free"},{"bike_id":"354a76ba-8b56-4f94-9700-774fbcdf3d14","system_id":"levelo_inurba_marseille","lat":43.28101,"lon":5.37837,"is_reserved":false,"is_disabled":false,"rental_uris":{"android":"levelo://app?vid=354a76ba-8b56-4f94-9700-774fbcdf3d14","ios":"levelo://app?vid=354a76ba-8b56-4f94-9700-774fbcdf3d14"},"vehicle_type_id":"4","last_reported":1699805240,"current_range_meters":0,"station_id":"ce4bha12rcd13ifvqee0","pricing_plan_id":"free"},{"bike_id":"c5269fde-c094-4163-a2ac-a6350e774e3c","system_id":"levelo_inurba_marseille","lat":43.323447,"lon":5.41003,"is_reserved":false,"is_disabled":false,"rental_uris":{"android":"levelo://app?vid=c5269fde-c094-4163-a2ac-a6350e774e3c","ios":"levelo://app?vid=c5269fde-c094-4163-a2ac-a6350e774e3c"},"vehicle_type_id":"4","last_reported":1699805240,"current_range_meters":1200,"station_id":"","pricing_plan_id":"free"},{"bike_id":"6c43093b-7651-434e-b17e-b1f1bb39f0c0","system_id":"levelo_inurba_marseille","lat":43.285742,"lon":5.395004,"is_reserved":false,"is_disabled":false,"rental_uris":{"android":"levelo://app?vid=6c43093b-7651-434e-b17e-b1f1bb39f0c0","ios":"levelo://app?vid=6c43093b-7651-434e-b17e-b1f1bb39f0c0"},"vehicle_type_id":"4","last_reported":1699805240,"current_range_meters":14400,"station_id":"ce4bh292rcd13ifvqdg0","pricing_plan_id":"free"},{"bike_id":"1cd6f782-e9bd-47d6-86a2-d7f14ae65cb9","system_id":"levelo_inurba_marseille","lat":43.284462,"lon":5.392121,"is_reserved":false,"is_disabled":false,"rental_uris":{"android":"levelo://app?vid=1cd6f782-e9bd-47d6-86a2-d7f14ae65cb9","ios":"levelo://app?vid=1cd6f782-e9bd-47d6-86a2-d7f14ae65cb9"},"vehicle_type_id":"4","last_reported":1699805240,"current_range_meters":19600,"station_id":"ce4bhoh2rcd13ifvqh5g","pricing_plan_id":"free"},{"bike_id":"ccf9b17e-2fb6-47d5-b5cb-73ea08fcb6e5","system_id":"levelo_inurba_marseille","lat":43.28575,"lon":5.39498,"is_reserved":false,"is_disabled":false,"rental_uris":{"android":"levelo://app?vid=ccf9b17e-2fb6-47d5-b5cb-73ea08fcb6e5","ios":"levelo://app?vid=ccf9b17e-2fb6-47d5-b5cb-73ea08fcb6e5"},"vehicle_type_id":"4","last_reported":1699805240,"current_range_meters":23600,"station_id":"ce4bh292rcd13ifvqdg0","pricing_plan_id":"free"},{"bike_id":"f489c2fb-9035-45cd-81a4-23de1b9c738c","system_id":"levelo_inurba_marseille","lat":43.279087,"lon":5.380114,"is_reserved":false,"is_disabled":false,"rental_uris":{"android":"levelo://app?vid=f489c2fb-9035-45cd-81a4-23de1b9c738c","ios":"levelo://app?vid=f489c2fb-9035-45cd-81a4-23de1b9c738c"},"vehicle_type_id":"4","last_reported":1699805240,"current_range_meters":8800,"station_id":"ce4bhf92rcd13ifvqf50","pricing_plan_id":"free"},{"bike_id":"feca28d2-7019-4e39-96be-d7938cc29597","system_id":"levelo_inurba_marseille","lat":43.32435,"lon":5.4137,"is_reserved":false,"is_disabled":false,"rental_uris":{"android":"levelo://app?vid=feca28d2-7019-4e39-96be-d7938cc29597","ios":"levelo://app?vid=feca28d2-7019-4e39-96be-d7938cc29597"},"vehicle_type_id":"4","last_reported":1699805240,"current_range_meters":17200,"station_id":"","pricing_plan_id":"free"},{"bike_id":"d3caf2f9-4220-4319-90dd-bba0322eb9c8","system_id":"levelo_inurba_marseille","lat":43.29955,"lon":5.41321,"is_reserved":false,"is_disabled":false,"rental_uris":{"android":"levelo://app?vid=d3caf2f9-4220-4319-90dd-bba0322eb9c8","ios":"levelo://app?vid=d3caf2f9-4220-4319-90dd-bba0322eb9c8"},"vehicle_type_id":"4","last_reported":1699805240,"current_range_meters":30800,"station_id":"ce4bhp12rcd13ifvqh9g","pricing_plan_id":"free"},{"bike_id":"fed9c799-7f53-43fb-947e-d7b392ceca56","system_id":"levelo_inurba_marseille","lat":43.32028,"lon":5.41576,"is_reserved":false,"is_disabled":false,"rental_uris":{"android":"levelo://app?vid=fed9c799-7f53-43fb-947e-d7b392ceca56","ios":"levelo://app?vid=fed9c799-7f53-43fb-947e-d7b392ceca56"},"vehicle_type_id":"4","last_reported":1699805240,"current_range_meters":0,"station_id":"ce4bhq92rcd13ifvqhkg","pricing_plan_id":"free"},{"bike_id":"03680dd5-f726-472c-a2fe-efaf5261e59c","system_id":"levelo_inurba_marseille","lat":43.276179,"lon":5.361009,"is_reserved":false,"is_disabled":false,"rental_uris":{"android":"levelo://app?vid=03680dd5-f726-472c-a2fe-efaf5261e59c","ios":"levelo://app?vid=03680dd5-f726-472c-a2fe-efaf5261e59c"},"vehicle_type_id":"4","last_reported":1699805240,"current_range_meters":20400,"station_id":"ce4bgj92rcd13ifvqbe0","pricing_plan_id":"free"},{"bike_id":"96f6c943-07fa-4656-ad22-acc764b66c34","system_id":"levelo_inurba_marseille","lat":43.27609,"lon":5.3612,"is_reserved":false,"is_disabled":false,"rental_uris":{"android":"levelo://app?vid=96f6c943-07fa-4656-ad22-acc764b66c34","ios":"levelo://app?vid=96f6c943-07fa-4656-ad22-acc764b66c34"},"vehicle_type_id":"4","last_reported":1699805240,"current_range_meters":18400,"station_id":"ce4bgj92rcd13ifvqbe0","pricing_plan_id":"free"},{"bike_id":"1b1ccf2d-4872-4b6b-aef0-868013a9b6a5","system_id":"levelo_inurba_marseille","lat":43.27609,"lon":5.3611,"is_reserved":false,"is_disabled":false,"rental_uris":{"android":"levelo://app?vid=1b1ccf2d-4872-4b6b-aef0-868013a9b6a5","ios":"levelo://app?vid=1b1ccf2d-4872-4b6b-aef0-868013a9b6a5"},"vehicle_type_id":"4","last_reported":1699805240,"current_range_meters":30000,"station_id":"ce4bgj92rcd13ifvqbe0","pricing_plan_id":"free"},{"bike_id":"2f939f42-62a5-4091-a5c7-1c610f31fa94","system_id":"levelo_inurba_marseille","lat":43.280784,"lon":5.396622,"is_reserved":false,"is_disabled":false,"rental_uris":{"android":"levelo://app?vid=2f939f42-62a5-4091-a5c7-1c610f31fa94","ios":"levelo://app?vid=2f939f42-62a5-4091-a5c7-1c610f31fa94"},"vehicle_type_id":"4","last_reported":1699805240,"current_range_meters":9600,"station_id":"ce4bho12rcd13ifvqh2g","pricing_plan_id":"free"},{"bike_id":"eacfa7b7-5a1e-4ac5-8df7-a43871999490","system_id":"levelo_inurba_marseille","lat":43.280784,"lon":5.396622,"is_reserved":false,"is_disabled":false,"rental_uris":{"android":"levelo://app?vid=eacfa7b7-5a1e-4ac5-8df7-a43871999490","ios":"levelo://app?vid=eacfa7b7-5a1e-4ac5-8df7-a43871999490"},"vehicle_type_id":"4","last_reported":1699805240,"current_range_meters":28800,"station_id":"ce4bho12rcd13ifvqh2g","pricing_plan_id":"free"},{"bike_id":"d17840c5-1798-4884-8c2c-2d9f3035494e","system_id":"levelo_inurba_marseille","lat":43.273613,"lon":5.362705,"is_reserved":false,"is_disabled":false,"rental_uris":{"android":"levelo://app?vid=d17840c5-1798-4884-8c2c-2d9f3035494e","ios":"levelo://app?vid=d17840c5-1798-4884-8c2c-2d9f3035494e"},"vehicle_type_id":"4","last_reported":1699805240,"current_range_meters":5200,"station_id":"ce4bhbh2rcd13ifvqeo0","pricing_plan_id":"free"},{"bike_id":"3c1d2216-dc25-4ca9-9467-a8aa53c1dc34","system_id":"levelo_inurba_marseille","lat":43.341412,"lon":5.40543,"is_reserved":false,"is_disabled":false,"rental_uris":{"android":"levelo://app?vid=3c1d2216-dc25-4ca9-9467-a8aa53c1dc34","ios":"levelo://app?vid=3c1d2216-dc25-4ca9-9467-a8aa53c1dc34"},"vehicle_type_id":"4","last_reported":1699805240,"current_range_meters":29600,"station_id":"","pricing_plan_id":"free"},{"bike_id":"6a67f168-92cd-4ba4-bbe7-e0d5add12544","system_id":"levelo_inurba_marseille","lat":43.28007,"lon":5.40006,"is_reserved":false,"is_disabled":false,"rental_uris":{"android":"levelo://app?vid=6a67f168-92cd-4ba4-bbe7-e0d5add12544","ios":"levelo://app?vid=6a67f168-92cd-4ba4-bbe7-e0d5add12544"},"vehicle_type_id":"4","last_reported":1699805240,"current_range_meters":31200,"station_id":"ce4bho92rcd13ifvqh4g","pricing_plan_id":"free"},{"bike_id":"33e66c4f-8ff9-4dae-ac14-558252b9cf28","system_id":"levelo_inurba_marseille","lat":43.28004,"lon":5.40007,"is_reserved":false,"is_disabled":false,"rental_uris":{"android":"levelo://app?vid=33e66c4f-8ff9-4dae-ac14-558252b9cf28","ios":"levelo://app?vid=33e66c4f-8ff9-4dae-ac14-558252b9cf28"},"vehicle_type_id":"4","last_reported":1699805240,"current_range_meters":12800,"station_id":"ce4bho92rcd13ifvqh4g","pricing_plan_id":"free"},{"bike_id":"298ed835-ec2a-45ed-9079-aa820de06426","system_id":"levelo_inurba_marseille","lat":43.310785,"lon":5.424305,"is_reserved":false,"is_disabled":false,"rental_uris":{"android":"levelo://app?vid=298ed835-ec2a-45ed-9079-aa820de06426","ios":"levelo://app?vid=298ed835-ec2a-45ed-9079-aa820de06426"},"vehicle_type_id":"4","last_reported":1699805240,"current_range_meters":20400,"station_id":"ce4bhp92rcd13ifvqhag","pricing_plan_id":"free"},{"bike_id":"de437a27-4c56-47ed-9585-bb8dfeac82b8","system_id":"levelo_inurba_marseille","lat":43.304096,"lon":5.425385,"is_reserved":false,"is_disabled":false,"rental_uris":{"android":"levelo://app?vid=de437a27-4c56-47ed-9585-bb8dfeac82b8","ios":"levelo://app?vid=de437a27-4c56-47ed-9585-bb8dfeac82b8"},"vehicle_type_id":"4","last_reported":1699805240,"current_range_meters":14000,"station_id":"ce4bhoh2rcd13ifvqh6g","pricing_plan_id":"free"},{"bike_id":"56fc6c2c-64c4-4cbc-b368-c965f0c371ee","system_id":"levelo_inurba_marseille","lat":43.295523,"lon":5.422926,"is_reserved":false,"is_disabled":false,"rental_uris":{"android":"levelo://app?vid=56fc6c2c-64c4-4cbc-b368-c965f0c371ee","ios":"levelo://app?vid=56fc6c2c-64c4-4cbc-b368-c965f0c371ee"},"vehicle_type_id":"4","last_reported":1699805240,"current_range_meters":31600,"station_id":"ce4bhph2rcd13ifvqhdg","pricing_plan_id":"free"},{"bike_id":"24089930-2bd9-4cde-94d2-1081c5a95ff8","system_id":"levelo_inurba_marseille","lat":43.295511,"lon":5.422926,"is_reserved":false,"is_disabled":false,"rental_uris":{"android":"levelo://app?vid=24089930-2bd9-4cde-94d2-1081c5a95ff8","ios":"levelo://app?vid=24089930-2bd9-4cde-94d2-1081c5a95ff8"},"vehicle_type_id":"4","last_reported":1699805240,"current_range_meters":8800,"station_id":"ce4bhph2rcd13ifvqhdg","pricing_plan_id":"free"},{"bike_id":"77c241ea-40d3-4f93-a246-054f3aaa1704","system_id":"levelo_inurba_marseille","lat":43.295511,"lon":5.422926,"is_reserved":false,"is_disabled":false,"rental_uris":{"android":"levelo://app?vid=77c241ea-40d3-4f93-a246-054f3aaa1704","ios":"levelo://app?vid=77c241ea-40d3-4f93-a246-054f3aaa1704"},"vehicle_type_id":"4","last_reported":1699805240,"current_range_meters":24000,"station_id":"ce4bhph2rcd13ifvqhdg","pricing_plan_id":"free"},{"bike_id":"86113fcd-887f-4522-b028-ce5d202bcefd","system_id":"levelo_inurba_marseille","lat":43.272124,"lon":5.391768,"is_reserved":false,"is_disabled":false,"rental_uris":{"android":"levelo://app?vid=86113fcd-887f-4522-b028-ce5d202bcefd","ios":"levelo://app?vid=86113fcd-887f-4522-b028-ce5d202bcefd"},"vehicle_type_id":"4","last_reported":1699805240,"current_range_meters":6800,"station_id":"ce4bhhp2rcd13ifvqfm0","pricing_plan_id":"free"},{"bike_id":"90614f55-6978-46b3-bf98-6f31cd99a4c1","system_id":"levelo_inurba_marseille","lat":43.272124,"lon":5.391768,"is_reserved":false,"is_disabled":false,"rental_uris":{"android":"levelo://app?vid=90614f55-6978-46b3-bf98-6f31cd99a4c1","ios":"levelo://app?vid=90614f55-6978-46b3-bf98-6f31cd99a4c1"},"vehicle_type_id":"4","last_reported":1699805240,"current_range_meters":400,"station_id":"ce4bhhp2rcd13ifvqfm0","pricing_plan_id":"free"},{"bike_id":"9266eb6f-b16c-4ef5-9410-30e4735ffe96","system_id":"levelo_inurba_marseille","lat":43.272116,"lon":5.391747,"is_reserved":false,"is_disabled":false,"rental_uris":{"android":"levelo://app?vid=9266eb6f-b16c-4ef5-9410-30e4735ffe96","ios":"levelo://app?vid=9266eb6f-b16c-4ef5-9410-30e4735ffe96"},"vehicle_type_id":"4","last_reported":1699805240,"current_range_meters":10800,"station_id":"ce4bhhp2rcd13ifvqfm0","pricing_plan_id":"free"},{"bike_id":"6d9289d7-7903-4242-90a4-d291f4ed4153","system_id":"levelo_inurba_marseille","lat":43.27216,"lon":5.39256,"is_reserved":false,"is_disabled":false,"rental_uris":{"android":"levelo://app?vid=6d9289d7-7903-4242-90a4-d291f4ed4153","ios":"levelo://app?vid=6d9289d7-7903-4242-90a4-d291f4ed4153"},"vehicle_type_id":"4","last_reported":1699805240,"current_range_meters":11200,"station_id":"","pricing_plan_id":"free"},{"bike_id":"fe75077d-42bf-43ae-8fa2-44109df3d40a","system_id":"levelo_inurba_marseille","lat":43.27203,"lon":5.39295,"is_reserved":false,"is_disabled":false,"rental_uris":{"android":"levelo://app?vid=fe75077d-42bf-43ae-8fa2-44109df3d40a","ios":"levelo://app?vid=fe75077d-42bf-43ae-8fa2-44109df3d40a"},"vehicle_type_id":"4","last_reported":1699805240,"current_range_meters":14800,"station_id":"","pricing_plan_id":"free"},{"bike_id":"0d626173-52a4-45de-853b-15d40629189c","system_id":"levelo_inurba_marseille","lat":43.278128,"lon":5.407195,"is_reserved":false,"is_disabled":false,"rental_uris":{"android":"levelo://app?vid=0d626173-52a4-45de-853b-15d40629189c","ios":"levelo://app?vid=0d626173-52a4-45de-853b-15d40629189c"},"vehicle_type_id":"4","last_reported":1699805240,"current_range_meters":11600,"station_id":"ce4bhnh2rcd13ifvqgtg","pricing_plan_id":"free"},{"bike_id":"1a71da86-a4ce-4858-834b-5a3944457252","system_id":"levelo_inurba_marseille","lat":43.25102,"lon":5.403214,"is_reserved":false,"is_disabled":false,"rental_uris":{"android":"levelo://app?vid=1a71da86-a4ce-4858-834b-5a3944457252","ios":"levelo://app?vid=1a71da86-a4ce-4858-834b-5a3944457252"},"vehicle_type_id":"4","last_reported":1699805240,"current_range_meters":12800,"station_id":"ce4bhlh2rcd13ifvqgig","pricing_plan_id":"free"},{"bike_id":"d46ef625-7d39-4c82-b217-c85a1268473f","system_id":"levelo_inurba_marseille","lat":43.27238,"lon":5.40069,"is_reserved":false,"is_disabled":false,"rental_uris":{"android":"levelo://app?vid=d46ef625-7d39-4c82-b217-c85a1268473f","ios":"levelo://app?vid=d46ef625-7d39-4c82-b217-c85a1268473f"},"vehicle_type_id":"4","last_reported":1699805240,"current_range_meters":2400,"station_id":"","pricing_plan_id":"free"},{"bike_id":"e3ee453c-803a-406c-bd82-ee6bff201a2a","system_id":"levelo_inurba_marseille","lat":43.26557,"lon":5.37285,"is_reserved":false,"is_disabled":false,"rental_uris":{"android":"levelo://app?vid=e3ee453c-803a-406c-bd82-ee6bff201a2a","ios":"levelo://app?vid=e3ee453c-803a-406c-bd82-ee6bff201a2a"},"vehicle_type_id":"4","last_reported":1699805240,"current_range_meters":31200,"station_id":"ce4bhg12rcd13ifvqf70","pricing_plan_id":"free"},{"bike_id":"d2e656c3-c040-4e35-a114-a9c4118ffc3e","system_id":"levelo_inurba_marseille","lat":43.26554,"lon":5.37287,"is_reserved":false,"is_disabled":false,"rental_uris":{"android":"levelo://app?vid=d2e656c3-c040-4e35-a114-a9c4118ffc3e","ios":"levelo://app?vid=d2e656c3-c040-4e35-a114-a9c4118ffc3e"},"vehicle_type_id":"4","last_reported":1699805240,"current_range_meters":30400,"station_id":"ce4bhg12rcd13ifvqf70","pricing_plan_id":"free"},{"bike_id":"cd0c124c-daf0-428c-933b-b54d218725a1","system_id":"levelo_inurba_marseille","lat":43.26552,"lon":5.37288,"is_reserved":false,"is_disabled":false,"rental_uris":{"android":"levelo://app?vid=cd0c124c-daf0-428c-933b-b54d218725a1","ios":"levelo://app?vid=cd0c124c-daf0-428c-933b-b54d218725a1"},"vehicle_type_id":"4","last_reported":1699805240,"current_range_meters":30000,"station_id":"ce4bhg12rcd13ifvqf70","pricing_plan_id":"free"},{"bike_id":"9c86b824-2168-4f46-b290-9c226cef33eb","system_id":"levelo_inurba_marseille","lat":43.26943,"lon":5.39349,"is_reserved":false,"is_disabled":false,"rental_uris":{"android":"levelo://app?vid=9c86b824-2168-4f46-b290-9c226cef33eb","ios":"levelo://app?vid=9c86b824-2168-4f46-b290-9c226cef33eb"},"vehicle_type_id":"4","last_reported":1699805240,"current_range_meters":28000,"station_id":"","pricing_plan_id":"free"},{"bike_id":"a904936c-4d64-4073-a3f3-ec2f8c8edf43","system_id":"levelo_inurba_marseille","lat":43.27996,"lon":5.416624,"is_reserved":false,"is_disabled":false,"rental_uris":{"android":"levelo://app?vid=a904936c-4d64-4073-a3f3-ec2f8c8edf43","ios":"levelo://app?vid=a904936c-4d64-4073-a3f3-ec2f8c8edf43"},"vehicle_type_id":"4","last_reported":1699805240,"current_range_meters":28400,"station_id":"ce4bho12rcd13ifvqh1g","pricing_plan_id":"free"},{"bike_id":"f39776f8-e338-4e5d-8296-2a44b065e822","system_id":"levelo_inurba_marseille","lat":43.30803,"lon":5.43515,"is_reserved":false,"is_disabled":false,"rental_uris":{"android":"levelo://app?vid=f39776f8-e338-4e5d-8296-2a44b065e822","ios":"levelo://app?vid=f39776f8-e338-4e5d-8296-2a44b065e822"},"vehicle_type_id":"4","last_reported":1699805240,"current_range_meters":30800,"station_id":"ce4bhph2rcd13ifvqheg","pricing_plan_id":"free"},{"bike_id":"033771a6-1055-48d2-9826-6454c9f5b3f7","system_id":"levelo_inurba_marseille","lat":43.308077,"lon":5.435243,"is_reserved":false,"is_disabled":false,"rental_uris":{"android":"levelo://app?vid=033771a6-1055-48d2-9826-6454c9f5b3f7","ios":"levelo://app?vid=033771a6-1055-48d2-9826-6454c9f5b3f7"},"vehicle_type_id":"4","last_reported":1699805240,"current_range_meters":800,"station_id":"ce4bhph2rcd13ifvqheg","pricing_plan_id":"free"},{"bike_id":"575ca992-e936-4074-b7c6-852b3c666dc2","system_id":"levelo_inurba_marseille","lat":43.308051,"lon":5.43527,"is_reserved":false,"is_disabled":false,"rental_uris":{"android":"levelo://app?vid=575ca992-e936-4074-b7c6-852b3c666dc2","ios":"levelo://app?vid=575ca992-e936-4074-b7c6-852b3c666dc2"},"vehicle_type_id":"4","last_reported":1699805240,"current_range_meters":31200,"station_id":"ce4bhph2rcd13ifvqheg","pricing_plan_id":"free"},{"bike_id":"aa0d65d6-fe29-40de-bda4-b6707bcd53ef","system_id":"levelo_inurba_marseille","lat":43.30802,"lon":5.43531,"is_reserved":false,"is_disabled":false,"rental_uris":{"android":"levelo://app?vid=aa0d65d6-fe29-40de-bda4-b6707bcd53ef","ios":"levelo://app?vid=aa0d65d6-fe29-40de-bda4-b6707bcd53ef"},"vehicle_type_id":"4","last_reported":1699805240,"current_range_meters":29200,"station_id":"ce4bhph2rcd13ifvqheg","pricing_plan_id":"free"},{"bike_id":"2aa6c4b1-a67d-43b7-9eb1-fe5b5bec91bf","system_id":"levelo_inurba_marseille","lat":43.32903,"lon":5.43282,"is_reserved":false,"is_disabled":false,"rental_uris":{"android":"levelo://app?vid=2aa6c4b1-a67d-43b7-9eb1-fe5b5bec91bf","ios":"levelo://app?vid=2aa6c4b1-a67d-43b7-9eb1-fe5b5bec91bf"},"vehicle_type_id":"4","last_reported":1699805240,"current_range_meters":9200,"station_id":"","pricing_plan_id":"free"},{"bike_id":"47be5837-a233-4b40-96ac-85b29b6f684c","system_id":"levelo_inurba_marseille","lat":43.317104,"lon":5.436818,"is_reserved":false,"is_disabled":false,"rental_uris":{"android":"levelo://app?vid=47be5837-a233-4b40-96ac-85b29b6f684c","ios":"levelo://app?vid=47be5837-a233-4b40-96ac-85b29b6f684c"},"vehicle_type_id":"4","last_reported":1699805240,"current_range_meters":28400,"station_id":"ce4bhp92rcd13ifvqhcg","pricing_plan_id":"free"},{"bike_id":"a13c7f78-1111-4a67-b445-29e3bdbafa23","system_id":"levelo_inurba_marseille","lat":43.298768,"lon":5.43643,"is_reserved":false,"is_disabled":false,"rental_uris":{"android":"levelo://app?vid=a13c7f78-1111-4a67-b445-29e3bdbafa23","ios":"levelo://app?vid=a13c7f78-1111-4a67-b445-29e3bdbafa23"},"vehicle_type_id":"4","last_reported":1699805240,"current_range_meters":26800,"station_id":"ce4bhpp2rcd13ifvqhfg","pricing_plan_id":"free"},{"bike_id":"4f6880f4-3164-4fc2-9cf7-3c1358040f10","system_id":"levelo_inurba_marseille","lat":43.290501,"lon":5.433305,"is_reserved":false,"is_disabled":false,"rental_uris":{"android":"levelo://app?vid=4f6880f4-3164-4fc2-9cf7-3c1358040f10","ios":"levelo://app?vid=4f6880f4-3164-4fc2-9cf7-3c1358040f10"},"vehicle_type_id":"4","last_reported":1699805240,"current_range_meters":15200,"station_id":"","pricing_plan_id":"free"},{"bike_id":"7929fe62-478b-45ed-a32f-4cee63794674","system_id":"levelo_inurba_marseille","lat":43.275005,"lon":5.424511,"is_reserved":false,"is_disabled":false,"rental_uris":{"android":"levelo://app?vid=7929fe62-478b-45ed-a32f-4cee63794674","ios":"levelo://app?vid=7929fe62-478b-45ed-a32f-4cee63794674"},"vehicle_type_id":"4","last_reported":1699805240,"current_range_meters":13200,"station_id":"","pricing_plan_id":"free"},{"bike_id":"152d5abe-e700-4bcc-a194-fad934c9fc41","system_id":"levelo_inurba_marseille","lat":43.275028,"lon":5.424534,"is_reserved":false,"is_disabled":false,"rental_uris":{"android":"levelo://app?vid=152d5abe-e700-4bcc-a194-fad934c9fc41","ios":"levelo://app?vid=152d5abe-e700-4bcc-a194-fad934c9fc41"},"vehicle_type_id":"4","last_reported":1699805240,"current_range_meters":10000,"station_id":"ce4bhn92rcd13ifvqgrg","pricing_plan_id":"free"},{"bike_id":"0eb241dd-271d-401b-8417-097ea4b75fe5","system_id":"levelo_inurba_marseille","lat":43.260865,"lon":5.397697,"is_reserved":false,"is_disabled":false,"rental_uris":{"android":"levelo://app?vid=0eb241dd-271d-401b-8417-097ea4b75fe5","ios":"levelo://app?vid=0eb241dd-271d-401b-8417-097ea4b75fe5"},"vehicle_type_id":"4","last_reported":1699805240,"current_range_meters":16400,"station_id":"","pricing_plan_id":"free"},{"bike_id":"2a6a5b44-640b-40b8-9b93-f40d868ce11b","system_id":"levelo_inurba_marseille","lat":43.26081,"lon":5.3977,"is_reserved":false,"is_disabled":false,"rental_uris":{"android":"levelo://app?vid=2a6a5b44-640b-40b8-9b93-f40d868ce11b","ios":"levelo://app?vid=2a6a5b44-640b-40b8-9b93-f40d868ce11b"},"vehicle_type_id":"4","last_reported":1699805240,"current_range_meters":0,"station_id":"ce4bhi12rcd13ifvqfq0","pricing_plan_id":"free"},{"bike_id":"f2307a4c-7611-4db6-b58a-5736d1e13606","system_id":"levelo_inurba_marseille","lat":43.2583,"lon":5.39434,"is_reserved":false,"is_disabled":false,"rental_uris":{"android":"levelo://app?vid=f2307a4c-7611-4db6-b58a-5736d1e13606","ios":"levelo://app?vid=f2307a4c-7611-4db6-b58a-5736d1e13606"},"vehicle_type_id":"4","last_reported":1699805240,"current_range_meters":21200,"station_id":"ce4bhip2rcd13ifvqft0","pricing_plan_id":"free"},{"bike_id":"e46f55f0-4b44-4542-9d1b-1522c384c0e6","system_id":"levelo_inurba_marseille","lat":43.255804,"lon":5.382218,"is_reserved":false,"is_disabled":false,"rental_uris":{"android":"levelo://app?vid=e46f55f0-4b44-4542-9d1b-1522c384c0e6","ios":"levelo://app?vid=e46f55f0-4b44-4542-9d1b-1522c384c0e6"},"vehicle_type_id":"4","last_reported":1699805240,"current_range_meters":29200,"station_id":"ce4bhh12rcd13ifvqff0","pricing_plan_id":"free"},{"bike_id":"53fd1c40-c3ca-4714-b41f-7b9811232fe4","system_id":"levelo_inurba_marseille","lat":43.25578,"lon":5.38233,"is_reserved":false,"is_disabled":false,"rental_uris":{"android":"levelo://app?vid=53fd1c40-c3ca-4714-b41f-7b9811232fe4","ios":"levelo://app?vid=53fd1c40-c3ca-4714-b41f-7b9811232fe4"},"vehicle_type_id":"4","last_reported":1699805240,"current_range_meters":7200,"station_id":"ce4bhih2rcd13ifvqfs0","pricing_plan_id":"free"},{"bike_id":"ff98e5ef-f019-4c76-892e-e02ce9763117","system_id":"levelo_inurba_marseille","lat":43.25576,"lon":5.38235,"is_reserved":false,"is_disabled":false,"rental_uris":{"android":"levelo://app?vid=ff98e5ef-f019-4c76-892e-e02ce9763117","ios":"levelo://app?vid=ff98e5ef-f019-4c76-892e-e02ce9763117"},"vehicle_type_id":"4","last_reported":1699805240,"current_range_meters":1200,"station_id":"ce4bhih2rcd13ifvqfs0","pricing_plan_id":"free"},{"bike_id":"5d3bcc3f-eb7e-4891-85a8-6a440f3c6c1a","system_id":"levelo_inurba_marseille","lat":43.258224,"lon":5.394369,"is_reserved":false,"is_disabled":false,"rental_uris":{"android":"levelo://app?vid=5d3bcc3f-eb7e-4891-85a8-6a440f3c6c1a","ios":"levelo://app?vid=5d3bcc3f-eb7e-4891-85a8-6a440f3c6c1a"},"vehicle_type_id":"4","last_reported":1699805240,"current_range_meters":3600,"station_id":"ce4bhip2rcd13ifvqft0","pricing_plan_id":"free"},{"bike_id":"d1be4948-3db8-46c6-a0e9-4eb9877553a6","system_id":"levelo_inurba_marseille","lat":43.25498,"lon":5.37651,"is_reserved":false,"is_disabled":false,"rental_uris":{"android":"levelo://app?vid=d1be4948-3db8-46c6-a0e9-4eb9877553a6","ios":"levelo://app?vid=d1be4948-3db8-46c6-a0e9-4eb9877553a6"},"vehicle_type_id":"4","last_reported":1699805240,"current_range_meters":19200,"station_id":"ce4bhh12rcd13ifvqff0","pricing_plan_id":"free"},{"bike_id":"4e9da333-75ff-411d-8015-ff4503458c3e","system_id":"levelo_inurba_marseille","lat":43.258658,"lon":5.398935,"is_reserved":false,"is_disabled":false,"rental_uris":{"android":"levelo://app?vid=4e9da333-75ff-411d-8015-ff4503458c3e","ios":"levelo://app?vid=4e9da333-75ff-411d-8015-ff4503458c3e"},"vehicle_type_id":"4","last_reported":1699805240,"current_range_meters":23200,"station_id":"ce4bhl92rcd13ifvqghg","pricing_plan_id":"free"},{"bike_id":"be8901dd-6a85-4890-9fdc-13541f75fb8f","system_id":"levelo_inurba_marseille","lat":43.258658,"lon":5.398935,"is_reserved":false,"is_disabled":false,"rental_uris":{"android":"levelo://app?vid=be8901dd-6a85-4890-9fdc-13541f75fb8f","ios":"levelo://app?vid=be8901dd-6a85-4890-9fdc-13541f75fb8f"},"vehicle_type_id":"4","last_reported":1699805240,"current_range_meters":0,"station_id":"ce4bhl92rcd13ifvqghg","pricing_plan_id":"free"},{"bike_id":"cce421c9-cbad-426a-b834-a86a3411f32e","system_id":"levelo_inurba_marseille","lat":43.259013,"lon":5.409301,"is_reserved":false,"is_disabled":false,"rental_uris":{"android":"levelo://app?vid=cce421c9-cbad-426a-b834-a86a3411f32e","ios":"levelo://app?vid=cce421c9-cbad-426a-b834-a86a3411f32e"},"vehicle_type_id":"4","last_reported":1699805240,"current_range_meters":8000,"station_id":"ce4bhm92rcd13ifvqglg","pricing_plan_id":"free"},{"bike_id":"7db02a47-f10e-4ef9-b04e-f8faa3c33cca","system_id":"levelo_inurba_marseille","lat":43.25937,"lon":5.409102,"is_reserved":false,"is_disabled":false,"rental_uris":{"android":"levelo://app?vid=7db02a47-f10e-4ef9-b04e-f8faa3c33cca","ios":"levelo://app?vid=7db02a47-f10e-4ef9-b04e-f8faa3c33cca"},"vehicle_type_id":"4","last_reported":1699805240,"current_range_meters":22800,"station_id":"ce4bhm92rcd13ifvqglg","pricing_plan_id":"free"},{"bike_id":"e5238e36-ca98-4800-8ebc-58089b72c1ef","system_id":"levelo_inurba_marseille","lat":43.25932,"lon":5.40907,"is_reserved":false,"is_disabled":false,"rental_uris":{"android":"levelo://app?vid=e5238e36-ca98-4800-8ebc-58089b72c1ef","ios":"levelo://app?vid=e5238e36-ca98-4800-8ebc-58089b72c1ef"},"vehicle_type_id":"4","last_reported":1699805240,"current_range_meters":0,"station_id":"ce4bhm92rcd13ifvqglg","pricing_plan_id":"free"},{"bike_id":"78ae59a3-2b4c-4e3d-8c5c-d320d66437b9","system_id":"levelo_inurba_marseille","lat":43.25932,"lon":5.40912,"is_reserved":false,"is_disabled":false,"rental_uris":{"android":"levelo://app?vid=78ae59a3-2b4c-4e3d-8c5c-d320d66437b9","ios":"levelo://app?vid=78ae59a3-2b4c-4e3d-8c5c-d320d66437b9"},"vehicle_type_id":"4","last_reported":1699805240,"current_range_meters":14400,"station_id":"ce4bhm92rcd13ifvqglg","pricing_plan_id":"free"},{"bike_id":"d68a453c-95e3-445b-af60-7f5dc11e2532","system_id":"levelo_inurba_marseille","lat":43.2593,"lon":5.40915,"is_reserved":false,"is_disabled":false,"rental_uris":{"android":"levelo://app?vid=d68a453c-95e3-445b-af60-7f5dc11e2532","ios":"levelo://app?vid=d68a453c-95e3-445b-af60-7f5dc11e2532"},"vehicle_type_id":"4","last_reported":1699805240,"current_range_meters":6800,"station_id":"ce4bhm92rcd13ifvqglg","pricing_plan_id":"free"},{"bike_id":"1c147479-7f15-4df2-becc-895a87fd157f","system_id":"levelo_inurba_marseille","lat":43.2593,"lon":5.40916,"is_reserved":false,"is_disabled":false,"rental_uris":{"android":"levelo://app?vid=1c147479-7f15-4df2-becc-895a87fd157f","ios":"levelo://app?vid=1c147479-7f15-4df2-becc-895a87fd157f"},"vehicle_type_id":"4","last_reported":1699805240,"current_range_meters":6400,"station_id":"ce4bhm92rcd13ifvqglg","pricing_plan_id":"free"},{"bike_id":"04018474-4776-4796-81eb-ab7a990ac90f","system_id":"levelo_inurba_marseille","lat":43.250009,"lon":5.389195,"is_reserved":false,"is_disabled":false,"rental_uris":{"android":"levelo://app?vid=04018474-4776-4796-81eb-ab7a990ac90f","ios":"levelo://app?vid=04018474-4776-4796-81eb-ab7a990ac90f"},"vehicle_type_id":"4","last_reported":1699805240,"current_range_meters":18400,"station_id":"ce4bhgp2rcd13ifvqfd0","pricing_plan_id":"free"},{"bike_id":"811ccd64-d805-4f1a-959e-bd4e51e503bf","system_id":"levelo_inurba_marseille","lat":43.24996,"lon":5.38933,"is_reserved":false,"is_disabled":false,"rental_uris":{"android":"levelo://app?vid=811ccd64-d805-4f1a-959e-bd4e51e503bf","ios":"levelo://app?vid=811ccd64-d805-4f1a-959e-bd4e51e503bf"},"vehicle_type_id":"4","last_reported":1699805240,"current_range_meters":26800,"station_id":"ce4bhgp2rcd13ifvqfd0","pricing_plan_id":"free"},{"bike_id":"ba850f93-6e9f-474f-b71b-693ee699f835","system_id":"levelo_inurba_marseille","lat":43.24811,"lon":5.37459,"is_reserved":false,"is_disabled":false,"rental_uris":{"android":"levelo://app?vid=ba850f93-6e9f-474f-b71b-693ee699f835","ios":"levelo://app?vid=ba850f93-6e9f-474f-b71b-693ee699f835"},"vehicle_type_id":"4","last_reported":1699805240,"current_range_meters":31200,"station_id":"ce4bhgh2rcd13ifvqfb0","pricing_plan_id":"free"},{"bike_id":"dae8844e-8f77-4bfc-be48-aa5e7466caae","system_id":"levelo_inurba_marseille","lat":43.24994,"lon":5.38933,"is_reserved":false,"is_disabled":false,"rental_uris":{"android":"levelo://app?vid=dae8844e-8f77-4bfc-be48-aa5e7466caae","ios":"levelo://app?vid=dae8844e-8f77-4bfc-be48-aa5e7466caae"},"vehicle_type_id":"4","last_reported":1699805240,"current_range_meters":0,"station_id":"ce4bhgp2rcd13ifvqfd0","pricing_plan_id":"free"},{"bike_id":"c5c5c45c-5d00-4311-a4b3-f13955c9921d","system_id":"levelo_inurba_marseille","lat":43.248091,"lon":5.374589,"is_reserved":false,"is_disabled":false,"rental_uris":{"android":"levelo://app?vid=c5c5c45c-5d00-4311-a4b3-f13955c9921d","ios":"levelo://app?vid=c5c5c45c-5d00-4311-a4b3-f13955c9921d"},"vehicle_type_id":"4","last_reported":1699805240,"current_range_meters":6000,"station_id":"ce4bhgh2rcd13ifvqfb0","pricing_plan_id":"free"},{"bike_id":"bb27249b-80e7-47ba-a4ef-7a9a6cc3834c","system_id":"levelo_inurba_marseille","lat":43.2479,"lon":5.374457,"is_reserved":false,"is_disabled":false,"rental_uris":{"android":"levelo://app?vid=bb27249b-80e7-47ba-a4ef-7a9a6cc3834c","ios":"levelo://app?vid=bb27249b-80e7-47ba-a4ef-7a9a6cc3834c"},"vehicle_type_id":"4","last_reported":1699805240,"current_range_meters":26000,"station_id":"ce4bhgh2rcd13ifvqfb0","pricing_plan_id":"free"},{"bike_id":"70e7b146-b543-45b0-b7d1-09c9ccb26bcb","system_id":"levelo_inurba_marseille","lat":43.250966,"lon":5.395186,"is_reserved":false,"is_disabled":false,"rental_uris":{"android":"levelo://app?vid=70e7b146-b543-45b0-b7d1-09c9ccb26bcb","ios":"levelo://app?vid=70e7b146-b543-45b0-b7d1-09c9ccb26bcb"},"vehicle_type_id":"4","last_reported":1699805240,"current_range_meters":22400,"station_id":"ce4bhm12rcd13ifvqgkg","pricing_plan_id":"free"},{"bike_id":"62fa1369-a457-41b6-8335-4717139987b4","system_id":"levelo_inurba_marseille","lat":43.25074,"lon":5.39543,"is_reserved":false,"is_disabled":false,"rental_uris":{"android":"levelo://app?vid=62fa1369-a457-41b6-8335-4717139987b4","ios":"levelo://app?vid=62fa1369-a457-41b6-8335-4717139987b4"},"vehicle_type_id":"4","last_reported":1699805240,"current_range_meters":20800,"station_id":"ce4bhm12rcd13ifvqgkg","pricing_plan_id":"free"},{"bike_id":"7137572a-99a9-48ac-8af5-f51cb9193d85","system_id":"levelo_inurba_marseille","lat":43.24693,"lon":5.382096,"is_reserved":false,"is_disabled":false,"rental_uris":{"android":"levelo://app?vid=7137572a-99a9-48ac-8af5-f51cb9193d85","ios":"levelo://app?vid=7137572a-99a9-48ac-8af5-f51cb9193d85"},"vehicle_type_id":"4","last_reported":1699805240,"current_range_meters":0,"station_id":"ce4bhih2rcd13ifvqfr0","pricing_plan_id":"free"},{"bike_id":"7672aca6-fd39-4ce6-951e-c1c901e7d5fd","system_id":"levelo_inurba_marseille","lat":43.24658,"lon":5.38164,"is_reserved":false,"is_disabled":false,"rental_uris":{"android":"levelo://app?vid=7672aca6-fd39-4ce6-951e-c1c901e7d5fd","ios":"levelo://app?vid=7672aca6-fd39-4ce6-951e-c1c901e7d5fd"},"vehicle_type_id":"4","last_reported":1699805240,"current_range_meters":18000,"station_id":"ce4bhih2rcd13ifvqfr0","pricing_plan_id":"free"},{"bike_id":"1dba955f-8e63-4d54-89e5-76fa1f54bc84","system_id":"levelo_inurba_marseille","lat":43.25102,"lon":5.403214,"is_reserved":false,"is_disabled":false,"rental_uris":{"android":"levelo://app?vid=1dba955f-8e63-4d54-89e5-76fa1f54bc84","ios":"levelo://app?vid=1dba955f-8e63-4d54-89e5-76fa1f54bc84"},"vehicle_type_id":"4","last_reported":1699805240,"current_range_meters":800,"station_id":"ce4bhlh2rcd13ifvqgig","pricing_plan_id":"free"},{"bike_id":"077321ce-7445-4720-afae-1bdcf567fb19","system_id":"levelo_inurba_marseille","lat":43.243884,"lon":5.370737,"is_reserved":false,"is_disabled":false,"rental_uris":{"android":"levelo://app?vid=077321ce-7445-4720-afae-1bdcf567fb19","ios":"levelo://app?vid=077321ce-7445-4720-afae-1bdcf567fb19"},"vehicle_type_id":"4","last_reported":1699805240,"current_range_meters":29600,"station_id":"ce4bhhh2rcd13ifvqfk0","pricing_plan_id":"free"},{"bike_id":"0f66d186-c897-49ab-86f7-040f24d977b4","system_id":"levelo_inurba_marseille","lat":43.24384,"lon":5.37058,"is_reserved":false,"is_disabled":false,"rental_uris":{"android":"levelo://app?vid=0f66d186-c897-49ab-86f7-040f24d977b4","ios":"levelo://app?vid=0f66d186-c897-49ab-86f7-040f24d977b4"},"vehicle_type_id":"4","last_reported":1699805240,"current_range_meters":2800,"station_id":"ce4bhhh2rcd13ifvqfk0","pricing_plan_id":"free"},{"bike_id":"179d288e-a4b8-4599-a24b-dbe03ab108f6","system_id":"levelo_inurba_marseille","lat":43.24572,"lon":5.39446,"is_reserved":false,"is_disabled":false,"rental_uris":{"android":"levelo://app?vid=179d288e-a4b8-4599-a24b-dbe03ab108f6","ios":"levelo://app?vid=179d288e-a4b8-4599-a24b-dbe03ab108f6"},"vehicle_type_id":"4","last_reported":1699805240,"current_range_meters":26400,"station_id":"","pricing_plan_id":"free"},{"bike_id":"9ec47c22-b3ac-421f-855b-62f290c6b5b5","system_id":"levelo_inurba_marseille","lat":43.245581,"lon":5.395069,"is_reserved":false,"is_disabled":false,"rental_uris":{"android":"levelo://app?vid=9ec47c22-b3ac-421f-855b-62f290c6b5b5","ios":"levelo://app?vid=9ec47c22-b3ac-421f-855b-62f290c6b5b5"},"vehicle_type_id":"4","last_reported":1699805240,"current_range_meters":21200,"station_id":"ce4bhlp2rcd13ifvqgjg","pricing_plan_id":"free"},{"bike_id":"6d52a275-0a31-4ca6-93c1-3e69fc6cf9b0","system_id":"levelo_inurba_marseille","lat":43.24072,"lon":5.3776,"is_reserved":false,"is_disabled":false,"rental_uris":{"android":"levelo://app?vid=6d52a275-0a31-4ca6-93c1-3e69fc6cf9b0","ios":"levelo://app?vid=6d52a275-0a31-4ca6-93c1-3e69fc6cf9b0"},"vehicle_type_id":"4","last_reported":1699805240,"current_range_meters":26400,"station_id":"ce4bhnp2rcd13ifvqgvg","pricing_plan_id":"free"},{"bike_id":"ae24d0fc-964f-4b9f-a0d3-aa8c9b0c3d58","system_id":"levelo_inurba_marseille","lat":43.240623,"lon":5.377642,"is_reserved":false,"is_disabled":false,"rental_uris":{"android":"levelo://app?vid=ae24d0fc-964f-4b9f-a0d3-aa8c9b0c3d58","ios":"levelo://app?vid=ae24d0fc-964f-4b9f-a0d3-aa8c9b0c3d58"},"vehicle_type_id":"4","last_reported":1699805240,"current_range_meters":1600,"station_id":"ce4bhnp2rcd13ifvqgvg","pricing_plan_id":"free"},{"bike_id":"30680b8d-2527-4eba-83ec-30b1363e3c2c","system_id":"levelo_inurba_marseille","lat":43.24067,"lon":5.37768,"is_reserved":false,"is_disabled":false,"rental_uris":{"android":"levelo://app?vid=30680b8d-2527-4eba-83ec-30b1363e3c2c","ios":"levelo://app?vid=30680b8d-2527-4eba-83ec-30b1363e3c2c"},"vehicle_type_id":"4","last_reported":1699805240,"current_range_meters":25600,"station_id":"ce4bhnp2rcd13ifvqgvg","pricing_plan_id":"free"},{"bike_id":"6c6da793-c18f-456e-be29-a1e40f83fda3","system_id":"levelo_inurba_marseille","lat":43.240647,"lon":5.377655,"is_reserved":false,"is_disabled":false,"rental_uris":{"android":"levelo://app?vid=6c6da793-c18f-456e-be29-a1e40f83fda3","ios":"levelo://app?vid=6c6da793-c18f-456e-be29-a1e40f83fda3"},"vehicle_type_id":"4","last_reported":1699805240,"current_range_meters":800,"station_id":"ce4bhnp2rcd13ifvqgvg","pricing_plan_id":"free"},{"bike_id":"26656af5-79ed-46ca-966e-0d4d6e4e8cae","system_id":"levelo_inurba_marseille","lat":43.239588,"lon":5.366238,"is_reserved":false,"is_disabled":false,"rental_uris":{"android":"levelo://app?vid=26656af5-79ed-46ca-966e-0d4d6e4e8cae","ios":"levelo://app?vid=26656af5-79ed-46ca-966e-0d4d6e4e8cae"},"vehicle_type_id":"4","last_reported":1699805240,"current_range_meters":31600,"station_id":"ce4bhi12rcd13ifvqfp0","pricing_plan_id":"free"},{"bike_id":"dca5ca7b-d185-4c10-8afa-601eb5847b0d","system_id":"levelo_inurba_marseille","lat":43.239588,"lon":5.366238,"is_reserved":false,"is_disabled":false,"rental_uris":{"android":"levelo://app?vid=dca5ca7b-d185-4c10-8afa-601eb5847b0d","ios":"levelo://app?vid=dca5ca7b-d185-4c10-8afa-601eb5847b0d"},"vehicle_type_id":"4","last_reported":1699805240,"current_range_meters":30800,"station_id":"ce4bhi12rcd13ifvqfp0","pricing_plan_id":"free"},{"bike_id":"84ffd0b6-b063-43ba-9cd3-1fb7a189c480","system_id":"levelo_inurba_marseille","lat":43.239588,"lon":5.366238,"is_reserved":false,"is_disabled":false,"rental_uris":{"android":"levelo://app?vid=84ffd0b6-b063-43ba-9cd3-1fb7a189c480","ios":"levelo://app?vid=84ffd0b6-b063-43ba-9cd3-1fb7a189c480"},"vehicle_type_id":"4","last_reported":1699805240,"current_range_meters":30400,"station_id":"ce4bhi12rcd13ifvqfp0","pricing_plan_id":"free"},{"bike_id":"b0dff893-6a80-4e02-a059-f463f3f0da38","system_id":"levelo_inurba_marseille","lat":43.239588,"lon":5.366238,"is_reserved":false,"is_disabled":false,"rental_uris":{"android":"levelo://app?vid=b0dff893-6a80-4e02-a059-f463f3f0da38","ios":"levelo://app?vid=b0dff893-6a80-4e02-a059-f463f3f0da38"},"vehicle_type_id":"4","last_reported":1699805240,"current_range_meters":18000,"station_id":"ce4bhi12rcd13ifvqfp0","pricing_plan_id":"free"},{"bike_id":"872e937b-c65a-406c-b3bb-7171c4be9be7","system_id":"levelo_inurba_marseille","lat":43.239588,"lon":5.366238,"is_reserved":false,"is_disabled":false,"rental_uris":{"android":"levelo://app?vid=872e937b-c65a-406c-b3bb-7171c4be9be7","ios":"levelo://app?vid=872e937b-c65a-406c-b3bb-7171c4be9be7"},"vehicle_type_id":"4","last_reported":1699805240,"current_range_meters":28000,"station_id":"ce4bhi12rcd13ifvqfp0","pricing_plan_id":"free"},{"bike_id":"27db8752-abeb-490b-815c-fc556efe56af","system_id":"levelo_inurba_marseille","lat":43.23966,"lon":5.36628,"is_reserved":false,"is_disabled":false,"rental_uris":{"android":"levelo://app?vid=27db8752-abeb-490b-815c-fc556efe56af","ios":"levelo://app?vid=27db8752-abeb-490b-815c-fc556efe56af"},"vehicle_type_id":"4","last_reported":1699805240,"current_range_meters":31200,"station_id":"ce4bhi12rcd13ifvqfp0","pricing_plan_id":"free"},{"bike_id":"4dd0a552-906d-4205-94e4-e02ec2d677ab","system_id":"levelo_inurba_marseille","lat":43.23966,"lon":5.36617,"is_reserved":false,"is_disabled":false,"rental_uris":{"android":"levelo://app?vid=4dd0a552-906d-4205-94e4-e02ec2d677ab","ios":"levelo://app?vid=4dd0a552-906d-4205-94e4-e02ec2d677ab"},"vehicle_type_id":"4","last_reported":1699805240,"current_range_meters":13600,"station_id":"ce4bhi12rcd13ifvqfp0","pricing_plan_id":"free"},{"bike_id":"03f41070-6dea-459a-a5f7-cb5c87ac34e0","system_id":"levelo_inurba_marseille","lat":43.239588,"lon":5.366238,"is_reserved":false,"is_disabled":false,"rental_uris":{"android":"levelo://app?vid=03f41070-6dea-459a-a5f7-cb5c87ac34e0","ios":"levelo://app?vid=03f41070-6dea-459a-a5f7-cb5c87ac34e0"},"vehicle_type_id":"4","last_reported":1699805240,"current_range_meters":28400,"station_id":"ce4bhi12rcd13ifvqfp0","pricing_plan_id":"free"},{"bike_id":"ac202195-48ef-4b0c-b26e-da03e6dd7437","system_id":"levelo_inurba_marseille","lat":43.239644,"lon":5.366281,"is_reserved":false,"is_disabled":false,"rental_uris":{"android":"levelo://app?vid=ac202195-48ef-4b0c-b26e-da03e6dd7437","ios":"levelo://app?vid=ac202195-48ef-4b0c-b26e-da03e6dd7437"},"vehicle_type_id":"4","last_reported":1699805240,"current_range_meters":30800,"station_id":"ce4bhi12rcd13ifvqfp0","pricing_plan_id":"free"},{"bike_id":"c74e13e4-0365-4b0a-a8c8-0e36027ec668","system_id":"levelo_inurba_marseille","lat":43.239588,"lon":5.366238,"is_reserved":false,"is_disabled":false,"rental_uris":{"android":"levelo://app?vid=c74e13e4-0365-4b0a-a8c8-0e36027ec668","ios":"levelo://app?vid=c74e13e4-0365-4b0a-a8c8-0e36027ec668"},"vehicle_type_id":"4","last_reported":1699805240,"current_range_meters":31600,"station_id":"ce4bhi12rcd13ifvqfp0","pricing_plan_id":"free"},{"bike_id":"44adcac5-4e5c-4622-a232-a45f841a0d63","system_id":"levelo_inurba_marseille","lat":43.239588,"lon":5.366238,"is_reserved":false,"is_disabled":false,"rental_uris":{"android":"levelo://app?vid=44adcac5-4e5c-4622-a232-a45f841a0d63","ios":"levelo://app?vid=44adcac5-4e5c-4622-a232-a45f841a0d63"},"vehicle_type_id":"4","last_reported":1699805240,"current_range_meters":29600,"station_id":"ce4bhi12rcd13ifvqfp0","pricing_plan_id":"free"},{"bike_id":"4caf85a4-f06c-4943-941b-b317c7b056cd","system_id":"levelo_inurba_marseille","lat":43.239588,"lon":5.366238,"is_reserved":false,"is_disabled":false,"rental_uris":{"android":"levelo://app?vid=4caf85a4-f06c-4943-941b-b317c7b056cd","ios":"levelo://app?vid=4caf85a4-f06c-4943-941b-b317c7b056cd"},"vehicle_type_id":"4","last_reported":1699805240,"current_range_meters":31600,"station_id":"ce4bhi12rcd13ifvqfp0","pricing_plan_id":"free"},{"bike_id":"1fcb8f69-f5c9-4ce1-96bf-7f3410b360b4","system_id":"levelo_inurba_marseille","lat":43.23963,"lon":5.3663,"is_reserved":false,"is_disabled":false,"rental_uris":{"android":"levelo://app?vid=1fcb8f69-f5c9-4ce1-96bf-7f3410b360b4","ios":"levelo://app?vid=1fcb8f69-f5c9-4ce1-96bf-7f3410b360b4"},"vehicle_type_id":"4","last_reported":1699805240,"current_range_meters":23600,"station_id":"ce4bhi12rcd13ifvqfp0","pricing_plan_id":"free"},{"bike_id":"e682478d-f51e-437d-8b65-78a7973a418c","system_id":"levelo_inurba_marseille","lat":43.239588,"lon":5.366238,"is_reserved":false,"is_disabled":false,"rental_uris":{"android":"levelo://app?vid=e682478d-f51e-437d-8b65-78a7973a418c","ios":"levelo://app?vid=e682478d-f51e-437d-8b65-78a7973a418c"},"vehicle_type_id":"4","last_reported":1699805240,"current_range_meters":31600,"station_id":"ce4bhi12rcd13ifvqfp0","pricing_plan_id":"free"},{"bike_id":"1534fff6-73d8-435e-842a-9405d5b903bf","system_id":"levelo_inurba_marseille","lat":43.239614,"lon":5.366259,"is_reserved":false,"is_disabled":false,"rental_uris":{"android":"levelo://app?vid=1534fff6-73d8-435e-842a-9405d5b903bf","ios":"levelo://app?vid=1534fff6-73d8-435e-842a-9405d5b903bf"},"vehicle_type_id":"4","last_reported":1699805240,"current_range_meters":30000,"station_id":"ce4bhi12rcd13ifvqfp0","pricing_plan_id":"free"},{"bike_id":"1ff1c8d1-1aff-46e9-b773-2777a3e42ee0","system_id":"levelo_inurba_marseille","lat":43.239588,"lon":5.366238,"is_reserved":false,"is_disabled":false,"rental_uris":{"android":"levelo://app?vid=1ff1c8d1-1aff-46e9-b773-2777a3e42ee0","ios":"levelo://app?vid=1ff1c8d1-1aff-46e9-b773-2777a3e42ee0"},"vehicle_type_id":"4","last_reported":1699805240,"current_range_meters":31600,"station_id":"ce4bhi12rcd13ifvqfp0","pricing_plan_id":"free"},{"bike_id":"a8365fe9-5aef-4a2d-b7ba-9fab5be76773","system_id":"levelo_inurba_marseille","lat":43.2396,"lon":5.36635,"is_reserved":false,"is_disabled":false,"rental_uris":{"android":"levelo://app?vid=a8365fe9-5aef-4a2d-b7ba-9fab5be76773","ios":"levelo://app?vid=a8365fe9-5aef-4a2d-b7ba-9fab5be76773"},"vehicle_type_id":"4","last_reported":1699805240,"current_range_meters":31200,"station_id":"ce4bhi12rcd13ifvqfp0","pricing_plan_id":"free"},{"bike_id":"ebdff912-aa81-48d2-b92e-8efd1da7d36b","system_id":"levelo_inurba_marseille","lat":43.239588,"lon":5.366238,"is_reserved":false,"is_disabled":false,"rental_uris":{"android":"levelo://app?vid=ebdff912-aa81-48d2-b92e-8efd1da7d36b","ios":"levelo://app?vid=ebdff912-aa81-48d2-b92e-8efd1da7d36b"},"vehicle_type_id":"4","last_reported":1699805240,"current_range_meters":30800,"station_id":"ce4bhi12rcd13ifvqfp0","pricing_plan_id":"free"},{"bike_id":"e14a7dde-5388-4c5e-b1dd-7f3c4540cdae","system_id":"levelo_inurba_marseille","lat":43.239588,"lon":5.366238,"is_reserved":false,"is_disabled":false,"rental_uris":{"android":"levelo://app?vid=e14a7dde-5388-4c5e-b1dd-7f3c4540cdae","ios":"levelo://app?vid=e14a7dde-5388-4c5e-b1dd-7f3c4540cdae"},"vehicle_type_id":"4","last_reported":1699805240,"current_range_meters":12000,"station_id":"ce4bhi12rcd13ifvqfp0","pricing_plan_id":"free"},{"bike_id":"d609f4b4-26f9-47a4-a13f-e271c34312a7","system_id":"levelo_inurba_marseille","lat":43.239588,"lon":5.366238,"is_reserved":false,"is_disabled":false,"rental_uris":{"android":"levelo://app?vid=d609f4b4-26f9-47a4-a13f-e271c34312a7","ios":"levelo://app?vid=d609f4b4-26f9-47a4-a13f-e271c34312a7"},"vehicle_type_id":"4","last_reported":1699805240,"current_range_meters":11600,"station_id":"ce4bhi12rcd13ifvqfp0","pricing_plan_id":"free"},{"bike_id":"750f02f1-7123-4398-a29e-bd6de309f627","system_id":"levelo_inurba_marseille","lat":43.241782,"lon":5.397261,"is_reserved":false,"is_disabled":false,"rental_uris":{"android":"levelo://app?vid=750f02f1-7123-4398-a29e-bd6de309f627","ios":"levelo://app?vid=750f02f1-7123-4398-a29e-bd6de309f627"},"vehicle_type_id":"4","last_reported":1699805240,"current_range_meters":31200,"station_id":"ce4bhn12rcd13ifvqgpg","pricing_plan_id":"free"},{"bike_id":"4e116bed-fac4-4a4f-9500-0a5b0e267303","system_id":"levelo_inurba_marseille","lat":43.231919,"lon":5.355532,"is_reserved":false,"is_disabled":false,"rental_uris":{"android":"levelo://app?vid=4e116bed-fac4-4a4f-9500-0a5b0e267303","ios":"levelo://app?vid=4e116bed-fac4-4a4f-9500-0a5b0e267303"},"vehicle_type_id":"4","last_reported":1699805240,"current_range_meters":32000,"station_id":"ce4bhu92rcd13ifvqi70","pricing_plan_id":"free"},{"bike_id":"00fdd5e4-304b-4169-abde-577b252372d5","system_id":"levelo_inurba_marseille","lat":43.23195,"lon":5.35548,"is_reserved":false,"is_disabled":false,"rental_uris":{"android":"levelo://app?vid=00fdd5e4-304b-4169-abde-577b252372d5","ios":"levelo://app?vid=00fdd5e4-304b-4169-abde-577b252372d5"},"vehicle_type_id":"4","last_reported":1699805240,"current_range_meters":30800,"station_id":"ce4bhu92rcd13ifvqi70","pricing_plan_id":"free"},{"bike_id":"992eea3e-1902-444c-9749-c1110e5711c7","system_id":"levelo_inurba_marseille","lat":43.231923,"lon":5.355545,"is_reserved":false,"is_disabled":false,"rental_uris":{"android":"levelo://app?vid=992eea3e-1902-444c-9749-c1110e5711c7","ios":"levelo://app?vid=992eea3e-1902-444c-9749-c1110e5711c7"},"vehicle_type_id":"4","last_reported":1699805240,"current_range_meters":19600,"station_id":"ce4bhu92rcd13ifvqi70","pricing_plan_id":"free"},{"bike_id":"84fd8072-7a0c-4102-8931-8813b907f9d6","system_id":"levelo_inurba_marseille","lat":43.231919,"lon":5.355532,"is_reserved":false,"is_disabled":false,"rental_uris":{"android":"levelo://app?vid=84fd8072-7a0c-4102-8931-8813b907f9d6","ios":"levelo://app?vid=84fd8072-7a0c-4102-8931-8813b907f9d6"},"vehicle_type_id":"4","last_reported":1699805240,"current_range_meters":27600,"station_id":"ce4bhu92rcd13ifvqi70","pricing_plan_id":"free"},{"bike_id":"9daf1409-5d52-407b-bc13-d7a387cdcdd6","system_id":"levelo_inurba_marseille","lat":43.231923,"lon":5.355545,"is_reserved":false,"is_disabled":false,"rental_uris":{"android":"levelo://app?vid=9daf1409-5d52-407b-bc13-d7a387cdcdd6","ios":"levelo://app?vid=9daf1409-5d52-407b-bc13-d7a387cdcdd6"},"vehicle_type_id":"4","last_reported":1699805240,"current_range_meters":14000,"station_id":"ce4bhu92rcd13ifvqi70","pricing_plan_id":"free"},{"bike_id":"3be6cbb5-6547-488d-a201-edead5165b04","system_id":"levelo_inurba_marseille","lat":43.231923,"lon":5.355545,"is_reserved":false,"is_disabled":false,"rental_uris":{"android":"levelo://app?vid=3be6cbb5-6547-488d-a201-edead5165b04","ios":"levelo://app?vid=3be6cbb5-6547-488d-a201-edead5165b04"},"vehicle_type_id":"4","last_reported":1699805240,"current_range_meters":31200,"station_id":"ce4bhu92rcd13ifvqi70","pricing_plan_id":"free"},{"bike_id":"a238a72c-dc63-4b6b-8433-9d923c3ba499","system_id":"levelo_inurba_marseille","lat":43.231923,"lon":5.355545,"is_reserved":false,"is_disabled":false,"rental_uris":{"android":"levelo://app?vid=a238a72c-dc63-4b6b-8433-9d923c3ba499","ios":"levelo://app?vid=a238a72c-dc63-4b6b-8433-9d923c3ba499"},"vehicle_type_id":"4","last_reported":1699805240,"current_range_meters":30000,"station_id":"ce4bhu92rcd13ifvqi70","pricing_plan_id":"free"},{"bike_id":"23260548-94e0-42f8-b87f-ee8824a561ca","system_id":"levelo_inurba_marseille","lat":43.231919,"lon":5.355532,"is_reserved":false,"is_disabled":false,"rental_uris":{"android":"levelo://app?vid=23260548-94e0-42f8-b87f-ee8824a561ca","ios":"levelo://app?vid=23260548-94e0-42f8-b87f-ee8824a561ca"},"vehicle_type_id":"4","last_reported":1699805240,"current_range_meters":16400,"station_id":"ce4bhu92rcd13ifvqi70","pricing_plan_id":"free"},{"bike_id":"72e6d634-443d-4c41-8159-a5fd9a7a7266","system_id":"levelo_inurba_marseille","lat":43.231919,"lon":5.355532,"is_reserved":false,"is_disabled":false,"rental_uris":{"android":"levelo://app?vid=72e6d634-443d-4c41-8159-a5fd9a7a7266","ios":"levelo://app?vid=72e6d634-443d-4c41-8159-a5fd9a7a7266"},"vehicle_type_id":"4","last_reported":1699805240,"current_range_meters":31600,"station_id":"ce4bhu92rcd13ifvqi70","pricing_plan_id":"free"},{"bike_id":"c60c2590-0d3b-4614-a695-22e79466b3d0","system_id":"levelo_inurba_marseille","lat":43.231923,"lon":5.355545,"is_reserved":false,"is_disabled":false,"rental_uris":{"android":"levelo://app?vid=c60c2590-0d3b-4614-a695-22e79466b3d0","ios":"levelo://app?vid=c60c2590-0d3b-4614-a695-22e79466b3d0"},"vehicle_type_id":"4","last_reported":1699805240,"current_range_meters":30400,"station_id":"ce4bhu92rcd13ifvqi70","pricing_plan_id":"free"},{"bike_id":"af6ba3d0-20fd-4ddd-b0fd-9e70a9096e25","system_id":"levelo_inurba_marseille","lat":43.23187,"lon":5.35558,"is_reserved":false,"is_disabled":false,"rental_uris":{"android":"levelo://app?vid=af6ba3d0-20fd-4ddd-b0fd-9e70a9096e25","ios":"levelo://app?vid=af6ba3d0-20fd-4ddd-b0fd-9e70a9096e25"},"vehicle_type_id":"4","last_reported":1699805240,"current_range_meters":22800,"station_id":"ce4bhu92rcd13ifvqi70","pricing_plan_id":"free"},{"bike_id":"3a4ba6cf-2389-4cee-8433-96693a767690","system_id":"levelo_inurba_marseille","lat":43.231794,"lon":5.400052,"is_reserved":false,"is_disabled":false,"rental_uris":{"android":"levelo://app?vid=3a4ba6cf-2389-4cee-8433-96693a767690","ios":"levelo://app?vid=3a4ba6cf-2389-4cee-8433-96693a767690"},"vehicle_type_id":"4","last_reported":1699805240,"current_range_meters":32000,"station_id":"ce4bhn12rcd13ifvqgqg","pricing_plan_id":"free"},{"bike_id":"75051775-55f0-4dfa-89e1-713e73b3b5ec","system_id":"levelo_inurba_marseille","lat":43.231794,"lon":5.400052,"is_reserved":false,"is_disabled":false,"rental_uris":{"android":"levelo://app?vid=75051775-55f0-4dfa-89e1-713e73b3b5ec","ios":"levelo://app?vid=75051775-55f0-4dfa-89e1-713e73b3b5ec"},"vehicle_type_id":"4","last_reported":1699805240,"current_range_meters":24800,"station_id":"ce4bhn12rcd13ifvqgqg","pricing_plan_id":"free"},{"bike_id":"10f1af30-633a-4b90-8861-a4dd02ec9a07","system_id":"levelo_inurba_marseille","lat":43.23181,"lon":5.39997,"is_reserved":false,"is_disabled":false,"rental_uris":{"android":"levelo://app?vid=10f1af30-633a-4b90-8861-a4dd02ec9a07","ios":"levelo://app?vid=10f1af30-633a-4b90-8861-a4dd02ec9a07"},"vehicle_type_id":"4","last_reported":1699805240,"current_range_meters":0,"station_id":"ce4bhn12rcd13ifvqgqg","pricing_plan_id":"free"},{"bike_id":"44c55340-96bf-4c23-af8b-f1b7a22d8453","system_id":"levelo_inurba_marseille","lat":43.231793,"lon":5.400044,"is_reserved":false,"is_disabled":false,"rental_uris":{"android":"levelo://app?vid=44c55340-96bf-4c23-af8b-f1b7a22d8453","ios":"levelo://app?vid=44c55340-96bf-4c23-af8b-f1b7a22d8453"},"vehicle_type_id":"4","last_reported":1699805240,"current_range_meters":14000,"station_id":"ce4bhn12rcd13ifvqgqg","pricing_plan_id":"free"},{"bike_id":"38b8dd6c-607b-42a8-827d-dba892882f66","system_id":"levelo_inurba_marseille","lat":43.23154,"lon":5.437,"is_reserved":false,"is_disabled":false,"rental_uris":{"android":"levelo://app?vid=38b8dd6c-607b-42a8-827d-dba892882f66","ios":"levelo://app?vid=38b8dd6c-607b-42a8-827d-dba892882f66"},"vehicle_type_id":"4","last_reported":1699805240,"current_range_meters":29600,"station_id":"ce4bhmp2rcd13ifvqgog","pricing_plan_id":"free"}]}}