{"last_updated":1680275240,"ttl":30,"version":"2.2","data":{"bikes":[{"bike_id":"6ffd3060-c429-4441-a563-42af9d20953b","system_id":"levelo_inurba_marseille","lat":43.309076,"lon":5.368465,"is_reserved":false,"is_disabled":false,"rental_uris":{"android":"levelo://app?vid=6ffd3060-c429-4441-a563-42af9d20953b","ios":"levelo://app?vid=6ffd3060-c429-4441-a563-42af9d20953b"},"vehicle_type_id":"4","last_reported":1680275240,"current_range_meters":0,"station_id":"ce4bgn92rcd13ifvqbvg","pricing_plan_id":"free"},{"bike_id":"23a9168b-0a81-432a-96ab-b001e2258cf9","system_id":"levelo_inurba_marseille","lat":43.30897,"lon":5.3719,"is_reserved":false,"is_disabled":false,"rental_uris":{"android":"levelo://app?vid=23a9168b-0a81-432a-96ab-b001e2258cf9","ios":"levelo://app?vid=23a9168b-0a81-432a-96ab-b001e2258cf9"},"vehicle_type_id":"4","last_reported":1680275240,"current_range_meters":27600,"station_id":"","pricing_plan_id":"free"},{"bike_id":"1a38ba65-049e-48c9-8dfd-46c34e170156","system_id":"levelo_inurba_marseille","lat":43.30526,"lon":5.36707,"is_reserved":false,"is_disabled":false,"rental_uris":{"android":"levelo://app?vid=1a38ba65-049e-48c9-8dfd-46c34e170156","ios":"levelo://app?vid=1a38ba65-049e-48c9-8dfd-46c34e170156"},"vehicle_type_id":"4","last_reported":1680275240,"current_range_meters":25600,"station_id":"ce4bgrp2rcd13ifvqc9g","pricing_plan_id":"free"},{"bike_id":"7562e9d2-f6c1-42a0-b02e-880ae97b6ecb","system_id":"levelo_inurba_marseille","lat":43.30525,"lon":5.36715,"is_reserved":false,"is_disabled":false,"rental_uris":{"android":"levelo://app?vid=7562e9d2-f6c1-42a0-b02e-880ae97b6ecb","ios":"levelo://app?vid=7562e9d2-f6c1-42a0-b02e-880ae97b6ecb"},"vehicle_type_id":"4","last_reported":1680275240,"current_range_meters":22400,"station_id":"ce4bgrp2rcd13ifvqc9g","pricing_plan_id":"free"},{"bike_id":"2066c4eb-452e-4db5-9f64-f9c5020ef474","system_id":"levelo_inurba_marseille","lat":43.30524,"lon":5.36707,"is_reserved":false,"is_disabled":false,"rental_uris":{"android":"levelo://app?vid=2066c4eb-452e-4db5-9f64-f9c5020ef474","ios":"levelo://app?vid=2066c4eb-452e-4db5-9f64-f9c5020ef474"},"vehicle_type_id":"4","last_reported":1680275240,"current_range_meters":0,"station_id":"","pricing_plan_id":"free"},{"bike_id":"423b68d2-aac3-4372-a357-cd48b89e95b7","system_id":"levelo_inurba_marseille","lat":43.31141,"lon":5.37864,"is_reserved":false,"is_disabled":false,"rental_uris":{"android":"levelo://app?vid=423b68d2-aac3-4372-a357-cd48b89e95b7","ios":"levelo://app?vid=423b68d2-aac3-4372-a357-cd48b89e95b7"},"vehicle_type_id":"4","last_reported":1680275240,"current_range_meters":4800,"station_id":"","pricing_plan_id":"free"},{"bike_id":"5baa3807-ddc9-4103-babe-50504438bceb","system_id":"levelo_inurba_marseille","lat":43.31091,"lon":5.37961,"is_reserved":false,"is_disabled":false,"rental_uris":{"android":"levelo://app?vid=5baa3807-ddc9-4103-babe-50504438bceb","ios":"levelo://app?vid=5baa3807-ddc9-4103-babe-50504438bceb"},"vehicle_type_id":"4","last_reported":1680275240,"current_range_meters":5600,"station_id":"","pricing_plan_id":"free"},{"bike_id":"7429f518-20fe-48d2-9df7-2f838247806c","system_id":"levelo_inurba_marseille","lat":43.31463,"lon":5.38007,"is_reserved":false,"is_disabled":false,"rental_uris":{"android":"levelo://app?vid=7429f518-20fe-48d2-9df7-2f838247806c","ios":"levelo://app?vid=7429f518-20fe-48d2-9df7-2f838247806c"},"vehicle_type_id":"4","last_reported":1680275240,"current_range_meters":7200,"station_id":"","pricing_plan_id":"free"},{"bike_id":"ec98ce78-2cd9-4dc0-adc2-1314bddb8cec","system_id":"levelo_inurba_marseille","lat":43.31525,"lon":5.38043,"is_reserved":false,"is_disabled":false,"rental_uris":{"android":"levelo://app?vid=ec98ce78-2cd9-4dc0-adc2-1314bddb8cec","ios":"levelo://app?vid=ec98ce78-2cd9-4dc0-adc2-1314bddb8cec"},"vehicle_type_id":"4","last_reported":1680275240,"current_range_meters":0,"station_id":"","pricing_plan_id":"free"},{"bike_id":"2b8fbe54-ff87-478a-a78d-178451a00e45","system_id":"levelo_inurba_marseille","lat":43.31529,"lon":5.38049,"is_reserved":false,"is_disabled":false,"rental_uris":{"android":"levelo://app?vid=2b8fbe54-ff87-478a-a78d-178451a00e45","ios":"levelo://app?vid=2b8fbe54-ff87-478a-a78d-178451a00e45"},"vehicle_type_id":"4","last_reported":1680275240,"current_range_meters":800,"station_id":"ce4bhsp2rcd13ifvqi50","pricing_plan_id":"free"},{"bike_id":"7337f12b-ca0c-468f-9c86-955e562a1140","system_id":"levelo_inurba_marseille","lat":43.308012,"lon":5.381511,"is_reserved":false,"is_disabled":false,"rental_uris":{"android":"levelo://app?vid=7337f12b-ca0c-468f-9c86-955e562a1140","ios":"levelo://app?vid=7337f12b-ca0c-468f-9c86-955e562a1140"},"vehicle_type_id":"4","last_reported":1680275240,"current_range_meters":26000,"station_id":"ce4bgt12rcd13ifvqce0","pricing_plan_id":"free"},{"bike_id":"b6c59c09-c672-46e9-837b-30e60512210e","system_id":"levelo_inurba_marseille","lat":43.308012,"lon":5.381511,"is_reserved":false,"is_disabled":false,"rental_uris":{"android":"levelo://app?vid=b6c59c09-c672-46e9-837b-30e60512210e","ios":"levelo://app?vid=b6c59c09-c672-46e9-837b-30e60512210e"},"vehicle_type_id":"4","last_reported":1680275240,"current_range_meters":22000,"station_id":"ce4bgt12rcd13ifvqce0","pricing_plan_id":"free"},{"bike_id":"813465e8-446f-43dd-9081-04c1313a2495","system_id":"levelo_inurba_marseille","lat":43.31322,"lon":5.38458,"is_reserved":false,"is_disabled":false,"rental_uris":{"android":"levelo://app?vid=813465e8-446f-43dd-9081-04c1313a2495","ios":"levelo://app?vid=813465e8-446f-43dd-9081-04c1313a2495"},"vehicle_type_id":"4","last_reported":1680275240,"current_range_meters":400,"station_id":"","pricing_plan_id":"free"},{"bike_id":"7a794370-35d6-41e9-9293-c77b5575230d","system_id":"levelo_inurba_marseille","lat":43.29992,"lon":5.37503,"is_reserved":false,"is_disabled":false,"rental_uris":{"android":"levelo://app?vid=7a794370-35d6-41e9-9293-c77b5575230d","ios":"levelo://app?vid=7a794370-35d6-41e9-9293-c77b5575230d"},"vehicle_type_id":"4","last_reported":1680275240,"current_range_meters":30400,"station_id":"","pricing_plan_id":"free"},{"bike_id":"cfdd85a3-37ce-467c-bcab-1cbd857b02fe","system_id":"levelo_inurba_marseille","lat":43.305364,"lon":5.384119,"is_reserved":false,"is_disabled":false,"rental_uris":{"android":"levelo://app?vid=cfdd85a3-37ce-467c-bcab-1cbd857b02fe","ios":"levelo://app?vid=cfdd85a3-37ce-467c-bcab-1cbd857b02fe"},"vehicle_type_id":"4","last_reported":1680275240,"current_range_meters":1200,"station_id":"ce4bgg92rcd13ifvqb30","pricing_plan_id":"free"},{"bike_id":"53d90058-f3fa-44a8-bed8-5be06e32c1b3","system_id":"levelo_inurba_marseille","lat":43.298433,"lon":5.362774,"is_reserved":false,"is_disabled":false,"rental_uris":{"android":"levelo://app?vid=53d90058-f3fa-44a8-bed8-5be06e32c1b3","ios":"levelo://app?vid=53d90058-f3fa-44a8-bed8-5be06e32c1b3"},"vehicle_type_id":"4","last_reported":1680275240,"current_range_meters":15200,"station_id":"ce4bgpp2rcd13ifvqc3g","pricing_plan_id":"free"},{"bike_id":"62ab2ba7-d4df-4d8e-9a77-fa866ccb457b","system_id":"levelo_inurba_marseille","lat":43.298433,"lon":5.362774,"is_reserved":false,"is_disabled":false,"rental_uris":{"android":"levelo://app?vid=62ab2ba7-d4df-4d8e-9a77-fa866ccb457b","ios":"levelo://app?vid=62ab2ba7-d4df-4d8e-9a77-fa866ccb457b"},"vehicle_type_id":"4","last_reported":1680275240,"current_range_meters":10000,"station_id":"ce4bgpp2rcd13ifvqc3g","pricing_plan_id":"free"},{"bike_id":"4353d288-6844-4b3c-a844-c9ae23b5d32f","system_id":"levelo_inurba_marseille","lat":43.311722,"lon":5.387247,"is_reserved":false,"is_disabled":false,"rental_uris":{"android":"levelo://app?vid=4353d288-6844-4b3c-a844-c9ae23b5d32f","ios":"levelo://app?vid=4353d288-6844-4b3c-a844-c9ae23b5d32f"},"vehicle_type_id":"4","last_reported":1680275240,"current_range_meters":0,"station_id":"ce4bgv12rcd13ifvqcp0","pricing_plan_id":"free"},{"bike_id":"326accb6-196c-45be-9cc9-99860d002cb6","system_id":"levelo_inurba_marseille","lat":43.32831,"lon":5.36693,"is_reserved":false,"is_disabled":false,"rental_uris":{"android":"levelo://app?vid=326accb6-196c-45be-9cc9-99860d002cb6","ios":"levelo://app?vid=326accb6-196c-45be-9cc9-99860d002cb6"},"vehicle_type_id":"4","last_reported":1680275240,"current_range_meters":0,"station_id":"ce4bhs92rcd13ifvqi0g","pricing_plan_id":"free"},{"bike_id":"c40f9525-11a6-4bd0-b173-f55eb3ff8933","system_id":"levelo_inurba_marseille","lat":43.31561,"lon":5.38921,"is_reserved":false,"is_disabled":false,"rental_uris":{"android":"levelo://app?vid=c40f9525-11a6-4bd0-b173-f55eb3ff8933","ios":"levelo://app?vid=c40f9525-11a6-4bd0-b173-f55eb3ff8933"},"vehicle_type_id":"4","last_reported":1680275240,"current_range_meters":0,"station_id":"","pricing_plan_id":"free"},{"bike_id":"a69dae66-6fbd-41c8-be4d-37fbbf2828ce","system_id":"levelo_inurba_marseille","lat":43.328371,"lon":5.366909,"is_reserved":false,"is_disabled":false,"rental_uris":{"android":"levelo://app?vid=a69dae66-6fbd-41c8-be4d-37fbbf2828ce","ios":"levelo://app?vid=a69dae66-6fbd-41c8-be4d-37fbbf2828ce"},"vehicle_type_id":"4","last_reported":1680275240,"current_range_meters":0,"station_id":"ce4bhs92rcd13ifvqi0g","pricing_plan_id":"free"},{"bike_id":"91975a1e-6217-4602-91c7-7a0ada3835fc","system_id":"levelo_inurba_marseille","lat":43.296921,"lon":5.376579,"is_reserved":false,"is_disabled":false,"rental_uris":{"android":"levelo://app?vid=91975a1e-6217-4602-91c7-7a0ada3835fc","ios":"levelo://app?vid=91975a1e-6217-4602-91c7-7a0ada3835fc"},"vehicle_type_id":"4","last_reported":1680275240,"current_range_meters":14400,"station_id":"ce4bgkh2rcd13ifvqbl0","pricing_plan_id":"free"},{"bike_id":"d497cf7f-111d-4c9b-a51e-70a62bc73502","system_id":"levelo_inurba_marseille","lat":43.317531,"lon":5.390157,"is_reserved":false,"is_disabled":false,"rental_uris":{"android":"levelo://app?vid=d497cf7f-111d-4c9b-a51e-70a62bc73502","ios":"levelo://app?vid=d497cf7f-111d-4c9b-a51e-70a62bc73502"},"vehicle_type_id":"4","last_reported":1680275240,"current_range_meters":22000,"station_id":"ce4bgh92rcd13ifvqb50","pricing_plan_id":"free"},{"bike_id":"c1108101-0972-481f-b600-2126ce2d6d86","system_id":"levelo_inurba_marseille","lat":43.29579,"lon":5.37526,"is_reserved":false,"is_disabled":false,"rental_uris":{"android":"levelo://app?vid=c1108101-0972-481f-b600-2126ce2d6d86","ios":"levelo://app?vid=c1108101-0972-481f-b600-2126ce2d6d86"},"vehicle_type_id":"4","last_reported":1680275240,"current_range_meters":24400,"station_id":"ce4bgh92rcd13ifvqb50","pricing_plan_id":"free"},{"bike_id":"c22ec212-c994-4dbe-8623-12e638d462fc","system_id":"levelo_inurba_marseille","lat":43.29575,"lon":5.37518,"is_reserved":false,"is_disabled":false,"rental_uris":{"android":"levelo://app?vid=c22ec212-c994-4dbe-8623-12e638d462fc","ios":"levelo://app?vid=c22ec212-c994-4dbe-8623-12e638d462fc"},"vehicle_type_id":"4","last_reported":1680275240,"current_range_meters":10800,"station_id":"ce4bgh92rcd13ifvqb50","pricing_plan_id":"free"},{"bike_id":"17a8c297-b4fd-40f3-a7a6-ed730ad71055","system_id":"levelo_inurba_marseille","lat":43.29575,"lon":5.37518,"is_reserved":false,"is_disabled":false,"rental_uris":{"android":"levelo://app?vid=17a8c297-b4fd-40f3-a7a6-ed730ad71055","ios":"levelo://app?vid=17a8c297-b4fd-40f3-a7a6-ed730ad71055"},"vehicle_type_id":"4","last_reported":1680275240,"current_range_meters":23600,"station_id":"ce4bgh92rcd13ifvqb50","pricing_plan_id":"free"},{"bike_id":"4caca939-0f4e-4369-b50b-63d616b747b2","system_id":"levelo_inurba_marseille","lat":43.296277,"lon":5.377108,"is_reserved":false,"is_disabled":false,"rental_uris":{"android":"levelo://app?vid=4caca939-0f4e-4369-b50b-63d616b747b2","ios":"levelo://app?vid=4caca939-0f4e-4369-b50b-63d616b747b2"},"vehicle_type_id":"4","last_reported":1680275240,"current_range_meters":10400,"station_id":"ce4bgi92rcd13ifvqb90","pricing_plan_id":"free"},{"bike_id":"8a6037c1-7a55-47bd-a8d3-6b61673029f7","system_id":"levelo_inurba_marseille","lat":43.29569,"lon":5.3754,"is_reserved":false,"is_disabled":false,"rental_uris":{"android":"levelo://app?vid=8a6037c1-7a55-47bd-a8d3-6b61673029f7","ios":"levelo://app?vid=8a6037c1-7a55-47bd-a8d3-6b61673029f7"},"vehicle_type_id":"4","last_reported":1680275240,"current_range_meters":2400,"station_id":"","pricing_plan_id":"free"},{"bike_id":"c8d85341-0149-4929-a7d8-6a7c3ab62d08","system_id":"levelo_inurba_marseille","lat":43.296263,"lon":5.377094,"is_reserved":false,"is_disabled":false,"rental_uris":{"android":"levelo://app?vid=c8d85341-0149-4929-a7d8-6a7c3ab62d08","ios":"levelo://app?vid=c8d85341-0149-4929-a7d8-6a7c3ab62d08"},"vehicle_type_id":"4","last_reported":1680275240,"current_range_meters":6800,"station_id":"ce4bgi92rcd13ifvqb90","pricing_plan_id":"free"},{"bike_id":"dac1b4a8-6166-475b-9edb-d57f941cf471","system_id":"levelo_inurba_marseille","lat":43.2961,"lon":5.37714,"is_reserved":false,"is_disabled":false,"rental_uris":{"android":"levelo://app?vid=dac1b4a8-6166-475b-9edb-d57f941cf471","ios":"levelo://app?vid=dac1b4a8-6166-475b-9edb-d57f941cf471"},"vehicle_type_id":"4","last_reported":1680275240,"current_range_meters":12800,"station_id":"ce4bgi92rcd13ifvqb90","pricing_plan_id":"free"},{"bike_id":"9fbd973b-98bb-40cb-90c5-76c4a0bca784","system_id":"levelo_inurba_marseille","lat":43.295279,"lon":5.375048,"is_reserved":false,"is_disabled":false,"rental_uris":{"android":"levelo://app?vid=9fbd973b-98bb-40cb-90c5-76c4a0bca784","ios":"levelo://app?vid=9fbd973b-98bb-40cb-90c5-76c4a0bca784"},"vehicle_type_id":"4","last_reported":1680275240,"current_range_meters":20800,"station_id":"ce4bgkp2rcd13ifvqbmg","pricing_plan_id":"free"},{"bike_id":"734b5e95-098c-47aa-922d-32918a381d80","system_id":"levelo_inurba_marseille","lat":43.299717,"lon":5.384845,"is_reserved":false,"is_disabled":false,"rental_uris":{"android":"levelo://app?vid=734b5e95-098c-47aa-922d-32918a381d80","ios":"levelo://app?vid=734b5e95-098c-47aa-922d-32918a381d80"},"vehicle_type_id":"4","last_reported":1680275240,"current_range_meters":0,"station_id":"ce4bgj92rcd13ifvqbd0","pricing_plan_id":"free"},{"bike_id":"c74aa1fd-e2bd-4132-9b6a-b00d72f1e9bf","system_id":"levelo_inurba_marseille","lat":43.299607,"lon":5.384896,"is_reserved":false,"is_disabled":false,"rental_uris":{"android":"levelo://app?vid=c74aa1fd-e2bd-4132-9b6a-b00d72f1e9bf","ios":"levelo://app?vid=c74aa1fd-e2bd-4132-9b6a-b00d72f1e9bf"},"vehicle_type_id":"4","last_reported":1680275240,"current_range_meters":0,"station_id":"","pricing_plan_id":"free"},{"bike_id":"9dde4e90-1af8-4d83-9c43-b1ec907bf23b","system_id":"levelo_inurba_marseille","lat":43.29838,"lon":5.38312,"is_reserved":false,"is_disabled":false,"rental_uris":{"android":"levelo://app?vid=9dde4e90-1af8-4d83-9c43-b1ec907bf23b","ios":"levelo://app?vid=9dde4e90-1af8-4d83-9c43-b1ec907bf23b"},"vehicle_type_id":"4","last_reported":1680275240,"current_range_meters":800,"station_id":"ce4bgi92rcd13ifvqb90","pricing_plan_id":"free"},{"bike_id":"d01daaf3-0cca-4629-9bbf-4e24ecff2b43","system_id":"levelo_inurba_marseille","lat":43.32367,"lon":5.388836,"is_reserved":false,"is_disabled":false,"rental_uris":{"android":"levelo://app?vid=d01daaf3-0cca-4629-9bbf-4e24ecff2b43","ios":"levelo://app?vid=d01daaf3-0cca-4629-9bbf-4e24ecff2b43"},"vehicle_type_id":"4","last_reported":1680275240,"current_range_meters":24800,"station_id":"ce4bhqp2rcd13ifvqhog","pricing_plan_id":"free"},{"bike_id":"4ad42fa0-ffbf-461e-a192-5bf86f7bc805","system_id":"levelo_inurba_marseille","lat":43.292311,"lon":5.360731,"is_reserved":false,"is_disabled":false,"rental_uris":{"android":"levelo://app?vid=4ad42fa0-ffbf-461e-a192-5bf86f7bc805","ios":"levelo://app?vid=4ad42fa0-ffbf-461e-a192-5bf86f7bc805"},"vehicle_type_id":"4","last_reported":1680275240,"current_range_meters":0,"station_id":"ce4bhbh2rcd13ifvqeqg","pricing_plan_id":"free"},{"bike_id":"04b3a1ef-f65d-4b6e-818f-d3d458c91105","system_id":"levelo_inurba_marseille","lat":43.309038,"lon":5.396546,"is_reserved":false,"is_disabled":false,"rental_uris":{"android":"levelo://app?vid=04b3a1ef-f65d-4b6e-818f-d3d458c91105","ios":"levelo://app?vid=04b3a1ef-f65d-4b6e-818f-d3d458c91105"},"vehicle_type_id":"4","last_reported":1680275240,"current_range_meters":0,"station_id":"ce4bh012rcd13ifvqcv0","pricing_plan_id":"free"},{"bike_id":"3394ba67-bce2-400e-a03c-4912fc626fd8","system_id":"levelo_inurba_marseille","lat":43.29529,"lon":5.385581,"is_reserved":false,"is_disabled":false,"rental_uris":{"android":"levelo://app?vid=3394ba67-bce2-400e-a03c-4912fc626fd8","ios":"levelo://app?vid=3394ba67-bce2-400e-a03c-4912fc626fd8"},"vehicle_type_id":"4","last_reported":1680275240,"current_range_meters":0,"station_id":"ce4bgih2rcd13ifvqba0","pricing_plan_id":"free"},{"bike_id":"e21e9271-db94-41c4-a5c2-599c1c866522","system_id":"levelo_inurba_marseille","lat":43.32796,"lon":5.3923,"is_reserved":false,"is_disabled":false,"rental_uris":{"android":"levelo://app?vid=e21e9271-db94-41c4-a5c2-599c1c866522","ios":"levelo://app?vid=e21e9271-db94-41c4-a5c2-599c1c866522"},"vehicle_type_id":"4","last_reported":1680275240,"current_range_meters":21200,"station_id":"","pricing_plan_id":"free"},{"bike_id":"170c737e-f35d-459c-a5c5-5953777e67e2","system_id":"levelo_inurba_marseille","lat":43.289743,"lon":5.378304,"is_reserved":false,"is_disabled":false,"rental_uris":{"android":"levelo://app?vid=170c737e-f35d-459c-a5c5-5953777e67e2","ios":"levelo://app?vid=170c737e-f35d-459c-a5c5-5953777e67e2"},"vehicle_type_id":"4","last_reported":1680275240,"current_range_meters":400,"station_id":"ce4bh9p2rcd13ifvqed0","pricing_plan_id":"free"},{"bike_id":"92605954-6e5c-4ce2-8991-9d79fc2ce96e","system_id":"levelo_inurba_marseille","lat":43.28853,"lon":5.35864,"is_reserved":false,"is_disabled":false,"rental_uris":{"android":"levelo://app?vid=92605954-6e5c-4ce2-8991-9d79fc2ce96e","ios":"levelo://app?vid=92605954-6e5c-4ce2-8991-9d79fc2ce96e"},"vehicle_type_id":"4","last_reported":1680275240,"current_range_meters":3200,"station_id":"ce4bhb12rcd13ifvqem0","pricing_plan_id":"free"},{"bike_id":"8a4d78f6-9c4a-4942-a881-dc828a079baa","system_id":"levelo_inurba_marseille","lat":43.33752,"lon":5.37477,"is_reserved":false,"is_disabled":false,"rental_uris":{"android":"levelo://app?vid=8a4d78f6-9c4a-4942-a881-dc828a079baa","ios":"levelo://app?vid=8a4d78f6-9c4a-4942-a881-dc828a079baa"},"vehicle_type_id":"4","last_reported":1680275240,"current_range_meters":17200,"station_id":"","pricing_plan_id":"free"},{"bike_id":"9f186915-d0ac-4d58-8da4-09999d2cd3e6","system_id":"levelo_inurba_marseille","lat":43.33756,"lon":5.37455,"is_reserved":false,"is_disabled":false,"rental_uris":{"android":"levelo://app?vid=9f186915-d0ac-4d58-8da4-09999d2cd3e6","ios":"levelo://app?vid=9f186915-d0ac-4d58-8da4-09999d2cd3e6"},"vehicle_type_id":"4","last_reported":1680275240,"current_range_meters":13200,"station_id":"","pricing_plan_id":"free"},{"bike_id":"b2096fe9-68c3-4186-8905-5df002ba70d0","system_id":"levelo_inurba_marseille","lat":43.30642,"lon":5.401031,"is_reserved":false,"is_disabled":false,"rental_uris":{"android":"levelo://app?vid=b2096fe9-68c3-4186-8905-5df002ba70d0","ios":"levelo://app?vid=b2096fe9-68c3-4186-8905-5df002ba70d0"},"vehicle_type_id":"4","last_reported":1680275240,"current_range_meters":21200,"station_id":"ce4bh112rcd13ifvqda0","pricing_plan_id":"free"},{"bike_id":"c6dee760-8e39-47c0-acdb-315776d501f8","system_id":"levelo_inurba_marseille","lat":43.301117,"lon":5.398795,"is_reserved":false,"is_disabled":false,"rental_uris":{"android":"levelo://app?vid=c6dee760-8e39-47c0-acdb-315776d501f8","ios":"levelo://app?vid=c6dee760-8e39-47c0-acdb-315776d501f8"},"vehicle_type_id":"4","last_reported":1680275240,"current_range_meters":0,"station_id":"ce4bh0h2rcd13ifvqd40","pricing_plan_id":"free"},{"bike_id":"a1aa1a27-2e24-44d7-b02a-ec8317f2636b","system_id":"levelo_inurba_marseille","lat":43.301117,"lon":5.398795,"is_reserved":false,"is_disabled":false,"rental_uris":{"android":"levelo://app?vid=a1aa1a27-2e24-44d7-b02a-ec8317f2636b","ios":"levelo://app?vid=a1aa1a27-2e24-44d7-b02a-ec8317f2636b"},"vehicle_type_id":"4","last_reported":1680275240,"current_range_meters":0,"station_id":"ce4bh0h2rcd13ifvqd40","pricing_plan_id":"free"},{"bike_id":"c639501e-c6e8-4203-9ad2-f7fa39e6149b","system_id":"levelo_inurba_marseille","lat":43.301117,"lon":5.398795,"is_reserved":false,"is_disabled":false,"rental_uris":{"android":"levelo://app?vid=c639501e-c6e8-4203-9ad2-f7fa39e6149b","ios":"levelo://app?vid=c639501e-c6e8-4203-9ad2-f7fa39e6149b"},"vehicle_type_id":"4","last_reported":1680275240,"current_range_meters":0,"station_id":"ce4bh0h2rcd13ifvqd40","pricing_plan_id":"free"},{"bike_id":"5f31e6bb-23d6-45b8-8ef1-5d4a98c58873","system_id":"levelo_inurba_marseille","lat":43.28808,"lon":5.35663,"is_reserved":false,"is_disabled":false,"rental_uris":{"android":"levelo://app?vid=5f31e6bb-23d6-45b8-8ef1-5d4a98c58873","ios":"levelo://app?vid=5f31e6bb-23d6-45b8-8ef1-5d4a98c58873"},"vehicle_type_id":"4","last_reported":1680275240,"current_range_meters":800,"station_id":"","pricing_plan_id":"free"},{"bike_id":"1f1b392e-7ce1-4bc9-a2f7-de73aa643e98","system_id":"levelo_inurba_marseille","lat":43.33011,"lon":5.39509,"is_reserved":false,"is_disabled":false,"rental_uris":{"android":"levelo://app?vid=1f1b392e-7ce1-4bc9-a2f7-de73aa643e98","ios":"levelo://app?vid=1f1b392e-7ce1-4bc9-a2f7-de73aa643e98"},"vehicle_type_id":"4","last_reported":1680275240,"current_range_meters":27600,"station_id":"","pricing_plan_id":"free"},{"bike_id":"a5185857-beb6-44b2-835b-1abad0ad406d","system_id":"levelo_inurba_marseille","lat":43.284534,"lon":5.358662,"is_reserved":false,"is_disabled":false,"rental_uris":{"android":"levelo://app?vid=a5185857-beb6-44b2-835b-1abad0ad406d","ios":"levelo://app?vid=a5185857-beb6-44b2-835b-1abad0ad406d"},"vehicle_type_id":"4","last_reported":1680275240,"current_range_meters":6400,"station_id":"ce4bhah2rcd13ifvqei0","pricing_plan_id":"free"},{"bike_id":"108cb944-6262-4f81-b4cc-d09c0721bc74","system_id":"levelo_inurba_marseille","lat":43.295713,"lon":5.399639,"is_reserved":false,"is_disabled":false,"rental_uris":{"android":"levelo://app?vid=108cb944-6262-4f81-b4cc-d09c0721bc74","ios":"levelo://app?vid=108cb944-6262-4f81-b4cc-d09c0721bc74"},"vehicle_type_id":"4","last_reported":1680275240,"current_range_meters":22400,"station_id":"ce4bh312rcd13ifvqdj0","pricing_plan_id":"free"},{"bike_id":"cc3a636b-8c68-416e-89ca-b808bf462c4d","system_id":"levelo_inurba_marseille","lat":43.33725,"lon":5.3918,"is_reserved":false,"is_disabled":false,"rental_uris":{"android":"levelo://app?vid=cc3a636b-8c68-416e-89ca-b808bf462c4d","ios":"levelo://app?vid=cc3a636b-8c68-416e-89ca-b808bf462c4d"},"vehicle_type_id":"4","last_reported":1680275240,"current_range_meters":3600,"station_id":"","pricing_plan_id":"free"},{"bike_id":"c63238f8-aac5-45d6-a65c-576c9a6e6607","system_id":"levelo_inurba_marseille","lat":43.33721,"lon":5.39195,"is_reserved":false,"is_disabled":false,"rental_uris":{"android":"levelo://app?vid=c63238f8-aac5-45d6-a65c-576c9a6e6607","ios":"levelo://app?vid=c63238f8-aac5-45d6-a65c-576c9a6e6607"},"vehicle_type_id":"4","last_reported":1680275240,"current_range_meters":8400,"station_id":"ce4bhr92rcd13ifvqhsg","pricing_plan_id":"free"},{"bike_id":"b4413a93-9c2e-43a7-9b36-afbc15dbce62","system_id":"levelo_inurba_marseille","lat":43.33726,"lon":5.39188,"is_reserved":false,"is_disabled":false,"rental_uris":{"android":"levelo://app?vid=b4413a93-9c2e-43a7-9b36-afbc15dbce62","ios":"levelo://app?vid=b4413a93-9c2e-43a7-9b36-afbc15dbce62"},"vehicle_type_id":"4","last_reported":1680275240,"current_range_meters":2800,"station_id":"ce4bhr92rcd13ifvqhsg","pricing_plan_id":"free"},{"bike_id":"3e2c6cb8-5b4f-4991-aeca-8c83ae42e388","system_id":"levelo_inurba_marseille","lat":43.28352,"lon":5.38095,"is_reserved":false,"is_disabled":false,"rental_uris":{"android":"levelo://app?vid=3e2c6cb8-5b4f-4991-aeca-8c83ae42e388","ios":"levelo://app?vid=3e2c6cb8-5b4f-4991-aeca-8c83ae42e388"},"vehicle_type_id":"4","last_reported":1680275240,"current_range_meters":14800,"station_id":"","pricing_plan_id":"free"},{"bike_id":"5529ec20-2908-455d-928f-84160f6a9462","system_id":"levelo_inurba_marseille","lat":43.284217,"lon":5.349697,"is_reserved":false,"is_disabled":false,"rental_uris":{"android":"levelo://app?vid=5529ec20-2908-455d-928f-84160f6a9462","ios":"levelo://app?vid=5529ec20-2908-455d-928f-84160f6a9462"},"vehicle_type_id":"4","last_reported":1680275240,"current_range_meters":7600,"station_id":"ce4bhbh2rcd13ifvqepg","pricing_plan_id":"free"},{"bike_id":"c1681c34-c7fa-4676-98ed-5d0d14526a25","system_id":"levelo_inurba_marseille","lat":43.283502,"lon":5.386471,"is_reserved":false,"is_disabled":false,"rental_uris":{"android":"levelo://app?vid=c1681c34-c7fa-4676-98ed-5d0d14526a25","ios":"levelo://app?vid=c1681c34-c7fa-4676-98ed-5d0d14526a25"},"vehicle_type_id":"4","last_reported":1680275240,"current_range_meters":0,"station_id":"ce4bh492rcd13ifvqdvg","pricing_plan_id":"free"},{"bike_id":"c3906159-97c2-4a71-8753-aa46a7e29f18","system_id":"levelo_inurba_marseille","lat":43.280382,"lon":5.369291,"is_reserved":false,"is_disabled":false,"rental_uris":{"android":"levelo://app?vid=c3906159-97c2-4a71-8753-aa46a7e29f18","ios":"levelo://app?vid=c3906159-97c2-4a71-8753-aa46a7e29f18"},"vehicle_type_id":"4","last_reported":1680275240,"current_range_meters":18800,"station_id":"ce4bha12rcd13ifvqef0","pricing_plan_id":"free"},{"bike_id":"68446d97-8334-49e0-b4cf-46dea53fde6d","system_id":"levelo_inurba_marseille","lat":43.29022,"lon":5.39955,"is_reserved":false,"is_disabled":false,"rental_uris":{"android":"levelo://app?vid=68446d97-8334-49e0-b4cf-46dea53fde6d","ios":"levelo://app?vid=68446d97-8334-49e0-b4cf-46dea53fde6d"},"vehicle_type_id":"4","last_reported":1680275240,"current_range_meters":0,"station_id":"ce4bh392rcd13ifvqdm0","pricing_plan_id":"free"},{"bike_id":"9a109c7d-9493-4622-8705-5b528efe9f58","system_id":"levelo_inurba_marseille","lat":43.28514,"lon":5.39435,"is_reserved":false,"is_disabled":false,"rental_uris":{"android":"levelo://app?vid=9a109c7d-9493-4622-8705-5b528efe9f58","ios":"levelo://app?vid=9a109c7d-9493-4622-8705-5b528efe9f58"},"vehicle_type_id":"4","last_reported":1680275240,"current_range_meters":3600,"station_id":"","pricing_plan_id":"free"},{"bike_id":"fe189e04-be1d-4c65-b957-e5ca1898fbdf","system_id":"levelo_inurba_marseille","lat":43.30418,"lon":5.41293,"is_reserved":false,"is_disabled":false,"rental_uris":{"android":"levelo://app?vid=fe189e04-be1d-4c65-b957-e5ca1898fbdf","ios":"levelo://app?vid=fe189e04-be1d-4c65-b957-e5ca1898fbdf"},"vehicle_type_id":"4","last_reported":1680275240,"current_range_meters":0,"station_id":"ce4bhop2rcd13ifvqh8g","pricing_plan_id":"free"},{"bike_id":"d88145df-255b-4c89-9386-a2b411f58023","system_id":"levelo_inurba_marseille","lat":43.29259,"lon":5.4091,"is_reserved":false,"is_disabled":false,"rental_uris":{"android":"levelo://app?vid=d88145df-255b-4c89-9386-a2b411f58023","ios":"levelo://app?vid=d88145df-255b-4c89-9386-a2b411f58023"},"vehicle_type_id":"4","last_reported":1680275240,"current_range_meters":26400,"station_id":"ce4bh192rcd13ifvqdc0","pricing_plan_id":"free"},{"bike_id":"95864348-ce2b-4615-a50d-f89077143ea5","system_id":"levelo_inurba_marseille","lat":43.280784,"lon":5.396622,"is_reserved":false,"is_disabled":false,"rental_uris":{"android":"levelo://app?vid=95864348-ce2b-4615-a50d-f89077143ea5","ios":"levelo://app?vid=95864348-ce2b-4615-a50d-f89077143ea5"},"vehicle_type_id":"4","last_reported":1680275240,"current_range_meters":31200,"station_id":"ce4bho12rcd13ifvqh2g","pricing_plan_id":"free"},{"bike_id":"86b2fe27-880f-45db-a0d5-6a08e3554a33","system_id":"levelo_inurba_marseille","lat":43.280889,"lon":5.396716,"is_reserved":false,"is_disabled":false,"rental_uris":{"android":"levelo://app?vid=86b2fe27-880f-45db-a0d5-6a08e3554a33","ios":"levelo://app?vid=86b2fe27-880f-45db-a0d5-6a08e3554a33"},"vehicle_type_id":"4","last_reported":1680275240,"current_range_meters":30800,"station_id":"ce4bho12rcd13ifvqh2g","pricing_plan_id":"free"},{"bike_id":"974a114b-33f9-4768-aae9-62c492f269f3","system_id":"levelo_inurba_marseille","lat":43.273613,"lon":5.362705,"is_reserved":false,"is_disabled":false,"rental_uris":{"android":"levelo://app?vid=974a114b-33f9-4768-aae9-62c492f269f3","ios":"levelo://app?vid=974a114b-33f9-4768-aae9-62c492f269f3"},"vehicle_type_id":"4","last_reported":1680275240,"current_range_meters":31200,"station_id":"ce4bhbh2rcd13ifvqeo0","pricing_plan_id":"free"},{"bike_id":"7cf92cc3-94df-4109-a076-ad11bb0e0e71","system_id":"levelo_inurba_marseille","lat":43.273609,"lon":5.362708,"is_reserved":false,"is_disabled":false,"rental_uris":{"android":"levelo://app?vid=7cf92cc3-94df-4109-a076-ad11bb0e0e71","ios":"levelo://app?vid=7cf92cc3-94df-4109-a076-ad11bb0e0e71"},"vehicle_type_id":"4","last_reported":1680275240,"current_range_meters":28000,"station_id":"ce4bhbh2rcd13ifvqeo0","pricing_plan_id":"free"},{"bike_id":"a9d2b070-c707-4a89-ac3f-02e47cd42197","system_id":"levelo_inurba_marseille","lat":43.273613,"lon":5.362705,"is_reserved":false,"is_disabled":false,"rental_uris":{"android":"levelo://app?vid=a9d2b070-c707-4a89-ac3f-02e47cd42197","ios":"levelo://app?vid=a9d2b070-c707-4a89-ac3f-02e47cd42197"},"vehicle_type_id":"4","last_reported":1680275240,"current_range_meters":25600,"station_id":"ce4bhbh2rcd13ifvqeo0","pricing_plan_id":"free"},{"bike_id":"1ddd6111-f8e6-4f9a-987d-d615c5fdc3fd","system_id":"levelo_inurba_marseille","lat":43.273763,"lon":5.362598,"is_reserved":false,"is_disabled":false,"rental_uris":{"android":"levelo://app?vid=1ddd6111-f8e6-4f9a-987d-d615c5fdc3fd","ios":"levelo://app?vid=1ddd6111-f8e6-4f9a-987d-d615c5fdc3fd"},"vehicle_type_id":"4","last_reported":1680275240,"current_range_meters":0,"station_id":"","pricing_plan_id":"free"},{"bike_id":"d28aa074-5700-4de3-9a7c-d34e3a342b71","system_id":"levelo_inurba_marseille","lat":43.273609,"lon":5.362708,"is_reserved":false,"is_disabled":false,"rental_uris":{"android":"levelo://app?vid=d28aa074-5700-4de3-9a7c-d34e3a342b71","ios":"levelo://app?vid=d28aa074-5700-4de3-9a7c-d34e3a342b71"},"vehicle_type_id":"4","last_reported":1680275240,"current_range_meters":28400,"station_id":"ce4bhbh2rcd13ifvqeo0","pricing_plan_id":"free"},{"bike_id":"28ab57e7-d87d-4852-b996-3399b2bf0207","system_id":"levelo_inurba_marseille","lat":43.273613,"lon":5.362705,"is_reserved":false,"is_disabled":false,"rental_uris":{"android":"levelo://app?vid=28ab57e7-d87d-4852-b996-3399b2bf0207","ios":"levelo://app?vid=28ab57e7-d87d-4852-b996-3399b2bf0207"},"vehicle_type_id":"4","last_reported":1680275240,"current_range_meters":22800,"station_id":"ce4bhbh2rcd13ifvqeo0","pricing_plan_id":"free"},{"bike_id":"7c2b50fa-74e9-4668-a7ab-c38c94d21c1f","system_id":"levelo_inurba_marseille","lat":43.27375,"lon":5.36257,"is_reserved":false,"is_disabled":false,"rental_uris":{"android":"levelo://app?vid=7c2b50fa-74e9-4668-a7ab-c38c94d21c1f","ios":"levelo://app?vid=7c2b50fa-74e9-4668-a7ab-c38c94d21c1f"},"vehicle_type_id":"4","last_reported":1680275240,"current_range_meters":9200,"station_id":"ce4bhbh2rcd13ifvqeo0","pricing_plan_id":"free"},{"bike_id":"e2011fcc-6984-45db-aab6-0c53490231c8","system_id":"levelo_inurba_marseille","lat":43.273613,"lon":5.362705,"is_reserved":false,"is_disabled":false,"rental_uris":{"android":"levelo://app?vid=e2011fcc-6984-45db-aab6-0c53490231c8","ios":"levelo://app?vid=e2011fcc-6984-45db-aab6-0c53490231c8"},"vehicle_type_id":"4","last_reported":1680275240,"current_range_meters":26000,"station_id":"ce4bhbh2rcd13ifvqeo0","pricing_plan_id":"free"},{"bike_id":"620caa2d-bc7e-4f85-9f4c-c80b6f361482","system_id":"levelo_inurba_marseille","lat":43.273609,"lon":5.362708,"is_reserved":false,"is_disabled":false,"rental_uris":{"android":"levelo://app?vid=620caa2d-bc7e-4f85-9f4c-c80b6f361482","ios":"levelo://app?vid=620caa2d-bc7e-4f85-9f4c-c80b6f361482"},"vehicle_type_id":"4","last_reported":1680275240,"current_range_meters":18400,"station_id":"ce4bhbh2rcd13ifvqeo0","pricing_plan_id":"free"},{"bike_id":"c4af1e26-f3cc-45f6-a646-aa7e13aaa717","system_id":"levelo_inurba_marseille","lat":43.273609,"lon":5.362708,"is_reserved":false,"is_disabled":false,"rental_uris":{"android":"levelo://app?vid=c4af1e26-f3cc-45f6-a646-aa7e13aaa717","ios":"levelo://app?vid=c4af1e26-f3cc-45f6-a646-aa7e13aaa717"},"vehicle_type_id":"4","last_reported":1680275240,"current_range_meters":29200,"station_id":"ce4bhbh2rcd13ifvqeo0","pricing_plan_id":"free"},{"bike_id":"84c0daff-6967-4d5c-9d66-21eb35713f39","system_id":"levelo_inurba_marseille","lat":43.273609,"lon":5.362708,"is_reserved":false,"is_disabled":false,"rental_uris":{"android":"levelo://app?vid=84c0daff-6967-4d5c-9d66-21eb35713f39","ios":"levelo://app?vid=84c0daff-6967-4d5c-9d66-21eb35713f39"},"vehicle_type_id":"4","last_reported":1680275240,"current_range_meters":17200,"station_id":"ce4bhbh2rcd13ifvqeo0","pricing_plan_id":"free"},{"bike_id":"8868dac1-1cb6-4436-bd5f-644794928cae","system_id":"levelo_inurba_marseille","lat":43.273609,"lon":5.362708,"is_reserved":false,"is_disabled":false,"rental_uris":{"android":"levelo://app?vid=8868dac1-1cb6-4436-bd5f-644794928cae","ios":"levelo://app?vid=8868dac1-1cb6-4436-bd5f-644794928cae"},"vehicle_type_id":"4","last_reported":1680275240,"current_range_meters":27600,"station_id":"ce4bhbh2rcd13ifvqeo0","pricing_plan_id":"free"},{"bike_id":"1b54e3d8-3473-4b13-8349-9b6fea606f44","system_id":"levelo_inurba_marseille","lat":43.273613,"lon":5.362705,"is_reserved":false,"is_disabled":false,"rental_uris":{"android":"levelo://app?vid=1b54e3d8-3473-4b13-8349-9b6fea606f44","ios":"levelo://app?vid=1b54e3d8-3473-4b13-8349-9b6fea606f44"},"vehicle_type_id":"4","last_reported":1680275240,"current_range_meters":31200,"station_id":"ce4bhbh2rcd13ifvqeo0","pricing_plan_id":"free"},{"bike_id":"2b2311fc-4563-4f7c-a976-41a878b6e7d7","system_id":"levelo_inurba_marseille","lat":43.273609,"lon":5.362708,"is_reserved":false,"is_disabled":false,"rental_uris":{"android":"levelo://app?vid=2b2311fc-4563-4f7c-a976-41a878b6e7d7","ios":"levelo://app?vid=2b2311fc-4563-4f7c-a976-41a878b6e7d7"},"vehicle_type_id":"4","last_reported":1680275240,"current_range_meters":28800,"station_id":"ce4bhbh2rcd13ifvqeo0","pricing_plan_id":"free"},{"bike_id":"7576e5b8-8716-4057-94af-8de0d71a88bb","system_id":"levelo_inurba_marseille","lat":43.33602,"lon":5.41035,"is_reserved":false,"is_disabled":false,"rental_uris":{"android":"levelo://app?vid=7576e5b8-8716-4057-94af-8de0d71a88bb","ios":"levelo://app?vid=7576e5b8-8716-4057-94af-8de0d71a88bb"},"vehicle_type_id":"4","last_reported":1680275240,"current_range_meters":6400,"station_id":"ce4bhqh2rcd13ifvqhmg","pricing_plan_id":"free"},{"bike_id":"5ca1b0d5-217b-488b-a662-bcdf1082ebaa","system_id":"levelo_inurba_marseille","lat":43.33604,"lon":5.41033,"is_reserved":false,"is_disabled":false,"rental_uris":{"android":"levelo://app?vid=5ca1b0d5-217b-488b-a662-bcdf1082ebaa","ios":"levelo://app?vid=5ca1b0d5-217b-488b-a662-bcdf1082ebaa"},"vehicle_type_id":"4","last_reported":1680275240,"current_range_meters":7600,"station_id":"ce4bhqh2rcd13ifvqhmg","pricing_plan_id":"free"},{"bike_id":"5f5d23f5-a9ed-4fc2-9be2-72efa8ff2272","system_id":"levelo_inurba_marseille","lat":43.33609,"lon":5.41035,"is_reserved":false,"is_disabled":false,"rental_uris":{"android":"levelo://app?vid=5f5d23f5-a9ed-4fc2-9be2-72efa8ff2272","ios":"levelo://app?vid=5f5d23f5-a9ed-4fc2-9be2-72efa8ff2272"},"vehicle_type_id":"4","last_reported":1680275240,"current_range_meters":9600,"station_id":"ce4bhqh2rcd13ifvqhmg","pricing_plan_id":"free"},{"bike_id":"4af3f13a-9a5b-4bfc-adb3-49a8d6856ac4","system_id":"levelo_inurba_marseille","lat":43.317121,"lon":5.423936,"is_reserved":false,"is_disabled":false,"rental_uris":{"android":"levelo://app?vid=4af3f13a-9a5b-4bfc-adb3-49a8d6856ac4","ios":"levelo://app?vid=4af3f13a-9a5b-4bfc-adb3-49a8d6856ac4"},"vehicle_type_id":"4","last_reported":1680275240,"current_range_meters":14000,"station_id":"ce4bhp92rcd13ifvqhbg","pricing_plan_id":"free"},{"bike_id":"85c9bb09-c5a0-4acc-99b1-4e8aa7994c59","system_id":"levelo_inurba_marseille","lat":43.29188,"lon":5.4227,"is_reserved":false,"is_disabled":false,"rental_uris":{"android":"levelo://app?vid=85c9bb09-c5a0-4acc-99b1-4e8aa7994c59","ios":"levelo://app?vid=85c9bb09-c5a0-4acc-99b1-4e8aa7994c59"},"vehicle_type_id":"4","last_reported":1680275240,"current_range_meters":25600,"station_id":"","pricing_plan_id":"free"},{"bike_id":"ee96d153-588c-47c6-aa8e-b14c847eb47b","system_id":"levelo_inurba_marseille","lat":43.2799,"lon":5.41668,"is_reserved":false,"is_disabled":false,"rental_uris":{"android":"levelo://app?vid=ee96d153-588c-47c6-aa8e-b14c847eb47b","ios":"levelo://app?vid=ee96d153-588c-47c6-aa8e-b14c847eb47b"},"vehicle_type_id":"4","last_reported":1680275240,"current_range_meters":7600,"station_id":"ce4bho12rcd13ifvqh1g","pricing_plan_id":"free"},{"bike_id":"7e1958d1-d37f-4610-81ce-94200f133100","system_id":"levelo_inurba_marseille","lat":43.30802,"lon":5.43524,"is_reserved":false,"is_disabled":false,"rental_uris":{"android":"levelo://app?vid=7e1958d1-d37f-4610-81ce-94200f133100","ios":"levelo://app?vid=7e1958d1-d37f-4610-81ce-94200f133100"},"vehicle_type_id":"4","last_reported":1680275240,"current_range_meters":17200,"station_id":"ce4bhph2rcd13ifvqheg","pricing_plan_id":"free"},{"bike_id":"9ace26e9-f3b9-4154-b622-1faebd36c98e","system_id":"levelo_inurba_marseille","lat":43.30802,"lon":5.43526,"is_reserved":false,"is_disabled":false,"rental_uris":{"android":"levelo://app?vid=9ace26e9-f3b9-4154-b622-1faebd36c98e","ios":"levelo://app?vid=9ace26e9-f3b9-4154-b622-1faebd36c98e"},"vehicle_type_id":"4","last_reported":1680275240,"current_range_meters":17200,"station_id":"ce4bhph2rcd13ifvqheg","pricing_plan_id":"free"},{"bike_id":"3535ed30-89a8-4a80-9b31-64579a9631d3","system_id":"levelo_inurba_marseille","lat":43.308051,"lon":5.43527,"is_reserved":false,"is_disabled":false,"rental_uris":{"android":"levelo://app?vid=3535ed30-89a8-4a80-9b31-64579a9631d3","ios":"levelo://app?vid=3535ed30-89a8-4a80-9b31-64579a9631d3"},"vehicle_type_id":"4","last_reported":1680275240,"current_range_meters":1200,"station_id":"ce4bhph2rcd13ifvqheg","pricing_plan_id":"free"},{"bike_id":"a1fa0142-db6a-4509-8d08-5617353813bb","system_id":"levelo_inurba_marseille","lat":43.26563,"lon":5.39012,"is_reserved":false,"is_disabled":false,"rental_uris":{"android":"levelo://app?vid=a1fa0142-db6a-4509-8d08-5617353813bb","ios":"levelo://app?vid=a1fa0142-db6a-4509-8d08-5617353813bb"},"vehicle_type_id":"4","last_reported":1680275240,"current_range_meters":0,"station_id":"ce4bhe12rcd13ifvqf30","pricing_plan_id":"free"},{"bike_id":"c8ea8206-901a-488c-ac4b-8b1e01485d14","system_id":"levelo_inurba_marseille","lat":43.331864,"lon":5.431794,"is_reserved":false,"is_disabled":false,"rental_uris":{"android":"levelo://app?vid=c8ea8206-901a-488c-ac4b-8b1e01485d14","ios":"levelo://app?vid=c8ea8206-901a-488c-ac4b-8b1e01485d14"},"vehicle_type_id":"4","last_reported":1680275240,"current_range_meters":0,"station_id":"","pricing_plan_id":"free"},{"bike_id":"49a0d535-b0c8-4670-8c91-18144a5fdb2f","system_id":"levelo_inurba_marseille","lat":43.261782,"lon":5.374515,"is_reserved":false,"is_disabled":false,"rental_uris":{"android":"levelo://app?vid=49a0d535-b0c8-4670-8c91-18144a5fdb2f","ios":"levelo://app?vid=49a0d535-b0c8-4670-8c91-18144a5fdb2f"},"vehicle_type_id":"4","last_reported":1680275240,"current_range_meters":7200,"station_id":"ce4bhgp2rcd13ifvqfc0","pricing_plan_id":"free"},{"bike_id":"c12cf780-100d-40d6-8af5-78dd0df9324e","system_id":"levelo_inurba_marseille","lat":43.317104,"lon":5.436818,"is_reserved":false,"is_disabled":false,"rental_uris":{"android":"levelo://app?vid=c12cf780-100d-40d6-8af5-78dd0df9324e","ios":"levelo://app?vid=c12cf780-100d-40d6-8af5-78dd0df9324e"},"vehicle_type_id":"4","last_reported":1680275240,"current_range_meters":21600,"station_id":"ce4bhp92rcd13ifvqhcg","pricing_plan_id":"free"},{"bike_id":"9ce2775f-7712-499a-94b3-bb7e93b8b09d","system_id":"levelo_inurba_marseille","lat":43.31713,"lon":5.43708,"is_reserved":false,"is_disabled":false,"rental_uris":{"android":"levelo://app?vid=9ce2775f-7712-499a-94b3-bb7e93b8b09d","ios":"levelo://app?vid=9ce2775f-7712-499a-94b3-bb7e93b8b09d"},"vehicle_type_id":"4","last_reported":1680275240,"current_range_meters":0,"station_id":"ce4bhp92rcd13ifvqhcg","pricing_plan_id":"free"},{"bike_id":"a854b3c1-b6b4-47af-b80b-50eca78e404e","system_id":"levelo_inurba_marseille","lat":43.317104,"lon":5.436818,"is_reserved":false,"is_disabled":false,"rental_uris":{"android":"levelo://app?vid=a854b3c1-b6b4-47af-b80b-50eca78e404e","ios":"levelo://app?vid=a854b3c1-b6b4-47af-b80b-50eca78e404e"},"vehicle_type_id":"4","last_reported":1680275240,"current_range_meters":7200,"station_id":"ce4bhp92rcd13ifvqhcg","pricing_plan_id":"free"},{"bike_id":"21c18175-4e0f-4f99-a303-17d067100650","system_id":"levelo_inurba_marseille","lat":43.267959,"lon":5.402687,"is_reserved":false,"is_disabled":false,"rental_uris":{"android":"levelo://app?vid=21c18175-4e0f-4f99-a303-17d067100650","ios":"levelo://app?vid=21c18175-4e0f-4f99-a303-17d067100650"},"vehicle_type_id":"4","last_reported":1680275240,"current_range_meters":11200,"station_id":"ce501612rcd8frsf0b60","pricing_plan_id":"free"},{"bike_id":"4ed3f0a3-665c-4439-a141-87a14014924d","system_id":"levelo_inurba_marseille","lat":43.267959,"lon":5.402685,"is_reserved":false,"is_disabled":false,"rental_uris":{"android":"levelo://app?vid=4ed3f0a3-665c-4439-a141-87a14014924d","ios":"levelo://app?vid=4ed3f0a3-665c-4439-a141-87a14014924d"},"vehicle_type_id":"4","last_reported":1680275240,"current_range_meters":16800,"station_id":"ce501612rcd8frsf0b60","pricing_plan_id":"free"},{"bike_id":"d11a40e3-5dc0-4459-bc35-23c33fb9952b","system_id":"levelo_inurba_marseille","lat":43.267959,"lon":5.402687,"is_reserved":false,"is_disabled":false,"rental_uris":{"android":"levelo://app?vid=d11a40e3-5dc0-4459-bc35-23c33fb9952b","ios":"levelo://app?vid=d11a40e3-5dc0-4459-bc35-23c33fb9952b"},"vehicle_type_id":"4","last_reported":1680275240,"current_range_meters":25200,"station_id":"ce501612rcd8frsf0b60","pricing_plan_id":"free"},{"bike_id":"5f0fa779-71cc-48f9-ad4a-5e18236ca726","system_id":"levelo_inurba_marseille","lat":43.298768,"lon":5.43643,"is_reserved":false,"is_disabled":false,"rental_uris":{"android":"levelo://app?vid=5f0fa779-71cc-48f9-ad4a-5e18236ca726","ios":"levelo://app?vid=5f0fa779-71cc-48f9-ad4a-5e18236ca726"},"vehicle_type_id":"4","last_reported":1680275240,"current_range_meters":31200,"station_id":"ce4bhpp2rcd13ifvqhfg","pricing_plan_id":"free"},{"bike_id":"cf3a49b0-caea-4d15-b85f-b0a04ad29fad","system_id":"levelo_inurba_marseille","lat":43.26062,"lon":5.39402,"is_reserved":false,"is_disabled":false,"rental_uris":{"android":"levelo://app?vid=cf3a49b0-caea-4d15-b85f-b0a04ad29fad","ios":"levelo://app?vid=cf3a49b0-caea-4d15-b85f-b0a04ad29fad"},"vehicle_type_id":"4","last_reported":1680275240,"current_range_meters":0,"station_id":"ce4bhh92rcd13ifvqfj0","pricing_plan_id":"free"},{"bike_id":"6d5ba593-f702-4cd5-8fe8-75512f80855e","system_id":"levelo_inurba_marseille","lat":43.26223,"lon":5.40458,"is_reserved":false,"is_disabled":false,"rental_uris":{"android":"levelo://app?vid=6d5ba593-f702-4cd5-8fe8-75512f80855e","ios":"levelo://app?vid=6d5ba593-f702-4cd5-8fe8-75512f80855e"},"vehicle_type_id":"4","last_reported":1680275240,"current_range_meters":10800,"station_id":"","pricing_plan_id":"free"},{"bike_id":"ab05fcaa-5577-482d-8ed6-c26fdc86ec20","system_id":"levelo_inurba_marseille","lat":43.255756,"lon":5.382303,"is_reserved":false,"is_disabled":false,"rental_uris":{"android":"levelo://app?vid=ab05fcaa-5577-482d-8ed6-c26fdc86ec20","ios":"levelo://app?vid=ab05fcaa-5577-482d-8ed6-c26fdc86ec20"},"vehicle_type_id":"4","last_reported":1680275240,"current_range_meters":30800,"station_id":"ce4bhih2rcd13ifvqfs0","pricing_plan_id":"free"},{"bike_id":"233eb456-6f23-4b1f-8c8d-49dba4424a59","system_id":"levelo_inurba_marseille","lat":43.2558,"lon":5.38232,"is_reserved":false,"is_disabled":false,"rental_uris":{"android":"levelo://app?vid=233eb456-6f23-4b1f-8c8d-49dba4424a59","ios":"levelo://app?vid=233eb456-6f23-4b1f-8c8d-49dba4424a59"},"vehicle_type_id":"4","last_reported":1680275240,"current_range_meters":24000,"station_id":"","pricing_plan_id":"free"},{"bike_id":"6da315ed-0cbe-4c98-b336-618c8cfdbd38","system_id":"levelo_inurba_marseille","lat":43.27069,"lon":5.42282,"is_reserved":false,"is_disabled":false,"rental_uris":{"android":"levelo://app?vid=6da315ed-0cbe-4c98-b336-618c8cfdbd38","ios":"levelo://app?vid=6da315ed-0cbe-4c98-b336-618c8cfdbd38"},"vehicle_type_id":"4","last_reported":1680275240,"current_range_meters":13600,"station_id":"ce4bhk92rcd13ifvqgb0","pricing_plan_id":"free"},{"bike_id":"86b93c0d-abd1-4972-89e6-5d05c6e94040","system_id":"levelo_inurba_marseille","lat":43.25931,"lon":5.40914,"is_reserved":false,"is_disabled":false,"rental_uris":{"android":"levelo://app?vid=86b93c0d-abd1-4972-89e6-5d05c6e94040","ios":"levelo://app?vid=86b93c0d-abd1-4972-89e6-5d05c6e94040"},"vehicle_type_id":"4","last_reported":1680275240,"current_range_meters":5600,"station_id":"","pricing_plan_id":"free"},{"bike_id":"3e1c6d3e-9799-4a85-ab79-bb3dd8801c7b","system_id":"levelo_inurba_marseille","lat":43.2479,"lon":5.374457,"is_reserved":false,"is_disabled":false,"rental_uris":{"android":"levelo://app?vid=3e1c6d3e-9799-4a85-ab79-bb3dd8801c7b","ios":"levelo://app?vid=3e1c6d3e-9799-4a85-ab79-bb3dd8801c7b"},"vehicle_type_id":"4","last_reported":1680275240,"current_range_meters":0,"station_id":"ce4bhgh2rcd13ifvqfb0","pricing_plan_id":"free"},{"bike_id":"f7276a69-58c6-415b-9613-6ea4046f9f50","system_id":"levelo_inurba_marseille","lat":43.250023,"lon":5.38919,"is_reserved":false,"is_disabled":false,"rental_uris":{"android":"levelo://app?vid=f7276a69-58c6-415b-9613-6ea4046f9f50","ios":"levelo://app?vid=f7276a69-58c6-415b-9613-6ea4046f9f50"},"vehicle_type_id":"4","last_reported":1680275240,"current_range_meters":0,"station_id":"ce4bhgp2rcd13ifvqfd0","pricing_plan_id":"free"},{"bike_id":"431c25f5-4b0d-4ed6-92c1-2a25d6efa421","system_id":"levelo_inurba_marseille","lat":43.25111,"lon":5.4033,"is_reserved":false,"is_disabled":false,"rental_uris":{"android":"levelo://app?vid=431c25f5-4b0d-4ed6-92c1-2a25d6efa421","ios":"levelo://app?vid=431c25f5-4b0d-4ed6-92c1-2a25d6efa421"},"vehicle_type_id":"4","last_reported":1680275240,"current_range_meters":0,"station_id":"ce4bhlh2rcd13ifvqgig","pricing_plan_id":"free"},{"bike_id":"5ff9c827-60b6-4f72-a155-5c4129c312dc","system_id":"levelo_inurba_marseille","lat":43.25108,"lon":5.40324,"is_reserved":false,"is_disabled":false,"rental_uris":{"android":"levelo://app?vid=5ff9c827-60b6-4f72-a155-5c4129c312dc","ios":"levelo://app?vid=5ff9c827-60b6-4f72-a155-5c4129c312dc"},"vehicle_type_id":"4","last_reported":1680275240,"current_range_meters":21600,"station_id":"ce4bhlh2rcd13ifvqgig","pricing_plan_id":"free"},{"bike_id":"1d6b599e-4d45-431d-ad59-c63621a27348","system_id":"levelo_inurba_marseille","lat":43.246461,"lon":5.389014,"is_reserved":false,"is_disabled":false,"rental_uris":{"android":"levelo://app?vid=1d6b599e-4d45-431d-ad59-c63621a27348","ios":"levelo://app?vid=1d6b599e-4d45-431d-ad59-c63621a27348"},"vehicle_type_id":"4","last_reported":1680275240,"current_range_meters":11600,"station_id":"ce4bhg12rcd13ifvqf60","pricing_plan_id":"free"},{"bike_id":"095ab296-6847-4cda-b967-bab6afa6c447","system_id":"levelo_inurba_marseille","lat":43.245581,"lon":5.395069,"is_reserved":false,"is_disabled":false,"rental_uris":{"android":"levelo://app?vid=095ab296-6847-4cda-b967-bab6afa6c447","ios":"levelo://app?vid=095ab296-6847-4cda-b967-bab6afa6c447"},"vehicle_type_id":"4","last_reported":1680275240,"current_range_meters":16800,"station_id":"ce4bhlp2rcd13ifvqgjg","pricing_plan_id":"free"},{"bike_id":"879d2598-6798-4291-b661-bb11fecfc4f5","system_id":"levelo_inurba_marseille","lat":43.24107,"lon":5.37711,"is_reserved":false,"is_disabled":false,"rental_uris":{"android":"levelo://app?vid=879d2598-6798-4291-b661-bb11fecfc4f5","ios":"levelo://app?vid=879d2598-6798-4291-b661-bb11fecfc4f5"},"vehicle_type_id":"4","last_reported":1680275240,"current_range_meters":21600,"station_id":"","pricing_plan_id":"free"},{"bike_id":"5cba15c5-5acf-48a9-a8ee-ee7882aa7544","system_id":"levelo_inurba_marseille","lat":43.239588,"lon":5.366238,"is_reserved":false,"is_disabled":false,"rental_uris":{"android":"levelo://app?vid=5cba15c5-5acf-48a9-a8ee-ee7882aa7544","ios":"levelo://app?vid=5cba15c5-5acf-48a9-a8ee-ee7882aa7544"},"vehicle_type_id":"4","last_reported":1680275240,"current_range_meters":18400,"station_id":"ce4bhi12rcd13ifvqfp0","pricing_plan_id":"free"},{"bike_id":"2553e504-d446-41c6-b318-5052bc8255c8","system_id":"levelo_inurba_marseille","lat":43.28525,"lon":5.45999,"is_reserved":false,"is_disabled":false,"rental_uris":{"android":"levelo://app?vid=2553e504-d446-41c6-b318-5052bc8255c8","ios":"levelo://app?vid=2553e504-d446-41c6-b318-5052bc8255c8"},"vehicle_type_id":"4","last_reported":1680275240,"current_range_meters":9600,"station_id":"","pricing_plan_id":"free"},{"bike_id":"628f3fb6-e981-4bfa-ba57-942268aedb09","system_id":"levelo_inurba_marseille","lat":43.239588,"lon":5.366238,"is_reserved":false,"is_disabled":false,"rental_uris":{"android":"levelo://app?vid=628f3fb6-e981-4bfa-ba57-942268aedb09","ios":"levelo://app?vid=628f3fb6-e981-4bfa-ba57-942268aedb09"},"vehicle_type_id":"4","last_reported":1680275240,"current_range_meters":21200,"station_id":"ce4bhi12rcd13ifvqfp0","pricing_plan_id":"free"},{"bike_id":"5fe53e22-4edb-49dc-b739-a7c92fa1e5c9","system_id":"levelo_inurba_marseille","lat":43.239588,"lon":5.366238,"is_reserved":false,"is_disabled":false,"rental_uris":{"android":"levelo://app?vid=5fe53e22-4edb-49dc-b739-a7c92fa1e5c9","ios":"levelo://app?vid=5fe53e22-4edb-49dc-b739-a7c92fa1e5c9"},"vehicle_type_id":"4","last_reported":1680275240,"current_range_meters":18400,"station_id":"ce4bhi12rcd13ifvqfp0","pricing_plan_id":"free"},{"bike_id":"6d0a59fe-45cc-4afd-9e9b-7d7f9db24631","system_id":"levelo_inurba_marseille","lat":43.241782,"lon":5.397264,"is_reserved":false,"is_disabled":false,"rental_uris":{"android":"levelo://app?vid=6d0a59fe-45cc-4afd-9e9b-7d7f9db24631","ios":"levelo://app?vid=6d0a59fe-45cc-4afd-9e9b-7d7f9db24631"},"vehicle_type_id":"4","last_reported":1680275240,"current_range_meters":400,"station_id":"ce4bhn12rcd13ifvqgpg","pricing_plan_id":"free"},{"bike_id":"59e06b71-edd3-4d8f-bc18-6146a6a6ce2b","system_id":"levelo_inurba_marseille","lat":43.241782,"lon":5.397261,"is_reserved":false,"is_disabled":false,"rental_uris":{"android":"levelo://app?vid=59e06b71-edd3-4d8f-bc18-6146a6a6ce2b","ios":"levelo://app?vid=59e06b71-edd3-4d8f-bc18-6146a6a6ce2b"},"vehicle_type_id":"4","last_reported":1680275240,"current_range_meters":31200,"station_id":"ce4bhn12rcd13ifvqgpg","pricing_plan_id":"free"},{"bike_id":"2ef8b81a-fac4-445d-8673-602e5b515029","system_id":"levelo_inurba_marseille","lat":43.241782,"lon":5.397261,"is_reserved":false,"is_disabled":false,"rental_uris":{"android":"levelo://app?vid=2ef8b81a-fac4-445d-8673-602e5b515029","ios":"levelo://app?vid=2ef8b81a-fac4-445d-8673-602e5b515029"},"vehicle_type_id":"4","last_reported":1680275240,"current_range_meters":22000,"station_id":"ce4bhn12rcd13ifvqgpg","pricing_plan_id":"free"},{"bike_id":"fc78ac5c-d4b0-4ca2-8299-1bb78669aa2d","system_id":"levelo_inurba_marseille","lat":43.24174,"lon":5.39723,"is_reserved":false,"is_disabled":false,"rental_uris":{"android":"levelo://app?vid=fc78ac5c-d4b0-4ca2-8299-1bb78669aa2d","ios":"levelo://app?vid=fc78ac5c-d4b0-4ca2-8299-1bb78669aa2d"},"vehicle_type_id":"4","last_reported":1680275240,"current_range_meters":0,"station_id":"","pricing_plan_id":"free"},{"bike_id":"d1cdfa87-a455-4126-a92b-37664bfa9276","system_id":"levelo_inurba_marseille","lat":43.24561,"lon":5.41521,"is_reserved":false,"is_disabled":false,"rental_uris":{"android":"levelo://app?vid=d1cdfa87-a455-4126-a92b-37664bfa9276","ios":"levelo://app?vid=d1cdfa87-a455-4126-a92b-37664bfa9276"},"vehicle_type_id":"4","last_reported":1680275240,"current_range_meters":14800,"station_id":"","pricing_plan_id":"free"},{"bike_id":"8d7d7947-0011-460b-8752-4f115727b2e8","system_id":"levelo_inurba_marseille","lat":43.232,"lon":5.35557,"is_reserved":false,"is_disabled":false,"rental_uris":{"android":"levelo://app?vid=8d7d7947-0011-460b-8752-4f115727b2e8","ios":"levelo://app?vid=8d7d7947-0011-460b-8752-4f115727b2e8"},"vehicle_type_id":"4","last_reported":1680275240,"current_range_meters":16000,"station_id":"ce4bhu92rcd13ifvqi70","pricing_plan_id":"free"},{"bike_id":"3fde6099-5a7e-42fc-a00d-200b5b132fca","system_id":"levelo_inurba_marseille","lat":43.23187,"lon":5.35556,"is_reserved":false,"is_disabled":false,"rental_uris":{"android":"levelo://app?vid=3fde6099-5a7e-42fc-a00d-200b5b132fca","ios":"levelo://app?vid=3fde6099-5a7e-42fc-a00d-200b5b132fca"},"vehicle_type_id":"4","last_reported":1680275240,"current_range_meters":6400,"station_id":"ce4bhu92rcd13ifvqi70","pricing_plan_id":"free"}]}}