{"last_updated":1687701983,"ttl":30,"version":"2.2","data":{"bikes":[{"bike_id":"6ac973d1-0fd0-4004-bd85-8198772c3f37","system_id":"levelo_inurba_marseille","lat":43.312239,"lon":5.368562,"is_reserved":false,"is_disabled":false,"rental_uris":{"android":"levelo://app?vid=6ac973d1-0fd0-4004-bd85-8198772c3f37","ios":"levelo://app?vid=6ac973d1-0fd0-4004-bd85-8198772c3f37"},"vehicle_type_id":"4","last_reported":1687701985,"current_range_meters":18000,"station_id":"ce4bgl92rcd13ifvqbq0","pricing_plan_id":"free"},{"bike_id":"276e7b8d-ee44-4db7-b56a-117e20512853","system_id":"levelo_inurba_marseille","lat":43.312239,"lon":5.368562,"is_reserved":false,"is_disabled":false,"rental_uris":{"android":"levelo://app?vid=276e7b8d-ee44-4db7-b56a-117e20512853","ios":"levelo://app?vid=276e7b8d-ee44-4db7-b56a-117e20512853"},"vehicle_type_id":"4","last_reported":1687701985,"current_range_meters":6400,"station_id":"ce4bgl92rcd13ifvqbq0","pricing_plan_id":"free"},{"bike_id":"8a347efc-28d5-4edc-a3ec-6261d6c1b5ba","system_id":"levelo_inurba_marseille","lat":43.312239,"lon":5.368562,"is_reserved":false,"is_disabled":false,"rental_uris":{"android":"levelo://app?vid=8a347efc-28d5-4edc-a3ec-6261d6c1b5ba","ios":"levelo://app?vid=8a347efc-28d5-4edc-a3ec-6261d6c1b5ba"},"vehicle_type_id":"4","last_reported":1687701985,"current_range_meters":29600,"station_id":"ce4bgl92rcd13ifvqbq0","pricing_plan_id":"free"},{"bike_id":"574b0a1c-fec8-48b0-8d9f-4fee07673be3","system_id":"levelo_inurba_marseille","lat":43.31237,"lon":5.36922,"is_reserved":false,"is_disabled":false,"rental_uris":{"android":"levelo://app?vid=574b0a1c-fec8-48b0-8d9f-4fee07673be3","ios":"levelo://app?vid=574b0a1c-fec8-48b0-8d9f-4fee07673be3"},"vehicle_type_id":"4","last_reported":1687701985,"current_range_meters":20000,"station_id":"","pricing_plan_id":"free"},{"bike_id":"c378b8d8-9da3-4bef-b44a-2ace2d68e740","system_id":"levelo_inurba_marseille","lat":43.305712,"lon":5.365641,"is_reserved":false,"is_disabled":false,"rental_uris":{"android":"levelo://app?vid=c378b8d8-9da3-4bef-b44a-2ace2d68e740","ios":"levelo://app?vid=c378b8d8-9da3-4bef-b44a-2ace2d68e740"},"vehicle_type_id":"4","last_reported":1687701985,"current_range_meters":4800,"station_id":"ce4bgs12rcd13ifvqcag","pricing_plan_id":"free"},{"bike_id":"3959bbd4-9083-4f84-ac77-dc8a31146a4b","system_id":"levelo_inurba_marseille","lat":43.305706,"lon":5.365654,"is_reserved":false,"is_disabled":false,"rental_uris":{"android":"levelo://app?vid=3959bbd4-9083-4f84-ac77-dc8a31146a4b","ios":"levelo://app?vid=3959bbd4-9083-4f84-ac77-dc8a31146a4b"},"vehicle_type_id":"4","last_reported":1687701985,"current_range_meters":22400,"station_id":"ce4bgs12rcd13ifvqcag","pricing_plan_id":"free"},{"bike_id":"d68185e1-056e-4737-a111-d8b2dba828a4","system_id":"levelo_inurba_marseille","lat":43.311131,"lon":5.377651,"is_reserved":false,"is_disabled":false,"rental_uris":{"android":"levelo://app?vid=d68185e1-056e-4737-a111-d8b2dba828a4","ios":"levelo://app?vid=d68185e1-056e-4737-a111-d8b2dba828a4"},"vehicle_type_id":"4","last_reported":1687701985,"current_range_meters":24400,"station_id":"ce4bgt92rcd13ifvqcg0","pricing_plan_id":"free"},{"bike_id":"d95b4636-e0f8-420d-8f47-373b792adb74","system_id":"levelo_inurba_marseille","lat":43.30591,"lon":5.37492,"is_reserved":false,"is_disabled":false,"rental_uris":{"android":"levelo://app?vid=d95b4636-e0f8-420d-8f47-373b792adb74","ios":"levelo://app?vid=d95b4636-e0f8-420d-8f47-373b792adb74"},"vehicle_type_id":"4","last_reported":1687701985,"current_range_meters":22000,"station_id":"","pricing_plan_id":"free"},{"bike_id":"cb8b1387-d8af-42e0-b4a9-acc526dd9ff5","system_id":"levelo_inurba_marseille","lat":43.31775,"lon":5.37781,"is_reserved":false,"is_disabled":false,"rental_uris":{"android":"levelo://app?vid=cb8b1387-d8af-42e0-b4a9-acc526dd9ff5","ios":"levelo://app?vid=cb8b1387-d8af-42e0-b4a9-acc526dd9ff5"},"vehicle_type_id":"4","last_reported":1687701985,"current_range_meters":23600,"station_id":"","pricing_plan_id":"free"},{"bike_id":"791f8e7a-ba14-45ea-a790-243909683cf5","system_id":"levelo_inurba_marseille","lat":43.303046,"lon":5.368981,"is_reserved":false,"is_disabled":false,"rental_uris":{"android":"levelo://app?vid=791f8e7a-ba14-45ea-a790-243909683cf5","ios":"levelo://app?vid=791f8e7a-ba14-45ea-a790-243909683cf5"},"vehicle_type_id":"4","last_reported":1687701985,"current_range_meters":22800,"station_id":"ce4bgqh2rcd13ifvqc5g","pricing_plan_id":"free"},{"bike_id":"09d61957-021e-4adf-90ac-ecb240e5d449","system_id":"levelo_inurba_marseille","lat":43.303046,"lon":5.368981,"is_reserved":false,"is_disabled":false,"rental_uris":{"android":"levelo://app?vid=09d61957-021e-4adf-90ac-ecb240e5d449","ios":"levelo://app?vid=09d61957-021e-4adf-90ac-ecb240e5d449"},"vehicle_type_id":"4","last_reported":1687701985,"current_range_meters":27200,"station_id":"ce4bgqh2rcd13ifvqc5g","pricing_plan_id":"free"},{"bike_id":"f1b68414-b8ac-4183-a999-0bfa20e50c47","system_id":"levelo_inurba_marseille","lat":43.315289,"lon":5.380349,"is_reserved":false,"is_disabled":false,"rental_uris":{"android":"levelo://app?vid=f1b68414-b8ac-4183-a999-0bfa20e50c47","ios":"levelo://app?vid=f1b68414-b8ac-4183-a999-0bfa20e50c47"},"vehicle_type_id":"4","last_reported":1687701985,"current_range_meters":17200,"station_id":"ce4bhsp2rcd13ifvqi50","pricing_plan_id":"free"},{"bike_id":"923d8300-f1a4-4e55-9860-17fac09e1efc","system_id":"levelo_inurba_marseille","lat":43.315289,"lon":5.380349,"is_reserved":false,"is_disabled":false,"rental_uris":{"android":"levelo://app?vid=923d8300-f1a4-4e55-9860-17fac09e1efc","ios":"levelo://app?vid=923d8300-f1a4-4e55-9860-17fac09e1efc"},"vehicle_type_id":"4","last_reported":1687701985,"current_range_meters":28400,"station_id":"ce4bhsp2rcd13ifvqi50","pricing_plan_id":"free"},{"bike_id":"6923d93a-8778-47a0-8c72-25449f608c18","system_id":"levelo_inurba_marseille","lat":43.315289,"lon":5.380349,"is_reserved":false,"is_disabled":false,"rental_uris":{"android":"levelo://app?vid=6923d93a-8778-47a0-8c72-25449f608c18","ios":"levelo://app?vid=6923d93a-8778-47a0-8c72-25449f608c18"},"vehicle_type_id":"4","last_reported":1687701985,"current_range_meters":21600,"station_id":"ce4bhsp2rcd13ifvqi50","pricing_plan_id":"free"},{"bike_id":"a37588e9-c728-4665-85cd-5420e2b40bb7","system_id":"levelo_inurba_marseille","lat":43.301939,"lon":5.366286,"is_reserved":false,"is_disabled":false,"rental_uris":{"android":"levelo://app?vid=a37588e9-c728-4665-85cd-5420e2b40bb7","ios":"levelo://app?vid=a37588e9-c728-4665-85cd-5420e2b40bb7"},"vehicle_type_id":"4","last_reported":1687701985,"current_range_meters":30000,"station_id":"ce4bgrh2rcd13ifvqc8g","pricing_plan_id":"free"},{"bike_id":"e08ddbc7-48dc-4633-86c3-a90a062dc11a","system_id":"levelo_inurba_marseille","lat":43.301939,"lon":5.366286,"is_reserved":false,"is_disabled":false,"rental_uris":{"android":"levelo://app?vid=e08ddbc7-48dc-4633-86c3-a90a062dc11a","ios":"levelo://app?vid=e08ddbc7-48dc-4633-86c3-a90a062dc11a"},"vehicle_type_id":"4","last_reported":1687701985,"current_range_meters":26000,"station_id":"ce4bgrh2rcd13ifvqc8g","pricing_plan_id":"free"},{"bike_id":"7961c058-6bbf-43fe-9e62-f3ba9264f471","system_id":"levelo_inurba_marseille","lat":43.3027,"lon":5.37358,"is_reserved":false,"is_disabled":false,"rental_uris":{"android":"levelo://app?vid=7961c058-6bbf-43fe-9e62-f3ba9264f471","ios":"levelo://app?vid=7961c058-6bbf-43fe-9e62-f3ba9264f471"},"vehicle_type_id":"4","last_reported":1687701985,"current_range_meters":4800,"station_id":"","pricing_plan_id":"free"},{"bike_id":"fa373139-8aa1-4d32-b333-d34cc9522b35","system_id":"levelo_inurba_marseille","lat":43.30807,"lon":5.38142,"is_reserved":false,"is_disabled":false,"rental_uris":{"android":"levelo://app?vid=fa373139-8aa1-4d32-b333-d34cc9522b35","ios":"levelo://app?vid=fa373139-8aa1-4d32-b333-d34cc9522b35"},"vehicle_type_id":"4","last_reported":1687701985,"current_range_meters":10000,"station_id":"ce4bgt12rcd13ifvqce0","pricing_plan_id":"free"},{"bike_id":"c4e06ae9-7afa-4564-95a8-d92d55fd18e9","system_id":"levelo_inurba_marseille","lat":43.30143,"lon":5.37413,"is_reserved":false,"is_disabled":false,"rental_uris":{"android":"levelo://app?vid=c4e06ae9-7afa-4564-95a8-d92d55fd18e9","ios":"levelo://app?vid=c4e06ae9-7afa-4564-95a8-d92d55fd18e9"},"vehicle_type_id":"4","last_reported":1687701985,"current_range_meters":13200,"station_id":"ce4bgs92rcd13ifvqcc0","pricing_plan_id":"free"},{"bike_id":"e5564a1b-7eaa-42d7-9eac-0b69cc97b61e","system_id":"levelo_inurba_marseille","lat":43.319935,"lon":5.381699,"is_reserved":false,"is_disabled":false,"rental_uris":{"android":"levelo://app?vid=e5564a1b-7eaa-42d7-9eac-0b69cc97b61e","ios":"levelo://app?vid=e5564a1b-7eaa-42d7-9eac-0b69cc97b61e"},"vehicle_type_id":"4","last_reported":1687701985,"current_range_meters":15600,"station_id":"ce4bhr12rcd13ifvqhpg","pricing_plan_id":"free"},{"bike_id":"25bcc21c-84b0-43f8-8ed1-2713382bd734","system_id":"levelo_inurba_marseille","lat":43.319935,"lon":5.381699,"is_reserved":false,"is_disabled":false,"rental_uris":{"android":"levelo://app?vid=25bcc21c-84b0-43f8-8ed1-2713382bd734","ios":"levelo://app?vid=25bcc21c-84b0-43f8-8ed1-2713382bd734"},"vehicle_type_id":"4","last_reported":1687701985,"current_range_meters":22800,"station_id":"ce4bhr12rcd13ifvqhpg","pricing_plan_id":"free"},{"bike_id":"7e9a47a8-5d6c-4e19-9cd5-24ee65ebc02d","system_id":"levelo_inurba_marseille","lat":43.319935,"lon":5.381699,"is_reserved":false,"is_disabled":false,"rental_uris":{"android":"levelo://app?vid=7e9a47a8-5d6c-4e19-9cd5-24ee65ebc02d","ios":"levelo://app?vid=7e9a47a8-5d6c-4e19-9cd5-24ee65ebc02d"},"vehicle_type_id":"4","last_reported":1687701985,"current_range_meters":28000,"station_id":"ce4bhr12rcd13ifvqhpg","pricing_plan_id":"free"},{"bike_id":"9fb2af00-a3bb-4d59-9a9c-bf6fb58d47f0","system_id":"levelo_inurba_marseille","lat":43.319935,"lon":5.381699,"is_reserved":false,"is_disabled":false,"rental_uris":{"android":"levelo://app?vid=9fb2af00-a3bb-4d59-9a9c-bf6fb58d47f0","ios":"levelo://app?vid=9fb2af00-a3bb-4d59-9a9c-bf6fb58d47f0"},"vehicle_type_id":"4","last_reported":1687701985,"current_range_meters":30400,"station_id":"ce4bhr12rcd13ifvqhpg","pricing_plan_id":"free"},{"bike_id":"8d8e0424-a554-44d1-aac7-2925f426b147","system_id":"levelo_inurba_marseille","lat":43.319935,"lon":5.381699,"is_reserved":false,"is_disabled":false,"rental_uris":{"android":"levelo://app?vid=8d8e0424-a554-44d1-aac7-2925f426b147","ios":"levelo://app?vid=8d8e0424-a554-44d1-aac7-2925f426b147"},"vehicle_type_id":"4","last_reported":1687701985,"current_range_meters":7200,"station_id":"ce4bhr12rcd13ifvqhpg","pricing_plan_id":"free"},{"bike_id":"885fb6ec-a6a0-4881-8d5b-a8e74141b88d","system_id":"levelo_inurba_marseille","lat":43.31355,"lon":5.38505,"is_reserved":false,"is_disabled":false,"rental_uris":{"android":"levelo://app?vid=885fb6ec-a6a0-4881-8d5b-a8e74141b88d","ios":"levelo://app?vid=885fb6ec-a6a0-4881-8d5b-a8e74141b88d"},"vehicle_type_id":"4","last_reported":1687701985,"current_range_meters":30800,"station_id":"ce4bgt92rcd13ifvqcf0","pricing_plan_id":"free"},{"bike_id":"b820c8a4-b70a-4a92-90b3-88318cc85073","system_id":"levelo_inurba_marseille","lat":43.305364,"lon":5.384119,"is_reserved":false,"is_disabled":false,"rental_uris":{"android":"levelo://app?vid=b820c8a4-b70a-4a92-90b3-88318cc85073","ios":"levelo://app?vid=b820c8a4-b70a-4a92-90b3-88318cc85073"},"vehicle_type_id":"4","last_reported":1687701985,"current_range_meters":13600,"station_id":"ce4bgg92rcd13ifvqb30","pricing_plan_id":"free"},{"bike_id":"19f0f006-a4c6-4323-8808-932d44817a26","system_id":"levelo_inurba_marseille","lat":43.299243,"lon":5.374807,"is_reserved":false,"is_disabled":false,"rental_uris":{"android":"levelo://app?vid=19f0f006-a4c6-4323-8808-932d44817a26","ios":"levelo://app?vid=19f0f006-a4c6-4323-8808-932d44817a26"},"vehicle_type_id":"4","last_reported":1687701985,"current_range_meters":11200,"station_id":"ce4bgjh2rcd13ifvqbg0","pricing_plan_id":"free"},{"bike_id":"9a801f5a-6fa2-493e-b1f8-4df246763c97","system_id":"levelo_inurba_marseille","lat":43.311722,"lon":5.387247,"is_reserved":false,"is_disabled":false,"rental_uris":{"android":"levelo://app?vid=9a801f5a-6fa2-493e-b1f8-4df246763c97","ios":"levelo://app?vid=9a801f5a-6fa2-493e-b1f8-4df246763c97"},"vehicle_type_id":"4","last_reported":1687701985,"current_range_meters":31600,"station_id":"ce4bgv12rcd13ifvqcp0","pricing_plan_id":"free"},{"bike_id":"19cd211b-f408-43f1-8a73-c43ca209775e","system_id":"levelo_inurba_marseille","lat":43.299243,"lon":5.374807,"is_reserved":false,"is_disabled":false,"rental_uris":{"android":"levelo://app?vid=19cd211b-f408-43f1-8a73-c43ca209775e","ios":"levelo://app?vid=19cd211b-f408-43f1-8a73-c43ca209775e"},"vehicle_type_id":"4","last_reported":1687701985,"current_range_meters":25600,"station_id":"ce4bgjh2rcd13ifvqbg0","pricing_plan_id":"free"},{"bike_id":"27a7cca0-c3e5-48d1-9e07-28712fd1b9e6","system_id":"levelo_inurba_marseille","lat":43.299243,"lon":5.37481,"is_reserved":false,"is_disabled":false,"rental_uris":{"android":"levelo://app?vid=27a7cca0-c3e5-48d1-9e07-28712fd1b9e6","ios":"levelo://app?vid=27a7cca0-c3e5-48d1-9e07-28712fd1b9e6"},"vehicle_type_id":"4","last_reported":1687701985,"current_range_meters":22000,"station_id":"ce4bgjh2rcd13ifvqbg0","pricing_plan_id":"free"},{"bike_id":"6c8d56ce-9ac9-41a3-ba44-da598832c782","system_id":"levelo_inurba_marseille","lat":43.299243,"lon":5.37481,"is_reserved":false,"is_disabled":false,"rental_uris":{"android":"levelo://app?vid=6c8d56ce-9ac9-41a3-ba44-da598832c782","ios":"levelo://app?vid=6c8d56ce-9ac9-41a3-ba44-da598832c782"},"vehicle_type_id":"4","last_reported":1687701985,"current_range_meters":26400,"station_id":"ce4bgjh2rcd13ifvqbg0","pricing_plan_id":"free"},{"bike_id":"b32aebf3-2b9e-43b9-9bb1-60776cc5db4f","system_id":"levelo_inurba_marseille","lat":43.3117,"lon":5.38724,"is_reserved":false,"is_disabled":false,"rental_uris":{"android":"levelo://app?vid=b32aebf3-2b9e-43b9-9bb1-60776cc5db4f","ios":"levelo://app?vid=b32aebf3-2b9e-43b9-9bb1-60776cc5db4f"},"vehicle_type_id":"4","last_reported":1687701985,"current_range_meters":24800,"station_id":"ce4bgv12rcd13ifvqcp0","pricing_plan_id":"free"},{"bike_id":"1580a472-182f-4d91-8a6c-4c3a23a9c034","system_id":"levelo_inurba_marseille","lat":43.302,"lon":5.3821,"is_reserved":false,"is_disabled":false,"rental_uris":{"android":"levelo://app?vid=1580a472-182f-4d91-8a6c-4c3a23a9c034","ios":"levelo://app?vid=1580a472-182f-4d91-8a6c-4c3a23a9c034"},"vehicle_type_id":"4","last_reported":1687701985,"current_range_meters":13200,"station_id":"","pricing_plan_id":"free"},{"bike_id":"cbdd73a9-8831-4dab-9e8d-2ce4e630f6d2","system_id":"levelo_inurba_marseille","lat":43.328371,"lon":5.366909,"is_reserved":false,"is_disabled":false,"rental_uris":{"android":"levelo://app?vid=cbdd73a9-8831-4dab-9e8d-2ce4e630f6d2","ios":"levelo://app?vid=cbdd73a9-8831-4dab-9e8d-2ce4e630f6d2"},"vehicle_type_id":"4","last_reported":1687701985,"current_range_meters":26400,"station_id":"ce4bhs92rcd13ifvqi0g","pricing_plan_id":"free"},{"bike_id":"84310711-9ffd-45bf-a8e1-79683581878e","system_id":"levelo_inurba_marseille","lat":43.328371,"lon":5.366909,"is_reserved":false,"is_disabled":false,"rental_uris":{"android":"levelo://app?vid=84310711-9ffd-45bf-a8e1-79683581878e","ios":"levelo://app?vid=84310711-9ffd-45bf-a8e1-79683581878e"},"vehicle_type_id":"4","last_reported":1687701985,"current_range_meters":22000,"station_id":"ce4bhs92rcd13ifvqi0g","pricing_plan_id":"free"},{"bike_id":"fa75de9b-bf38-4a3f-a7a0-ea6376d7c028","system_id":"levelo_inurba_marseille","lat":43.328371,"lon":5.366909,"is_reserved":false,"is_disabled":false,"rental_uris":{"android":"levelo://app?vid=fa75de9b-bf38-4a3f-a7a0-ea6376d7c028","ios":"levelo://app?vid=fa75de9b-bf38-4a3f-a7a0-ea6376d7c028"},"vehicle_type_id":"4","last_reported":1687701985,"current_range_meters":26800,"station_id":"ce4bhs92rcd13ifvqi0g","pricing_plan_id":"free"},{"bike_id":"bbcba801-aef7-4aaa-8356-84ee79ef2b85","system_id":"levelo_inurba_marseille","lat":43.328371,"lon":5.366909,"is_reserved":false,"is_disabled":false,"rental_uris":{"android":"levelo://app?vid=bbcba801-aef7-4aaa-8356-84ee79ef2b85","ios":"levelo://app?vid=bbcba801-aef7-4aaa-8356-84ee79ef2b85"},"vehicle_type_id":"4","last_reported":1687701985,"current_range_meters":24400,"station_id":"ce4bhs92rcd13ifvqi0g","pricing_plan_id":"free"},{"bike_id":"6c6205e5-5698-4933-afb2-7335e6b4ae8b","system_id":"levelo_inurba_marseille","lat":43.32833,"lon":5.36684,"is_reserved":false,"is_disabled":false,"rental_uris":{"android":"levelo://app?vid=6c6205e5-5698-4933-afb2-7335e6b4ae8b","ios":"levelo://app?vid=6c6205e5-5698-4933-afb2-7335e6b4ae8b"},"vehicle_type_id":"4","last_reported":1687701985,"current_range_meters":4800,"station_id":"ce4bhs92rcd13ifvqi0g","pricing_plan_id":"free"},{"bike_id":"dd0a6546-b8f4-4620-ae02-5768d70d2dbe","system_id":"levelo_inurba_marseille","lat":43.32834,"lon":5.36696,"is_reserved":false,"is_disabled":false,"rental_uris":{"android":"levelo://app?vid=dd0a6546-b8f4-4620-ae02-5768d70d2dbe","ios":"levelo://app?vid=dd0a6546-b8f4-4620-ae02-5768d70d2dbe"},"vehicle_type_id":"4","last_reported":1687701985,"current_range_meters":22000,"station_id":"ce4bhs92rcd13ifvqi0g","pricing_plan_id":"free"},{"bike_id":"8b17aad1-d072-4063-bcd5-d1dd5ac05981","system_id":"levelo_inurba_marseille","lat":43.32834,"lon":5.36689,"is_reserved":false,"is_disabled":false,"rental_uris":{"android":"levelo://app?vid=8b17aad1-d072-4063-bcd5-d1dd5ac05981","ios":"levelo://app?vid=8b17aad1-d072-4063-bcd5-d1dd5ac05981"},"vehicle_type_id":"4","last_reported":1687701985,"current_range_meters":30400,"station_id":"ce4bhs92rcd13ifvqi0g","pricing_plan_id":"free"},{"bike_id":"9823f69b-7618-447c-88b9-9a8290da0996","system_id":"levelo_inurba_marseille","lat":43.32834,"lon":5.36683,"is_reserved":false,"is_disabled":false,"rental_uris":{"android":"levelo://app?vid=9823f69b-7618-447c-88b9-9a8290da0996","ios":"levelo://app?vid=9823f69b-7618-447c-88b9-9a8290da0996"},"vehicle_type_id":"4","last_reported":1687701985,"current_range_meters":10000,"station_id":"ce4bhs92rcd13ifvqi0g","pricing_plan_id":"free"},{"bike_id":"8cd194c3-4946-47d4-8472-6a93aa928d08","system_id":"levelo_inurba_marseille","lat":43.32834,"lon":5.36681,"is_reserved":false,"is_disabled":false,"rental_uris":{"android":"levelo://app?vid=8cd194c3-4946-47d4-8472-6a93aa928d08","ios":"levelo://app?vid=8cd194c3-4946-47d4-8472-6a93aa928d08"},"vehicle_type_id":"4","last_reported":1687701985,"current_range_meters":25600,"station_id":"ce4bhs92rcd13ifvqi0g","pricing_plan_id":"free"},{"bike_id":"5ff46439-b446-4022-b673-e754ffaf071b","system_id":"levelo_inurba_marseille","lat":43.32835,"lon":5.36693,"is_reserved":false,"is_disabled":false,"rental_uris":{"android":"levelo://app?vid=5ff46439-b446-4022-b673-e754ffaf071b","ios":"levelo://app?vid=5ff46439-b446-4022-b673-e754ffaf071b"},"vehicle_type_id":"4","last_reported":1687701985,"current_range_meters":5600,"station_id":"ce4bhs92rcd13ifvqi0g","pricing_plan_id":"free"},{"bike_id":"8d98417a-cbe4-4269-8bc9-598373a7d5de","system_id":"levelo_inurba_marseille","lat":43.32851,"lon":5.36283,"is_reserved":false,"is_disabled":false,"rental_uris":{"android":"levelo://app?vid=8d98417a-cbe4-4269-8bc9-598373a7d5de","ios":"levelo://app?vid=8d98417a-cbe4-4269-8bc9-598373a7d5de"},"vehicle_type_id":"4","last_reported":1687701985,"current_range_meters":17200,"station_id":"","pricing_plan_id":"free"},{"bike_id":"041bc147-ef2f-419b-bb81-deca3bdf89e2","system_id":"levelo_inurba_marseille","lat":43.29611,"lon":5.36046,"is_reserved":false,"is_disabled":false,"rental_uris":{"android":"levelo://app?vid=041bc147-ef2f-419b-bb81-deca3bdf89e2","ios":"levelo://app?vid=041bc147-ef2f-419b-bb81-deca3bdf89e2"},"vehicle_type_id":"4","last_reported":1687701985,"current_range_meters":2800,"station_id":"","pricing_plan_id":"free"},{"bike_id":"224c028f-a592-4ad7-9791-23dcf0b80975","system_id":"levelo_inurba_marseille","lat":43.29565,"lon":5.37507,"is_reserved":false,"is_disabled":false,"rental_uris":{"android":"levelo://app?vid=224c028f-a592-4ad7-9791-23dcf0b80975","ios":"levelo://app?vid=224c028f-a592-4ad7-9791-23dcf0b80975"},"vehicle_type_id":"4","last_reported":1687701985,"current_range_meters":1200,"station_id":"ce4bgh92rcd13ifvqb50","pricing_plan_id":"free"},{"bike_id":"0b35e864-f406-4b19-953e-96ee17375ef7","system_id":"levelo_inurba_marseille","lat":43.299724,"lon":5.384848,"is_reserved":false,"is_disabled":false,"rental_uris":{"android":"levelo://app?vid=0b35e864-f406-4b19-953e-96ee17375ef7","ios":"levelo://app?vid=0b35e864-f406-4b19-953e-96ee17375ef7"},"vehicle_type_id":"4","last_reported":1687701985,"current_range_meters":1600,"station_id":"ce4bgj92rcd13ifvqbd0","pricing_plan_id":"free"},{"bike_id":"6eaffe6f-c6d9-4f2f-b792-2cd016c58781","system_id":"levelo_inurba_marseille","lat":43.29965,"lon":5.3849,"is_reserved":false,"is_disabled":false,"rental_uris":{"android":"levelo://app?vid=6eaffe6f-c6d9-4f2f-b792-2cd016c58781","ios":"levelo://app?vid=6eaffe6f-c6d9-4f2f-b792-2cd016c58781"},"vehicle_type_id":"4","last_reported":1687701985,"current_range_meters":4000,"station_id":"ce4bgj92rcd13ifvqbd0","pricing_plan_id":"free"},{"bike_id":"c0979360-e241-4fb4-ac11-2a5bb4c48506","system_id":"levelo_inurba_marseille","lat":43.295279,"lon":5.375048,"is_reserved":false,"is_disabled":false,"rental_uris":{"android":"levelo://app?vid=c0979360-e241-4fb4-ac11-2a5bb4c48506","ios":"levelo://app?vid=c0979360-e241-4fb4-ac11-2a5bb4c48506"},"vehicle_type_id":"4","last_reported":1687701985,"current_range_meters":15200,"station_id":"ce4bgkp2rcd13ifvqbmg","pricing_plan_id":"free"},{"bike_id":"f3c776a8-73f4-4518-a03d-f5a0d54e336d","system_id":"levelo_inurba_marseille","lat":43.299724,"lon":5.384848,"is_reserved":false,"is_disabled":false,"rental_uris":{"android":"levelo://app?vid=f3c776a8-73f4-4518-a03d-f5a0d54e336d","ios":"levelo://app?vid=f3c776a8-73f4-4518-a03d-f5a0d54e336d"},"vehicle_type_id":"4","last_reported":1687701985,"current_range_meters":3600,"station_id":"ce4bgj92rcd13ifvqbd0","pricing_plan_id":"free"},{"bike_id":"c506a433-7813-48ae-9235-f43fc68a8f88","system_id":"levelo_inurba_marseille","lat":43.29671,"lon":5.38041,"is_reserved":false,"is_disabled":false,"rental_uris":{"android":"levelo://app?vid=c506a433-7813-48ae-9235-f43fc68a8f88","ios":"levelo://app?vid=c506a433-7813-48ae-9235-f43fc68a8f88"},"vehicle_type_id":"4","last_reported":1687701985,"current_range_meters":8800,"station_id":"","pricing_plan_id":"free"},{"bike_id":"01d8a3fe-f044-4375-a24b-ffb33a3bd8a2","system_id":"levelo_inurba_marseille","lat":43.32367,"lon":5.388836,"is_reserved":false,"is_disabled":false,"rental_uris":{"android":"levelo://app?vid=01d8a3fe-f044-4375-a24b-ffb33a3bd8a2","ios":"levelo://app?vid=01d8a3fe-f044-4375-a24b-ffb33a3bd8a2"},"vehicle_type_id":"4","last_reported":1687701985,"current_range_meters":14400,"station_id":"ce4bhqp2rcd13ifvqhog","pricing_plan_id":"free"},{"bike_id":"e3085179-ee64-434f-a764-8e3e86754a37","system_id":"levelo_inurba_marseille","lat":43.32367,"lon":5.388836,"is_reserved":false,"is_disabled":false,"rental_uris":{"android":"levelo://app?vid=e3085179-ee64-434f-a764-8e3e86754a37","ios":"levelo://app?vid=e3085179-ee64-434f-a764-8e3e86754a37"},"vehicle_type_id":"4","last_reported":1687701985,"current_range_meters":19200,"station_id":"ce4bhqp2rcd13ifvqhog","pricing_plan_id":"free"},{"bike_id":"dcea00dd-79ea-4358-82a6-00f5076fad6d","system_id":"levelo_inurba_marseille","lat":43.32367,"lon":5.388836,"is_reserved":false,"is_disabled":false,"rental_uris":{"android":"levelo://app?vid=dcea00dd-79ea-4358-82a6-00f5076fad6d","ios":"levelo://app?vid=dcea00dd-79ea-4358-82a6-00f5076fad6d"},"vehicle_type_id":"4","last_reported":1687701985,"current_range_meters":20400,"station_id":"ce4bhqp2rcd13ifvqhog","pricing_plan_id":"free"},{"bike_id":"8d20ae28-ced1-4c37-96de-ca9a2a802825","system_id":"levelo_inurba_marseille","lat":43.32367,"lon":5.388836,"is_reserved":false,"is_disabled":false,"rental_uris":{"android":"levelo://app?vid=8d20ae28-ced1-4c37-96de-ca9a2a802825","ios":"levelo://app?vid=8d20ae28-ced1-4c37-96de-ca9a2a802825"},"vehicle_type_id":"4","last_reported":1687701985,"current_range_meters":12400,"station_id":"ce4bhqp2rcd13ifvqhog","pricing_plan_id":"free"},{"bike_id":"75f84c0e-07de-482f-9c11-b7dfca9d3445","system_id":"levelo_inurba_marseille","lat":43.32367,"lon":5.388836,"is_reserved":false,"is_disabled":false,"rental_uris":{"android":"levelo://app?vid=75f84c0e-07de-482f-9c11-b7dfca9d3445","ios":"levelo://app?vid=75f84c0e-07de-482f-9c11-b7dfca9d3445"},"vehicle_type_id":"4","last_reported":1687701985,"current_range_meters":12800,"station_id":"ce4bhqp2rcd13ifvqhog","pricing_plan_id":"free"},{"bike_id":"5f668608-40ac-42e4-8a56-c5afc74b86cc","system_id":"levelo_inurba_marseille","lat":43.32367,"lon":5.388836,"is_reserved":false,"is_disabled":false,"rental_uris":{"android":"levelo://app?vid=5f668608-40ac-42e4-8a56-c5afc74b86cc","ios":"levelo://app?vid=5f668608-40ac-42e4-8a56-c5afc74b86cc"},"vehicle_type_id":"4","last_reported":1687701985,"current_range_meters":29600,"station_id":"ce4bhqp2rcd13ifvqhog","pricing_plan_id":"free"},{"bike_id":"21c68bbf-d214-4461-a0f9-c6a8fcf344b4","system_id":"levelo_inurba_marseille","lat":43.32367,"lon":5.388836,"is_reserved":false,"is_disabled":false,"rental_uris":{"android":"levelo://app?vid=21c68bbf-d214-4461-a0f9-c6a8fcf344b4","ios":"levelo://app?vid=21c68bbf-d214-4461-a0f9-c6a8fcf344b4"},"vehicle_type_id":"4","last_reported":1687701985,"current_range_meters":0,"station_id":"ce4bhqp2rcd13ifvqhog","pricing_plan_id":"free"},{"bike_id":"a6b543df-b29f-4057-a17b-ece9e8918f86","system_id":"levelo_inurba_marseille","lat":43.32367,"lon":5.388836,"is_reserved":false,"is_disabled":false,"rental_uris":{"android":"levelo://app?vid=a6b543df-b29f-4057-a17b-ece9e8918f86","ios":"levelo://app?vid=a6b543df-b29f-4057-a17b-ece9e8918f86"},"vehicle_type_id":"4","last_reported":1687701985,"current_range_meters":15200,"station_id":"ce4bhqp2rcd13ifvqhog","pricing_plan_id":"free"},{"bike_id":"228378a3-e0ba-427a-9a36-5789a7b6bb76","system_id":"levelo_inurba_marseille","lat":43.32367,"lon":5.38891,"is_reserved":false,"is_disabled":false,"rental_uris":{"android":"levelo://app?vid=228378a3-e0ba-427a-9a36-5789a7b6bb76","ios":"levelo://app?vid=228378a3-e0ba-427a-9a36-5789a7b6bb76"},"vehicle_type_id":"4","last_reported":1687701985,"current_range_meters":10800,"station_id":"ce4bhqp2rcd13ifvqhog","pricing_plan_id":"free"},{"bike_id":"9b31ba1e-28f1-4e55-a18e-672a018958cb","system_id":"levelo_inurba_marseille","lat":43.29276,"lon":5.35963,"is_reserved":false,"is_disabled":false,"rental_uris":{"android":"levelo://app?vid=9b31ba1e-28f1-4e55-a18e-672a018958cb","ios":"levelo://app?vid=9b31ba1e-28f1-4e55-a18e-672a018958cb"},"vehicle_type_id":"4","last_reported":1687701985,"current_range_meters":15600,"station_id":"","pricing_plan_id":"free"},{"bike_id":"7c244ccc-676f-497b-80dc-a815467be9aa","system_id":"levelo_inurba_marseille","lat":43.29378,"lon":5.37864,"is_reserved":false,"is_disabled":false,"rental_uris":{"android":"levelo://app?vid=7c244ccc-676f-497b-80dc-a815467be9aa","ios":"levelo://app?vid=7c244ccc-676f-497b-80dc-a815467be9aa"},"vehicle_type_id":"4","last_reported":1687701985,"current_range_meters":16800,"station_id":"","pricing_plan_id":"free"},{"bike_id":"6e001595-93db-4292-afc6-88e32e563976","system_id":"levelo_inurba_marseille","lat":43.291994,"lon":5.357886,"is_reserved":false,"is_disabled":false,"rental_uris":{"android":"levelo://app?vid=6e001595-93db-4292-afc6-88e32e563976","ios":"levelo://app?vid=6e001595-93db-4292-afc6-88e32e563976"},"vehicle_type_id":"4","last_reported":1687701985,"current_range_meters":4400,"station_id":"ce4bhb12rcd13ifvqel0","pricing_plan_id":"free"},{"bike_id":"dd42b71c-5456-453a-b5d0-9ada0cb09ac2","system_id":"levelo_inurba_marseille","lat":43.313291,"lon":5.396838,"is_reserved":false,"is_disabled":false,"rental_uris":{"android":"levelo://app?vid=dd42b71c-5456-453a-b5d0-9ada0cb09ac2","ios":"levelo://app?vid=dd42b71c-5456-453a-b5d0-9ada0cb09ac2"},"vehicle_type_id":"4","last_reported":1687701985,"current_range_meters":1200,"station_id":"ce4bgvp2rcd13ifvqcu0","pricing_plan_id":"free"},{"bike_id":"c21bbdc7-cbbe-4ccf-ac6c-ca7209ee8e7f","system_id":"levelo_inurba_marseille","lat":43.29529,"lon":5.385581,"is_reserved":false,"is_disabled":false,"rental_uris":{"android":"levelo://app?vid=c21bbdc7-cbbe-4ccf-ac6c-ca7209ee8e7f","ios":"levelo://app?vid=c21bbdc7-cbbe-4ccf-ac6c-ca7209ee8e7f"},"vehicle_type_id":"4","last_reported":1687701985,"current_range_meters":3200,"station_id":"ce4bgih2rcd13ifvqba0","pricing_plan_id":"free"},{"bike_id":"a6fb2fa1-74d9-4c39-844f-e6cb70b17f40","system_id":"levelo_inurba_marseille","lat":43.290779,"lon":5.371482,"is_reserved":false,"is_disabled":false,"rental_uris":{"android":"levelo://app?vid=a6fb2fa1-74d9-4c39-844f-e6cb70b17f40","ios":"levelo://app?vid=a6fb2fa1-74d9-4c39-844f-e6cb70b17f40"},"vehicle_type_id":"4","last_reported":1687701985,"current_range_meters":26000,"station_id":"ce4bh5p2rcd13ifvqe4g","pricing_plan_id":"free"},{"bike_id":"5032a608-943c-40c7-96a1-c22273a9d7c3","system_id":"levelo_inurba_marseille","lat":43.302008,"lon":5.394694,"is_reserved":false,"is_disabled":false,"rental_uris":{"android":"levelo://app?vid=5032a608-943c-40c7-96a1-c22273a9d7c3","ios":"levelo://app?vid=5032a608-943c-40c7-96a1-c22273a9d7c3"},"vehicle_type_id":"4","last_reported":1687701985,"current_range_meters":800,"station_id":"ce4bh0p2rcd13ifvqd70","pricing_plan_id":"free"},{"bike_id":"20b2702a-2cf1-439f-b7da-41f192fa1a0a","system_id":"levelo_inurba_marseille","lat":43.29411,"lon":5.38614,"is_reserved":false,"is_disabled":false,"rental_uris":{"android":"levelo://app?vid=20b2702a-2cf1-439f-b7da-41f192fa1a0a","ios":"levelo://app?vid=20b2702a-2cf1-439f-b7da-41f192fa1a0a"},"vehicle_type_id":"4","last_reported":1687701985,"current_range_meters":15200,"station_id":"","pricing_plan_id":"free"},{"bike_id":"8ef63342-e1dd-4d9c-8ba7-7afbe328837a","system_id":"levelo_inurba_marseille","lat":43.29401,"lon":5.38601,"is_reserved":false,"is_disabled":false,"rental_uris":{"android":"levelo://app?vid=8ef63342-e1dd-4d9c-8ba7-7afbe328837a","ios":"levelo://app?vid=8ef63342-e1dd-4d9c-8ba7-7afbe328837a"},"vehicle_type_id":"4","last_reported":1687701985,"current_range_meters":27200,"station_id":"","pricing_plan_id":"free"},{"bike_id":"975ac9fb-7789-4a62-acbb-817765438df6","system_id":"levelo_inurba_marseille","lat":43.29065,"lon":5.35586,"is_reserved":false,"is_disabled":false,"rental_uris":{"android":"levelo://app?vid=975ac9fb-7789-4a62-acbb-817765438df6","ios":"levelo://app?vid=975ac9fb-7789-4a62-acbb-817765438df6"},"vehicle_type_id":"4","last_reported":1687701985,"current_range_meters":21600,"station_id":"","pricing_plan_id":"free"},{"bike_id":"1ffab965-1eab-413a-8cbd-e4c7d8328c0f","system_id":"levelo_inurba_marseille","lat":43.29274,"lon":5.38452,"is_reserved":false,"is_disabled":false,"rental_uris":{"android":"levelo://app?vid=1ffab965-1eab-413a-8cbd-e4c7d8328c0f","ios":"levelo://app?vid=1ffab965-1eab-413a-8cbd-e4c7d8328c0f"},"vehicle_type_id":"4","last_reported":1687701985,"current_range_meters":2800,"station_id":"ce4bh692rcd13ifvqea0","pricing_plan_id":"free"},{"bike_id":"8fa4b804-eeea-441f-9b15-4664acb44e13","system_id":"levelo_inurba_marseille","lat":43.3302,"lon":5.38941,"is_reserved":false,"is_disabled":false,"rental_uris":{"android":"levelo://app?vid=8fa4b804-eeea-441f-9b15-4664acb44e13","ios":"levelo://app?vid=8fa4b804-eeea-441f-9b15-4664acb44e13"},"vehicle_type_id":"4","last_reported":1687701985,"current_range_meters":0,"station_id":"","pricing_plan_id":"free"},{"bike_id":"7d77e2f6-b437-4816-8389-fd3e746a8d2a","system_id":"levelo_inurba_marseille","lat":43.33039,"lon":5.38924,"is_reserved":false,"is_disabled":false,"rental_uris":{"android":"levelo://app?vid=7d77e2f6-b437-4816-8389-fd3e746a8d2a","ios":"levelo://app?vid=7d77e2f6-b437-4816-8389-fd3e746a8d2a"},"vehicle_type_id":"4","last_reported":1687701985,"current_range_meters":3600,"station_id":"ce4bhr92rcd13ifvqhrg","pricing_plan_id":"free"},{"bike_id":"8c162e37-6858-43fc-9b2d-d4bbfff5be58","system_id":"levelo_inurba_marseille","lat":43.33043,"lon":5.38923,"is_reserved":false,"is_disabled":false,"rental_uris":{"android":"levelo://app?vid=8c162e37-6858-43fc-9b2d-d4bbfff5be58","ios":"levelo://app?vid=8c162e37-6858-43fc-9b2d-d4bbfff5be58"},"vehicle_type_id":"4","last_reported":1687701985,"current_range_meters":5600,"station_id":"ce4bhr92rcd13ifvqhrg","pricing_plan_id":"free"},{"bike_id":"2362d78b-e06a-4866-a0a1-7346cde59c6d","system_id":"levelo_inurba_marseille","lat":43.30541,"lon":5.39851,"is_reserved":false,"is_disabled":false,"rental_uris":{"android":"levelo://app?vid=2362d78b-e06a-4866-a0a1-7346cde59c6d","ios":"levelo://app?vid=2362d78b-e06a-4866-a0a1-7346cde59c6d"},"vehicle_type_id":"4","last_reported":1687701985,"current_range_meters":20800,"station_id":"","pricing_plan_id":"free"},{"bike_id":"4f421fe5-c11e-45bf-b393-0196e156d88e","system_id":"levelo_inurba_marseille","lat":43.29094,"lon":5.38123,"is_reserved":false,"is_disabled":false,"rental_uris":{"android":"levelo://app?vid=4f421fe5-c11e-45bf-b393-0196e156d88e","ios":"levelo://app?vid=4f421fe5-c11e-45bf-b393-0196e156d88e"},"vehicle_type_id":"4","last_reported":1687701985,"current_range_meters":21600,"station_id":"ce4bh512rcd13ifvqe2g","pricing_plan_id":"free"},{"bike_id":"3f8a925a-6a54-4259-a38f-9cf091aab246","system_id":"levelo_inurba_marseille","lat":43.29247,"lon":5.38749,"is_reserved":false,"is_disabled":false,"rental_uris":{"android":"levelo://app?vid=3f8a925a-6a54-4259-a38f-9cf091aab246","ios":"levelo://app?vid=3f8a925a-6a54-4259-a38f-9cf091aab246"},"vehicle_type_id":"4","last_reported":1687701985,"current_range_meters":16400,"station_id":"","pricing_plan_id":"free"},{"bike_id":"e2cfff0d-dca3-4f68-8575-ba16472ce91f","system_id":"levelo_inurba_marseille","lat":43.30926,"lon":5.40142,"is_reserved":false,"is_disabled":false,"rental_uris":{"android":"levelo://app?vid=e2cfff0d-dca3-4f68-8575-ba16472ce91f","ios":"levelo://app?vid=e2cfff0d-dca3-4f68-8575-ba16472ce91f"},"vehicle_type_id":"4","last_reported":1687701985,"current_range_meters":23600,"station_id":"ce4bgvp2rcd13ifvqct0","pricing_plan_id":"free"},{"bike_id":"c180ae38-f769-441f-8a55-5a6e4930e6ad","system_id":"levelo_inurba_marseille","lat":43.3375,"lon":5.37439,"is_reserved":false,"is_disabled":false,"rental_uris":{"android":"levelo://app?vid=c180ae38-f769-441f-8a55-5a6e4930e6ad","ios":"levelo://app?vid=c180ae38-f769-441f-8a55-5a6e4930e6ad"},"vehicle_type_id":"4","last_reported":1687701985,"current_range_meters":20800,"station_id":"","pricing_plan_id":"free"},{"bike_id":"250eef90-4816-4a00-a17a-935d77f81739","system_id":"levelo_inurba_marseille","lat":43.337552,"lon":5.374235,"is_reserved":false,"is_disabled":false,"rental_uris":{"android":"levelo://app?vid=250eef90-4816-4a00-a17a-935d77f81739","ios":"levelo://app?vid=250eef90-4816-4a00-a17a-935d77f81739"},"vehicle_type_id":"4","last_reported":1687701985,"current_range_meters":24800,"station_id":"","pricing_plan_id":"free"},{"bike_id":"42467928-9718-4905-a83f-4a0a594fb894","system_id":"levelo_inurba_marseille","lat":43.33757,"lon":5.3746,"is_reserved":false,"is_disabled":false,"rental_uris":{"android":"levelo://app?vid=42467928-9718-4905-a83f-4a0a594fb894","ios":"levelo://app?vid=42467928-9718-4905-a83f-4a0a594fb894"},"vehicle_type_id":"4","last_reported":1687701985,"current_range_meters":29200,"station_id":"","pricing_plan_id":"free"},{"bike_id":"11f8727c-0ff5-4e80-9a08-c65eaefaffd5","system_id":"levelo_inurba_marseille","lat":43.301117,"lon":5.398795,"is_reserved":false,"is_disabled":false,"rental_uris":{"android":"levelo://app?vid=11f8727c-0ff5-4e80-9a08-c65eaefaffd5","ios":"levelo://app?vid=11f8727c-0ff5-4e80-9a08-c65eaefaffd5"},"vehicle_type_id":"4","last_reported":1687701985,"current_range_meters":13200,"station_id":"ce4bh0h2rcd13ifvqd40","pricing_plan_id":"free"},{"bike_id":"d154b6c1-58be-4b1b-95c8-cbb0d59dee66","system_id":"levelo_inurba_marseille","lat":43.28668,"lon":5.3636,"is_reserved":false,"is_disabled":false,"rental_uris":{"android":"levelo://app?vid=d154b6c1-58be-4b1b-95c8-cbb0d59dee66","ios":"levelo://app?vid=d154b6c1-58be-4b1b-95c8-cbb0d59dee66"},"vehicle_type_id":"4","last_reported":1687701985,"current_range_meters":28800,"station_id":"ce4bhah2rcd13ifvqej0","pricing_plan_id":"free"},{"bike_id":"fbc3184c-1d32-43f6-94d0-63cc268cbdc8","system_id":"levelo_inurba_marseille","lat":43.286961,"lon":5.373785,"is_reserved":false,"is_disabled":false,"rental_uris":{"android":"levelo://app?vid=fbc3184c-1d32-43f6-94d0-63cc268cbdc8","ios":"levelo://app?vid=fbc3184c-1d32-43f6-94d0-63cc268cbdc8"},"vehicle_type_id":"4","last_reported":1687701985,"current_range_meters":4800,"station_id":"ce4bh3p2rcd13ifvqdq0","pricing_plan_id":"free"},{"bike_id":"58a2aa77-315d-41ef-a375-a75c5e80a40f","system_id":"levelo_inurba_marseille","lat":43.286591,"lon":5.363346,"is_reserved":false,"is_disabled":false,"rental_uris":{"android":"levelo://app?vid=58a2aa77-315d-41ef-a375-a75c5e80a40f","ios":"levelo://app?vid=58a2aa77-315d-41ef-a375-a75c5e80a40f"},"vehicle_type_id":"4","last_reported":1687701985,"current_range_meters":2000,"station_id":"ce4bhah2rcd13ifvqej0","pricing_plan_id":"free"},{"bike_id":"21b2b9c1-8b2c-4a99-a248-81a23a88c16e","system_id":"levelo_inurba_marseille","lat":43.28656,"lon":5.36348,"is_reserved":false,"is_disabled":false,"rental_uris":{"android":"levelo://app?vid=21b2b9c1-8b2c-4a99-a248-81a23a88c16e","ios":"levelo://app?vid=21b2b9c1-8b2c-4a99-a248-81a23a88c16e"},"vehicle_type_id":"4","last_reported":1687701985,"current_range_meters":31200,"station_id":"ce4bhah2rcd13ifvqej0","pricing_plan_id":"free"},{"bike_id":"4f64eaec-79d2-4eff-b3e1-77a0e004c82b","system_id":"levelo_inurba_marseille","lat":43.290345,"lon":5.38646,"is_reserved":false,"is_disabled":false,"rental_uris":{"android":"levelo://app?vid=4f64eaec-79d2-4eff-b3e1-77a0e004c82b","ios":"levelo://app?vid=4f64eaec-79d2-4eff-b3e1-77a0e004c82b"},"vehicle_type_id":"4","last_reported":1687701985,"current_range_meters":2800,"station_id":"ce4bh4p2rcd13ifvqe0g","pricing_plan_id":"free"},{"bike_id":"0bac87e6-64af-4d0e-86d2-fc0e3b012c78","system_id":"levelo_inurba_marseille","lat":43.30264,"lon":5.40077,"is_reserved":false,"is_disabled":false,"rental_uris":{"android":"levelo://app?vid=0bac87e6-64af-4d0e-86d2-fc0e3b012c78","ios":"levelo://app?vid=0bac87e6-64af-4d0e-86d2-fc0e3b012c78"},"vehicle_type_id":"4","last_reported":1687701985,"current_range_meters":18400,"station_id":"ce4bgvh2rcd13ifvqcs0","pricing_plan_id":"free"},{"bike_id":"d69fed3a-efe9-46fb-b1dc-1240b8978d3e","system_id":"levelo_inurba_marseille","lat":43.316517,"lon":5.404375,"is_reserved":false,"is_disabled":false,"rental_uris":{"android":"levelo://app?vid=d69fed3a-efe9-46fb-b1dc-1240b8978d3e","ios":"levelo://app?vid=d69fed3a-efe9-46fb-b1dc-1240b8978d3e"},"vehicle_type_id":"4","last_reported":1687701985,"current_range_meters":14400,"station_id":"ce4bh012rcd13ifvqd00","pricing_plan_id":"free"},{"bike_id":"e048a28d-a8b0-4d46-b4c4-5dc88c817cd1","system_id":"levelo_inurba_marseille","lat":43.292011,"lon":5.393279,"is_reserved":false,"is_disabled":false,"rental_uris":{"android":"levelo://app?vid=e048a28d-a8b0-4d46-b4c4-5dc88c817cd1","ios":"levelo://app?vid=e048a28d-a8b0-4d46-b4c4-5dc88c817cd1"},"vehicle_type_id":"4","last_reported":1687701985,"current_range_meters":15200,"station_id":"","pricing_plan_id":"free"},{"bike_id":"9894d924-83c7-4f73-8c9a-3e9cfeaec50b","system_id":"levelo_inurba_marseille","lat":43.284534,"lon":5.358662,"is_reserved":false,"is_disabled":false,"rental_uris":{"android":"levelo://app?vid=9894d924-83c7-4f73-8c9a-3e9cfeaec50b","ios":"levelo://app?vid=9894d924-83c7-4f73-8c9a-3e9cfeaec50b"},"vehicle_type_id":"4","last_reported":1687701985,"current_range_meters":27200,"station_id":"ce4bhah2rcd13ifvqei0","pricing_plan_id":"free"},{"bike_id":"8f1c8ecc-d280-4d2a-b818-cd337b04e3ac","system_id":"levelo_inurba_marseille","lat":43.284534,"lon":5.358662,"is_reserved":false,"is_disabled":false,"rental_uris":{"android":"levelo://app?vid=8f1c8ecc-d280-4d2a-b818-cd337b04e3ac","ios":"levelo://app?vid=8f1c8ecc-d280-4d2a-b818-cd337b04e3ac"},"vehicle_type_id":"4","last_reported":1687701985,"current_range_meters":20000,"station_id":"ce4bhah2rcd13ifvqei0","pricing_plan_id":"free"},{"bike_id":"acfe6c72-c6ca-4eb8-a08e-f605565d48ee","system_id":"levelo_inurba_marseille","lat":43.284534,"lon":5.358662,"is_reserved":false,"is_disabled":false,"rental_uris":{"android":"levelo://app?vid=acfe6c72-c6ca-4eb8-a08e-f605565d48ee","ios":"levelo://app?vid=acfe6c72-c6ca-4eb8-a08e-f605565d48ee"},"vehicle_type_id":"4","last_reported":1687701985,"current_range_meters":17200,"station_id":"ce4bhah2rcd13ifvqei0","pricing_plan_id":"free"},{"bike_id":"2138786a-19e9-489b-b257-44727a008031","system_id":"levelo_inurba_marseille","lat":43.285848,"lon":5.350787,"is_reserved":false,"is_disabled":false,"rental_uris":{"android":"levelo://app?vid=2138786a-19e9-489b-b257-44727a008031","ios":"levelo://app?vid=2138786a-19e9-489b-b257-44727a008031"},"vehicle_type_id":"4","last_reported":1687701985,"current_range_meters":4400,"station_id":"ce4bhch2rcd13ifvqeug","pricing_plan_id":"free"},{"bike_id":"41db2e5c-0a8c-42f2-a45d-62dd00467bd3","system_id":"levelo_inurba_marseille","lat":43.2955,"lon":5.39948,"is_reserved":false,"is_disabled":false,"rental_uris":{"android":"levelo://app?vid=41db2e5c-0a8c-42f2-a45d-62dd00467bd3","ios":"levelo://app?vid=41db2e5c-0a8c-42f2-a45d-62dd00467bd3"},"vehicle_type_id":"4","last_reported":1687701985,"current_range_meters":14800,"station_id":"ce4bh312rcd13ifvqdj0","pricing_plan_id":"free"},{"bike_id":"31bf03f4-af42-45fc-b950-fac06fee4ac4","system_id":"levelo_inurba_marseille","lat":43.286595,"lon":5.386795,"is_reserved":false,"is_disabled":false,"rental_uris":{"android":"levelo://app?vid=31bf03f4-af42-45fc-b950-fac06fee4ac4","ios":"levelo://app?vid=31bf03f4-af42-45fc-b950-fac06fee4ac4"},"vehicle_type_id":"4","last_reported":1687701985,"current_range_meters":1200,"station_id":"ce4bh492rcd13ifvqdug","pricing_plan_id":"free"},{"bike_id":"7c0bbcf9-4499-4a1e-be6b-effe1f6db7d4","system_id":"levelo_inurba_marseille","lat":43.323464,"lon":5.406297,"is_reserved":false,"is_disabled":false,"rental_uris":{"android":"levelo://app?vid=7c0bbcf9-4499-4a1e-be6b-effe1f6db7d4","ios":"levelo://app?vid=7c0bbcf9-4499-4a1e-be6b-effe1f6db7d4"},"vehicle_type_id":"4","last_reported":1687701985,"current_range_meters":31200,"station_id":"ce4bhq92rcd13ifvqhjg","pricing_plan_id":"free"},{"bike_id":"165784fd-8cb0-48fe-8681-d7abe54a6cf4","system_id":"levelo_inurba_marseille","lat":43.32281,"lon":5.40647,"is_reserved":false,"is_disabled":false,"rental_uris":{"android":"levelo://app?vid=165784fd-8cb0-48fe-8681-d7abe54a6cf4","ios":"levelo://app?vid=165784fd-8cb0-48fe-8681-d7abe54a6cf4"},"vehicle_type_id":"4","last_reported":1687701985,"current_range_meters":26400,"station_id":"","pricing_plan_id":"free"},{"bike_id":"a3c8d123-093c-462d-81d9-c4a0889703a6","system_id":"levelo_inurba_marseille","lat":43.323464,"lon":5.406297,"is_reserved":false,"is_disabled":false,"rental_uris":{"android":"levelo://app?vid=a3c8d123-093c-462d-81d9-c4a0889703a6","ios":"levelo://app?vid=a3c8d123-093c-462d-81d9-c4a0889703a6"},"vehicle_type_id":"4","last_reported":1687701985,"current_range_meters":31200,"station_id":"ce4bhq92rcd13ifvqhjg","pricing_plan_id":"free"},{"bike_id":"7839da70-8bad-4943-9bf7-a6277468bd55","system_id":"levelo_inurba_marseille","lat":43.323464,"lon":5.406297,"is_reserved":false,"is_disabled":false,"rental_uris":{"android":"levelo://app?vid=7839da70-8bad-4943-9bf7-a6277468bd55","ios":"levelo://app?vid=7839da70-8bad-4943-9bf7-a6277468bd55"},"vehicle_type_id":"4","last_reported":1687701985,"current_range_meters":21200,"station_id":"ce4bhq92rcd13ifvqhjg","pricing_plan_id":"free"},{"bike_id":"44684ce6-ed70-4132-8feb-c18e231a1ce8","system_id":"levelo_inurba_marseille","lat":43.323464,"lon":5.406297,"is_reserved":false,"is_disabled":false,"rental_uris":{"android":"levelo://app?vid=44684ce6-ed70-4132-8feb-c18e231a1ce8","ios":"levelo://app?vid=44684ce6-ed70-4132-8feb-c18e231a1ce8"},"vehicle_type_id":"4","last_reported":1687701985,"current_range_meters":31200,"station_id":"ce4bhq92rcd13ifvqhjg","pricing_plan_id":"free"},{"bike_id":"76870479-b469-4b6e-812c-00c0dd030645","system_id":"levelo_inurba_marseille","lat":43.284793,"lon":5.384113,"is_reserved":false,"is_disabled":false,"rental_uris":{"android":"levelo://app?vid=76870479-b469-4b6e-812c-00c0dd030645","ios":"levelo://app?vid=76870479-b469-4b6e-812c-00c0dd030645"},"vehicle_type_id":"4","last_reported":1687701985,"current_range_meters":14400,"station_id":"ce4bh512rcd13ifvqe3g","pricing_plan_id":"free"},{"bike_id":"48189476-e308-4ba0-bd23-28dbccf07b2d","system_id":"levelo_inurba_marseille","lat":43.284793,"lon":5.384113,"is_reserved":false,"is_disabled":false,"rental_uris":{"android":"levelo://app?vid=48189476-e308-4ba0-bd23-28dbccf07b2d","ios":"levelo://app?vid=48189476-e308-4ba0-bd23-28dbccf07b2d"},"vehicle_type_id":"4","last_reported":1687701985,"current_range_meters":7200,"station_id":"ce4bh512rcd13ifvqe3g","pricing_plan_id":"free"},{"bike_id":"82c28515-487b-49cb-bfda-76d1dec436d2","system_id":"levelo_inurba_marseille","lat":43.284787,"lon":5.384116,"is_reserved":false,"is_disabled":false,"rental_uris":{"android":"levelo://app?vid=82c28515-487b-49cb-bfda-76d1dec436d2","ios":"levelo://app?vid=82c28515-487b-49cb-bfda-76d1dec436d2"},"vehicle_type_id":"4","last_reported":1687701985,"current_range_meters":21200,"station_id":"ce4bh512rcd13ifvqe3g","pricing_plan_id":"free"},{"bike_id":"b4c950db-352f-4a1a-8e3c-c05101a6dad0","system_id":"levelo_inurba_marseille","lat":43.28857,"lon":5.39317,"is_reserved":false,"is_disabled":false,"rental_uris":{"android":"levelo://app?vid=b4c950db-352f-4a1a-8e3c-c05101a6dad0","ios":"levelo://app?vid=b4c950db-352f-4a1a-8e3c-c05101a6dad0"},"vehicle_type_id":"4","last_reported":1687701985,"current_range_meters":31200,"station_id":"ce4bh2p2rcd13ifvqdi0","pricing_plan_id":"free"},{"bike_id":"c855084b-4c34-4a4f-8098-c4b3e7066881","system_id":"levelo_inurba_marseille","lat":43.2884,"lon":5.39309,"is_reserved":false,"is_disabled":false,"rental_uris":{"android":"levelo://app?vid=c855084b-4c34-4a4f-8098-c4b3e7066881","ios":"levelo://app?vid=c855084b-4c34-4a4f-8098-c4b3e7066881"},"vehicle_type_id":"4","last_reported":1687701985,"current_range_meters":4000,"station_id":"ce4bh2p2rcd13ifvqdi0","pricing_plan_id":"free"},{"bike_id":"499c3fd7-9c13-4bc0-805f-3728f8ee0801","system_id":"levelo_inurba_marseille","lat":43.28429,"lon":5.34991,"is_reserved":false,"is_disabled":false,"rental_uris":{"android":"levelo://app?vid=499c3fd7-9c13-4bc0-805f-3728f8ee0801","ios":"levelo://app?vid=499c3fd7-9c13-4bc0-805f-3728f8ee0801"},"vehicle_type_id":"4","last_reported":1687701985,"current_range_meters":7600,"station_id":"ce4bhbh2rcd13ifvqepg","pricing_plan_id":"free"},{"bike_id":"19dbebfb-94a6-47e6-ab13-6c7f8a302390","system_id":"levelo_inurba_marseille","lat":43.28426,"lon":5.34988,"is_reserved":false,"is_disabled":false,"rental_uris":{"android":"levelo://app?vid=19dbebfb-94a6-47e6-ab13-6c7f8a302390","ios":"levelo://app?vid=19dbebfb-94a6-47e6-ab13-6c7f8a302390"},"vehicle_type_id":"4","last_reported":1687701985,"current_range_meters":15600,"station_id":"ce4bhbh2rcd13ifvqepg","pricing_plan_id":"free"},{"bike_id":"8f98ed62-5b1b-4102-ad1d-1e7ad59187e7","system_id":"levelo_inurba_marseille","lat":43.284219,"lon":5.3497,"is_reserved":false,"is_disabled":false,"rental_uris":{"android":"levelo://app?vid=8f98ed62-5b1b-4102-ad1d-1e7ad59187e7","ios":"levelo://app?vid=8f98ed62-5b1b-4102-ad1d-1e7ad59187e7"},"vehicle_type_id":"4","last_reported":1687701985,"current_range_meters":31200,"station_id":"ce4bhbh2rcd13ifvqepg","pricing_plan_id":"free"},{"bike_id":"0bb50b1b-374b-4210-a404-0a4399107f6b","system_id":"levelo_inurba_marseille","lat":43.28425,"lon":5.34982,"is_reserved":false,"is_disabled":false,"rental_uris":{"android":"levelo://app?vid=0bb50b1b-374b-4210-a404-0a4399107f6b","ios":"levelo://app?vid=0bb50b1b-374b-4210-a404-0a4399107f6b"},"vehicle_type_id":"4","last_reported":1687701985,"current_range_meters":17600,"station_id":"ce4bhbh2rcd13ifvqepg","pricing_plan_id":"free"},{"bike_id":"b2deb644-a066-4e6b-a466-9449294c4091","system_id":"levelo_inurba_marseille","lat":43.28425,"lon":5.34981,"is_reserved":false,"is_disabled":false,"rental_uris":{"android":"levelo://app?vid=b2deb644-a066-4e6b-a466-9449294c4091","ios":"levelo://app?vid=b2deb644-a066-4e6b-a466-9449294c4091"},"vehicle_type_id":"4","last_reported":1687701985,"current_range_meters":14400,"station_id":"ce4bhbh2rcd13ifvqepg","pricing_plan_id":"free"},{"bike_id":"9e6de6fd-e9f1-45b5-b905-4b03a6373eca","system_id":"levelo_inurba_marseille","lat":43.28427,"lon":5.34972,"is_reserved":false,"is_disabled":false,"rental_uris":{"android":"levelo://app?vid=9e6de6fd-e9f1-45b5-b905-4b03a6373eca","ios":"levelo://app?vid=9e6de6fd-e9f1-45b5-b905-4b03a6373eca"},"vehicle_type_id":"4","last_reported":1687701985,"current_range_meters":31200,"station_id":"ce4bhbh2rcd13ifvqepg","pricing_plan_id":"free"},{"bike_id":"2bd97431-942b-429b-bc2b-6fd1364a76bd","system_id":"levelo_inurba_marseille","lat":43.28423,"lon":5.34982,"is_reserved":false,"is_disabled":false,"rental_uris":{"android":"levelo://app?vid=2bd97431-942b-429b-bc2b-6fd1364a76bd","ios":"levelo://app?vid=2bd97431-942b-429b-bc2b-6fd1364a76bd"},"vehicle_type_id":"4","last_reported":1687701985,"current_range_meters":11200,"station_id":"ce4bhbh2rcd13ifvqepg","pricing_plan_id":"free"},{"bike_id":"5f16bec7-bc43-42e5-869f-47746b01bda6","system_id":"levelo_inurba_marseille","lat":43.28421,"lon":5.34986,"is_reserved":false,"is_disabled":false,"rental_uris":{"android":"levelo://app?vid=5f16bec7-bc43-42e5-869f-47746b01bda6","ios":"levelo://app?vid=5f16bec7-bc43-42e5-869f-47746b01bda6"},"vehicle_type_id":"4","last_reported":1687701985,"current_range_meters":21200,"station_id":"ce4bhbh2rcd13ifvqepg","pricing_plan_id":"free"},{"bike_id":"d59ad4d5-5f9a-41f1-876d-62249df3dfc9","system_id":"levelo_inurba_marseille","lat":43.284217,"lon":5.349697,"is_reserved":false,"is_disabled":false,"rental_uris":{"android":"levelo://app?vid=d59ad4d5-5f9a-41f1-876d-62249df3dfc9","ios":"levelo://app?vid=d59ad4d5-5f9a-41f1-876d-62249df3dfc9"},"vehicle_type_id":"4","last_reported":1687701985,"current_range_meters":7600,"station_id":"ce4bhbh2rcd13ifvqepg","pricing_plan_id":"free"},{"bike_id":"28314993-9544-4951-a341-3f95d253ffd6","system_id":"levelo_inurba_marseille","lat":43.284217,"lon":5.349697,"is_reserved":false,"is_disabled":false,"rental_uris":{"android":"levelo://app?vid=28314993-9544-4951-a341-3f95d253ffd6","ios":"levelo://app?vid=28314993-9544-4951-a341-3f95d253ffd6"},"vehicle_type_id":"4","last_reported":1687701985,"current_range_meters":22000,"station_id":"ce4bhbh2rcd13ifvqepg","pricing_plan_id":"free"},{"bike_id":"bd583d3e-fd46-47a9-8c93-f9127dd7e864","system_id":"levelo_inurba_marseille","lat":43.28418,"lon":5.34986,"is_reserved":false,"is_disabled":false,"rental_uris":{"android":"levelo://app?vid=bd583d3e-fd46-47a9-8c93-f9127dd7e864","ios":"levelo://app?vid=bd583d3e-fd46-47a9-8c93-f9127dd7e864"},"vehicle_type_id":"4","last_reported":1687701985,"current_range_meters":5600,"station_id":"ce4bhbh2rcd13ifvqepg","pricing_plan_id":"free"},{"bike_id":"79b149f3-59d7-4cc5-a3ad-63f7720ba5dc","system_id":"levelo_inurba_marseille","lat":43.28415,"lon":5.34993,"is_reserved":false,"is_disabled":false,"rental_uris":{"android":"levelo://app?vid=79b149f3-59d7-4cc5-a3ad-63f7720ba5dc","ios":"levelo://app?vid=79b149f3-59d7-4cc5-a3ad-63f7720ba5dc"},"vehicle_type_id":"4","last_reported":1687701985,"current_range_meters":17200,"station_id":"ce4bhbh2rcd13ifvqepg","pricing_plan_id":"free"},{"bike_id":"5e83e955-c572-4d0f-9419-7a992c781476","system_id":"levelo_inurba_marseille","lat":43.28416,"lon":5.34986,"is_reserved":false,"is_disabled":false,"rental_uris":{"android":"levelo://app?vid=5e83e955-c572-4d0f-9419-7a992c781476","ios":"levelo://app?vid=5e83e955-c572-4d0f-9419-7a992c781476"},"vehicle_type_id":"4","last_reported":1687701985,"current_range_meters":26000,"station_id":"ce4bhbh2rcd13ifvqepg","pricing_plan_id":"free"},{"bike_id":"ddb647f2-9cf4-47f4-b69f-c2895ffb1527","system_id":"levelo_inurba_marseille","lat":43.28414,"lon":5.34992,"is_reserved":false,"is_disabled":false,"rental_uris":{"android":"levelo://app?vid=ddb647f2-9cf4-47f4-b69f-c2895ffb1527","ios":"levelo://app?vid=ddb647f2-9cf4-47f4-b69f-c2895ffb1527"},"vehicle_type_id":"4","last_reported":1687701985,"current_range_meters":18400,"station_id":"ce4bhbh2rcd13ifvqepg","pricing_plan_id":"free"},{"bike_id":"d0eb568d-1adb-4400-b7d0-928052b520bf","system_id":"levelo_inurba_marseille","lat":43.28416,"lon":5.34982,"is_reserved":false,"is_disabled":false,"rental_uris":{"android":"levelo://app?vid=d0eb568d-1adb-4400-b7d0-928052b520bf","ios":"levelo://app?vid=d0eb568d-1adb-4400-b7d0-928052b520bf"},"vehicle_type_id":"4","last_reported":1687701985,"current_range_meters":19200,"station_id":"ce4bhbh2rcd13ifvqepg","pricing_plan_id":"free"},{"bike_id":"43759181-1710-4c78-9925-4c087e5f8fca","system_id":"levelo_inurba_marseille","lat":43.284217,"lon":5.349697,"is_reserved":false,"is_disabled":false,"rental_uris":{"android":"levelo://app?vid=43759181-1710-4c78-9925-4c087e5f8fca","ios":"levelo://app?vid=43759181-1710-4c78-9925-4c087e5f8fca"},"vehicle_type_id":"4","last_reported":1687701985,"current_range_meters":20800,"station_id":"ce4bhbh2rcd13ifvqepg","pricing_plan_id":"free"},{"bike_id":"eaad6f6a-b744-44ee-b0b7-9da848edd94b","system_id":"levelo_inurba_marseille","lat":43.28416,"lon":5.34978,"is_reserved":false,"is_disabled":false,"rental_uris":{"android":"levelo://app?vid=eaad6f6a-b744-44ee-b0b7-9da848edd94b","ios":"levelo://app?vid=eaad6f6a-b744-44ee-b0b7-9da848edd94b"},"vehicle_type_id":"4","last_reported":1687701985,"current_range_meters":1600,"station_id":"ce4bhbh2rcd13ifvqepg","pricing_plan_id":"free"},{"bike_id":"c19c7f19-bf00-4a29-aed2-46008563da52","system_id":"levelo_inurba_marseille","lat":43.28414,"lon":5.34983,"is_reserved":false,"is_disabled":false,"rental_uris":{"android":"levelo://app?vid=c19c7f19-bf00-4a29-aed2-46008563da52","ios":"levelo://app?vid=c19c7f19-bf00-4a29-aed2-46008563da52"},"vehicle_type_id":"4","last_reported":1687701985,"current_range_meters":27200,"station_id":"ce4bhbh2rcd13ifvqepg","pricing_plan_id":"free"},{"bike_id":"d4b1b24a-25e0-4a83-8bf1-fa4cc756bda6","system_id":"levelo_inurba_marseille","lat":43.28415,"lon":5.34979,"is_reserved":false,"is_disabled":false,"rental_uris":{"android":"levelo://app?vid=d4b1b24a-25e0-4a83-8bf1-fa4cc756bda6","ios":"levelo://app?vid=d4b1b24a-25e0-4a83-8bf1-fa4cc756bda6"},"vehicle_type_id":"4","last_reported":1687701985,"current_range_meters":11600,"station_id":"ce4bhbh2rcd13ifvqepg","pricing_plan_id":"free"},{"bike_id":"6030f91f-0000-4684-9608-fe6d763b6a70","system_id":"levelo_inurba_marseille","lat":43.284217,"lon":5.349697,"is_reserved":false,"is_disabled":false,"rental_uris":{"android":"levelo://app?vid=6030f91f-0000-4684-9608-fe6d763b6a70","ios":"levelo://app?vid=6030f91f-0000-4684-9608-fe6d763b6a70"},"vehicle_type_id":"4","last_reported":1687701985,"current_range_meters":19200,"station_id":"ce4bhbh2rcd13ifvqepg","pricing_plan_id":"free"},{"bike_id":"e97e3f69-3d09-4194-91ef-c7fd61849e49","system_id":"levelo_inurba_marseille","lat":43.28413,"lon":5.34979,"is_reserved":false,"is_disabled":false,"rental_uris":{"android":"levelo://app?vid=e97e3f69-3d09-4194-91ef-c7fd61849e49","ios":"levelo://app?vid=e97e3f69-3d09-4194-91ef-c7fd61849e49"},"vehicle_type_id":"4","last_reported":1687701985,"current_range_meters":28400,"station_id":"ce4bhbh2rcd13ifvqepg","pricing_plan_id":"free"},{"bike_id":"827bdafd-8c4e-41de-af69-6d5209b15e53","system_id":"levelo_inurba_marseille","lat":43.284217,"lon":5.349697,"is_reserved":false,"is_disabled":false,"rental_uris":{"android":"levelo://app?vid=827bdafd-8c4e-41de-af69-6d5209b15e53","ios":"levelo://app?vid=827bdafd-8c4e-41de-af69-6d5209b15e53"},"vehicle_type_id":"4","last_reported":1687701985,"current_range_meters":4000,"station_id":"ce4bhbh2rcd13ifvqepg","pricing_plan_id":"free"},{"bike_id":"5268fb4b-40b1-4870-9caf-d69704d15a87","system_id":"levelo_inurba_marseille","lat":43.284217,"lon":5.349697,"is_reserved":false,"is_disabled":false,"rental_uris":{"android":"levelo://app?vid=5268fb4b-40b1-4870-9caf-d69704d15a87","ios":"levelo://app?vid=5268fb4b-40b1-4870-9caf-d69704d15a87"},"vehicle_type_id":"4","last_reported":1687701985,"current_range_meters":7600,"station_id":"ce4bhbh2rcd13ifvqepg","pricing_plan_id":"free"},{"bike_id":"ca32322d-d525-41d9-a36d-0272b744b0e7","system_id":"levelo_inurba_marseille","lat":43.284217,"lon":5.349697,"is_reserved":false,"is_disabled":false,"rental_uris":{"android":"levelo://app?vid=ca32322d-d525-41d9-a36d-0272b744b0e7","ios":"levelo://app?vid=ca32322d-d525-41d9-a36d-0272b744b0e7"},"vehicle_type_id":"4","last_reported":1687701985,"current_range_meters":27200,"station_id":"ce4bhbh2rcd13ifvqepg","pricing_plan_id":"free"},{"bike_id":"fa19f121-7be5-46a5-81cc-04823f4ccb3a","system_id":"levelo_inurba_marseille","lat":43.289363,"lon":5.396322,"is_reserved":false,"is_disabled":false,"rental_uris":{"android":"levelo://app?vid=fa19f121-7be5-46a5-81cc-04823f4ccb3a","ios":"levelo://app?vid=fa19f121-7be5-46a5-81cc-04823f4ccb3a"},"vehicle_type_id":"4","last_reported":1687701985,"current_range_meters":24000,"station_id":"ce4bh3h2rcd13ifvqdn0","pricing_plan_id":"free"},{"bike_id":"d5445db3-0e46-42bf-8254-c9c3aa8c6629","system_id":"levelo_inurba_marseille","lat":43.28273,"lon":5.3508,"is_reserved":false,"is_disabled":false,"rental_uris":{"android":"levelo://app?vid=d5445db3-0e46-42bf-8254-c9c3aa8c6629","ios":"levelo://app?vid=d5445db3-0e46-42bf-8254-c9c3aa8c6629"},"vehicle_type_id":"4","last_reported":1687701985,"current_range_meters":20400,"station_id":"ce4bhbp2rcd13ifvqerg","pricing_plan_id":"free"},{"bike_id":"a27e8f8f-585c-4854-bac7-c77a0d144c64","system_id":"levelo_inurba_marseille","lat":43.28275,"lon":5.35065,"is_reserved":false,"is_disabled":false,"rental_uris":{"android":"levelo://app?vid=a27e8f8f-585c-4854-bac7-c77a0d144c64","ios":"levelo://app?vid=a27e8f8f-585c-4854-bac7-c77a0d144c64"},"vehicle_type_id":"4","last_reported":1687701985,"current_range_meters":16400,"station_id":"ce4bhbp2rcd13ifvqerg","pricing_plan_id":"free"},{"bike_id":"3eba05fb-7a20-47d8-80c8-af68329f27c9","system_id":"levelo_inurba_marseille","lat":43.28273,"lon":5.35069,"is_reserved":false,"is_disabled":false,"rental_uris":{"android":"levelo://app?vid=3eba05fb-7a20-47d8-80c8-af68329f27c9","ios":"levelo://app?vid=3eba05fb-7a20-47d8-80c8-af68329f27c9"},"vehicle_type_id":"4","last_reported":1687701985,"current_range_meters":12800,"station_id":"ce4bhbp2rcd13ifvqerg","pricing_plan_id":"free"},{"bike_id":"8b33e875-3e35-43ac-96ff-69d435d1d6f8","system_id":"levelo_inurba_marseille","lat":43.282754,"lon":5.350519,"is_reserved":false,"is_disabled":false,"rental_uris":{"android":"levelo://app?vid=8b33e875-3e35-43ac-96ff-69d435d1d6f8","ios":"levelo://app?vid=8b33e875-3e35-43ac-96ff-69d435d1d6f8"},"vehicle_type_id":"4","last_reported":1687701985,"current_range_meters":20800,"station_id":"ce4bhbp2rcd13ifvqerg","pricing_plan_id":"free"},{"bike_id":"7f693e7d-2d3b-4dfa-a45c-c56b56565ccf","system_id":"levelo_inurba_marseille","lat":43.2827,"lon":5.35072,"is_reserved":false,"is_disabled":false,"rental_uris":{"android":"levelo://app?vid=7f693e7d-2d3b-4dfa-a45c-c56b56565ccf","ios":"levelo://app?vid=7f693e7d-2d3b-4dfa-a45c-c56b56565ccf"},"vehicle_type_id":"4","last_reported":1687701985,"current_range_meters":18400,"station_id":"ce4bhbp2rcd13ifvqerg","pricing_plan_id":"free"},{"bike_id":"f835268c-5aea-4c0c-b898-b146a87bf4ab","system_id":"levelo_inurba_marseille","lat":43.2827,"lon":5.35068,"is_reserved":false,"is_disabled":false,"rental_uris":{"android":"levelo://app?vid=f835268c-5aea-4c0c-b898-b146a87bf4ab","ios":"levelo://app?vid=f835268c-5aea-4c0c-b898-b146a87bf4ab"},"vehicle_type_id":"4","last_reported":1687701985,"current_range_meters":1200,"station_id":"ce4bhbp2rcd13ifvqerg","pricing_plan_id":"free"},{"bike_id":"a29a73a4-fa31-45f3-9b21-a7fa3a29ab15","system_id":"levelo_inurba_marseille","lat":43.282754,"lon":5.350519,"is_reserved":false,"is_disabled":false,"rental_uris":{"android":"levelo://app?vid=a29a73a4-fa31-45f3-9b21-a7fa3a29ab15","ios":"levelo://app?vid=a29a73a4-fa31-45f3-9b21-a7fa3a29ab15"},"vehicle_type_id":"4","last_reported":1687701985,"current_range_meters":18000,"station_id":"ce4bhbp2rcd13ifvqerg","pricing_plan_id":"free"},{"bike_id":"9a02c907-49b8-4d67-b759-16cf0d5ef528","system_id":"levelo_inurba_marseille","lat":43.28269,"lon":5.35068,"is_reserved":false,"is_disabled":false,"rental_uris":{"android":"levelo://app?vid=9a02c907-49b8-4d67-b759-16cf0d5ef528","ios":"levelo://app?vid=9a02c907-49b8-4d67-b759-16cf0d5ef528"},"vehicle_type_id":"4","last_reported":1687701985,"current_range_meters":6800,"station_id":"ce4bhbp2rcd13ifvqerg","pricing_plan_id":"free"},{"bike_id":"7abaa557-36a7-4397-948e-022840abe541","system_id":"levelo_inurba_marseille","lat":43.28269,"lon":5.35066,"is_reserved":false,"is_disabled":false,"rental_uris":{"android":"levelo://app?vid=7abaa557-36a7-4397-948e-022840abe541","ios":"levelo://app?vid=7abaa557-36a7-4397-948e-022840abe541"},"vehicle_type_id":"4","last_reported":1687701985,"current_range_meters":23200,"station_id":"ce4bhbp2rcd13ifvqerg","pricing_plan_id":"free"},{"bike_id":"459caeeb-0216-40cb-8ede-f597c07591d0","system_id":"levelo_inurba_marseille","lat":43.282754,"lon":5.350519,"is_reserved":false,"is_disabled":false,"rental_uris":{"android":"levelo://app?vid=459caeeb-0216-40cb-8ede-f597c07591d0","ios":"levelo://app?vid=459caeeb-0216-40cb-8ede-f597c07591d0"},"vehicle_type_id":"4","last_reported":1687701985,"current_range_meters":14400,"station_id":"ce4bhbp2rcd13ifvqerg","pricing_plan_id":"free"},{"bike_id":"e56bb733-23b8-4d24-be4e-f41e18dce229","system_id":"levelo_inurba_marseille","lat":43.28267,"lon":5.35068,"is_reserved":false,"is_disabled":false,"rental_uris":{"android":"levelo://app?vid=e56bb733-23b8-4d24-be4e-f41e18dce229","ios":"levelo://app?vid=e56bb733-23b8-4d24-be4e-f41e18dce229"},"vehicle_type_id":"4","last_reported":1687701985,"current_range_meters":1200,"station_id":"ce4bhbp2rcd13ifvqerg","pricing_plan_id":"free"},{"bike_id":"e6dbfabb-288c-475f-87fa-d20d0d4f680f","system_id":"levelo_inurba_marseille","lat":43.28265,"lon":5.35075,"is_reserved":false,"is_disabled":false,"rental_uris":{"android":"levelo://app?vid=e6dbfabb-288c-475f-87fa-d20d0d4f680f","ios":"levelo://app?vid=e6dbfabb-288c-475f-87fa-d20d0d4f680f"},"vehicle_type_id":"4","last_reported":1687701985,"current_range_meters":24400,"station_id":"ce4bhbp2rcd13ifvqerg","pricing_plan_id":"free"},{"bike_id":"d1de9c01-2f78-4661-beec-a22f8bea07cf","system_id":"levelo_inurba_marseille","lat":43.28269,"lon":5.35061,"is_reserved":false,"is_disabled":false,"rental_uris":{"android":"levelo://app?vid=d1de9c01-2f78-4661-beec-a22f8bea07cf","ios":"levelo://app?vid=d1de9c01-2f78-4661-beec-a22f8bea07cf"},"vehicle_type_id":"4","last_reported":1687701985,"current_range_meters":0,"station_id":"ce4bhbp2rcd13ifvqerg","pricing_plan_id":"free"},{"bike_id":"9cfb9f4e-8ac1-4601-8022-1a73778657bb","system_id":"levelo_inurba_marseille","lat":43.282754,"lon":5.350519,"is_reserved":false,"is_disabled":false,"rental_uris":{"android":"levelo://app?vid=9cfb9f4e-8ac1-4601-8022-1a73778657bb","ios":"levelo://app?vid=9cfb9f4e-8ac1-4601-8022-1a73778657bb"},"vehicle_type_id":"4","last_reported":1687701985,"current_range_meters":31600,"station_id":"ce4bhbp2rcd13ifvqerg","pricing_plan_id":"free"},{"bike_id":"b51f1522-4166-4d9c-8a78-38a469463e52","system_id":"levelo_inurba_marseille","lat":43.28267,"lon":5.35062,"is_reserved":false,"is_disabled":false,"rental_uris":{"android":"levelo://app?vid=b51f1522-4166-4d9c-8a78-38a469463e52","ios":"levelo://app?vid=b51f1522-4166-4d9c-8a78-38a469463e52"},"vehicle_type_id":"4","last_reported":1687701985,"current_range_meters":5600,"station_id":"ce4bhbp2rcd13ifvqerg","pricing_plan_id":"free"},{"bike_id":"38df56ae-70f1-4e18-aef1-abb508cd485b","system_id":"levelo_inurba_marseille","lat":43.28266,"lon":5.35063,"is_reserved":false,"is_disabled":false,"rental_uris":{"android":"levelo://app?vid=38df56ae-70f1-4e18-aef1-abb508cd485b","ios":"levelo://app?vid=38df56ae-70f1-4e18-aef1-abb508cd485b"},"vehicle_type_id":"4","last_reported":1687701985,"current_range_meters":25200,"station_id":"ce4bhbp2rcd13ifvqerg","pricing_plan_id":"free"},{"bike_id":"283dd0ad-cf66-4e5c-884b-d2f37174d1b4","system_id":"levelo_inurba_marseille","lat":43.28264,"lon":5.35069,"is_reserved":false,"is_disabled":false,"rental_uris":{"android":"levelo://app?vid=283dd0ad-cf66-4e5c-884b-d2f37174d1b4","ios":"levelo://app?vid=283dd0ad-cf66-4e5c-884b-d2f37174d1b4"},"vehicle_type_id":"4","last_reported":1687701985,"current_range_meters":15200,"station_id":"ce4bhbp2rcd13ifvqerg","pricing_plan_id":"free"},{"bike_id":"fd6c122e-5725-4fff-9b2a-1409ff5d9991","system_id":"levelo_inurba_marseille","lat":43.28263,"lon":5.35071,"is_reserved":false,"is_disabled":false,"rental_uris":{"android":"levelo://app?vid=fd6c122e-5725-4fff-9b2a-1409ff5d9991","ios":"levelo://app?vid=fd6c122e-5725-4fff-9b2a-1409ff5d9991"},"vehicle_type_id":"4","last_reported":1687701985,"current_range_meters":18000,"station_id":"ce4bhbp2rcd13ifvqerg","pricing_plan_id":"free"},{"bike_id":"158bc783-09ed-41e9-be6c-e798598a7eb6","system_id":"levelo_inurba_marseille","lat":43.28263,"lon":5.35068,"is_reserved":false,"is_disabled":false,"rental_uris":{"android":"levelo://app?vid=158bc783-09ed-41e9-be6c-e798598a7eb6","ios":"levelo://app?vid=158bc783-09ed-41e9-be6c-e798598a7eb6"},"vehicle_type_id":"4","last_reported":1687701985,"current_range_meters":29600,"station_id":"ce4bhbp2rcd13ifvqerg","pricing_plan_id":"free"},{"bike_id":"5c7fa59a-10c0-42f6-a6be-9012a28e247b","system_id":"levelo_inurba_marseille","lat":43.282754,"lon":5.350519,"is_reserved":false,"is_disabled":false,"rental_uris":{"android":"levelo://app?vid=5c7fa59a-10c0-42f6-a6be-9012a28e247b","ios":"levelo://app?vid=5c7fa59a-10c0-42f6-a6be-9012a28e247b"},"vehicle_type_id":"4","last_reported":1687701985,"current_range_meters":4000,"station_id":"ce4bhbp2rcd13ifvqerg","pricing_plan_id":"free"},{"bike_id":"b4f0475f-e8c4-4191-b047-a7d7bb0d7167","system_id":"levelo_inurba_marseille","lat":43.28263,"lon":5.350593,"is_reserved":false,"is_disabled":false,"rental_uris":{"android":"levelo://app?vid=b4f0475f-e8c4-4191-b047-a7d7bb0d7167","ios":"levelo://app?vid=b4f0475f-e8c4-4191-b047-a7d7bb0d7167"},"vehicle_type_id":"4","last_reported":1687701985,"current_range_meters":21600,"station_id":"ce4bhbh2rcd13ifvqepg","pricing_plan_id":"free"},{"bike_id":"83fa2a0b-901b-4b9f-8c6d-b649dcc299d7","system_id":"levelo_inurba_marseille","lat":43.28261,"lon":5.35063,"is_reserved":false,"is_disabled":false,"rental_uris":{"android":"levelo://app?vid=83fa2a0b-901b-4b9f-8c6d-b649dcc299d7","ios":"levelo://app?vid=83fa2a0b-901b-4b9f-8c6d-b649dcc299d7"},"vehicle_type_id":"4","last_reported":1687701985,"current_range_meters":11600,"station_id":"ce4bhbp2rcd13ifvqerg","pricing_plan_id":"free"},{"bike_id":"af084cab-7228-4cb1-b329-e6a3459ff7df","system_id":"levelo_inurba_marseille","lat":43.28258,"lon":5.35072,"is_reserved":false,"is_disabled":false,"rental_uris":{"android":"levelo://app?vid=af084cab-7228-4cb1-b329-e6a3459ff7df","ios":"levelo://app?vid=af084cab-7228-4cb1-b329-e6a3459ff7df"},"vehicle_type_id":"4","last_reported":1687701985,"current_range_meters":26400,"station_id":"ce4bhbp2rcd13ifvqerg","pricing_plan_id":"free"},{"bike_id":"e3b5de97-0689-454e-91b3-193b01b94dad","system_id":"levelo_inurba_marseille","lat":43.28039,"lon":5.369297,"is_reserved":false,"is_disabled":false,"rental_uris":{"android":"levelo://app?vid=e3b5de97-0689-454e-91b3-193b01b94dad","ios":"levelo://app?vid=e3b5de97-0689-454e-91b3-193b01b94dad"},"vehicle_type_id":"4","last_reported":1687701985,"current_range_meters":3200,"station_id":"ce4bha12rcd13ifvqef0","pricing_plan_id":"free"},{"bike_id":"4d455f1a-e16b-4d69-b668-6a454187b9be","system_id":"levelo_inurba_marseille","lat":43.28255,"lon":5.35068,"is_reserved":false,"is_disabled":false,"rental_uris":{"android":"levelo://app?vid=4d455f1a-e16b-4d69-b668-6a454187b9be","ios":"levelo://app?vid=4d455f1a-e16b-4d69-b668-6a454187b9be"},"vehicle_type_id":"4","last_reported":1687701985,"current_range_meters":3600,"station_id":"ce4bhbp2rcd13ifvqerg","pricing_plan_id":"free"},{"bike_id":"899ca437-e6f9-49b3-b575-f6ae27171954","system_id":"levelo_inurba_marseille","lat":43.326605,"lon":5.409903,"is_reserved":false,"is_disabled":false,"rental_uris":{"android":"levelo://app?vid=899ca437-e6f9-49b3-b575-f6ae27171954","ios":"levelo://app?vid=899ca437-e6f9-49b3-b575-f6ae27171954"},"vehicle_type_id":"4","last_reported":1687701985,"current_range_meters":31200,"station_id":"ce4bhpp2rcd13ifvqhgg","pricing_plan_id":"free"},{"bike_id":"ebeb8ff5-e51c-4b18-b07a-c62304e88b17","system_id":"levelo_inurba_marseille","lat":43.326605,"lon":5.409903,"is_reserved":false,"is_disabled":false,"rental_uris":{"android":"levelo://app?vid=ebeb8ff5-e51c-4b18-b07a-c62304e88b17","ios":"levelo://app?vid=ebeb8ff5-e51c-4b18-b07a-c62304e88b17"},"vehicle_type_id":"4","last_reported":1687701985,"current_range_meters":31200,"station_id":"ce4bhpp2rcd13ifvqhgg","pricing_plan_id":"free"},{"bike_id":"ff60adae-f71a-4e2f-9c03-c28e9ecc3c45","system_id":"levelo_inurba_marseille","lat":43.326605,"lon":5.409903,"is_reserved":false,"is_disabled":false,"rental_uris":{"android":"levelo://app?vid=ff60adae-f71a-4e2f-9c03-c28e9ecc3c45","ios":"levelo://app?vid=ff60adae-f71a-4e2f-9c03-c28e9ecc3c45"},"vehicle_type_id":"4","last_reported":1687701985,"current_range_meters":31600,"station_id":"ce4bhpp2rcd13ifvqhgg","pricing_plan_id":"free"},{"bike_id":"7f4e5f33-3d6b-4470-b773-9bb881f7fc86","system_id":"levelo_inurba_marseille","lat":43.326576,"lon":5.409933,"is_reserved":false,"is_disabled":false,"rental_uris":{"android":"levelo://app?vid=7f4e5f33-3d6b-4470-b773-9bb881f7fc86","ios":"levelo://app?vid=7f4e5f33-3d6b-4470-b773-9bb881f7fc86"},"vehicle_type_id":"4","last_reported":1687701985,"current_range_meters":0,"station_id":"ce4bhpp2rcd13ifvqhgg","pricing_plan_id":"free"},{"bike_id":"e5f19913-67c1-4c42-889b-a58207584fb0","system_id":"levelo_inurba_marseille","lat":43.326605,"lon":5.409903,"is_reserved":false,"is_disabled":false,"rental_uris":{"android":"levelo://app?vid=e5f19913-67c1-4c42-889b-a58207584fb0","ios":"levelo://app?vid=e5f19913-67c1-4c42-889b-a58207584fb0"},"vehicle_type_id":"4","last_reported":1687701985,"current_range_meters":23600,"station_id":"ce4bhpp2rcd13ifvqhgg","pricing_plan_id":"free"},{"bike_id":"50fd953c-9754-45f4-aec7-ae52bb9eb6fe","system_id":"levelo_inurba_marseille","lat":43.287154,"lon":5.399979,"is_reserved":false,"is_disabled":false,"rental_uris":{"android":"levelo://app?vid=50fd953c-9754-45f4-aec7-ae52bb9eb6fe","ios":"levelo://app?vid=50fd953c-9754-45f4-aec7-ae52bb9eb6fe"},"vehicle_type_id":"4","last_reported":1687701985,"current_range_meters":31200,"station_id":"ce4bho92rcd13ifvqh3g","pricing_plan_id":"free"},{"bike_id":"0eb1eea2-9324-47ac-9322-4bc9f3bf5ff4","system_id":"levelo_inurba_marseille","lat":43.28704,"lon":5.39993,"is_reserved":false,"is_disabled":false,"rental_uris":{"android":"levelo://app?vid=0eb1eea2-9324-47ac-9322-4bc9f3bf5ff4","ios":"levelo://app?vid=0eb1eea2-9324-47ac-9322-4bc9f3bf5ff4"},"vehicle_type_id":"4","last_reported":1687701985,"current_range_meters":12400,"station_id":"ce4bho92rcd13ifvqh3g","pricing_plan_id":"free"},{"bike_id":"f2b75754-37dd-47ba-8cd3-46041007b0ea","system_id":"levelo_inurba_marseille","lat":43.287154,"lon":5.399979,"is_reserved":false,"is_disabled":false,"rental_uris":{"android":"levelo://app?vid=f2b75754-37dd-47ba-8cd3-46041007b0ea","ios":"levelo://app?vid=f2b75754-37dd-47ba-8cd3-46041007b0ea"},"vehicle_type_id":"4","last_reported":1687701985,"current_range_meters":0,"station_id":"ce4bho92rcd13ifvqh3g","pricing_plan_id":"free"},{"bike_id":"b53c8549-56e4-4970-8294-9584e693bef7","system_id":"levelo_inurba_marseille","lat":43.3321,"lon":5.40747,"is_reserved":false,"is_disabled":false,"rental_uris":{"android":"levelo://app?vid=b53c8549-56e4-4970-8294-9584e693bef7","ios":"levelo://app?vid=b53c8549-56e4-4970-8294-9584e693bef7"},"vehicle_type_id":"4","last_reported":1687701985,"current_range_meters":0,"station_id":"","pricing_plan_id":"free"},{"bike_id":"7d9fe9e8-83b8-4b3d-9256-e7bf7b5bc8bc","system_id":"levelo_inurba_marseille","lat":43.299579,"lon":5.413255,"is_reserved":false,"is_disabled":false,"rental_uris":{"android":"levelo://app?vid=7d9fe9e8-83b8-4b3d-9256-e7bf7b5bc8bc","ios":"levelo://app?vid=7d9fe9e8-83b8-4b3d-9256-e7bf7b5bc8bc"},"vehicle_type_id":"4","last_reported":1687701985,"current_range_meters":5200,"station_id":"ce4bhp12rcd13ifvqh9g","pricing_plan_id":"free"},{"bike_id":"fe75d0f9-4536-4209-9e20-3b6ca64537a9","system_id":"levelo_inurba_marseille","lat":43.276179,"lon":5.361009,"is_reserved":false,"is_disabled":false,"rental_uris":{"android":"levelo://app?vid=fe75d0f9-4536-4209-9e20-3b6ca64537a9","ios":"levelo://app?vid=fe75d0f9-4536-4209-9e20-3b6ca64537a9"},"vehicle_type_id":"4","last_reported":1687701985,"current_range_meters":14000,"station_id":"ce4bgj92rcd13ifvqbe0","pricing_plan_id":"free"},{"bike_id":"60842047-c323-4cb7-b746-001719948402","system_id":"levelo_inurba_marseille","lat":43.276179,"lon":5.361009,"is_reserved":false,"is_disabled":false,"rental_uris":{"android":"levelo://app?vid=60842047-c323-4cb7-b746-001719948402","ios":"levelo://app?vid=60842047-c323-4cb7-b746-001719948402"},"vehicle_type_id":"4","last_reported":1687701985,"current_range_meters":24800,"station_id":"ce4bgj92rcd13ifvqbe0","pricing_plan_id":"free"},{"bike_id":"adf0ea61-0d73-49a9-81f8-7ebe6388818f","system_id":"levelo_inurba_marseille","lat":43.325243,"lon":5.414326,"is_reserved":false,"is_disabled":false,"rental_uris":{"android":"levelo://app?vid=adf0ea61-0d73-49a9-81f8-7ebe6388818f","ios":"levelo://app?vid=adf0ea61-0d73-49a9-81f8-7ebe6388818f"},"vehicle_type_id":"4","last_reported":1687701985,"current_range_meters":21200,"station_id":"ce4bhq12rcd13ifvqhhg","pricing_plan_id":"free"},{"bike_id":"6b081579-5bc6-4147-a52b-60a25fbaf4d1","system_id":"levelo_inurba_marseille","lat":43.325233,"lon":5.414318,"is_reserved":false,"is_disabled":false,"rental_uris":{"android":"levelo://app?vid=6b081579-5bc6-4147-a52b-60a25fbaf4d1","ios":"levelo://app?vid=6b081579-5bc6-4147-a52b-60a25fbaf4d1"},"vehicle_type_id":"4","last_reported":1687701985,"current_range_meters":29200,"station_id":"ce4bhq12rcd13ifvqhhg","pricing_plan_id":"free"},{"bike_id":"e73900ad-bdf3-48b5-892e-cbd3af007b28","system_id":"levelo_inurba_marseille","lat":43.325233,"lon":5.414318,"is_reserved":false,"is_disabled":false,"rental_uris":{"android":"levelo://app?vid=e73900ad-bdf3-48b5-892e-cbd3af007b28","ios":"levelo://app?vid=e73900ad-bdf3-48b5-892e-cbd3af007b28"},"vehicle_type_id":"4","last_reported":1687701985,"current_range_meters":28400,"station_id":"ce4bhq12rcd13ifvqhhg","pricing_plan_id":"free"},{"bike_id":"7214c09a-664c-453e-9789-665897393467","system_id":"levelo_inurba_marseille","lat":43.276179,"lon":5.361009,"is_reserved":false,"is_disabled":false,"rental_uris":{"android":"levelo://app?vid=7214c09a-664c-453e-9789-665897393467","ios":"levelo://app?vid=7214c09a-664c-453e-9789-665897393467"},"vehicle_type_id":"4","last_reported":1687701985,"current_range_meters":15600,"station_id":"ce4bgj92rcd13ifvqbe0","pricing_plan_id":"free"},{"bike_id":"5b8ed45a-8d6b-4f5a-9063-f50226e4be5e","system_id":"levelo_inurba_marseille","lat":43.280784,"lon":5.396622,"is_reserved":false,"is_disabled":false,"rental_uris":{"android":"levelo://app?vid=5b8ed45a-8d6b-4f5a-9063-f50226e4be5e","ios":"levelo://app?vid=5b8ed45a-8d6b-4f5a-9063-f50226e4be5e"},"vehicle_type_id":"4","last_reported":1687701985,"current_range_meters":30800,"station_id":"ce4bho12rcd13ifvqh2g","pricing_plan_id":"free"},{"bike_id":"b66058ba-7f2f-400e-8151-5a71cf7e7044","system_id":"levelo_inurba_marseille","lat":43.280784,"lon":5.396622,"is_reserved":false,"is_disabled":false,"rental_uris":{"android":"levelo://app?vid=b66058ba-7f2f-400e-8151-5a71cf7e7044","ios":"levelo://app?vid=b66058ba-7f2f-400e-8151-5a71cf7e7044"},"vehicle_type_id":"4","last_reported":1687701985,"current_range_meters":7200,"station_id":"ce4bho12rcd13ifvqh2g","pricing_plan_id":"free"},{"bike_id":"7581df7e-e058-4b39-a568-bb0e70512a61","system_id":"levelo_inurba_marseille","lat":43.280784,"lon":5.396622,"is_reserved":false,"is_disabled":false,"rental_uris":{"android":"levelo://app?vid=7581df7e-e058-4b39-a568-bb0e70512a61","ios":"levelo://app?vid=7581df7e-e058-4b39-a568-bb0e70512a61"},"vehicle_type_id":"4","last_reported":1687701985,"current_range_meters":30000,"station_id":"ce4bho12rcd13ifvqh2g","pricing_plan_id":"free"},{"bike_id":"30a6d97a-1ab8-4925-882c-d8c3621943e4","system_id":"levelo_inurba_marseille","lat":43.280784,"lon":5.396622,"is_reserved":false,"is_disabled":false,"rental_uris":{"android":"levelo://app?vid=30a6d97a-1ab8-4925-882c-d8c3621943e4","ios":"levelo://app?vid=30a6d97a-1ab8-4925-882c-d8c3621943e4"},"vehicle_type_id":"4","last_reported":1687701985,"current_range_meters":1600,"station_id":"ce4bho12rcd13ifvqh2g","pricing_plan_id":"free"},{"bike_id":"09a7840a-53d6-423f-994e-26e7323145c9","system_id":"levelo_inurba_marseille","lat":43.278399,"lon":5.392139,"is_reserved":false,"is_disabled":false,"rental_uris":{"android":"levelo://app?vid=09a7840a-53d6-423f-994e-26e7323145c9","ios":"levelo://app?vid=09a7840a-53d6-423f-994e-26e7323145c9"},"vehicle_type_id":"4","last_reported":1687701985,"current_range_meters":31200,"station_id":"ce4bhjp2rcd13ifvqga0","pricing_plan_id":"free"},{"bike_id":"6668380c-5ec4-4bf2-9404-99736203e327","system_id":"levelo_inurba_marseille","lat":43.278399,"lon":5.392139,"is_reserved":false,"is_disabled":false,"rental_uris":{"android":"levelo://app?vid=6668380c-5ec4-4bf2-9404-99736203e327","ios":"levelo://app?vid=6668380c-5ec4-4bf2-9404-99736203e327"},"vehicle_type_id":"4","last_reported":1687701985,"current_range_meters":3600,"station_id":"ce4bhjp2rcd13ifvqga0","pricing_plan_id":"free"},{"bike_id":"1bac3160-f7db-4715-bb52-42333d84c069","system_id":"levelo_inurba_marseille","lat":43.27382,"lon":5.36251,"is_reserved":false,"is_disabled":false,"rental_uris":{"android":"levelo://app?vid=1bac3160-f7db-4715-bb52-42333d84c069","ios":"levelo://app?vid=1bac3160-f7db-4715-bb52-42333d84c069"},"vehicle_type_id":"4","last_reported":1687701985,"current_range_meters":0,"station_id":"","pricing_plan_id":"free"},{"bike_id":"333ff5cf-bc22-4a89-a415-a54baff31708","system_id":"levelo_inurba_marseille","lat":43.27377,"lon":5.36249,"is_reserved":false,"is_disabled":false,"rental_uris":{"android":"levelo://app?vid=333ff5cf-bc22-4a89-a415-a54baff31708","ios":"levelo://app?vid=333ff5cf-bc22-4a89-a415-a54baff31708"},"vehicle_type_id":"4","last_reported":1687701985,"current_range_meters":15200,"station_id":"ce4bhbh2rcd13ifvqeo0","pricing_plan_id":"free"},{"bike_id":"4f88a926-8e16-4a4c-842d-3d6427bca321","system_id":"levelo_inurba_marseille","lat":43.273609,"lon":5.362708,"is_reserved":false,"is_disabled":false,"rental_uris":{"android":"levelo://app?vid=4f88a926-8e16-4a4c-842d-3d6427bca321","ios":"levelo://app?vid=4f88a926-8e16-4a4c-842d-3d6427bca321"},"vehicle_type_id":"4","last_reported":1687701985,"current_range_meters":6400,"station_id":"ce4bhbh2rcd13ifvqeo0","pricing_plan_id":"free"},{"bike_id":"8d102ad5-16fe-419f-9b49-063fbaa660d8","system_id":"levelo_inurba_marseille","lat":43.273609,"lon":5.362708,"is_reserved":false,"is_disabled":false,"rental_uris":{"android":"levelo://app?vid=8d102ad5-16fe-419f-9b49-063fbaa660d8","ios":"levelo://app?vid=8d102ad5-16fe-419f-9b49-063fbaa660d8"},"vehicle_type_id":"4","last_reported":1687701985,"current_range_meters":16400,"station_id":"ce4bhbh2rcd13ifvqeo0","pricing_plan_id":"free"},{"bike_id":"eaeea086-60b8-4a74-a914-6e548c3abf16","system_id":"levelo_inurba_marseille","lat":43.273609,"lon":5.362708,"is_reserved":false,"is_disabled":false,"rental_uris":{"android":"levelo://app?vid=eaeea086-60b8-4a74-a914-6e548c3abf16","ios":"levelo://app?vid=eaeea086-60b8-4a74-a914-6e548c3abf16"},"vehicle_type_id":"4","last_reported":1687701985,"current_range_meters":21600,"station_id":"ce4bhbh2rcd13ifvqeo0","pricing_plan_id":"free"},{"bike_id":"ee253b77-c1ff-4032-aad8-bf1db59b7a76","system_id":"levelo_inurba_marseille","lat":43.273609,"lon":5.362708,"is_reserved":false,"is_disabled":false,"rental_uris":{"android":"levelo://app?vid=ee253b77-c1ff-4032-aad8-bf1db59b7a76","ios":"levelo://app?vid=ee253b77-c1ff-4032-aad8-bf1db59b7a76"},"vehicle_type_id":"4","last_reported":1687701985,"current_range_meters":20000,"station_id":"ce4bhbh2rcd13ifvqeo0","pricing_plan_id":"free"},{"bike_id":"558b88ea-dce2-4c5d-b943-88e77e682d02","system_id":"levelo_inurba_marseille","lat":43.31716,"lon":5.42399,"is_reserved":false,"is_disabled":false,"rental_uris":{"android":"levelo://app?vid=558b88ea-dce2-4c5d-b943-88e77e682d02","ios":"levelo://app?vid=558b88ea-dce2-4c5d-b943-88e77e682d02"},"vehicle_type_id":"4","last_reported":1687701985,"current_range_meters":28800,"station_id":"ce4bhp92rcd13ifvqhbg","pricing_plan_id":"free"},{"bike_id":"01208fbe-9431-4ed6-ac1f-e90329c35bdb","system_id":"levelo_inurba_marseille","lat":43.26955,"lon":5.36633,"is_reserved":false,"is_disabled":false,"rental_uris":{"android":"levelo://app?vid=01208fbe-9431-4ed6-ac1f-e90329c35bdb","ios":"levelo://app?vid=01208fbe-9431-4ed6-ac1f-e90329c35bdb"},"vehicle_type_id":"4","last_reported":1687701985,"current_range_meters":0,"station_id":"","pricing_plan_id":"free"},{"bike_id":"487b254e-8a6e-438f-bed4-bfb94cbac8ff","system_id":"levelo_inurba_marseille","lat":43.27428,"lon":5.39413,"is_reserved":false,"is_disabled":false,"rental_uris":{"android":"levelo://app?vid=487b254e-8a6e-438f-bed4-bfb94cbac8ff","ios":"levelo://app?vid=487b254e-8a6e-438f-bed4-bfb94cbac8ff"},"vehicle_type_id":"4","last_reported":1687701985,"current_range_meters":31200,"station_id":"","pricing_plan_id":"free"},{"bike_id":"9c2483ad-2a9c-4abc-afb8-14e1eea0bda8","system_id":"levelo_inurba_marseille","lat":43.304096,"lon":5.425385,"is_reserved":false,"is_disabled":false,"rental_uris":{"android":"levelo://app?vid=9c2483ad-2a9c-4abc-afb8-14e1eea0bda8","ios":"levelo://app?vid=9c2483ad-2a9c-4abc-afb8-14e1eea0bda8"},"vehicle_type_id":"4","last_reported":1687701985,"current_range_meters":26400,"station_id":"ce4bhoh2rcd13ifvqh6g","pricing_plan_id":"free"},{"bike_id":"28cf8a12-f787-4419-8cba-956be39ba6c8","system_id":"levelo_inurba_marseille","lat":43.304096,"lon":5.425385,"is_reserved":false,"is_disabled":false,"rental_uris":{"android":"levelo://app?vid=28cf8a12-f787-4419-8cba-956be39ba6c8","ios":"levelo://app?vid=28cf8a12-f787-4419-8cba-956be39ba6c8"},"vehicle_type_id":"4","last_reported":1687701985,"current_range_meters":21600,"station_id":"ce4bhoh2rcd13ifvqh6g","pricing_plan_id":"free"},{"bike_id":"9b8e2697-587d-4ff3-b8ec-e9ab942b0253","system_id":"levelo_inurba_marseille","lat":43.295523,"lon":5.422926,"is_reserved":false,"is_disabled":false,"rental_uris":{"android":"levelo://app?vid=9b8e2697-587d-4ff3-b8ec-e9ab942b0253","ios":"levelo://app?vid=9b8e2697-587d-4ff3-b8ec-e9ab942b0253"},"vehicle_type_id":"4","last_reported":1687701985,"current_range_meters":28800,"station_id":"ce4bhph2rcd13ifvqhdg","pricing_plan_id":"free"},{"bike_id":"e958e9f7-963a-45ac-9462-a90c3b9c146c","system_id":"levelo_inurba_marseille","lat":43.295511,"lon":5.422926,"is_reserved":false,"is_disabled":false,"rental_uris":{"android":"levelo://app?vid=e958e9f7-963a-45ac-9462-a90c3b9c146c","ios":"levelo://app?vid=e958e9f7-963a-45ac-9462-a90c3b9c146c"},"vehicle_type_id":"4","last_reported":1687701985,"current_range_meters":31200,"station_id":"ce4bhph2rcd13ifvqhdg","pricing_plan_id":"free"},{"bike_id":"c7f038ba-91cd-404d-a312-5531522594ce","system_id":"levelo_inurba_marseille","lat":43.27209,"lon":5.39176,"is_reserved":false,"is_disabled":false,"rental_uris":{"android":"levelo://app?vid=c7f038ba-91cd-404d-a312-5531522594ce","ios":"levelo://app?vid=c7f038ba-91cd-404d-a312-5531522594ce"},"vehicle_type_id":"4","last_reported":1687701985,"current_range_meters":15600,"station_id":"ce4bhhp2rcd13ifvqfm0","pricing_plan_id":"free"},{"bike_id":"4fa21102-9c5c-4785-8da0-3d7f957b0c31","system_id":"levelo_inurba_marseille","lat":43.272118,"lon":5.391758,"is_reserved":false,"is_disabled":false,"rental_uris":{"android":"levelo://app?vid=4fa21102-9c5c-4785-8da0-3d7f957b0c31","ios":"levelo://app?vid=4fa21102-9c5c-4785-8da0-3d7f957b0c31"},"vehicle_type_id":"4","last_reported":1687701985,"current_range_meters":27600,"station_id":"ce4bhhp2rcd13ifvqfm0","pricing_plan_id":"free"},{"bike_id":"130381d4-cd5a-406c-9f7a-b3c428e02b88","system_id":"levelo_inurba_marseille","lat":43.272124,"lon":5.391768,"is_reserved":false,"is_disabled":false,"rental_uris":{"android":"levelo://app?vid=130381d4-cd5a-406c-9f7a-b3c428e02b88","ios":"levelo://app?vid=130381d4-cd5a-406c-9f7a-b3c428e02b88"},"vehicle_type_id":"4","last_reported":1687701985,"current_range_meters":8400,"station_id":"ce4bhhp2rcd13ifvqfm0","pricing_plan_id":"free"},{"bike_id":"22cd4a84-2747-439b-ae34-21b4519f3645","system_id":"levelo_inurba_marseille","lat":43.26681,"lon":5.382694,"is_reserved":false,"is_disabled":false,"rental_uris":{"android":"levelo://app?vid=22cd4a84-2747-439b-ae34-21b4519f3645","ios":"levelo://app?vid=22cd4a84-2747-439b-ae34-21b4519f3645"},"vehicle_type_id":"4","last_reported":1687701985,"current_range_meters":20800,"station_id":"ce4bhg92rcd13ifvqf90","pricing_plan_id":"free"},{"bike_id":"0f6ed058-0a81-4dfb-95d2-3c574da98623","system_id":"levelo_inurba_marseille","lat":43.27996,"lon":5.416624,"is_reserved":false,"is_disabled":false,"rental_uris":{"android":"levelo://app?vid=0f6ed058-0a81-4dfb-95d2-3c574da98623","ios":"levelo://app?vid=0f6ed058-0a81-4dfb-95d2-3c574da98623"},"vehicle_type_id":"4","last_reported":1687701985,"current_range_meters":31200,"station_id":"ce4bho12rcd13ifvqh1g","pricing_plan_id":"free"},{"bike_id":"2ced362b-b784-4b01-a3fe-e2e4a0adb6b6","system_id":"levelo_inurba_marseille","lat":43.27997,"lon":5.4166,"is_reserved":false,"is_disabled":false,"rental_uris":{"android":"levelo://app?vid=2ced362b-b784-4b01-a3fe-e2e4a0adb6b6","ios":"levelo://app?vid=2ced362b-b784-4b01-a3fe-e2e4a0adb6b6"},"vehicle_type_id":"4","last_reported":1687701985,"current_range_meters":19600,"station_id":"ce4bho12rcd13ifvqh1g","pricing_plan_id":"free"},{"bike_id":"43c6b75d-e121-4049-8652-a7bd7411ace2","system_id":"levelo_inurba_marseille","lat":43.27996,"lon":5.416624,"is_reserved":false,"is_disabled":false,"rental_uris":{"android":"levelo://app?vid=43c6b75d-e121-4049-8652-a7bd7411ace2","ios":"levelo://app?vid=43c6b75d-e121-4049-8652-a7bd7411ace2"},"vehicle_type_id":"4","last_reported":1687701985,"current_range_meters":9200,"station_id":"ce4bho12rcd13ifvqh1g","pricing_plan_id":"free"},{"bike_id":"3344b3fb-bb37-4d4b-8736-6bb9a1b600a4","system_id":"levelo_inurba_marseille","lat":43.27994,"lon":5.41661,"is_reserved":false,"is_disabled":false,"rental_uris":{"android":"levelo://app?vid=3344b3fb-bb37-4d4b-8736-6bb9a1b600a4","ios":"levelo://app?vid=3344b3fb-bb37-4d4b-8736-6bb9a1b600a4"},"vehicle_type_id":"4","last_reported":1687701985,"current_range_meters":26800,"station_id":"ce4bho12rcd13ifvqh1g","pricing_plan_id":"free"},{"bike_id":"33cad336-ca87-49e4-9aa8-30c745d85156","system_id":"levelo_inurba_marseille","lat":43.27996,"lon":5.416624,"is_reserved":false,"is_disabled":false,"rental_uris":{"android":"levelo://app?vid=33cad336-ca87-49e4-9aa8-30c745d85156","ios":"levelo://app?vid=33cad336-ca87-49e4-9aa8-30c745d85156"},"vehicle_type_id":"4","last_reported":1687701985,"current_range_meters":15600,"station_id":"ce4bho12rcd13ifvqh1g","pricing_plan_id":"free"},{"bike_id":"fa5e760d-dfbf-4c1b-87cb-5a5fc9eee993","system_id":"levelo_inurba_marseille","lat":43.27996,"lon":5.416624,"is_reserved":false,"is_disabled":false,"rental_uris":{"android":"levelo://app?vid=fa5e760d-dfbf-4c1b-87cb-5a5fc9eee993","ios":"levelo://app?vid=fa5e760d-dfbf-4c1b-87cb-5a5fc9eee993"},"vehicle_type_id":"4","last_reported":1687701985,"current_range_meters":22000,"station_id":"ce4bho12rcd13ifvqh1g","pricing_plan_id":"free"},{"bike_id":"9a0b3183-049c-4444-9888-3c50fcbfb911","system_id":"levelo_inurba_marseille","lat":43.27996,"lon":5.416624,"is_reserved":false,"is_disabled":false,"rental_uris":{"android":"levelo://app?vid=9a0b3183-049c-4444-9888-3c50fcbfb911","ios":"levelo://app?vid=9a0b3183-049c-4444-9888-3c50fcbfb911"},"vehicle_type_id":"4","last_reported":1687701985,"current_range_meters":30400,"station_id":"ce4bho12rcd13ifvqh1g","pricing_plan_id":"free"},{"bike_id":"59cbe1eb-44df-451e-bdc0-ab214cabfe39","system_id":"levelo_inurba_marseille","lat":43.26326,"lon":5.37569,"is_reserved":false,"is_disabled":false,"rental_uris":{"android":"levelo://app?vid=59cbe1eb-44df-451e-bdc0-ab214cabfe39","ios":"levelo://app?vid=59cbe1eb-44df-451e-bdc0-ab214cabfe39"},"vehicle_type_id":"4","last_reported":1687701985,"current_range_meters":8800,"station_id":"","pricing_plan_id":"free"},{"bike_id":"a21be65e-9214-4ae7-b4ea-e4718d99b2ed","system_id":"levelo_inurba_marseille","lat":43.30808,"lon":5.4352,"is_reserved":false,"is_disabled":false,"rental_uris":{"android":"levelo://app?vid=a21be65e-9214-4ae7-b4ea-e4718d99b2ed","ios":"levelo://app?vid=a21be65e-9214-4ae7-b4ea-e4718d99b2ed"},"vehicle_type_id":"4","last_reported":1687701985,"current_range_meters":2800,"station_id":"ce4bhph2rcd13ifvqheg","pricing_plan_id":"free"},{"bike_id":"10b6c883-cb31-4d28-876e-578de0e817cf","system_id":"levelo_inurba_marseille","lat":43.30808,"lon":5.4352,"is_reserved":false,"is_disabled":false,"rental_uris":{"android":"levelo://app?vid=10b6c883-cb31-4d28-876e-578de0e817cf","ios":"levelo://app?vid=10b6c883-cb31-4d28-876e-578de0e817cf"},"vehicle_type_id":"4","last_reported":1687701985,"current_range_meters":8000,"station_id":"ce4bhph2rcd13ifvqheg","pricing_plan_id":"free"},{"bike_id":"46e67c8b-b6c3-4c76-8fb1-57c130e6fc17","system_id":"levelo_inurba_marseille","lat":43.308051,"lon":5.43527,"is_reserved":false,"is_disabled":false,"rental_uris":{"android":"levelo://app?vid=46e67c8b-b6c3-4c76-8fb1-57c130e6fc17","ios":"levelo://app?vid=46e67c8b-b6c3-4c76-8fb1-57c130e6fc17"},"vehicle_type_id":"4","last_reported":1687701985,"current_range_meters":18400,"station_id":"ce4bhph2rcd13ifvqheg","pricing_plan_id":"free"},{"bike_id":"d2e70966-95eb-489f-8366-135354866108","system_id":"levelo_inurba_marseille","lat":43.30806,"lon":5.43524,"is_reserved":false,"is_disabled":false,"rental_uris":{"android":"levelo://app?vid=d2e70966-95eb-489f-8366-135354866108","ios":"levelo://app?vid=d2e70966-95eb-489f-8366-135354866108"},"vehicle_type_id":"4","last_reported":1687701985,"current_range_meters":17600,"station_id":"ce4bhph2rcd13ifvqheg","pricing_plan_id":"free"},{"bike_id":"edc3ebe4-9a7c-43b9-bd79-3b964ef5926b","system_id":"levelo_inurba_marseille","lat":43.30795,"lon":5.43524,"is_reserved":false,"is_disabled":false,"rental_uris":{"android":"levelo://app?vid=edc3ebe4-9a7c-43b9-bd79-3b964ef5926b","ios":"levelo://app?vid=edc3ebe4-9a7c-43b9-bd79-3b964ef5926b"},"vehicle_type_id":"4","last_reported":1687701985,"current_range_meters":28000,"station_id":"ce4bhph2rcd13ifvqheg","pricing_plan_id":"free"},{"bike_id":"4d209566-1427-47ac-9d19-9043b349909c","system_id":"levelo_inurba_marseille","lat":43.30801,"lon":5.43528,"is_reserved":false,"is_disabled":false,"rental_uris":{"android":"levelo://app?vid=4d209566-1427-47ac-9d19-9043b349909c","ios":"levelo://app?vid=4d209566-1427-47ac-9d19-9043b349909c"},"vehicle_type_id":"4","last_reported":1687701985,"current_range_meters":21200,"station_id":"ce4bhph2rcd13ifvqheg","pricing_plan_id":"free"},{"bike_id":"5fc9cbd2-37c6-4e07-9daf-6d29398ce78b","system_id":"levelo_inurba_marseille","lat":43.265569,"lon":5.390047,"is_reserved":false,"is_disabled":false,"rental_uris":{"android":"levelo://app?vid=5fc9cbd2-37c6-4e07-9daf-6d29398ce78b","ios":"levelo://app?vid=5fc9cbd2-37c6-4e07-9daf-6d29398ce78b"},"vehicle_type_id":"4","last_reported":1687701985,"current_range_meters":13600,"station_id":"ce4bhe12rcd13ifvqf30","pricing_plan_id":"free"},{"bike_id":"8f2518ba-f627-482f-b51d-b3239f74097f","system_id":"levelo_inurba_marseille","lat":43.261782,"lon":5.374515,"is_reserved":false,"is_disabled":false,"rental_uris":{"android":"levelo://app?vid=8f2518ba-f627-482f-b51d-b3239f74097f","ios":"levelo://app?vid=8f2518ba-f627-482f-b51d-b3239f74097f"},"vehicle_type_id":"4","last_reported":1687701985,"current_range_meters":31600,"station_id":"ce4bhgp2rcd13ifvqfc0","pricing_plan_id":"free"},{"bike_id":"ff16edc9-66a7-4759-bf1c-1914a8897ff9","system_id":"levelo_inurba_marseille","lat":43.261782,"lon":5.374515,"is_reserved":false,"is_disabled":false,"rental_uris":{"android":"levelo://app?vid=ff16edc9-66a7-4759-bf1c-1914a8897ff9","ios":"levelo://app?vid=ff16edc9-66a7-4759-bf1c-1914a8897ff9"},"vehicle_type_id":"4","last_reported":1687701985,"current_range_meters":27600,"station_id":"ce4bhgp2rcd13ifvqfc0","pricing_plan_id":"free"},{"bike_id":"f7a6ae21-2b89-4d04-a831-db6a62ad3e7e","system_id":"levelo_inurba_marseille","lat":43.261782,"lon":5.374515,"is_reserved":false,"is_disabled":false,"rental_uris":{"android":"levelo://app?vid=f7a6ae21-2b89-4d04-a831-db6a62ad3e7e","ios":"levelo://app?vid=f7a6ae21-2b89-4d04-a831-db6a62ad3e7e"},"vehicle_type_id":"4","last_reported":1687701985,"current_range_meters":26800,"station_id":"ce4bhgp2rcd13ifvqfc0","pricing_plan_id":"free"},{"bike_id":"cf0717cb-8f0c-4a95-8ab2-9706f515760e","system_id":"levelo_inurba_marseille","lat":43.261782,"lon":5.374515,"is_reserved":false,"is_disabled":false,"rental_uris":{"android":"levelo://app?vid=cf0717cb-8f0c-4a95-8ab2-9706f515760e","ios":"levelo://app?vid=cf0717cb-8f0c-4a95-8ab2-9706f515760e"},"vehicle_type_id":"4","last_reported":1687701985,"current_range_meters":31600,"station_id":"ce4bhgp2rcd13ifvqfc0","pricing_plan_id":"free"},{"bike_id":"4b50811d-e7b9-463d-a6de-40d896d25786","system_id":"levelo_inurba_marseille","lat":43.261782,"lon":5.374515,"is_reserved":false,"is_disabled":false,"rental_uris":{"android":"levelo://app?vid=4b50811d-e7b9-463d-a6de-40d896d25786","ios":"levelo://app?vid=4b50811d-e7b9-463d-a6de-40d896d25786"},"vehicle_type_id":"4","last_reported":1687701985,"current_range_meters":20800,"station_id":"ce4bhgp2rcd13ifvqfc0","pricing_plan_id":"free"},{"bike_id":"0af48d75-de8d-4df9-97dc-e1cab3dedc55","system_id":"levelo_inurba_marseille","lat":43.2619,"lon":5.37443,"is_reserved":false,"is_disabled":false,"rental_uris":{"android":"levelo://app?vid=0af48d75-de8d-4df9-97dc-e1cab3dedc55","ios":"levelo://app?vid=0af48d75-de8d-4df9-97dc-e1cab3dedc55"},"vehicle_type_id":"4","last_reported":1687701985,"current_range_meters":31200,"station_id":"ce4bhgp2rcd13ifvqfc0","pricing_plan_id":"free"},{"bike_id":"25028a07-f083-418c-ad51-dfd4e0dcbe27","system_id":"levelo_inurba_marseille","lat":43.26189,"lon":5.37435,"is_reserved":false,"is_disabled":false,"rental_uris":{"android":"levelo://app?vid=25028a07-f083-418c-ad51-dfd4e0dcbe27","ios":"levelo://app?vid=25028a07-f083-418c-ad51-dfd4e0dcbe27"},"vehicle_type_id":"4","last_reported":1687701985,"current_range_meters":10400,"station_id":"ce4bhgp2rcd13ifvqfc0","pricing_plan_id":"free"},{"bike_id":"c6328e65-b14c-48ba-a51a-ac70ed19df4e","system_id":"levelo_inurba_marseille","lat":43.261782,"lon":5.374515,"is_reserved":false,"is_disabled":false,"rental_uris":{"android":"levelo://app?vid=c6328e65-b14c-48ba-a51a-ac70ed19df4e","ios":"levelo://app?vid=c6328e65-b14c-48ba-a51a-ac70ed19df4e"},"vehicle_type_id":"4","last_reported":1687701985,"current_range_meters":19200,"station_id":"ce4bhgp2rcd13ifvqfc0","pricing_plan_id":"free"},{"bike_id":"be0ca998-fb8d-48f1-b3d7-f52191204881","system_id":"levelo_inurba_marseille","lat":43.26186,"lon":5.37444,"is_reserved":false,"is_disabled":false,"rental_uris":{"android":"levelo://app?vid=be0ca998-fb8d-48f1-b3d7-f52191204881","ios":"levelo://app?vid=be0ca998-fb8d-48f1-b3d7-f52191204881"},"vehicle_type_id":"4","last_reported":1687701985,"current_range_meters":20800,"station_id":"ce4bhgp2rcd13ifvqfc0","pricing_plan_id":"free"},{"bike_id":"8bb349ff-2743-4652-ba1b-5e77653648a5","system_id":"levelo_inurba_marseille","lat":43.26186,"lon":5.37445,"is_reserved":false,"is_disabled":false,"rental_uris":{"android":"levelo://app?vid=8bb349ff-2743-4652-ba1b-5e77653648a5","ios":"levelo://app?vid=8bb349ff-2743-4652-ba1b-5e77653648a5"},"vehicle_type_id":"4","last_reported":1687701985,"current_range_meters":6800,"station_id":"ce4bhgp2rcd13ifvqfc0","pricing_plan_id":"free"},{"bike_id":"a3d9636a-bcdc-4e2f-aa7a-9634fd745f25","system_id":"levelo_inurba_marseille","lat":43.261782,"lon":5.374515,"is_reserved":false,"is_disabled":false,"rental_uris":{"android":"levelo://app?vid=a3d9636a-bcdc-4e2f-aa7a-9634fd745f25","ios":"levelo://app?vid=a3d9636a-bcdc-4e2f-aa7a-9634fd745f25"},"vehicle_type_id":"4","last_reported":1687701985,"current_range_meters":14000,"station_id":"ce4bhgp2rcd13ifvqfc0","pricing_plan_id":"free"},{"bike_id":"a6416cc2-e757-49fe-864e-581a5b706581","system_id":"levelo_inurba_marseille","lat":43.261782,"lon":5.374515,"is_reserved":false,"is_disabled":false,"rental_uris":{"android":"levelo://app?vid=a6416cc2-e757-49fe-864e-581a5b706581","ios":"levelo://app?vid=a6416cc2-e757-49fe-864e-581a5b706581"},"vehicle_type_id":"4","last_reported":1687701985,"current_range_meters":31200,"station_id":"ce4bhgp2rcd13ifvqfc0","pricing_plan_id":"free"},{"bike_id":"78867ccc-37e5-49ff-a59e-f16a721be6f6","system_id":"levelo_inurba_marseille","lat":43.262012,"lon":5.379307,"is_reserved":false,"is_disabled":false,"rental_uris":{"android":"levelo://app?vid=78867ccc-37e5-49ff-a59e-f16a721be6f6","ios":"levelo://app?vid=78867ccc-37e5-49ff-a59e-f16a721be6f6"},"vehicle_type_id":"4","last_reported":1687701985,"current_range_meters":14000,"station_id":"ce4bhjp2rcd13ifvqg90","pricing_plan_id":"free"},{"bike_id":"e299af6c-26d3-4b1a-adc3-91563e867e7d","system_id":"levelo_inurba_marseille","lat":43.26202,"lon":5.379299,"is_reserved":false,"is_disabled":false,"rental_uris":{"android":"levelo://app?vid=e299af6c-26d3-4b1a-adc3-91563e867e7d","ios":"levelo://app?vid=e299af6c-26d3-4b1a-adc3-91563e867e7d"},"vehicle_type_id":"4","last_reported":1687701985,"current_range_meters":22400,"station_id":"ce4bhjp2rcd13ifvqg90","pricing_plan_id":"free"},{"bike_id":"197068c3-3eb5-4b84-a1b3-e3c2bd77217a","system_id":"levelo_inurba_marseille","lat":43.26202,"lon":5.379299,"is_reserved":false,"is_disabled":false,"rental_uris":{"android":"levelo://app?vid=197068c3-3eb5-4b84-a1b3-e3c2bd77217a","ios":"levelo://app?vid=197068c3-3eb5-4b84-a1b3-e3c2bd77217a"},"vehicle_type_id":"4","last_reported":1687701985,"current_range_meters":31600,"station_id":"ce4bhjp2rcd13ifvqg90","pricing_plan_id":"free"},{"bike_id":"67b13e45-54dc-467b-837f-f5dd8e5d01c5","system_id":"levelo_inurba_marseille","lat":43.267959,"lon":5.402685,"is_reserved":false,"is_disabled":false,"rental_uris":{"android":"levelo://app?vid=67b13e45-54dc-467b-837f-f5dd8e5d01c5","ios":"levelo://app?vid=67b13e45-54dc-467b-837f-f5dd8e5d01c5"},"vehicle_type_id":"4","last_reported":1687701985,"current_range_meters":9200,"station_id":"ce501612rcd8frsf0b60","pricing_plan_id":"free"},{"bike_id":"f4f37bbd-8455-4f9b-997c-3a32465ae644","system_id":"levelo_inurba_marseille","lat":43.267959,"lon":5.402687,"is_reserved":false,"is_disabled":false,"rental_uris":{"android":"levelo://app?vid=f4f37bbd-8455-4f9b-997c-3a32465ae644","ios":"levelo://app?vid=f4f37bbd-8455-4f9b-997c-3a32465ae644"},"vehicle_type_id":"4","last_reported":1687701985,"current_range_meters":4800,"station_id":"ce501612rcd8frsf0b60","pricing_plan_id":"free"},