{"last_updated":1781367987,"ttl":60,"version":"2.2","data":{"bikes":[{"bike_id":"ec12d144-24c8-4071-abf6-197e520eae96","system_id":"levelo_inurba_marseille","lat":43.337444,"lon":5.374475,"is_reserved":false,"is_disabled":false,"rental_uris":{"android":"levelo://app?vid=ec12d144-24c8-4071-abf6-197e520eae96","ios":"levelo://app?vid=ec12d144-24c8-4071-abf6-197e520eae96"},"vehicle_type_id":"4","last_reported":1781367988,"current_range_meters":0,"station_id":"","pricing_plan_id":"cebpf4jnsgd1na2vs0mg"},{"bike_id":"4bbd9026-ac9b-4dc1-97ad-6610089734db","system_id":"levelo_inurba_marseille","lat":43.31549,"lon":5.38841,"is_reserved":false,"is_disabled":false,"rental_uris":{"android":"levelo://app?vid=4bbd9026-ac9b-4dc1-97ad-6610089734db","ios":"levelo://app?vid=4bbd9026-ac9b-4dc1-97ad-6610089734db"},"vehicle_type_id":"4","last_reported":1781367988,"current_range_meters":2800,"station_id":"","pricing_plan_id":"cebpf4jnsgd1na2vs0mg"},{"bike_id":"52e0ca30-f6db-4b40-a595-fe3e1b7ca10e","system_id":"levelo_inurba_marseille","lat":43.25102,"lon":5.40371,"is_reserved":false,"is_disabled":true,"rental_uris":{"android":"levelo://app?vid=52e0ca30-f6db-4b40-a595-fe3e1b7ca10e","ios":"levelo://app?vid=52e0ca30-f6db-4b40-a595-fe3e1b7ca10e"},"vehicle_type_id":"4","last_reported":1781367988,"current_range_meters":2800,"station_id":"ce4bhlh2rcd13ifvqgig","pricing_plan_id":"cebpf4jnsgd1na2vs0mg"},{"bike_id":"d17dab23-f308-4f56-803a-83b6863dff45","system_id":"levelo_inurba_marseille","lat":43.290052,"lon":5.356108,"is_reserved":false,"is_disabled":false,"rental_uris":{"android":"levelo://app?vid=d17dab23-f308-4f56-803a-83b6863dff45","ios":"levelo://app?vid=d17dab23-f308-4f56-803a-83b6863dff45"},"vehicle_type_id":"4","last_reported":1781367988,"current_range_meters":2800,"station_id":"ce4bhb92rcd13ifvqen0","pricing_plan_id":"cebpf4jnsgd1na2vs0mg"},{"bike_id":"3a26cedc-738e-4c11-840f-799fff9a3590","system_id":"levelo_inurba_marseille","lat":43.29259,"lon":5.38441,"is_reserved":false,"is_disabled":false,"rental_uris":{"android":"levelo://app?vid=3a26cedc-738e-4c11-840f-799fff9a3590","ios":"levelo://app?vid=3a26cedc-738e-4c11-840f-799fff9a3590"},"vehicle_type_id":"4","last_reported":1781367988,"current_range_meters":2800,"station_id":"ce4bh692rcd13ifvqea0","pricing_plan_id":"cebpf4jnsgd1na2vs0mg"},{"bike_id":"94581546-6d02-4038-85cb-89bf62ad18bf","system_id":"levelo_inurba_marseille","lat":43.32663,"lon":5.40984,"is_reserved":false,"is_disabled":true,"rental_uris":{"android":"levelo://app?vid=94581546-6d02-4038-85cb-89bf62ad18bf","ios":"levelo://app?vid=94581546-6d02-4038-85cb-89bf62ad18bf"},"vehicle_type_id":"4","last_reported":1781367988,"current_range_meters":2800,"station_id":"ce4bhpp2rcd13ifvqhgg","pricing_plan_id":"cebpf4jnsgd1na2vs0mg"},{"bike_id":"0771184f-1862-4ec6-812e-80801d5bb2eb","system_id":"levelo_inurba_marseille","lat":43.23958,"lon":5.36638,"is_reserved":false,"is_disabled":true,"rental_uris":{"android":"levelo://app?vid=0771184f-1862-4ec6-812e-80801d5bb2eb","ios":"levelo://app?vid=0771184f-1862-4ec6-812e-80801d5bb2eb"},"vehicle_type_id":"4","last_reported":1781367988,"current_range_meters":2800,"station_id":"ce4bhi12rcd13ifvqfp0","pricing_plan_id":"cebpf4jnsgd1na2vs0mg"},{"bike_id":"0530b8b5-7d4d-4d6e-9f6b-f919e1929fbe","system_id":"levelo_inurba_marseille","lat":43.283443,"lon":5.381116,"is_reserved":false,"is_disabled":false,"rental_uris":{"android":"levelo://app?vid=0530b8b5-7d4d-4d6e-9f6b-f919e1929fbe","ios":"levelo://app?vid=0530b8b5-7d4d-4d6e-9f6b-f919e1929fbe"},"vehicle_type_id":"4","last_reported":1781367988,"current_range_meters":2800,"station_id":"ce4bh412rcd13ifvqdr0","pricing_plan_id":"cebpf4jnsgd1na2vs0mg"},{"bike_id":"00220965-fe99-4ac4-ab6b-5228daafef83","system_id":"levelo_inurba_marseille","lat":43.29787,"lon":5.37102,"is_reserved":false,"is_disabled":false,"rental_uris":{"android":"levelo://app?vid=00220965-fe99-4ac4-ab6b-5228daafef83","ios":"levelo://app?vid=00220965-fe99-4ac4-ab6b-5228daafef83"},"vehicle_type_id":"4","last_reported":1781367988,"current_range_meters":2800,"station_id":"ce4bgop2rcd13ifvqc1g","pricing_plan_id":"cebpf4jnsgd1na2vs0mg"},{"bike_id":"b105e559-ad92-41ad-9bdf-4bd2f454dd68","system_id":"levelo_inurba_marseille","lat":43.30153,"lon":5.44959,"is_reserved":false,"is_disabled":false,"rental_uris":{"android":"levelo://app?vid=b105e559-ad92-41ad-9bdf-4bd2f454dd68","ios":"levelo://app?vid=b105e559-ad92-41ad-9bdf-4bd2f454dd68"},"vehicle_type_id":"4","last_reported":1781367988,"current_range_meters":2800,"station_id":"","pricing_plan_id":"cebpf4jnsgd1na2vs0mg"},{"bike_id":"aff89a10-f72c-47b4-82fa-9621bec0c53f","system_id":"levelo_inurba_marseille","lat":43.24804,"lon":5.3746,"is_reserved":false,"is_disabled":false,"rental_uris":{"android":"levelo://app?vid=aff89a10-f72c-47b4-82fa-9621bec0c53f","ios":"levelo://app?vid=aff89a10-f72c-47b4-82fa-9621bec0c53f"},"vehicle_type_id":"4","last_reported":1781367988,"current_range_meters":2800,"station_id":"ce4bhgh2rcd13ifvqfb0","pricing_plan_id":"cebpf4jnsgd1na2vs0mg"},{"bike_id":"e31d74fd-ceae-43c9-b8d5-3df8b00ebbde","system_id":"levelo_inurba_marseille","lat":43.28502,"lon":5.40646,"is_reserved":false,"is_disabled":false,"rental_uris":{"android":"levelo://app?vid=e31d74fd-ceae-43c9-b8d5-3df8b00ebbde","ios":"levelo://app?vid=e31d74fd-ceae-43c9-b8d5-3df8b00ebbde"},"vehicle_type_id":"4","last_reported":1781367988,"current_range_meters":2800,"station_id":"","pricing_plan_id":"cebpf4jnsgd1na2vs0mg"},{"bike_id":"a6e45369-d751-4956-88c3-2ce211f26594","system_id":"levelo_inurba_marseille","lat":43.23965,"lon":5.36639,"is_reserved":false,"is_disabled":false,"rental_uris":{"android":"levelo://app?vid=a6e45369-d751-4956-88c3-2ce211f26594","ios":"levelo://app?vid=a6e45369-d751-4956-88c3-2ce211f26594"},"vehicle_type_id":"4","last_reported":1781367988,"current_range_meters":2800,"station_id":"ce4bhi12rcd13ifvqfp0","pricing_plan_id":"cebpf4jnsgd1na2vs0mg"},{"bike_id":"abe0f065-5806-4cbc-beb4-f29cd2f25080","system_id":"levelo_inurba_marseille","lat":43.241832,"lon":5.397578,"is_reserved":false,"is_disabled":false,"rental_uris":{"android":"levelo://app?vid=abe0f065-5806-4cbc-beb4-f29cd2f25080","ios":"levelo://app?vid=abe0f065-5806-4cbc-beb4-f29cd2f25080"},"vehicle_type_id":"4","last_reported":1781367988,"current_range_meters":2800,"station_id":"ce4bhn12rcd13ifvqgpg","pricing_plan_id":"cebpf4jnsgd1na2vs0mg"},{"bike_id":"d203f242-98b3-4ac4-85ea-fadd8c7aacde","system_id":"levelo_inurba_marseille","lat":43.31259,"lon":5.36865,"is_reserved":false,"is_disabled":false,"rental_uris":{"android":"levelo://app?vid=d203f242-98b3-4ac4-85ea-fadd8c7aacde","ios":"levelo://app?vid=d203f242-98b3-4ac4-85ea-fadd8c7aacde"},"vehicle_type_id":"4","last_reported":1781367988,"current_range_meters":2800,"station_id":"ce4bgl92rcd13ifvqbq0","pricing_plan_id":"cebpf4jnsgd1na2vs0mg"},{"bike_id":"8f361732-5d9e-4989-ab2a-14520c00e48c","system_id":"levelo_inurba_marseille","lat":43.26376,"lon":5.41063,"is_reserved":false,"is_disabled":false,"rental_uris":{"android":"levelo://app?vid=8f361732-5d9e-4989-ab2a-14520c00e48c","ios":"levelo://app?vid=8f361732-5d9e-4989-ab2a-14520c00e48c"},"vehicle_type_id":"4","last_reported":1781367988,"current_range_meters":3200,"station_id":"st_d4e5ca6na9uc73bfl5fg","pricing_plan_id":"cebpf4jnsgd1na2vs0mg"},{"bike_id":"cf318c3e-d5d3-4532-84c1-22b2408ec52a","system_id":"levelo_inurba_marseille","lat":43.272189,"lon":5.391872,"is_reserved":false,"is_disabled":false,"rental_uris":{"android":"levelo://app?vid=cf318c3e-d5d3-4532-84c1-22b2408ec52a","ios":"levelo://app?vid=cf318c3e-d5d3-4532-84c1-22b2408ec52a"},"vehicle_type_id":"4","last_reported":1781367988,"current_range_meters":3200,"station_id":"ce4bhhp2rcd13ifvqfm0","pricing_plan_id":"cebpf4jnsgd1na2vs0mg"},{"bike_id":"d39db183-6bf7-420a-96f5-b25822544857","system_id":"levelo_inurba_marseille","lat":43.32358,"lon":5.36738,"is_reserved":false,"is_disabled":false,"rental_uris":{"android":"levelo://app?vid=d39db183-6bf7-420a-96f5-b25822544857","ios":"levelo://app?vid=d39db183-6bf7-420a-96f5-b25822544857"},"vehicle_type_id":"4","last_reported":1781367988,"current_range_meters":3200,"station_id":"ce4bhsh2rcd13ifvqi2g","pricing_plan_id":"cebpf4jnsgd1na2vs0mg"},{"bike_id":"a4e7ea6d-cfda-4bc8-8713-48d1e006cdab","system_id":"levelo_inurba_marseille","lat":43.255066,"lon":5.376494,"is_reserved":false,"is_disabled":false,"rental_uris":{"android":"levelo://app?vid=a4e7ea6d-cfda-4bc8-8713-48d1e006cdab","ios":"levelo://app?vid=a4e7ea6d-cfda-4bc8-8713-48d1e006cdab"},"vehicle_type_id":"4","last_reported":1781367988,"current_range_meters":3200,"station_id":"ce4bhh12rcd13ifvqff0","pricing_plan_id":"cebpf4jnsgd1na2vs0mg"},{"bike_id":"ccf6c476-238d-4e10-aa30-68e9a49ed704","system_id":"levelo_inurba_marseille","lat":43.24657,"lon":5.38154,"is_reserved":false,"is_disabled":false,"rental_uris":{"android":"levelo://app?vid=ccf6c476-238d-4e10-aa30-68e9a49ed704","ios":"levelo://app?vid=ccf6c476-238d-4e10-aa30-68e9a49ed704"},"vehicle_type_id":"4","last_reported":1781367988,"current_range_meters":3200,"station_id":"ce4bhih2rcd13ifvqfr0","pricing_plan_id":"cebpf4jnsgd1na2vs0mg"},{"bike_id":"2de3a6e7-0987-4790-8099-1365695283df","system_id":"levelo_inurba_marseille","lat":43.27839,"lon":5.39212,"is_reserved":false,"is_disabled":false,"rental_uris":{"android":"levelo://app?vid=2de3a6e7-0987-4790-8099-1365695283df","ios":"levelo://app?vid=2de3a6e7-0987-4790-8099-1365695283df"},"vehicle_type_id":"4","last_reported":1781367988,"current_range_meters":3200,"station_id":"ce4bhjp2rcd13ifvqga0","pricing_plan_id":"cebpf4jnsgd1na2vs0mg"},{"bike_id":"8a9f3474-1ba5-4fc3-b4e6-1d2f8579f9d1","system_id":"levelo_inurba_marseille","lat":43.26562,"lon":5.39043,"is_reserved":false,"is_disabled":true,"rental_uris":{"android":"levelo://app?vid=8a9f3474-1ba5-4fc3-b4e6-1d2f8579f9d1","ios":"levelo://app?vid=8a9f3474-1ba5-4fc3-b4e6-1d2f8579f9d1"},"vehicle_type_id":"4","last_reported":1781367988,"current_range_meters":3200,"station_id":"ce4bhe12rcd13ifvqf30","pricing_plan_id":"cebpf4jnsgd1na2vs0mg"},{"bike_id":"fb2a1f7d-f7e9-4d12-bb3c-32e8cd55f82d","system_id":"levelo_inurba_marseille","lat":43.29068,"lon":5.4426,"is_reserved":false,"is_disabled":false,"rental_uris":{"android":"levelo://app?vid=fb2a1f7d-f7e9-4d12-bb3c-32e8cd55f82d","ios":"levelo://app?vid=fb2a1f7d-f7e9-4d12-bb3c-32e8cd55f82d"},"vehicle_type_id":"4","last_reported":1781367988,"current_range_meters":3200,"station_id":"","pricing_plan_id":"cebpf4jnsgd1na2vs0mg"},{"bike_id":"4701e8f0-c7c4-4ba6-89c3-b166c53bec52","system_id":"levelo_inurba_marseille","lat":43.26202,"lon":5.37441,"is_reserved":false,"is_disabled":false,"rental_uris":{"android":"levelo://app?vid=4701e8f0-c7c4-4ba6-89c3-b166c53bec52","ios":"levelo://app?vid=4701e8f0-c7c4-4ba6-89c3-b166c53bec52"},"vehicle_type_id":"4","last_reported":1781367988,"current_range_meters":3200,"station_id":"ce4bhgp2rcd13ifvqfc0","pricing_plan_id":"cebpf4jnsgd1na2vs0mg"},{"bike_id":"be6c15ab-ebef-4ea6-a829-7ecbba76e6d4","system_id":"levelo_inurba_marseille","lat":43.29255,"lon":5.3846,"is_reserved":false,"is_disabled":false,"rental_uris":{"android":"levelo://app?vid=be6c15ab-ebef-4ea6-a829-7ecbba76e6d4","ios":"levelo://app?vid=be6c15ab-ebef-4ea6-a829-7ecbba76e6d4"},"vehicle_type_id":"4","last_reported":1781367988,"current_range_meters":3200,"station_id":"ce4bh692rcd13ifvqea0","pricing_plan_id":"cebpf4jnsgd1na2vs0mg"},{"bike_id":"399d38d4-abad-40a4-9b35-56e43e29c329","system_id":"levelo_inurba_marseille","lat":43.30133,"lon":5.3987,"is_reserved":false,"is_disabled":false,"rental_uris":{"android":"levelo://app?vid=399d38d4-abad-40a4-9b35-56e43e29c329","ios":"levelo://app?vid=399d38d4-abad-40a4-9b35-56e43e29c329"},"vehicle_type_id":"4","last_reported":1781367988,"current_range_meters":3200,"station_id":"ce4bh0h2rcd13ifvqd40","pricing_plan_id":"cebpf4jnsgd1na2vs0mg"},{"bike_id":"9baebc47-9a21-445a-b575-5e8cc4ed7549","system_id":"levelo_inurba_marseille","lat":43.28464,"lon":5.48428,"is_reserved":false,"is_disabled":false,"rental_uris":{"android":"levelo://app?vid=9baebc47-9a21-445a-b575-5e8cc4ed7549","ios":"levelo://app?vid=9baebc47-9a21-445a-b575-5e8cc4ed7549"},"vehicle_type_id":"4","last_reported":1781367988,"current_range_meters":3200,"station_id":"st_d3svhcjqgbts73a3dn0g","pricing_plan_id":"cebpf4jnsgd1na2vs0mg"},{"bike_id":"7717390a-9f55-4678-b2a5-ba0a73b8a548","system_id":"levelo_inurba_marseille","lat":43.31592,"lon":5.36949,"is_reserved":false,"is_disabled":false,"rental_uris":{"android":"levelo://app?vid=7717390a-9f55-4678-b2a5-ba0a73b8a548","ios":"levelo://app?vid=7717390a-9f55-4678-b2a5-ba0a73b8a548"},"vehicle_type_id":"4","last_reported":1781367988,"current_range_meters":3200,"station_id":"","pricing_plan_id":"cebpf4jnsgd1na2vs0mg"},{"bike_id":"f0e363fb-7c7f-4d30-842b-c337b7d9484f","system_id":"levelo_inurba_marseille","lat":43.31112,"lon":5.37779,"is_reserved":false,"is_disabled":false,"rental_uris":{"android":"levelo://app?vid=f0e363fb-7c7f-4d30-842b-c337b7d9484f","ios":"levelo://app?vid=f0e363fb-7c7f-4d30-842b-c337b7d9484f"},"vehicle_type_id":"4","last_reported":1781367988,"current_range_meters":3200,"station_id":"ce4bgt92rcd13ifvqcg0","pricing_plan_id":"cebpf4jnsgd1na2vs0mg"},{"bike_id":"04fb1dfc-56a4-4d0b-9267-a211ac505309","system_id":"levelo_inurba_marseille","lat":43.30849,"lon":5.38271,"is_reserved":false,"is_disabled":false,"rental_uris":{"android":"levelo://app?vid=04fb1dfc-56a4-4d0b-9267-a211ac505309","ios":"levelo://app?vid=04fb1dfc-56a4-4d0b-9267-a211ac505309"},"vehicle_type_id":"4","last_reported":1781367988,"current_range_meters":3200,"station_id":"","pricing_plan_id":"cebpf4jnsgd1na2vs0mg"},{"bike_id":"9b694ffc-dc6f-44fd-9988-b3fbc91c0bbd","system_id":"levelo_inurba_marseille","lat":43.31221,"lon":5.36838,"is_reserved":false,"is_disabled":false,"rental_uris":{"android":"levelo://app?vid=9b694ffc-dc6f-44fd-9988-b3fbc91c0bbd","ios":"levelo://app?vid=9b694ffc-dc6f-44fd-9988-b3fbc91c0bbd"},"vehicle_type_id":"4","last_reported":1781367988,"current_range_meters":3200,"station_id":"ce4bgl92rcd13ifvqbq0","pricing_plan_id":"cebpf4jnsgd1na2vs0mg"},{"bike_id":"cfc1fd7a-86fe-4625-ad49-4f065273c26e","system_id":"levelo_inurba_marseille","lat":43.24546,"lon":5.39518,"is_reserved":false,"is_disabled":false,"rental_uris":{"android":"levelo://app?vid=cfc1fd7a-86fe-4625-ad49-4f065273c26e","ios":"levelo://app?vid=cfc1fd7a-86fe-4625-ad49-4f065273c26e"},"vehicle_type_id":"4","last_reported":1781367988,"current_range_meters":3200,"station_id":"ce4bhlp2rcd13ifvqgjg","pricing_plan_id":"cebpf4jnsgd1na2vs0mg"},{"bike_id":"ba870dc5-1c75-4721-a15c-1f5dd63835dd","system_id":"levelo_inurba_marseille","lat":43.26019,"lon":5.37562,"is_reserved":false,"is_disabled":false,"rental_uris":{"android":"levelo://app?vid=ba870dc5-1c75-4721-a15c-1f5dd63835dd","ios":"levelo://app?vid=ba870dc5-1c75-4721-a15c-1f5dd63835dd"},"vehicle_type_id":"4","last_reported":1781367988,"current_range_meters":3200,"station_id":"ce4bhgh2rcd13ifvqfa0","pricing_plan_id":"cebpf4jnsgd1na2vs0mg"},{"bike_id":"8283ed7b-6dae-400e-92aa-818621971a81","system_id":"levelo_inurba_marseille","lat":43.29014,"lon":5.35618,"is_reserved":false,"is_disabled":false,"rental_uris":{"android":"levelo://app?vid=8283ed7b-6dae-400e-92aa-818621971a81","ios":"levelo://app?vid=8283ed7b-6dae-400e-92aa-818621971a81"},"vehicle_type_id":"4","last_reported":1781367988,"current_range_meters":3600,"station_id":"ce4bhb92rcd13ifvqen0","pricing_plan_id":"cebpf4jnsgd1na2vs0mg"},{"bike_id":"44577758-9781-4e26-a98a-6f13509dbbf8","system_id":"levelo_inurba_marseille","lat":43.33734,"lon":5.39166,"is_reserved":false,"is_disabled":false,"rental_uris":{"android":"levelo://app?vid=44577758-9781-4e26-a98a-6f13509dbbf8","ios":"levelo://app?vid=44577758-9781-4e26-a98a-6f13509dbbf8"},"vehicle_type_id":"4","last_reported":1781367988,"current_range_meters":3600,"station_id":"ce4bhr92rcd13ifvqhsg","pricing_plan_id":"cebpf4jnsgd1na2vs0mg"},{"bike_id":"ab6349a0-6def-4bbf-965c-02ce5223a8da","system_id":"levelo_inurba_marseille","lat":43.301384,"lon":5.387656,"is_reserved":false,"is_disabled":false,"rental_uris":{"android":"levelo://app?vid=ab6349a0-6def-4bbf-965c-02ce5223a8da","ios":"levelo://app?vid=ab6349a0-6def-4bbf-965c-02ce5223a8da"},"vehicle_type_id":"4","last_reported":1781367988,"current_range_meters":3600,"station_id":"ce4bghh2rcd13ifvqb60","pricing_plan_id":"cebpf4jnsgd1na2vs0mg"},{"bike_id":"a30229a5-c69f-4364-93a2-2d0acdde8fc5","system_id":"levelo_inurba_marseille","lat":43.29929,"lon":5.36532,"is_reserved":false,"is_disabled":false,"rental_uris":{"android":"levelo://app?vid=a30229a5-c69f-4364-93a2-2d0acdde8fc5","ios":"levelo://app?vid=a30229a5-c69f-4364-93a2-2d0acdde8fc5"},"vehicle_type_id":"4","last_reported":1781367988,"current_range_meters":3600,"station_id":"ce4bgm92rcd13ifvqbr0","pricing_plan_id":"cebpf4jnsgd1na2vs0mg"},{"bike_id":"f312a474-3688-43e4-8515-a784a5c48528","system_id":"levelo_inurba_marseille","lat":43.21187,"lon":5.35075,"is_reserved":false,"is_disabled":true,"rental_uris":{"android":"levelo://app?vid=f312a474-3688-43e4-8515-a784a5c48528","ios":"levelo://app?vid=f312a474-3688-43e4-8515-a784a5c48528"},"vehicle_type_id":"4","last_reported":1781367988,"current_range_meters":3600,"station_id":"st_cvj6sg6p6f1abm77japg","pricing_plan_id":"cebpf4jnsgd1na2vs0mg"},{"bike_id":"425324fb-a7da-45f5-b5c6-054c092cb0c1","system_id":"levelo_inurba_marseille","lat":43.29194,"lon":5.35821,"is_reserved":false,"is_disabled":false,"rental_uris":{"android":"levelo://app?vid=425324fb-a7da-45f5-b5c6-054c092cb0c1","ios":"levelo://app?vid=425324fb-a7da-45f5-b5c6-054c092cb0c1"},"vehicle_type_id":"4","last_reported":1781367988,"current_range_meters":3600,"station_id":"ce4bhb12rcd13ifvqel0","pricing_plan_id":"cebpf4jnsgd1na2vs0mg"},{"bike_id":"a05a0cbc-9794-4f62-a1af-2bcb12660d8c","system_id":"levelo_inurba_marseille","lat":43.29367,"lon":5.37836,"is_reserved":false,"is_disabled":false,"rental_uris":{"android":"levelo://app?vid=a05a0cbc-9794-4f62-a1af-2bcb12660d8c","ios":"levelo://app?vid=a05a0cbc-9794-4f62-a1af-2bcb12660d8c"},"vehicle_type_id":"4","last_reported":1781367988,"current_range_meters":3600,"station_id":"ce4bgjh2rcd13ifvqbf0","pricing_plan_id":"cebpf4jnsgd1na2vs0mg"},{"bike_id":"714c3c16-bdf4-4f6b-8422-22e15835a47e","system_id":"levelo_inurba_marseille","lat":43.24058,"lon":5.37747,"is_reserved":false,"is_disabled":false,"rental_uris":{"android":"levelo://app?vid=714c3c16-bdf4-4f6b-8422-22e15835a47e","ios":"levelo://app?vid=714c3c16-bdf4-4f6b-8422-22e15835a47e"},"vehicle_type_id":"4","last_reported":1781367988,"current_range_meters":3600,"station_id":"ce4bhnp2rcd13ifvqgvg","pricing_plan_id":"cebpf4jnsgd1na2vs0mg"},{"bike_id":"a921a687-4f8b-4d1b-a254-2ddeeeaf8a37","system_id":"levelo_inurba_marseille","lat":43.24215,"lon":5.37087,"is_reserved":false,"is_disabled":false,"rental_uris":{"android":"levelo://app?vid=a921a687-4f8b-4d1b-a254-2ddeeeaf8a37","ios":"levelo://app?vid=a921a687-4f8b-4d1b-a254-2ddeeeaf8a37"},"vehicle_type_id":"4","last_reported":1781367988,"current_range_meters":3600,"station_id":"","pricing_plan_id":"cebpf4jnsgd1na2vs0mg"},{"bike_id":"a0d2ac5f-fff6-43f6-831d-dfa81e9c3981","system_id":"levelo_inurba_marseille","lat":43.29608,"lon":5.36425,"is_reserved":false,"is_disabled":false,"rental_uris":{"android":"levelo://app?vid=a0d2ac5f-fff6-43f6-831d-dfa81e9c3981","ios":"levelo://app?vid=a0d2ac5f-fff6-43f6-831d-dfa81e9c3981"},"vehicle_type_id":"4","last_reported":1781367988,"current_range_meters":3600,"station_id":"","pricing_plan_id":"cebpf4jnsgd1na2vs0mg"},{"bike_id":"8593e441-ceab-423c-a5b1-01b758ddfa0e","system_id":"levelo_inurba_marseille","lat":43.28491,"lon":5.38582,"is_reserved":false,"is_disabled":false,"rental_uris":{"android":"levelo://app?vid=8593e441-ceab-423c-a5b1-01b758ddfa0e","ios":"levelo://app?vid=8593e441-ceab-423c-a5b1-01b758ddfa0e"},"vehicle_type_id":"4","last_reported":1781367988,"current_range_meters":3600,"station_id":"ce4bh8p2rcd13ifvqeb0","pricing_plan_id":"cebpf4jnsgd1na2vs0mg"},{"bike_id":"ccc32958-168e-4c33-8a28-5da0464cfb12","system_id":"levelo_inurba_marseille","lat":43.23153,"lon":5.43714,"is_reserved":false,"is_disabled":false,"rental_uris":{"android":"levelo://app?vid=ccc32958-168e-4c33-8a28-5da0464cfb12","ios":"levelo://app?vid=ccc32958-168e-4c33-8a28-5da0464cfb12"},"vehicle_type_id":"4","last_reported":1781367988,"current_range_meters":3600,"station_id":"ce4bhmp2rcd13ifvqgog","pricing_plan_id":"cebpf4jnsgd1na2vs0mg"},{"bike_id":"6ff72a51-e1c3-4e4e-ad6e-096c82b1f803","system_id":"levelo_inurba_marseille","lat":43.28419,"lon":5.37518,"is_reserved":false,"is_disabled":false,"rental_uris":{"android":"levelo://app?vid=6ff72a51-e1c3-4e4e-ad6e-096c82b1f803","ios":"levelo://app?vid=6ff72a51-e1c3-4e4e-ad6e-096c82b1f803"},"vehicle_type_id":"4","last_reported":1781367988,"current_range_meters":3600,"station_id":"ce4bh412rcd13ifvqds0","pricing_plan_id":"cebpf4jnsgd1na2vs0mg"},{"bike_id":"edd47405-d388-4d04-852e-90210eefdaf9","system_id":"levelo_inurba_marseille","lat":43.23156,"lon":5.43709,"is_reserved":false,"is_disabled":false,"rental_uris":{"android":"levelo://app?vid=edd47405-d388-4d04-852e-90210eefdaf9","ios":"levelo://app?vid=edd47405-d388-4d04-852e-90210eefdaf9"},"vehicle_type_id":"4","last_reported":1781367988,"current_range_meters":3600,"station_id":"ce4bhmp2rcd13ifvqgog","pricing_plan_id":"cebpf4jnsgd1na2vs0mg"},{"bike_id":"788a1f80-8b62-47d3-a7d3-0a2ede3821f1","system_id":"levelo_inurba_marseille","lat":43.29308,"lon":5.37458,"is_reserved":false,"is_disabled":false,"rental_uris":{"android":"levelo://app?vid=788a1f80-8b62-47d3-a7d3-0a2ede3821f1","ios":"levelo://app?vid=788a1f80-8b62-47d3-a7d3-0a2ede3821f1"},"vehicle_type_id":"4","last_reported":1781367988,"current_range_meters":3600,"station_id":"ce4bgi12rcd13ifvqb70","pricing_plan_id":"cebpf4jnsgd1na2vs0mg"},{"bike_id":"f7706536-2b3b-4ef9-9d79-aee87a7d7f28","system_id":"levelo_inurba_marseille","lat":43.23785,"lon":5.36628,"is_reserved":false,"is_disabled":false,"rental_uris":{"android":"levelo://app?vid=f7706536-2b3b-4ef9-9d79-aee87a7d7f28","ios":"levelo://app?vid=f7706536-2b3b-4ef9-9d79-aee87a7d7f28"},"vehicle_type_id":"4","last_reported":1781367988,"current_range_meters":3600,"station_id":"st_d3nk18o9ro0c73en2l3g","pricing_plan_id":"cebpf4jnsgd1na2vs0mg"},{"bike_id":"b1c200ff-a50e-4a5f-823b-654b81deace1","system_id":"levelo_inurba_marseille","lat":43.29028,"lon":5.39979,"is_reserved":false,"is_disabled":false,"rental_uris":{"android":"levelo://app?vid=b1c200ff-a50e-4a5f-823b-654b81deace1","ios":"levelo://app?vid=b1c200ff-a50e-4a5f-823b-654b81deace1"},"vehicle_type_id":"4","last_reported":1781367988,"current_range_meters":3600,"station_id":"ce4bh392rcd13ifvqdm0","pricing_plan_id":"cebpf4jnsgd1na2vs0mg"},{"bike_id":"92a7d854-906d-4c9d-a4b1-0d4dfdd09e66","system_id":"levelo_inurba_marseille","lat":43.29567,"lon":5.39963,"is_reserved":false,"is_disabled":false,"rental_uris":{"android":"levelo://app?vid=92a7d854-906d-4c9d-a4b1-0d4dfdd09e66","ios":"levelo://app?vid=92a7d854-906d-4c9d-a4b1-0d4dfdd09e66"},"vehicle_type_id":"4","last_reported":1781367988,"current_range_meters":3600,"station_id":"ce4bh312rcd13ifvqdj0","pricing_plan_id":"cebpf4jnsgd1na2vs0mg"},{"bike_id":"789bb187-05f0-427e-a77f-6842144ea4ab","system_id":"levelo_inurba_marseille","lat":43.24635,"lon":5.43148,"is_reserved":false,"is_disabled":false,"rental_uris":{"android":"levelo://app?vid=789bb187-05f0-427e-a77f-6842144ea4ab","ios":"levelo://app?vid=789bb187-05f0-427e-a77f-6842144ea4ab"},"vehicle_type_id":"4","last_reported":1781367988,"current_range_meters":3600,"station_id":"st_d2m6c4gdas8pm72e190g","pricing_plan_id":"cebpf4jnsgd1na2vs0mg"},{"bike_id":"f2206211-be31-4f79-9324-f91a231138d0","system_id":"levelo_inurba_marseille","lat":43.260278,"lon":5.37549,"is_reserved":false,"is_disabled":false,"rental_uris":{"android":"levelo://app?vid=f2206211-be31-4f79-9324-f91a231138d0","ios":"levelo://app?vid=f2206211-be31-4f79-9324-f91a231138d0"},"vehicle_type_id":"4","last_reported":1781367988,"current_range_meters":3600,"station_id":"ce4bhgh2rcd13ifvqfa0","pricing_plan_id":"cebpf4jnsgd1na2vs0mg"},{"bike_id":"6a27404a-fd45-46ef-b0c6-d19df52b0472","system_id":"levelo_inurba_marseille","lat":43.30045,"lon":5.37777,"is_reserved":false,"is_disabled":false,"rental_uris":{"android":"levelo://app?vid=6a27404a-fd45-46ef-b0c6-d19df52b0472","ios":"levelo://app?vid=6a27404a-fd45-46ef-b0c6-d19df52b0472"},"vehicle_type_id":"4","last_reported":1781367988,"current_range_meters":4000,"station_id":"","pricing_plan_id":"cebpf4jnsgd1na2vs0mg"},{"bike_id":"a88c18f7-a05b-424b-a2e6-87c48e40dd60","system_id":"levelo_inurba_marseille","lat":43.239,"lon":5.3746,"is_reserved":false,"is_disabled":true,"rental_uris":{"android":"levelo://app?vid=a88c18f7-a05b-424b-a2e6-87c48e40dd60","ios":"levelo://app?vid=a88c18f7-a05b-424b-a2e6-87c48e40dd60"},"vehicle_type_id":"4","last_reported":1781367988,"current_range_meters":4000,"station_id":"st_d6sm7csbq4hs73f8fpjg","pricing_plan_id":"cebpf4jnsgd1na2vs0mg"},{"bike_id":"98c0a183-7ee6-4b0b-b809-46c8824508e7","system_id":"levelo_inurba_marseille","lat":43.29597,"lon":5.41925,"is_reserved":false,"is_disabled":false,"rental_uris":{"android":"levelo://app?vid=98c0a183-7ee6-4b0b-b809-46c8824508e7","ios":"levelo://app?vid=98c0a183-7ee6-4b0b-b809-46c8824508e7"},"vehicle_type_id":"4","last_reported":1781367988,"current_range_meters":4000,"station_id":"","pricing_plan_id":"cebpf4jnsgd1na2vs0mg"},{"bike_id":"a44d1a7e-7e6a-4d42-b82a-4122a7cab77e","system_id":"levelo_inurba_marseille","lat":43.25499,"lon":5.37642,"is_reserved":false,"is_disabled":false,"rental_uris":{"android":"levelo://app?vid=a44d1a7e-7e6a-4d42-b82a-4122a7cab77e","ios":"levelo://app?vid=a44d1a7e-7e6a-4d42-b82a-4122a7cab77e"},"vehicle_type_id":"4","last_reported":1781367988,"current_range_meters":4000,"station_id":"ce4bhh12rcd13ifvqff0","pricing_plan_id":"cebpf4jnsgd1na2vs0mg"},{"bike_id":"f6a36c75-302e-4dd5-bf40-f8e2c3dba7fe","system_id":"levelo_inurba_marseille","lat":43.2757,"lon":5.3843,"is_reserved":false,"is_disabled":false,"rental_uris":{"android":"levelo://app?vid=f6a36c75-302e-4dd5-bf40-f8e2c3dba7fe","ios":"levelo://app?vid=f6a36c75-302e-4dd5-bf40-f8e2c3dba7fe"},"vehicle_type_id":"4","last_reported":1781367988,"current_range_meters":4000,"station_id":"ce4bhh92rcd13ifvqfi0","pricing_plan_id":"cebpf4jnsgd1na2vs0mg"},{"bike_id":"41992955-b8a7-4106-ae3d-4fbd887417d2","system_id":"levelo_inurba_marseille","lat":43.29589,"lon":5.37507,"is_reserved":false,"is_disabled":true,"rental_uris":{"android":"levelo://app?vid=41992955-b8a7-4106-ae3d-4fbd887417d2","ios":"levelo://app?vid=41992955-b8a7-4106-ae3d-4fbd887417d2"},"vehicle_type_id":"4","last_reported":1781367988,"current_range_meters":4000,"station_id":"ce4bgh92rcd13ifvqb50","pricing_plan_id":"cebpf4jnsgd1na2vs0mg"},{"bike_id":"1bd36802-444b-47b8-b6d5-5854caf6a4a9","system_id":"levelo_inurba_marseille","lat":43.31492,"lon":5.3732,"is_reserved":false,"is_disabled":false,"rental_uris":{"android":"levelo://app?vid=1bd36802-444b-47b8-b6d5-5854caf6a4a9","ios":"levelo://app?vid=1bd36802-444b-47b8-b6d5-5854caf6a4a9"},"vehicle_type_id":"4","last_reported":1781367988,"current_range_meters":4000,"station_id":"ce4bgt12rcd13ifvqcd0","pricing_plan_id":"cebpf4jnsgd1na2vs0mg"},{"bike_id":"61abc050-794c-43f3-96ae-15565612cd1b","system_id":"levelo_inurba_marseille","lat":43.28683,"lon":5.46694,"is_reserved":false,"is_disabled":false,"rental_uris":{"android":"levelo://app?vid=61abc050-794c-43f3-96ae-15565612cd1b","ios":"levelo://app?vid=61abc050-794c-43f3-96ae-15565612cd1b"},"vehicle_type_id":"4","last_reported":1781367988,"current_range_meters":4000,"station_id":"st_d6tc3vkotcvc738tfjhg","pricing_plan_id":"cebpf4jnsgd1na2vs0mg"},{"bike_id":"c348b345-d83e-4c82-8fc1-1defd2464cc5","system_id":"levelo_inurba_marseille","lat":43.25003,"lon":5.38938,"is_reserved":false,"is_disabled":false,"rental_uris":{"android":"levelo://app?vid=c348b345-d83e-4c82-8fc1-1defd2464cc5","ios":"levelo://app?vid=c348b345-d83e-4c82-8fc1-1defd2464cc5"},"vehicle_type_id":"4","last_reported":1781367988,"current_range_meters":4000,"station_id":"ce4bhgp2rcd13ifvqfd0","pricing_plan_id":"cebpf4jnsgd1na2vs0mg"},{"bike_id":"40331548-b44e-4f82-9abe-fed343e427de","system_id":"levelo_inurba_marseille","lat":43.26353,"lon":5.37825,"is_reserved":false,"is_disabled":false,"rental_uris":{"android":"levelo://app?vid=40331548-b44e-4f82-9abe-fed343e427de","ios":"levelo://app?vid=40331548-b44e-4f82-9abe-fed343e427de"},"vehicle_type_id":"4","last_reported":1781367988,"current_range_meters":4000,"station_id":"st_d163nis0mtpqnht9uue0","pricing_plan_id":"cebpf4jnsgd1na2vs0mg"},{"bike_id":"1f4cf7cf-98e2-40ce-8e0b-c74ae682295d","system_id":"levelo_inurba_marseille","lat":43.26222,"lon":5.38769,"is_reserved":false,"is_disabled":false,"rental_uris":{"android":"levelo://app?vid=1f4cf7cf-98e2-40ce-8e0b-c74ae682295d","ios":"levelo://app?vid=1f4cf7cf-98e2-40ce-8e0b-c74ae682295d"},"vehicle_type_id":"4","last_reported":1781367988,"current_range_meters":4000,"station_id":"st_d8gjfg747rts73coq3b0","pricing_plan_id":"cebpf4jnsgd1na2vs0mg"},{"bike_id":"e3d00eaa-3896-4d3f-aab7-1c2df3ea9ed7","system_id":"levelo_inurba_marseille","lat":43.28835,"lon":5.35851,"is_reserved":false,"is_disabled":false,"rental_uris":{"android":"levelo://app?vid=e3d00eaa-3896-4d3f-aab7-1c2df3ea9ed7","ios":"levelo://app?vid=e3d00eaa-3896-4d3f-aab7-1c2df3ea9ed7"},"vehicle_type_id":"4","last_reported":1781367988,"current_range_meters":4000,"station_id":"ce4bhb12rcd13ifvqem0","pricing_plan_id":"cebpf4jnsgd1na2vs0mg"},{"bike_id":"b2ddbc1b-43eb-4c52-8e69-53634c8de23b","system_id":"levelo_inurba_marseille","lat":43.26342,"lon":5.37809,"is_reserved":false,"is_disabled":false,"rental_uris":{"android":"levelo://app?vid=b2ddbc1b-43eb-4c52-8e69-53634c8de23b","ios":"levelo://app?vid=b2ddbc1b-43eb-4c52-8e69-53634c8de23b"},"vehicle_type_id":"4","last_reported":1781367988,"current_range_meters":4000,"station_id":"","pricing_plan_id":"cebpf4jnsgd1na2vs0mg"},{"bike_id":"e37613eb-2b80-45f6-8be7-6bbc2d17cf64","system_id":"levelo_inurba_marseille","lat":43.24831,"lon":5.37437,"is_reserved":false,"is_disabled":true,"rental_uris":{"android":"levelo://app?vid=e37613eb-2b80-45f6-8be7-6bbc2d17cf64","ios":"levelo://app?vid=e37613eb-2b80-45f6-8be7-6bbc2d17cf64"},"vehicle_type_id":"4","last_reported":1781367988,"current_range_meters":4000,"station_id":"ce4bhgh2rcd13ifvqfb0","pricing_plan_id":"cebpf4jnsgd1na2vs0mg"},{"bike_id":"4a63fd0f-e7f8-4e5c-9e96-b9829981e1d5","system_id":"levelo_inurba_marseille","lat":43.23152,"lon":5.43706,"is_reserved":false,"is_disabled":false,"rental_uris":{"android":"levelo://app?vid=4a63fd0f-e7f8-4e5c-9e96-b9829981e1d5","ios":"levelo://app?vid=4a63fd0f-e7f8-4e5c-9e96-b9829981e1d5"},"vehicle_type_id":"4","last_reported":1781367988,"current_range_meters":4000,"station_id":"ce4bhmp2rcd13ifvqgog","pricing_plan_id":"cebpf4jnsgd1na2vs0mg"},{"bike_id":"eda98293-5c91-4dae-89c6-486a45b00f60","system_id":"levelo_inurba_marseille","lat":43.23269,"lon":5.40087,"is_reserved":false,"is_disabled":false,"rental_uris":{"android":"levelo://app?vid=eda98293-5c91-4dae-89c6-486a45b00f60","ios":"levelo://app?vid=eda98293-5c91-4dae-89c6-486a45b00f60"},"vehicle_type_id":"4","last_reported":1781367988,"current_range_meters":4000,"station_id":"","pricing_plan_id":"cebpf4jnsgd1na2vs0mg"},{"bike_id":"2882d32d-720c-4b6b-b52a-a70816ab5176","system_id":"levelo_inurba_marseille","lat":43.24605,"lon":5.43164,"is_reserved":false,"is_disabled":false,"rental_uris":{"android":"levelo://app?vid=2882d32d-720c-4b6b-b52a-a70816ab5176","ios":"levelo://app?vid=2882d32d-720c-4b6b-b52a-a70816ab5176"},"vehicle_type_id":"4","last_reported":1781367988,"current_range_meters":4000,"station_id":"st_d2m6c4gdas8pm72e190g","pricing_plan_id":"cebpf4jnsgd1na2vs0mg"},{"bike_id":"d306f2a6-64b9-41fd-b138-e6ef31ad186b","system_id":"levelo_inurba_marseille","lat":43.3112,"lon":5.37769,"is_reserved":false,"is_disabled":false,"rental_uris":{"android":"levelo://app?vid=d306f2a6-64b9-41fd-b138-e6ef31ad186b","ios":"levelo://app?vid=d306f2a6-64b9-41fd-b138-e6ef31ad186b"},"vehicle_type_id":"4","last_reported":1781367988,"current_range_meters":4000,"station_id":"ce4bgt92rcd13ifvqcg0","pricing_plan_id":"cebpf4jnsgd1na2vs0mg"},{"bike_id":"961082cc-45cc-40c4-96ec-b6780b8760e7","system_id":"levelo_inurba_marseille","lat":43.250881,"lon":5.395288,"is_reserved":false,"is_disabled":false,"rental_uris":{"android":"levelo://app?vid=961082cc-45cc-40c4-96ec-b6780b8760e7","ios":"levelo://app?vid=961082cc-45cc-40c4-96ec-b6780b8760e7"},"vehicle_type_id":"4","last_reported":1781367988,"current_range_meters":4000,"station_id":"ce4bhm12rcd13ifvqgkg","pricing_plan_id":"cebpf4jnsgd1na2vs0mg"},{"bike_id":"2f5a2eb1-a60a-4fe8-a5aa-002259731410","system_id":"levelo_inurba_marseille","lat":43.31058,"lon":5.37181,"is_reserved":false,"is_disabled":true,"rental_uris":{"android":"levelo://app?vid=2f5a2eb1-a60a-4fe8-a5aa-002259731410","ios":"levelo://app?vid=2f5a2eb1-a60a-4fe8-a5aa-002259731410"},"vehicle_type_id":"4","last_reported":1781367988,"current_range_meters":4000,"station_id":"st_d4kl2rp97mjs73e7tdfg","pricing_plan_id":"cebpf4jnsgd1na2vs0mg"},{"bike_id":"77a3e5cd-10a1-4b18-bd77-e146c62f220c","system_id":"levelo_inurba_marseille","lat":43.28018,"lon":5.37502,"is_reserved":false,"is_disabled":false,"rental_uris":{"android":"levelo://app?vid=77a3e5cd-10a1-4b18-bd77-e146c62f220c","ios":"levelo://app?vid=77a3e5cd-10a1-4b18-bd77-e146c62f220c"},"vehicle_type_id":"4","last_reported":1781367988,"current_range_meters":4000,"station_id":"","pricing_plan_id":"cebpf4jnsgd1na2vs0mg"},{"bike_id":"41ea6779-9979-4cd2-a1a1-bea99fc99dc3","system_id":"levelo_inurba_marseille","lat":43.30204,"lon":5.39466,"is_reserved":false,"is_disabled":true,"rental_uris":{"android":"levelo://app?vid=41ea6779-9979-4cd2-a1a1-bea99fc99dc3","ios":"levelo://app?vid=41ea6779-9979-4cd2-a1a1-bea99fc99dc3"},"vehicle_type_id":"4","last_reported":1781367988,"current_range_meters":4400,"station_id":"ce4bh0p2rcd13ifvqd70","pricing_plan_id":"cebpf4jnsgd1na2vs0mg"},{"bike_id":"e0a4acaa-b62c-4970-818b-fd1170d95561","system_id":"levelo_inurba_marseille","lat":43.2621,"lon":5.37433,"is_reserved":false,"is_disabled":false,"rental_uris":{"android":"levelo://app?vid=e0a4acaa-b62c-4970-818b-fd1170d95561","ios":"levelo://app?vid=e0a4acaa-b62c-4970-818b-fd1170d95561"},"vehicle_type_id":"4","last_reported":1781367988,"current_range_meters":4400,"station_id":"ce4bhgp2rcd13ifvqfc0","pricing_plan_id":"cebpf4jnsgd1na2vs0mg"},{"bike_id":"abd102b6-3fb7-4bf3-8ca2-757132e6c0a1","system_id":"levelo_inurba_marseille","lat":43.30412,"lon":5.41286,"is_reserved":false,"is_disabled":false,"rental_uris":{"android":"levelo://app?vid=abd102b6-3fb7-4bf3-8ca2-757132e6c0a1","ios":"levelo://app?vid=abd102b6-3fb7-4bf3-8ca2-757132e6c0a1"},"vehicle_type_id":"4","last_reported":1781367988,"current_range_meters":4400,"station_id":"ce4bhop2rcd13ifvqh8g","pricing_plan_id":"cebpf4jnsgd1na2vs0mg"},{"bike_id":"b94500b0-c8e7-4697-a363-e6426899264d","system_id":"levelo_inurba_marseille","lat":43.26379,"lon":5.41073,"is_reserved":false,"is_disabled":false,"rental_uris":{"android":"levelo://app?vid=b94500b0-c8e7-4697-a363-e6426899264d","ios":"levelo://app?vid=b94500b0-c8e7-4697-a363-e6426899264d"},"vehicle_type_id":"4","last_reported":1781367988,"current_range_meters":4400,"station_id":"st_d4e5ca6na9uc73bfl5fg","pricing_plan_id":"cebpf4jnsgd1na2vs0mg"},{"bike_id":"d7c036f1-c7df-47c0-89e9-5a951d077037","system_id":"levelo_inurba_marseille","lat":43.29273,"lon":5.36068,"is_reserved":false,"is_disabled":false,"rental_uris":{"android":"levelo://app?vid=d7c036f1-c7df-47c0-89e9-5a951d077037","ios":"levelo://app?vid=d7c036f1-c7df-47c0-89e9-5a951d077037"},"vehicle_type_id":"4","last_reported":1781367988,"current_range_meters":4400,"station_id":"ce4bhbh2rcd13ifvqeqg","pricing_plan_id":"cebpf4jnsgd1na2vs0mg"},{"bike_id":"f389c322-123d-4144-915a-383855424cea","system_id":"levelo_inurba_marseille","lat":43.24395,"lon":5.37057,"is_reserved":false,"is_disabled":false,"rental_uris":{"android":"levelo://app?vid=f389c322-123d-4144-915a-383855424cea","ios":"levelo://app?vid=f389c322-123d-4144-915a-383855424cea"},"vehicle_type_id":"4","last_reported":1781367988,"current_range_meters":4400,"station_id":"ce4bhhh2rcd13ifvqfk0","pricing_plan_id":"cebpf4jnsgd1na2vs0mg"},{"bike_id":"01974ce9-2ce7-4184-9698-03768bec9bb4","system_id":"levelo_inurba_marseille","lat":43.28674,"lon":5.4665,"is_reserved":false,"is_disabled":false,"rental_uris":{"android":"levelo://app?vid=01974ce9-2ce7-4184-9698-03768bec9bb4","ios":"levelo://app?vid=01974ce9-2ce7-4184-9698-03768bec9bb4"},"vehicle_type_id":"4","last_reported":1781367988,"current_range_meters":4400,"station_id":"st_d6tc3vkotcvc738tfjhg","pricing_plan_id":"cebpf4jnsgd1na2vs0mg"},{"bike_id":"960d68cb-472e-483d-974c-3b485764f425","system_id":"levelo_inurba_marseille","lat":43.31696,"lon":5.40458,"is_reserved":false,"is_disabled":false,"rental_uris":{"android":"levelo://app?vid=960d68cb-472e-483d-974c-3b485764f425","ios":"levelo://app?vid=960d68cb-472e-483d-974c-3b485764f425"},"vehicle_type_id":"4","last_reported":1781367988,"current_range_meters":4400,"station_id":"ce4bh012rcd13ifvqd00","pricing_plan_id":"cebpf4jnsgd1na2vs0mg"},{"bike_id":"292ba82b-0dab-46c1-b4a2-48a52268ff1c","system_id":"levelo_inurba_marseille","lat":43.2656,"lon":5.39024,"is_reserved":false,"is_disabled":true,"rental_uris":{"android":"levelo://app?vid=292ba82b-0dab-46c1-b4a2-48a52268ff1c","ios":"levelo://app?vid=292ba82b-0dab-46c1-b4a2-48a52268ff1c"},"vehicle_type_id":"4","last_reported":1781367988,"current_range_meters":4400,"station_id":"ce4bhe12rcd13ifvqf30","pricing_plan_id":"cebpf4jnsgd1na2vs0mg"},{"bike_id":"b21f457c-e007-4cf7-803b-4813293af46e","system_id":"levelo_inurba_marseille","lat":43.31688,"lon":5.40483,"is_reserved":false,"is_disabled":false,"rental_uris":{"android":"levelo://app?vid=b21f457c-e007-4cf7-803b-4813293af46e","ios":"levelo://app?vid=b21f457c-e007-4cf7-803b-4813293af46e"},"vehicle_type_id":"4","last_reported":1781367988,"current_range_meters":4400,"station_id":"ce4bh012rcd13ifvqd00","pricing_plan_id":"cebpf4jnsgd1na2vs0mg"},{"bike_id":"6a2c0872-2083-4d7c-b5d4-5ab298e59799","system_id":"levelo_inurba_marseille","lat":43.31239,"lon":5.36834,"is_reserved":false,"is_disabled":false,"rental_uris":{"android":"levelo://app?vid=6a2c0872-2083-4d7c-b5d4-5ab298e59799","ios":"levelo://app?vid=6a2c0872-2083-4d7c-b5d4-5ab298e59799"},"vehicle_type_id":"4","last_reported":1781367988,"current_range_meters":4400,"station_id":"ce4bgl92rcd13ifvqbq0","pricing_plan_id":"cebpf4jnsgd1na2vs0mg"},{"bike_id":"db8c5b68-a2ae-4ccd-8b82-df47b61ade41","system_id":"levelo_inurba_marseille","lat":43.24649,"lon":5.37977,"is_reserved":false,"is_disabled":false,"rental_uris":{"android":"levelo://app?vid=db8c5b68-a2ae-4ccd-8b82-df47b61ade41","ios":"levelo://app?vid=db8c5b68-a2ae-4ccd-8b82-df47b61ade41"},"vehicle_type_id":"4","last_reported":1781367988,"current_range_meters":4400,"station_id":"","pricing_plan_id":"cebpf4jnsgd1na2vs0mg"},{"bike_id":"107f7f7e-cf33-4894-b245-385d244bd664","system_id":"levelo_inurba_marseille","lat":43.23383,"lon":5.41236,"is_reserved":false,"is_disabled":false,"rental_uris":{"android":"levelo://app?vid=107f7f7e-cf33-4894-b245-385d244bd664","ios":"levelo://app?vid=107f7f7e-cf33-4894-b245-385d244bd664"},"vehicle_type_id":"4","last_reported":1781367988,"current_range_meters":4400,"station_id":"st_d75pvndhf9lc73cqq3eg","pricing_plan_id":"cebpf4jnsgd1na2vs0mg"},{"bike_id":"ed1b8ea2-ecf3-46da-8352-26963074c835","system_id":"levelo_inurba_marseille","lat":43.24461,"lon":5.4256,"is_reserved":false,"is_disabled":false,"rental_uris":{"android":"levelo://app?vid=ed1b8ea2-ecf3-46da-8352-26963074c835","ios":"levelo://app?vid=ed1b8ea2-ecf3-46da-8352-26963074c835"},"vehicle_type_id":"4","last_reported":1781367988,"current_range_meters":4400,"station_id":"st_d4a3vfp97mjs738cd8kg","pricing_plan_id":"cebpf4jnsgd1na2vs0mg"},{"bike_id":"27f33be6-a4e6-4b47-b043-727ec5b73e37","system_id":"levelo_inurba_marseille","lat":43.2315,"lon":5.43714,"is_reserved":false,"is_disabled":false,"rental_uris":{"android":"levelo://app?vid=27f33be6-a4e6-4b47-b043-727ec5b73e37","ios":"levelo://app?vid=27f33be6-a4e6-4b47-b043-727ec5b73e37"},"vehicle_type_id":"4","last_reported":1781367988,"current_range_meters":4400,"station_id":"ce4bhmp2rcd13ifvqgog","pricing_plan_id":"cebpf4jnsgd1na2vs0mg"},{"bike_id":"8caaa414-372d-49ce-8021-8a566c211a18","system_id":"levelo_inurba_marseille","lat":43.23149,"lon":5.43711,"is_reserved":false,"is_disabled":false,"rental_uris":{"android":"levelo://app?vid=8caaa414-372d-49ce-8021-8a566c211a18","ios":"levelo://app?vid=8caaa414-372d-49ce-8021-8a566c211a18"},"vehicle_type_id":"4","last_reported":1781367988,"current_range_meters":4400,"station_id":"ce4bhmp2rcd13ifvqgog","pricing_plan_id":"cebpf4jnsgd1na2vs0mg"},{"bike_id":"9f069751-295a-496b-b19c-281f4491a5fd","system_id":"levelo_inurba_marseille","lat":43.35077,"lon":5.35062,"is_reserved":false,"is_disabled":false,"rental_uris":{"android":"levelo://app?vid=9f069751-295a-496b-b19c-281f4491a5fd","ios":"levelo://app?vid=9f069751-295a-496b-b19c-281f4491a5fd"},"vehicle_type_id":"4","last_reported":1781367988,"current_range_meters":4800,"station_id":"","pricing_plan_id":"cebpf4jnsgd1na2vs0mg"},{"bike_id":"40c6c5c8-f48b-4130-adf6-b5da92dee7f6","system_id":"levelo_inurba_marseille","lat":43.29582,"lon":5.39967,"is_reserved":false,"is_disabled":false,"rental_uris":{"android":"levelo://app?vid=40c6c5c8-f48b-4130-adf6-b5da92dee7f6","ios":"levelo://app?vid=40c6c5c8-f48b-4130-adf6-b5da92dee7f6"},"vehicle_type_id":"4","last_reported":1781367988,"current_range_meters":4800,"station_id":"ce4bh312rcd13ifvqdj0","pricing_plan_id":"cebpf4jnsgd1na2vs0mg"},{"bike_id":"2d8a047b-0411-40fc-a69f-3169f78c4ee9","system_id":"levelo_inurba_marseille","lat":43.32343,"lon":5.36714,"is_reserved":false,"is_disabled":false,"rental_uris":{"android":"levelo://app?vid=2d8a047b-0411-40fc-a69f-3169f78c4ee9","ios":"levelo://app?vid=2d8a047b-0411-40fc-a69f-3169f78c4ee9"},"vehicle_type_id":"4","last_reported":1781367988,"current_range_meters":4800,"station_id":"ce4bhsh2rcd13ifvqi2g","pricing_plan_id":"cebpf4jnsgd1na2vs0mg"},{"bike_id":"1625d25d-0aae-4e8f-bda7-815f82406869","system_id":"levelo_inurba_marseille","lat":43.299268,"lon":5.413193,"is_reserved":false,"is_disabled":false,"rental_uris":{"android":"levelo://app?vid=1625d25d-0aae-4e8f-bda7-815f82406869","ios":"levelo://app?vid=1625d25d-0aae-4e8f-bda7-815f82406869"},"vehicle_type_id":"4","last_reported":1781367988,"current_range_meters":4800,"station_id":"","pricing_plan_id":"cebpf4jnsgd1na2vs0mg"},{"bike_id":"5f68454a-3f46-4716-98ea-a07b68026da7","system_id":"levelo_inurba_marseille","lat":43.30099,"lon":5.37723,"is_reserved":false,"is_disabled":false,"rental_uris":{"android":"levelo://app?vid=5f68454a-3f46-4716-98ea-a07b68026da7","ios":"levelo://app?vid=5f68454a-3f46-4716-98ea-a07b68026da7"},"vehicle_type_id":"4","last_reported":1781367988,"current_range_meters":4800,"station_id":"","pricing_plan_id":"cebpf4jnsgd1na2vs0mg"},{"bike_id":"8600ac62-e423-4ce7-bd23-adf32821d6d9","system_id":"levelo_inurba_marseille","lat":43.26206,"lon":5.37441,"is_reserved":false,"is_disabled":false,"rental_uris":{"android":"levelo://app?vid=8600ac62-e423-4ce7-bd23-adf32821d6d9","ios":"levelo://app?vid=8600ac62-e423-4ce7-bd23-adf32821d6d9"},"vehicle_type_id":"4","last_reported":1781367988,"current_range_meters":4800,"station_id":"ce4bhgp2rcd13ifvqfc0","pricing_plan_id":"cebpf4jnsgd1na2vs0mg"},{"bike_id":"ab6c4bea-1b6d-4870-a1cc-8d66a5ea9518","system_id":"levelo_inurba_marseille","lat":43.29191,"lon":5.35816,"is_reserved":false,"is_disabled":false,"rental_uris":{"android":"levelo://app?vid=ab6c4bea-1b6d-4870-a1cc-8d66a5ea9518","ios":"levelo://app?vid=ab6c4bea-1b6d-4870-a1cc-8d66a5ea9518"},"vehicle_type_id":"4","last_reported":1781367988,"current_range_meters":4800,"station_id":"ce4bhb12rcd13ifvqel0","pricing_plan_id":"cebpf4jnsgd1na2vs0mg"},{"bike_id":"5b721959-b843-4261-959d-635897c03c13","system_id":"levelo_inurba_marseille","lat":43.24635,"lon":5.43143,"is_reserved":false,"is_disabled":false,"rental_uris":{"android":"levelo://app?vid=5b721959-b843-4261-959d-635897c03c13","ios":"levelo://app?vid=5b721959-b843-4261-959d-635897c03c13"},"vehicle_type_id":"4","last_reported":1781367988,"current_range_meters":4800,"station_id":"st_d2m6c4gdas8pm72e190g","pricing_plan_id":"cebpf4jnsgd1na2vs0mg"},{"bike_id":"5f189998-b2b6-4e38-b849-68910c9a3d84","system_id":"levelo_inurba_marseille","lat":43.317514,"lon":5.39012,"is_reserved":false,"is_disabled":false,"rental_uris":{"android":"levelo://app?vid=5f189998-b2b6-4e38-b849-68910c9a3d84","ios":"levelo://app?vid=5f189998-b2b6-4e38-b849-68910c9a3d84"},"vehicle_type_id":"4","last_reported":1781367988,"current_range_meters":4800,"station_id":"","pricing_plan_id":"cebpf4jnsgd1na2vs0mg"},{"bike_id":"85c669e0-7f32-4596-873a-878e48055f74","system_id":"levelo_inurba_marseille","lat":43.2481,"lon":5.37461,"is_reserved":false,"is_disabled":false,"rental_uris":{"android":"levelo://app?vid=85c669e0-7f32-4596-873a-878e48055f74","ios":"levelo://app?vid=85c669e0-7f32-4596-873a-878e48055f74"},"vehicle_type_id":"4","last_reported":1781367988,"current_range_meters":4800,"station_id":"ce4bhgh2rcd13ifvqfb0","pricing_plan_id":"cebpf4jnsgd1na2vs0mg"},{"bike_id":"68df253b-425d-47b1-944b-32c97a1033d0","system_id":"levelo_inurba_marseille","lat":43.27833,"lon":5.3922,"is_reserved":false,"is_disabled":false,"rental_uris":{"android":"levelo://app?vid=68df253b-425d-47b1-944b-32c97a1033d0","ios":"levelo://app?vid=68df253b-425d-47b1-944b-32c97a1033d0"},"vehicle_type_id":"4","last_reported":1781367988,"current_range_meters":4800,"station_id":"ce4bhjp2rcd13ifvqga0","pricing_plan_id":"cebpf4jnsgd1na2vs0mg"},{"bike_id":"7e76109c-1985-4f4b-a9fc-21b10be5d4bf","system_id":"levelo_inurba_marseille","lat":43.29964,"lon":5.38504,"is_reserved":false,"is_disabled":false,"rental_uris":{"android":"levelo://app?vid=7e76109c-1985-4f4b-a9fc-21b10be5d4bf","ios":"levelo://app?vid=7e76109c-1985-4f4b-a9fc-21b10be5d4bf"},"vehicle_type_id":"4","last_reported":1781367988,"current_range_meters":4800,"station_id":"ce4bgj92rcd13ifvqbd0","pricing_plan_id":"cebpf4jnsgd1na2vs0mg"},{"bike_id":"6db0e189-20d1-4d92-ab9f-a2ad8e479225","system_id":"levelo_inurba_marseille","lat":43.29273,"lon":5.35562,"is_reserved":false,"is_disabled":false,"rental_uris":{"android":"levelo://app?vid=6db0e189-20d1-4d92-ab9f-a2ad8e479225","ios":"levelo://app?vid=6db0e189-20d1-4d92-ab9f-a2ad8e479225"},"vehicle_type_id":"4","last_reported":1781367988,"current_range_meters":4800,"station_id":"","pricing_plan_id":"cebpf4jnsgd1na2vs0mg"},{"bike_id":"3ea61c54-5ae4-4ec5-8d1e-95c813254f6e","system_id":"levelo_inurba_marseille","lat":43.24465,"lon":5.42531,"is_reserved":false,"is_disabled":false,"rental_uris":{"android":"levelo://app?vid=3ea61c54-5ae4-4ec5-8d1e-95c813254f6e","ios":"levelo://app?vid=3ea61c54-5ae4-4ec5-8d1e-95c813254f6e"},"vehicle_type_id":"4","last_reported":1781367988,"current_range_meters":4800,"station_id":"st_d4a3vfp97mjs738cd8kg","pricing_plan_id":"cebpf4jnsgd1na2vs0mg"},{"bike_id":"78f96ec0-3651-40e0-9064-540398d155f5","system_id":"levelo_inurba_marseille","lat":43.24484,"lon":5.42511,"is_reserved":false,"is_disabled":false,"rental_uris":{"android":"levelo://app?vid=78f96ec0-3651-40e0-9064-540398d155f5","ios":"levelo://app?vid=78f96ec0-3651-40e0-9064-540398d155f5"},"vehicle_type_id":"4","last_reported":1781367988,"current_range_meters":4800,"station_id":"st_d4a3vfp97mjs738cd8kg","pricing_plan_id":"cebpf4jnsgd1na2vs0mg"},{"bike_id":"91f6d118-208d-48bd-a16a-063e58495387","system_id":"levelo_inurba_marseille","lat":43.27177,"lon":5.40985,"is_reserved":false,"is_disabled":false,"rental_uris":{"android":"levelo://app?vid=91f6d118-208d-48bd-a16a-063e58495387","ios":"levelo://app?vid=91f6d118-208d-48bd-a16a-063e58495387"},"vehicle_type_id":"4","last_reported":1781367988,"current_range_meters":5600,"station_id":"ce4bhl12rcd13ifvqgf0","pricing_plan_id":"cebpf4jnsgd1na2vs0mg"},{"bike_id":"0633c0b2-cd61-4107-9084-a3953fc3765a","system_id":"levelo_inurba_marseille","lat":43.29204,"lon":5.37649,"is_reserved":false,"is_disabled":true,"rental_uris":{"android":"levelo://app?vid=0633c0b2-cd61-4107-9084-a3953fc3765a","ios":"levelo://app?vid=0633c0b2-cd61-4107-9084-a3953fc3765a"},"vehicle_type_id":"4","last_reported":1781367988,"current_range_meters":5600,"station_id":"","pricing_plan_id":"cebpf4jnsgd1na2vs0mg"},{"bike_id":"2f70ef4e-6af0-41d0-bdb7-405718b4158d","system_id":"levelo_inurba_marseille","lat":43.24515,"lon":5.372983,"is_reserved":false,"is_disabled":false,"rental_uris":{"android":"levelo://app?vid=2f70ef4e-6af0-41d0-bdb7-405718b4158d","ios":"levelo://app?vid=2f70ef4e-6af0-41d0-bdb7-405718b4158d"},"vehicle_type_id":"4","last_reported":1781367988,"current_range_meters":5600,"station_id":"st_cvj6r9ubvosntc0bgbag","pricing_plan_id":"cebpf4jnsgd1na2vs0mg"},{"bike_id":"6edf579f-78f6-4a80-8faa-35bdd39ec8f9","system_id":"levelo_inurba_marseille","lat":43.30533,"lon":5.36545,"is_reserved":false,"is_disabled":false,"rental_uris":{"android":"levelo://app?vid=6edf579f-78f6-4a80-8faa-35bdd39ec8f9","ios":"levelo://app?vid=6edf579f-78f6-4a80-8faa-35bdd39ec8f9"},"vehicle_type_id":"4","last_reported":1781367988,"current_range_meters":5600,"station_id":"ce4bgs12rcd13ifvqcag","pricing_plan_id":"cebpf4jnsgd1na2vs0mg"},{"bike_id":"9c81e4cb-b4f4-4d75-bab5-a33a9e71ad4b","system_id":"levelo_inurba_marseille","lat":43.30593,"lon":5.3936,"is_reserved":false,"is_disabled":false,"rental_uris":{"android":"levelo://app?vid=9c81e4cb-b4f4-4d75-bab5-a33a9e71ad4b","ios":"levelo://app?vid=9c81e4cb-b4f4-4d75-bab5-a33a9e71ad4b"},"vehicle_type_id":"4","last_reported":1781367988,"current_range_meters":5600,"station_id":"ce4bh0p2rcd13ifvqd80","pricing_plan_id":"cebpf4jnsgd1na2vs0mg"},{"bike_id":"b9d1843a-d85f-480b-9e0d-ac8e9afe5d9f","system_id":"levelo_inurba_marseille","lat":43.337444,"lon":5.374475,"is_reserved":false,"is_disabled":false,"rental_uris":{"android":"levelo://app?vid=b9d1843a-d85f-480b-9e0d-ac8e9afe5d9f","ios":"levelo://app?vid=b9d1843a-d85f-480b-9e0d-ac8e9afe5d9f"},"vehicle_type_id":"4","last_reported":1781367988,"current_range_meters":5600,"station_id":"","pricing_plan_id":"cebpf4jnsgd1na2vs0mg"},{"bike_id":"75f2ac1b-0110-4a69-8e2b-928c67794bef","system_id":"levelo_inurba_marseille","lat":43.24463,"lon":5.42533,"is_reserved":false,"is_disabled":false,"rental_uris":{"android":"levelo://app?vid=75f2ac1b-0110-4a69-8e2b-928c67794bef","ios":"levelo://app?vid=75f2ac1b-0110-4a69-8e2b-928c67794bef"},"vehicle_type_id":"4","last_reported":1781367988,"current_range_meters":5600,"station_id":"st_d4a3vfp97mjs738cd8kg","pricing_plan_id":"cebpf4jnsgd1na2vs0mg"},{"bike_id":"35565049-90de-4fb4-b35d-e9c548924e41","system_id":"levelo_inurba_marseille","lat":43.26773,"lon":5.39481,"is_reserved":false,"is_disabled":true,"rental_uris":{"android":"levelo://app?vid=35565049-90de-4fb4-b35d-e9c548924e41","ios":"levelo://app?vid=35565049-90de-4fb4-b35d-e9c548924e41"},"vehicle_type_id":"4","last_reported":1781367988,"current_range_meters":5600,"station_id":"","pricing_plan_id":"cebpf4jnsgd1na2vs0mg"},{"bike_id":"14c6b8a9-d7f2-42c6-9176-ddd3504d4d0c","system_id":"levelo_inurba_marseille","lat":43.2902,"lon":5.36731,"is_reserved":false,"is_disabled":false,"rental_uris":{"android":"levelo://app?vid=14c6b8a9-d7f2-42c6-9176-ddd3504d4d0c","ios":"levelo://app?vid=14c6b8a9-d7f2-42c6-9176-ddd3504d4d0c"},"vehicle_type_id":"4","last_reported":1781367988,"current_range_meters":5600,"station_id":"","pricing_plan_id":"cebpf4jnsgd1na2vs0mg"},{"bike_id":"874df639-e697-40fd-a19c-5db4a8f50cfa","system_id":"levelo_inurba_marseille","lat":43.31746,"lon":5.39029,"is_reserved":false,"is_disabled":false,"rental_uris":{"android":"levelo://app?vid=874df639-e697-40fd-a19c-5db4a8f50cfa","ios":"levelo://app?vid=874df639-e697-40fd-a19c-5db4a8f50cfa"},"vehicle_type_id":"4","last_reported":1781367988,"current_range_meters":5600,"station_id":"ce4bhqp2rcd13ifvqhng","pricing_plan_id":"cebpf4jnsgd1na2vs0mg"},{"bike_id":"f8512e4c-12f1-407d-a418-7fa99b208e7f","system_id":"levelo_inurba_marseille","lat":43.24805,"lon":5.37454,"is_reserved":false,"is_disabled":false,"rental_uris":{"android":"levelo://app?vid=f8512e4c-12f1-407d-a418-7fa99b208e7f","ios":"levelo://app?vid=f8512e4c-12f1-407d-a418-7fa99b208e7f"},"vehicle_type_id":"4","last_reported":1781367988,"current_range_meters":5600,"station_id":"ce4bhgh2rcd13ifvqfb0","pricing_plan_id":"cebpf4jnsgd1na2vs0mg"},{"bike_id":"4be45639-e814-45bf-81ea-c56749fca32a","system_id":"levelo_inurba_marseille","lat":43.23185,"lon":5.39985,"is_reserved":false,"is_disabled":false,"rental_uris":{"android":"levelo://app?vid=4be45639-e814-45bf-81ea-c56749fca32a","ios":"levelo://app?vid=4be45639-e814-45bf-81ea-c56749fca32a"},"vehicle_type_id":"4","last_reported":1781367988,"current_range_meters":5600,"station_id":"ce4bhn12rcd13ifvqgqg","pricing_plan_id":"cebpf4jnsgd1na2vs0mg"},{"bike_id":"d476aca5-3b70-40b3-8b78-89f47aa194b2","system_id":"levelo_inurba_marseille","lat":43.24044,"lon":5.37787,"is_reserved":false,"is_disabled":false,"rental_uris":{"android":"levelo://app?vid=d476aca5-3b70-40b3-8b78-89f47aa194b2","ios":"levelo://app?vid=d476aca5-3b70-40b3-8b78-89f47aa194b2"},"vehicle_type_id":"4","last_reported":1781367988,"current_range_meters":5600,"station_id":"ce4bhnp2rcd13ifvqgvg","pricing_plan_id":"cebpf4jnsgd1na2vs0mg"},{"bike_id":"8ba0c219-2611-4ffc-a0c2-24dccaee9a41","system_id":"levelo_inurba_marseille","lat":43.269493,"lon":5.386337,"is_reserved":false,"is_disabled":false,"rental_uris":{"android":"levelo://app?vid=8ba0c219-2611-4ffc-a0c2-24dccaee9a41","ios":"levelo://app?vid=8ba0c219-2611-4ffc-a0c2-24dccaee9a41"},"vehicle_type_id":"4","last_reported":1781367988,"current_range_meters":5600,"station_id":"ce4bhh92rcd13ifvqfh0","pricing_plan_id":"cebpf4jnsgd1na2vs0mg"},{"bike_id":"f87d187b-9d53-424a-9593-f5cf059f3d66","system_id":"levelo_inurba_marseille","lat":43.29898,"lon":5.39692,"is_reserved":false,"is_disabled":false,"rental_uris":{"android":"levelo://app?vid=f87d187b-9d53-424a-9593-f5cf059f3d66","ios":"levelo://app?vid=f87d187b-9d53-424a-9593-f5cf059f3d66"},"vehicle_type_id":"4","last_reported":1781367988,"current_range_meters":5600,"station_id":"ce4bh0h2rcd13ifvqd50","pricing_plan_id":"cebpf4jnsgd1na2vs0mg"},{"bike_id":"b0e1c627-e366-414e-b921-4572a58307db","system_id":"levelo_inurba_marseille","lat":43.286161,"lon":5.351079,"is_reserved":false,"is_disabled":true,"rental_uris":{"android":"levelo://app?vid=b0e1c627-e366-414e-b921-4572a58307db","ios":"levelo://app?vid=b0e1c627-e366-414e-b921-4572a58307db"},"vehicle_type_id":"4","last_reported":1781367988,"current_range_meters":5600,"station_id":"ce4bhch2rcd13ifvqeug","pricing_plan_id":"cebpf4jnsgd1na2vs0mg"},{"bike_id":"afb5d1d0-d6d3-4837-84c1-73b8786a322a","system_id":"levelo_inurba_marseille","lat":43.2668,"lon":5.38266,"is_reserved":false,"is_disabled":false,"rental_uris":{"android":"levelo://app?vid=afb5d1d0-d6d3-4837-84c1-73b8786a322a","ios":"levelo://app?vid=afb5d1d0-d6d3-4837-84c1-73b8786a322a"},"vehicle_type_id":"4","last_reported":1781367988,"current_range_meters":5600,"station_id":"ce4bhg92rcd13ifvqf90","pricing_plan_id":"cebpf4jnsgd1na2vs0mg"},{"bike_id":"347cf82e-46f5-41d0-b93f-41cd6a5e8894","system_id":"levelo_inurba_marseille","lat":43.30121,"lon":5.43118,"is_reserved":false,"is_disabled":false,"rental_uris":{"android":"levelo://app?vid=347cf82e-46f5-41d0-b93f-41cd6a5e8894","ios":"levelo://app?vid=347cf82e-46f5-41d0-b93f-41cd6a5e8894"},"vehicle_type_id":"4","last_reported":1781367988,"current_range_meters":5600,"station_id":"st_d3js3co5814s73ftftug","pricing_plan_id":"cebpf4jnsgd1na2vs0mg"},{"bike_id":"fe131b0b-1ef9-4416-9fb2-6e419e6feba9","system_id":"levelo_inurba_marseille","lat":43.24393,"lon":5.37073,"is_reserved":false,"is_disabled":true,"rental_uris":{"android":"levelo://app?vid=fe131b0b-1ef9-4416-9fb2-6e419e6feba9","ios":"levelo://app?vid=fe131b0b-1ef9-4416-9fb2-6e419e6feba9"},"vehicle_type_id":"4","last_reported":1781367988,"current_range_meters":5600,"station_id":"ce4bhhh2rcd13ifvqfk0","pricing_plan_id":"cebpf4jnsgd1na2vs0mg"},{"bike_id":"da8bc5c2-cdf5-4f19-8c0c-eda0e4a1482e","system_id":"levelo_inurba_marseille","lat":43.270779,"lon":5.422824,"is_reserved":false,"is_disabled":false,"rental_uris":{"android":"levelo://app?vid=da8bc5c2-cdf5-4f19-8c0c-eda0e4a1482e","ios":"levelo://app?vid=da8bc5c2-cdf5-4f19-8c0c-eda0e4a1482e"},"vehicle_type_id":"4","last_reported":1781367988,"current_range_meters":5600,"station_id":"ce4bhk92rcd13ifvqgb0","pricing_plan_id":"cebpf4jnsgd1na2vs0mg"},{"bike_id":"437e3ba7-ea12-4e88-a20f-de0ed79ac149","system_id":"levelo_inurba_marseille","lat":43.24087,"lon":5.37754,"is_reserved":false,"is_disabled":false,"rental_uris":{"android":"levelo://app?vid=437e3ba7-ea12-4e88-a20f-de0ed79ac149","ios":"levelo://app?vid=437e3ba7-ea12-4e88-a20f-de0ed79ac149"},"vehicle_type_id":"4","last_reported":1781367988,"current_range_meters":5600,"station_id":"ce4bhnp2rcd13ifvqgvg","pricing_plan_id":"cebpf4jnsgd1na2vs0mg"},{"bike_id":"0a447fbd-c4e9-4d6f-95ca-96703b3388eb","system_id":"levelo_inurba_marseille","lat":43.21192,"lon":5.35074,"is_reserved":false,"is_disabled":false,"rental_uris":{"android":"levelo://app?vid=0a447fbd-c4e9-4d6f-95ca-96703b3388eb","ios":"levelo://app?vid=0a447fbd-c4e9-4d6f-95ca-96703b3388eb"},"vehicle_type_id":"4","last_reported":1781367988,"current_range_meters":6000,"station_id":"st_cvj6sg6p6f1abm77japg","pricing_plan_id":"cebpf4jnsgd1na2vs0mg"},{"bike_id":"86b4821b-066f-4af7-9341-601c3120669c","system_id":"levelo_inurba_marseille","lat":43.26233,"lon":5.38766,"is_reserved":false,"is_disabled":false,"rental_uris":{"android":"levelo://app?vid=86b4821b-066f-4af7-9341-601c3120669c","ios":"levelo://app?vid=86b4821b-066f-4af7-9341-601c3120669c"},"vehicle_type_id":"4","last_reported":1781367988,"current_range_meters":6000,"station_id":"st_d8gjfg747rts73coq3b0","pricing_plan_id":"cebpf4jnsgd1na2vs0mg"},{"bike_id":"c175211b-3da4-46cc-a60f-4967a28b1b76","system_id":"levelo_inurba_marseille","lat":43.33197,"lon":5.37719,"is_reserved":false,"is_disabled":false,"rental_uris":{"android":"levelo://app?vid=c175211b-3da4-46cc-a60f-4967a28b1b76","ios":"levelo://app?vid=c175211b-3da4-46cc-a60f-4967a28b1b76"},"vehicle_type_id":"4","last_reported":1781367988,"current_range_meters":6000,"station_id":"","pricing_plan_id":"cebpf4jnsgd1na2vs0mg"},{"bike_id":"60ef35b5-2df4-436e-b925-da19a11c6328","system_id":"levelo_inurba_marseille","lat":43.32112,"lon":5.36762,"is_reserved":false,"is_disabled":false,"rental_uris":{"android":"levelo://app?vid=60ef35b5-2df4-436e-b925-da19a11c6328","ios":"levelo://app?vid=60ef35b5-2df4-436e-b925-da19a11c6328"},"vehicle_type_id":"4","last_reported":1781367988,"current_range_meters":6000,"station_id":"ce4bhrh2rcd13ifvqhug","pricing_plan_id":"cebpf4jnsgd1na2vs0mg"},{"bike_id":"1be84025-d267-4515-957c-91dae421ff6c","system_id":"levelo_inurba_marseille","lat":43.26674,"lon":5.38258,"is_reserved":false,"is_disabled":false,"rental_uris":{"android":"levelo://app?vid=1be84025-d267-4515-957c-91dae421ff6c","ios":"levelo://app?vid=1be84025-d267-4515-957c-91dae421ff6c"},"vehicle_type_id":"4","last_reported":1781367988,"current_range_meters":6000,"station_id":"ce4bhg92rcd13ifvqf90","pricing_plan_id":"cebpf4jnsgd1na2vs0mg"},{"bike_id":"ac3358ce-481e-4fda-9f9b-670be68b265e","system_id":"levelo_inurba_marseille","lat":43.31473,"lon":5.40191,"is_reserved":false,"is_disabled":false,"rental_uris":{"android":"levelo://app?vid=ac3358ce-481e-4fda-9f9b-670be68b265e","ios":"levelo://app?vid=ac3358ce-481e-4fda-9f9b-670be68b265e"},"vehicle_type_id":"4","last_reported":1781367988,"current_range_meters":6000,"station_id":"","pricing_plan_id":"cebpf4jnsgd1na2vs0mg"},{"bike_id":"5b5ea2fb-3ba8-4c10-841c-ca34891a615c","system_id":"levelo_inurba_marseille","lat":43.2935,"lon":5.36374,"is_reserved":false,"is_disabled":false,"rental_uris":{"android":"levelo://app?vid=5b5ea2fb-3ba8-4c10-841c-ca34891a615c","ios":"levelo://app?vid=5b5ea2fb-3ba8-4c10-841c-ca34891a615c"},"vehicle_type_id":"4","last_reported":1781367988,"current_range_meters":6000,"station_id":"","pricing_plan_id":"cebpf4jnsgd1na2vs0mg"},{"bike_id":"a303e4db-b9ba-4d63-9eff-f7e5a8e536c2","system_id":"levelo_inurba_marseille","lat":43.28004,"lon":5.40892,"is_reserved":false,"is_disabled":false,"rental_uris":{"android":"levelo://app?vid=a303e4db-b9ba-4d63-9eff-f7e5a8e536c2","ios":"levelo://app?vid=a303e4db-b9ba-4d63-9eff-f7e5a8e536c2"},"vehicle_type_id":"4","last_reported":1781367988,"current_range_meters":6000,"station_id":"","pricing_plan_id":"cebpf4jnsgd1na2vs0mg"},{"bike_id":"be004f60-661b-45b9-a00d-02d877da6c38","system_id":"levelo_inurba_marseille","lat":43.25375,"lon":5.42289,"is_reserved":false,"is_disabled":false,"rental_uris":{"android":"levelo://app?vid=be004f60-661b-45b9-a00d-02d877da6c38","ios":"levelo://app?vid=be004f60-661b-45b9-a00d-02d877da6c38"},"vehicle_type_id":"4","last_reported":1781367988,"current_range_meters":6000,"station_id":"","pricing_plan_id":"cebpf4jnsgd1na2vs0mg"},{"bike_id":"4b84cc20-93d9-4e85-811a-ba432f50bc38","system_id":"levelo_inurba_marseille","lat":43.2621,"lon":5.38091,"is_reserved":false,"is_disabled":false,"rental_uris":{"android":"levelo://app?vid=4b84cc20-93d9-4e85-811a-ba432f50bc38","ios":"levelo://app?vid=4b84cc20-93d9-4e85-811a-ba432f50bc38"},"vehicle_type_id":"4","last_reported":1781367988,"current_range_meters":6000,"station_id":"","pricing_plan_id":"cebpf4jnsgd1na2vs0mg"},{"bike_id":"70074e2a-94c4-4bb0-bbca-a24f4105eb9f","system_id":"levelo_inurba_marseille","lat":43.29125,"lon":5.38428,"is_reserved":false,"is_disabled":false,"rental_uris":{"android":"levelo://app?vid=70074e2a-94c4-4bb0-bbca-a24f4105eb9f","ios":"levelo://app?vid=70074e2a-94c4-4bb0-bbca-a24f4105eb9f"},"vehicle_type_id":"4","last_reported":1781367988,"current_range_meters":6000,"station_id":"","pricing_plan_id":"cebpf4jnsgd1na2vs0mg"},{"bike_id":"4edee940-ec43-4825-84a8-8448d2933867","system_id":"levelo_inurba_marseille","lat":43.24547,"lon":5.39516,"is_reserved":false,"is_disabled":false,"rental_uris":{"android":"levelo://app?vid=4edee940-ec43-4825-84a8-8448d2933867","ios":"levelo://app?vid=4edee940-ec43-4825-84a8-8448d2933867"},"vehicle_type_id":"4","last_reported":1781367988,"current_range_meters":6000,"station_id":"ce4bhlp2rcd13ifvqgjg","pricing_plan_id":"cebpf4jnsgd1na2vs0mg"},{"bike_id":"bb794378-854d-48fe-be2c-f6b13e488264","system_id":"levelo_inurba_marseille","lat":43.23965,"lon":5.36658,"is_reserved":false,"is_disabled":false,"rental_uris":{"android":"levelo://app?vid=bb794378-854d-48fe-be2c-f6b13e488264","ios":"levelo://app?vid=bb794378-854d-48fe-be2c-f6b13e488264"},"vehicle_type_id":"4","last_reported":1781367988,"current_range_meters":6000,"station_id":"ce4bhi12rcd13ifvqfp0","pricing_plan_id":"cebpf4jnsgd1na2vs0mg"},{"bike_id":"8f5b297e-a101-4dac-9b10-8764ca019902","system_id":"levelo_inurba_marseille","lat":43.313634,"lon":5.38489,"is_reserved":false,"is_disabled":true,"rental_uris":{"android":"levelo://app?vid=8f5b297e-a101-4dac-9b10-8764ca019902","ios":"levelo://app?vid=8f5b297e-a101-4dac-9b10-8764ca019902"},"vehicle_type_id":"4","last_reported":1781367988,"current_range_meters":6000,"station_id":"","pricing_plan_id":"cebpf4jnsgd1na2vs0mg"},{"bike_id":"4ff98eef-0e2f-41fa-aa56-a41087df7951","system_id":"levelo_inurba_marseille","lat":43.26205,"lon":5.37441,"is_reserved":false,"is_disabled":false,"rental_uris":{"android":"levelo://app?vid=4ff98eef-0e2f-41fa-aa56-a41087df7951","ios":"levelo://app?vid=4ff98eef-0e2f-41fa-aa56-a41087df7951"},"vehicle_type_id":"4","last_reported":1781367988,"current_range_meters":6000,"station_id":"ce4bhgp2rcd13ifvqfc0","pricing_plan_id":"cebpf4jnsgd1na2vs0mg"},{"bike_id":"c6555d54-519a-459c-a7d8-0f5386f527ae","system_id":"levelo_inurba_marseille","lat":43.29716,"lon":5.37448,"is_reserved":false,"is_disabled":false,"rental_uris":{"android":"levelo://app?vid=c6555d54-519a-459c-a7d8-0f5386f527ae","ios":"levelo://app?vid=c6555d54-519a-459c-a7d8-0f5386f527ae"},"vehicle_type_id":"4","last_reported":1781367988,"current_range_meters":6000,"station_id":"","pricing_plan_id":"cebpf4jnsgd1na2vs0mg"},{"bike_id":"b945184a-c78f-4426-9ce0-68e4fe55805b","system_id":"levelo_inurba_marseille","lat":43.24396,"lon":5.37066,"is_reserved":false,"is_disabled":false,"rental_uris":{"android":"levelo://app?vid=b945184a-c78f-4426-9ce0-68e4fe55805b","ios":"levelo://app?vid=b945184a-c78f-4426-9ce0-68e4fe55805b"},"vehicle_type_id":"4","last_reported":1781367988,"current_range_meters":6000,"station_id":"ce4bhhh2rcd13ifvqfk0","pricing_plan_id":"cebpf4jnsgd1na2vs0mg"},{"bike_id":"33acdeaf-45e2-4ca8-8b1f-b7d8ab2d293c","system_id":"levelo_inurba_marseille","lat":43.26683,"lon":5.38268,"is_reserved":false,"is_disabled":false,"rental_uris":{"android":"levelo://app?vid=33acdeaf-45e2-4ca8-8b1f-b7d8ab2d293c","ios":"levelo://app?vid=33acdeaf-45e2-4ca8-8b1f-b7d8ab2d293c"},"vehicle_type_id":"4","last_reported":1781367988,"current_range_meters":6000,"station_id":"ce4bhg92rcd13ifvqf90","pricing_plan_id":"cebpf4jnsgd1na2vs0mg"},{"bike_id":"6fb07b35-b88f-45ae-9e9e-ceed1b219374","system_id":"levelo_inurba_marseille","lat":43.32493,"lon":5.36579,"is_reserved":false,"is_disabled":true,"rental_uris":{"android":"levelo://app?vid=6fb07b35-b88f-45ae-9e9e-ceed1b219374","ios":"levelo://app?vid=6fb07b35-b88f-45ae-9e9e-ceed1b219374"},"vehicle_type_id":"4","last_reported":1781367988,"current_range_meters":6000,"station_id":"ce4bhs12rcd13ifvqhvg","pricing_plan_id":"cebpf4jnsgd1na2vs0mg"},{"bike_id":"bf740f93-dcae-45bd-8189-93f0bf5977b3","system_id":"levelo_inurba_marseille","lat":43.22554,"lon":5.41626,"is_reserved":false,"is_disabled":false,"rental_uris":{"android":"levelo://app?vid=bf740f93-dcae-45bd-8189-93f0bf5977b3","ios":"levelo://app?vid=bf740f93-dcae-45bd-8189-93f0bf5977b3"},"vehicle_type_id":"4","last_reported":1781367988,"current_range_meters":6000,"station_id":"st_d2o4gvlbi1j2169b742g","pricing_plan_id":"cebpf4jnsgd1na2vs0mg"},{"bike_id":"514ca461-1ef9-452d-90bb-837f0bf92baf","system_id":"levelo_inurba_marseille","lat":43.31679,"lon":5.40503,"is_reserved":false,"is_disabled":false,"rental_uris":{"android":"levelo://app?vid=514ca461-1ef9-452d-90bb-837f0bf92baf","ios":"levelo://app?vid=514ca461-1ef9-452d-90bb-837f0bf92baf"},"vehicle_type_id":"4","last_reported":1781367988,"current_range_meters":6000,"station_id":"ce4bh012rcd13ifvqd00","pricing_plan_id":"cebpf4jnsgd1na2vs0mg"},{"bike_id":"a4367c49-3ad9-4e5d-b890-d24a763f0a44","system_id":"levelo_inurba_marseille","lat":43.28794,"lon":5.42787,"is_reserved":false,"is_disabled":false,"rental_uris":{"android":"levelo://app?vid=a4367c49-3ad9-4e5d-b890-d24a763f0a44","ios":"levelo://app?vid=a4367c49-3ad9-4e5d-b890-d24a763f0a44"},"vehicle_type_id":"4","last_reported":1781367988,"current_range_meters":6000,"station_id":"","pricing_plan_id":"cebpf4jnsgd1na2vs0mg"},{"bike_id":"f52e5c2c-8ddd-404d-8032-c7513a678f1a","system_id":"levelo_inurba_marseille","lat":43.28947,"lon":5.36628,"is_reserved":false,"is_disabled":true,"rental_uris":{"android":"levelo://app?vid=f52e5c2c-8ddd-404d-8032-c7513a678f1a","ios":"levelo://app?vid=f52e5c2c-8ddd-404d-8032-c7513a678f1a"},"vehicle_type_id":"4","last_reported":1781367988,"current_range_meters":6000,"station_id":"ce4bhap2rcd13ifvqek0","pricing_plan_id":"cebpf4jnsgd1na2vs0mg"},{"bike_id":"45469403-b2c5-4518-9427-6181c2421365","system_id":"levelo_inurba_marseille","lat":43.22548,"lon":5.34835,"is_reserved":false,"is_disabled":false,"rental_uris":{"android":"levelo://app?vid=45469403-b2c5-4518-9427-6181c2421365","ios":"levelo://app?vid=45469403-b2c5-4518-9427-6181c2421365"},"vehicle_type_id":"4","last_reported":1781367988,"current_range_meters":6000,"station_id":"st_cvj5dfep6f1abm77gieg","pricing_plan_id":"cebpf4jnsgd1na2vs0mg"},{"bike_id":"de34cc43-9c18-41de-a3e9-5ab17a96e097","system_id":"levelo_inurba_marseille","lat":43.29772,"lon":5.38119,"is_reserved":false,"is_disabled":true,"rental_uris":{"android":"levelo://app?vid=de34cc43-9c18-41de-a3e9-5ab17a96e097","ios":"levelo://app?vid=de34cc43-9c18-41de-a3e9-5ab17a96e097"},"vehicle_type_id":"4","last_reported":1781367988,"current_range_meters":6400,"station_id":"ce4bgip2rcd13ifvqbb0","pricing_plan_id":"cebpf4jnsgd1na2vs0mg"},{"bike_id":"cc0b6bbb-3620-4343-9770-eb4b48740305","system_id":"levelo_inurba_marseille","lat":43.24163,"lon":5.36405,"is_reserved":false,"is_disabled":false,"rental_uris":{"android":"levelo://app?vid=cc0b6bbb-3620-4343-9770-eb4b48740305","ios":"levelo://app?vid=cc0b6bbb-3620-4343-9770-eb4b48740305"},"vehicle_type_id":"4","last_reported":1781367988,"current_range_meters":6400,"station_id":"cpo36qri1sfpv3e86is0","pricing_plan_id":"cebpf4jnsgd1na2vs0mg"},{"bike_id":"d7f6f718-1d02-4a36-b488-3b555c7c0262","system_id":"levelo_inurba_marseille","lat":43.27383,"lon":5.3623,"is_reserved":false,"is_disabled":false,"rental_uris":{"android":"levelo://app?vid=d7f6f718-1d02-4a36-b488-3b555c7c0262","ios":"levelo://app?vid=d7f6f718-1d02-4a36-b488-3b555c7c0262"},"vehicle_type_id":"4","last_reported":1781367988,"current_range_meters":6400,"station_id":"ce4bhbh2rcd13ifvqeo0","pricing_plan_id":"cebpf4jnsgd1na2vs0mg"},{"bike_id":"bf601120-2f22-4bcd-8556-91c5f1ccc8b1","system_id":"levelo_inurba_marseille","lat":43.31405,"lon":5.38113,"is_reserved":false,"is_disabled":false,"rental_uris":{"android":"levelo://app?vid=bf601120-2f22-4bcd-8556-91c5f1ccc8b1","ios":"levelo://app?vid=bf601120-2f22-4bcd-8556-91c5f1ccc8b1"},"vehicle_type_id":"4","last_reported":1781367988,"current_range_meters":6400,"station_id":"","pricing_plan_id":"cebpf4jnsgd1na2vs0mg"},{"bike_id":"2e296511-deb4-43a9-83f0-81592d7a3463","system_id":"levelo_inurba_marseille","lat":43.33196,"lon":5.37715,"is_reserved":false,"is_disabled":false,"rental_uris":{"android":"levelo://app?vid=2e296511-deb4-43a9-83f0-81592d7a3463","ios":"levelo://app?vid=2e296511-deb4-43a9-83f0-81592d7a3463"},"vehicle_type_id":"4","last_reported":1781367988,"current_range_meters":6400,"station_id":"","pricing_plan_id":"cebpf4jnsgd1na2vs0mg"},{"bike_id":"3d5e5ce1-6f9c-42a2-9f44-a3db55058476","system_id":"levelo_inurba_marseille","lat":43.23077,"lon":5.35489,"is_reserved":false,"is_disabled":false,"rental_uris":{"android":"levelo://app?vid=3d5e5ce1-6f9c-42a2-9f44-a3db55058476","ios":"levelo://app?vid=3d5e5ce1-6f9c-42a2-9f44-a3db55058476"},"vehicle_type_id":"4","last_reported":1781367988,"current_range_meters":6400,"station_id":"cpo3342slgdg3j2ifvpg","pricing_plan_id":"cebpf4jnsgd1na2vs0mg"},{"bike_id":"a93c336f-3c51-4f38-bb2d-471c66d3c0f1","system_id":"levelo_inurba_marseille","lat":43.27837,"lon":5.38296,"is_reserved":false,"is_disabled":false,"rental_uris":{"android":"levelo://app?vid=a93c336f-3c51-4f38-bb2d-471c66d3c0f1","ios":"levelo://app?vid=a93c336f-3c51-4f38-bb2d-471c66d3c0f1"},"vehicle_type_id":"4","last_reported":1781367988,"current_range_meters":6400,"station_id":"","pricing_plan_id":"cebpf4jnsgd1na2vs0mg"},{"bike_id":"7c94f402-67c2-4126-b69d-81721e5515fe","system_id":"levelo_inurba_marseille","lat":43.28272,"lon":5.35058,"is_reserved":false,"is_disabled":false,"rental_uris":{"android":"levelo://app?vid=7c94f402-67c2-4126-b69d-81721e5515fe","ios":"levelo://app?vid=7c94f402-67c2-4126-b69d-81721e5515fe"},"vehicle_type_id":"4","last_reported":1781367988,"current_range_meters":6400,"station_id":"ce4bhbp2rcd13ifvqerg","pricing_plan_id":"cebpf4jnsgd1na2vs0mg"},{"bike_id":"132661cb-9d8a-4df2-82e1-13b15034cf8f","system_id":"levelo_inurba_marseille","lat":43.29253,"lon":5.38434,"is_reserved":false,"is_disabled":true,"rental_uris":{"android":"levelo://app?vid=132661cb-9d8a-4df2-82e1-13b15034cf8f","ios":"levelo://app?vid=132661cb-9d8a-4df2-82e1-13b15034cf8f"},"vehicle_type_id":"4","last_reported":1781367988,"current_range_meters":6400,"station_id":"ce4bh692rcd13ifvqea0","pricing_plan_id":"cebpf4jnsgd1na2vs0mg"},{"bike_id":"3431c704-991e-4545-8eec-fa15e92ea294","system_id":"levelo_inurba_marseille","lat":43.31442,"lon":5.37381,"is_reserved":false,"is_disabled":true,"rental_uris":{"android":"levelo://app?vid=3431c704-991e-4545-8eec-fa15e92ea294","ios":"levelo://app?vid=3431c704-991e-4545-8eec-fa15e92ea294"},"vehicle_type_id":"4","last_reported":1781367988,"current_range_meters":6400,"station_id":"","pricing_plan_id":"cebpf4jnsgd1na2vs0mg"},{"bike_id":"12326527-aa04-43ed-8122-fab62005bcac","system_id":"levelo_inurba_marseille","lat":43.27384,"lon":5.36256,"is_reserved":false,"is_disabled":true,"rental_uris":{"android":"levelo://app?vid=12326527-aa04-43ed-8122-fab62005bcac","ios":"levelo://app?vid=12326527-aa04-43ed-8122-fab62005bcac"},"vehicle_type_id":"4","last_reported":1781367988,"current_range_meters":6400,"station_id":"ce4bhbh2rcd13ifvqeo0","pricing_plan_id":"cebpf4jnsgd1na2vs0mg"},{"bike_id":"c9d5a673-8b3d-4e85-abe4-1bcdd06bcd71","system_id":"levelo_inurba_marseille","lat":43.31331,"lon":5.39693,"is_reserved":false,"is_disabled":false,"rental_uris":{"android":"levelo://app?vid=c9d5a673-8b3d-4e85-abe4-1bcdd06bcd71","ios":"levelo://app?vid=c9d5a673-8b3d-4e85-abe4-1bcdd06bcd71"},"vehicle_type_id":"4","last_reported":1781367988,"current_range_meters":6400,"station_id":"ce4bgvp2rcd13ifvqcu0","pricing_plan_id":"cebpf4jnsgd1na2vs0mg"},{"bike_id":"fdc2f588-e9f9-4d5d-92c3-be1d373f5b1f","system_id":"levelo_inurba_marseille","lat":43.29274,"lon":5.36829,"is_reserved":false,"is_disabled":true,"rental_uris":{"android":"levelo://app?vid=fdc2f588-e9f9-4d5d-92c3-be1d373f5b1f","ios":"levelo://app?vid=fdc2f588-e9f9-4d5d-92c3-be1d373f5b1f"},"vehicle_type_id":"4","last_reported":1781367988,"current_range_meters":6400,"station_id":"ce4bhbp2rcd13ifvqesg","pricing_plan_id":"cebpf4jnsgd1na2vs0mg"},{"bike_id":"78c3b9ff-d541-4933-933c-4f63ef82ed01","system_id":"levelo_inurba_marseille","lat":43.30787,"lon":5.37646,"is_reserved":false,"is_disabled":false,"rental_uris":{"android":"levelo://app?vid=78c3b9ff-d541-4933-933c-4f63ef82ed01","ios":"levelo://app?vid=78c3b9ff-d541-4933-933c-4f63ef82ed01"},"vehicle_type_id":"4","last_reported":1781367988,"current_range_meters":6400,"station_id":"ce4bgv92rcd13ifvqcq0","pricing_plan_id":"cebpf4jnsgd1na2vs0mg"},{"bike_id":"86745466-0236-4fcb-9a90-7aec309bb231","system_id":"levelo_inurba_marseille","lat":43.30732,"lon":5.42442,"is_reserved":false,"is_disabled":false,"rental_uris":{"android":"levelo://app?vid=86745466-0236-4fcb-9a90-7aec309bb231","ios":"levelo://app?vid=86745466-0236-4fcb-9a90-7aec309bb231"},"vehicle_type_id":"4","last_reported":1781367988,"current_range_meters":6400,"station_id":"st_cvj6ca6bvosntc0bfgr0","pricing_plan_id":"cebpf4jnsgd1na2vs0mg"},{"bike_id":"3ac38b3a-df68-4ddb-8be7-f5ce5af56eb3","system_id":"levelo_inurba_marseille","lat":43.28994,"lon":5.35629,"is_reserved":false,"is_disabled":true,"rental_uris":{"android":"levelo://app?vid=3ac38b3a-df68-4ddb-8be7-f5ce5af56eb3","ios":"levelo://app?vid=3ac38b3a-df68-4ddb-8be7-f5ce5af56eb3"},"vehicle_type_id":"4","last_reported":1781367988,"current_range_meters":6400,"station_id":"ce4bhb92rcd13ifvqen0","pricing_plan_id":"cebpf4jnsgd1na2vs0mg"},{"bike_id":"eb4430bb-68a0-4782-b827-46f5b234c45b","system_id":"levelo_inurba_marseille","lat":43.29217,"lon":5.360732,"is_reserved":false,"is_disabled":false,"rental_uris":{"android":"levelo://app?vid=eb4430bb-68a0-4782-b827-46f5b234c45b","ios":"levelo://app?vid=eb4430bb-68a0-4782-b827-46f5b234c45b"},"vehicle_type_id":"4","last_reported":1781367988,"current_range_meters":6400,"station_id":"ce4bhbh2rcd13ifvqeqg","pricing_plan_id":"cebpf4jnsgd1na2vs0mg"},{"bike_id":"43d0d6ca-04e3-425b-b228-7f16f1caa857","system_id":"levelo_inurba_marseille","lat":43.30303,"lon":5.36885,"is_reserved":false,"is_disabled":false,"rental_uris":{"android":"levelo://app?vid=43d0d6ca-04e3-425b-b228-7f16f1caa857","ios":"levelo://app?vid=43d0d6ca-04e3-425b-b228-7f16f1caa857"},"vehicle_type_id":"4","last_reported":1781367988,"current_range_meters":6400,"station_id":"ce4bgqh2rcd13ifvqc5g","pricing_plan_id":"cebpf4jnsgd1na2vs0mg"},{"bike_id":"1b6a2b76-8e4c-45cf-97dc-6423eee85429","system_id":"levelo_inurba_marseille","lat":43.24941,"lon":5.40491,"is_reserved":false,"is_disabled":false,"rental_uris":{"android":"levelo://app?vid=1b6a2b76-8e4c-45cf-97dc-6423eee85429","ios":"levelo://app?vid=1b6a2b76-8e4c-45cf-97dc-6423eee85429"},"vehicle_type_id":"4","last_reported":1781367988,"current_range_meters":6400,"station_id":"st_d2ngiaodas8pm72gd1h0","pricing_plan_id":"cebpf4jnsgd1na2vs0mg"},{"bike_id":"df16696f-2a6c-4dd1-ac4c-994f5a39c984","system_id":"levelo_inurba_marseille","lat":43.27578,"lon":5.3839,"is_reserved":false,"is_disabled":false,"rental_uris":{"android":"levelo://app?vid=df16696f-2a6c-4dd1-ac4c-994f5a39c984","ios":"levelo://app?vid=df16696f-2a6c-4dd1-ac4c-994f5a39c984"},"vehicle_type_id":"4","last_reported":1781367988,"current_range_meters":6400,"station_id":"ce4bhh92rcd13ifvqfi0","pricing_plan_id":"cebpf4jnsgd1na2vs0mg"},{"bike_id":"010f2b89-a7df-4f5e-beb5-08a293350360","system_id":"levelo_inurba_marseille","lat":43.23147,"lon":5.43711,"is_reserved":false,"is_disabled":false,"rental_uris":{"android":"levelo://app?vid=010f2b89-a7df-4f5e-beb5-08a293350360","ios":"levelo://app?vid=010f2b89-a7df-4f5e-beb5-08a293350360"},"vehicle_type_id":"4","last_reported":1781367988,"current_range_meters":6400,"station_id":"ce4bhmp2rcd13ifvqgog","pricing_plan_id":"cebpf4jnsgd1na2vs0mg"},{"bike_id":"063e86ff-6ab9-4944-a932-bc538dd64429","system_id":"levelo_inurba_marseille","lat":43.26222,"lon":5.38767,"is_reserved":false,"is_disabled":false,"rental_uris":{"android":"levelo://app?vid=063e86ff-6ab9-4944-a932-bc538dd64429","ios":"levelo://app?vid=063e86ff-6ab9-4944-a932-bc538dd64429"},"vehicle_type_id":"4","last_reported":1781367988,"current_range_meters":6400,"station_id":"st_d8gjfg747rts73coq3b0","pricing_plan_id":"cebpf4jnsgd1na2vs0mg"},{"bike_id":"ff39a3f4-9c3f-49bf-a782-7df9f719cdb4","system_id":"levelo_inurba_marseille","lat":43.250088,"lon":5.38916,"is_reserved":false,"is_disabled":false,"rental_uris":{"android":"levelo://app?vid=ff39a3f4-9c3f-49bf-a782-7df9f719cdb4","ios":"levelo://app?vid=ff39a3f4-9c3f-49bf-a782-7df9f719cdb4"},"vehicle_type_id":"4","last_reported":1781367988,"current_range_meters":6400,"station_id":"ce4bhgp2rcd13ifvqfd0","pricing_plan_id":"cebpf4jnsgd1na2vs0mg"},{"bike_id":"40cb0155-c556-484f-915b-b738bc0d2ea4","system_id":"levelo_inurba_marseille","lat":43.21197,"lon":5.35073,"is_reserved":false,"is_disabled":false,"rental_uris":{"android":"levelo://app?vid=40cb0155-c556-484f-915b-b738bc0d2ea4","ios":"levelo://app?vid=40cb0155-c556-484f-915b-b738bc0d2ea4"},"vehicle_type_id":"4","last_reported":1781367988,"current_range_meters":6400,"station_id":"st_cvj6sg6p6f1abm77japg","pricing_plan_id":"cebpf4jnsgd1na2vs0mg"},{"bike_id":"48321f0f-7988-499a-b12f-84cd26bc8f8e","system_id":"levelo_inurba_marseille","lat":43.24086,"lon":5.37792,"is_reserved":false,"is_disabled":false,"rental_uris":{"android":"levelo://app?vid=48321f0f-7988-499a-b12f-84cd26bc8f8e","ios":"levelo://app?vid=48321f0f-7988-499a-b12f-84cd26bc8f8e"},"vehicle_type_id":"4","last_reported":1781367988,"current_range_meters":6400,"station_id":"ce4bhnp2rcd13ifvqgvg","pricing_plan_id":"cebpf4jnsgd1na2vs0mg"},{"bike_id":"59abd848-b938-4706-8b9d-aa54cd5d850e","system_id":"levelo_inurba_marseille","lat":43.282659,"lon":5.35063,"is_reserved":false,"is_disabled":true,"rental_uris":{"android":"levelo://app?vid=59abd848-b938-4706-8b9d-aa54cd5d850e","ios":"levelo://app?vid=59abd848-b938-4706-8b9d-aa54cd5d850e"},"vehicle_type_id":"4","last_reported":1781367988,"current_range_meters":6400,"station_id":"ce4bhbp2rcd13ifvqerg","pricing_plan_id":"cebpf4jnsgd1na2vs0mg"},{"bike_id":"3c5c0bfa-eaa6-4c1f-a727-54e9a1954825","system_id":"levelo_inurba_marseille","lat":43.308,"lon":5.38156,"is_reserved":false,"is_disabled":false,"rental_uris":{"android":"levelo://app?vid=3c5c0bfa-eaa6-4c1f-a727-54e9a1954825","ios":"levelo://app?vid=3c5c0bfa-eaa6-4c1f-a727-54e9a1954825"},"vehicle_type_id":"4","last_reported":1781367988,"current_range_meters":6400,"station_id":"ce4bgt12rcd13ifvqce0","pricing_plan_id":"cebpf4jnsgd1na2vs0mg"},{"bike_id":"5215f856-46a9-476f-933a-7b736a4a324f","system_id":"levelo_inurba_marseille","lat":43.28242,"lon":5.37342,"is_reserved":false,"is_disabled":false,"rental_uris":{"android":"levelo://app?vid=5215f856-46a9-476f-933a-7b736a4a324f","ios":"levelo://app?vid=5215f856-46a9-476f-933a-7b736a4a324f"},"vehicle_type_id":"4","last_reported":1781367988,"current_range_meters":6800,"station_id":"","pricing_plan_id":"cebpf4jnsgd1na2vs0mg"},{"bike_id":"35bec286-d577-4114-9ebd-7535edb3323c","system_id":"levelo_inurba_marseille","lat":43.2862,"lon":5.35102,"is_reserved":false,"is_disabled":false,"rental_uris":{"android":"levelo://app?vid=35bec286-d577-4114-9ebd-7535edb3323c","ios":"levelo://app?vid=35bec286-d577-4114-9ebd-7535edb3323c"},"vehicle_type_id":"4","last_reported":1781367988,"current_range_meters":6800,"station_id":"ce4bhch2rcd13ifvqeug","pricing_plan_id":"cebpf4jnsgd1na2vs0mg"},{"bike_id":"c43c92bc-16e7-4616-8292-b9ed941fbd42","system_id":"levelo_inurba_marseille","lat":43.22564,"lon":5.41623,"is_reserved":false,"is_disabled":false,"rental_uris":{"android":"levelo://app?vid=c43c92bc-16e7-4616-8292-b9ed941fbd42","ios":"levelo://app?vid=c43c92bc-16e7-4616-8292-b9ed941fbd42"},"vehicle_type_id":"4","last_reported":1781367988,"current_range_meters":6800,"station_id":"st_d2o4gvlbi1j2169b742g","pricing_plan_id":"cebpf4jnsgd1na2vs0mg"},{"bike_id":"43d5f0d1-35f0-4e1c-a151-6a7d3575a917","system_id":"levelo_inurba_marseille","lat":43.25102,"lon":5.40318,"is_reserved":false,"is_disabled":false,"rental_uris":{"android":"levelo://app?vid=43d5f0d1-35f0-4e1c-a151-6a7d3575a917","ios":"levelo://app?vid=43d5f0d1-35f0-4e1c-a151-6a7d3575a917"},"vehicle_type_id":"4","last_reported":1781367988,"current_range_meters":6800,"station_id":"ce4bhlh2rcd13ifvqgig","pricing_plan_id":"cebpf4jnsgd1na2vs0mg"},{"bike_id":"70044d91-8c96-4cc2-bb92-982e73063aa3","system_id":"levelo_inurba_marseille","lat":43.28186,"lon":5.38875,"is_reserved":false,"is_disabled":false,"rental_uris":{"android":"levelo://app?vid=70044d91-8c96-4cc2-bb92-982e73063aa3","ios":"levelo://app?vid=70044d91-8c96-4cc2-bb92-982e73063aa3"},"vehicle_type_id":"4","last_reported":1781367988,"current_range_meters":6800,"station_id":"","pricing_plan_id":"cebpf4jnsgd1na2vs0mg"},{"bike_id":"b75b860e-f642-4d57-ae10-a57f8b9673f2","system_id":"levelo_inurba_marseille","lat":43.26232,"lon":5.38779,"is_reserved":false,"is_disabled":false,"rental_uris":{"android":"levelo://app?vid=b75b860e-f642-4d57-ae10-a57f8b9673f2","ios":"levelo://app?vid=b75b860e-f642-4d57-ae10-a57f8b9673f2"},"vehicle_type_id":"4","last_reported":1781367988,"current_range_meters":6800,"station_id":"st_d8gjfg747rts73coq3b0","pricing_plan_id":"cebpf4jnsgd1na2vs0mg"},{"bike_id":"aa4d4832-791f-46b6-b904-76b96512b7a5","system_id":"levelo_inurba_marseille","lat":43.29595,"lon":5.43992,"is_reserved":false,"is_disabled":false,"rental_uris":{"android":"levelo://app?vid=aa4d4832-791f-46b6-b904-76b96512b7a5","ios":"levelo://app?vid=aa4d4832-791f-46b6-b904-76b96512b7a5"},"vehicle_type_id":"4","last_reported":1781367988,"current_range_meters":6800,"station_id":"","pricing_plan_id":"cebpf4jnsgd1na2vs0mg"},{"bike_id":"cfa329ec-80e7-40cb-bf2e-eb6022a09b20","system_id":"levelo_inurba_marseille","lat":43.29191,"lon":5.35787,"is_reserved":false,"is_disabled":false,"rental_uris":{"android":"levelo://app?vid=cfa329ec-80e7-40cb-bf2e-eb6022a09b20","ios":"levelo://app?vid=cfa329ec-80e7-40cb-bf2e-eb6022a09b20"},"vehicle_type_id":"4","last_reported":1781367988,"current_range_meters":6800,"station_id":"ce4bhb12rcd13ifvqel0","pricing_plan_id":"cebpf4jnsgd1na2vs0mg"},{"bike_id":"e946dae2-a9db-4a74-9c6e-805b3abf5a48","system_id":"levelo_inurba_marseille","lat":43.2576,"lon":5.38232,"is_reserved":false,"is_disabled":false,"rental_uris":{"android":"levelo://app?vid=e946dae2-a9db-4a74-9c6e-805b3abf5a48","ios":"levelo://app?vid=e946dae2-a9db-4a74-9c6e-805b3abf5a48"},"vehicle_type_id":"4","last_reported":1781367988,"current_range_meters":6800,"station_id":"","pricing_plan_id":"cebpf4jnsgd1na2vs0mg"},{"bike_id":"2b255b60-68d3-439e-93c1-53ccf2232ea6","system_id":"levelo_inurba_marseille","lat":43.21193,"lon":5.35095,"is_reserved":false,"is_disabled":false,"rental_uris":{"android":"levelo://app?vid=2b255b60-68d3-439e-93c1-53ccf2232ea6","ios":"levelo://app?vid=2b255b60-68d3-439e-93c1-53ccf2232ea6"},"vehicle_type_id":"4","last_reported":1781367988,"current_range_meters":6800,"station_id":"st_cvj6sg6p6f1abm77japg","pricing_plan_id":"cebpf4jnsgd1na2vs0mg"},{"bike_id":"a9b69819-2be5-4649-9c57-a6889a6f3d6e","system_id":"levelo_inurba_marseille","lat":43.23958,"lon":5.36642,"is_reserved":false,"is_disabled":false,"rental_uris":{"android":"levelo://app?vid=a9b69819-2be5-4649-9c57-a6889a6f3d6e","ios":"levelo://app?vid=a9b69819-2be5-4649-9c57-a6889a6f3d6e"},"vehicle_type_id":"4","last_reported":1781367988,"current_range_meters":6800,"station_id":"ce4bhi12rcd13ifvqfp0","pricing_plan_id":"cebpf4jnsgd1na2vs0mg"},{"bike_id":"74f7660a-9096-4feb-beb3-160be45c0ab9","system_id":"levelo_inurba_marseille","lat":43.25405,"lon":5.41666,"is_reserved":false,"is_disabled":false,"rental_uris":{"android":"levelo://app?vid=74f7660a-9096-4feb-beb3-160be45c0ab9","ios":"levelo://app?vid=74f7660a-9096-4feb-beb3-160be45c0ab9"},"vehicle_type_id":"4","last_reported":1781367988,"current_range_meters":6800,"station_id":"","pricing_plan_id":"cebpf4jnsgd1na2vs0mg"},{"bike_id":"dc3e3e35-560a-41ac-8b92-c31e5b3f3434","system_id":"levelo_inurba_marseille","lat":43.26703,"lon":5.39259,"is_reserved":false,"is_disabled":false,"rental_uris":{"android":"levelo://app?vid=dc3e3e35-560a-41ac-8b92-c31e5b3f3434","ios":"levelo://app?vid=dc3e3e35-560a-41ac-8b92-c31e5b3f3434"},"vehicle_type_id":"4","last_reported":1781367988,"current_range_meters":6800,"station_id":"","pricing_plan_id":"cebpf4jnsgd1na2vs0mg"},{"bike_id":"74e00bd3-da7b-4234-87fe-4c6875a04c9c","system_id":"levelo_inurba_marseille","lat":43.2256,"lon":5.41629,"is_reserved":false,"is_disabled":false,"rental_uris":{"android":"levelo://app?vid=74e00bd3-da7b-4234-87fe-4c6875a04c9c","ios":"levelo://app?vid=74e00bd3-da7b-4234-87fe-4c6875a04c9c"},"vehicle_type_id":"4","last_reported":1781367988,"current_range_meters":6800,"station_id":"st_d2o4gvlbi1j2169b742g","pricing_plan_id":"cebpf4jnsgd1na2vs0mg"},{"bike_id":"e4d86a05-2db3-434f-a83e-222b4c27c368","system_id":"levelo_inurba_marseille","lat":43.24803,"lon":5.37444,"is_reserved":false,"is_disabled":false,"rental_uris":{"android":"levelo://app?vid=e4d86a05-2db3-434f-a83e-222b4c27c368","ios":"levelo://app?vid=e4d86a05-2db3-434f-a83e-222b4c27c368"},"vehicle_type_id":"4","last_reported":1781367988,"current_range_meters":6800,"station_id":"ce4bhgh2rcd13ifvqfb0","pricing_plan_id":"cebpf4jnsgd1na2vs0mg"},{"bike_id":"e62a278a-0c00-4e53-b813-436d6db35c4d","system_id":"levelo_inurba_marseille","lat":43.29877,"lon":5.39713,"is_reserved":false,"is_disabled":false,"rental_uris":{"android":"levelo://app?vid=e62a278a-0c00-4e53-b813-436d6db35c4d","ios":"levelo://app?vid=e62a278a-0c00-4e53-b813-436d6db35c4d"},"vehicle_type_id":"4","last_reported":1781367988,"current_range_meters":6800,"station_id":"ce4bh0h2rcd13ifvqd50","pricing_plan_id":"cebpf4jnsgd1na2vs0mg"},{"bike_id":"e5777fcd-75b6-4167-93ec-f3dfb9895090","system_id":"levelo_inurba_marseille","lat":43.21731,"lon":5.34617,"is_reserved":false,"is_disabled":false,"rental_uris":{"android":"levelo://app?vid=e5777fcd-75b6-4167-93ec-f3dfb9895090","ios":"levelo://app?vid=e5777fcd-75b6-4167-93ec-f3dfb9895090"},"vehicle_type_id":"4","last_reported":1781367988,"current_range_meters":6800,"station_id":"st_cvj6r9ubvosntc0bgbag","pricing_plan_id":"cebpf4jnsgd1na2vs0mg"},{"bike_id":"a978a716-1e2d-4970-afb4-cac444d19730","system_id":"levelo_inurba_marseille","lat":43.23161,"lon":5.43725,"is_reserved":false,"is_disabled":false,"rental_uris":{"android":"levelo://app?vid=a978a716-1e2d-4970-afb4-cac444d19730","ios":"levelo://app?vid=a978a716-1e2d-4970-afb4-cac444d19730"},"vehicle_type_id":"4","last_reported":1781367988,"current_range_meters":6800,"station_id":"ce4bhmp2rcd13ifvqgog","pricing_plan_id":"cebpf4jnsgd1na2vs0mg"},{"bike_id":"ef048e93-3c21-4aea-ad20-87c8427753a3","system_id":"levelo_inurba_marseille","lat":43.28857,"lon":5.42537,"is_reserved":false,"is_disabled":false,"rental_uris":{"android":"levelo://app?vid=ef048e93-3c21-4aea-ad20-87c8427753a3","ios":"levelo://app?vid=ef048e93-3c21-4aea-ad20-87c8427753a3"},"vehicle_type_id":"4","last_reported":1781367988,"current_range_meters":6800,"station_id":"st_d3b462108ojc7389ooeg","pricing_plan_id":"cebpf4jnsgd1na2vs0mg"},{"bike_id":"c97fb99a-7c2e-4698-a401-a6886e4eb5f4","system_id":"levelo_inurba_marseille","lat":43.28795,"lon":5.4269,"is_reserved":false,"is_disabled":false,"rental_uris":{"android":"levelo://app?vid=c97fb99a-7c2e-4698-a401-a6886e4eb5f4","ios":"levelo://app?vid=c97fb99a-7c2e-4698-a401-a6886e4eb5f4"},"vehicle_type_id":"4","last_reported":1781367988,"current_range_meters":6800,"station_id":"","pricing_plan_id":"cebpf4jnsgd1na2vs0mg"},{"bike_id":"6e7b60d9-d329-4a53-98cb-624fdc356f92","system_id":"levelo_inurba_marseille","lat":43.24941,"lon":5.40492,"is_reserved":false,"is_disabled":false,"rental_uris":{"android":"levelo://app?vid=6e7b60d9-d329-4a53-98cb-624fdc356f92","ios":"levelo://app?vid=6e7b60d9-d329-4a53-98cb-624fdc356f92"},"vehicle_type_id":"4","last_reported":1781367988,"current_range_meters":6800,"station_id":"st_d2ngiaodas8pm72gd1h0","pricing_plan_id":"cebpf4jnsgd1na2vs0mg"},{"bike_id":"babfd38d-bc09-4569-9b19-30854bbdbc83","system_id":"levelo_inurba_marseille","lat":43.266807,"lon":5.38273,"is_reserved":false,"is_disabled":false,"rental_uris":{"android":"levelo://app?vid=babfd38d-bc09-4569-9b19-30854bbdbc83","ios":"levelo://app?vid=babfd38d-bc09-4569-9b19-30854bbdbc83"},"vehicle_type_id":"4","last_reported":1781367988,"current_range_meters":6800,"station_id":"ce4bhg92rcd13ifvqf90","pricing_plan_id":"cebpf4jnsgd1na2vs0mg"},{"bike_id":"3f683387-f7ec-4b9f-9801-ff63896077b4","system_id":"levelo_inurba_marseille","lat":43.23962,"lon":5.3656,"is_reserved":false,"is_disabled":false,"rental_uris":{"android":"levelo://app?vid=3f683387-f7ec-4b9f-9801-ff63896077b4","ios":"levelo://app?vid=3f683387-f7ec-4b9f-9801-ff63896077b4"},"vehicle_type_id":"4","last_reported":1781367988,"current_range_meters":6800,"station_id":"","pricing_plan_id":"cebpf4jnsgd1na2vs0mg"},{"bike_id":"b940074f-4aeb-4d97-92d8-29536205a61c","system_id":"levelo_inurba_marseille","lat":43.30889,"lon":5.39647,"is_reserved":false,"is_disabled":false,"rental_uris":{"android":"levelo://app?vid=b940074f-4aeb-4d97-92d8-29536205a61c","ios":"levelo://app?vid=b940074f-4aeb-4d97-92d8-29536205a61c"},"vehicle_type_id":"4","last_reported":1781367988,"current_range_meters":6800,"station_id":"ce4bh012rcd13ifvqcv0","pricing_plan_id":"cebpf4jnsgd1na2vs0mg"},{"bike_id":"5bc53581-ac65-49e4-b56b-f1ece78f0664","system_id":"levelo_inurba_marseille","lat":43.26686,"lon":5.38276,"is_reserved":false,"is_disabled":true,"rental_uris":{"android":"levelo://app?vid=5bc53581-ac65-49e4-b56b-f1ece78f0664","ios":"levelo://app?vid=5bc53581-ac65-49e4-b56b-f1ece78f0664"},"vehicle_type_id":"4","last_reported":1781367988,"current_range_meters":6800,"station_id":"ce4bhg92rcd13ifvqf90","pricing_plan_id":"cebpf4jnsgd1na2vs0mg"},{"bike_id":"0b0356fe-e678-46fb-812c-625b22c1bcd0","system_id":"levelo_inurba_marseille","lat":43.249526,"lon":5.404832,"is_reserved":false,"is_disabled":false,"rental_uris":{"android":"levelo://app?vid=0b0356fe-e678-46fb-812c-625b22c1bcd0","ios":"levelo://app?vid=0b0356fe-e678-46fb-812c-625b22c1bcd0"},"vehicle_type_id":"4","last_reported":1781367988,"current_range_meters":6800,"station_id":"st_d2ngiaodas8pm72gd1h0","pricing_plan_id":"cebpf4jnsgd1na2vs0mg"},{"bike_id":"556c7728-5255-48b0-a99a-9cb1c301a410","system_id":"levelo_inurba_marseille","lat":43.29275,"lon":5.4012,"is_reserved":false,"is_disabled":false,"rental_uris":{"android":"levelo://app?vid=556c7728-5255-48b0-a99a-9cb1c301a410","ios":"levelo://app?vid=556c7728-5255-48b0-a99a-9cb1c301a410"},"vehicle_type_id":"4","last_reported":1781367988,"current_range_meters":6800,"station_id":"ce4bh312rcd13ifvqdk0","pricing_plan_id":"cebpf4jnsgd1na2vs0mg"},{"bike_id":"9f0be29b-c3fc-43d2-88d9-7ef79e23fe90","system_id":"levelo_inurba_marseille","lat":43.2454,"lon":5.39515,"is_reserved":false,"is_disabled":false,"rental_uris":{"android":"levelo://app?vid=9f0be29b-c3fc-43d2-88d9-7ef79e23fe90","ios":"levelo://app?vid=9f0be29b-c3fc-43d2-88d9-7ef79e23fe90"},"vehicle_type_id":"4","last_reported":1781367988,"current_range_meters":7200,"station_id":"ce4bhlp2rcd13ifvqgjg","pricing_plan_id":"cebpf4jnsgd1na2vs0mg"},{"bike_id":"cf0c68e9-108f-4cb2-8999-26e59936ff8c","system_id":"levelo_inurba_marseille","lat":43.23058,"lon":5.35496,"is_reserved":false,"is_disabled":false,"rental_uris":{"android":"levelo://app?vid=cf0c68e9-108f-4cb2-8999-26e59936ff8c","ios":"levelo://app?vid=cf0c68e9-108f-4cb2-8999-26e59936ff8c"},"vehicle_type_id":"4","last_reported":1781367988,"current_range_meters":7200,"station_id":"cpo3342slgdg3j2ifvpg","pricing_plan_id":"cebpf4jnsgd1na2vs0mg"},{"bike_id":"da49f8bf-ac47-4f75-a9fc-b5a0f8173bc6","system_id":"levelo_inurba_marseille","lat":43.28443,"lon":5.35888,"is_reserved":false,"is_disabled":true,"rental_uris":{"android":"levelo://app?vid=da49f8bf-ac47-4f75-a9fc-b5a0f8173bc6","ios":"levelo://app?vid=da49f8bf-ac47-4f75-a9fc-b5a0f8173bc6"},"vehicle_type_id":"4","last_reported":1781367988,"current_range_meters":7200,"station_id":"ce4bhah2rcd13ifvqei0","pricing_plan_id":"cebpf4jnsgd1na2vs0mg"},{"bike_id":"7750fed4-d122-41f8-ad9e-d930d3ad1cf1","system_id":"levelo_inurba_marseille","lat":43.27275,"lon":5.40107,"is_reserved":false,"is_disabled":false,"rental_uris":{"android":"levelo://app?vid=7750fed4-d122-41f8-ad9e-d930d3ad1cf1","ios":"levelo://app?vid=7750fed4-d122-41f8-ad9e-d930d3ad1cf1"},"vehicle_type_id":"4","last_reported":1781367988,"current_range_meters":7200,"station_id":"","pricing_plan_id":"cebpf4jnsgd1na2vs0mg"},{"bike_id":"3b9d8ae6-81df-4178-a3ea-190d04eda226","system_id":"levelo_inurba_marseille","lat":43.27545,"lon":5.3847,"is_reserved":false,"is_disabled":false,"rental_uris":{"android":"levelo://app?vid=3b9d8ae6-81df-4178-a3ea-190d04eda226","ios":"levelo://app?vid=3b9d8ae6-81df-4178-a3ea-190d04eda226"},"vehicle_type_id":"4","last_reported":1781367988,"current_range_meters":7200,"station_id":"ce4bhh92rcd13ifvqfi0","pricing_plan_id":"cebpf4jnsgd1na2vs0mg"},{"bike_id":"195f1d1e-36bb-48d2-9a0b-ee215f42c586","system_id":"levelo_inurba_marseille","lat":43.24462,"lon":5.42533,"is_reserved":false,"is_disabled":false,"rental_uris":{"android":"levelo://app?vid=195f1d1e-36bb-48d2-9a0b-ee215f42c586","ios":"levelo://app?vid=195f1d1e-36bb-48d2-9a0b-ee215f42c586"},"vehicle_type_id":"4","last_reported":1781367988,"current_range_meters":7200,"station_id":"st_d4a3vfp97mjs738cd8kg","pricing_plan_id":"cebpf4jnsgd1na2vs0mg"},{"bike_id":"1e7246e8-dc8e-4242-89ce-0765ec2da378","system_id":"levelo_inurba_marseille","lat":43.2621,"lon":5.37438,"is_reserved":false,"is_disabled":false,"rental_uris":{"android":"levelo://app?vid=1e7246e8-dc8e-4242-89ce-0765ec2da378","ios":"levelo://app?vid=1e7246e8-dc8e-4242-89ce-0765ec2da378"},"vehicle_type_id":"4","last_reported":1781367988,"current_range_meters":7200,"station_id":"ce4bhgp2rcd13ifvqfc0","pricing_plan_id":"cebpf4jnsgd1na2vs0mg"},{"bike_id":"fca4716d-363f-4061-9268-5fdf2b190705","system_id":"levelo_inurba_marseille","lat":43.281035,"lon":5.367145,"is_reserved":false,"is_disabled":true,"rental_uris":{"android":"levelo://app?vid=fca4716d-363f-4061-9268-5fdf2b190705","ios":"levelo://app?vid=fca4716d-363f-4061-9268-5fdf2b190705"},"vehicle_type_id":"4","last_reported":1781367988,"current_range_meters":7200,"station_id":"ce4bhgp2rcd13ifvqfc0","pricing_plan_id":"cebpf4jnsgd1na2vs0mg"},{"bike_id":"ec7ff123-2191-49c9-b4f8-c9b1016b4d1d","system_id":"levelo_inurba_marseille","lat":43.33549,"lon":5.37443,"is_reserved":false,"is_disabled":false,"rental_uris":{"android":"levelo://app?vid=ec7ff123-2191-49c9-b4f8-c9b1016b4d1d","ios":"levelo://app?vid=ec7ff123-2191-49c9-b4f8-c9b1016b4d1d"},"vehicle_type_id":"4","last_reported":1781367988,"current_range_meters":7200,"station_id":"st_d46tts09ee8s73dlu43g","pricing_plan_id":"cebpf4jnsgd1na2vs0mg"},{"bike_id":"3964cfec-2447-4c38-a9ab-5ebac4f72b6e","system_id":"levelo_inurba_marseille","lat":43.23241,"lon":5.35558,"is_reserved":false,"is_disabled":false,"rental_uris":{"android":"levelo://app?vid=3964cfec-2447-4c38-a9ab-5ebac4f72b6e","ios":"levelo://app?vid=3964cfec-2447-4c38-a9ab-5ebac4f72b6e"},"vehicle_type_id":"4","last_reported":1781367988,"current_range_meters":7200,"station_id":"","pricing_plan_id":"cebpf4jnsgd1na2vs0mg"},{"bike_id":"3d4b7a5f-8b4b-46e8-a373-6ebdc85c0f15","system_id":"levelo_inurba_marseille","lat":43.26207,"lon":5.37439,"is_reserved":false,"is_disabled":false,"rental_uris":{"android":"levelo://app?vid=3d4b7a5f-8b4b-46e8-a373-6ebdc85c0f15","ios":"levelo://app?vid=3d4b7a5f-8b4b-46e8-a373-6ebdc85c0f15"},"vehicle_type_id":"4","last_reported":1781367988,"current_range_meters":7200,"station_id":"ce4bhgp2rcd13ifvqfc0","pricing_plan_id":"cebpf4jnsgd1na2vs0mg"},{"bike_id":"0af28dff-10e3-45c2-abfc-a6abed270ace","system_id":"levelo_inurba_marseille","lat":43.33737,"lon":5.39172,"is_reserved":false,"is_disabled":false,"rental_uris":{"android":"levelo://app?vid=0af28dff-10e3-45c2-abfc-a6abed270ace","ios":"levelo://app?vid=0af28dff-10e3-45c2-abfc-a6abed270ace"},"vehicle_type_id":"4","last_reported":1781367988,"current_range_meters":7200,"station_id":"ce4bhr92rcd13ifvqhsg","pricing_plan_id":"cebpf4jnsgd1na2vs0mg"},{"bike_id":"b6dc1105-9702-4a93-839e-3cfb27965fe5","system_id":"levelo_inurba_marseille","lat":43.24653,"lon":5.38883,"is_reserved":false,"is_disabled":false,"rental_uris":{"android":"levelo://app?vid=b6dc1105-9702-4a93-839e-3cfb27965fe5","ios":"levelo://app?vid=b6dc1105-9702-4a93-839e-3cfb27965fe5"},"vehicle_type_id":"4","last_reported":1781367988,"current_range_meters":7200,"station_id":"ce4bhg12rcd13ifvqf60","pricing_plan_id":"cebpf4jnsgd1na2vs0mg"},{"bike_id":"7911489c-d669-48c8-806a-ae5df483f8c3","system_id":"levelo_inurba_marseille","lat":43.26225,"lon":5.38789,"is_reserved":false,"is_disabled":false,"rental_uris":{"android":"levelo://app?vid=7911489c-d669-48c8-806a-ae5df483f8c3","ios":"levelo://app?vid=7911489c-d669-48c8-806a-ae5df483f8c3"},"vehicle_type_id":"4","last_reported":1781367988,"current_range_meters":7200,"station_id":"st_d8gjfg747rts73coq3b0","pricing_plan_id":"cebpf4jnsgd1na2vs0mg"},{"bike_id":"bc29c7d4-6340-4889-a3eb-b6e9d10cec6e","system_id":"levelo_inurba_marseille","lat":43.26029,"lon":5.37554,"is_reserved":false,"is_disabled":false,"rental_uris":{"android":"levelo://app?vid=bc29c7d4-6340-4889-a3eb-b6e9d10cec6e","ios":"levelo://app?vid=bc29c7d4-6340-4889-a3eb-b6e9d10cec6e"},"vehicle_type_id":"4","last_reported":1781367988,"current_range_meters":7200,"station_id":"ce4bhgh2rcd13ifvqfa0","pricing_plan_id":"cebpf4jnsgd1na2vs0mg"},{"bike_id":"548bbe45-1981-45e6-bf7f-63e28bbe2440","system_id":"levelo_inurba_marseille","lat":43.29036,"lon":5.37545,"is_reserved":false,"is_disabled":false,"rental_uris":{"android":"levelo://app?vid=548bbe45-1981-45e6-bf7f-63e28bbe2440","ios":"levelo://app?vid=548bbe45-1981-45e6-bf7f-63e28bbe2440"},"vehicle_type_id":"4","last_reported":1781367988,"current_range_meters":7200,"station_id":"ce4bh692rcd13ifvqe90","pricing_plan_id":"cebpf4jnsgd1na2vs0mg"},{"bike_id":"05d78716-0227-4878-8a0c-14979463d101","system_id":"levelo_inurba_marseille","lat":43.21733,"lon":5.34617,"is_reserved":false,"is_disabled":false,"rental_uris":{"android":"levelo://app?vid=05d78716-0227-4878-8a0c-14979463d101","ios":"levelo://app?vid=05d78716-0227-4878-8a0c-14979463d101"},"vehicle_type_id":"4","last_reported":1781367988,"current_range_meters":7200,"station_id":"st_cvj6r9ubvosntc0bgbag","pricing_plan_id":"cebpf4jnsgd1na2vs0mg"},