{"last_updated":1758618694,"ttl":60,"version":"2.2","data":{"bikes":[{"bike_id":"9eda223c-aef7-43be-8f8e-4fd6e9e47dcf","system_id":"levelo_inurba_marseille","lat":43.26554,"lon":5.39044,"is_reserved":false,"is_disabled":false,"rental_uris":{"android":"levelo://app?vid=9eda223c-aef7-43be-8f8e-4fd6e9e47dcf","ios":"levelo://app?vid=9eda223c-aef7-43be-8f8e-4fd6e9e47dcf"},"vehicle_type_id":"4","last_reported":1758618695,"current_range_meters":2800,"station_id":"ce4bhe12rcd13ifvqf30","pricing_plan_id":"cebpf4jnsgd1na2vs0mg"},{"bike_id":"906223e0-7f0b-4506-8707-36d1364f6232","system_id":"levelo_inurba_marseille","lat":43.29459,"lon":5.37432,"is_reserved":false,"is_disabled":false,"rental_uris":{"android":"levelo://app?vid=906223e0-7f0b-4506-8707-36d1364f6232","ios":"levelo://app?vid=906223e0-7f0b-4506-8707-36d1364f6232"},"vehicle_type_id":"4","last_reported":1758618695,"current_range_meters":2800,"station_id":"","pricing_plan_id":"cebpf4jnsgd1na2vs0mg"},{"bike_id":"b65ccf9b-00b9-4b63-8259-edec9ab380cb","system_id":"levelo_inurba_marseille","lat":43.30477,"lon":5.38254,"is_reserved":false,"is_disabled":false,"rental_uris":{"android":"levelo://app?vid=b65ccf9b-00b9-4b63-8259-edec9ab380cb","ios":"levelo://app?vid=b65ccf9b-00b9-4b63-8259-edec9ab380cb"},"vehicle_type_id":"4","last_reported":1758618695,"current_range_meters":2800,"station_id":"","pricing_plan_id":"cebpf4jnsgd1na2vs0mg"},{"bike_id":"b08e9e70-f121-40ad-97c8-65eaaffdb545","system_id":"levelo_inurba_marseille","lat":43.29539,"lon":5.37502,"is_reserved":false,"is_disabled":false,"rental_uris":{"android":"levelo://app?vid=b08e9e70-f121-40ad-97c8-65eaaffdb545","ios":"levelo://app?vid=b08e9e70-f121-40ad-97c8-65eaaffdb545"},"vehicle_type_id":"4","last_reported":1758618695,"current_range_meters":2800,"station_id":"ce4bgkp2rcd13ifvqbmg","pricing_plan_id":"cebpf4jnsgd1na2vs0mg"},{"bike_id":"63d39526-708c-47e3-8986-367ce42da117","system_id":"levelo_inurba_marseille","lat":43.305963,"lon":5.372234,"is_reserved":false,"is_disabled":false,"rental_uris":{"android":"levelo://app?vid=63d39526-708c-47e3-8986-367ce42da117","ios":"levelo://app?vid=63d39526-708c-47e3-8986-367ce42da117"},"vehicle_type_id":"4","last_reported":1758618695,"current_range_meters":3200,"station_id":"ce4bgqh2rcd13ifvqc4g","pricing_plan_id":"cebpf4jnsgd1na2vs0mg"},{"bike_id":"55d1bc08-fd54-4a82-afc7-2adcaa7b1c4e","system_id":"levelo_inurba_marseille","lat":43.30023,"lon":5.37708,"is_reserved":false,"is_disabled":false,"rental_uris":{"android":"levelo://app?vid=55d1bc08-fd54-4a82-afc7-2adcaa7b1c4e","ios":"levelo://app?vid=55d1bc08-fd54-4a82-afc7-2adcaa7b1c4e"},"vehicle_type_id":"4","last_reported":1758618695,"current_range_meters":3200,"station_id":"","pricing_plan_id":"cebpf4jnsgd1na2vs0mg"},{"bike_id":"e38759e0-a9f4-4e70-a203-19faa7bd76e5","system_id":"levelo_inurba_marseille","lat":43.31791,"lon":5.40415,"is_reserved":false,"is_disabled":false,"rental_uris":{"android":"levelo://app?vid=e38759e0-a9f4-4e70-a203-19faa7bd76e5","ios":"levelo://app?vid=e38759e0-a9f4-4e70-a203-19faa7bd76e5"},"vehicle_type_id":"4","last_reported":1758618695,"current_range_meters":3200,"station_id":"ce4bh012rcd13ifvqd00","pricing_plan_id":"cebpf4jnsgd1na2vs0mg"},{"bike_id":"aac0e41d-1441-45bd-8e2f-77c8bbdf8388","system_id":"levelo_inurba_marseille","lat":43.21754,"lon":5.34598,"is_reserved":false,"is_disabled":false,"rental_uris":{"android":"levelo://app?vid=aac0e41d-1441-45bd-8e2f-77c8bbdf8388","ios":"levelo://app?vid=aac0e41d-1441-45bd-8e2f-77c8bbdf8388"},"vehicle_type_id":"4","last_reported":1758618695,"current_range_meters":3600,"station_id":"st_cvj6r9ubvosntc0bgbag","pricing_plan_id":"cebpf4jnsgd1na2vs0mg"},{"bike_id":"68adab37-f5ad-4072-b58a-fe6c68285ca6","system_id":"levelo_inurba_marseille","lat":43.30616,"lon":5.37657,"is_reserved":false,"is_disabled":false,"rental_uris":{"android":"levelo://app?vid=68adab37-f5ad-4072-b58a-fe6c68285ca6","ios":"levelo://app?vid=68adab37-f5ad-4072-b58a-fe6c68285ca6"},"vehicle_type_id":"4","last_reported":1758618695,"current_range_meters":3600,"station_id":"","pricing_plan_id":"cebpf4jnsgd1na2vs0mg"},{"bike_id":"134ad62b-4e17-4111-b81e-169196aea65a","system_id":"levelo_inurba_marseille","lat":43.3046,"lon":5.37905,"is_reserved":false,"is_disabled":false,"rental_uris":{"android":"levelo://app?vid=134ad62b-4e17-4111-b81e-169196aea65a","ios":"levelo://app?vid=134ad62b-4e17-4111-b81e-169196aea65a"},"vehicle_type_id":"4","last_reported":1758618695,"current_range_meters":4400,"station_id":"ce4bgup2rcd13ifvqcn0","pricing_plan_id":"cebpf4jnsgd1na2vs0mg"},{"bike_id":"93721e99-a22b-4a7b-a13e-017d0b728d5b","system_id":"levelo_inurba_marseille","lat":43.30114,"lon":5.39076,"is_reserved":false,"is_disabled":true,"rental_uris":{"android":"levelo://app?vid=93721e99-a22b-4a7b-a13e-017d0b728d5b","ios":"levelo://app?vid=93721e99-a22b-4a7b-a13e-017d0b728d5b"},"vehicle_type_id":"4","last_reported":1758618695,"current_range_meters":4400,"station_id":"ce4bh192rcd13ifvqdb0","pricing_plan_id":"cebpf4jnsgd1na2vs0mg"},{"bike_id":"922e7484-6e53-4b8d-8a95-cf9f5390d601","system_id":"levelo_inurba_marseille","lat":43.21182,"lon":5.35066,"is_reserved":false,"is_disabled":false,"rental_uris":{"android":"levelo://app?vid=922e7484-6e53-4b8d-8a95-cf9f5390d601","ios":"levelo://app?vid=922e7484-6e53-4b8d-8a95-cf9f5390d601"},"vehicle_type_id":"4","last_reported":1758618695,"current_range_meters":4400,"station_id":"st_cvj6sg6p6f1abm77japg","pricing_plan_id":"cebpf4jnsgd1na2vs0mg"},{"bike_id":"1b790372-5d34-489f-a29a-5f2319ad70e0","system_id":"levelo_inurba_marseille","lat":43.28261,"lon":5.35048,"is_reserved":false,"is_disabled":true,"rental_uris":{"android":"levelo://app?vid=1b790372-5d34-489f-a29a-5f2319ad70e0","ios":"levelo://app?vid=1b790372-5d34-489f-a29a-5f2319ad70e0"},"vehicle_type_id":"4","last_reported":1758618695,"current_range_meters":4400,"station_id":"ce4bhbp2rcd13ifvqerg","pricing_plan_id":"cebpf4jnsgd1na2vs0mg"},{"bike_id":"0dbc7da0-0362-4020-94e8-7c158950cbc3","system_id":"levelo_inurba_marseille","lat":43.27063,"lon":5.40254,"is_reserved":false,"is_disabled":true,"rental_uris":{"android":"levelo://app?vid=0dbc7da0-0362-4020-94e8-7c158950cbc3","ios":"levelo://app?vid=0dbc7da0-0362-4020-94e8-7c158950cbc3"},"vehicle_type_id":"4","last_reported":1758618695,"current_range_meters":4800,"station_id":"ce4bhk92rcd13ifvqgc0","pricing_plan_id":"cebpf4jnsgd1na2vs0mg"},{"bike_id":"54502de0-09ba-43cd-a1f2-9f84e6e6c1cb","system_id":"levelo_inurba_marseille","lat":43.290149,"lon":5.381283,"is_reserved":false,"is_disabled":false,"rental_uris":{"android":"levelo://app?vid=54502de0-09ba-43cd-a1f2-9f84e6e6c1cb","ios":"levelo://app?vid=54502de0-09ba-43cd-a1f2-9f84e6e6c1cb"},"vehicle_type_id":"4","last_reported":1758618695,"current_range_meters":4800,"station_id":"","pricing_plan_id":"cebpf4jnsgd1na2vs0mg"},{"bike_id":"e84f8017-df20-4fa6-9054-ae94765d47ef","system_id":"levelo_inurba_marseille","lat":43.297584,"lon":5.380634,"is_reserved":false,"is_disabled":false,"rental_uris":{"android":"levelo://app?vid=e84f8017-df20-4fa6-9054-ae94765d47ef","ios":"levelo://app?vid=e84f8017-df20-4fa6-9054-ae94765d47ef"},"vehicle_type_id":"4","last_reported":1758618695,"current_range_meters":4800,"station_id":"ce4bgkp2rcd13ifvqbmg","pricing_plan_id":"cebpf4jnsgd1na2vs0mg"},{"bike_id":"72df89cb-7746-46e6-b269-fbddd2d473fe","system_id":"levelo_inurba_marseille","lat":43.32108,"lon":5.36764,"is_reserved":false,"is_disabled":false,"rental_uris":{"android":"levelo://app?vid=72df89cb-7746-46e6-b269-fbddd2d473fe","ios":"levelo://app?vid=72df89cb-7746-46e6-b269-fbddd2d473fe"},"vehicle_type_id":"4","last_reported":1758618695,"current_range_meters":4800,"station_id":"ce4bhrh2rcd13ifvqhug","pricing_plan_id":"cebpf4jnsgd1na2vs0mg"},{"bike_id":"115312ae-a27c-480c-a681-7dc447082124","system_id":"levelo_inurba_marseille","lat":43.28148,"lon":5.42639,"is_reserved":false,"is_disabled":false,"rental_uris":{"android":"levelo://app?vid=115312ae-a27c-480c-a681-7dc447082124","ios":"levelo://app?vid=115312ae-a27c-480c-a681-7dc447082124"},"vehicle_type_id":"4","last_reported":1758618695,"current_range_meters":5600,"station_id":"ce4bhnh2rcd13ifvqgug","pricing_plan_id":"cebpf4jnsgd1na2vs0mg"},{"bike_id":"655fc4ce-694c-4fdd-9b0e-3524c244b365","system_id":"levelo_inurba_marseille","lat":43.3138,"lon":5.36702,"is_reserved":false,"is_disabled":false,"rental_uris":{"android":"levelo://app?vid=655fc4ce-694c-4fdd-9b0e-3524c244b365","ios":"levelo://app?vid=655fc4ce-694c-4fdd-9b0e-3524c244b365"},"vehicle_type_id":"4","last_reported":1758618695,"current_range_meters":5600,"station_id":"ce4bgr92rcd13ifvqc6g","pricing_plan_id":"cebpf4jnsgd1na2vs0mg"},{"bike_id":"822a41c4-eb3c-491f-a392-2ad22e81489c","system_id":"levelo_inurba_marseille","lat":43.27495,"lon":5.42458,"is_reserved":false,"is_disabled":false,"rental_uris":{"android":"levelo://app?vid=822a41c4-eb3c-491f-a392-2ad22e81489c","ios":"levelo://app?vid=822a41c4-eb3c-491f-a392-2ad22e81489c"},"vehicle_type_id":"4","last_reported":1758618695,"current_range_meters":6000,"station_id":"ce4bhn92rcd13ifvqgrg","pricing_plan_id":"cebpf4jnsgd1na2vs0mg"},{"bike_id":"dd11c2de-45d1-4515-ab48-ae917a9b1da6","system_id":"levelo_inurba_marseille","lat":43.30131,"lon":5.38796,"is_reserved":false,"is_disabled":false,"rental_uris":{"android":"levelo://app?vid=dd11c2de-45d1-4515-ab48-ae917a9b1da6","ios":"levelo://app?vid=dd11c2de-45d1-4515-ab48-ae917a9b1da6"},"vehicle_type_id":"4","last_reported":1758618695,"current_range_meters":6400,"station_id":"ce4bghh2rcd13ifvqb60","pricing_plan_id":"cebpf4jnsgd1na2vs0mg"},{"bike_id":"5fafbbc6-b8c6-42a0-91c5-a2230a090df9","system_id":"levelo_inurba_marseille","lat":43.33612,"lon":5.41033,"is_reserved":false,"is_disabled":false,"rental_uris":{"android":"levelo://app?vid=5fafbbc6-b8c6-42a0-91c5-a2230a090df9","ios":"levelo://app?vid=5fafbbc6-b8c6-42a0-91c5-a2230a090df9"},"vehicle_type_id":"4","last_reported":1758618695,"current_range_meters":6400,"station_id":"ce4bhqh2rcd13ifvqhmg","pricing_plan_id":"cebpf4jnsgd1na2vs0mg"},{"bike_id":"9176512c-2cc1-4df2-a8e0-6be514fbcdbf","system_id":"levelo_inurba_marseille","lat":43.33748,"lon":5.37465,"is_reserved":false,"is_disabled":false,"rental_uris":{"android":"levelo://app?vid=9176512c-2cc1-4df2-a8e0-6be514fbcdbf","ios":"levelo://app?vid=9176512c-2cc1-4df2-a8e0-6be514fbcdbf"},"vehicle_type_id":"4","last_reported":1758618695,"current_range_meters":6400,"station_id":"","pricing_plan_id":"cebpf4jnsgd1na2vs0mg"},{"bike_id":"fb2309f8-d66b-4b1c-9fb4-fe6a116146ab","system_id":"levelo_inurba_marseille","lat":43.265032,"lon":5.395586,"is_reserved":false,"is_disabled":false,"rental_uris":{"android":"levelo://app?vid=fb2309f8-d66b-4b1c-9fb4-fe6a116146ab","ios":"levelo://app?vid=fb2309f8-d66b-4b1c-9fb4-fe6a116146ab"},"vehicle_type_id":"4","last_reported":1758618695,"current_range_meters":6400,"station_id":"ce4bhi12rcd13ifvqfq0","pricing_plan_id":"cebpf4jnsgd1na2vs0mg"},{"bike_id":"438ead59-de14-4fa0-a61d-03a70a4122ae","system_id":"levelo_inurba_marseille","lat":43.97285,"lon":4.89134,"is_reserved":false,"is_disabled":true,"rental_uris":{"android":"levelo://app?vid=438ead59-de14-4fa0-a61d-03a70a4122ae","ios":"levelo://app?vid=438ead59-de14-4fa0-a61d-03a70a4122ae"},"vehicle_type_id":"4","last_reported":1758618695,"current_range_meters":6400,"station_id":"","pricing_plan_id":"cebpf4jnsgd1na2vs0mg"},{"bike_id":"698a1659-1be4-4464-8e40-0054e6845364","system_id":"levelo_inurba_marseille","lat":43.29406,"lon":5.40375,"is_reserved":false,"is_disabled":false,"rental_uris":{"android":"levelo://app?vid=698a1659-1be4-4464-8e40-0054e6845364","ios":"levelo://app?vid=698a1659-1be4-4464-8e40-0054e6845364"},"vehicle_type_id":"4","last_reported":1758618695,"current_range_meters":6800,"station_id":"","pricing_plan_id":"cebpf4jnsgd1na2vs0mg"},{"bike_id":"59362b21-e7ae-4d89-a581-7623f0cabe74","system_id":"levelo_inurba_marseille","lat":43.290009,"lon":5.356133,"is_reserved":false,"is_disabled":true,"rental_uris":{"android":"levelo://app?vid=59362b21-e7ae-4d89-a581-7623f0cabe74","ios":"levelo://app?vid=59362b21-e7ae-4d89-a581-7623f0cabe74"},"vehicle_type_id":"4","last_reported":1758618695,"current_range_meters":6800,"station_id":"ce4bhb92rcd13ifvqen0","pricing_plan_id":"cebpf4jnsgd1na2vs0mg"},{"bike_id":"cf15f0ab-4027-43c7-82dc-a40724160eb1","system_id":"levelo_inurba_marseille","lat":43.21754,"lon":5.34599,"is_reserved":false,"is_disabled":false,"rental_uris":{"android":"levelo://app?vid=cf15f0ab-4027-43c7-82dc-a40724160eb1","ios":"levelo://app?vid=cf15f0ab-4027-43c7-82dc-a40724160eb1"},"vehicle_type_id":"4","last_reported":1758618695,"current_range_meters":6800,"station_id":"st_cvj6r9ubvosntc0bgbag","pricing_plan_id":"cebpf4jnsgd1na2vs0mg"},{"bike_id":"32bc260d-0962-47b3-bbb5-83e673b6291c","system_id":"levelo_inurba_marseille","lat":43.22929,"lon":5.35372,"is_reserved":false,"is_disabled":false,"rental_uris":{"android":"levelo://app?vid=32bc260d-0962-47b3-bbb5-83e673b6291c","ios":"levelo://app?vid=32bc260d-0962-47b3-bbb5-83e673b6291c"},"vehicle_type_id":"4","last_reported":1758618695,"current_range_meters":6800,"station_id":"cpo3532slgdg3j2ikp40","pricing_plan_id":"cebpf4jnsgd1na2vs0mg"},{"bike_id":"2289a0ff-9c3e-4f79-ad38-4b41158d6057","system_id":"levelo_inurba_marseille","lat":43.29882,"lon":5.37911,"is_reserved":false,"is_disabled":false,"rental_uris":{"android":"levelo://app?vid=2289a0ff-9c3e-4f79-ad38-4b41158d6057","ios":"levelo://app?vid=2289a0ff-9c3e-4f79-ad38-4b41158d6057"},"vehicle_type_id":"4","last_reported":1758618695,"current_range_meters":6800,"station_id":"","pricing_plan_id":"cebpf4jnsgd1na2vs0mg"},{"bike_id":"f7eb49c8-2e0a-4bb4-a6b2-9ab939a8640f","system_id":"levelo_inurba_marseille","lat":43.33601,"lon":5.40984,"is_reserved":false,"is_disabled":false,"rental_uris":{"android":"levelo://app?vid=f7eb49c8-2e0a-4bb4-a6b2-9ab939a8640f","ios":"levelo://app?vid=f7eb49c8-2e0a-4bb4-a6b2-9ab939a8640f"},"vehicle_type_id":"4","last_reported":1758618695,"current_range_meters":6800,"station_id":"ce4bhqh2rcd13ifvqhmg","pricing_plan_id":"cebpf4jnsgd1na2vs0mg"},{"bike_id":"9fd77543-f18d-4c23-af18-b4fabf18caa2","system_id":"levelo_inurba_marseille","lat":43.2816,"lon":5.42623,"is_reserved":false,"is_disabled":false,"rental_uris":{"android":"levelo://app?vid=9fd77543-f18d-4c23-af18-b4fabf18caa2","ios":"levelo://app?vid=9fd77543-f18d-4c23-af18-b4fabf18caa2"},"vehicle_type_id":"4","last_reported":1758618695,"current_range_meters":6800,"station_id":"ce4bhnh2rcd13ifvqgug","pricing_plan_id":"cebpf4jnsgd1na2vs0mg"},{"bike_id":"df3cd55b-9079-4f82-9d4c-dbfcd0c80b55","system_id":"levelo_inurba_marseille","lat":43.297947,"lon":5.381039,"is_reserved":false,"is_disabled":false,"rental_uris":{"android":"levelo://app?vid=df3cd55b-9079-4f82-9d4c-dbfcd0c80b55","ios":"levelo://app?vid=df3cd55b-9079-4f82-9d4c-dbfcd0c80b55"},"vehicle_type_id":"4","last_reported":1758618695,"current_range_meters":7200,"station_id":"ce4bgip2rcd13ifvqbb0","pricing_plan_id":"cebpf4jnsgd1na2vs0mg"},{"bike_id":"406d66f0-16ab-414e-9a66-5897172b8f25","system_id":"levelo_inurba_marseille","lat":43.29915,"lon":5.37471,"is_reserved":false,"is_disabled":false,"rental_uris":{"android":"levelo://app?vid=406d66f0-16ab-414e-9a66-5897172b8f25","ios":"levelo://app?vid=406d66f0-16ab-414e-9a66-5897172b8f25"},"vehicle_type_id":"4","last_reported":1758618695,"current_range_meters":7200,"station_id":"ce4bgjh2rcd13ifvqbg0","pricing_plan_id":"cebpf4jnsgd1na2vs0mg"},{"bike_id":"7aa3a595-a54e-4b2c-a7c1-c72d4f609858","system_id":"levelo_inurba_marseille","lat":43.30146,"lon":5.38079,"is_reserved":false,"is_disabled":false,"rental_uris":{"android":"levelo://app?vid=7aa3a595-a54e-4b2c-a7c1-c72d4f609858","ios":"levelo://app?vid=7aa3a595-a54e-4b2c-a7c1-c72d4f609858"},"vehicle_type_id":"4","last_reported":1758618695,"current_range_meters":6800,"station_id":"ce4bgjp2rcd13ifvqbh0","pricing_plan_id":"cebpf4jnsgd1na2vs0mg"},{"bike_id":"ca000825-5d13-495e-af19-915ae846db43","system_id":"levelo_inurba_marseille","lat":43.33021,"lon":5.39038,"is_reserved":false,"is_disabled":false,"rental_uris":{"android":"levelo://app?vid=ca000825-5d13-495e-af19-915ae846db43","ios":"levelo://app?vid=ca000825-5d13-495e-af19-915ae846db43"},"vehicle_type_id":"4","last_reported":1758618695,"current_range_meters":8000,"station_id":"ce4bhr92rcd13ifvqhrg","pricing_plan_id":"cebpf4jnsgd1na2vs0mg"},{"bike_id":"97666c3f-197b-404d-a08c-c3bebac70d22","system_id":"levelo_inurba_marseille","lat":43.33609,"lon":5.41034,"is_reserved":false,"is_disabled":false,"rental_uris":{"android":"levelo://app?vid=97666c3f-197b-404d-a08c-c3bebac70d22","ios":"levelo://app?vid=97666c3f-197b-404d-a08c-c3bebac70d22"},"vehicle_type_id":"4","last_reported":1758618695,"current_range_meters":8000,"station_id":"ce4bhqh2rcd13ifvqhmg","pricing_plan_id":"cebpf4jnsgd1na2vs0mg"},{"bike_id":"002f9227-4304-45fb-9001-8e868cef61ac","system_id":"levelo_inurba_marseille","lat":43.30538,"lon":5.39801,"is_reserved":false,"is_disabled":false,"rental_uris":{"android":"levelo://app?vid=002f9227-4304-45fb-9001-8e868cef61ac","ios":"levelo://app?vid=002f9227-4304-45fb-9001-8e868cef61ac"},"vehicle_type_id":"4","last_reported":1758618695,"current_range_meters":8000,"station_id":"ce4bh092rcd13ifvqd20","pricing_plan_id":"cebpf4jnsgd1na2vs0mg"},{"bike_id":"41e03531-d926-4714-9cb0-33d759375f30","system_id":"levelo_inurba_marseille","lat":43.31239,"lon":5.36882,"is_reserved":false,"is_disabled":false,"rental_uris":{"android":"levelo://app?vid=41e03531-d926-4714-9cb0-33d759375f30","ios":"levelo://app?vid=41e03531-d926-4714-9cb0-33d759375f30"},"vehicle_type_id":"4","last_reported":1758618695,"current_range_meters":8000,"station_id":"ce4bgl92rcd13ifvqbq0","pricing_plan_id":"cebpf4jnsgd1na2vs0mg"},{"bike_id":"77dd96f9-9395-42c8-89c0-dbb2d14c4053","system_id":"levelo_inurba_marseille","lat":43.2558,"lon":5.38237,"is_reserved":false,"is_disabled":false,"rental_uris":{"android":"levelo://app?vid=77dd96f9-9395-42c8-89c0-dbb2d14c4053","ios":"levelo://app?vid=77dd96f9-9395-42c8-89c0-dbb2d14c4053"},"vehicle_type_id":"4","last_reported":1758618695,"current_range_meters":8000,"station_id":"ce4bhih2rcd13ifvqfs0","pricing_plan_id":"cebpf4jnsgd1na2vs0mg"},{"bike_id":"612f5b6d-7a42-49d4-a4a9-cd0d60040cb3","system_id":"levelo_inurba_marseille","lat":43.31662,"lon":5.39022,"is_reserved":false,"is_disabled":false,"rental_uris":{"android":"levelo://app?vid=612f5b6d-7a42-49d4-a4a9-cd0d60040cb3","ios":"levelo://app?vid=612f5b6d-7a42-49d4-a4a9-cd0d60040cb3"},"vehicle_type_id":"4","last_reported":1758618695,"current_range_meters":8000,"station_id":"","pricing_plan_id":"cebpf4jnsgd1na2vs0mg"},{"bike_id":"3b92f048-064a-4a34-882a-88e003767df8","system_id":"levelo_inurba_marseille","lat":43.23971,"lon":5.3662,"is_reserved":false,"is_disabled":false,"rental_uris":{"android":"levelo://app?vid=3b92f048-064a-4a34-882a-88e003767df8","ios":"levelo://app?vid=3b92f048-064a-4a34-882a-88e003767df8"},"vehicle_type_id":"4","last_reported":1758618695,"current_range_meters":8400,"station_id":"ce4bhi12rcd13ifvqfp0","pricing_plan_id":"cebpf4jnsgd1na2vs0mg"},{"bike_id":"87828865-c641-4a92-96cc-2a9d2b51cfba","system_id":"levelo_inurba_marseille","lat":43.2175,"lon":5.34598,"is_reserved":false,"is_disabled":false,"rental_uris":{"android":"levelo://app?vid=87828865-c641-4a92-96cc-2a9d2b51cfba","ios":"levelo://app?vid=87828865-c641-4a92-96cc-2a9d2b51cfba"},"vehicle_type_id":"4","last_reported":1758618695,"current_range_meters":8400,"station_id":"st_cvj6r9ubvosntc0bgbag","pricing_plan_id":"cebpf4jnsgd1na2vs0mg"},{"bike_id":"fb3d2b68-0f61-476b-b51f-a105340fd44c","system_id":"levelo_inurba_marseille","lat":43.279258,"lon":5.395743,"is_reserved":false,"is_disabled":false,"rental_uris":{"android":"levelo://app?vid=fb3d2b68-0f61-476b-b51f-a105340fd44c","ios":"levelo://app?vid=fb3d2b68-0f61-476b-b51f-a105340fd44c"},"vehicle_type_id":"4","last_reported":1758618695,"current_range_meters":8400,"station_id":"ce4bhf92rcd13ifvqf40","pricing_plan_id":"cebpf4jnsgd1na2vs0mg"},{"bike_id":"c07e2816-467a-4d5b-aab2-f49fd8a4f6dc","system_id":"levelo_inurba_marseille","lat":43.239626,"lon":5.366277,"is_reserved":false,"is_disabled":false,"rental_uris":{"android":"levelo://app?vid=c07e2816-467a-4d5b-aab2-f49fd8a4f6dc","ios":"levelo://app?vid=c07e2816-467a-4d5b-aab2-f49fd8a4f6dc"},"vehicle_type_id":"4","last_reported":1758618695,"current_range_meters":8400,"station_id":"ce4bhi12rcd13ifvqfp0","pricing_plan_id":"cebpf4jnsgd1na2vs0mg"},{"bike_id":"8f1e9e6a-c7b6-4d60-a17d-b7b4deeb0c49","system_id":"levelo_inurba_marseille","lat":43.33596,"lon":5.41021,"is_reserved":false,"is_disabled":false,"rental_uris":{"android":"levelo://app?vid=8f1e9e6a-c7b6-4d60-a17d-b7b4deeb0c49","ios":"levelo://app?vid=8f1e9e6a-c7b6-4d60-a17d-b7b4deeb0c49"},"vehicle_type_id":"4","last_reported":1758618695,"current_range_meters":8400,"station_id":"ce4bhqh2rcd13ifvqhmg","pricing_plan_id":"cebpf4jnsgd1na2vs0mg"},{"bike_id":"db121f25-605d-4214-9bd3-9aa57581e3a1","system_id":"levelo_inurba_marseille","lat":43.30433,"lon":5.388877,"is_reserved":false,"is_disabled":false,"rental_uris":{"android":"levelo://app?vid=db121f25-605d-4214-9bd3-9aa57581e3a1","ios":"levelo://app?vid=db121f25-605d-4214-9bd3-9aa57581e3a1"},"vehicle_type_id":"4","last_reported":1758618695,"current_range_meters":8400,"station_id":"ce4bgk12rcd13ifvqbi0","pricing_plan_id":"cebpf4jnsgd1na2vs0mg"},{"bike_id":"8ad8a564-8497-45a3-8443-8c7b49b7bfe9","system_id":"levelo_inurba_marseille","lat":43.2315,"lon":5.43701,"is_reserved":false,"is_disabled":false,"rental_uris":{"android":"levelo://app?vid=8ad8a564-8497-45a3-8443-8c7b49b7bfe9","ios":"levelo://app?vid=8ad8a564-8497-45a3-8443-8c7b49b7bfe9"},"vehicle_type_id":"4","last_reported":1758618695,"current_range_meters":8000,"station_id":"ce4bhmp2rcd13ifvqgog","pricing_plan_id":"cebpf4jnsgd1na2vs0mg"},{"bike_id":"c3cafe8e-8846-4e03-bc52-99432d97b7f8","system_id":"levelo_inurba_marseille","lat":43.241683,"lon":5.364073,"is_reserved":false,"is_disabled":false,"rental_uris":{"android":"levelo://app?vid=c3cafe8e-8846-4e03-bc52-99432d97b7f8","ios":"levelo://app?vid=c3cafe8e-8846-4e03-bc52-99432d97b7f8"},"vehicle_type_id":"4","last_reported":1758618695,"current_range_meters":8400,"station_id":"cpo36qri1sfpv3e86is0","pricing_plan_id":"cebpf4jnsgd1na2vs0mg"},{"bike_id":"e111295c-a37a-4430-9923-ce146479ffdd","system_id":"levelo_inurba_marseille","lat":43.27313,"lon":5.391404,"is_reserved":false,"is_disabled":false,"rental_uris":{"android":"levelo://app?vid=e111295c-a37a-4430-9923-ce146479ffdd","ios":"levelo://app?vid=e111295c-a37a-4430-9923-ce146479ffdd"},"vehicle_type_id":"4","last_reported":1758618695,"current_range_meters":8400,"station_id":"","pricing_plan_id":"cebpf4jnsgd1na2vs0mg"},{"bike_id":"70a4833d-28e2-48e5-9210-1353c73cffa8","system_id":"levelo_inurba_marseille","lat":43.27207,"lon":5.39166,"is_reserved":false,"is_disabled":false,"rental_uris":{"android":"levelo://app?vid=70a4833d-28e2-48e5-9210-1353c73cffa8","ios":"levelo://app?vid=70a4833d-28e2-48e5-9210-1353c73cffa8"},"vehicle_type_id":"4","last_reported":1758618695,"current_range_meters":8000,"station_id":"ce4bhhp2rcd13ifvqfm0","pricing_plan_id":"cebpf4jnsgd1na2vs0mg"},{"bike_id":"7a006d14-73fd-4346-9b9b-4326c04a22fd","system_id":"levelo_inurba_marseille","lat":43.30952,"lon":5.39019,"is_reserved":false,"is_disabled":false,"rental_uris":{"android":"levelo://app?vid=7a006d14-73fd-4346-9b9b-4326c04a22fd","ios":"levelo://app?vid=7a006d14-73fd-4346-9b9b-4326c04a22fd"},"vehicle_type_id":"4","last_reported":1758618695,"current_range_meters":8800,"station_id":"ce4bgup2rcd13ifvqco0","pricing_plan_id":"cebpf4jnsgd1na2vs0mg"},{"bike_id":"a15e48c8-16c3-437e-a237-62b9e19d84cb","system_id":"levelo_inurba_marseille","lat":43.21771,"lon":5.34603,"is_reserved":false,"is_disabled":false,"rental_uris":{"android":"levelo://app?vid=a15e48c8-16c3-437e-a237-62b9e19d84cb","ios":"levelo://app?vid=a15e48c8-16c3-437e-a237-62b9e19d84cb"},"vehicle_type_id":"4","last_reported":1758618695,"current_range_meters":8800,"station_id":"st_cvj6r9ubvosntc0bgbag","pricing_plan_id":"cebpf4jnsgd1na2vs0mg"},{"bike_id":"d601c5ac-9f40-4413-b704-6528d37b20d6","system_id":"levelo_inurba_marseille","lat":43.29558,"lon":5.38174,"is_reserved":false,"is_disabled":true,"rental_uris":{"android":"levelo://app?vid=d601c5ac-9f40-4413-b704-6528d37b20d6","ios":"levelo://app?vid=d601c5ac-9f40-4413-b704-6528d37b20d6"},"vehicle_type_id":"4","last_reported":1758618695,"current_range_meters":8800,"station_id":"","pricing_plan_id":"cebpf4jnsgd1na2vs0mg"},{"bike_id":"0f7e86ba-a595-4886-b1ea-decd55c60c89","system_id":"levelo_inurba_marseille","lat":43.3015,"lon":5.3808,"is_reserved":false,"is_disabled":false,"rental_uris":{"android":"levelo://app?vid=0f7e86ba-a595-4886-b1ea-decd55c60c89","ios":"levelo://app?vid=0f7e86ba-a595-4886-b1ea-decd55c60c89"},"vehicle_type_id":"4","last_reported":1758618695,"current_range_meters":8400,"station_id":"ce4bgjp2rcd13ifvqbh0","pricing_plan_id":"cebpf4jnsgd1na2vs0mg"},{"bike_id":"4d019f98-fe4d-4b00-8272-dea622719cb6","system_id":"levelo_inurba_marseille","lat":43.27613,"lon":5.36106,"is_reserved":false,"is_disabled":false,"rental_uris":{"android":"levelo://app?vid=4d019f98-fe4d-4b00-8272-dea622719cb6","ios":"levelo://app?vid=4d019f98-fe4d-4b00-8272-dea622719cb6"},"vehicle_type_id":"4","last_reported":1758618695,"current_range_meters":8800,"station_id":"ce4bgj92rcd13ifvqbe0","pricing_plan_id":"cebpf4jnsgd1na2vs0mg"},{"bike_id":"ac75801b-074e-44a0-b8d4-768ce10fd207","system_id":"levelo_inurba_marseille","lat":43.28138,"lon":5.42639,"is_reserved":false,"is_disabled":false,"rental_uris":{"android":"levelo://app?vid=ac75801b-074e-44a0-b8d4-768ce10fd207","ios":"levelo://app?vid=ac75801b-074e-44a0-b8d4-768ce10fd207"},"vehicle_type_id":"4","last_reported":1758618695,"current_range_meters":9200,"station_id":"ce4bhnh2rcd13ifvqgug","pricing_plan_id":"cebpf4jnsgd1na2vs0mg"},{"bike_id":"90e14a2d-1c9e-457a-a1d7-7257e3270581","system_id":"levelo_inurba_marseille","lat":43.28008,"lon":5.41662,"is_reserved":false,"is_disabled":true,"rental_uris":{"android":"levelo://app?vid=90e14a2d-1c9e-457a-a1d7-7257e3270581","ios":"levelo://app?vid=90e14a2d-1c9e-457a-a1d7-7257e3270581"},"vehicle_type_id":"4","last_reported":1758618695,"current_range_meters":9200,"station_id":"ce4bho12rcd13ifvqh1g","pricing_plan_id":"cebpf4jnsgd1na2vs0mg"},{"bike_id":"c5aa378e-8b25-4419-8324-d2fdb866f286","system_id":"levelo_inurba_marseille","lat":43.29186,"lon":5.35808,"is_reserved":false,"is_disabled":false,"rental_uris":{"android":"levelo://app?vid=c5aa378e-8b25-4419-8324-d2fdb866f286","ios":"levelo://app?vid=c5aa378e-8b25-4419-8324-d2fdb866f286"},"vehicle_type_id":"4","last_reported":1758618695,"current_range_meters":9200,"station_id":"ce4bhb12rcd13ifvqel0","pricing_plan_id":"cebpf4jnsgd1na2vs0mg"},{"bike_id":"b6477e8f-50a7-487a-89c9-a942112f8d49","system_id":"levelo_inurba_marseille","lat":43.32479,"lon":5.36563,"is_reserved":false,"is_disabled":false,"rental_uris":{"android":"levelo://app?vid=b6477e8f-50a7-487a-89c9-a942112f8d49","ios":"levelo://app?vid=b6477e8f-50a7-487a-89c9-a942112f8d49"},"vehicle_type_id":"4","last_reported":1758618695,"current_range_meters":9600,"station_id":"ce4bhs12rcd13ifvqhvg","pricing_plan_id":"cebpf4jnsgd1na2vs0mg"},{"bike_id":"1f0a64d3-32b0-44c7-8005-0b9465e27f16","system_id":"levelo_inurba_marseille","lat":43.274912,"lon":5.424595,"is_reserved":false,"is_disabled":false,"rental_uris":{"android":"levelo://app?vid=1f0a64d3-32b0-44c7-8005-0b9465e27f16","ios":"levelo://app?vid=1f0a64d3-32b0-44c7-8005-0b9465e27f16"},"vehicle_type_id":"4","last_reported":1758618695,"current_range_meters":9600,"station_id":"ce4bhn92rcd13ifvqgrg","pricing_plan_id":"cebpf4jnsgd1na2vs0mg"},{"bike_id":"883e5c90-bf0d-4bf9-b2a8-33b4ed496622","system_id":"levelo_inurba_marseille","lat":43.31259,"lon":5.40176,"is_reserved":false,"is_disabled":false,"rental_uris":{"android":"levelo://app?vid=883e5c90-bf0d-4bf9-b2a8-33b4ed496622","ios":"levelo://app?vid=883e5c90-bf0d-4bf9-b2a8-33b4ed496622"},"vehicle_type_id":"4","last_reported":1758618695,"current_range_meters":8800,"station_id":"ce4bh092rcd13ifvqd30","pricing_plan_id":"cebpf4jnsgd1na2vs0mg"},{"bike_id":"759e47b9-2553-49c5-b2a0-35471b025155","system_id":"levelo_inurba_marseille","lat":43.30579,"lon":5.39274,"is_reserved":false,"is_disabled":false,"rental_uris":{"android":"levelo://app?vid=759e47b9-2553-49c5-b2a0-35471b025155","ios":"levelo://app?vid=759e47b9-2553-49c5-b2a0-35471b025155"},"vehicle_type_id":"4","last_reported":1758618695,"current_range_meters":9600,"station_id":"","pricing_plan_id":"cebpf4jnsgd1na2vs0mg"},{"bike_id":"0b2230e3-adb9-421c-91b1-c113eb397705","system_id":"levelo_inurba_marseille","lat":43.28887,"lon":5.37682,"is_reserved":false,"is_disabled":false,"rental_uris":{"android":"levelo://app?vid=0b2230e3-adb9-421c-91b1-c113eb397705","ios":"levelo://app?vid=0b2230e3-adb9-421c-91b1-c113eb397705"},"vehicle_type_id":"4","last_reported":1758618695,"current_range_meters":9600,"station_id":"","pricing_plan_id":"cebpf4jnsgd1na2vs0mg"},{"bike_id":"8ef3db65-05aa-440e-83e1-c5ee675df7b4","system_id":"levelo_inurba_marseille","lat":43.29897,"lon":5.37479,"is_reserved":false,"is_disabled":false,"rental_uris":{"android":"levelo://app?vid=8ef3db65-05aa-440e-83e1-c5ee675df7b4","ios":"levelo://app?vid=8ef3db65-05aa-440e-83e1-c5ee675df7b4"},"vehicle_type_id":"4","last_reported":1758618695,"current_range_meters":9600,"station_id":"ce4bgjh2rcd13ifvqbg0","pricing_plan_id":"cebpf4jnsgd1na2vs0mg"},{"bike_id":"c940dacc-3f29-417b-a827-68d907097050","system_id":"levelo_inurba_marseille","lat":43.27488,"lon":5.42478,"is_reserved":false,"is_disabled":false,"rental_uris":{"android":"levelo://app?vid=c940dacc-3f29-417b-a827-68d907097050","ios":"levelo://app?vid=c940dacc-3f29-417b-a827-68d907097050"},"vehicle_type_id":"4","last_reported":1758618695,"current_range_meters":9600,"station_id":"ce4bhn92rcd13ifvqgrg","pricing_plan_id":"cebpf4jnsgd1na2vs0mg"},{"bike_id":"7eed0655-6b99-4d56-a282-ae85cf86f4cd","system_id":"levelo_inurba_marseille","lat":43.30142,"lon":5.37427,"is_reserved":false,"is_disabled":false,"rental_uris":{"android":"levelo://app?vid=7eed0655-6b99-4d56-a282-ae85cf86f4cd","ios":"levelo://app?vid=7eed0655-6b99-4d56-a282-ae85cf86f4cd"},"vehicle_type_id":"4","last_reported":1758618695,"current_range_meters":9600,"station_id":"ce4bgs92rcd13ifvqcc0","pricing_plan_id":"cebpf4jnsgd1na2vs0mg"},{"bike_id":"9f50c3ed-18ab-4841-b2de-1fe469f49da2","system_id":"levelo_inurba_marseille","lat":43.27478,"lon":5.42471,"is_reserved":false,"is_disabled":false,"rental_uris":{"android":"levelo://app?vid=9f50c3ed-18ab-4841-b2de-1fe469f49da2","ios":"levelo://app?vid=9f50c3ed-18ab-4841-b2de-1fe469f49da2"},"vehicle_type_id":"4","last_reported":1758618695,"current_range_meters":10000,"station_id":"ce4bhn92rcd13ifvqgrg","pricing_plan_id":"cebpf4jnsgd1na2vs0mg"},{"bike_id":"7cc3eb70-c188-4d07-bd7a-1eda1774f982","system_id":"levelo_inurba_marseille","lat":43.28999,"lon":5.35608,"is_reserved":false,"is_disabled":false,"rental_uris":{"android":"levelo://app?vid=7cc3eb70-c188-4d07-bd7a-1eda1774f982","ios":"levelo://app?vid=7cc3eb70-c188-4d07-bd7a-1eda1774f982"},"vehicle_type_id":"4","last_reported":1758618695,"current_range_meters":10000,"station_id":"ce4bhb92rcd13ifvqen0","pricing_plan_id":"cebpf4jnsgd1na2vs0mg"},{"bike_id":"2cccaf04-96c0-4cda-b570-e18639ce04e2","system_id":"levelo_inurba_marseille","lat":43.304567,"lon":5.379099,"is_reserved":false,"is_disabled":false,"rental_uris":{"android":"levelo://app?vid=2cccaf04-96c0-4cda-b570-e18639ce04e2","ios":"levelo://app?vid=2cccaf04-96c0-4cda-b570-e18639ce04e2"},"vehicle_type_id":"4","last_reported":1758618695,"current_range_meters":10000,"station_id":"ce4bgup2rcd13ifvqcn0","pricing_plan_id":"cebpf4jnsgd1na2vs0mg"},{"bike_id":"99742242-65b4-4e57-be4f-fce52b84fb5d","system_id":"levelo_inurba_marseille","lat":43.27199,"lon":5.39186,"is_reserved":false,"is_disabled":false,"rental_uris":{"android":"levelo://app?vid=99742242-65b4-4e57-be4f-fce52b84fb5d","ios":"levelo://app?vid=99742242-65b4-4e57-be4f-fce52b84fb5d"},"vehicle_type_id":"4","last_reported":1758618695,"current_range_meters":10000,"station_id":"ce4bhhp2rcd13ifvqfm0","pricing_plan_id":"cebpf4jnsgd1na2vs0mg"},{"bike_id":"ad9f1ff7-708f-4e6a-a4cb-1b85afcbfa78","system_id":"levelo_inurba_marseille","lat":43.31173,"lon":5.38716,"is_reserved":false,"is_disabled":true,"rental_uris":{"android":"levelo://app?vid=ad9f1ff7-708f-4e6a-a4cb-1b85afcbfa78","ios":"levelo://app?vid=ad9f1ff7-708f-4e6a-a4cb-1b85afcbfa78"},"vehicle_type_id":"4","last_reported":1758618695,"current_range_meters":10000,"station_id":"ce4bgv12rcd13ifvqcp0","pricing_plan_id":"cebpf4jnsgd1na2vs0mg"},{"bike_id":"77eeb9b5-0e68-4a7b-b5d1-530ce6c04cd4","system_id":"levelo_inurba_marseille","lat":43.229314,"lon":5.353792,"is_reserved":false,"is_disabled":false,"rental_uris":{"android":"levelo://app?vid=77eeb9b5-0e68-4a7b-b5d1-530ce6c04cd4","ios":"levelo://app?vid=77eeb9b5-0e68-4a7b-b5d1-530ce6c04cd4"},"vehicle_type_id":"4","last_reported":1758618695,"current_range_meters":10000,"station_id":"cpo3532slgdg3j2ikp40","pricing_plan_id":"cebpf4jnsgd1na2vs0mg"},{"bike_id":"bed7111f-2aa6-4c82-bb10-9ab8f57ca0ba","system_id":"levelo_inurba_marseille","lat":43.30127,"lon":5.38098,"is_reserved":false,"is_disabled":false,"rental_uris":{"android":"levelo://app?vid=bed7111f-2aa6-4c82-bb10-9ab8f57ca0ba","ios":"levelo://app?vid=bed7111f-2aa6-4c82-bb10-9ab8f57ca0ba"},"vehicle_type_id":"4","last_reported":1758618695,"current_range_meters":10000,"station_id":"ce4bgjp2rcd13ifvqbh0","pricing_plan_id":"cebpf4jnsgd1na2vs0mg"},{"bike_id":"7a9d054a-33d2-4ab9-8282-d7fe3644a2a9","system_id":"levelo_inurba_marseille","lat":43.33576,"lon":5.41021,"is_reserved":false,"is_disabled":false,"rental_uris":{"android":"levelo://app?vid=7a9d054a-33d2-4ab9-8282-d7fe3644a2a9","ios":"levelo://app?vid=7a9d054a-33d2-4ab9-8282-d7fe3644a2a9"},"vehicle_type_id":"4","last_reported":1758618695,"current_range_meters":10000,"station_id":"ce4bhqh2rcd13ifvqhmg","pricing_plan_id":"cebpf4jnsgd1na2vs0mg"},{"bike_id":"1efddf8d-578f-4e4c-8c3f-e3a8bd592ba4","system_id":"levelo_inurba_marseille","lat":43.29574,"lon":5.37409,"is_reserved":false,"is_disabled":false,"rental_uris":{"android":"levelo://app?vid=1efddf8d-578f-4e4c-8c3f-e3a8bd592ba4","ios":"levelo://app?vid=1efddf8d-578f-4e4c-8c3f-e3a8bd592ba4"},"vehicle_type_id":"4","last_reported":1758618695,"current_range_meters":10800,"station_id":"","pricing_plan_id":"cebpf4jnsgd1na2vs0mg"},{"bike_id":"94fe83c9-efd3-43af-80fc-e326b8863094","system_id":"levelo_inurba_marseille","lat":43.28721,"lon":5.36084,"is_reserved":false,"is_disabled":false,"rental_uris":{"android":"levelo://app?vid=94fe83c9-efd3-43af-80fc-e326b8863094","ios":"levelo://app?vid=94fe83c9-efd3-43af-80fc-e326b8863094"},"vehicle_type_id":"4","last_reported":1758618695,"current_range_meters":10800,"station_id":"cki0cbj6b192h4jlfktg","pricing_plan_id":"cebpf4jnsgd1na2vs0mg"},{"bike_id":"76ece8fc-a2c8-4fe1-b6e2-23ef27dd3943","system_id":"levelo_inurba_marseille","lat":43.30296,"lon":5.369,"is_reserved":false,"is_disabled":false,"rental_uris":{"android":"levelo://app?vid=76ece8fc-a2c8-4fe1-b6e2-23ef27dd3943","ios":"levelo://app?vid=76ece8fc-a2c8-4fe1-b6e2-23ef27dd3943"},"vehicle_type_id":"4","last_reported":1758618695,"current_range_meters":10000,"station_id":"ce4bgqh2rcd13ifvqc5g","pricing_plan_id":"cebpf4jnsgd1na2vs0mg"},{"bike_id":"891deb56-83b4-4b84-9cd7-6dc6883896b0","system_id":"levelo_inurba_marseille","lat":43.29246,"lon":5.37621,"is_reserved":false,"is_disabled":false,"rental_uris":{"android":"levelo://app?vid=891deb56-83b4-4b84-9cd7-6dc6883896b0","ios":"levelo://app?vid=891deb56-83b4-4b84-9cd7-6dc6883896b0"},"vehicle_type_id":"4","last_reported":1758618695,"current_range_meters":10800,"station_id":"ce4bgi12rcd13ifvqb80","pricing_plan_id":"cebpf4jnsgd1na2vs0mg"},{"bike_id":"bdb28066-b6f1-416b-9392-c9fb5675cb1a","system_id":"levelo_inurba_marseille","lat":43.29266,"lon":5.38439,"is_reserved":false,"is_disabled":false,"rental_uris":{"android":"levelo://app?vid=bdb28066-b6f1-416b-9392-c9fb5675cb1a","ios":"levelo://app?vid=bdb28066-b6f1-416b-9392-c9fb5675cb1a"},"vehicle_type_id":"4","last_reported":1758618695,"current_range_meters":10800,"station_id":"ce4bh692rcd13ifvqea0","pricing_plan_id":"cebpf4jnsgd1na2vs0mg"},{"bike_id":"7eeba4e4-b501-4b5e-a922-0ff3a9e986a6","system_id":"levelo_inurba_marseille","lat":43.23186,"lon":5.35561,"is_reserved":false,"is_disabled":false,"rental_uris":{"android":"levelo://app?vid=7eeba4e4-b501-4b5e-a922-0ff3a9e986a6","ios":"levelo://app?vid=7eeba4e4-b501-4b5e-a922-0ff3a9e986a6"},"vehicle_type_id":"4","last_reported":1758618695,"current_range_meters":10800,"station_id":"ce4bhu92rcd13ifvqi70","pricing_plan_id":"cebpf4jnsgd1na2vs0mg"},{"bike_id":"4bd99102-57b6-4acf-a1f9-d448906c94db","system_id":"levelo_inurba_marseille","lat":43.24169,"lon":5.363975,"is_reserved":false,"is_disabled":false,"rental_uris":{"android":"levelo://app?vid=4bd99102-57b6-4acf-a1f9-d448906c94db","ios":"levelo://app?vid=4bd99102-57b6-4acf-a1f9-d448906c94db"},"vehicle_type_id":"4","last_reported":1758618695,"current_range_meters":10800,"station_id":"cpo36qri1sfpv3e86is0","pricing_plan_id":"cebpf4jnsgd1na2vs0mg"},{"bike_id":"6a75a1c3-85b4-4cea-bedf-ea10431ba81e","system_id":"levelo_inurba_marseille","lat":43.3056,"lon":5.36543,"is_reserved":false,"is_disabled":false,"rental_uris":{"android":"levelo://app?vid=6a75a1c3-85b4-4cea-bedf-ea10431ba81e","ios":"levelo://app?vid=6a75a1c3-85b4-4cea-bedf-ea10431ba81e"},"vehicle_type_id":"4","last_reported":1758618695,"current_range_meters":10800,"station_id":"ce4bgs12rcd13ifvqcag","pricing_plan_id":"cebpf4jnsgd1na2vs0mg"},{"bike_id":"eb14e0c2-3194-45ec-8471-2fc50af87dad","system_id":"levelo_inurba_marseille","lat":43.22935,"lon":5.35393,"is_reserved":false,"is_disabled":false,"rental_uris":{"android":"levelo://app?vid=eb14e0c2-3194-45ec-8471-2fc50af87dad","ios":"levelo://app?vid=eb14e0c2-3194-45ec-8471-2fc50af87dad"},"vehicle_type_id":"4","last_reported":1758618695,"current_range_meters":11200,"station_id":"cpo3532slgdg3j2ikp40","pricing_plan_id":"cebpf4jnsgd1na2vs0mg"},{"bike_id":"d6892ced-68b2-4c0a-8b78-e0080257d6fa","system_id":"levelo_inurba_marseille","lat":43.312054,"lon":5.368588,"is_reserved":false,"is_disabled":true,"rental_uris":{"android":"levelo://app?vid=d6892ced-68b2-4c0a-8b78-e0080257d6fa","ios":"levelo://app?vid=d6892ced-68b2-4c0a-8b78-e0080257d6fa"},"vehicle_type_id":"4","last_reported":1758618695,"current_range_meters":11200,"station_id":"ce4bgl92rcd13ifvqbq0","pricing_plan_id":"cebpf4jnsgd1na2vs0mg"},{"bike_id":"ef75d15d-c28a-4fe7-853a-ed887e41d629","system_id":"levelo_inurba_marseille","lat":43.21746,"lon":5.34608,"is_reserved":false,"is_disabled":false,"rental_uris":{"android":"levelo://app?vid=ef75d15d-c28a-4fe7-853a-ed887e41d629","ios":"levelo://app?vid=ef75d15d-c28a-4fe7-853a-ed887e41d629"},"vehicle_type_id":"4","last_reported":1758618695,"current_range_meters":11200,"station_id":"st_cvj6r9ubvosntc0bgbag","pricing_plan_id":"cebpf4jnsgd1na2vs0mg"},{"bike_id":"94d430e6-52b3-4d21-80c9-c6dd4519a8fb","system_id":"levelo_inurba_marseille","lat":43.31766,"lon":5.38286,"is_reserved":false,"is_disabled":false,"rental_uris":{"android":"levelo://app?vid=94d430e6-52b3-4d21-80c9-c6dd4519a8fb","ios":"levelo://app?vid=94d430e6-52b3-4d21-80c9-c6dd4519a8fb"},"vehicle_type_id":"4","last_reported":1758618695,"current_range_meters":11200,"station_id":"","pricing_plan_id":"cebpf4jnsgd1na2vs0mg"},{"bike_id":"156ba3ee-2d05-4060-9b3c-44e608592be0","system_id":"levelo_inurba_marseille","lat":43.27984,"lon":5.41666,"is_reserved":false,"is_disabled":true,"rental_uris":{"android":"levelo://app?vid=156ba3ee-2d05-4060-9b3c-44e608592be0","ios":"levelo://app?vid=156ba3ee-2d05-4060-9b3c-44e608592be0"},"vehicle_type_id":"4","last_reported":1758618695,"current_range_meters":11200,"station_id":"ce4bho12rcd13ifvqh1g","pricing_plan_id":"cebpf4jnsgd1na2vs0mg"},{"bike_id":"b0cf2af9-c8f7-4165-98a7-6358a8f914d1","system_id":"levelo_inurba_marseille","lat":43.27061,"lon":5.42278,"is_reserved":false,"is_disabled":false,"rental_uris":{"android":"levelo://app?vid=b0cf2af9-c8f7-4165-98a7-6358a8f914d1","ios":"levelo://app?vid=b0cf2af9-c8f7-4165-98a7-6358a8f914d1"},"vehicle_type_id":"4","last_reported":1758618695,"current_range_meters":11600,"station_id":"ce4bhk92rcd13ifvqgb0","pricing_plan_id":"cebpf4jnsgd1na2vs0mg"},{"bike_id":"94b0e687-6d1a-4a51-86bb-f03fcbed6738","system_id":"levelo_inurba_marseille","lat":43.30272,"lon":5.37705,"is_reserved":false,"is_disabled":false,"rental_uris":{"android":"levelo://app?vid=94b0e687-6d1a-4a51-86bb-f03fcbed6738","ios":"levelo://app?vid=94b0e687-6d1a-4a51-86bb-f03fcbed6738"},"vehicle_type_id":"4","last_reported":1758618695,"current_range_meters":11200,"station_id":"ce4bguh2rcd13ifvqcj0","pricing_plan_id":"cebpf4jnsgd1na2vs0mg"},{"bike_id":"49d9eb13-9c16-42a5-8b0a-553a0ab4ac5f","system_id":"levelo_inurba_marseille","lat":43.33605,"lon":5.41017,"is_reserved":false,"is_disabled":false,"rental_uris":{"android":"levelo://app?vid=49d9eb13-9c16-42a5-8b0a-553a0ab4ac5f","ios":"levelo://app?vid=49d9eb13-9c16-42a5-8b0a-553a0ab4ac5f"},"vehicle_type_id":"4","last_reported":1758618695,"current_range_meters":11200,"station_id":"ce4bhqh2rcd13ifvqhmg","pricing_plan_id":"cebpf4jnsgd1na2vs0mg"},{"bike_id":"2fd44255-3b74-4ddc-8ed2-6e10fa21a0d0","system_id":"levelo_inurba_marseille","lat":43.3355,"lon":5.41015,"is_reserved":false,"is_disabled":false,"rental_uris":{"android":"levelo://app?vid=2fd44255-3b74-4ddc-8ed2-6e10fa21a0d0","ios":"levelo://app?vid=2fd44255-3b74-4ddc-8ed2-6e10fa21a0d0"},"vehicle_type_id":"4","last_reported":1758618695,"current_range_meters":11600,"station_id":"","pricing_plan_id":"cebpf4jnsgd1na2vs0mg"},{"bike_id":"05ffe9a6-4a01-4566-a6c5-04b47ca5b439","system_id":"levelo_inurba_marseille","lat":43.24049,"lon":5.37769,"is_reserved":false,"is_disabled":false,"rental_uris":{"android":"levelo://app?vid=05ffe9a6-4a01-4566-a6c5-04b47ca5b439","ios":"levelo://app?vid=05ffe9a6-4a01-4566-a6c5-04b47ca5b439"},"vehicle_type_id":"4","last_reported":1758618695,"current_range_meters":11600,"station_id":"","pricing_plan_id":"cebpf4jnsgd1na2vs0mg"},{"bike_id":"84ba08bc-db74-4dee-8f1c-5253c904524e","system_id":"levelo_inurba_marseille","lat":43.30442,"lon":5.39732,"is_reserved":false,"is_disabled":false,"rental_uris":{"android":"levelo://app?vid=84ba08bc-db74-4dee-8f1c-5253c904524e","ios":"levelo://app?vid=84ba08bc-db74-4dee-8f1c-5253c904524e"},"vehicle_type_id":"4","last_reported":1758618695,"current_range_meters":10000,"station_id":"","pricing_plan_id":"cebpf4jnsgd1na2vs0mg"},{"bike_id":"a16efe13-3bc8-496d-a108-6a48964c1eed","system_id":"levelo_inurba_marseille","lat":43.31483,"lon":5.37308,"is_reserved":false,"is_disabled":false,"rental_uris":{"android":"levelo://app?vid=a16efe13-3bc8-496d-a108-6a48964c1eed","ios":"levelo://app?vid=a16efe13-3bc8-496d-a108-6a48964c1eed"},"vehicle_type_id":"4","last_reported":1758618695,"current_range_meters":11600,"station_id":"ce4bgt12rcd13ifvqcd0","pricing_plan_id":"cebpf4jnsgd1na2vs0mg"},{"bike_id":"8d243e83-cc74-44d3-bf18-f20421549672","system_id":"levelo_inurba_marseille","lat":43.28927,"lon":5.35919,"is_reserved":false,"is_disabled":false,"rental_uris":{"android":"levelo://app?vid=8d243e83-cc74-44d3-bf18-f20421549672","ios":"levelo://app?vid=8d243e83-cc74-44d3-bf18-f20421549672"},"vehicle_type_id":"4","last_reported":1758618695,"current_range_meters":11600,"station_id":"","pricing_plan_id":"cebpf4jnsgd1na2vs0mg"},{"bike_id":"589b56fc-edee-4378-b101-fb2683d988b2","system_id":"levelo_inurba_marseille","lat":43.30558,"lon":5.36528,"is_reserved":false,"is_disabled":false,"rental_uris":{"android":"levelo://app?vid=589b56fc-edee-4378-b101-fb2683d988b2","ios":"levelo://app?vid=589b56fc-edee-4378-b101-fb2683d988b2"},"vehicle_type_id":"4","last_reported":1758618695,"current_range_meters":11600,"station_id":"ce4bgs12rcd13ifvqcag","pricing_plan_id":"cebpf4jnsgd1na2vs0mg"},{"bike_id":"a5dffa5c-2a43-49a9-90f1-f8a0e6794080","system_id":"levelo_inurba_marseille","lat":43.31357,"lon":5.3849,"is_reserved":false,"is_disabled":false,"rental_uris":{"android":"levelo://app?vid=a5dffa5c-2a43-49a9-90f1-f8a0e6794080","ios":"levelo://app?vid=a5dffa5c-2a43-49a9-90f1-f8a0e6794080"},"vehicle_type_id":"4","last_reported":1758618695,"current_range_meters":11600,"station_id":"ce4bgt92rcd13ifvqcf0","pricing_plan_id":"cebpf4jnsgd1na2vs0mg"},{"bike_id":"0ceafd37-2aa0-4518-a2ed-2ee38ccb4b03","system_id":"levelo_inurba_marseille","lat":43.24084,"lon":5.3776,"is_reserved":false,"is_disabled":false,"rental_uris":{"android":"levelo://app?vid=0ceafd37-2aa0-4518-a2ed-2ee38ccb4b03","ios":"levelo://app?vid=0ceafd37-2aa0-4518-a2ed-2ee38ccb4b03"},"vehicle_type_id":"4","last_reported":1758618695,"current_range_meters":12000,"station_id":"ce4bhnp2rcd13ifvqgvg","pricing_plan_id":"cebpf4jnsgd1na2vs0mg"},{"bike_id":"7ed3e504-3bf5-49f4-9c8d-1bd65653f9f8","system_id":"levelo_inurba_marseille","lat":43.30426,"lon":5.38894,"is_reserved":false,"is_disabled":false,"rental_uris":{"android":"levelo://app?vid=7ed3e504-3bf5-49f4-9c8d-1bd65653f9f8","ios":"levelo://app?vid=7ed3e504-3bf5-49f4-9c8d-1bd65653f9f8"},"vehicle_type_id":"4","last_reported":1758618695,"current_range_meters":11600,"station_id":"ce4bgk12rcd13ifvqbi0","pricing_plan_id":"cebpf4jnsgd1na2vs0mg"},{"bike_id":"2345dc8f-367b-47cc-bfc4-7da80cfd21e9","system_id":"levelo_inurba_marseille","lat":43.26219,"lon":5.40451,"is_reserved":false,"is_disabled":false,"rental_uris":{"android":"levelo://app?vid=2345dc8f-367b-47cc-bfc4-7da80cfd21e9","ios":"levelo://app?vid=2345dc8f-367b-47cc-bfc4-7da80cfd21e9"},"vehicle_type_id":"4","last_reported":1758618695,"current_range_meters":12400,"station_id":"ce4bhmh2rcd13ifvqgmg","pricing_plan_id":"cebpf4jnsgd1na2vs0mg"},{"bike_id":"2ccf71b7-f55a-4b8d-89a9-413be1e86c02","system_id":"levelo_inurba_marseille","lat":43.25576,"lon":5.38242,"is_reserved":false,"is_disabled":false,"rental_uris":{"android":"levelo://app?vid=2ccf71b7-f55a-4b8d-89a9-413be1e86c02","ios":"levelo://app?vid=2ccf71b7-f55a-4b8d-89a9-413be1e86c02"},"vehicle_type_id":"4","last_reported":1758618695,"current_range_meters":12400,"station_id":"ce4bhih2rcd13ifvqfs0","pricing_plan_id":"cebpf4jnsgd1na2vs0mg"},{"bike_id":"5337dcdc-c6f5-44ae-a466-a1ebe14dfbb3","system_id":"levelo_inurba_marseille","lat":43.241688,"lon":5.364074,"is_reserved":false,"is_disabled":false,"rental_uris":{"android":"levelo://app?vid=5337dcdc-c6f5-44ae-a466-a1ebe14dfbb3","ios":"levelo://app?vid=5337dcdc-c6f5-44ae-a466-a1ebe14dfbb3"},"vehicle_type_id":"4","last_reported":1758618695,"current_range_meters":12400,"station_id":"cpo36qri1sfpv3e86is0","pricing_plan_id":"cebpf4jnsgd1na2vs0mg"},{"bike_id":"699f58bc-09c0-4eba-872f-d2db81069998","system_id":"levelo_inurba_marseille","lat":43.30946,"lon":5.39065,"is_reserved":false,"is_disabled":false,"rental_uris":{"android":"levelo://app?vid=699f58bc-09c0-4eba-872f-d2db81069998","ios":"levelo://app?vid=699f58bc-09c0-4eba-872f-d2db81069998"},"vehicle_type_id":"4","last_reported":1758618695,"current_range_meters":12400,"station_id":"ce4bgup2rcd13ifvqco0","pricing_plan_id":"cebpf4jnsgd1na2vs0mg"},{"bike_id":"23a104e0-8f24-4f5d-99b9-13d88742e65c","system_id":"levelo_inurba_marseille","lat":43.26195,"lon":5.37917,"is_reserved":false,"is_disabled":false,"rental_uris":{"android":"levelo://app?vid=23a104e0-8f24-4f5d-99b9-13d88742e65c","ios":"levelo://app?vid=23a104e0-8f24-4f5d-99b9-13d88742e65c"},"vehicle_type_id":"4","last_reported":1758618695,"current_range_meters":12800,"station_id":"ce4bhjp2rcd13ifvqg90","pricing_plan_id":"cebpf4jnsgd1na2vs0mg"},{"bike_id":"df458c39-3aaa-4d4d-a996-5646e83d6288","system_id":"levelo_inurba_marseille","lat":43.28996,"lon":5.35615,"is_reserved":false,"is_disabled":false,"rental_uris":{"android":"levelo://app?vid=df458c39-3aaa-4d4d-a996-5646e83d6288","ios":"levelo://app?vid=df458c39-3aaa-4d4d-a996-5646e83d6288"},"vehicle_type_id":"4","last_reported":1758618695,"current_range_meters":12400,"station_id":"ce4bhb92rcd13ifvqen0","pricing_plan_id":"cebpf4jnsgd1na2vs0mg"},{"bike_id":"2027eb0b-28d1-4d48-84d2-390e5a89aebc","system_id":"levelo_inurba_marseille","lat":43.25382,"lon":5.38294,"is_reserved":false,"is_disabled":false,"rental_uris":{"android":"levelo://app?vid=2027eb0b-28d1-4d48-84d2-390e5a89aebc","ios":"levelo://app?vid=2027eb0b-28d1-4d48-84d2-390e5a89aebc"},"vehicle_type_id":"4","last_reported":1758618695,"current_range_meters":13600,"station_id":"ce4bhih2rcd13ifvqfs0","pricing_plan_id":"cebpf4jnsgd1na2vs0mg"},{"bike_id":"c8a40297-3031-42d7-9046-86d186c76d67","system_id":"levelo_inurba_marseille","lat":43.27502,"lon":5.42448,"is_reserved":false,"is_disabled":false,"rental_uris":{"android":"levelo://app?vid=c8a40297-3031-42d7-9046-86d186c76d67","ios":"levelo://app?vid=c8a40297-3031-42d7-9046-86d186c76d67"},"vehicle_type_id":"4","last_reported":1758618695,"current_range_meters":13600,"station_id":"ce4bhn92rcd13ifvqgrg","pricing_plan_id":"cebpf4jnsgd1na2vs0mg"},{"bike_id":"1f3279b2-02d2-4948-ad01-b1cda410e6d1","system_id":"levelo_inurba_marseille","lat":43.31365,"lon":5.38495,"is_reserved":false,"is_disabled":false,"rental_uris":{"android":"levelo://app?vid=1f3279b2-02d2-4948-ad01-b1cda410e6d1","ios":"levelo://app?vid=1f3279b2-02d2-4948-ad01-b1cda410e6d1"},"vehicle_type_id":"4","last_reported":1758618695,"current_range_meters":13600,"station_id":"ce4bgt92rcd13ifvqcf0","pricing_plan_id":"cebpf4jnsgd1na2vs0mg"},{"bike_id":"6d37a9bc-58da-48d0-af29-c0508dfff581","system_id":"levelo_inurba_marseille","lat":43.259351,"lon":5.409078,"is_reserved":false,"is_disabled":false,"rental_uris":{"android":"levelo://app?vid=6d37a9bc-58da-48d0-af29-c0508dfff581","ios":"levelo://app?vid=6d37a9bc-58da-48d0-af29-c0508dfff581"},"vehicle_type_id":"4","last_reported":1758618695,"current_range_meters":13600,"station_id":"ce4bhm92rcd13ifvqglg","pricing_plan_id":"cebpf4jnsgd1na2vs0mg"},{"bike_id":"2a2f1ce0-5eb2-4ab6-a692-64d9649dcb94","system_id":"levelo_inurba_marseille","lat":43.22565,"lon":5.41633,"is_reserved":false,"is_disabled":false,"rental_uris":{"android":"levelo://app?vid=2a2f1ce0-5eb2-4ab6-a692-64d9649dcb94","ios":"levelo://app?vid=2a2f1ce0-5eb2-4ab6-a692-64d9649dcb94"},"vehicle_type_id":"4","last_reported":1758618695,"current_range_meters":13600,"station_id":"st_d2o4gvlbi1j2169b742g","pricing_plan_id":"cebpf4jnsgd1na2vs0mg"},{"bike_id":"eba01587-aeed-4123-b2ce-9abc98879f91","system_id":"levelo_inurba_marseille","lat":43.27085,"lon":5.42296,"is_reserved":false,"is_disabled":false,"rental_uris":{"android":"levelo://app?vid=eba01587-aeed-4123-b2ce-9abc98879f91","ios":"levelo://app?vid=eba01587-aeed-4123-b2ce-9abc98879f91"},"vehicle_type_id":"4","last_reported":1758618695,"current_range_meters":14000,"station_id":"ce4bhk92rcd13ifvqgb0","pricing_plan_id":"cebpf4jnsgd1na2vs0mg"},{"bike_id":"36f59c8d-fcf6-4ab2-8f57-cf61bb820dbb","system_id":"levelo_inurba_marseille","lat":43.25921,"lon":5.40896,"is_reserved":false,"is_disabled":false,"rental_uris":{"android":"levelo://app?vid=36f59c8d-fcf6-4ab2-8f57-cf61bb820dbb","ios":"levelo://app?vid=36f59c8d-fcf6-4ab2-8f57-cf61bb820dbb"},"vehicle_type_id":"4","last_reported":1758618695,"current_range_meters":14000,"station_id":"ce4bhm92rcd13ifvqglg","pricing_plan_id":"cebpf4jnsgd1na2vs0mg"},{"bike_id":"0d93d80f-23fc-4b4f-918d-28fde704208b","system_id":"levelo_inurba_marseille","lat":43.24168,"lon":5.36392,"is_reserved":false,"is_disabled":false,"rental_uris":{"android":"levelo://app?vid=0d93d80f-23fc-4b4f-918d-28fde704208b","ios":"levelo://app?vid=0d93d80f-23fc-4b4f-918d-28fde704208b"},"vehicle_type_id":"4","last_reported":1758618695,"current_range_meters":14000,"station_id":"cpo36qri1sfpv3e86is0","pricing_plan_id":"cebpf4jnsgd1na2vs0mg"},{"bike_id":"c4b31d7d-778c-44b2-88ee-d60c602e08a2","system_id":"levelo_inurba_marseille","lat":43.27563,"lon":5.38414,"is_reserved":false,"is_disabled":false,"rental_uris":{"android":"levelo://app?vid=c4b31d7d-778c-44b2-88ee-d60c602e08a2","ios":"levelo://app?vid=c4b31d7d-778c-44b2-88ee-d60c602e08a2"},"vehicle_type_id":"4","last_reported":1758618695,"current_range_meters":14000,"station_id":"ce4bhh92rcd13ifvqfi0","pricing_plan_id":"cebpf4jnsgd1na2vs0mg"},{"bike_id":"3a2f0200-19f6-4563-8356-bbb5c698396a","system_id":"levelo_inurba_marseille","lat":43.21749,"lon":5.34593,"is_reserved":false,"is_disabled":false,"rental_uris":{"android":"levelo://app?vid=3a2f0200-19f6-4563-8356-bbb5c698396a","ios":"levelo://app?vid=3a2f0200-19f6-4563-8356-bbb5c698396a"},"vehicle_type_id":"4","last_reported":1758618695,"current_range_meters":14000,"station_id":"st_cvj6r9ubvosntc0bgbag","pricing_plan_id":"cebpf4jnsgd1na2vs0mg"},{"bike_id":"358ffd8f-ecf7-4e5e-a5d3-f96c86573e30","system_id":"levelo_inurba_marseille","lat":43.29166,"lon":5.37151,"is_reserved":false,"is_disabled":false,"rental_uris":{"android":"levelo://app?vid=358ffd8f-ecf7-4e5e-a5d3-f96c86573e30","ios":"levelo://app?vid=358ffd8f-ecf7-4e5e-a5d3-f96c86573e30"},"vehicle_type_id":"4","last_reported":1758618695,"current_range_meters":14000,"station_id":"ce4bha92rcd13ifvqeh0","pricing_plan_id":"cebpf4jnsgd1na2vs0mg"},{"bike_id":"30bb83fe-1759-4439-94c7-873da2c2a5e5","system_id":"levelo_inurba_marseille","lat":43.23126,"lon":5.43696,"is_reserved":false,"is_disabled":false,"rental_uris":{"android":"levelo://app?vid=30bb83fe-1759-4439-94c7-873da2c2a5e5","ios":"levelo://app?vid=30bb83fe-1759-4439-94c7-873da2c2a5e5"},"vehicle_type_id":"4","last_reported":1758618695,"current_range_meters":14400,"station_id":"ce4bhmp2rcd13ifvqgog","pricing_plan_id":"cebpf4jnsgd1na2vs0mg"},{"bike_id":"18074abd-26a6-46db-be9e-24d31b8eb642","system_id":"levelo_inurba_marseille","lat":43.26202,"lon":5.37928,"is_reserved":false,"is_disabled":false,"rental_uris":{"android":"levelo://app?vid=18074abd-26a6-46db-be9e-24d31b8eb642","ios":"levelo://app?vid=18074abd-26a6-46db-be9e-24d31b8eb642"},"vehicle_type_id":"4","last_reported":1758618695,"current_range_meters":14800,"station_id":"ce4bhjp2rcd13ifvqg90","pricing_plan_id":"cebpf4jnsgd1na2vs0mg"},{"bike_id":"8a464ed2-8389-407f-886d-dc76dd7440ef","system_id":"levelo_inurba_marseille","lat":43.3095,"lon":5.39036,"is_reserved":false,"is_disabled":false,"rental_uris":{"android":"levelo://app?vid=8a464ed2-8389-407f-886d-dc76dd7440ef","ios":"levelo://app?vid=8a464ed2-8389-407f-886d-dc76dd7440ef"},"vehicle_type_id":"4","last_reported":1758618695,"current_range_meters":14800,"station_id":"ce4bgup2rcd13ifvqco0","pricing_plan_id":"cebpf4jnsgd1na2vs0mg"},{"bike_id":"5923b342-719e-4cbf-b408-19b6a9d906d5","system_id":"levelo_inurba_marseille","lat":43.24997,"lon":5.38941,"is_reserved":false,"is_disabled":false,"rental_uris":{"android":"levelo://app?vid=5923b342-719e-4cbf-b408-19b6a9d906d5","ios":"levelo://app?vid=5923b342-719e-4cbf-b408-19b6a9d906d5"},"vehicle_type_id":"4","last_reported":1758618695,"current_range_meters":14800,"station_id":"ce4bhgp2rcd13ifvqfd0","pricing_plan_id":"cebpf4jnsgd1na2vs0mg"},{"bike_id":"6ac17a81-0487-4557-9f83-8f554f6e083e","system_id":"levelo_inurba_marseille","lat":43.32027,"lon":5.37142,"is_reserved":false,"is_disabled":false,"rental_uris":{"android":"levelo://app?vid=6ac17a81-0487-4557-9f83-8f554f6e083e","ios":"levelo://app?vid=6ac17a81-0487-4557-9f83-8f554f6e083e"},"vehicle_type_id":"4","last_reported":1758618695,"current_range_meters":14800,"station_id":"","pricing_plan_id":"cebpf4jnsgd1na2vs0mg"},{"bike_id":"5e739eb5-1e6c-406c-a378-51ccd6b5e27f","system_id":"levelo_inurba_marseille","lat":43.30468,"lon":5.37908,"is_reserved":false,"is_disabled":false,"rental_uris":{"android":"levelo://app?vid=5e739eb5-1e6c-406c-a378-51ccd6b5e27f","ios":"levelo://app?vid=5e739eb5-1e6c-406c-a378-51ccd6b5e27f"},"vehicle_type_id":"4","last_reported":1758618695,"current_range_meters":14800,"station_id":"ce4bgup2rcd13ifvqcn0","pricing_plan_id":"cebpf4jnsgd1na2vs0mg"},{"bike_id":"84c608ac-f09e-4b4c-8d2e-e76ecdadec90","system_id":"levelo_inurba_marseille","lat":43.3302,"lon":5.39043,"is_reserved":false,"is_disabled":false,"rental_uris":{"android":"levelo://app?vid=84c608ac-f09e-4b4c-8d2e-e76ecdadec90","ios":"levelo://app?vid=84c608ac-f09e-4b4c-8d2e-e76ecdadec90"},"vehicle_type_id":"4","last_reported":1758618695,"current_range_meters":15200,"station_id":"ce4bhr92rcd13ifvqhrg","pricing_plan_id":"cebpf4jnsgd1na2vs0mg"},{"bike_id":"2db17ebf-30c0-4484-b4df-5e514cd2afe3","system_id":"levelo_inurba_marseille","lat":43.2396,"lon":5.36629,"is_reserved":false,"is_disabled":false,"rental_uris":{"android":"levelo://app?vid=2db17ebf-30c0-4484-b4df-5e514cd2afe3","ios":"levelo://app?vid=2db17ebf-30c0-4484-b4df-5e514cd2afe3"},"vehicle_type_id":"4","last_reported":1758618695,"current_range_meters":14800,"station_id":"ce4bhi12rcd13ifvqfp0","pricing_plan_id":"cebpf4jnsgd1na2vs0mg"},{"bike_id":"5b1a36c8-304b-48bf-aa9d-28113bdf9ed6","system_id":"levelo_inurba_marseille","lat":43.30357,"lon":5.42499,"is_reserved":false,"is_disabled":false,"rental_uris":{"android":"levelo://app?vid=5b1a36c8-304b-48bf-aa9d-28113bdf9ed6","ios":"levelo://app?vid=5b1a36c8-304b-48bf-aa9d-28113bdf9ed6"},"vehicle_type_id":"4","last_reported":1758618695,"current_range_meters":14800,"station_id":"ce4bhoh2rcd13ifvqh6g","pricing_plan_id":"cebpf4jnsgd1na2vs0mg"},{"bike_id":"0608c3f7-948f-49ac-9b56-1f360d71d4f8","system_id":"levelo_inurba_marseille","lat":43.26053,"lon":5.39399,"is_reserved":false,"is_disabled":false,"rental_uris":{"android":"levelo://app?vid=0608c3f7-948f-49ac-9b56-1f360d71d4f8","ios":"levelo://app?vid=0608c3f7-948f-49ac-9b56-1f360d71d4f8"},"vehicle_type_id":"4","last_reported":1758618695,"current_range_meters":14400,"station_id":"ce4bhh92rcd13ifvqfj0","pricing_plan_id":"cebpf4jnsgd1na2vs0mg"},{"bike_id":"0d79d553-cff5-4cc9-94f1-556181f1351a","system_id":"levelo_inurba_marseille","lat":43.2655,"lon":5.39034,"is_reserved":false,"is_disabled":false,"rental_uris":{"android":"levelo://app?vid=0d79d553-cff5-4cc9-94f1-556181f1351a","ios":"levelo://app?vid=0d79d553-cff5-4cc9-94f1-556181f1351a"},"vehicle_type_id":"4","last_reported":1758618695,"current_range_meters":14800,"station_id":"ce4bhe12rcd13ifvqf30","pricing_plan_id":"cebpf4jnsgd1na2vs0mg"},{"bike_id":"7c0482c3-9253-4d1b-b4f3-be55cdb7721d","system_id":"levelo_inurba_marseille","lat":43.33757,"lon":5.37466,"is_reserved":false,"is_disabled":false,"rental_uris":{"android":"levelo://app?vid=7c0482c3-9253-4d1b-b4f3-be55cdb7721d","ios":"levelo://app?vid=7c0482c3-9253-4d1b-b4f3-be55cdb7721d"},"vehicle_type_id":"4","last_reported":1758618695,"current_range_meters":15200,"station_id":"","pricing_plan_id":"cebpf4jnsgd1na2vs0mg"},{"bike_id":"ed883389-1672-49b0-a5c4-8def0ee0fc42","system_id":"levelo_inurba_marseille","lat":43.274934,"lon":5.424576,"is_reserved":false,"is_disabled":false,"rental_uris":{"android":"levelo://app?vid=ed883389-1672-49b0-a5c4-8def0ee0fc42","ios":"levelo://app?vid=ed883389-1672-49b0-a5c4-8def0ee0fc42"},"vehicle_type_id":"4","last_reported":1758618695,"current_range_meters":15200,"station_id":"ce4bhn92rcd13ifvqgrg","pricing_plan_id":"cebpf4jnsgd1na2vs0mg"},{"bike_id":"84ed6c5f-ee83-4d29-9c03-bc2c90d6c59c","system_id":"levelo_inurba_marseille","lat":43.30532,"lon":5.367,"is_reserved":false,"is_disabled":false,"rental_uris":{"android":"levelo://app?vid=84ed6c5f-ee83-4d29-9c03-bc2c90d6c59c","ios":"levelo://app?vid=84ed6c5f-ee83-4d29-9c03-bc2c90d6c59c"},"vehicle_type_id":"4","last_reported":1758618695,"current_range_meters":15200,"station_id":"ce4bgrp2rcd13ifvqc9g","pricing_plan_id":"cebpf4jnsgd1na2vs0mg"},{"bike_id":"15423504-9c16-4009-bcf1-842d5b568c1e","system_id":"levelo_inurba_marseille","lat":43.29837,"lon":5.36283,"is_reserved":false,"is_disabled":false,"rental_uris":{"android":"levelo://app?vid=15423504-9c16-4009-bcf1-842d5b568c1e","ios":"levelo://app?vid=15423504-9c16-4009-bcf1-842d5b568c1e"},"vehicle_type_id":"4","last_reported":1758618695,"current_range_meters":15200,"station_id":"ce4bgpp2rcd13ifvqc3g","pricing_plan_id":"cebpf4jnsgd1na2vs0mg"},{"bike_id":"525835fd-d9ee-49a9-8fe3-1cd4f3d5dd55","system_id":"levelo_inurba_marseille","lat":43.2866,"lon":5.38666,"is_reserved":false,"is_disabled":false,"rental_uris":{"android":"levelo://app?vid=525835fd-d9ee-49a9-8fe3-1cd4f3d5dd55","ios":"levelo://app?vid=525835fd-d9ee-49a9-8fe3-1cd4f3d5dd55"},"vehicle_type_id":"4","last_reported":1758618695,"current_range_meters":15200,"station_id":"ce4bh492rcd13ifvqdug","pricing_plan_id":"cebpf4jnsgd1na2vs0mg"},{"bike_id":"f80f318c-9dd2-4c2c-b730-86c451cb981c","system_id":"levelo_inurba_marseille","lat":43.30131,"lon":5.3742,"is_reserved":false,"is_disabled":false,"rental_uris":{"android":"levelo://app?vid=f80f318c-9dd2-4c2c-b730-86c451cb981c","ios":"levelo://app?vid=f80f318c-9dd2-4c2c-b730-86c451cb981c"},"vehicle_type_id":"4","last_reported":1758618695,"current_range_meters":15200,"station_id":"ce4bgs92rcd13ifvqcc0","pricing_plan_id":"cebpf4jnsgd1na2vs0mg"},{"bike_id":"d98c4996-ff4f-411b-a5b3-480a46717007","system_id":"levelo_inurba_marseille","lat":43.281088,"lon":5.404926,"is_reserved":false,"is_disabled":false,"rental_uris":{"android":"levelo://app?vid=d98c4996-ff4f-411b-a5b3-480a46717007","ios":"levelo://app?vid=d98c4996-ff4f-411b-a5b3-480a46717007"},"vehicle_type_id":"4","last_reported":1758618695,"current_range_meters":15200,"station_id":"ce4bho92rcd13ifvqh3g","pricing_plan_id":"cebpf4jnsgd1na2vs0mg"},{"bike_id":"51a9c263-d6ee-4c02-8240-84e51c074158","system_id":"levelo_inurba_marseille","lat":43.31708,"lon":5.437,"is_reserved":false,"is_disabled":false,"rental_uris":{"android":"levelo://app?vid=51a9c263-d6ee-4c02-8240-84e51c074158","ios":"levelo://app?vid=51a9c263-d6ee-4c02-8240-84e51c074158"},"vehicle_type_id":"4","last_reported":1758618695,"current_range_meters":15200,"station_id":"ce4bhp92rcd13ifvqhcg","pricing_plan_id":"cebpf4jnsgd1na2vs0mg"},{"bike_id":"43d57fd4-047e-4ac8-97e5-ec9b96239472","system_id":"levelo_inurba_marseille","lat":43.33231,"lon":5.39821,"is_reserved":false,"is_disabled":false,"rental_uris":{"android":"levelo://app?vid=43d57fd4-047e-4ac8-97e5-ec9b96239472","ios":"levelo://app?vid=43d57fd4-047e-4ac8-97e5-ec9b96239472"},"vehicle_type_id":"4","last_reported":1758618695,"current_range_meters":15200,"station_id":"","pricing_plan_id":"cebpf4jnsgd1na2vs0mg"},{"bike_id":"443760b4-4ede-4666-8804-a655094e3946","system_id":"levelo_inurba_marseille","lat":43.30909,"lon":5.36854,"is_reserved":false,"is_disabled":false,"rental_uris":{"android":"levelo://app?vid=443760b4-4ede-4666-8804-a655094e3946","ios":"levelo://app?vid=443760b4-4ede-4666-8804-a655094e3946"},"vehicle_type_id":"4","last_reported":1758618695,"current_range_meters":16000,"station_id":"ce4bgn92rcd13ifvqbvg","pricing_plan_id":"cebpf4jnsgd1na2vs0mg"},{"bike_id":"b61e5564-17a4-4460-b4fb-f37680d622fd","system_id":"levelo_inurba_marseille","lat":43.29257,"lon":5.40909,"is_reserved":false,"is_disabled":true,"rental_uris":{"android":"levelo://app?vid=b61e5564-17a4-4460-b4fb-f37680d622fd","ios":"levelo://app?vid=b61e5564-17a4-4460-b4fb-f37680d622fd"},"vehicle_type_id":"4","last_reported":1758618695,"current_range_meters":16000,"station_id":"ce4bh192rcd13ifvqdc0","pricing_plan_id":"cebpf4jnsgd1na2vs0mg"},{"bike_id":"8f63bb28-daf3-434a-b520-4ffc9e66dc1c","system_id":"levelo_inurba_marseille","lat":43.25607,"lon":5.4123,"is_reserved":false,"is_disabled":false,"rental_uris":{"android":"levelo://app?vid=8f63bb28-daf3-434a-b520-4ffc9e66dc1c","ios":"levelo://app?vid=8f63bb28-daf3-434a-b520-4ffc9e66dc1c"},"vehicle_type_id":"4","last_reported":1758618695,"current_range_meters":16000,"station_id":"","pricing_plan_id":"cebpf4jnsgd1na2vs0mg"},{"bike_id":"06a24bce-028d-4b4a-b4a3-d45296145db5","system_id":"levelo_inurba_marseille","lat":43.28425,"lon":5.34991,"is_reserved":false,"is_disabled":true,"rental_uris":{"android":"levelo://app?vid=06a24bce-028d-4b4a-b4a3-d45296145db5","ios":"levelo://app?vid=06a24bce-028d-4b4a-b4a3-d45296145db5"},"vehicle_type_id":"4","last_reported":1758618695,"current_range_meters":16000,"station_id":"ce4bhch2rcd13ifvqeug","pricing_plan_id":"cebpf4jnsgd1na2vs0mg"},{"bike_id":"4db3cb5f-b5c4-47a2-bcab-61d689052960","system_id":"levelo_inurba_marseille","lat":43.31267,"lon":5.40171,"is_reserved":false,"is_disabled":false,"rental_uris":{"android":"levelo://app?vid=4db3cb5f-b5c4-47a2-bcab-61d689052960","ios":"levelo://app?vid=4db3cb5f-b5c4-47a2-bcab-61d689052960"},"vehicle_type_id":"4","last_reported":1758618695,"current_range_meters":16000,"station_id":"ce4bh092rcd13ifvqd30","pricing_plan_id":"cebpf4jnsgd1na2vs0mg"},{"bike_id":"c3eb0715-276b-48a3-bcf1-95995df3f596","system_id":"levelo_inurba_marseille","lat":43.24672,"lon":5.38841,"is_reserved":false,"is_disabled":false,"rental_uris":{"android":"levelo://app?vid=c3eb0715-276b-48a3-bcf1-95995df3f596","ios":"levelo://app?vid=c3eb0715-276b-48a3-bcf1-95995df3f596"},"vehicle_type_id":"4","last_reported":1758618695,"current_range_meters":16000,"station_id":"","pricing_plan_id":"cebpf4jnsgd1na2vs0mg"},{"bike_id":"bd7adc2d-f310-4fc5-83f3-ec6141af50ba","system_id":"levelo_inurba_marseille","lat":43.2558,"lon":5.38232,"is_reserved":false,"is_disabled":false,"rental_uris":{"android":"levelo://app?vid=bd7adc2d-f310-4fc5-83f3-ec6141af50ba","ios":"levelo://app?vid=bd7adc2d-f310-4fc5-83f3-ec6141af50ba"},"vehicle_type_id":"4","last_reported":1758618695,"current_range_meters":16000,"station_id":"ce4bhih2rcd13ifvqfs0","pricing_plan_id":"cebpf4jnsgd1na2vs0mg"},{"bike_id":"c4b6b31d-3739-449c-88da-b4a279b90835","system_id":"levelo_inurba_marseille","lat":43.24994,"lon":5.38925,"is_reserved":false,"is_disabled":false,"rental_uris":{"android":"levelo://app?vid=c4b6b31d-3739-449c-88da-b4a279b90835","ios":"levelo://app?vid=c4b6b31d-3739-449c-88da-b4a279b90835"},"vehicle_type_id":"4","last_reported":1758618695,"current_range_meters":16400,"station_id":"ce4bhgp2rcd13ifvqfd0","pricing_plan_id":"cebpf4jnsgd1na2vs0mg"},{"bike_id":"a91749b4-aaae-4e4f-8268-4431e262dabf","system_id":"levelo_inurba_marseille","lat":43.241747,"lon":5.397221,"is_reserved":false,"is_disabled":false,"rental_uris":{"android":"levelo://app?vid=a91749b4-aaae-4e4f-8268-4431e262dabf","ios":"levelo://app?vid=a91749b4-aaae-4e4f-8268-4431e262dabf"},"vehicle_type_id":"4","last_reported":1758618695,"current_range_meters":16400,"station_id":"ce4bhn12rcd13ifvqgpg","pricing_plan_id":"cebpf4jnsgd1na2vs0mg"},{"bike_id":"68b259be-b663-46e6-a023-34585e7624d2","system_id":"levelo_inurba_marseille","lat":43.24168,"lon":5.36386,"is_reserved":false,"is_disabled":false,"rental_uris":{"android":"levelo://app?vid=68b259be-b663-46e6-a023-34585e7624d2","ios":"levelo://app?vid=68b259be-b663-46e6-a023-34585e7624d2"},"vehicle_type_id":"4","last_reported":1758618695,"current_range_meters":16400,"station_id":"cpo36qri1sfpv3e86is0","pricing_plan_id":"cebpf4jnsgd1na2vs0mg"},{"bike_id":"adc9b767-fa5a-487c-b17d-fb3c376c3f08","system_id":"levelo_inurba_marseille","lat":43.313462,"lon":5.38508,"is_reserved":false,"is_disabled":false,"rental_uris":{"android":"levelo://app?vid=adc9b767-fa5a-487c-b17d-fb3c376c3f08","ios":"levelo://app?vid=adc9b767-fa5a-487c-b17d-fb3c376c3f08"},"vehicle_type_id":"4","last_reported":1758618695,"current_range_meters":16400,"station_id":"","pricing_plan_id":"cebpf4jnsgd1na2vs0mg"},{"bike_id":"3e3ba3cd-76c3-46ee-bff9-2058f4b7ffb5","system_id":"levelo_inurba_marseille","lat":43.23167,"lon":5.43697,"is_reserved":false,"is_disabled":false,"rental_uris":{"android":"levelo://app?vid=3e3ba3cd-76c3-46ee-bff9-2058f4b7ffb5","ios":"levelo://app?vid=3e3ba3cd-76c3-46ee-bff9-2058f4b7ffb5"},"vehicle_type_id":"4","last_reported":1758618695,"current_range_meters":16400,"station_id":"ce4bhmp2rcd13ifvqgog","pricing_plan_id":"cebpf4jnsgd1na2vs0mg"},{"bike_id":"a57ec678-3f9e-4769-a06b-b0e36f8205fe","system_id":"levelo_inurba_marseille","lat":43.23191,"lon":5.39982,"is_reserved":false,"is_disabled":false,"rental_uris":{"android":"levelo://app?vid=a57ec678-3f9e-4769-a06b-b0e36f8205fe","ios":"levelo://app?vid=a57ec678-3f9e-4769-a06b-b0e36f8205fe"},"vehicle_type_id":"4","last_reported":1758618695,"current_range_meters":16400,"station_id":"ce4bhn12rcd13ifvqgqg","pricing_plan_id":"cebpf4jnsgd1na2vs0mg"},{"bike_id":"b1157611-e854-4d6a-90d0-53b049a1120c","system_id":"levelo_inurba_marseille","lat":43.31161,"lon":5.38723,"is_reserved":false,"is_disabled":false,"rental_uris":{"android":"levelo://app?vid=b1157611-e854-4d6a-90d0-53b049a1120c","ios":"levelo://app?vid=b1157611-e854-4d6a-90d0-53b049a1120c"},"vehicle_type_id":"4","last_reported":1758618695,"current_range_meters":16400,"station_id":"ce4bgv12rcd13ifvqcp0","pricing_plan_id":"cebpf4jnsgd1na2vs0mg"},{"bike_id":"487ff905-c3d9-46a9-b748-757208ea915d","system_id":"levelo_inurba_marseille","lat":43.26423,"lon":5.39619,"is_reserved":false,"is_disabled":false,"rental_uris":{"android":"levelo://app?vid=487ff905-c3d9-46a9-b748-757208ea915d","ios":"levelo://app?vid=487ff905-c3d9-46a9-b748-757208ea915d"},"vehicle_type_id":"4","last_reported":1758618695,"current_range_meters":16400,"station_id":"","pricing_plan_id":"cebpf4jnsgd1na2vs0mg"},{"bike_id":"15f0126c-7e31-410d-8d88-412d27fe5839","system_id":"levelo_inurba_marseille","lat":43.2827,"lon":5.35077,"is_reserved":false,"is_disabled":false,"rental_uris":{"android":"levelo://app?vid=15f0126c-7e31-410d-8d88-412d27fe5839","ios":"levelo://app?vid=15f0126c-7e31-410d-8d88-412d27fe5839"},"vehicle_type_id":"4","last_reported":1758618695,"current_range_meters":16400,"station_id":"ce4bhbp2rcd13ifvqerg","pricing_plan_id":"cebpf4jnsgd1na2vs0mg"},{"bike_id":"2a52b0bb-783a-489f-a7b9-793ba892f121","system_id":"levelo_inurba_marseille","lat":43.2533,"lon":5.42171,"is_reserved":false,"is_disabled":false,"rental_uris":{"android":"levelo://app?vid=2a52b0bb-783a-489f-a7b9-793ba892f121","ios":"levelo://app?vid=2a52b0bb-783a-489f-a7b9-793ba892f121"},"vehicle_type_id":"4","last_reported":1758618695,"current_range_meters":16400,"station_id":"st_d2m65c5bi1j21697t3ng","pricing_plan_id":"cebpf4jnsgd1na2vs0mg"},{"bike_id":"5b56ae56-3f83-4f3a-bf98-57685dc316b9","system_id":"levelo_inurba_marseille","lat":43.32455,"lon":5.36566,"is_reserved":false,"is_disabled":false,"rental_uris":{"android":"levelo://app?vid=5b56ae56-3f83-4f3a-bf98-57685dc316b9","ios":"levelo://app?vid=5b56ae56-3f83-4f3a-bf98-57685dc316b9"},"vehicle_type_id":"4","last_reported":1758618695,"current_range_meters":16800,"station_id":"ce4bhs12rcd13ifvqhvg","pricing_plan_id":"cebpf4jnsgd1na2vs0mg"},{"bike_id":"3028cf16-79ad-421b-b812-cce52d52a81c","system_id":"levelo_inurba_marseille","lat":43.3108,"lon":5.42435,"is_reserved":false,"is_disabled":false,"rental_uris":{"android":"levelo://app?vid=3028cf16-79ad-421b-b812-cce52d52a81c","ios":"levelo://app?vid=3028cf16-79ad-421b-b812-cce52d52a81c"},"vehicle_type_id":"4","last_reported":1758618695,"current_range_meters":16800,"station_id":"ce4bhp92rcd13ifvqhag","pricing_plan_id":"cebpf4jnsgd1na2vs0mg"},{"bike_id":"d348838d-dddb-4920-a15f-0af06cb1a6f2","system_id":"levelo_inurba_marseille","lat":43.29531,"lon":5.38546,"is_reserved":false,"is_disabled":false,"rental_uris":{"android":"levelo://app?vid=d348838d-dddb-4920-a15f-0af06cb1a6f2","ios":"levelo://app?vid=d348838d-dddb-4920-a15f-0af06cb1a6f2"},"vehicle_type_id":"4","last_reported":1758618695,"current_range_meters":16800,"station_id":"","pricing_plan_id":"cebpf4jnsgd1na2vs0mg"},{"bike_id":"47fe8ecd-0327-4d83-b8c0-ab7264c95b0b","system_id":"levelo_inurba_marseille","lat":43.245426,"lon":5.395186,"is_reserved":false,"is_disabled":false,"rental_uris":{"android":"levelo://app?vid=47fe8ecd-0327-4d83-b8c0-ab7264c95b0b","ios":"levelo://app?vid=47fe8ecd-0327-4d83-b8c0-ab7264c95b0b"},"vehicle_type_id":"4","last_reported":1758618695,"current_range_meters":16800,"station_id":"ce4bhlp2rcd13ifvqgjg","pricing_plan_id":"cebpf4jnsgd1na2vs0mg"},{"bike_id":"d10c0b40-4044-46a6-87e6-47560ae5780a","system_id":"levelo_inurba_marseille","lat":43.31754,"lon":5.39018,"is_reserved":false,"is_disabled":false,"rental_uris":{"android":"levelo://app?vid=d10c0b40-4044-46a6-87e6-47560ae5780a","ios":"levelo://app?vid=d10c0b40-4044-46a6-87e6-47560ae5780a"},"vehicle_type_id":"4","last_reported":1758618695,"current_range_meters":16400,"station_id":"ce4bhqp2rcd13ifvqhng","pricing_plan_id":"cebpf4jnsgd1na2vs0mg"},{"bike_id":"dddca5ef-4a33-499b-936a-6d8e6136a417","system_id":"levelo_inurba_marseille","lat":43.229346,"lon":5.35383,"is_reserved":false,"is_disabled":false,"rental_uris":{"android":"levelo://app?vid=dddca5ef-4a33-499b-936a-6d8e6136a417","ios":"levelo://app?vid=dddca5ef-4a33-499b-936a-6d8e6136a417"},"vehicle_type_id":"4","last_reported":1758618695,"current_range_meters":16800,"station_id":"cpo3532slgdg3j2ikp40","pricing_plan_id":"cebpf4jnsgd1na2vs0mg"},{"bike_id":"8552fe36-10d8-46fd-997b-c97d2970480a","system_id":"levelo_inurba_marseille","lat":43.3234,"lon":5.36604,"is_reserved":false,"is_disabled":false,"rental_uris":{"android":"levelo://app?vid=8552fe36-10d8-46fd-997b-c97d2970480a","ios":"levelo://app?vid=8552fe36-10d8-46fd-997b-c97d2970480a"},"vehicle_type_id":"4","last_reported":1758618695,"current_range_meters":16800,"station_id":"ce4bhsh2rcd13ifvqi2g","pricing_plan_id":"cebpf4jnsgd1na2vs0mg"},{"bike_id":"ba0d9dc8-ee13-4b5b-a8c6-10b3cbbebd13","system_id":"levelo_inurba_marseille","lat":43.32331,"lon":5.40623,"is_reserved":false,"is_disabled":false,"rental_uris":{"android":"levelo://app?vid=ba0d9dc8-ee13-4b5b-a8c6-10b3cbbebd13","ios":"levelo://app?vid=ba0d9dc8-ee13-4b5b-a8c6-10b3cbbebd13"},"vehicle_type_id":"4","last_reported":1758618695,"current_range_meters":17200,"station_id":"ce4bhq92rcd13ifvqhjg","pricing_plan_id":"cebpf4jnsgd1na2vs0mg"},{"bike_id":"a8c1e87b-1c36-47cc-9eaf-4cfaeeabbd3a","system_id":"levelo_inurba_marseille","lat":43.25338,"lon":5.42169,"is_reserved":false,"is_disabled":false,"rental_uris":{"android":"levelo://app?vid=a8c1e87b-1c36-47cc-9eaf-4cfaeeabbd3a","ios":"levelo://app?vid=a8c1e87b-1c36-47cc-9eaf-4cfaeeabbd3a"},"vehicle_type_id":"4","last_reported":1758618695,"current_range_meters":17200,"station_id":"st_d2m65c5bi1j21697t3ng","pricing_plan_id":"cebpf4jnsgd1na2vs0mg"},{"bike_id":"4c0b651b-953c-4759-a0f7-0074f59a45eb","system_id":"levelo_inurba_marseille","lat":43.25781,"lon":5.39277,"is_reserved":false,"is_disabled":false,"rental_uris":{"android":"levelo://app?vid=4c0b651b-953c-4759-a0f7-0074f59a45eb","ios":"levelo://app?vid=4c0b651b-953c-4759-a0f7-0074f59a45eb"},"vehicle_type_id":"4","last_reported":1758618695,"current_range_meters":17200,"station_id":"","pricing_plan_id":"cebpf4jnsgd1na2vs0mg"},{"bike_id":"3c0fa725-f739-4599-965d-e73d3e7b2c8f","system_id":"levelo_inurba_marseille","lat":43.32376,"lon":5.36735,"is_reserved":false,"is_disabled":false,"rental_uris":{"android":"levelo://app?vid=3c0fa725-f739-4599-965d-e73d3e7b2c8f","ios":"levelo://app?vid=3c0fa725-f739-4599-965d-e73d3e7b2c8f"},"vehicle_type_id":"4","last_reported":1758618695,"current_range_meters":17200,"station_id":"ce4bhsh2rcd13ifvqi2g","pricing_plan_id":"cebpf4jnsgd1na2vs0mg"},{"bike_id":"c3e6cc38-8443-41f0-8b93-3da119df4b84","system_id":"levelo_inurba_marseille","lat":43.2591,"lon":5.40899,"is_reserved":false,"is_disabled":false,"rental_uris":{"android":"levelo://app?vid=c3e6cc38-8443-41f0-8b93-3da119df4b84","ios":"levelo://app?vid=c3e6cc38-8443-41f0-8b93-3da119df4b84"},"vehicle_type_id":"4","last_reported":1758618695,"current_range_meters":17200,"station_id":"ce4bhm92rcd13ifvqglg","pricing_plan_id":"cebpf4jnsgd1na2vs0mg"},{"bike_id":"c8f3c8da-edc9-4118-a2a2-80f74b9d6e48","system_id":"levelo_inurba_marseille","lat":43.25079,"lon":5.39514,"is_reserved":false,"is_disabled":false,"rental_uris":{"android":"levelo://app?vid=c8f3c8da-edc9-4118-a2a2-80f74b9d6e48","ios":"levelo://app?vid=c8f3c8da-edc9-4118-a2a2-80f74b9d6e48"},"vehicle_type_id":"4","last_reported":1758618695,"current_range_meters":17200,"station_id":"ce4bhm12rcd13ifvqgkg","pricing_plan_id":"cebpf4jnsgd1na2vs0mg"},{"bike_id":"b0f06639-f212-4fa5-8e77-7762dd7d568b","system_id":"levelo_inurba_marseille","lat":43.299125,"lon":5.381444,"is_reserved":false,"is_disabled":false,"rental_uris":{"android":"levelo://app?vid=b0f06639-f212-4fa5-8e77-7762dd7d568b","ios":"levelo://app?vid=b0f06639-f212-4fa5-8e77-7762dd7d568b"},"vehicle_type_id":"4","last_reported":1758618695,"current_range_meters":17200,"station_id":"","pricing_plan_id":"cebpf4jnsgd1na2vs0mg"},{"bike_id":"48aa74d7-4d44-41fb-87de-62544294d64a","system_id":"levelo_inurba_marseille","lat":43.2466,"lon":5.38886,"is_reserved":false,"is_disabled":false,"rental_uris":{"android":"levelo://app?vid=48aa74d7-4d44-41fb-87de-62544294d64a","ios":"levelo://app?vid=48aa74d7-4d44-41fb-87de-62544294d64a"},"vehicle_type_id":"4","last_reported":1758618695,"current_range_meters":17200,"station_id":"ce4bhg12rcd13ifvqf60","pricing_plan_id":"cebpf4jnsgd1na2vs0mg"},{"bike_id":"9feb0e0f-24fa-4463-b0f3-30472830c043","system_id":"levelo_inurba_marseille","lat":43.31757,"lon":5.39002,"is_reserved":false,"is_disabled":false,"rental_uris":{"android":"levelo://app?vid=9feb0e0f-24fa-4463-b0f3-30472830c043","ios":"levelo://app?vid=9feb0e0f-24fa-4463-b0f3-30472830c043"},"vehicle_type_id":"4","last_reported":1758618695,"current_range_meters":17600,"station_id":"ce4bhqp2rcd13ifvqhng","pricing_plan_id":"cebpf4jnsgd1na2vs0mg"},{"bike_id":"a60abba9-f9b8-477b-8786-175fc2b6218b","system_id":"levelo_inurba_marseille","lat":43.30869,"lon":5.37187,"is_reserved":false,"is_disabled":false,"rental_uris":{"android":"levelo://app?vid=a60abba9-f9b8-477b-8786-175fc2b6218b","ios":"levelo://app?vid=a60abba9-f9b8-477b-8786-175fc2b6218b"},"vehicle_type_id":"4","last_reported":1758618695,"current_range_meters":17600,"station_id":"ce4bguh2rcd13ifvqckg","pricing_plan_id":"cebpf4jnsgd1na2vs0mg"},{"bike_id":"902a85b4-786a-4a10-b45c-52ec35967b94","system_id":"levelo_inurba_marseille","lat":43.240733,"lon":5.377582,"is_reserved":false,"is_disabled":false,"rental_uris":{"android":"levelo://app?vid=902a85b4-786a-4a10-b45c-52ec35967b94","ios":"levelo://app?vid=902a85b4-786a-4a10-b45c-52ec35967b94"},"vehicle_type_id":"4","last_reported":1758618695,"current_range_meters":17600,"station_id":"ce4bhnp2rcd13ifvqgvg","pricing_plan_id":"cebpf4jnsgd1na2vs0mg"},{"bike_id":"95092148-5f75-4663-be7d-7c8aa2863391","system_id":"levelo_inurba_marseille","lat":43.2416,"lon":5.36409,"is_reserved":false,"is_disabled":false,"rental_uris":{"android":"levelo://app?vid=95092148-5f75-4663-be7d-7c8aa2863391","ios":"levelo://app?vid=95092148-5f75-4663-be7d-7c8aa2863391"},"vehicle_type_id":"4","last_reported":1758618695,"current_range_meters":17600,"station_id":"cpo36qri1sfpv3e86is0","pricing_plan_id":"cebpf4jnsgd1na2vs0mg"},{"bike_id":"1cd420c9-83fb-4bc1-b7d7-4ff4e3fc796c","system_id":"levelo_inurba_marseille","lat":43.32092,"lon":5.3678,"is_reserved":false,"is_disabled":false,"rental_uris":{"android":"levelo://app?vid=1cd420c9-83fb-4bc1-b7d7-4ff4e3fc796c","ios":"levelo://app?vid=1cd420c9-83fb-4bc1-b7d7-4ff4e3fc796c"},"vehicle_type_id":"4","last_reported":1758618695,"current_range_meters":17600,"station_id":"ce4bhrh2rcd13ifvqhug","pricing_plan_id":"cebpf4jnsgd1na2vs0mg"},{"bike_id":"6879ec0a-e194-4bc4-b3e4-088550b1183a","system_id":"levelo_inurba_marseille","lat":43.30949,"lon":5.39062,"is_reserved":false,"is_disabled":false,"rental_uris":{"android":"levelo://app?vid=6879ec0a-e194-4bc4-b3e4-088550b1183a","ios":"levelo://app?vid=6879ec0a-e194-4bc4-b3e4-088550b1183a"},"vehicle_type_id":"4","last_reported":1758618695,"current_range_meters":17600,"station_id":"ce4bgup2rcd13ifvqco0","pricing_plan_id":"cebpf4jnsgd1na2vs0mg"},{"bike_id":"ff36eefe-9b4f-4f53-a378-d02d550925e0","system_id":"levelo_inurba_marseille","lat":43.26784,"lon":5.3941,"is_reserved":false,"is_disabled":false,"rental_uris":{"android":"levelo://app?vid=ff36eefe-9b4f-4f53-a378-d02d550925e0","ios":"levelo://app?vid=ff36eefe-9b4f-4f53-a378-d02d550925e0"},"vehicle_type_id":"4","last_reported":1758618695,"current_range_meters":19200,"station_id":"ce4bhh12rcd13ifvqfg0","pricing_plan_id":"cebpf4jnsgd1na2vs0mg"},{"bike_id":"4d207a2b-f95a-4992-97ed-0b1a2979fd2c","system_id":"levelo_inurba_marseille","lat":43.304654,"lon":5.379117,"is_reserved":false,"is_disabled":false,"rental_uris":{"android":"levelo://app?vid=4d207a2b-f95a-4992-97ed-0b1a2979fd2c","ios":"levelo://app?vid=4d207a2b-f95a-4992-97ed-0b1a2979fd2c"},"vehicle_type_id":"4","last_reported":1758618695,"current_range_meters":17600,"station_id":"ce4bgup2rcd13ifvqcn0","pricing_plan_id":"cebpf4jnsgd1na2vs0mg"},{"bike_id":"7b956c4f-c849-459d-bfde-c290489fc5e7","system_id":"levelo_inurba_marseille","lat":43.27616,"lon":5.3611,"is_reserved":false,"is_disabled":false,"rental_uris":{"android":"levelo://app?vid=7b956c4f-c849-459d-bfde-c290489fc5e7","ios":"levelo://app?vid=7b956c4f-c849-459d-bfde-c290489fc5e7"},"vehicle_type_id":"4","last_reported":1758618695,"current_range_meters":16800,"station_id":"ce4bgj92rcd13ifvqbe0","pricing_plan_id":"cebpf4jnsgd1na2vs0mg"},{"bike_id":"7b1c1bde-deea-41d4-bc95-ab24359483f9","system_id":"levelo_inurba_marseille","lat":43.337263,"lon":5.391866,"is_reserved":false,"is_disabled":false,"rental_uris":{"android":"levelo://app?vid=7b1c1bde-deea-41d4-bc95-ab24359483f9","ios":"levelo://app?vid=7b1c1bde-deea-41d4-bc95-ab24359483f9"},"vehicle_type_id":"4","last_reported":1758618695,"current_range_meters":17600,"station_id":"ce4bhr92rcd13ifvqhsg","pricing_plan_id":"cebpf4jnsgd1na2vs0mg"},{"bike_id":"c1c74484-e513-4fa6-a940-fe3ff10f6868","system_id":"levelo_inurba_marseille","lat":43.29367,"lon":5.37815,"is_reserved":false,"is_disabled":false,"rental_uris":{"android":"levelo://app?vid=c1c74484-e513-4fa6-a940-fe3ff10f6868","ios":"levelo://app?vid=c1c74484-e513-4fa6-a940-fe3ff10f6868"},"vehicle_type_id":"4","last_reported":1758618695,"current_range_meters":18000,"station_id":"ce4bgjh2rcd13ifvqbf0","pricing_plan_id":"cebpf4jnsgd1na2vs0mg"},{"bike_id":"db101e5b-7eae-41ac-95d5-5d272868c585","system_id":"levelo_inurba_marseille","lat":43.26782,"lon":5.3941,"is_reserved":false,"is_disabled":false,"rental_uris":{"android":"levelo://app?vid=db101e5b-7eae-41ac-95d5-5d272868c585","ios":"levelo://app?vid=db101e5b-7eae-41ac-95d5-5d272868c585"},"vehicle_type_id":"4","last_reported":1758618695,"current_range_meters":18000,"station_id":"ce4bhh12rcd13ifvqfg0","pricing_plan_id":"cebpf4jnsgd1na2vs0mg"},{"bike_id":"ce503b47-64ba-420a-bc2e-5b9d3694509f","system_id":"levelo_inurba_marseille","lat":43.30587,"lon":5.3723,"is_reserved":false,"is_disabled":false,"rental_uris":{"android":"levelo://app?vid=ce503b47-64ba-420a-bc2e-5b9d3694509f","ios":"levelo://app?vid=ce503b47-64ba-420a-bc2e-5b9d3694509f"},"vehicle_type_id":"4","last_reported":1758618695,"current_range_meters":18000,"station_id":"ce4bgqh2rcd13ifvqc4g","pricing_plan_id":"cebpf4jnsgd1na2vs0mg"},{"bike_id":"c7784061-4436-4bdc-8dba-c84d605f6073","system_id":"levelo_inurba_marseille","lat":43.33609,"lon":5.4102,"is_reserved":false,"is_disabled":false,"rental_uris":{"android":"levelo://app?vid=c7784061-4436-4bdc-8dba-c84d605f6073","ios":"levelo://app?vid=c7784061-4436-4bdc-8dba-c84d605f6073"},"vehicle_type_id":"4","last_reported":1758618695,"current_range_meters":18000,"station_id":"ce4bhqh2rcd13ifvqhmg","pricing_plan_id":"cebpf4jnsgd1na2vs0mg"},{"bike_id":"72ca9785-3eaa-429a-adce-ef30ae6246ca","system_id":"levelo_inurba_marseille","lat":43.26405,"lon":5.39628,"is_reserved":false,"is_disabled":false,"rental_uris":{"android":"levelo://app?vid=72ca9785-3eaa-429a-adce-ef30ae6246ca","ios":"levelo://app?vid=72ca9785-3eaa-429a-adce-ef30ae6246ca"},"vehicle_type_id":"4","last_reported":1758618695,"current_range_meters":18000,"station_id":"","pricing_plan_id":"cebpf4jnsgd1na2vs0mg"},{"bike_id":"acd73526-8b4b-4674-b73a-92ebac5d8098","system_id":"levelo_inurba_marseille","lat":43.32049,"lon":5.41562,"is_reserved":false,"is_disabled":false,"rental_uris":{"android":"levelo://app?vid=acd73526-8b4b-4674-b73a-92ebac5d8098","ios":"levelo://app?vid=acd73526-8b4b-4674-b73a-92ebac5d8098"},"vehicle_type_id":"4","last_reported":1758618695,"current_range_meters":18000,"station_id":"ce4bhq92rcd13ifvqhkg","pricing_plan_id":"cebpf4jnsgd1na2vs0mg"},{"bike_id":"c0e68bf7-21fd-4165-bde1-3bbbb2dc294b","system_id":"levelo_inurba_marseille","lat":43.29522,"lon":5.3752,"is_reserved":false,"is_disabled":true,"rental_uris":{"android":"levelo://app?vid=c0e68bf7-21fd-4165-bde1-3bbbb2dc294b","ios":"levelo://app?vid=c0e68bf7-21fd-4165-bde1-3bbbb2dc294b"},"vehicle_type_id":"4","last_reported":1758618695,"current_range_meters":18800,"station_id":"ce4bgkp2rcd13ifvqbmg","pricing_plan_id":"cebpf4jnsgd1na2vs0mg"},{"bike_id":"ee446034-fa0a-4d88-9e55-c30799263489","system_id":"levelo_inurba_marseille","lat":43.273201,"lon":5.39063,"is_reserved":false,"is_disabled":false,"rental_uris":{"android":"levelo://app?vid=ee446034-fa0a-4d88-9e55-c30799263489","ios":"levelo://app?vid=ee446034-fa0a-4d88-9e55-c30799263489"},"vehicle_type_id":"4","last_reported":1758618695,"current_range_meters":18800,"station_id":"ce4bhgp2rcd13ifvqfe0","pricing_plan_id":"cebpf4jnsgd1na2vs0mg"},{"bike_id":"b5097eea-9912-4be2-9cf9-14c224c5fab6","system_id":"levelo_inurba_marseille","lat":43.2319,"lon":5.35576,"is_reserved":false,"is_disabled":false,"rental_uris":{"android":"levelo://app?vid=b5097eea-9912-4be2-9cf9-14c224c5fab6","ios":"levelo://app?vid=b5097eea-9912-4be2-9cf9-14c224c5fab6"},"vehicle_type_id":"4","last_reported":1758618695,"current_range_meters":18800,"station_id":"ce4bhu92rcd13ifvqi70","pricing_plan_id":"cebpf4jnsgd1na2vs0mg"},{"bike_id":"33c3bc37-b0fb-4bbc-94c6-23e7c0c2d46f","system_id":"levelo_inurba_marseille","lat":43.31358,"lon":5.36705,"is_reserved":false,"is_disabled":false,"rental_uris":{"android":"levelo://app?vid=33c3bc37-b0fb-4bbc-94c6-23e7c0c2d46f","ios":"levelo://app?vid=33c3bc37-b0fb-4bbc-94c6-23e7c0c2d46f"},"vehicle_type_id":"4","last_reported":1758618695,"current_range_meters":18800,"station_id":"ce4bgr92rcd13ifvqc6g","pricing_plan_id":"cebpf4jnsgd1na2vs0mg"},{"bike_id":"e34a534e-40a2-424f-9a9f-8dd078555d70","system_id":"levelo_inurba_marseille","lat":43.31321,"lon":5.36725,"is_reserved":false,"is_disabled":false,"rental_uris":{"android":"levelo://app?vid=e34a534e-40a2-424f-9a9f-8dd078555d70","ios":"levelo://app?vid=e34a534e-40a2-424f-9a9f-8dd078555d70"},"vehicle_type_id":"4","last_reported":1758618695,"current_range_meters":18800,"station_id":"ce4bgr92rcd13ifvqc6g","pricing_plan_id":"cebpf4jnsgd1na2vs0mg"},{"bike_id":"aa7fb19a-dee8-4dc4-bf16-e94fc02d332a","system_id":"levelo_inurba_marseille","lat":43.3015,"lon":5.374225,"is_reserved":false,"is_disabled":false,"rental_uris":{"android":"levelo://app?vid=aa7fb19a-dee8-4dc4-bf16-e94fc02d332a","ios":"levelo://app?vid=aa7fb19a-dee8-4dc4-bf16-e94fc02d332a"},"vehicle_type_id":"4","last_reported":1758618695,"current_range_meters":18800,"station_id":"ce4bgs92rcd13ifvqcc0","pricing_plan_id":"cebpf4jnsgd1na2vs0mg"},{"bike_id":"0e2ec56b-347f-4b78-aa7e-51244f797bc5","system_id":"levelo_inurba_marseille","lat":43.28992,"lon":5.37831,"is_reserved":false,"is_disabled":false,"rental_uris":{"android":"levelo://app?vid=0e2ec56b-347f-4b78-aa7e-51244f797bc5","ios":"levelo://app?vid=0e2ec56b-347f-4b78-aa7e-51244f797bc5"},"vehicle_type_id":"4","last_reported":1758618695,"current_range_meters":18800,"station_id":"ce4bh9p2rcd13ifvqed0","pricing_plan_id":"cebpf4jnsgd1na2vs0mg"},{"bike_id":"d68b9cdd-055c-48e6-b5c7-c6c683b923e5","system_id":"levelo_inurba_marseille","lat":43.286306,"lon":5.351058,"is_reserved":false,"is_disabled":true,"rental_uris":{"android":"levelo://app?vid=d68b9cdd-055c-48e6-b5c7-c6c683b923e5","ios":"levelo://app?vid=d68b9cdd-055c-48e6-b5c7-c6c683b923e5"},"vehicle_type_id":"4","last_reported":1758618695,"current_range_meters":18800,"station_id":"ce4bhch2rcd13ifvqeug","pricing_plan_id":"cebpf4jnsgd1na2vs0mg"},{"bike_id":"5870020f-8be1-408c-bd66-72d2e59e6d2e","system_id":"levelo_inurba_marseille","lat":43.328733,"lon":5.395073,"is_reserved":false,"is_disabled":false,"rental_uris":{"android":"levelo://app?vid=5870020f-8be1-408c-bd66-72d2e59e6d2e","ios":"levelo://app?vid=5870020f-8be1-408c-bd66-72d2e59e6d2e"},"vehicle_type_id":"4","last_reported":1758618695,"current_range_meters":18000,"station_id":"ce4bhq92rcd13ifvqhkg","pricing_plan_id":"cebpf4jnsgd1na2vs0mg"},{"bike_id":"e19dc2ef-7663-4a34-9840-315ac2ee5776","system_id":"levelo_inurba_marseille","lat":43.32474,"lon":5.36588,"is_reserved":false,"is_disabled":false,"rental_uris":{"android":"levelo://app?vid=e19dc2ef-7663-4a34-9840-315ac2ee5776","ios":"levelo://app?vid=e19dc2ef-7663-4a34-9840-315ac2ee5776"},"vehicle_type_id":"4","last_reported":1758618695,"current_range_meters":18800,"station_id":"ce4bhs12rcd13ifvqhvg","pricing_plan_id":"cebpf4jnsgd1na2vs0mg"},{"bike_id":"08868d3e-d95f-4254-a05e-af61e7cc0253","system_id":"levelo_inurba_marseille","lat":43.29928,"lon":5.36541,"is_reserved":false,"is_disabled":false,"rental_uris":{"android":"levelo://app?vid=08868d3e-d95f-4254-a05e-af61e7cc0253","ios":"levelo://app?vid=08868d3e-d95f-4254-a05e-af61e7cc0253"},"vehicle_type_id":"4","last_reported":1758618695,"current_range_meters":19200,"station_id":"ce4bgm92rcd13ifvqbr0","pricing_plan_id":"cebpf4jnsgd1na2vs0mg"},{"bike_id":"0306c5d5-8061-4818-a9c1-9604d16570d9","system_id":"levelo_inurba_marseille","lat":43.24159,"lon":5.3639,"is_reserved":false,"is_disabled":false,"rental_uris":{"android":"levelo://app?vid=0306c5d5-8061-4818-a9c1-9604d16570d9","ios":"levelo://app?vid=0306c5d5-8061-4818-a9c1-9604d16570d9"},"vehicle_type_id":"4","last_reported":1758618695,"current_range_meters":19200,"station_id":"cpo36qri1sfpv3e86is0","pricing_plan_id":"cebpf4jnsgd1na2vs0mg"},{"bike_id":"76d79070-defb-41bb-86d9-c3b7353b1cdb","system_id":"levelo_inurba_marseille","lat":43.304811,"lon":5.379102,"is_reserved":false,"is_disabled":true,"rental_uris":{"android":"levelo://app?vid=76d79070-defb-41bb-86d9-c3b7353b1cdb","ios":"levelo://app?vid=76d79070-defb-41bb-86d9-c3b7353b1cdb"},"vehicle_type_id":"4","last_reported":1758618695,"current_range_meters":19200,"station_id":"ce4bgup2rcd13ifvqcn0","pricing_plan_id":"cebpf4jnsgd1na2vs0mg"},{"bike_id":"76ddf0ec-5630-4145-87a4-c2dd11d6c324","system_id":"levelo_inurba_marseille","lat":43.33586,"lon":5.41031,"is_reserved":false,"is_disabled":false,"rental_uris":{"android":"levelo://app?vid=76ddf0ec-5630-4145-87a4-c2dd11d6c324","ios":"levelo://app?vid=76ddf0ec-5630-4145-87a4-c2dd11d6c324"},"vehicle_type_id":"4","last_reported":1758618695,"current_range_meters":19200,"station_id":"ce4bhqh2rcd13ifvqhmg","pricing_plan_id":"cebpf4jnsgd1na2vs0mg"},{"bike_id":"ea3cca86-986c-483a-aa9e-65c2bebb5bcf","system_id":"levelo_inurba_marseille","lat":43.31211,"lon":5.36865,"is_reserved":false,"is_disabled":false,"rental_uris":{"android":"levelo://app?vid=ea3cca86-986c-483a-aa9e-65c2bebb5bcf","ios":"levelo://app?vid=ea3cca86-986c-483a-aa9e-65c2bebb5bcf"},"vehicle_type_id":"4","last_reported":1758618695,"current_range_meters":19200,"station_id":"ce4bgl92rcd13ifvqbq0","pricing_plan_id":"cebpf4jnsgd1na2vs0mg"},{"bike_id":"9d56f894-604b-49ac-b458-16330ec8d3aa","system_id":"levelo_inurba_marseille","lat":43.31356,"lon":5.38483,"is_reserved":false,"is_disabled":false,"rental_uris":{"android":"levelo://app?vid=9d56f894-604b-49ac-b458-16330ec8d3aa","ios":"levelo://app?vid=9d56f894-604b-49ac-b458-16330ec8d3aa"},"vehicle_type_id":"4","last_reported":1758618695,"current_range_meters":19200,"station_id":"ce4bgt92rcd13ifvqcf0","pricing_plan_id":"cebpf4jnsgd1na2vs0mg"},{"bike_id":"fb9472cd-19fa-40f2-bed4-53a5198a7a5a","system_id":"levelo_inurba_marseille","lat":43.23136,"lon":5.43708,"is_reserved":false,"is_disabled":false,"rental_uris":{"android":"levelo://app?vid=fb9472cd-19fa-40f2-bed4-53a5198a7a5a","ios":"levelo://app?vid=fb9472cd-19fa-40f2-bed4-53a5198a7a5a"},"vehicle_type_id":"4","last_reported":1758618695,"current_range_meters":19200,"station_id":"ce4bhmp2rcd13ifvqgog","pricing_plan_id":"cebpf4jnsgd1na2vs0mg"},{"bike_id":"4a9a978a-712d-4a16-907b-c03240f6abbd","system_id":"levelo_inurba_marseille","lat":43.23068,"lon":5.35495,"is_reserved":false,"is_disabled":false,"rental_uris":{"android":"levelo://app?vid=4a9a978a-712d-4a16-907b-c03240f6abbd","ios":"levelo://app?vid=4a9a978a-712d-4a16-907b-c03240f6abbd"},"vehicle_type_id":"4","last_reported":1758618695,"current_range_meters":19600,"station_id":"cpo3342slgdg3j2ifvpg","pricing_plan_id":"cebpf4jnsgd1na2vs0mg"},{"bike_id":"6db010fe-a53c-401b-b729-cc67e48aff93","system_id":"levelo_inurba_marseille","lat":43.30156,"lon":5.39253,"is_reserved":false,"is_disabled":false,"rental_uris":{"android":"levelo://app?vid=6db010fe-a53c-401b-b729-cc67e48aff93","ios":"levelo://app?vid=6db010fe-a53c-401b-b729-cc67e48aff93"},"vehicle_type_id":"4","last_reported":1758618695,"current_range_meters":19600,"station_id":"","pricing_plan_id":"cebpf4jnsgd1na2vs0mg"},{"bike_id":"bbd5c0fe-85dc-4136-b17c-3a50046129df","system_id":"levelo_inurba_marseille","lat":43.29162,"lon":5.37149,"is_reserved":false,"is_disabled":false,"rental_uris":{"android":"levelo://app?vid=bbd5c0fe-85dc-4136-b17c-3a50046129df","ios":"levelo://app?vid=bbd5c0fe-85dc-4136-b17c-3a50046129df"},"vehicle_type_id":"4","last_reported":1758618695,"current_range_meters":19200,"station_id":"ce4bha92rcd13ifvqeh0","pricing_plan_id":"cebpf4jnsgd1na2vs0mg"},{"bike_id":"ccdc98b1-daeb-48da-8027-ffa9919763db","system_id":"levelo_inurba_marseille","lat":43.341403,"lon":5.409103,"is_reserved":false,"is_disabled":false,"rental_uris":{"android":"levelo://app?vid=ccdc98b1-daeb-48da-8027-ffa9919763db","ios":"levelo://app?vid=ccdc98b1-daeb-48da-8027-ffa9919763db"},"vehicle_type_id":"4","last_reported":1758618695,"current_range_meters":19600,"station_id":"ce4bhqh2rcd13ifvqhlg","pricing_plan_id":"cebpf4jnsgd1na2vs0mg"},{"bike_id":"d122c8ee-4d3b-4cf8-94ed-fe64fcd2ed32","system_id":"levelo_inurba_marseille","lat":43.27199,"lon":5.39184,"is_reserved":false,"is_disabled":false,"rental_uris":{"android":"levelo://app?vid=d122c8ee-4d3b-4cf8-94ed-fe64fcd2ed32","ios":"levelo://app?vid=d122c8ee-4d3b-4cf8-94ed-fe64fcd2ed32"},"vehicle_type_id":"4","last_reported":1758618695,"current_range_meters":19600,"station_id":"ce4bhhp2rcd13ifvqfm0","pricing_plan_id":"cebpf4jnsgd1na2vs0mg"},{"bike_id":"246182f0-7c01-4a7b-94cf-14efe764b602","system_id":"levelo_inurba_marseille","lat":43.21748,"lon":5.34598,"is_reserved":false,"is_disabled":false,"rental_uris":{"android":"levelo://app?vid=246182f0-7c01-4a7b-94cf-14efe764b602","ios":"levelo://app?vid=246182f0-7c01-4a7b-94cf-14efe764b602"},"vehicle_type_id":"4","last_reported":1758618695,"current_range_meters":19600,"station_id":"st_cvj6r9ubvosntc0bgbag","pricing_plan_id":"cebpf4jnsgd1na2vs0mg"},{"bike_id":"eb3f0bc2-178d-43d9-bfbb-3d3bbceb177a","system_id":"levelo_inurba_marseille","lat":43.27491,"lon":5.42461,"is_reserved":false,"is_disabled":false,"rental_uris":{"android":"levelo://app?vid=eb3f0bc2-178d-43d9-bfbb-3d3bbceb177a","ios":"levelo://app?vid=eb3f0bc2-178d-43d9-bfbb-3d3bbceb177a"},"vehicle_type_id":"4","last_reported":1758618695,"current_range_meters":19600,"station_id":"ce4bhn92rcd13ifvqgrg","pricing_plan_id":"cebpf4jnsgd1na2vs0mg"},{"bike_id":"e2017298-7010-4fcc-9644-9ccfb0f46125","system_id":"levelo_inurba_marseille","lat":43.30111,"lon":5.41512,"is_reserved":false,"is_disabled":false,"rental_uris":{"android":"levelo://app?vid=e2017298-7010-4fcc-9644-9ccfb0f46125","ios":"levelo://app?vid=e2017298-7010-4fcc-9644-9ccfb0f46125"},"vehicle_type_id":"4","last_reported":1758618695,"current_range_meters":19600,"station_id":"","pricing_plan_id":"cebpf4jnsgd1na2vs0mg"},{"bike_id":"1b8e4c2d-e7e7-47de-bd66-d5d0e6c8f37e","system_id":"levelo_inurba_marseille","lat":43.26567,"lon":5.403193,"is_reserved":false,"is_disabled":false,"rental_uris":{"android":"levelo://app?vid=1b8e4c2d-e7e7-47de-bd66-d5d0e6c8f37e","ios":"levelo://app?vid=1b8e4c2d-e7e7-47de-bd66-d5d0e6c8f37e"},"vehicle_type_id":"4","last_reported":1758618695,"current_range_meters":20000,"station_id":"ce4bhmp2rcd13ifvqgng","pricing_plan_id":"cebpf4jnsgd1na2vs0mg"},{"bike_id":"754974bb-5c6e-4a33-9f19-b53a83c64784","system_id":"levelo_inurba_marseille","lat":43.276701,"lon":5.389164,"is_reserved":false,"is_disabled":false,"rental_uris":{"android":"levelo://app?vid=754974bb-5c6e-4a33-9f19-b53a83c64784","ios":"levelo://app?vid=754974bb-5c6e-4a33-9f19-b53a83c64784"},"vehicle_type_id":"4","last_reported":1758618695,"current_range_meters":20000,"station_id":"ce4bhi12rcd13ifvqfo0","pricing_plan_id":"cebpf4jnsgd1na2vs0mg"},{"bike_id":"36e14a01-13aa-45ae-8743-fe096043a807","system_id":"levelo_inurba_marseille","lat":43.32487,"lon":5.36569,"is_reserved":false,"is_disabled":false,"rental_uris":{"android":"levelo://app?vid=36e14a01-13aa-45ae-8743-fe096043a807","ios":"levelo://app?vid=36e14a01-13aa-45ae-8743-fe096043a807"},"vehicle_type_id":"4","last_reported":1758618695,"current_range_meters":20000,"station_id":"ce4bhs12rcd13ifvqhvg","pricing_plan_id":"cebpf4jnsgd1na2vs0mg"},{"bike_id":"05898643-5caf-4058-8b8a-1a1a6e1b823b","system_id":"levelo_inurba_marseille","lat":43.29924,"lon":5.36538,"is_reserved":false,"is_disabled":false,"rental_uris":{"android":"levelo://app?vid=05898643-5caf-4058-8b8a-1a1a6e1b823b","ios":"levelo://app?vid=05898643-5caf-4058-8b8a-1a1a6e1b823b"},"vehicle_type_id":"4","last_reported":1758618695,"current_range_meters":20000,"station_id":"ce4bgm92rcd13ifvqbr0","pricing_plan_id":"cebpf4jnsgd1na2vs0mg"},{"bike_id":"fa636f52-0c5f-4bb0-b531-e3d3da9d3e10","system_id":"levelo_inurba_marseille","lat":43.26681,"lon":5.38273,"is_reserved":false,"is_disabled":false,"rental_uris":{"android":"levelo://app?vid=fa636f52-0c5f-4bb0-b531-e3d3da9d3e10","ios":"levelo://app?vid=fa636f52-0c5f-4bb0-b531-e3d3da9d3e10"},"vehicle_type_id":"4","last_reported":1758618695,"current_range_meters":20000,"station_id":"ce4bhg92rcd13ifvqf90","pricing_plan_id":"cebpf4jnsgd1na2vs0mg"},{"bike_id":"fba19968-2566-4703-a008-8eddd0622987","system_id":"levelo_inurba_marseille","lat":43.32486,"lon":5.36557,"is_reserved":false,"is_disabled":false,"rental_uris":{"android":"levelo://app?vid=fba19968-2566-4703-a008-8eddd0622987","ios":"levelo://app?vid=fba19968-2566-4703-a008-8eddd0622987"},"vehicle_type_id":"4","last_reported":1758618695,"current_range_meters":20000,"station_id":"ce4bhs12rcd13ifvqhvg","pricing_plan_id":"cebpf4jnsgd1na2vs0mg"},{"bike_id":"1e2b0923-7c0f-4134-bff6-a7f0c0a8fdc5","system_id":"levelo_inurba_marseille","lat":43.32465,"lon":5.36578,"is_reserved":false,"is_disabled":false,"rental_uris":{"android":"levelo://app?vid=1e2b0923-7c0f-4134-bff6-a7f0c0a8fdc5","ios":"levelo://app?vid=1e2b0923-7c0f-4134-bff6-a7f0c0a8fdc5"},"vehicle_type_id":"4","last_reported":1758618695,"current_range_meters":20400,"station_id":"ce4bhs12rcd13ifvqhvg","pricing_plan_id":"cebpf4jnsgd1na2vs0mg"},{"bike_id":"a3bd0a60-7e18-4969-9eb2-87e44c12190f","system_id":"levelo_inurba_marseille","lat":43.2315,"lon":5.43711,"is_reserved":false,"is_disabled":false,"rental_uris":{"android":"levelo://app?vid=a3bd0a60-7e18-4969-9eb2-87e44c12190f","ios":"levelo://app?vid=a3bd0a60-7e18-4969-9eb2-87e44c12190f"},"vehicle_type_id":"4","last_reported":1758618695,"current_range_meters":20400,"station_id":"ce4bhmp2rcd13ifvqgog","pricing_plan_id":"cebpf4jnsgd1na2vs0mg"},{"bike_id":"6fc90bd1-7f14-43cf-9cb5-c5d761c8ec85","system_id":"levelo_inurba_marseille","lat":43.3235,"lon":5.3675,"is_reserved":false,"is_disabled":false,"rental_uris":{"android":"levelo://app?vid=6fc90bd1-7f14-43cf-9cb5-c5d761c8ec85","ios":"levelo://app?vid=6fc90bd1-7f14-43cf-9cb5-c5d761c8ec85"},"vehicle_type_id":"4","last_reported":1758618695,"current_range_meters":20400,"station_id":"ce4bhsh2rcd13ifvqi2g","pricing_plan_id":"cebpf4jnsgd1na2vs0mg"},{"bike_id":"220dfbe7-ef3a-428e-9b80-243881e37763","system_id":"levelo_inurba_marseille","lat":43.26402,"lon":5.39619,"is_reserved":false,"is_disabled":false,"rental_uris":{"android":"levelo://app?vid=220dfbe7-ef3a-428e-9b80-243881e37763","ios":"levelo://app?vid=220dfbe7-ef3a-428e-9b80-243881e37763"},"vehicle_type_id":"4","last_reported":1758618695,"current_range_meters":20400,"station_id":"","pricing_plan_id":"cebpf4jnsgd1na2vs0mg"},