{"last_updated":1747289744,"ttl":60,"version":"2.2","data":{"bikes":[{"bike_id":"7dcc5a9f-2185-4b68-b355-315d090d5943","system_id":"levelo_inurba_marseille","lat":43.27488,"lon":5.42461,"is_reserved":false,"is_disabled":false,"rental_uris":{"android":"levelo://app?vid=7dcc5a9f-2185-4b68-b355-315d090d5943","ios":"levelo://app?vid=7dcc5a9f-2185-4b68-b355-315d090d5943"},"vehicle_type_id":"4","last_reported":1747289744,"current_range_meters":2800,"station_id":"ce4bhn92rcd13ifvqgrg","pricing_plan_id":"cebpf4jnsgd1na2vs0mg"},{"bike_id":"8a1d474e-5686-4390-b7e2-5157872db859","system_id":"levelo_inurba_marseille","lat":43.29041,"lon":5.3994,"is_reserved":false,"is_disabled":false,"rental_uris":{"android":"levelo://app?vid=8a1d474e-5686-4390-b7e2-5157872db859","ios":"levelo://app?vid=8a1d474e-5686-4390-b7e2-5157872db859"},"vehicle_type_id":"4","last_reported":1747289744,"current_range_meters":2800,"station_id":"ce4bh392rcd13ifvqdm0","pricing_plan_id":"cebpf4jnsgd1na2vs0mg"},{"bike_id":"54989ef0-0ec3-4833-ad4c-468e73b60da9","system_id":"levelo_inurba_marseille","lat":43.29968,"lon":5.3716,"is_reserved":false,"is_disabled":false,"rental_uris":{"android":"levelo://app?vid=54989ef0-0ec3-4833-ad4c-468e73b60da9","ios":"levelo://app?vid=54989ef0-0ec3-4833-ad4c-468e73b60da9"},"vehicle_type_id":"4","last_reported":1747289744,"current_range_meters":2800,"station_id":"ce4bgr92rcd13ifvqc7g","pricing_plan_id":"cebpf4jnsgd1na2vs0mg"},{"bike_id":"b7b72ba4-bc58-44e0-b2fd-3216c36fa05f","system_id":"levelo_inurba_marseille","lat":43.24078,"lon":5.37759,"is_reserved":false,"is_disabled":false,"rental_uris":{"android":"levelo://app?vid=b7b72ba4-bc58-44e0-b2fd-3216c36fa05f","ios":"levelo://app?vid=b7b72ba4-bc58-44e0-b2fd-3216c36fa05f"},"vehicle_type_id":"4","last_reported":1747289744,"current_range_meters":2800,"station_id":"ce4bhnp2rcd13ifvqgvg","pricing_plan_id":"cebpf4jnsgd1na2vs0mg"},{"bike_id":"960f5294-40b9-42f3-a6de-9907bf4d5bd4","system_id":"levelo_inurba_marseille","lat":43.29028,"lon":5.38635,"is_reserved":false,"is_disabled":false,"rental_uris":{"android":"levelo://app?vid=960f5294-40b9-42f3-a6de-9907bf4d5bd4","ios":"levelo://app?vid=960f5294-40b9-42f3-a6de-9907bf4d5bd4"},"vehicle_type_id":"4","last_reported":1747289744,"current_range_meters":2800,"station_id":"ce4bh4p2rcd13ifvqe0g","pricing_plan_id":"cebpf4jnsgd1na2vs0mg"},{"bike_id":"2fcc4300-9147-4a4b-a12c-17076499c238","system_id":"levelo_inurba_marseille","lat":43.32555,"lon":5.41456,"is_reserved":false,"is_disabled":false,"rental_uris":{"android":"levelo://app?vid=2fcc4300-9147-4a4b-a12c-17076499c238","ios":"levelo://app?vid=2fcc4300-9147-4a4b-a12c-17076499c238"},"vehicle_type_id":"4","last_reported":1747289744,"current_range_meters":3200,"station_id":"ce4bhq12rcd13ifvqhhg","pricing_plan_id":"cebpf4jnsgd1na2vs0mg"},{"bike_id":"3a90d10e-3ea8-4d6d-aa11-297c8916e615","system_id":"levelo_inurba_marseille","lat":43.24081,"lon":5.37756,"is_reserved":false,"is_disabled":false,"rental_uris":{"android":"levelo://app?vid=3a90d10e-3ea8-4d6d-aa11-297c8916e615","ios":"levelo://app?vid=3a90d10e-3ea8-4d6d-aa11-297c8916e615"},"vehicle_type_id":"4","last_reported":1747289744,"current_range_meters":3200,"station_id":"ce4bhnp2rcd13ifvqgvg","pricing_plan_id":"cebpf4jnsgd1na2vs0mg"},{"bike_id":"ce4325af-2448-4172-bdec-81d552ee0b62","system_id":"levelo_inurba_marseille","lat":43.26156,"lon":5.42034,"is_reserved":false,"is_disabled":false,"rental_uris":{"android":"levelo://app?vid=ce4325af-2448-4172-bdec-81d552ee0b62","ios":"levelo://app?vid=ce4325af-2448-4172-bdec-81d552ee0b62"},"vehicle_type_id":"4","last_reported":1747289744,"current_range_meters":3200,"station_id":"","pricing_plan_id":"cebpf4jnsgd1na2vs0mg"},{"bike_id":"6953ca09-b1d0-473e-8b94-d568eb1a7f43","system_id":"levelo_inurba_marseille","lat":43.2885,"lon":5.37138,"is_reserved":false,"is_disabled":false,"rental_uris":{"android":"levelo://app?vid=6953ca09-b1d0-473e-8b94-d568eb1a7f43","ios":"levelo://app?vid=6953ca09-b1d0-473e-8b94-d568eb1a7f43"},"vehicle_type_id":"4","last_reported":1747289744,"current_range_meters":3200,"station_id":"","pricing_plan_id":"cebpf4jnsgd1na2vs0mg"},{"bike_id":"bd712a64-b07a-487b-b522-7c79ec3b3302","system_id":"levelo_inurba_marseille","lat":43.30139,"lon":5.39874,"is_reserved":false,"is_disabled":true,"rental_uris":{"android":"levelo://app?vid=bd712a64-b07a-487b-b522-7c79ec3b3302","ios":"levelo://app?vid=bd712a64-b07a-487b-b522-7c79ec3b3302"},"vehicle_type_id":"4","last_reported":1747289744,"current_range_meters":3600,"station_id":"ce4bh0h2rcd13ifvqd40","pricing_plan_id":"cebpf4jnsgd1na2vs0mg"},{"bike_id":"f37b7848-b34f-4203-8cd6-ee4ac88ff930","system_id":"levelo_inurba_marseille","lat":43.23956,"lon":5.366276,"is_reserved":false,"is_disabled":false,"rental_uris":{"android":"levelo://app?vid=f37b7848-b34f-4203-8cd6-ee4ac88ff930","ios":"levelo://app?vid=f37b7848-b34f-4203-8cd6-ee4ac88ff930"},"vehicle_type_id":"4","last_reported":1747289744,"current_range_meters":3600,"station_id":"ce4bhi12rcd13ifvqfp0","pricing_plan_id":"cebpf4jnsgd1na2vs0mg"},{"bike_id":"47a275b0-84b3-4236-b173-8aa8c3056ecb","system_id":"levelo_inurba_marseille","lat":43.27997,"lon":5.40007,"is_reserved":false,"is_disabled":false,"rental_uris":{"android":"levelo://app?vid=47a275b0-84b3-4236-b173-8aa8c3056ecb","ios":"levelo://app?vid=47a275b0-84b3-4236-b173-8aa8c3056ecb"},"vehicle_type_id":"4","last_reported":1747289744,"current_range_meters":3200,"station_id":"ce4bho92rcd13ifvqh4g","pricing_plan_id":"cebpf4jnsgd1na2vs0mg"},{"bike_id":"cbe5d074-3657-4a38-a945-adda68e4e374","system_id":"levelo_inurba_marseille","lat":43.32471,"lon":5.36585,"is_reserved":false,"is_disabled":false,"rental_uris":{"android":"levelo://app?vid=cbe5d074-3657-4a38-a945-adda68e4e374","ios":"levelo://app?vid=cbe5d074-3657-4a38-a945-adda68e4e374"},"vehicle_type_id":"4","last_reported":1747289744,"current_range_meters":3600,"station_id":"ce4bhs12rcd13ifvqhvg","pricing_plan_id":"cebpf4jnsgd1na2vs0mg"},{"bike_id":"d54a21ed-826a-41fc-83ea-234f1473602f","system_id":"levelo_inurba_marseille","lat":43.2616,"lon":5.40346,"is_reserved":false,"is_disabled":false,"rental_uris":{"android":"levelo://app?vid=d54a21ed-826a-41fc-83ea-234f1473602f","ios":"levelo://app?vid=d54a21ed-826a-41fc-83ea-234f1473602f"},"vehicle_type_id":"4","last_reported":1747289744,"current_range_meters":3600,"station_id":"","pricing_plan_id":"cebpf4jnsgd1na2vs0mg"},{"bike_id":"4b4ae13d-fef1-4824-97da-6deb1f153c85","system_id":"levelo_inurba_marseille","lat":43.27052,"lon":5.40259,"is_reserved":false,"is_disabled":false,"rental_uris":{"android":"levelo://app?vid=4b4ae13d-fef1-4824-97da-6deb1f153c85","ios":"levelo://app?vid=4b4ae13d-fef1-4824-97da-6deb1f153c85"},"vehicle_type_id":"4","last_reported":1747289744,"current_range_meters":3600,"station_id":"ce4bhk92rcd13ifvqgc0","pricing_plan_id":"cebpf4jnsgd1na2vs0mg"},{"bike_id":"893cee9f-22ed-4823-82b3-4da288b81784","system_id":"levelo_inurba_marseille","lat":43.30581,"lon":5.393576,"is_reserved":false,"is_disabled":true,"rental_uris":{"android":"levelo://app?vid=893cee9f-22ed-4823-82b3-4da288b81784","ios":"levelo://app?vid=893cee9f-22ed-4823-82b3-4da288b81784"},"vehicle_type_id":"4","last_reported":1747289744,"current_range_meters":4000,"station_id":"","pricing_plan_id":"cebpf4jnsgd1na2vs0mg"},{"bike_id":"66bbd8fa-54e1-45a0-bcd0-a3a2c2580ffa","system_id":"levelo_inurba_marseille","lat":43.27201,"lon":5.3919,"is_reserved":false,"is_disabled":false,"rental_uris":{"android":"levelo://app?vid=66bbd8fa-54e1-45a0-bcd0-a3a2c2580ffa","ios":"levelo://app?vid=66bbd8fa-54e1-45a0-bcd0-a3a2c2580ffa"},"vehicle_type_id":"4","last_reported":1747289744,"current_range_meters":4000,"station_id":"ce4bhhp2rcd13ifvqfm0","pricing_plan_id":"cebpf4jnsgd1na2vs0mg"},{"bike_id":"cb47e7cd-2c18-4e5d-8c86-b48935d0e042","system_id":"levelo_inurba_marseille","lat":43.30608,"lon":5.37229,"is_reserved":false,"is_disabled":false,"rental_uris":{"android":"levelo://app?vid=cb47e7cd-2c18-4e5d-8c86-b48935d0e042","ios":"levelo://app?vid=cb47e7cd-2c18-4e5d-8c86-b48935d0e042"},"vehicle_type_id":"4","last_reported":1747289744,"current_range_meters":4000,"station_id":"","pricing_plan_id":"cebpf4jnsgd1na2vs0mg"},{"bike_id":"5de1e8df-cec1-47cf-b554-41f6e726d337","system_id":"levelo_inurba_marseille","lat":43.27414,"lon":5.40612,"is_reserved":false,"is_disabled":false,"rental_uris":{"android":"levelo://app?vid=5de1e8df-cec1-47cf-b554-41f6e726d337","ios":"levelo://app?vid=5de1e8df-cec1-47cf-b554-41f6e726d337"},"vehicle_type_id":"4","last_reported":1747289744,"current_range_meters":4000,"station_id":"","pricing_plan_id":"cebpf4jnsgd1na2vs0mg"},{"bike_id":"e593003e-4453-4b56-af33-c35b7cf7d4ff","system_id":"levelo_inurba_marseille","lat":43.33755,"lon":5.3918,"is_reserved":false,"is_disabled":false,"rental_uris":{"android":"levelo://app?vid=e593003e-4453-4b56-af33-c35b7cf7d4ff","ios":"levelo://app?vid=e593003e-4453-4b56-af33-c35b7cf7d4ff"},"vehicle_type_id":"4","last_reported":1747289744,"current_range_meters":4800,"station_id":"ce4bhr92rcd13ifvqhsg","pricing_plan_id":"cebpf4jnsgd1na2vs0mg"},{"bike_id":"d0d427a5-5b15-433a-a884-a811880ed0aa","system_id":"levelo_inurba_marseille","lat":43.31707,"lon":5.37728,"is_reserved":false,"is_disabled":false,"rental_uris":{"android":"levelo://app?vid=d0d427a5-5b15-433a-a884-a811880ed0aa","ios":"levelo://app?vid=d0d427a5-5b15-433a-a884-a811880ed0aa"},"vehicle_type_id":"4","last_reported":1747289744,"current_range_meters":4400,"station_id":"ce4bgth2rcd13ifvqch0","pricing_plan_id":"cebpf4jnsgd1na2vs0mg"},{"bike_id":"8cfecad5-6316-48d7-a472-e958d6e9e80d","system_id":"levelo_inurba_marseille","lat":43.24195,"lon":5.39717,"is_reserved":false,"is_disabled":false,"rental_uris":{"android":"levelo://app?vid=8cfecad5-6316-48d7-a472-e958d6e9e80d","ios":"levelo://app?vid=8cfecad5-6316-48d7-a472-e958d6e9e80d"},"vehicle_type_id":"4","last_reported":1747289744,"current_range_meters":4800,"station_id":"ce4bhn12rcd13ifvqgpg","pricing_plan_id":"cebpf4jnsgd1na2vs0mg"},{"bike_id":"9b366dcc-3820-40ea-9638-12aabbfdbcef","system_id":"levelo_inurba_marseille","lat":43.315336,"lon":5.406857,"is_reserved":false,"is_disabled":false,"rental_uris":{"android":"levelo://app?vid=9b366dcc-3820-40ea-9638-12aabbfdbcef","ios":"levelo://app?vid=9b366dcc-3820-40ea-9638-12aabbfdbcef"},"vehicle_type_id":"4","last_reported":1747289744,"current_range_meters":4800,"station_id":"ce4bh012rcd13ifvqd00","pricing_plan_id":"cebpf4jnsgd1na2vs0mg"},{"bike_id":"b0eae6a1-0348-4a11-91a1-03a25427f503","system_id":"levelo_inurba_marseille","lat":43.30456,"lon":5.37924,"is_reserved":false,"is_disabled":false,"rental_uris":{"android":"levelo://app?vid=b0eae6a1-0348-4a11-91a1-03a25427f503","ios":"levelo://app?vid=b0eae6a1-0348-4a11-91a1-03a25427f503"},"vehicle_type_id":"4","last_reported":1747289744,"current_range_meters":6000,"station_id":"ce4bgup2rcd13ifvqcn0","pricing_plan_id":"cebpf4jnsgd1na2vs0mg"},{"bike_id":"8e6d6451-a415-4b2f-bc73-95ffb29ead42","system_id":"levelo_inurba_marseille","lat":43.231929,"lon":5.355698,"is_reserved":false,"is_disabled":true,"rental_uris":{"android":"levelo://app?vid=8e6d6451-a415-4b2f-bc73-95ffb29ead42","ios":"levelo://app?vid=8e6d6451-a415-4b2f-bc73-95ffb29ead42"},"vehicle_type_id":"4","last_reported":1747289744,"current_range_meters":6000,"station_id":"ce4bhu92rcd13ifvqi70","pricing_plan_id":"cebpf4jnsgd1na2vs0mg"},{"bike_id":"6c5e2750-bf55-4812-bb81-a9df60873a61","system_id":"levelo_inurba_marseille","lat":43.29639,"lon":5.36185,"is_reserved":false,"is_disabled":true,"rental_uris":{"android":"levelo://app?vid=6c5e2750-bf55-4812-bb81-a9df60873a61","ios":"levelo://app?vid=6c5e2750-bf55-4812-bb81-a9df60873a61"},"vehicle_type_id":"4","last_reported":1747289744,"current_range_meters":6000,"station_id":"","pricing_plan_id":"cebpf4jnsgd1na2vs0mg"},{"bike_id":"065ef2f3-be2b-423a-a11f-7be217669317","system_id":"levelo_inurba_marseille","lat":43.25501,"lon":5.37651,"is_reserved":false,"is_disabled":false,"rental_uris":{"android":"levelo://app?vid=065ef2f3-be2b-423a-a11f-7be217669317","ios":"levelo://app?vid=065ef2f3-be2b-423a-a11f-7be217669317"},"vehicle_type_id":"4","last_reported":1747289744,"current_range_meters":5600,"station_id":"ce4bhh12rcd13ifvqff0","pricing_plan_id":"cebpf4jnsgd1na2vs0mg"},{"bike_id":"97715056-6530-4a9f-9afa-496b4b545acc","system_id":"levelo_inurba_marseille","lat":43.25122,"lon":5.40333,"is_reserved":false,"is_disabled":false,"rental_uris":{"android":"levelo://app?vid=97715056-6530-4a9f-9afa-496b4b545acc","ios":"levelo://app?vid=97715056-6530-4a9f-9afa-496b4b545acc"},"vehicle_type_id":"4","last_reported":1747289744,"current_range_meters":6400,"station_id":"ce4bhlh2rcd13ifvqgig","pricing_plan_id":"cebpf4jnsgd1na2vs0mg"},{"bike_id":"3d88a63a-f83d-4aa2-aebe-883b2bbd49f5","system_id":"levelo_inurba_marseille","lat":43.26209,"lon":5.40454,"is_reserved":false,"is_disabled":false,"rental_uris":{"android":"levelo://app?vid=3d88a63a-f83d-4aa2-aebe-883b2bbd49f5","ios":"levelo://app?vid=3d88a63a-f83d-4aa2-aebe-883b2bbd49f5"},"vehicle_type_id":"4","last_reported":1747289744,"current_range_meters":6400,"station_id":"ce4bhmh2rcd13ifvqgmg","pricing_plan_id":"cebpf4jnsgd1na2vs0mg"},{"bike_id":"3255c134-1f0a-4de5-b001-987aef916fba","system_id":"levelo_inurba_marseille","lat":43.24076,"lon":5.37758,"is_reserved":false,"is_disabled":true,"rental_uris":{"android":"levelo://app?vid=3255c134-1f0a-4de5-b001-987aef916fba","ios":"levelo://app?vid=3255c134-1f0a-4de5-b001-987aef916fba"},"vehicle_type_id":"4","last_reported":1747289744,"current_range_meters":6400,"station_id":"ce4bhnp2rcd13ifvqgvg","pricing_plan_id":"cebpf4jnsgd1na2vs0mg"},{"bike_id":"40a1772f-b4a2-474a-b875-d8df9be2c806","system_id":"levelo_inurba_marseille","lat":43.33605,"lon":5.41031,"is_reserved":false,"is_disabled":false,"rental_uris":{"android":"levelo://app?vid=40a1772f-b4a2-474a-b875-d8df9be2c806","ios":"levelo://app?vid=40a1772f-b4a2-474a-b875-d8df9be2c806"},"vehicle_type_id":"4","last_reported":1747289744,"current_range_meters":6800,"station_id":"ce4bhqh2rcd13ifvqhmg","pricing_plan_id":"cebpf4jnsgd1na2vs0mg"},{"bike_id":"7d63f300-6324-4261-8cea-1a23bc0a99d1","system_id":"levelo_inurba_marseille","lat":43.24081,"lon":5.37758,"is_reserved":false,"is_disabled":false,"rental_uris":{"android":"levelo://app?vid=7d63f300-6324-4261-8cea-1a23bc0a99d1","ios":"levelo://app?vid=7d63f300-6324-4261-8cea-1a23bc0a99d1"},"vehicle_type_id":"4","last_reported":1747289744,"current_range_meters":6800,"station_id":"ce4bhnp2rcd13ifvqgvg","pricing_plan_id":"cebpf4jnsgd1na2vs0mg"},{"bike_id":"f3ecc8b7-0dca-4f3f-ae72-52874d64f0e5","system_id":"levelo_inurba_marseille","lat":43.30965,"lon":5.39051,"is_reserved":false,"is_disabled":false,"rental_uris":{"android":"levelo://app?vid=f3ecc8b7-0dca-4f3f-ae72-52874d64f0e5","ios":"levelo://app?vid=f3ecc8b7-0dca-4f3f-ae72-52874d64f0e5"},"vehicle_type_id":"4","last_reported":1747289744,"current_range_meters":6800,"station_id":"ce4bgup2rcd13ifvqco0","pricing_plan_id":"cebpf4jnsgd1na2vs0mg"},{"bike_id":"8e3bb1ce-8954-4125-8880-680ee0367292","system_id":"levelo_inurba_marseille","lat":43.304645,"lon":5.379205,"is_reserved":false,"is_disabled":false,"rental_uris":{"android":"levelo://app?vid=8e3bb1ce-8954-4125-8880-680ee0367292","ios":"levelo://app?vid=8e3bb1ce-8954-4125-8880-680ee0367292"},"vehicle_type_id":"4","last_reported":1747289744,"current_range_meters":7200,"station_id":"ce4bgup2rcd13ifvqcn0","pricing_plan_id":"cebpf4jnsgd1na2vs0mg"},{"bike_id":"0bb79020-9be3-4f48-80f0-713e3bdc3e5d","system_id":"levelo_inurba_marseille","lat":43.341425,"lon":5.40903,"is_reserved":false,"is_disabled":false,"rental_uris":{"android":"levelo://app?vid=0bb79020-9be3-4f48-80f0-713e3bdc3e5d","ios":"levelo://app?vid=0bb79020-9be3-4f48-80f0-713e3bdc3e5d"},"vehicle_type_id":"4","last_reported":1747289744,"current_range_meters":7200,"station_id":"ce4bhqh2rcd13ifvqhlg","pricing_plan_id":"cebpf4jnsgd1na2vs0mg"},{"bike_id":"a4c5386b-2321-4ef1-b2a4-226bedd85cd8","system_id":"levelo_inurba_marseille","lat":43.25597,"lon":5.38237,"is_reserved":false,"is_disabled":false,"rental_uris":{"android":"levelo://app?vid=a4c5386b-2321-4ef1-b2a4-226bedd85cd8","ios":"levelo://app?vid=a4c5386b-2321-4ef1-b2a4-226bedd85cd8"},"vehicle_type_id":"4","last_reported":1747289744,"current_range_meters":7200,"station_id":"ce4bhih2rcd13ifvqfs0","pricing_plan_id":"cebpf4jnsgd1na2vs0mg"},{"bike_id":"d828e2de-776c-47d7-9f4f-4759a476dbbe","system_id":"levelo_inurba_marseille","lat":43.27207,"lon":5.39187,"is_reserved":false,"is_disabled":false,"rental_uris":{"android":"levelo://app?vid=d828e2de-776c-47d7-9f4f-4759a476dbbe","ios":"levelo://app?vid=d828e2de-776c-47d7-9f4f-4759a476dbbe"},"vehicle_type_id":"4","last_reported":1747289744,"current_range_meters":6800,"station_id":"ce4bhhp2rcd13ifvqfm0","pricing_plan_id":"cebpf4jnsgd1na2vs0mg"},{"bike_id":"229f26e6-0064-43d4-a9a3-34a090c94dc5","system_id":"levelo_inurba_marseille","lat":43.28944,"lon":5.36401,"is_reserved":false,"is_disabled":false,"rental_uris":{"android":"levelo://app?vid=229f26e6-0064-43d4-a9a3-34a090c94dc5","ios":"levelo://app?vid=229f26e6-0064-43d4-a9a3-34a090c94dc5"},"vehicle_type_id":"4","last_reported":1747289744,"current_range_meters":7200,"station_id":"ce4bhc92rcd13ifvqetg","pricing_plan_id":"cebpf4jnsgd1na2vs0mg"},{"bike_id":"cff07eda-0d35-48d7-ae3d-eafcd93e64af","system_id":"levelo_inurba_marseille","lat":43.31906,"lon":5.394499,"is_reserved":false,"is_disabled":false,"rental_uris":{"android":"levelo://app?vid=cff07eda-0d35-48d7-ae3d-eafcd93e64af","ios":"levelo://app?vid=cff07eda-0d35-48d7-ae3d-eafcd93e64af"},"vehicle_type_id":"4","last_reported":1747289744,"current_range_meters":8000,"station_id":"","pricing_plan_id":"cebpf4jnsgd1na2vs0mg"},{"bike_id":"fd9dc6e2-7bf9-49f8-8af8-689b0515ba1e","system_id":"levelo_inurba_marseille","lat":43.30484,"lon":5.37911,"is_reserved":false,"is_disabled":false,"rental_uris":{"android":"levelo://app?vid=fd9dc6e2-7bf9-49f8-8af8-689b0515ba1e","ios":"levelo://app?vid=fd9dc6e2-7bf9-49f8-8af8-689b0515ba1e"},"vehicle_type_id":"4","last_reported":1747289744,"current_range_meters":8000,"station_id":"ce4bgup2rcd13ifvqcn0","pricing_plan_id":"cebpf4jnsgd1na2vs0mg"},{"bike_id":"53d3e99a-fe32-470b-82e8-98cea0217d4d","system_id":"levelo_inurba_marseille","lat":43.30629,"lon":5.3723,"is_reserved":false,"is_disabled":false,"rental_uris":{"android":"levelo://app?vid=53d3e99a-fe32-470b-82e8-98cea0217d4d","ios":"levelo://app?vid=53d3e99a-fe32-470b-82e8-98cea0217d4d"},"vehicle_type_id":"4","last_reported":1747289744,"current_range_meters":8000,"station_id":"ce4bgqh2rcd13ifvqc4g","pricing_plan_id":"cebpf4jnsgd1na2vs0mg"},{"bike_id":"b2f61f9a-3154-45b8-9841-e9df8835686b","system_id":"levelo_inurba_marseille","lat":43.30457,"lon":5.37907,"is_reserved":false,"is_disabled":false,"rental_uris":{"android":"levelo://app?vid=b2f61f9a-3154-45b8-9841-e9df8835686b","ios":"levelo://app?vid=b2f61f9a-3154-45b8-9841-e9df8835686b"},"vehicle_type_id":"4","last_reported":1747289744,"current_range_meters":8000,"station_id":"ce4bgup2rcd13ifvqcn0","pricing_plan_id":"cebpf4jnsgd1na2vs0mg"},{"bike_id":"b607d6e3-da7b-4853-8a7c-cc109059d610","system_id":"levelo_inurba_marseille","lat":43.25117,"lon":5.40321,"is_reserved":false,"is_disabled":false,"rental_uris":{"android":"levelo://app?vid=b607d6e3-da7b-4853-8a7c-cc109059d610","ios":"levelo://app?vid=b607d6e3-da7b-4853-8a7c-cc109059d610"},"vehicle_type_id":"4","last_reported":1747289744,"current_range_meters":7200,"station_id":"ce4bhlh2rcd13ifvqgig","pricing_plan_id":"cebpf4jnsgd1na2vs0mg"},{"bike_id":"f02f23b3-6f8f-47e6-9356-4fdb8d0eeada","system_id":"levelo_inurba_marseille","lat":43.31523,"lon":5.38044,"is_reserved":false,"is_disabled":false,"rental_uris":{"android":"levelo://app?vid=f02f23b3-6f8f-47e6-9356-4fdb8d0eeada","ios":"levelo://app?vid=f02f23b3-6f8f-47e6-9356-4fdb8d0eeada"},"vehicle_type_id":"4","last_reported":1747289744,"current_range_meters":8000,"station_id":"ce4bhsp2rcd13ifvqi50","pricing_plan_id":"cebpf4jnsgd1na2vs0mg"},{"bike_id":"9a4c8304-7bd9-4848-91d5-630a5be49320","system_id":"levelo_inurba_marseille","lat":43.24087,"lon":5.37762,"is_reserved":false,"is_disabled":false,"rental_uris":{"android":"levelo://app?vid=9a4c8304-7bd9-4848-91d5-630a5be49320","ios":"levelo://app?vid=9a4c8304-7bd9-4848-91d5-630a5be49320"},"vehicle_type_id":"4","last_reported":1747289744,"current_range_meters":8000,"station_id":"ce4bhnp2rcd13ifvqgvg","pricing_plan_id":"cebpf4jnsgd1na2vs0mg"},{"bike_id":"a1bb8e67-fad9-4c62-8ab8-6a7cd6c22b08","system_id":"levelo_inurba_marseille","lat":43.24172,"lon":5.39707,"is_reserved":false,"is_disabled":false,"rental_uris":{"android":"levelo://app?vid=a1bb8e67-fad9-4c62-8ab8-6a7cd6c22b08","ios":"levelo://app?vid=a1bb8e67-fad9-4c62-8ab8-6a7cd6c22b08"},"vehicle_type_id":"4","last_reported":1747289744,"current_range_meters":8000,"station_id":"ce4bhn12rcd13ifvqgpg","pricing_plan_id":"cebpf4jnsgd1na2vs0mg"},{"bike_id":"0dc8d66b-f0cb-4c51-970f-b855be3b36ca","system_id":"levelo_inurba_marseille","lat":43.262033,"lon":5.379257,"is_reserved":false,"is_disabled":true,"rental_uris":{"android":"levelo://app?vid=0dc8d66b-f0cb-4c51-970f-b855be3b36ca","ios":"levelo://app?vid=0dc8d66b-f0cb-4c51-970f-b855be3b36ca"},"vehicle_type_id":"4","last_reported":1747289744,"current_range_meters":8000,"station_id":"ce4bhjp2rcd13ifvqg90","pricing_plan_id":"cebpf4jnsgd1na2vs0mg"},{"bike_id":"3faf053c-e846-4d83-83ee-8fd51efc38bb","system_id":"levelo_inurba_marseille","lat":43.321135,"lon":5.367841,"is_reserved":false,"is_disabled":false,"rental_uris":{"android":"levelo://app?vid=3faf053c-e846-4d83-83ee-8fd51efc38bb","ios":"levelo://app?vid=3faf053c-e846-4d83-83ee-8fd51efc38bb"},"vehicle_type_id":"4","last_reported":1747289744,"current_range_meters":8000,"station_id":"ce4bhrh2rcd13ifvqhug","pricing_plan_id":"cebpf4jnsgd1na2vs0mg"},{"bike_id":"afea9223-9843-4bc4-b660-724f9b19a9e3","system_id":"levelo_inurba_marseille","lat":43.30471,"lon":5.37894,"is_reserved":false,"is_disabled":false,"rental_uris":{"android":"levelo://app?vid=afea9223-9843-4bc4-b660-724f9b19a9e3","ios":"levelo://app?vid=afea9223-9843-4bc4-b660-724f9b19a9e3"},"vehicle_type_id":"4","last_reported":1747289744,"current_range_meters":8400,"station_id":"ce4bgup2rcd13ifvqcn0","pricing_plan_id":"cebpf4jnsgd1na2vs0mg"},{"bike_id":"341bba5b-5b6d-4a18-b008-1ad30fcd501c","system_id":"levelo_inurba_marseille","lat":43.30159,"lon":5.38098,"is_reserved":false,"is_disabled":false,"rental_uris":{"android":"levelo://app?vid=341bba5b-5b6d-4a18-b008-1ad30fcd501c","ios":"levelo://app?vid=341bba5b-5b6d-4a18-b008-1ad30fcd501c"},"vehicle_type_id":"4","last_reported":1747289744,"current_range_meters":8400,"station_id":"ce4bgjp2rcd13ifvqbh0","pricing_plan_id":"cebpf4jnsgd1na2vs0mg"},{"bike_id":"721d843c-a599-4a5d-957a-16eea613e29b","system_id":"levelo_inurba_marseille","lat":43.30213,"lon":5.3947,"is_reserved":false,"is_disabled":false,"rental_uris":{"android":"levelo://app?vid=721d843c-a599-4a5d-957a-16eea613e29b","ios":"levelo://app?vid=721d843c-a599-4a5d-957a-16eea613e29b"},"vehicle_type_id":"4","last_reported":1747289744,"current_range_meters":8400,"station_id":"ce4bh0p2rcd13ifvqd70","pricing_plan_id":"cebpf4jnsgd1na2vs0mg"},{"bike_id":"7334a686-a803-4359-8857-10dc09939f33","system_id":"levelo_inurba_marseille","lat":43.262218,"lon":5.40471,"is_reserved":false,"is_disabled":false,"rental_uris":{"android":"levelo://app?vid=7334a686-a803-4359-8857-10dc09939f33","ios":"levelo://app?vid=7334a686-a803-4359-8857-10dc09939f33"},"vehicle_type_id":"4","last_reported":1747289744,"current_range_meters":8400,"station_id":"ce4bhmh2rcd13ifvqgmg","pricing_plan_id":"cebpf4jnsgd1na2vs0mg"},{"bike_id":"36c6bcb0-4b72-4f11-9d66-5f27c03dacc1","system_id":"levelo_inurba_marseille","lat":43.30463,"lon":5.37903,"is_reserved":false,"is_disabled":false,"rental_uris":{"android":"levelo://app?vid=36c6bcb0-4b72-4f11-9d66-5f27c03dacc1","ios":"levelo://app?vid=36c6bcb0-4b72-4f11-9d66-5f27c03dacc1"},"vehicle_type_id":"4","last_reported":1747289744,"current_range_meters":8400,"station_id":"ce4bgup2rcd13ifvqcn0","pricing_plan_id":"cebpf4jnsgd1na2vs0mg"},{"bike_id":"e3faef6f-635a-4b6b-b2b3-c0b918604df6","system_id":"levelo_inurba_marseille","lat":43.29916,"lon":5.43665,"is_reserved":false,"is_disabled":false,"rental_uris":{"android":"levelo://app?vid=e3faef6f-635a-4b6b-b2b3-c0b918604df6","ios":"levelo://app?vid=e3faef6f-635a-4b6b-b2b3-c0b918604df6"},"vehicle_type_id":"4","last_reported":1747289744,"current_range_meters":8400,"station_id":"ce4bhpp2rcd13ifvqhfg","pricing_plan_id":"cebpf4jnsgd1na2vs0mg"},{"bike_id":"6a94c510-06e9-4819-80f4-2a1f66907200","system_id":"levelo_inurba_marseille","lat":43.243314,"lon":5.379952,"is_reserved":false,"is_disabled":false,"rental_uris":{"android":"levelo://app?vid=6a94c510-06e9-4819-80f4-2a1f66907200","ios":"levelo://app?vid=6a94c510-06e9-4819-80f4-2a1f66907200"},"vehicle_type_id":"4","last_reported":1747289744,"current_range_meters":8800,"station_id":"","pricing_plan_id":"cebpf4jnsgd1na2vs0mg"},{"bike_id":"d414cc79-093d-4e3c-a0fb-23753cfee462","system_id":"levelo_inurba_marseille","lat":43.304889,"lon":5.36594,"is_reserved":false,"is_disabled":false,"rental_uris":{"android":"levelo://app?vid=d414cc79-093d-4e3c-a0fb-23753cfee462","ios":"levelo://app?vid=d414cc79-093d-4e3c-a0fb-23753cfee462"},"vehicle_type_id":"4","last_reported":1747289744,"current_range_meters":8800,"station_id":"ce4bgs12rcd13ifvqcag","pricing_plan_id":"cebpf4jnsgd1na2vs0mg"},{"bike_id":"be04f340-892a-49fb-8fe5-f90ff8d8eaf6","system_id":"levelo_inurba_marseille","lat":43.30465,"lon":5.37917,"is_reserved":false,"is_disabled":false,"rental_uris":{"android":"levelo://app?vid=be04f340-892a-49fb-8fe5-f90ff8d8eaf6","ios":"levelo://app?vid=be04f340-892a-49fb-8fe5-f90ff8d8eaf6"},"vehicle_type_id":"4","last_reported":1747289744,"current_range_meters":8800,"station_id":"ce4bgup2rcd13ifvqcn0","pricing_plan_id":"cebpf4jnsgd1na2vs0mg"},{"bike_id":"750ccf2c-b561-46ad-9a4f-bd18eb49cbee","system_id":"levelo_inurba_marseille","lat":43.29713,"lon":5.36599,"is_reserved":false,"is_disabled":false,"rental_uris":{"android":"levelo://app?vid=750ccf2c-b561-46ad-9a4f-bd18eb49cbee","ios":"levelo://app?vid=750ccf2c-b561-46ad-9a4f-bd18eb49cbee"},"vehicle_type_id":"4","last_reported":1747289744,"current_range_meters":8800,"station_id":"ce4bgn12rcd13ifvqbt0","pricing_plan_id":"cebpf4jnsgd1na2vs0mg"},{"bike_id":"0cdbca49-b276-449f-a941-1fbcbec55b0b","system_id":"levelo_inurba_marseille","lat":43.29232,"lon":5.36426,"is_reserved":false,"is_disabled":true,"rental_uris":{"android":"levelo://app?vid=0cdbca49-b276-449f-a941-1fbcbec55b0b","ios":"levelo://app?vid=0cdbca49-b276-449f-a941-1fbcbec55b0b"},"vehicle_type_id":"4","last_reported":1747289744,"current_range_meters":9200,"station_id":"","pricing_plan_id":"cebpf4jnsgd1na2vs0mg"},{"bike_id":"959d051f-6e67-41aa-b8ac-868da9b5ffa1","system_id":"levelo_inurba_marseille","lat":43.29917,"lon":5.37468,"is_reserved":false,"is_disabled":false,"rental_uris":{"android":"levelo://app?vid=959d051f-6e67-41aa-b8ac-868da9b5ffa1","ios":"levelo://app?vid=959d051f-6e67-41aa-b8ac-868da9b5ffa1"},"vehicle_type_id":"4","last_reported":1747289744,"current_range_meters":9600,"station_id":"ce4bgjh2rcd13ifvqbg0","pricing_plan_id":"cebpf4jnsgd1na2vs0mg"},{"bike_id":"ee2a27af-695b-45e2-911d-1feb4d3d8904","system_id":"levelo_inurba_marseille","lat":43.30934,"lon":5.40149,"is_reserved":false,"is_disabled":false,"rental_uris":{"android":"levelo://app?vid=ee2a27af-695b-45e2-911d-1feb4d3d8904","ios":"levelo://app?vid=ee2a27af-695b-45e2-911d-1feb4d3d8904"},"vehicle_type_id":"4","last_reported":1747289744,"current_range_meters":9600,"station_id":"ce4bgvp2rcd13ifvqct0","pricing_plan_id":"cebpf4jnsgd1na2vs0mg"},{"bike_id":"05c47f72-6d9e-46e6-beb0-6bd1cfc6c47e","system_id":"levelo_inurba_marseille","lat":43.27493,"lon":5.42451,"is_reserved":false,"is_disabled":false,"rental_uris":{"android":"levelo://app?vid=05c47f72-6d9e-46e6-beb0-6bd1cfc6c47e","ios":"levelo://app?vid=05c47f72-6d9e-46e6-beb0-6bd1cfc6c47e"},"vehicle_type_id":"4","last_reported":1747289744,"current_range_meters":9600,"station_id":"ce4bhn92rcd13ifvqgrg","pricing_plan_id":"cebpf4jnsgd1na2vs0mg"},{"bike_id":"b4ab39c3-0d60-4245-b87b-09baaec1b976","system_id":"levelo_inurba_marseille","lat":43.29907,"lon":5.38153,"is_reserved":false,"is_disabled":false,"rental_uris":{"android":"levelo://app?vid=b4ab39c3-0d60-4245-b87b-09baaec1b976","ios":"levelo://app?vid=b4ab39c3-0d60-4245-b87b-09baaec1b976"},"vehicle_type_id":"4","last_reported":1747289744,"current_range_meters":9600,"station_id":"ce4bgj12rcd13ifvqbc0","pricing_plan_id":"cebpf4jnsgd1na2vs0mg"},{"bike_id":"1bde3574-3052-46ea-a49f-4899391e2543","system_id":"levelo_inurba_marseille","lat":43.33609,"lon":5.410404,"is_reserved":false,"is_disabled":false,"rental_uris":{"android":"levelo://app?vid=1bde3574-3052-46ea-a49f-4899391e2543","ios":"levelo://app?vid=1bde3574-3052-46ea-a49f-4899391e2543"},"vehicle_type_id":"4","last_reported":1747289744,"current_range_meters":9600,"station_id":"ce4bhqh2rcd13ifvqhmg","pricing_plan_id":"cebpf4jnsgd1na2vs0mg"},{"bike_id":"4d83a49d-a4f7-4140-bff3-bb3633e6dccc","system_id":"levelo_inurba_marseille","lat":43.32364,"lon":5.3889,"is_reserved":false,"is_disabled":false,"rental_uris":{"android":"levelo://app?vid=4d83a49d-a4f7-4140-bff3-bb3633e6dccc","ios":"levelo://app?vid=4d83a49d-a4f7-4140-bff3-bb3633e6dccc"},"vehicle_type_id":"4","last_reported":1747289744,"current_range_meters":9600,"station_id":"ce4bhqp2rcd13ifvqhog","pricing_plan_id":"cebpf4jnsgd1na2vs0mg"},{"bike_id":"9f22b8aa-a9ca-4a2c-ab0b-0a0b10dbe182","system_id":"levelo_inurba_marseille","lat":43.32489,"lon":5.36551,"is_reserved":false,"is_disabled":false,"rental_uris":{"android":"levelo://app?vid=9f22b8aa-a9ca-4a2c-ab0b-0a0b10dbe182","ios":"levelo://app?vid=9f22b8aa-a9ca-4a2c-ab0b-0a0b10dbe182"},"vehicle_type_id":"4","last_reported":1747289744,"current_range_meters":10000,"station_id":"ce4bhs12rcd13ifvqhvg","pricing_plan_id":"cebpf4jnsgd1na2vs0mg"},{"bike_id":"c68022f0-7be7-4dde-9a51-7a59aed68b2d","system_id":"levelo_inurba_marseille","lat":43.23163,"lon":5.43712,"is_reserved":false,"is_disabled":false,"rental_uris":{"android":"levelo://app?vid=c68022f0-7be7-4dde-9a51-7a59aed68b2d","ios":"levelo://app?vid=c68022f0-7be7-4dde-9a51-7a59aed68b2d"},"vehicle_type_id":"4","last_reported":1747289744,"current_range_meters":8400,"station_id":"ce4bhmp2rcd13ifvqgog","pricing_plan_id":"cebpf4jnsgd1na2vs0mg"},{"bike_id":"a927d1bc-b619-414d-8814-850ab7668aca","system_id":"levelo_inurba_marseille","lat":43.28846,"lon":5.39333,"is_reserved":false,"is_disabled":true,"rental_uris":{"android":"levelo://app?vid=a927d1bc-b619-414d-8814-850ab7668aca","ios":"levelo://app?vid=a927d1bc-b619-414d-8814-850ab7668aca"},"vehicle_type_id":"4","last_reported":1747289744,"current_range_meters":10000,"station_id":"ce4bh2p2rcd13ifvqdi0","pricing_plan_id":"cebpf4jnsgd1na2vs0mg"},{"bike_id":"17d57f58-ffb0-4d77-bbe5-7f462887ac74","system_id":"levelo_inurba_marseille","lat":43.24167,"lon":5.39703,"is_reserved":false,"is_disabled":false,"rental_uris":{"android":"levelo://app?vid=17d57f58-ffb0-4d77-bbe5-7f462887ac74","ios":"levelo://app?vid=17d57f58-ffb0-4d77-bbe5-7f462887ac74"},"vehicle_type_id":"4","last_reported":1747289744,"current_range_meters":10000,"station_id":"ce4bhn12rcd13ifvqgpg","pricing_plan_id":"cebpf4jnsgd1na2vs0mg"},{"bike_id":"f5cc8bee-1485-44f4-b90a-865b0c2e5b53","system_id":"levelo_inurba_marseille","lat":43.29038,"lon":5.39957,"is_reserved":false,"is_disabled":false,"rental_uris":{"android":"levelo://app?vid=f5cc8bee-1485-44f4-b90a-865b0c2e5b53","ios":"levelo://app?vid=f5cc8bee-1485-44f4-b90a-865b0c2e5b53"},"vehicle_type_id":"4","last_reported":1747289744,"current_range_meters":10000,"station_id":"ce4bh392rcd13ifvqdm0","pricing_plan_id":"cebpf4jnsgd1na2vs0mg"},{"bike_id":"0ee57cd3-b290-46af-a35a-6f306772e452","system_id":"levelo_inurba_marseille","lat":43.30662,"lon":5.40273,"is_reserved":false,"is_disabled":true,"rental_uris":{"android":"levelo://app?vid=0ee57cd3-b290-46af-a35a-6f306772e452","ios":"levelo://app?vid=0ee57cd3-b290-46af-a35a-6f306772e452"},"vehicle_type_id":"4","last_reported":1747289744,"current_range_meters":10000,"station_id":"","pricing_plan_id":"cebpf4jnsgd1na2vs0mg"},{"bike_id":"9cd179ff-655d-4aae-95f7-1090ffed8a5b","system_id":"levelo_inurba_marseille","lat":43.29586,"lon":5.38107,"is_reserved":false,"is_disabled":false,"rental_uris":{"android":"levelo://app?vid=9cd179ff-655d-4aae-95f7-1090ffed8a5b","ios":"levelo://app?vid=9cd179ff-655d-4aae-95f7-1090ffed8a5b"},"vehicle_type_id":"4","last_reported":1747289744,"current_range_meters":10800,"station_id":"ce4bgl12rcd13ifvqbo0","pricing_plan_id":"cebpf4jnsgd1na2vs0mg"},{"bike_id":"4c14cb0a-2486-43a3-a508-1677b3a56078","system_id":"levelo_inurba_marseille","lat":43.30152,"lon":5.38103,"is_reserved":false,"is_disabled":false,"rental_uris":{"android":"levelo://app?vid=4c14cb0a-2486-43a3-a508-1677b3a56078","ios":"levelo://app?vid=4c14cb0a-2486-43a3-a508-1677b3a56078"},"vehicle_type_id":"4","last_reported":1747289744,"current_range_meters":10800,"station_id":"ce4bgjp2rcd13ifvqbh0","pricing_plan_id":"cebpf4jnsgd1na2vs0mg"},{"bike_id":"be6b3665-7ab1-4315-8901-5a830be3626f","system_id":"levelo_inurba_marseille","lat":43.30781,"lon":5.37646,"is_reserved":false,"is_disabled":false,"rental_uris":{"android":"levelo://app?vid=be6b3665-7ab1-4315-8901-5a830be3626f","ios":"levelo://app?vid=be6b3665-7ab1-4315-8901-5a830be3626f"},"vehicle_type_id":"4","last_reported":1747289744,"current_range_meters":10800,"station_id":"ce4bgv92rcd13ifvqcq0","pricing_plan_id":"cebpf4jnsgd1na2vs0mg"},{"bike_id":"381280fb-f335-47c4-8386-d6f8e9fbf6fc","system_id":"levelo_inurba_marseille","lat":43.31345,"lon":5.36718,"is_reserved":false,"is_disabled":false,"rental_uris":{"android":"levelo://app?vid=381280fb-f335-47c4-8386-d6f8e9fbf6fc","ios":"levelo://app?vid=381280fb-f335-47c4-8386-d6f8e9fbf6fc"},"vehicle_type_id":"4","last_reported":1747289744,"current_range_meters":10800,"station_id":"ce4bgr92rcd13ifvqc6g","pricing_plan_id":"cebpf4jnsgd1na2vs0mg"},{"bike_id":"080c5bc8-2a50-4d60-9a30-88ce86670d7a","system_id":"levelo_inurba_marseille","lat":43.27069,"lon":5.40257,"is_reserved":false,"is_disabled":false,"rental_uris":{"android":"levelo://app?vid=080c5bc8-2a50-4d60-9a30-88ce86670d7a","ios":"levelo://app?vid=080c5bc8-2a50-4d60-9a30-88ce86670d7a"},"vehicle_type_id":"4","last_reported":1747289744,"current_range_meters":10800,"station_id":"ce4bhk92rcd13ifvqgc0","pricing_plan_id":"cebpf4jnsgd1na2vs0mg"},{"bike_id":"46d8de76-ce03-4a99-b9a9-0e690e273029","system_id":"levelo_inurba_marseille","lat":43.337475,"lon":5.374066,"is_reserved":false,"is_disabled":false,"rental_uris":{"android":"levelo://app?vid=46d8de76-ce03-4a99-b9a9-0e690e273029","ios":"levelo://app?vid=46d8de76-ce03-4a99-b9a9-0e690e273029"},"vehicle_type_id":"4","last_reported":1747289744,"current_range_meters":10800,"station_id":"","pricing_plan_id":"cebpf4jnsgd1na2vs0mg"},{"bike_id":"b0f1ab01-a1ab-45ee-aa57-f12a31c55928","system_id":"levelo_inurba_marseille","lat":43.27731,"lon":5.39961,"is_reserved":false,"is_disabled":false,"rental_uris":{"android":"levelo://app?vid=b0f1ab01-a1ab-45ee-aa57-f12a31c55928","ios":"levelo://app?vid=b0f1ab01-a1ab-45ee-aa57-f12a31c55928"},"vehicle_type_id":"4","last_reported":1747289744,"current_range_meters":10800,"station_id":"","pricing_plan_id":"cebpf4jnsgd1na2vs0mg"},{"bike_id":"ce49902f-86fc-436c-9d62-722d965952cd","system_id":"levelo_inurba_marseille","lat":43.29913,"lon":5.38137,"is_reserved":false,"is_disabled":false,"rental_uris":{"android":"levelo://app?vid=ce49902f-86fc-436c-9d62-722d965952cd","ios":"levelo://app?vid=ce49902f-86fc-436c-9d62-722d965952cd"},"vehicle_type_id":"4","last_reported":1747289744,"current_range_meters":10000,"station_id":"ce4bgj12rcd13ifvqbc0","pricing_plan_id":"cebpf4jnsgd1na2vs0mg"},{"bike_id":"ee5290fb-d7a6-4d63-baae-3888077f8d97","system_id":"levelo_inurba_marseille","lat":43.30596,"lon":5.39361,"is_reserved":false,"is_disabled":false,"rental_uris":{"android":"levelo://app?vid=ee5290fb-d7a6-4d63-baae-3888077f8d97","ios":"levelo://app?vid=ee5290fb-d7a6-4d63-baae-3888077f8d97"},"vehicle_type_id":"4","last_reported":1747289744,"current_range_meters":11200,"station_id":"ce4bh0p2rcd13ifvqd80","pricing_plan_id":"cebpf4jnsgd1na2vs0mg"},{"bike_id":"39046ba3-2299-4be6-be8e-5b507dc16da1","system_id":"levelo_inurba_marseille","lat":43.3047,"lon":5.379,"is_reserved":false,"is_disabled":false,"rental_uris":{"android":"levelo://app?vid=39046ba3-2299-4be6-be8e-5b507dc16da1","ios":"levelo://app?vid=39046ba3-2299-4be6-be8e-5b507dc16da1"},"vehicle_type_id":"4","last_reported":1747289744,"current_range_meters":11200,"station_id":"ce4bgup2rcd13ifvqcn0","pricing_plan_id":"cebpf4jnsgd1na2vs0mg"},{"bike_id":"f2fa3917-52e2-462b-8250-01097feb44e5","system_id":"levelo_inurba_marseille","lat":43.24173,"lon":5.39727,"is_reserved":false,"is_disabled":false,"rental_uris":{"android":"levelo://app?vid=f2fa3917-52e2-462b-8250-01097feb44e5","ios":"levelo://app?vid=f2fa3917-52e2-462b-8250-01097feb44e5"},"vehicle_type_id":"4","last_reported":1747289744,"current_range_meters":11600,"station_id":"ce4bhn12rcd13ifvqgpg","pricing_plan_id":"cebpf4jnsgd1na2vs0mg"},{"bike_id":"42864edc-74f1-4ba8-a97b-f44903191e4a","system_id":"levelo_inurba_marseille","lat":43.24081,"lon":5.37753,"is_reserved":false,"is_disabled":false,"rental_uris":{"android":"levelo://app?vid=42864edc-74f1-4ba8-a97b-f44903191e4a","ios":"levelo://app?vid=42864edc-74f1-4ba8-a97b-f44903191e4a"},"vehicle_type_id":"4","last_reported":1747289744,"current_range_meters":11600,"station_id":"ce4bhnp2rcd13ifvqgvg","pricing_plan_id":"cebpf4jnsgd1na2vs0mg"},{"bike_id":"2fbf9af1-2df2-4aeb-8b20-a4c95e106089","system_id":"levelo_inurba_marseille","lat":43.24072,"lon":5.37758,"is_reserved":false,"is_disabled":false,"rental_uris":{"android":"levelo://app?vid=2fbf9af1-2df2-4aeb-8b20-a4c95e106089","ios":"levelo://app?vid=2fbf9af1-2df2-4aeb-8b20-a4c95e106089"},"vehicle_type_id":"4","last_reported":1747289744,"current_range_meters":11600,"station_id":"ce4bhnp2rcd13ifvqgvg","pricing_plan_id":"cebpf4jnsgd1na2vs0mg"},{"bike_id":"f4a29ccd-2645-41bd-91b7-57baafbe4e16","system_id":"levelo_inurba_marseille","lat":43.28997,"lon":5.3559,"is_reserved":false,"is_disabled":true,"rental_uris":{"android":"levelo://app?vid=f4a29ccd-2645-41bd-91b7-57baafbe4e16","ios":"levelo://app?vid=f4a29ccd-2645-41bd-91b7-57baafbe4e16"},"vehicle_type_id":"4","last_reported":1747289744,"current_range_meters":11600,"station_id":"ce4bhb92rcd13ifvqen0","pricing_plan_id":"cebpf4jnsgd1na2vs0mg"},{"bike_id":"15b78ca4-8eda-4012-b392-8e1c04a2c79c","system_id":"levelo_inurba_marseille","lat":43.279815,"lon":5.416596,"is_reserved":false,"is_disabled":true,"rental_uris":{"android":"levelo://app?vid=15b78ca4-8eda-4012-b392-8e1c04a2c79c","ios":"levelo://app?vid=15b78ca4-8eda-4012-b392-8e1c04a2c79c"},"vehicle_type_id":"4","last_reported":1747289744,"current_range_meters":11600,"station_id":"ce4bho12rcd13ifvqh1g","pricing_plan_id":"cebpf4jnsgd1na2vs0mg"},{"bike_id":"82f7619c-d685-4421-b37f-a5e414b128f3","system_id":"levelo_inurba_marseille","lat":43.2408,"lon":5.3774,"is_reserved":false,"is_disabled":false,"rental_uris":{"android":"levelo://app?vid=82f7619c-d685-4421-b37f-a5e414b128f3","ios":"levelo://app?vid=82f7619c-d685-4421-b37f-a5e414b128f3"},"vehicle_type_id":"4","last_reported":1747289744,"current_range_meters":11600,"station_id":"ce4bhnp2rcd13ifvqgvg","pricing_plan_id":"cebpf4jnsgd1na2vs0mg"},{"bike_id":"8c7308bf-84fd-4edb-9b86-07fbeaf5e51b","system_id":"levelo_inurba_marseille","lat":43.31716,"lon":5.42405,"is_reserved":false,"is_disabled":false,"rental_uris":{"android":"levelo://app?vid=8c7308bf-84fd-4edb-9b86-07fbeaf5e51b","ios":"levelo://app?vid=8c7308bf-84fd-4edb-9b86-07fbeaf5e51b"},"vehicle_type_id":"4","last_reported":1747289744,"current_range_meters":11600,"station_id":"ce4bhp92rcd13ifvqhbg","pricing_plan_id":"cebpf4jnsgd1na2vs0mg"},{"bike_id":"7d4b24cf-88a0-49f6-b6a5-d91d4118010c","system_id":"levelo_inurba_marseille","lat":43.24094,"lon":5.37758,"is_reserved":false,"is_disabled":false,"rental_uris":{"android":"levelo://app?vid=7d4b24cf-88a0-49f6-b6a5-d91d4118010c","ios":"levelo://app?vid=7d4b24cf-88a0-49f6-b6a5-d91d4118010c"},"vehicle_type_id":"4","last_reported":1747289744,"current_range_meters":12000,"station_id":"ce4bhnp2rcd13ifvqgvg","pricing_plan_id":"cebpf4jnsgd1na2vs0mg"},{"bike_id":"53a13530-6ee8-40f8-afdd-b0eaf579f331","system_id":"levelo_inurba_marseille","lat":43.33608,"lon":5.41022,"is_reserved":false,"is_disabled":false,"rental_uris":{"android":"levelo://app?vid=53a13530-6ee8-40f8-afdd-b0eaf579f331","ios":"levelo://app?vid=53a13530-6ee8-40f8-afdd-b0eaf579f331"},"vehicle_type_id":"4","last_reported":1747289744,"current_range_meters":12000,"station_id":"ce4bhqh2rcd13ifvqhmg","pricing_plan_id":"cebpf4jnsgd1na2vs0mg"},{"bike_id":"dd8f5198-c17f-4b8a-83c8-58a1b458f4dc","system_id":"levelo_inurba_marseille","lat":43.29605,"lon":5.38103,"is_reserved":false,"is_disabled":false,"rental_uris":{"android":"levelo://app?vid=dd8f5198-c17f-4b8a-83c8-58a1b458f4dc","ios":"levelo://app?vid=dd8f5198-c17f-4b8a-83c8-58a1b458f4dc"},"vehicle_type_id":"4","last_reported":1747289744,"current_range_meters":11600,"station_id":"ce4bgl12rcd13ifvqbo0","pricing_plan_id":"cebpf4jnsgd1na2vs0mg"},{"bike_id":"11f7d866-c239-4a88-be88-1e69b15a4e2e","system_id":"levelo_inurba_marseille","lat":43.31898,"lon":5.40731,"is_reserved":false,"is_disabled":false,"rental_uris":{"android":"levelo://app?vid=11f7d866-c239-4a88-be88-1e69b15a4e2e","ios":"levelo://app?vid=11f7d866-c239-4a88-be88-1e69b15a4e2e"},"vehicle_type_id":"4","last_reported":1747289744,"current_range_meters":12400,"station_id":"ce4bhq12rcd13ifvqhig","pricing_plan_id":"cebpf4jnsgd1na2vs0mg"},{"bike_id":"b4d1483e-f3b5-4a20-abde-8a6afdb2fce0","system_id":"levelo_inurba_marseille","lat":43.30532,"lon":5.36708,"is_reserved":false,"is_disabled":false,"rental_uris":{"android":"levelo://app?vid=b4d1483e-f3b5-4a20-abde-8a6afdb2fce0","ios":"levelo://app?vid=b4d1483e-f3b5-4a20-abde-8a6afdb2fce0"},"vehicle_type_id":"4","last_reported":1747289744,"current_range_meters":12400,"station_id":"ce4bgrp2rcd13ifvqc9g","pricing_plan_id":"cebpf4jnsgd1na2vs0mg"},{"bike_id":"b4425cde-6e90-4cf6-9e9a-9b59768a453d","system_id":"levelo_inurba_marseille","lat":43.29709,"lon":5.36602,"is_reserved":false,"is_disabled":true,"rental_uris":{"android":"levelo://app?vid=b4425cde-6e90-4cf6-9e9a-9b59768a453d","ios":"levelo://app?vid=b4425cde-6e90-4cf6-9e9a-9b59768a453d"},"vehicle_type_id":"4","last_reported":1747289744,"current_range_meters":12400,"station_id":"ce4bgn12rcd13ifvqbt0","pricing_plan_id":"cebpf4jnsgd1na2vs0mg"},{"bike_id":"cc377332-c824-4cf8-bc9d-97d1852f3692","system_id":"levelo_inurba_marseille","lat":43.31643,"lon":5.40473,"is_reserved":false,"is_disabled":false,"rental_uris":{"android":"levelo://app?vid=cc377332-c824-4cf8-bc9d-97d1852f3692","ios":"levelo://app?vid=cc377332-c824-4cf8-bc9d-97d1852f3692"},"vehicle_type_id":"4","last_reported":1747289744,"current_range_meters":12800,"station_id":"ce4bh012rcd13ifvqd00","pricing_plan_id":"cebpf4jnsgd1na2vs0mg"},{"bike_id":"705ada52-6d80-4365-9d66-a37353d0bfca","system_id":"levelo_inurba_marseille","lat":43.274925,"lon":5.424585,"is_reserved":false,"is_disabled":false,"rental_uris":{"android":"levelo://app?vid=705ada52-6d80-4365-9d66-a37353d0bfca","ios":"levelo://app?vid=705ada52-6d80-4365-9d66-a37353d0bfca"},"vehicle_type_id":"4","last_reported":1747289744,"current_range_meters":12800,"station_id":"ce4bhn92rcd13ifvqgrg","pricing_plan_id":"cebpf4jnsgd1na2vs0mg"},{"bike_id":"a7a3d8d2-d4c3-469c-b962-d9c90b2eca97","system_id":"levelo_inurba_marseille","lat":43.284059,"lon":5.375392,"is_reserved":false,"is_disabled":true,"rental_uris":{"android":"levelo://app?vid=a7a3d8d2-d4c3-469c-b962-d9c90b2eca97","ios":"levelo://app?vid=a7a3d8d2-d4c3-469c-b962-d9c90b2eca97"},"vehicle_type_id":"4","last_reported":1747289744,"current_range_meters":13600,"station_id":"ce4bh412rcd13ifvqds0","pricing_plan_id":"cebpf4jnsgd1na2vs0mg"},{"bike_id":"f9241a38-cd06-4f93-a95f-0116e8f3104d","system_id":"levelo_inurba_marseille","lat":43.3018,"lon":5.38025,"is_reserved":false,"is_disabled":false,"rental_uris":{"android":"levelo://app?vid=f9241a38-cd06-4f93-a95f-0116e8f3104d","ios":"levelo://app?vid=f9241a38-cd06-4f93-a95f-0116e8f3104d"},"vehicle_type_id":"4","last_reported":1747289744,"current_range_meters":13600,"station_id":"","pricing_plan_id":"cebpf4jnsgd1na2vs0mg"},{"bike_id":"20ae89a2-542c-444a-bba7-d88d163745c3","system_id":"levelo_inurba_marseille","lat":43.29235,"lon":5.40872,"is_reserved":false,"is_disabled":true,"rental_uris":{"android":"levelo://app?vid=20ae89a2-542c-444a-bba7-d88d163745c3","ios":"levelo://app?vid=20ae89a2-542c-444a-bba7-d88d163745c3"},"vehicle_type_id":"4","last_reported":1747289744,"current_range_meters":13600,"station_id":"","pricing_plan_id":"cebpf4jnsgd1na2vs0mg"},{"bike_id":"24f5c00b-dc7e-40e1-a77c-02041c4d0155","system_id":"levelo_inurba_marseille","lat":43.29419,"lon":5.38612,"is_reserved":false,"is_disabled":true,"rental_uris":{"android":"levelo://app?vid=24f5c00b-dc7e-40e1-a77c-02041c4d0155","ios":"levelo://app?vid=24f5c00b-dc7e-40e1-a77c-02041c4d0155"},"vehicle_type_id":"4","last_reported":1747289744,"current_range_meters":13600,"station_id":"ce4bh2h2rcd13ifvqdh0","pricing_plan_id":"cebpf4jnsgd1na2vs0mg"},{"bike_id":"94425245-09df-4108-9a30-610dbcaf2585","system_id":"levelo_inurba_marseille","lat":43.31725,"lon":5.42383,"is_reserved":false,"is_disabled":false,"rental_uris":{"android":"levelo://app?vid=94425245-09df-4108-9a30-610dbcaf2585","ios":"levelo://app?vid=94425245-09df-4108-9a30-610dbcaf2585"},"vehicle_type_id":"4","last_reported":1747289744,"current_range_meters":14000,"station_id":"ce4bhp92rcd13ifvqhbg","pricing_plan_id":"cebpf4jnsgd1na2vs0mg"},{"bike_id":"21f5a1a4-43c5-4049-8a8d-3146c5c35157","system_id":"levelo_inurba_marseille","lat":43.22922,"lon":5.35389,"is_reserved":false,"is_disabled":false,"rental_uris":{"android":"levelo://app?vid=21f5a1a4-43c5-4049-8a8d-3146c5c35157","ios":"levelo://app?vid=21f5a1a4-43c5-4049-8a8d-3146c5c35157"},"vehicle_type_id":"4","last_reported":1747289744,"current_range_meters":14000,"station_id":"cpo3532slgdg3j2ikp40","pricing_plan_id":"cebpf4jnsgd1na2vs0mg"},{"bike_id":"0b46acae-aa66-48d6-8f98-6fd4e7aecb8b","system_id":"levelo_inurba_marseille","lat":43.30477,"lon":5.379,"is_reserved":false,"is_disabled":false,"rental_uris":{"android":"levelo://app?vid=0b46acae-aa66-48d6-8f98-6fd4e7aecb8b","ios":"levelo://app?vid=0b46acae-aa66-48d6-8f98-6fd4e7aecb8b"},"vehicle_type_id":"4","last_reported":1747289744,"current_range_meters":14000,"station_id":"ce4bgup2rcd13ifvqcn0","pricing_plan_id":"cebpf4jnsgd1na2vs0mg"},{"bike_id":"cfae641a-54c0-4b9b-b874-774267c67373","system_id":"levelo_inurba_marseille","lat":43.28989,"lon":5.43201,"is_reserved":false,"is_disabled":false,"rental_uris":{"android":"levelo://app?vid=cfae641a-54c0-4b9b-b874-774267c67373","ios":"levelo://app?vid=cfae641a-54c0-4b9b-b874-774267c67373"},"vehicle_type_id":"4","last_reported":1747289744,"current_range_meters":14000,"station_id":"","pricing_plan_id":"cebpf4jnsgd1na2vs0mg"},{"bike_id":"4cbd4534-ad93-4b80-bdca-53e39c8fee62","system_id":"levelo_inurba_marseille","lat":43.304555,"lon":5.379013,"is_reserved":false,"is_disabled":true,"rental_uris":{"android":"levelo://app?vid=4cbd4534-ad93-4b80-bdca-53e39c8fee62","ios":"levelo://app?vid=4cbd4534-ad93-4b80-bdca-53e39c8fee62"},"vehicle_type_id":"4","last_reported":1747289744,"current_range_meters":14400,"station_id":"ce4bgup2rcd13ifvqcn0","pricing_plan_id":"cebpf4jnsgd1na2vs0mg"},{"bike_id":"503b1e6e-2a73-4f04-bb9f-80c3831538b1","system_id":"levelo_inurba_marseille","lat":43.3092,"lon":5.36854,"is_reserved":false,"is_disabled":true,"rental_uris":{"android":"levelo://app?vid=503b1e6e-2a73-4f04-bb9f-80c3831538b1","ios":"levelo://app?vid=503b1e6e-2a73-4f04-bb9f-80c3831538b1"},"vehicle_type_id":"4","last_reported":1747289744,"current_range_meters":14400,"station_id":"ce4bgn92rcd13ifvqbvg","pricing_plan_id":"cebpf4jnsgd1na2vs0mg"},{"bike_id":"f9ef20ee-2868-4ab3-b299-beff0ae1a47a","system_id":"levelo_inurba_marseille","lat":43.29688,"lon":5.37707,"is_reserved":false,"is_disabled":false,"rental_uris":{"android":"levelo://app?vid=f9ef20ee-2868-4ab3-b299-beff0ae1a47a","ios":"levelo://app?vid=f9ef20ee-2868-4ab3-b299-beff0ae1a47a"},"vehicle_type_id":"4","last_reported":1747289744,"current_range_meters":14400,"station_id":"ce4bgkh2rcd13ifvqbl0","pricing_plan_id":"cebpf4jnsgd1na2vs0mg"},{"bike_id":"d344fb6b-ab64-46dd-bb25-69e5588d7f5b","system_id":"levelo_inurba_marseille","lat":43.3095,"lon":5.39057,"is_reserved":false,"is_disabled":false,"rental_uris":{"android":"levelo://app?vid=d344fb6b-ab64-46dd-bb25-69e5588d7f5b","ios":"levelo://app?vid=d344fb6b-ab64-46dd-bb25-69e5588d7f5b"},"vehicle_type_id":"4","last_reported":1747289744,"current_range_meters":14400,"station_id":"ce4bgup2rcd13ifvqco0","pricing_plan_id":"cebpf4jnsgd1na2vs0mg"},{"bike_id":"91cd7809-e5d4-46e2-845b-d691947a2b46","system_id":"levelo_inurba_marseille","lat":43.24058,"lon":5.37756,"is_reserved":false,"is_disabled":false,"rental_uris":{"android":"levelo://app?vid=91cd7809-e5d4-46e2-845b-d691947a2b46","ios":"levelo://app?vid=91cd7809-e5d4-46e2-845b-d691947a2b46"},"vehicle_type_id":"4","last_reported":1747289744,"current_range_meters":14800,"station_id":"ce4bhnp2rcd13ifvqgvg","pricing_plan_id":"cebpf4jnsgd1na2vs0mg"},{"bike_id":"e79fd8c1-5944-4bcd-9d00-e939e610771d","system_id":"levelo_inurba_marseille","lat":43.31452,"lon":5.37236,"is_reserved":false,"is_disabled":false,"rental_uris":{"android":"levelo://app?vid=e79fd8c1-5944-4bcd-9d00-e939e610771d","ios":"levelo://app?vid=e79fd8c1-5944-4bcd-9d00-e939e610771d"},"vehicle_type_id":"4","last_reported":1747289744,"current_range_meters":14800,"station_id":"ce4bgt12rcd13ifvqcd0","pricing_plan_id":"cebpf4jnsgd1na2vs0mg"},{"bike_id":"c260378e-f038-46ef-acd7-d955ba324b73","system_id":"levelo_inurba_marseille","lat":43.25005,"lon":5.37917,"is_reserved":false,"is_disabled":false,"rental_uris":{"android":"levelo://app?vid=c260378e-f038-46ef-acd7-d955ba324b73","ios":"levelo://app?vid=c260378e-f038-46ef-acd7-d955ba324b73"},"vehicle_type_id":"4","last_reported":1747289744,"current_range_meters":14800,"station_id":"","pricing_plan_id":"cebpf4jnsgd1na2vs0mg"},{"bike_id":"65064f86-3c66-4826-93c2-65566820a8eb","system_id":"levelo_inurba_marseille","lat":43.26584,"lon":5.39016,"is_reserved":false,"is_disabled":false,"rental_uris":{"android":"levelo://app?vid=65064f86-3c66-4826-93c2-65566820a8eb","ios":"levelo://app?vid=65064f86-3c66-4826-93c2-65566820a8eb"},"vehicle_type_id":"4","last_reported":1747289744,"current_range_meters":14800,"station_id":"ce4bhe12rcd13ifvqf30","pricing_plan_id":"cebpf4jnsgd1na2vs0mg"},{"bike_id":"6512dc23-f60a-488d-a315-f5d48618081a","system_id":"levelo_inurba_marseille","lat":43.26588,"lon":5.39031,"is_reserved":false,"is_disabled":false,"rental_uris":{"android":"levelo://app?vid=6512dc23-f60a-488d-a315-f5d48618081a","ios":"levelo://app?vid=6512dc23-f60a-488d-a315-f5d48618081a"},"vehicle_type_id":"4","last_reported":1747289744,"current_range_meters":14800,"station_id":"ce4bhe12rcd13ifvqf30","pricing_plan_id":"cebpf4jnsgd1na2vs0mg"},{"bike_id":"85229f75-99f9-447a-a3ed-86236028f5a5","system_id":"levelo_inurba_marseille","lat":43.25116,"lon":5.40334,"is_reserved":false,"is_disabled":false,"rental_uris":{"android":"levelo://app?vid=85229f75-99f9-447a-a3ed-86236028f5a5","ios":"levelo://app?vid=85229f75-99f9-447a-a3ed-86236028f5a5"},"vehicle_type_id":"4","last_reported":1747289744,"current_range_meters":14800,"station_id":"ce4bhlh2rcd13ifvqgig","pricing_plan_id":"cebpf4jnsgd1na2vs0mg"},{"bike_id":"fb89ec1e-adce-4be3-a05c-e5c97ae99156","system_id":"levelo_inurba_marseille","lat":43.24069,"lon":5.37747,"is_reserved":false,"is_disabled":true,"rental_uris":{"android":"levelo://app?vid=fb89ec1e-adce-4be3-a05c-e5c97ae99156","ios":"levelo://app?vid=fb89ec1e-adce-4be3-a05c-e5c97ae99156"},"vehicle_type_id":"4","last_reported":1747289744,"current_range_meters":14800,"station_id":"ce4bhnp2rcd13ifvqgvg","pricing_plan_id":"cebpf4jnsgd1na2vs0mg"},{"bike_id":"3c1b7f30-5d26-4067-beb9-4c40ea2a08b9","system_id":"levelo_inurba_marseille","lat":43.26076,"lon":5.39427,"is_reserved":false,"is_disabled":false,"rental_uris":{"android":"levelo://app?vid=3c1b7f30-5d26-4067-beb9-4c40ea2a08b9","ios":"levelo://app?vid=3c1b7f30-5d26-4067-beb9-4c40ea2a08b9"},"vehicle_type_id":"4","last_reported":1747289744,"current_range_meters":15200,"station_id":"ce4bhh92rcd13ifvqfj0","pricing_plan_id":"cebpf4jnsgd1na2vs0mg"},{"bike_id":"0a2b8b7a-0f46-4108-af9a-8997b6ff6664","system_id":"levelo_inurba_marseille","lat":43.30465,"lon":5.37917,"is_reserved":false,"is_disabled":false,"rental_uris":{"android":"levelo://app?vid=0a2b8b7a-0f46-4108-af9a-8997b6ff6664","ios":"levelo://app?vid=0a2b8b7a-0f46-4108-af9a-8997b6ff6664"},"vehicle_type_id":"4","last_reported":1747289744,"current_range_meters":15200,"station_id":"ce4bgup2rcd13ifvqcn0","pricing_plan_id":"cebpf4jnsgd1na2vs0mg"},{"bike_id":"c078b2fc-f367-4ad3-81ec-126aae64440d","system_id":"levelo_inurba_marseille","lat":43.23151,"lon":5.43727,"is_reserved":false,"is_disabled":false,"rental_uris":{"android":"levelo://app?vid=c078b2fc-f367-4ad3-81ec-126aae64440d","ios":"levelo://app?vid=c078b2fc-f367-4ad3-81ec-126aae64440d"},"vehicle_type_id":"4","last_reported":1747289744,"current_range_meters":15200,"station_id":"ce4bhmp2rcd13ifvqgog","pricing_plan_id":"cebpf4jnsgd1na2vs0mg"},{"bike_id":"88bbba9e-7184-4058-8824-c96a1cc5be7e","system_id":"levelo_inurba_marseille","lat":43.262199,"lon":5.404654,"is_reserved":false,"is_disabled":false,"rental_uris":{"android":"levelo://app?vid=88bbba9e-7184-4058-8824-c96a1cc5be7e","ios":"levelo://app?vid=88bbba9e-7184-4058-8824-c96a1cc5be7e"},"vehicle_type_id":"4","last_reported":1747289744,"current_range_meters":15200,"station_id":"ce4bhmh2rcd13ifvqgmg","pricing_plan_id":"cebpf4jnsgd1na2vs0mg"},{"bike_id":"a352bab8-7c70-4f81-8aa6-742732ea1f72","system_id":"levelo_inurba_marseille","lat":43.30157,"lon":5.3808,"is_reserved":false,"is_disabled":false,"rental_uris":{"android":"levelo://app?vid=a352bab8-7c70-4f81-8aa6-742732ea1f72","ios":"levelo://app?vid=a352bab8-7c70-4f81-8aa6-742732ea1f72"},"vehicle_type_id":"4","last_reported":1747289744,"current_range_meters":16000,"station_id":"ce4bgjp2rcd13ifvqbh0","pricing_plan_id":"cebpf4jnsgd1na2vs0mg"},{"bike_id":"db70583f-db63-4381-a92d-d941cdfb726b","system_id":"levelo_inurba_marseille","lat":43.295579,"lon":5.374514,"is_reserved":false,"is_disabled":false,"rental_uris":{"android":"levelo://app?vid=db70583f-db63-4381-a92d-d941cdfb726b","ios":"levelo://app?vid=db70583f-db63-4381-a92d-d941cdfb726b"},"vehicle_type_id":"4","last_reported":1747289744,"current_range_meters":16000,"station_id":"","pricing_plan_id":"cebpf4jnsgd1na2vs0mg"},{"bike_id":"c0b9fd4f-e181-46ce-b0bf-f5119973334f","system_id":"levelo_inurba_marseille","lat":43.33771,"lon":5.37424,"is_reserved":false,"is_disabled":false,"rental_uris":{"android":"levelo://app?vid=c0b9fd4f-e181-46ce-b0bf-f5119973334f","ios":"levelo://app?vid=c0b9fd4f-e181-46ce-b0bf-f5119973334f"},"vehicle_type_id":"4","last_reported":1747289744,"current_range_meters":16000,"station_id":"","pricing_plan_id":"cebpf4jnsgd1na2vs0mg"},{"bike_id":"bb98348a-66d8-4632-96f9-9734580dec01","system_id":"levelo_inurba_marseille","lat":43.2868,"lon":5.38334,"is_reserved":false,"is_disabled":false,"rental_uris":{"android":"levelo://app?vid=bb98348a-66d8-4632-96f9-9734580dec01","ios":"levelo://app?vid=bb98348a-66d8-4632-96f9-9734580dec01"},"vehicle_type_id":"4","last_reported":1747289744,"current_range_meters":16400,"station_id":"","pricing_plan_id":"cebpf4jnsgd1na2vs0mg"},{"bike_id":"1b2ca96b-a115-4009-b707-71f4c5b975d8","system_id":"levelo_inurba_marseille","lat":43.32471,"lon":5.36604,"is_reserved":false,"is_disabled":false,"rental_uris":{"android":"levelo://app?vid=1b2ca96b-a115-4009-b707-71f4c5b975d8","ios":"levelo://app?vid=1b2ca96b-a115-4009-b707-71f4c5b975d8"},"vehicle_type_id":"4","last_reported":1747289744,"current_range_meters":16400,"station_id":"ce4bhs12rcd13ifvqhvg","pricing_plan_id":"cebpf4jnsgd1na2vs0mg"},{"bike_id":"c3acc1e9-c036-4520-87a3-7e8466cee4e3","system_id":"levelo_inurba_marseille","lat":43.32487,"lon":5.36561,"is_reserved":false,"is_disabled":false,"rental_uris":{"android":"levelo://app?vid=c3acc1e9-c036-4520-87a3-7e8466cee4e3","ios":"levelo://app?vid=c3acc1e9-c036-4520-87a3-7e8466cee4e3"},"vehicle_type_id":"4","last_reported":1747289744,"current_range_meters":16400,"station_id":"ce4bhs12rcd13ifvqhvg","pricing_plan_id":"cebpf4jnsgd1na2vs0mg"},{"bike_id":"c682a571-1b8e-42c7-82ff-72c8d128bd01","system_id":"levelo_inurba_marseille","lat":43.298845,"lon":5.383326,"is_reserved":false,"is_disabled":false,"rental_uris":{"android":"levelo://app?vid=c682a571-1b8e-42c7-82ff-72c8d128bd01","ios":"levelo://app?vid=c682a571-1b8e-42c7-82ff-72c8d128bd01"},"vehicle_type_id":"4","last_reported":1747289744,"current_range_meters":16400,"station_id":"","pricing_plan_id":"cebpf4jnsgd1na2vs0mg"},{"bike_id":"0cc46be0-cda7-4d84-a24a-b567a36e5f7e","system_id":"levelo_inurba_marseille","lat":43.30273,"lon":5.36859,"is_reserved":false,"is_disabled":true,"rental_uris":{"android":"levelo://app?vid=0cc46be0-cda7-4d84-a24a-b567a36e5f7e","ios":"levelo://app?vid=0cc46be0-cda7-4d84-a24a-b567a36e5f7e"},"vehicle_type_id":"4","last_reported":1747289744,"current_range_meters":16400,"station_id":"","pricing_plan_id":"cebpf4jnsgd1na2vs0mg"},{"bike_id":"7a97d503-0b28-435f-ad60-8eec2cea8d04","system_id":"levelo_inurba_marseille","lat":43.30462,"lon":5.37906,"is_reserved":false,"is_disabled":false,"rental_uris":{"android":"levelo://app?vid=7a97d503-0b28-435f-ad60-8eec2cea8d04","ios":"levelo://app?vid=7a97d503-0b28-435f-ad60-8eec2cea8d04"},"vehicle_type_id":"4","last_reported":1747289744,"current_range_meters":16400,"station_id":"ce4bgup2rcd13ifvqcn0","pricing_plan_id":"cebpf4jnsgd1na2vs0mg"},{"bike_id":"886cacb8-a8f2-4a9f-b4ff-ad4500dd1a16","system_id":"levelo_inurba_marseille","lat":43.302181,"lon":5.394744,"is_reserved":false,"is_disabled":false,"rental_uris":{"android":"levelo://app?vid=886cacb8-a8f2-4a9f-b4ff-ad4500dd1a16","ios":"levelo://app?vid=886cacb8-a8f2-4a9f-b4ff-ad4500dd1a16"},"vehicle_type_id":"4","last_reported":1747289744,"current_range_meters":16800,"station_id":"ce4bh0p2rcd13ifvqd70","pricing_plan_id":"cebpf4jnsgd1na2vs0mg"},{"bike_id":"5b4d94d5-d1fb-4594-8ced-01262346e7e4","system_id":"levelo_inurba_marseille","lat":43.286194,"lon":5.370615,"is_reserved":false,"is_disabled":false,"rental_uris":{"android":"levelo://app?vid=5b4d94d5-d1fb-4594-8ced-01262346e7e4","ios":"levelo://app?vid=5b4d94d5-d1fb-4594-8ced-01262346e7e4"},"vehicle_type_id":"4","last_reported":1747289744,"current_range_meters":16800,"station_id":"ce4bht12rcd13ifvqi60","pricing_plan_id":"cebpf4jnsgd1na2vs0mg"},{"bike_id":"a97e7f2f-a4bd-43dc-a4a3-f47c4b150cbd","system_id":"levelo_inurba_marseille","lat":43.24175,"lon":5.39721,"is_reserved":false,"is_disabled":false,"rental_uris":{"android":"levelo://app?vid=a97e7f2f-a4bd-43dc-a4a3-f47c4b150cbd","ios":"levelo://app?vid=a97e7f2f-a4bd-43dc-a4a3-f47c4b150cbd"},"vehicle_type_id":"4","last_reported":1747289744,"current_range_meters":16800,"station_id":"ce4bhn12rcd13ifvqgpg","pricing_plan_id":"cebpf4jnsgd1na2vs0mg"},{"bike_id":"be300c52-8a41-4fff-948d-2f2d061dff2d","system_id":"levelo_inurba_marseille","lat":43.28942,"lon":5.36638,"is_reserved":false,"is_disabled":false,"rental_uris":{"android":"levelo://app?vid=be300c52-8a41-4fff-948d-2f2d061dff2d","ios":"levelo://app?vid=be300c52-8a41-4fff-948d-2f2d061dff2d"},"vehicle_type_id":"4","last_reported":1747289744,"current_range_meters":16800,"station_id":"ce4bhap2rcd13ifvqek0","pricing_plan_id":"cebpf4jnsgd1na2vs0mg"},{"bike_id":"bfce31c6-b940-41e3-b6c1-0aabdf64f0df","system_id":"levelo_inurba_marseille","lat":43.29043,"lon":5.39953,"is_reserved":false,"is_disabled":false,"rental_uris":{"android":"levelo://app?vid=bfce31c6-b940-41e3-b6c1-0aabdf64f0df","ios":"levelo://app?vid=bfce31c6-b940-41e3-b6c1-0aabdf64f0df"},"vehicle_type_id":"4","last_reported":1747289744,"current_range_meters":16800,"station_id":"ce4bh392rcd13ifvqdm0","pricing_plan_id":"cebpf4jnsgd1na2vs0mg"},{"bike_id":"b9d4a133-c6ad-42b4-a6f8-2b529d40398a","system_id":"levelo_inurba_marseille","lat":43.289827,"lon":5.366538,"is_reserved":false,"is_disabled":true,"rental_uris":{"android":"levelo://app?vid=b9d4a133-c6ad-42b4-a6f8-2b529d40398a","ios":"levelo://app?vid=b9d4a133-c6ad-42b4-a6f8-2b529d40398a"},"vehicle_type_id":"4","last_reported":1747289744,"current_range_meters":17200,"station_id":"","pricing_plan_id":"cebpf4jnsgd1na2vs0mg"},{"bike_id":"9a402898-f116-408b-8709-c62dd77d2b5d","system_id":"levelo_inurba_marseille","lat":43.29375,"lon":5.42841,"is_reserved":false,"is_disabled":false,"rental_uris":{"android":"levelo://app?vid=9a402898-f116-408b-8709-c62dd77d2b5d","ios":"levelo://app?vid=9a402898-f116-408b-8709-c62dd77d2b5d"},"vehicle_type_id":"4","last_reported":1747289744,"current_range_meters":17200,"station_id":"","pricing_plan_id":"cebpf4jnsgd1na2vs0mg"},{"bike_id":"385c5680-aa17-4953-8596-7f0cb64e8bcd","system_id":"levelo_inurba_marseille","lat":43.324824,"lon":5.365606,"is_reserved":false,"is_disabled":false,"rental_uris":{"android":"levelo://app?vid=385c5680-aa17-4953-8596-7f0cb64e8bcd","ios":"levelo://app?vid=385c5680-aa17-4953-8596-7f0cb64e8bcd"},"vehicle_type_id":"4","last_reported":1747289744,"current_range_meters":17200,"station_id":"ce4bhs12rcd13ifvqhvg","pricing_plan_id":"cebpf4jnsgd1na2vs0mg"},{"bike_id":"9072830c-997c-4e94-add5-ec6127264027","system_id":"levelo_inurba_marseille","lat":43.29772,"lon":5.38088,"is_reserved":false,"is_disabled":false,"rental_uris":{"android":"levelo://app?vid=9072830c-997c-4e94-add5-ec6127264027","ios":"levelo://app?vid=9072830c-997c-4e94-add5-ec6127264027"},"vehicle_type_id":"4","last_reported":1747289744,"current_range_meters":17200,"station_id":"ce4bgip2rcd13ifvqbb0","pricing_plan_id":"cebpf4jnsgd1na2vs0mg"},{"bike_id":"bfd7292f-0dc3-4d16-8393-ce7be3db558b","system_id":"levelo_inurba_marseille","lat":43.30932,"lon":5.4016,"is_reserved":false,"is_disabled":false,"rental_uris":{"android":"levelo://app?vid=bfd7292f-0dc3-4d16-8393-ce7be3db558b","ios":"levelo://app?vid=bfd7292f-0dc3-4d16-8393-ce7be3db558b"},"vehicle_type_id":"4","last_reported":1747289744,"current_range_meters":17600,"station_id":"ce4bgvp2rcd13ifvqct0","pricing_plan_id":"cebpf4jnsgd1na2vs0mg"},{"bike_id":"8b44f886-59c7-4896-a2ca-0dea931a883f","system_id":"levelo_inurba_marseille","lat":43.21152,"lon":5.34989,"is_reserved":false,"is_disabled":false,"rental_uris":{"android":"levelo://app?vid=8b44f886-59c7-4896-a2ca-0dea931a883f","ios":"levelo://app?vid=8b44f886-59c7-4896-a2ca-0dea931a883f"},"vehicle_type_id":"4","last_reported":1747289744,"current_range_meters":17600,"station_id":"","pricing_plan_id":"cebpf4jnsgd1na2vs0mg"},{"bike_id":"bf148fad-e35c-429e-bfcc-e69d3314491e","system_id":"levelo_inurba_marseille","lat":43.31282,"lon":5.40168,"is_reserved":false,"is_disabled":false,"rental_uris":{"android":"levelo://app?vid=bf148fad-e35c-429e-bfcc-e69d3314491e","ios":"levelo://app?vid=bf148fad-e35c-429e-bfcc-e69d3314491e"},"vehicle_type_id":"4","last_reported":1747289744,"current_range_meters":17600,"station_id":"ce4bh092rcd13ifvqd30","pricing_plan_id":"cebpf4jnsgd1na2vs0mg"},{"bike_id":"37d28631-d672-463b-8b7b-30908945f796","system_id":"levelo_inurba_marseille","lat":43.30144,"lon":5.3808,"is_reserved":false,"is_disabled":false,"rental_uris":{"android":"levelo://app?vid=37d28631-d672-463b-8b7b-30908945f796","ios":"levelo://app?vid=37d28631-d672-463b-8b7b-30908945f796"},"vehicle_type_id":"4","last_reported":1747289744,"current_range_meters":17600,"station_id":"ce4bgjp2rcd13ifvqbh0","pricing_plan_id":"cebpf4jnsgd1na2vs0mg"},{"bike_id":"25dc9a88-39ab-4bde-b8e7-cfef616f4372","system_id":"levelo_inurba_marseille","lat":43.24656,"lon":5.38897,"is_reserved":false,"is_disabled":false,"rental_uris":{"android":"levelo://app?vid=25dc9a88-39ab-4bde-b8e7-cfef616f4372","ios":"levelo://app?vid=25dc9a88-39ab-4bde-b8e7-cfef616f4372"},"vehicle_type_id":"4","last_reported":1747289744,"current_range_meters":18000,"station_id":"ce4bhg12rcd13ifvqf60","pricing_plan_id":"cebpf4jnsgd1na2vs0mg"},{"bike_id":"a2d6a384-311c-42f7-acd0-99b54160f604","system_id":"levelo_inurba_marseille","lat":43.30914,"lon":5.36852,"is_reserved":false,"is_disabled":false,"rental_uris":{"android":"levelo://app?vid=a2d6a384-311c-42f7-acd0-99b54160f604","ios":"levelo://app?vid=a2d6a384-311c-42f7-acd0-99b54160f604"},"vehicle_type_id":"4","last_reported":1747289744,"current_range_meters":18000,"station_id":"ce4bgn92rcd13ifvqbvg","pricing_plan_id":"cebpf4jnsgd1na2vs0mg"},{"bike_id":"9fd4ac40-2ac6-4244-94a1-a421cc51d761","system_id":"levelo_inurba_marseille","lat":43.30467,"lon":5.37906,"is_reserved":false,"is_disabled":false,"rental_uris":{"android":"levelo://app?vid=9fd4ac40-2ac6-4244-94a1-a421cc51d761","ios":"levelo://app?vid=9fd4ac40-2ac6-4244-94a1-a421cc51d761"},"vehicle_type_id":"4","last_reported":1747289744,"current_range_meters":18000,"station_id":"ce4bgup2rcd13ifvqcn0","pricing_plan_id":"cebpf4jnsgd1na2vs0mg"},{"bike_id":"e6df7200-be44-4034-8356-406e404e712e","system_id":"levelo_inurba_marseille","lat":43.301459,"lon":5.380887,"is_reserved":false,"is_disabled":false,"rental_uris":{"android":"levelo://app?vid=e6df7200-be44-4034-8356-406e404e712e","ios":"levelo://app?vid=e6df7200-be44-4034-8356-406e404e712e"},"vehicle_type_id":"4","last_reported":1747289744,"current_range_meters":18000,"station_id":"ce4bgjp2rcd13ifvqbh0","pricing_plan_id":"cebpf4jnsgd1na2vs0mg"},{"bike_id":"3038f049-0195-4182-884a-dc9bf7e1b7b8","system_id":"levelo_inurba_marseille","lat":43.25119,"lon":5.40357,"is_reserved":false,"is_disabled":false,"rental_uris":{"android":"levelo://app?vid=3038f049-0195-4182-884a-dc9bf7e1b7b8","ios":"levelo://app?vid=3038f049-0195-4182-884a-dc9bf7e1b7b8"},"vehicle_type_id":"4","last_reported":1747289744,"current_range_meters":18000,"station_id":"ce4bhlh2rcd13ifvqgig","pricing_plan_id":"cebpf4jnsgd1na2vs0mg"},{"bike_id":"3d287fb7-944b-403c-b02f-69983f679383","system_id":"levelo_inurba_marseille","lat":43.31704,"lon":5.40467,"is_reserved":false,"is_disabled":false,"rental_uris":{"android":"levelo://app?vid=3d287fb7-944b-403c-b02f-69983f679383","ios":"levelo://app?vid=3d287fb7-944b-403c-b02f-69983f679383"},"vehicle_type_id":"4","last_reported":1747289744,"current_range_meters":18800,"station_id":"ce4bh012rcd13ifvqd00","pricing_plan_id":"cebpf4jnsgd1na2vs0mg"},{"bike_id":"978e8be0-d2c5-4801-8712-3aa582d69845","system_id":"levelo_inurba_marseille","lat":43.26573,"lon":5.39012,"is_reserved":false,"is_disabled":false,"rental_uris":{"android":"levelo://app?vid=978e8be0-d2c5-4801-8712-3aa582d69845","ios":"levelo://app?vid=978e8be0-d2c5-4801-8712-3aa582d69845"},"vehicle_type_id":"4","last_reported":1747289744,"current_range_meters":18800,"station_id":"ce4bhe12rcd13ifvqf30","pricing_plan_id":"cebpf4jnsgd1na2vs0mg"},{"bike_id":"454061cc-f748-410d-b950-97e58608c04a","system_id":"levelo_inurba_marseille","lat":43.32571,"lon":5.41445,"is_reserved":false,"is_disabled":false,"rental_uris":{"android":"levelo://app?vid=454061cc-f748-410d-b950-97e58608c04a","ios":"levelo://app?vid=454061cc-f748-410d-b950-97e58608c04a"},"vehicle_type_id":"4","last_reported":1747289744,"current_range_meters":18800,"station_id":"","pricing_plan_id":"cebpf4jnsgd1na2vs0mg"},{"bike_id":"8707fe24-05e9-48c4-b9b4-ade69dea17b4","system_id":"levelo_inurba_marseille","lat":43.30425,"lon":5.39751,"is_reserved":false,"is_disabled":false,"rental_uris":{"android":"levelo://app?vid=8707fe24-05e9-48c4-b9b4-ade69dea17b4","ios":"levelo://app?vid=8707fe24-05e9-48c4-b9b4-ade69dea17b4"},"vehicle_type_id":"4","last_reported":1747289744,"current_range_meters":18800,"station_id":"ce4bh092rcd13ifvqd20","pricing_plan_id":"cebpf4jnsgd1na2vs0mg"},{"bike_id":"201dfaf8-62cf-4442-b654-1073912dc762","system_id":"levelo_inurba_marseille","lat":43.30697,"lon":5.40094,"is_reserved":false,"is_disabled":true,"rental_uris":{"android":"levelo://app?vid=201dfaf8-62cf-4442-b654-1073912dc762","ios":"levelo://app?vid=201dfaf8-62cf-4442-b654-1073912dc762"},"vehicle_type_id":"4","last_reported":1747289744,"current_range_meters":18800,"station_id":"","pricing_plan_id":"cebpf4jnsgd1na2vs0mg"},{"bike_id":"05647ffd-ffa9-4a9c-92e9-9a49dc821811","system_id":"levelo_inurba_marseille","lat":43.32362,"lon":5.36747,"is_reserved":false,"is_disabled":false,"rental_uris":{"android":"levelo://app?vid=05647ffd-ffa9-4a9c-92e9-9a49dc821811","ios":"levelo://app?vid=05647ffd-ffa9-4a9c-92e9-9a49dc821811"},"vehicle_type_id":"4","last_reported":1747289744,"current_range_meters":18800,"station_id":"ce4bhsh2rcd13ifvqi2g","pricing_plan_id":"cebpf4jnsgd1na2vs0mg"},{"bike_id":"8e94ebd9-728a-464d-8487-f84b565ea090","system_id":"levelo_inurba_marseille","lat":43.27486,"lon":5.42425,"is_reserved":false,"is_disabled":false,"rental_uris":{"android":"levelo://app?vid=8e94ebd9-728a-464d-8487-f84b565ea090","ios":"levelo://app?vid=8e94ebd9-728a-464d-8487-f84b565ea090"},"vehicle_type_id":"4","last_reported":1747289744,"current_range_meters":18800,"station_id":"ce4bhn92rcd13ifvqgrg","pricing_plan_id":"cebpf4jnsgd1na2vs0mg"},{"bike_id":"6eb4684c-cbf7-4f09-8cfc-89b73a8821e2","system_id":"levelo_inurba_marseille","lat":43.23375,"lon":5.36069,"is_reserved":false,"is_disabled":true,"rental_uris":{"android":"levelo://app?vid=6eb4684c-cbf7-4f09-8cfc-89b73a8821e2","ios":"levelo://app?vid=6eb4684c-cbf7-4f09-8cfc-89b73a8821e2"},"vehicle_type_id":"4","last_reported":1747289744,"current_range_meters":19200,"station_id":"","pricing_plan_id":"cebpf4jnsgd1na2vs0mg"},{"bike_id":"a4b512f6-e5ed-4892-a572-46a9999c9048","system_id":"levelo_inurba_marseille","lat":43.29797,"lon":5.38101,"is_reserved":false,"is_disabled":false,"rental_uris":{"android":"levelo://app?vid=a4b512f6-e5ed-4892-a572-46a9999c9048","ios":"levelo://app?vid=a4b512f6-e5ed-4892-a572-46a9999c9048"},"vehicle_type_id":"4","last_reported":1747289744,"current_range_meters":19200,"station_id":"ce4bgip2rcd13ifvqbb0","pricing_plan_id":"cebpf4jnsgd1na2vs0mg"},{"bike_id":"840dcd41-1169-4d2f-a926-23eb8f7dd13f","system_id":"levelo_inurba_marseille","lat":43.28445,"lon":5.39203,"is_reserved":false,"is_disabled":false,"rental_uris":{"android":"levelo://app?vid=840dcd41-1169-4d2f-a926-23eb8f7dd13f","ios":"levelo://app?vid=840dcd41-1169-4d2f-a926-23eb8f7dd13f"},"vehicle_type_id":"4","last_reported":1747289744,"current_range_meters":19200,"station_id":"ce4bhoh2rcd13ifvqh5g","pricing_plan_id":"cebpf4jnsgd1na2vs0mg"},{"bike_id":"68bb491c-1d3e-4388-a7f8-cdc52f1b34f9","system_id":"levelo_inurba_marseille","lat":43.24066,"lon":5.37753,"is_reserved":false,"is_disabled":false,"rental_uris":{"android":"levelo://app?vid=68bb491c-1d3e-4388-a7f8-cdc52f1b34f9","ios":"levelo://app?vid=68bb491c-1d3e-4388-a7f8-cdc52f1b34f9"},"vehicle_type_id":"4","last_reported":1747289744,"current_range_meters":19200,"station_id":"ce4bhnp2rcd13ifvqgvg","pricing_plan_id":"cebpf4jnsgd1na2vs0mg"},{"bike_id":"5e87a7ac-8e04-44a3-aa85-afbf7cf1b847","system_id":"levelo_inurba_marseille","lat":43.30901,"lon":5.36841,"is_reserved":false,"is_disabled":false,"rental_uris":{"android":"levelo://app?vid=5e87a7ac-8e04-44a3-aa85-afbf7cf1b847","ios":"levelo://app?vid=5e87a7ac-8e04-44a3-aa85-afbf7cf1b847"},"vehicle_type_id":"4","last_reported":1747289744,"current_range_meters":19200,"station_id":"ce4bgn92rcd13ifvqbvg","pricing_plan_id":"cebpf4jnsgd1na2vs0mg"},{"bike_id":"17fff4cc-5014-48ef-aef1-228c11c76cbf","system_id":"levelo_inurba_marseille","lat":43.3018,"lon":5.3808,"is_reserved":false,"is_disabled":false,"rental_uris":{"android":"levelo://app?vid=17fff4cc-5014-48ef-aef1-228c11c76cbf","ios":"levelo://app?vid=17fff4cc-5014-48ef-aef1-228c11c76cbf"},"vehicle_type_id":"4","last_reported":1747289744,"current_range_meters":19200,"station_id":"ce4bgjp2rcd13ifvqbh0","pricing_plan_id":"cebpf4jnsgd1na2vs0mg"},{"bike_id":"836d4fc6-ece3-4bdd-aafe-99767d013713","system_id":"levelo_inurba_marseille","lat":43.30245,"lon":5.40067,"is_reserved":false,"is_disabled":false,"rental_uris":{"android":"levelo://app?vid=836d4fc6-ece3-4bdd-aafe-99767d013713","ios":"levelo://app?vid=836d4fc6-ece3-4bdd-aafe-99767d013713"},"vehicle_type_id":"4","last_reported":1747289744,"current_range_meters":19200,"station_id":"ce4bgvh2rcd13ifvqcs0","pricing_plan_id":"cebpf4jnsgd1na2vs0mg"},{"bike_id":"ff342d69-833d-4b62-a35d-187a52c3c4e4","system_id":"levelo_inurba_marseille","lat":43.30214,"lon":5.39478,"is_reserved":false,"is_disabled":false,"rental_uris":{"android":"levelo://app?vid=ff342d69-833d-4b62-a35d-187a52c3c4e4","ios":"levelo://app?vid=ff342d69-833d-4b62-a35d-187a52c3c4e4"},"vehicle_type_id":"4","last_reported":1747289744,"current_range_meters":19600,"station_id":"ce4bh0p2rcd13ifvqd70","pricing_plan_id":"cebpf4jnsgd1na2vs0mg"},{"bike_id":"f10edb68-f306-488a-9974-518a6c783f11","system_id":"levelo_inurba_marseille","lat":43.29756,"lon":5.38137,"is_reserved":false,"is_disabled":true,"rental_uris":{"android":"levelo://app?vid=f10edb68-f306-488a-9974-518a6c783f11","ios":"levelo://app?vid=f10edb68-f306-488a-9974-518a6c783f11"},"vehicle_type_id":"4","last_reported":1747289744,"current_range_meters":19600,"station_id":"","pricing_plan_id":"cebpf4jnsgd1na2vs0mg"},{"bike_id":"ff8c31a0-1c02-41af-992d-f5052b02aea3","system_id":"levelo_inurba_marseille","lat":43.30911,"lon":5.36844,"is_reserved":false,"is_disabled":false,"rental_uris":{"android":"levelo://app?vid=ff8c31a0-1c02-41af-992d-f5052b02aea3","ios":"levelo://app?vid=ff8c31a0-1c02-41af-992d-f5052b02aea3"},"vehicle_type_id":"4","last_reported":1747289744,"current_range_meters":19600,"station_id":"ce4bgn92rcd13ifvqbvg","pricing_plan_id":"cebpf4jnsgd1na2vs0mg"},{"bike_id":"c0e0fd84-4c7c-420a-b641-45b7066ef9a9","system_id":"levelo_inurba_marseille","lat":43.31367,"lon":5.36705,"is_reserved":false,"is_disabled":false,"rental_uris":{"android":"levelo://app?vid=c0e0fd84-4c7c-420a-b641-45b7066ef9a9","ios":"levelo://app?vid=c0e0fd84-4c7c-420a-b641-45b7066ef9a9"},"vehicle_type_id":"4","last_reported":1747289744,"current_range_meters":20000,"station_id":"ce4bgr92rcd13ifvqc6g","pricing_plan_id":"cebpf4jnsgd1na2vs0mg"},{"bike_id":"d8293a94-070f-4ae3-891e-86ad27a59a4e","system_id":"levelo_inurba_marseille","lat":43.23969,"lon":5.36631,"is_reserved":false,"is_disabled":true,"rental_uris":{"android":"levelo://app?vid=d8293a94-070f-4ae3-891e-86ad27a59a4e","ios":"levelo://app?vid=d8293a94-070f-4ae3-891e-86ad27a59a4e"},"vehicle_type_id":"4","last_reported":1747289744,"current_range_meters":20000,"station_id":"ce4bhi12rcd13ifvqfp0","pricing_plan_id":"cebpf4jnsgd1na2vs0mg"},{"bike_id":"32b55b17-458e-4a4c-972f-1babf1091298","system_id":"levelo_inurba_marseille","lat":43.315302,"lon":5.38028,"is_reserved":false,"is_disabled":false,"rental_uris":{"android":"levelo://app?vid=32b55b17-458e-4a4c-972f-1babf1091298","ios":"levelo://app?vid=32b55b17-458e-4a4c-972f-1babf1091298"},"vehicle_type_id":"4","last_reported":1747289744,"current_range_meters":20000,"station_id":"ce4bhsp2rcd13ifvqi50","pricing_plan_id":"cebpf4jnsgd1na2vs0mg"},{"bike_id":"13fb7c0c-f7ea-4d7b-bdcd-c94492777a0b","system_id":"levelo_inurba_marseille","lat":43.3053,"lon":5.36555,"is_reserved":false,"is_disabled":false,"rental_uris":{"android":"levelo://app?vid=13fb7c0c-f7ea-4d7b-bdcd-c94492777a0b","ios":"levelo://app?vid=13fb7c0c-f7ea-4d7b-bdcd-c94492777a0b"},"vehicle_type_id":"4","last_reported":1747289744,"current_range_meters":20400,"station_id":"ce4bgs12rcd13ifvqcag","pricing_plan_id":"cebpf4jnsgd1na2vs0mg"},{"bike_id":"a059e88b-fad5-408b-8db6-0c31f3d199c3","system_id":"levelo_inurba_marseille","lat":43.24996,"lon":5.38939,"is_reserved":false,"is_disabled":false,"rental_uris":{"android":"levelo://app?vid=a059e88b-fad5-408b-8db6-0c31f3d199c3","ios":"levelo://app?vid=a059e88b-fad5-408b-8db6-0c31f3d199c3"},"vehicle_type_id":"4","last_reported":1747289744,"current_range_meters":20400,"station_id":"ce4bhgp2rcd13ifvqfd0","pricing_plan_id":"cebpf4jnsgd1na2vs0mg"},{"bike_id":"51c0565a-9538-4bfc-93e0-a867b481dbd0","system_id":"levelo_inurba_marseille","lat":43.267948,"lon":5.402676,"is_reserved":false,"is_disabled":false,"rental_uris":{"android":"levelo://app?vid=51c0565a-9538-4bfc-93e0-a867b481dbd0","ios":"levelo://app?vid=51c0565a-9538-4bfc-93e0-a867b481dbd0"},"vehicle_type_id":"4","last_reported":1747289744,"current_range_meters":20400,"station_id":"ce501612rcd8frsf0b60","pricing_plan_id":"cebpf4jnsgd1na2vs0mg"},{"bike_id":"54a1a73b-9f7a-414c-a48f-eeace73bd9b0","system_id":"levelo_inurba_marseille","lat":43.225129,"lon":5.347931,"is_reserved":false,"is_disabled":false,"rental_uris":{"android":"levelo://app?vid=54a1a73b-9f7a-414c-a48f-eeace73bd9b0","ios":"levelo://app?vid=54a1a73b-9f7a-414c-a48f-eeace73bd9b0"},"vehicle_type_id":"4","last_reported":1747289744,"current_range_meters":20400,"station_id":"st_cvj5dfep6f1abm77gieg","pricing_plan_id":"cebpf4jnsgd1na2vs0mg"},{"bike_id":"24c31400-ab31-4fec-9940-c4b8d191188e","system_id":"levelo_inurba_marseille","lat":43.24042,"lon":5.37663,"is_reserved":false,"is_disabled":true,"rental_uris":{"android":"levelo://app?vid=24c31400-ab31-4fec-9940-c4b8d191188e","ios":"levelo://app?vid=24c31400-ab31-4fec-9940-c4b8d191188e"},"vehicle_type_id":"4","last_reported":1747289744,"current_range_meters":20400,"station_id":"","pricing_plan_id":"cebpf4jnsgd1na2vs0mg"},{"bike_id":"371c72ee-d638-4b0d-89a5-edb59ef6a153","system_id":"levelo_inurba_marseille","lat":43.27494,"lon":5.42455,"is_reserved":false,"is_disabled":false,"rental_uris":{"android":"levelo://app?vid=371c72ee-d638-4b0d-89a5-edb59ef6a153","ios":"levelo://app?vid=371c72ee-d638-4b0d-89a5-edb59ef6a153"},"vehicle_type_id":"4","last_reported":1747289744,"current_range_meters":20400,"station_id":"ce4bhn92rcd13ifvqgrg","pricing_plan_id":"cebpf4jnsgd1na2vs0mg"},{"bike_id":"856e0e62-df7f-457b-ad39-3a62d3e29206","system_id":"levelo_inurba_marseille","lat":43.28974,"lon":5.37827,"is_reserved":false,"is_disabled":false,"rental_uris":{"android":"levelo://app?vid=856e0e62-df7f-457b-ad39-3a62d3e29206","ios":"levelo://app?vid=856e0e62-df7f-457b-ad39-3a62d3e29206"},"vehicle_type_id":"4","last_reported":1747289744,"current_range_meters":20800,"station_id":"ce4bh9p2rcd13ifvqed0","pricing_plan_id":"cebpf4jnsgd1na2vs0mg"},{"bike_id":"53255f06-7299-45fa-bc69-8e61557bf5d6","system_id":"levelo_inurba_marseille","lat":43.24083,"lon":5.37749,"is_reserved":false,"is_disabled":false,"rental_uris":{"android":"levelo://app?vid=53255f06-7299-45fa-bc69-8e61557bf5d6","ios":"levelo://app?vid=53255f06-7299-45fa-bc69-8e61557bf5d6"},"vehicle_type_id":"4","last_reported":1747289744,"current_range_meters":20800,"station_id":"ce4bhnp2rcd13ifvqgvg","pricing_plan_id":"cebpf4jnsgd1na2vs0mg"},{"bike_id":"3793da46-a84f-46f4-8b40-e8f4964644e0","system_id":"levelo_inurba_marseille","lat":43.30602,"lon":5.39378,"is_reserved":false,"is_disabled":false,"rental_uris":{"android":"levelo://app?vid=3793da46-a84f-46f4-8b40-e8f4964644e0","ios":"levelo://app?vid=3793da46-a84f-46f4-8b40-e8f4964644e0"},"vehicle_type_id":"4","last_reported":1747289744,"current_range_meters":20800,"station_id":"ce4bh0p2rcd13ifvqd80","pricing_plan_id":"cebpf4jnsgd1na2vs0mg"},{"bike_id":"963ffdde-8fe6-4433-8952-54ca4edb1255","system_id":"levelo_inurba_marseille","lat":43.26958,"lon":5.38625,"is_reserved":false,"is_disabled":false,"rental_uris":{"android":"levelo://app?vid=963ffdde-8fe6-4433-8952-54ca4edb1255","ios":"levelo://app?vid=963ffdde-8fe6-4433-8952-54ca4edb1255"},"vehicle_type_id":"4","last_reported":1747289744,"current_range_meters":21600,"station_id":"ce4bhh92rcd13ifvqfh0","pricing_plan_id":"cebpf4jnsgd1na2vs0mg"},{"bike_id":"54c80718-1468-47f9-9877-bc44f5940722","system_id":"levelo_inurba_marseille","lat":43.21214,"lon":5.35061,"is_reserved":false,"is_disabled":false,"rental_uris":{"android":"levelo://app?vid=54c80718-1468-47f9-9877-bc44f5940722","ios":"levelo://app?vid=54c80718-1468-47f9-9877-bc44f5940722"},"vehicle_type_id":"4","last_reported":1747289744,"current_range_meters":21600,"station_id":"st_cvj6sg6p6f1abm77japg","pricing_plan_id":"cebpf4jnsgd1na2vs0mg"},{"bike_id":"e5bce4aa-b698-4341-8db3-a247d01b6da3","system_id":"levelo_inurba_marseille","lat":43.2798,"lon":5.38736,"is_reserved":false,"is_disabled":false,"rental_uris":{"android":"levelo://app?vid=e5bce4aa-b698-4341-8db3-a247d01b6da3","ios":"levelo://app?vid=e5bce4aa-b698-4341-8db3-a247d01b6da3"},"vehicle_type_id":"4","last_reported":1747289744,"current_range_meters":21600,"station_id":"ce4bhg12rcd13ifvqf80","pricing_plan_id":"cebpf4jnsgd1na2vs0mg"},{"bike_id":"6059dcd6-1347-4436-8001-ee11bd544a9b","system_id":"levelo_inurba_marseille","lat":43.30733,"lon":5.42451,"is_reserved":false,"is_disabled":false,"rental_uris":{"android":"levelo://app?vid=6059dcd6-1347-4436-8001-ee11bd544a9b","ios":"levelo://app?vid=6059dcd6-1347-4436-8001-ee11bd544a9b"},"vehicle_type_id":"4","last_reported":1747289744,"current_range_meters":21600,"station_id":"st_cvj6ca6bvosntc0bfgr0","pricing_plan_id":"cebpf4jnsgd1na2vs0mg"},{"bike_id":"a2fefcbf-f83a-4a56-a331-9690d09ea41c","system_id":"levelo_inurba_marseille","lat":43.27497,"lon":5.4247,"is_reserved":false,"is_disabled":false,"rental_uris":{"android":"levelo://app?vid=a2fefcbf-f83a-4a56-a331-9690d09ea41c","ios":"levelo://app?vid=a2fefcbf-f83a-4a56-a331-9690d09ea41c"},"vehicle_type_id":"4","last_reported":1747289744,"current_range_meters":21600,"station_id":"ce4bhn92rcd13ifvqgrg","pricing_plan_id":"cebpf4jnsgd1na2vs0mg"},{"bike_id":"5dd81d8b-2d5c-46a8-ae61-aaef33b7e2ac","system_id":"levelo_inurba_marseille","lat":43.32359,"lon":5.3889,"is_reserved":false,"is_disabled":false,"rental_uris":{"android":"levelo://app?vid=5dd81d8b-2d5c-46a8-ae61-aaef33b7e2ac","ios":"levelo://app?vid=5dd81d8b-2d5c-46a8-ae61-aaef33b7e2ac"},"vehicle_type_id":"4","last_reported":1747289744,"current_range_meters":22000,"station_id":"ce4bhqp2rcd13ifvqhog","pricing_plan_id":"cebpf4jnsgd1na2vs0mg"},{"bike_id":"53b24757-f212-4626-a601-68068df78586","system_id":"levelo_inurba_marseille","lat":43.30773,"lon":5.37653,"is_reserved":false,"is_disabled":false,"rental_uris":{"android":"levelo://app?vid=53b24757-f212-4626-a601-68068df78586","ios":"levelo://app?vid=53b24757-f212-4626-a601-68068df78586"},"vehicle_type_id":"4","last_reported":1747289744,"current_range_meters":22000,"station_id":"ce4bgv92rcd13ifvqcq0","pricing_plan_id":"cebpf4jnsgd1na2vs0mg"},{"bike_id":"ab1a2cfa-cd04-46bf-abc6-9c8329db5004","system_id":"levelo_inurba_marseille","lat":43.30154,"lon":5.38078,"is_reserved":false,"is_disabled":false,"rental_uris":{"android":"levelo://app?vid=ab1a2cfa-cd04-46bf-abc6-9c8329db5004","ios":"levelo://app?vid=ab1a2cfa-cd04-46bf-abc6-9c8329db5004"},"vehicle_type_id":"4","last_reported":1747289744,"current_range_meters":22000,"station_id":"ce4bgjp2rcd13ifvqbh0","pricing_plan_id":"cebpf4jnsgd1na2vs0mg"},{"bike_id":"fca9ff7f-d24f-41e4-8f98-23a6a997347f","system_id":"levelo_inurba_marseille","lat":43.32291,"lon":5.382723,"is_reserved":false,"is_disabled":false,"rental_uris":{"android":"levelo://app?vid=fca9ff7f-d24f-41e4-8f98-23a6a997347f","ios":"levelo://app?vid=fca9ff7f-d24f-41e4-8f98-23a6a997347f"},"vehicle_type_id":"4","last_reported":1747289744,"current_range_meters":22000,"station_id":"ce4bhr12rcd13ifvqhqg","pricing_plan_id":"cebpf4jnsgd1na2vs0mg"},{"bike_id":"b723ed18-b5e7-44f4-8dc6-3c7bb2612408","system_id":"levelo_inurba_marseille","lat":43.2315,"lon":5.43723,"is_reserved":false,"is_disabled":false,"rental_uris":{"android":"levelo://app?vid=b723ed18-b5e7-44f4-8dc6-3c7bb2612408","ios":"levelo://app?vid=b723ed18-b5e7-44f4-8dc6-3c7bb2612408"},"vehicle_type_id":"4","last_reported":1747289744,"current_range_meters":22000,"station_id":"ce4bhmp2rcd13ifvqgog","pricing_plan_id":"cebpf4jnsgd1na2vs0mg"},{"bike_id":"0bf58bb3-744f-4a70-b959-b36cf767c7d5","system_id":"levelo_inurba_marseille","lat":43.336,"lon":5.41,"is_reserved":false,"is_disabled":false,"rental_uris":{"android":"levelo://app?vid=0bf58bb3-744f-4a70-b959-b36cf767c7d5","ios":"levelo://app?vid=0bf58bb3-744f-4a70-b959-b36cf767c7d5"},"vehicle_type_id":"4","last_reported":1747289744,"current_range_meters":22400,"station_id":"ce4bhqh2rcd13ifvqhmg","pricing_plan_id":"cebpf4jnsgd1na2vs0mg"},{"bike_id":"151bca32-dbf8-4d89-8d82-4bc53022c042","system_id":"levelo_inurba_marseille","lat":43.30588,"lon":5.39351,"is_reserved":false,"is_disabled":false,"rental_uris":{"android":"levelo://app?vid=151bca32-dbf8-4d89-8d82-4bc53022c042","ios":"levelo://app?vid=151bca32-dbf8-4d89-8d82-4bc53022c042"},"vehicle_type_id":"4","last_reported":1747289744,"current_range_meters":22400,"station_id":"ce4bh0p2rcd13ifvqd80","pricing_plan_id":"cebpf4jnsgd1na2vs0mg"},{"bike_id":"6d21841d-d759-4f26-9093-08491bb73075","system_id":"levelo_inurba_marseille","lat":43.31349,"lon":5.367163,"is_reserved":false,"is_disabled":false,"rental_uris":{"android":"levelo://app?vid=6d21841d-d759-4f26-9093-08491bb73075","ios":"levelo://app?vid=6d21841d-d759-4f26-9093-08491bb73075"},"vehicle_type_id":"4","last_reported":1747289744,"current_range_meters":22400,"station_id":"ce4bgr92rcd13ifvqc6g","pricing_plan_id":"cebpf4jnsgd1na2vs0mg"},{"bike_id":"a3b52e89-e7dd-4a04-be68-2d70e300cc70","system_id":"levelo_inurba_marseille","lat":43.30466,"lon":5.37919,"is_reserved":false,"is_disabled":false,"rental_uris":{"android":"levelo://app?vid=a3b52e89-e7dd-4a04-be68-2d70e300cc70","ios":"levelo://app?vid=a3b52e89-e7dd-4a04-be68-2d70e300cc70"},"vehicle_type_id":"4","last_reported":1747289744,"current_range_meters":22800,"station_id":"ce4bgup2rcd13ifvqcn0","pricing_plan_id":"cebpf4jnsgd1na2vs0mg"},{"bike_id":"664a6364-d28e-4b5e-b6ae-ecaa0ecfe359","system_id":"levelo_inurba_marseille","lat":43.26589,"lon":5.37296,"is_reserved":false,"is_disabled":false,"rental_uris":{"android":"levelo://app?vid=664a6364-d28e-4b5e-b6ae-ecaa0ecfe359","ios":"levelo://app?vid=664a6364-d28e-4b5e-b6ae-ecaa0ecfe359"},"vehicle_type_id":"4","last_reported":1747289744,"current_range_meters":22800,"station_id":"ce4bhg12rcd13ifvqf70","pricing_plan_id":"cebpf4jnsgd1na2vs0mg"},{"bike_id":"0f2ea499-3760-4b79-b8b2-40f9e337c249","system_id":"levelo_inurba_marseille","lat":43.32557,"lon":5.41444,"is_reserved":false,"is_disabled":false,"rental_uris":{"android":"levelo://app?vid=0f2ea499-3760-4b79-b8b2-40f9e337c249","ios":"levelo://app?vid=0f2ea499-3760-4b79-b8b2-40f9e337c249"},"vehicle_type_id":"4","last_reported":1747289744,"current_range_meters":23200,"station_id":"ce4bhq12rcd13ifvqhhg","pricing_plan_id":"cebpf4jnsgd1na2vs0mg"},{"bike_id":"8ab202a6-5612-4e1e-8223-666028376953","system_id":"levelo_inurba_marseille","lat":43.29015,"lon":5.3857,"is_reserved":false,"is_disabled":true,"rental_uris":{"android":"levelo://app?vid=8ab202a6-5612-4e1e-8223-666028376953","ios":"levelo://app?vid=8ab202a6-5612-4e1e-8223-666028376953"},"vehicle_type_id":"4","last_reported":1747289744,"current_range_meters":23200,"station_id":"ce4bh4p2rcd13ifvqe0g","pricing_plan_id":"cebpf4jnsgd1na2vs0mg"},{"bike_id":"0b252582-523a-49b5-9531-8df9be84d83a","system_id":"levelo_inurba_marseille","lat":43.26213,"lon":5.37443,"is_reserved":false,"is_disabled":false,"rental_uris":{"android":"levelo://app?vid=0b252582-523a-49b5-9531-8df9be84d83a","ios":"levelo://app?vid=0b252582-523a-49b5-9531-8df9be84d83a"},"vehicle_type_id":"4","last_reported":1747289744,"current_range_meters":23200,"station_id":"ce4bhgp2rcd13ifvqfc0","pricing_plan_id":"cebpf4jnsgd1na2vs0mg"},{"bike_id":"b68c6ff7-1f1c-4f7d-9041-9d51ea43e3d5","system_id":"levelo_inurba_marseille","lat":43.32481,"lon":5.36584,"is_reserved":false,"is_disabled":false,"rental_uris":{"android":"levelo://app?vid=b68c6ff7-1f1c-4f7d-9041-9d51ea43e3d5","ios":"levelo://app?vid=b68c6ff7-1f1c-4f7d-9041-9d51ea43e3d5"},"vehicle_type_id":"4","last_reported":1747289744,"current_range_meters":23200,"station_id":"ce4bhs12rcd13ifvqhvg","pricing_plan_id":"cebpf4jnsgd1na2vs0mg"},{"bike_id":"fb19fe79-7834-4a93-bb7a-de16c53664d2","system_id":"levelo_inurba_marseille","lat":43.25021,"lon":5.38957,"is_reserved":false,"is_disabled":false,"rental_uris":{"android":"levelo://app?vid=fb19fe79-7834-4a93-bb7a-de16c53664d2","ios":"levelo://app?vid=fb19fe79-7834-4a93-bb7a-de16c53664d2"},"vehicle_type_id":"4","last_reported":1747289744,"current_range_meters":23200,"station_id":"ce4bhgp2rcd13ifvqfd0","pricing_plan_id":"cebpf4jnsgd1na2vs0mg"},{"bike_id":"222e640d-4309-4e36-a781-2dad2f594c15","system_id":"levelo_inurba_marseille","lat":43.22504,"lon":5.34773,"is_reserved":false,"is_disabled":false,"rental_uris":{"android":"levelo://app?vid=222e640d-4309-4e36-a781-2dad2f594c15","ios":"levelo://app?vid=222e640d-4309-4e36-a781-2dad2f594c15"},"vehicle_type_id":"4","last_reported":1747289744,"current_range_meters":23200,"station_id":"st_cvj5dfep6f1abm77gieg","pricing_plan_id":"cebpf4jnsgd1na2vs0mg"},{"bike_id":"7a8bd836-fd57-4e14-9505-cf2cd8177088","system_id":"levelo_inurba_marseille","lat":43.3016,"lon":5.36882,"is_reserved":false,"is_disabled":true,"rental_uris":{"android":"levelo://app?vid=7a8bd836-fd57-4e14-9505-cf2cd8177088","ios":"levelo://app?vid=7a8bd836-fd57-4e14-9505-cf2cd8177088"},"vehicle_type_id":"4","last_reported":1747289744,"current_range_meters":23200,"station_id":"","pricing_plan_id":"cebpf4jnsgd1na2vs0mg"},{"bike_id":"21d96c15-300e-4307-8007-a5e61f9b2721","system_id":"levelo_inurba_marseille","lat":43.30594,"lon":5.39353,"is_reserved":false,"is_disabled":false,"rental_uris":{"android":"levelo://app?vid=21d96c15-300e-4307-8007-a5e61f9b2721","ios":"levelo://app?vid=21d96c15-300e-4307-8007-a5e61f9b2721"},"vehicle_type_id":"4","last_reported":1747289744,"current_range_meters":23200,"station_id":"ce4bh0p2rcd13ifvqd80","pricing_plan_id":"cebpf4jnsgd1na2vs0mg"},{"bike_id":"b08c971a-4c16-41a7-84e6-4894ad5ae252","system_id":"levelo_inurba_marseille","lat":43.25942,"lon":5.409,"is_reserved":false,"is_disabled":false,"rental_uris":{"android":"levelo://app?vid=b08c971a-4c16-41a7-84e6-4894ad5ae252","ios":"levelo://app?vid=b08c971a-4c16-41a7-84e6-4894ad5ae252"},"vehicle_type_id":"4","last_reported":1747289744,"current_range_meters":23200,"station_id":"ce4bhm92rcd13ifvqglg","pricing_plan_id":"cebpf4jnsgd1na2vs0mg"},{"bike_id":"8ab3f3df-2b43-410a-8dbe-021f1924af6c","system_id":"levelo_inurba_marseille","lat":43.272741,"lon":5.39094,"is_reserved":false,"is_disabled":false,"rental_uris":{"android":"levelo://app?vid=8ab3f3df-2b43-410a-8dbe-021f1924af6c","ios":"levelo://app?vid=8ab3f3df-2b43-410a-8dbe-021f1924af6c"},"vehicle_type_id":"4","last_reported":1747289744,"current_range_meters":24000,"station_id":"ce4bhh92rcd13ifvqfh0","pricing_plan_id":"cebpf4jnsgd1na2vs0mg"},{"bike_id":"b9c8a1f3-4a3b-4ba6-bd3c-5bf9abb5d28f","system_id":"levelo_inurba_marseille","lat":43.28939,"lon":5.39621,"is_reserved":false,"is_disabled":false,"rental_uris":{"android":"levelo://app?vid=b9c8a1f3-4a3b-4ba6-bd3c-5bf9abb5d28f","ios":"levelo://app?vid=b9c8a1f3-4a3b-4ba6-bd3c-5bf9abb5d28f"},"vehicle_type_id":"4","last_reported":1747289744,"current_range_meters":24000,"station_id":"ce4bh3h2rcd13ifvqdn0","pricing_plan_id":"cebpf4jnsgd1na2vs0mg"},{"bike_id":"3457549d-95bf-4010-bf0f-d095d70a1532","system_id":"levelo_inurba_marseille","lat":43.27843,"lon":5.39211,"is_reserved":false,"is_disabled":false,"rental_uris":{"android":"levelo://app?vid=3457549d-95bf-4010-bf0f-d095d70a1532","ios":"levelo://app?vid=3457549d-95bf-4010-bf0f-d095d70a1532"},"vehicle_type_id":"4","last_reported":1747289744,"current_range_meters":24000,"station_id":"ce4bhjp2rcd13ifvqga0","pricing_plan_id":"cebpf4jnsgd1na2vs0mg"},{"bike_id":"4efcb1ef-d360-4600-94fa-7a320cd62374","system_id":"levelo_inurba_marseille","lat":43.321043,"lon":5.36774,"is_reserved":false,"is_disabled":false,"rental_uris":{"android":"levelo://app?vid=4efcb1ef-d360-4600-94fa-7a320cd62374","ios":"levelo://app?vid=4efcb1ef-d360-4600-94fa-7a320cd62374"},"vehicle_type_id":"4","last_reported":1747289744,"current_range_meters":24000,"station_id":"ce4bhrh2rcd13ifvqhug","pricing_plan_id":"cebpf4jnsgd1na2vs0mg"},{"bike_id":"62c320f4-ddfb-4f97-b399-c857f5b85e44","system_id":"levelo_inurba_marseille","lat":43.296226,"lon":5.371518,"is_reserved":false,"is_disabled":false,"rental_uris":{"android":"levelo://app?vid=62c320f4-ddfb-4f97-b399-c857f5b85e44","ios":"levelo://app?vid=62c320f4-ddfb-4f97-b399-c857f5b85e44"},"vehicle_type_id":"4","last_reported":1747289744,"current_range_meters":24000,"station_id":"","pricing_plan_id":"cebpf4jnsgd1na2vs0mg"},{"bike_id":"eac26edb-e759-497d-a226-9ebc7d88b72b","system_id":"levelo_inurba_marseille","lat":43.2835,"lon":5.38089,"is_reserved":false,"is_disabled":false,"rental_uris":{"android":"levelo://app?vid=eac26edb-e759-497d-a226-9ebc7d88b72b","ios":"levelo://app?vid=eac26edb-e759-497d-a226-9ebc7d88b72b"},"vehicle_type_id":"4","last_reported":1747289744,"current_range_meters":24000,"station_id":"ce4bh412rcd13ifvqdr0","pricing_plan_id":"cebpf4jnsgd1na2vs0mg"},{"bike_id":"d4074802-7c83-42b1-95a9-a3124905a656","system_id":"levelo_inurba_marseille","lat":43.338,"lon":5.37429,"is_reserved":false,"is_disabled":false,"rental_uris":{"android":"levelo://app?vid=d4074802-7c83-42b1-95a9-a3124905a656","ios":"levelo://app?vid=d4074802-7c83-42b1-95a9-a3124905a656"},"vehicle_type_id":"4","last_reported":1747289744,"current_range_meters":24000,"station_id":"","pricing_plan_id":"cebpf4jnsgd1na2vs0mg"},{"bike_id":"91646141-3270-4b7b-ab50-46caee31c175","system_id":"levelo_inurba_marseille","lat":43.30467,"lon":5.37902,"is_reserved":false,"is_disabled":false,"rental_uris":{"android":"levelo://app?vid=91646141-3270-4b7b-ab50-46caee31c175","ios":"levelo://app?vid=91646141-3270-4b7b-ab50-46caee31c175"},"vehicle_type_id":"4","last_reported":1747289744,"current_range_meters":24000,"station_id":"ce4bgup2rcd13ifvqcn0","pricing_plan_id":"cebpf4jnsgd1na2vs0mg"},{"bike_id":"8df6ba4f-e0e7-41bb-b306-875df8483857","system_id":"levelo_inurba_marseille","lat":43.2705,"lon":5.40292,"is_reserved":false,"is_disabled":false,"rental_uris":{"android":"levelo://app?vid=8df6ba4f-e0e7-41bb-b306-875df8483857","ios":"levelo://app?vid=8df6ba4f-e0e7-41bb-b306-875df8483857"},"vehicle_type_id":"4","last_reported":1747289744,"current_range_meters":24400,"station_id":"ce4bhk92rcd13ifvqgc0","pricing_plan_id":"cebpf4jnsgd1na2vs0mg"},{"bike_id":"03765b08-1607-4d42-9820-5f1ba59a28b9","system_id":"levelo_inurba_marseille","lat":43.32478,"lon":5.36574,"is_reserved":false,"is_disabled":false,"rental_uris":{"android":"levelo://app?vid=03765b08-1607-4d42-9820-5f1ba59a28b9","ios":"levelo://app?vid=03765b08-1607-4d42-9820-5f1ba59a28b9"},"vehicle_type_id":"4","last_reported":1747289744,"current_range_meters":24400,"station_id":"ce4bhs12rcd13ifvqhvg","pricing_plan_id":"cebpf4jnsgd1na2vs0mg"},{"bike_id":"d9bfd5b5-9d8c-44e1-8ff7-aed572c4e0dc","system_id":"levelo_inurba_marseille","lat":43.240741,"lon":5.377583,"is_reserved":false,"is_disabled":false,"rental_uris":{"android":"levelo://app?vid=d9bfd5b5-9d8c-44e1-8ff7-aed572c4e0dc","ios":"levelo://app?vid=d9bfd5b5-9d8c-44e1-8ff7-aed572c4e0dc"},"vehicle_type_id":"4","last_reported":1747289744,"current_range_meters":24400,"station_id":"","pricing_plan_id":"cebpf4jnsgd1na2vs0mg"},{"bike_id":"fc63a34e-3f25-45be-9ea9-4e1866b7773e","system_id":"levelo_inurba_marseille","lat":43.31523,"lon":5.37302,"is_reserved":false,"is_disabled":false,"rental_uris":{"android":"levelo://app?vid=fc63a34e-3f25-45be-9ea9-4e1866b7773e","ios":"levelo://app?vid=fc63a34e-3f25-45be-9ea9-4e1866b7773e"},"vehicle_type_id":"4","last_reported":1747289744,"current_range_meters":24400,"station_id":"ce4bgt12rcd13ifvqcd0","pricing_plan_id":"cebpf4jnsgd1na2vs0mg"},{"bike_id":"65f6ea05-0906-4584-9689-e4e3f7e6c7e5","system_id":"levelo_inurba_marseille","lat":43.2847,"lon":5.38413,"is_reserved":false,"is_disabled":true,"rental_uris":{"android":"levelo://app?vid=65f6ea05-0906-4584-9689-e4e3f7e6c7e5","ios":"levelo://app?vid=65f6ea05-0906-4584-9689-e4e3f7e6c7e5"},"vehicle_type_id":"4","last_reported":1747289744,"current_range_meters":24400,"station_id":"ce4bh512rcd13ifvqe3g","pricing_plan_id":"cebpf4jnsgd1na2vs0mg"},{"bike_id":"5396a3e2-0383-435a-bfa0-4cff3cad65b2","system_id":"levelo_inurba_marseille","lat":43.25002,"lon":5.38927,"is_reserved":false,"is_disabled":false,"rental_uris":{"android":"levelo://app?vid=5396a3e2-0383-435a-bfa0-4cff3cad65b2","ios":"levelo://app?vid=5396a3e2-0383-435a-bfa0-4cff3cad65b2"},"vehicle_type_id":"4","last_reported":1747289744,"current_range_meters":24400,"station_id":"ce4bhgp2rcd13ifvqfd0","pricing_plan_id":"cebpf4jnsgd1na2vs0mg"},{"bike_id":"45dceb08-2412-4725-8fd5-ca86b5b75276","system_id":"levelo_inurba_marseille","lat":43.23152,"lon":5.4371,"is_reserved":false,"is_disabled":false,"rental_uris":{"android":"levelo://app?vid=45dceb08-2412-4725-8fd5-ca86b5b75276","ios":"levelo://app?vid=45dceb08-2412-4725-8fd5-ca86b5b75276"},"vehicle_type_id":"4","last_reported":1747289744,"current_range_meters":24000,"station_id":"ce4bhmp2rcd13ifvqgog","pricing_plan_id":"cebpf4jnsgd1na2vs0mg"},{"bike_id":"f872b20b-a39d-4789-a263-6c12a1c41354","system_id":"levelo_inurba_marseille","lat":43.341477,"lon":5.409047,"is_reserved":false,"is_disabled":false,"rental_uris":{"android":"levelo://app?vid=f872b20b-a39d-4789-a263-6c12a1c41354","ios":"levelo://app?vid=f872b20b-a39d-4789-a263-6c12a1c41354"},"vehicle_type_id":"4","last_reported":1747289744,"current_range_meters":24000,"station_id":"ce4bhqh2rcd13ifvqhlg","pricing_plan_id":"cebpf4jnsgd1na2vs0mg"},{"bike_id":"3618c140-183b-4bd3-a37f-e076e4a865ae","system_id":"levelo_inurba_marseille","lat":43.24663,"lon":5.38164,"is_reserved":false,"is_disabled":false,"rental_uris":{"android":"levelo://app?vid=3618c140-183b-4bd3-a37f-e076e4a865ae","ios":"levelo://app?vid=3618c140-183b-4bd3-a37f-e076e4a865ae"},"vehicle_type_id":"4","last_reported":1747289744,"current_range_meters":24400,"station_id":"ce4bhih2rcd13ifvqfr0","pricing_plan_id":"cebpf4jnsgd1na2vs0mg"},{"bike_id":"ddf3e15f-c8a6-414a-8049-1c436a8705ca","system_id":"levelo_inurba_marseille","lat":43.285799,"lon":5.384058,"is_reserved":false,"is_disabled":false,"rental_uris":{"android":"levelo://app?vid=ddf3e15f-c8a6-414a-8049-1c436a8705ca","ios":"levelo://app?vid=ddf3e15f-c8a6-414a-8049-1c436a8705ca"},"vehicle_type_id":"4","last_reported":1747289744,"current_range_meters":24400,"station_id":"ce4bhbp2rcd13ifvqerg","pricing_plan_id":"cebpf4jnsgd1na2vs0mg"},{"bike_id":"2e023a1e-6d57-4115-85fe-a0f91cd6cd92","system_id":"levelo_inurba_marseille","lat":43.275005,"lon":5.424475,"is_reserved":false,"is_disabled":false,"rental_uris":{"android":"levelo://app?vid=2e023a1e-6d57-4115-85fe-a0f91cd6cd92","ios":"levelo://app?vid=2e023a1e-6d57-4115-85fe-a0f91cd6cd92"},"vehicle_type_id":"4","last_reported":1747289744,"current_range_meters":24400,"station_id":"ce4bhn92rcd13ifvqgrg","pricing_plan_id":"cebpf4jnsgd1na2vs0mg"},{"bike_id":"6f448576-cb7a-467b-9582-3c3c618da3ac","system_id":"levelo_inurba_marseille","lat":43.24167,"lon":5.36395,"is_reserved":false,"is_disabled":false,"rental_uris":{"android":"levelo://app?vid=6f448576-cb7a-467b-9582-3c3c618da3ac","ios":"levelo://app?vid=6f448576-cb7a-467b-9582-3c3c618da3ac"},"vehicle_type_id":"4","last_reported":1747289744,"current_range_meters":24800,"station_id":"cpo36qri1sfpv3e86is0","pricing_plan_id":"cebpf4jnsgd1na2vs0mg"},{"bike_id":"df6b5553-0b33-465c-a2e3-1751817014e6","system_id":"levelo_inurba_marseille","lat":43.3091,"lon":5.36833,"is_reserved":false,"is_disabled":false,"rental_uris":{"android":"levelo://app?vid=df6b5553-0b33-465c-a2e3-1751817014e6","ios":"levelo://app?vid=df6b5553-0b33-465c-a2e3-1751817014e6"},"vehicle_type_id":"4","last_reported":1747289744,"current_range_meters":24800,"station_id":"ce4bgn92rcd13ifvqbvg","pricing_plan_id":"cebpf4jnsgd1na2vs0mg"},