{"last_updated":1734084636,"ttl":60,"version":"2.2","data":{"bikes":[{"bike_id":"3e5d99b9-1aaf-48b9-b5fb-fb7a0b5b1ba5","system_id":"levelo_inurba_marseille","lat":43.29042,"lon":5.39252,"is_reserved":false,"is_disabled":true,"rental_uris":{"android":"levelo://app?vid=3e5d99b9-1aaf-48b9-b5fb-fb7a0b5b1ba5","ios":"levelo://app?vid=3e5d99b9-1aaf-48b9-b5fb-fb7a0b5b1ba5"},"vehicle_type_id":"4","last_reported":1734084637,"current_range_meters":0,"station_id":"","pricing_plan_id":"cebpf4jnsgd1na2vs0mg"},{"bike_id":"4b86ef92-0dbc-4bc4-9847-43243a710f9f","system_id":"levelo_inurba_marseille","lat":43.30465,"lon":5.37911,"is_reserved":false,"is_disabled":false,"rental_uris":{"android":"levelo://app?vid=4b86ef92-0dbc-4bc4-9847-43243a710f9f","ios":"levelo://app?vid=4b86ef92-0dbc-4bc4-9847-43243a710f9f"},"vehicle_type_id":"4","last_reported":1734084637,"current_range_meters":38800,"station_id":"ce4bgup2rcd13ifvqcn0","pricing_plan_id":"cebpf4jnsgd1na2vs0mg"},{"bike_id":"d646a41a-4a34-4345-8b4f-9cdf66c9ed29","system_id":"levelo_inurba_marseille","lat":43.23192,"lon":5.40005,"is_reserved":false,"is_disabled":false,"rental_uris":{"android":"levelo://app?vid=d646a41a-4a34-4345-8b4f-9cdf66c9ed29","ios":"levelo://app?vid=d646a41a-4a34-4345-8b4f-9cdf66c9ed29"},"vehicle_type_id":"4","last_reported":1734084637,"current_range_meters":9200,"station_id":"ce4bhn12rcd13ifvqgqg","pricing_plan_id":"cebpf4jnsgd1na2vs0mg"},{"bike_id":"68a5e283-83da-4da3-a08f-76abd1202548","system_id":"levelo_inurba_marseille","lat":43.31261,"lon":5.36871,"is_reserved":false,"is_disabled":false,"rental_uris":{"android":"levelo://app?vid=68a5e283-83da-4da3-a08f-76abd1202548","ios":"levelo://app?vid=68a5e283-83da-4da3-a08f-76abd1202548"},"vehicle_type_id":"4","last_reported":1734084637,"current_range_meters":38800,"station_id":"ce4bgl92rcd13ifvqbq0","pricing_plan_id":"cebpf4jnsgd1na2vs0mg"},{"bike_id":"66d7c108-bd5d-4432-968e-1a040027252f","system_id":"levelo_inurba_marseille","lat":43.29,"lon":5.35605,"is_reserved":false,"is_disabled":false,"rental_uris":{"android":"levelo://app?vid=66d7c108-bd5d-4432-968e-1a040027252f","ios":"levelo://app?vid=66d7c108-bd5d-4432-968e-1a040027252f"},"vehicle_type_id":"4","last_reported":1734084637,"current_range_meters":38000,"station_id":"ce4bhb92rcd13ifvqen0","pricing_plan_id":"cebpf4jnsgd1na2vs0mg"},{"bike_id":"d12a23cb-03f7-4881-b9ae-a6c6d43bbd61","system_id":"levelo_inurba_marseille","lat":43.29526,"lon":5.39045,"is_reserved":false,"is_disabled":false,"rental_uris":{"android":"levelo://app?vid=d12a23cb-03f7-4881-b9ae-a6c6d43bbd61","ios":"levelo://app?vid=d12a23cb-03f7-4881-b9ae-a6c6d43bbd61"},"vehicle_type_id":"4","last_reported":1734084637,"current_range_meters":35200,"station_id":"ce4bh3p2rcd13ifvqdp0","pricing_plan_id":"cebpf4jnsgd1na2vs0mg"},{"bike_id":"f25315a0-93c7-4024-abb8-2f4657c35f50","system_id":"levelo_inurba_marseille","lat":43.30155,"lon":5.37359,"is_reserved":false,"is_disabled":false,"rental_uris":{"android":"levelo://app?vid=f25315a0-93c7-4024-abb8-2f4657c35f50","ios":"levelo://app?vid=f25315a0-93c7-4024-abb8-2f4657c35f50"},"vehicle_type_id":"4","last_reported":1734084637,"current_range_meters":27200,"station_id":"ce4bgs92rcd13ifvqcc0","pricing_plan_id":"cebpf4jnsgd1na2vs0mg"},{"bike_id":"32fade33-734c-4cbf-b948-5cef477a8f70","system_id":"levelo_inurba_marseille","lat":43.29527,"lon":5.39037,"is_reserved":false,"is_disabled":true,"rental_uris":{"android":"levelo://app?vid=32fade33-734c-4cbf-b948-5cef477a8f70","ios":"levelo://app?vid=32fade33-734c-4cbf-b948-5cef477a8f70"},"vehicle_type_id":"4","last_reported":1734084637,"current_range_meters":27200,"station_id":"ce4bh3p2rcd13ifvqdp0","pricing_plan_id":"cebpf4jnsgd1na2vs0mg"},{"bike_id":"f0d672bd-b7de-48da-b0d8-04f6e97348cb","system_id":"levelo_inurba_marseille","lat":43.27933,"lon":5.41047,"is_reserved":false,"is_disabled":false,"rental_uris":{"android":"levelo://app?vid=f0d672bd-b7de-48da-b0d8-04f6e97348cb","ios":"levelo://app?vid=f0d672bd-b7de-48da-b0d8-04f6e97348cb"},"vehicle_type_id":"4","last_reported":1734084637,"current_range_meters":16400,"station_id":"ce4bhnp2rcd13ifvqh0g","pricing_plan_id":"cebpf4jnsgd1na2vs0mg"},{"bike_id":"9d513f93-118a-4268-bd5e-30eba98d10bc","system_id":"levelo_inurba_marseille","lat":43.30168,"lon":5.3809,"is_reserved":false,"is_disabled":false,"rental_uris":{"android":"levelo://app?vid=9d513f93-118a-4268-bd5e-30eba98d10bc","ios":"levelo://app?vid=9d513f93-118a-4268-bd5e-30eba98d10bc"},"vehicle_type_id":"4","last_reported":1734084637,"current_range_meters":39200,"station_id":"ce4bgjp2rcd13ifvqbh0","pricing_plan_id":"cebpf4jnsgd1na2vs0mg"},{"bike_id":"e4cdeb80-cc94-488a-a704-6f5b116e727f","system_id":"levelo_inurba_marseille","lat":43.26949,"lon":5.3864,"is_reserved":false,"is_disabled":false,"rental_uris":{"android":"levelo://app?vid=e4cdeb80-cc94-488a-a704-6f5b116e727f","ios":"levelo://app?vid=e4cdeb80-cc94-488a-a704-6f5b116e727f"},"vehicle_type_id":"4","last_reported":1734084637,"current_range_meters":38800,"station_id":"ce4bhh92rcd13ifvqfh0","pricing_plan_id":"cebpf4jnsgd1na2vs0mg"},{"bike_id":"c240e393-7ed9-4dec-852b-c847a56e7b71","system_id":"levelo_inurba_marseille","lat":43.31359,"lon":5.38495,"is_reserved":false,"is_disabled":false,"rental_uris":{"android":"levelo://app?vid=c240e393-7ed9-4dec-852b-c847a56e7b71","ios":"levelo://app?vid=c240e393-7ed9-4dec-852b-c847a56e7b71"},"vehicle_type_id":"4","last_reported":1734084637,"current_range_meters":37600,"station_id":"ce4bgt92rcd13ifvqcf0","pricing_plan_id":"cebpf4jnsgd1na2vs0mg"},{"bike_id":"9134c73e-9e11-4d12-9fc2-d4a26311dab8","system_id":"levelo_inurba_marseille","lat":43.26207,"lon":5.37931,"is_reserved":false,"is_disabled":false,"rental_uris":{"android":"levelo://app?vid=9134c73e-9e11-4d12-9fc2-d4a26311dab8","ios":"levelo://app?vid=9134c73e-9e11-4d12-9fc2-d4a26311dab8"},"vehicle_type_id":"4","last_reported":1734084637,"current_range_meters":36000,"station_id":"ce4bhjp2rcd13ifvqg90","pricing_plan_id":"cebpf4jnsgd1na2vs0mg"},{"bike_id":"f53a51f1-6db0-4716-9c45-7ac4c7fcd208","system_id":"levelo_inurba_marseille","lat":43.32279,"lon":5.38275,"is_reserved":false,"is_disabled":false,"rental_uris":{"android":"levelo://app?vid=f53a51f1-6db0-4716-9c45-7ac4c7fcd208","ios":"levelo://app?vid=f53a51f1-6db0-4716-9c45-7ac4c7fcd208"},"vehicle_type_id":"4","last_reported":1734084637,"current_range_meters":36400,"station_id":"ce4bhr12rcd13ifvqhqg","pricing_plan_id":"cebpf4jnsgd1na2vs0mg"},{"bike_id":"980f96eb-32c9-4906-98f6-c44dbf4c84a1","system_id":"levelo_inurba_marseille","lat":43.27455,"lon":5.40073,"is_reserved":false,"is_disabled":true,"rental_uris":{"android":"levelo://app?vid=980f96eb-32c9-4906-98f6-c44dbf4c84a1","ios":"levelo://app?vid=980f96eb-32c9-4906-98f6-c44dbf4c84a1"},"vehicle_type_id":"4","last_reported":1734084637,"current_range_meters":0,"station_id":"","pricing_plan_id":"cebpf4jnsgd1na2vs0mg"},{"bike_id":"2fc0bcc3-2025-431a-bd17-8a1337c9033b","system_id":"levelo_inurba_marseille","lat":43.3009,"lon":5.39081,"is_reserved":false,"is_disabled":false,"rental_uris":{"android":"levelo://app?vid=2fc0bcc3-2025-431a-bd17-8a1337c9033b","ios":"levelo://app?vid=2fc0bcc3-2025-431a-bd17-8a1337c9033b"},"vehicle_type_id":"4","last_reported":1734084637,"current_range_meters":27600,"station_id":"ce4bh192rcd13ifvqdb0","pricing_plan_id":"cebpf4jnsgd1na2vs0mg"},{"bike_id":"8eb40f25-fc14-4288-9dd7-aae13b0a9b04","system_id":"levelo_inurba_marseille","lat":43.26941,"lon":5.40246,"is_reserved":false,"is_disabled":true,"rental_uris":{"android":"levelo://app?vid=8eb40f25-fc14-4288-9dd7-aae13b0a9b04","ios":"levelo://app?vid=8eb40f25-fc14-4288-9dd7-aae13b0a9b04"},"vehicle_type_id":"4","last_reported":1734084637,"current_range_meters":30400,"station_id":"cjm6bp8fraef2m0cb0m0","pricing_plan_id":"cebpf4jnsgd1na2vs0mg"},{"bike_id":"32cf16f4-9a39-47cc-b122-aade4b67d5ee","system_id":"levelo_inurba_marseille","lat":43.34146,"lon":5.40905,"is_reserved":false,"is_disabled":false,"rental_uris":{"android":"levelo://app?vid=32cf16f4-9a39-47cc-b122-aade4b67d5ee","ios":"levelo://app?vid=32cf16f4-9a39-47cc-b122-aade4b67d5ee"},"vehicle_type_id":"4","last_reported":1734084637,"current_range_meters":32800,"station_id":"ce4bhqh2rcd13ifvqhlg","pricing_plan_id":"cebpf4jnsgd1na2vs0mg"},{"bike_id":"44fb5f0a-2ae4-4d74-aec6-24e498791295","system_id":"levelo_inurba_marseille","lat":43.25498,"lon":5.37653,"is_reserved":false,"is_disabled":false,"rental_uris":{"android":"levelo://app?vid=44fb5f0a-2ae4-4d74-aec6-24e498791295","ios":"levelo://app?vid=44fb5f0a-2ae4-4d74-aec6-24e498791295"},"vehicle_type_id":"4","last_reported":1734084637,"current_range_meters":38800,"station_id":"ce4bhh12rcd13ifvqff0","pricing_plan_id":"cebpf4jnsgd1na2vs0mg"},{"bike_id":"ab5e4461-fda5-43a9-bc1a-26d6e88593c9","system_id":"levelo_inurba_marseille","lat":43.28952,"lon":5.36389,"is_reserved":false,"is_disabled":false,"rental_uris":{"android":"levelo://app?vid=ab5e4461-fda5-43a9-bc1a-26d6e88593c9","ios":"levelo://app?vid=ab5e4461-fda5-43a9-bc1a-26d6e88593c9"},"vehicle_type_id":"4","last_reported":1734084637,"current_range_meters":35200,"station_id":"ce4bhc92rcd13ifvqetg","pricing_plan_id":"cebpf4jnsgd1na2vs0mg"},{"bike_id":"ee633bd0-40f5-46a9-aaab-947219add634","system_id":"levelo_inurba_marseille","lat":43.2919,"lon":5.35794,"is_reserved":false,"is_disabled":true,"rental_uris":{"android":"levelo://app?vid=ee633bd0-40f5-46a9-aaab-947219add634","ios":"levelo://app?vid=ee633bd0-40f5-46a9-aaab-947219add634"},"vehicle_type_id":"4","last_reported":1734084637,"current_range_meters":30400,"station_id":"ce4bhb12rcd13ifvqel0","pricing_plan_id":"cebpf4jnsgd1na2vs0mg"},{"bike_id":"1a248e21-fb16-4d2e-8ca0-7887ec96d314","system_id":"levelo_inurba_marseille","lat":43.2693,"lon":5.38912,"is_reserved":false,"is_disabled":false,"rental_uris":{"android":"levelo://app?vid=1a248e21-fb16-4d2e-8ca0-7887ec96d314","ios":"levelo://app?vid=1a248e21-fb16-4d2e-8ca0-7887ec96d314"},"vehicle_type_id":"4","last_reported":1734084637,"current_range_meters":28000,"station_id":"ce4bhhh2rcd13ifvqfl0","pricing_plan_id":"cebpf4jnsgd1na2vs0mg"},{"bike_id":"506ab972-ac84-46b6-90f5-267f1345b92d","system_id":"levelo_inurba_marseille","lat":43.27062,"lon":5.40268,"is_reserved":false,"is_disabled":false,"rental_uris":{"android":"levelo://app?vid=506ab972-ac84-46b6-90f5-267f1345b92d","ios":"levelo://app?vid=506ab972-ac84-46b6-90f5-267f1345b92d"},"vehicle_type_id":"4","last_reported":1734084637,"current_range_meters":32400,"station_id":"ce4bhk92rcd13ifvqgc0","pricing_plan_id":"cebpf4jnsgd1na2vs0mg"},{"bike_id":"fe87f8f2-6e97-4611-93da-1318a830eb3c","system_id":"levelo_inurba_marseille","lat":43.27991,"lon":5.41657,"is_reserved":false,"is_disabled":true,"rental_uris":{"android":"levelo://app?vid=fe87f8f2-6e97-4611-93da-1318a830eb3c","ios":"levelo://app?vid=fe87f8f2-6e97-4611-93da-1318a830eb3c"},"vehicle_type_id":"4","last_reported":1734084637,"current_range_meters":37600,"station_id":"ce4bho12rcd13ifvqh1g","pricing_plan_id":"cebpf4jnsgd1na2vs0mg"},{"bike_id":"68341feb-c70b-4c28-91d5-1c7269ec3b3a","system_id":"levelo_inurba_marseille","lat":43.29605,"lon":5.37714,"is_reserved":false,"is_disabled":false,"rental_uris":{"android":"levelo://app?vid=68341feb-c70b-4c28-91d5-1c7269ec3b3a","ios":"levelo://app?vid=68341feb-c70b-4c28-91d5-1c7269ec3b3a"},"vehicle_type_id":"4","last_reported":1734084637,"current_range_meters":6800,"station_id":"ce4bgi92rcd13ifvqb90","pricing_plan_id":"cebpf4jnsgd1na2vs0mg"},{"bike_id":"a830854d-85a5-4d22-8e8f-1bf3eb4beebf","system_id":"levelo_inurba_marseille","lat":43.30534,"lon":5.3653,"is_reserved":false,"is_disabled":false,"rental_uris":{"android":"levelo://app?vid=a830854d-85a5-4d22-8e8f-1bf3eb4beebf","ios":"levelo://app?vid=a830854d-85a5-4d22-8e8f-1bf3eb4beebf"},"vehicle_type_id":"4","last_reported":1734084637,"current_range_meters":37600,"station_id":"ce4bgs12rcd13ifvqcag","pricing_plan_id":"cebpf4jnsgd1na2vs0mg"},{"bike_id":"2757863f-4be8-42ad-bf70-1e54a617ce3d","system_id":"levelo_inurba_marseille","lat":43.29548,"lon":5.42284,"is_reserved":false,"is_disabled":true,"rental_uris":{"android":"levelo://app?vid=2757863f-4be8-42ad-bf70-1e54a617ce3d","ios":"levelo://app?vid=2757863f-4be8-42ad-bf70-1e54a617ce3d"},"vehicle_type_id":"4","last_reported":1734084637,"current_range_meters":3600,"station_id":"ce4bhph2rcd13ifvqhdg","pricing_plan_id":"cebpf4jnsgd1na2vs0mg"},{"bike_id":"41e78fe5-4d91-4a8c-9f18-8440028ea58e","system_id":"levelo_inurba_marseille","lat":43.2922,"lon":5.36075,"is_reserved":false,"is_disabled":false,"rental_uris":{"android":"levelo://app?vid=41e78fe5-4d91-4a8c-9f18-8440028ea58e","ios":"levelo://app?vid=41e78fe5-4d91-4a8c-9f18-8440028ea58e"},"vehicle_type_id":"4","last_reported":1734084637,"current_range_meters":28400,"station_id":"ce4bhbh2rcd13ifvqeqg","pricing_plan_id":"cebpf4jnsgd1na2vs0mg"},{"bike_id":"d5c89c1f-3bad-4af2-9449-e04c277a4696","system_id":"levelo_inurba_marseille","lat":43.29964,"lon":5.41335,"is_reserved":false,"is_disabled":true,"rental_uris":{"android":"levelo://app?vid=d5c89c1f-3bad-4af2-9449-e04c277a4696","ios":"levelo://app?vid=d5c89c1f-3bad-4af2-9449-e04c277a4696"},"vehicle_type_id":"4","last_reported":1734084637,"current_range_meters":35200,"station_id":"ce4bhp12rcd13ifvqh9g","pricing_plan_id":"cebpf4jnsgd1na2vs0mg"},{"bike_id":"07513f7f-4ef0-4b60-a78e-a5f2a9b9009d","system_id":"levelo_inurba_marseille","lat":43.29094,"lon":5.3815,"is_reserved":false,"is_disabled":false,"rental_uris":{"android":"levelo://app?vid=07513f7f-4ef0-4b60-a78e-a5f2a9b9009d","ios":"levelo://app?vid=07513f7f-4ef0-4b60-a78e-a5f2a9b9009d"},"vehicle_type_id":"4","last_reported":1734084637,"current_range_meters":36400,"station_id":"ce4bh512rcd13ifvqe2g","pricing_plan_id":"cebpf4jnsgd1na2vs0mg"},{"bike_id":"c4c2d57e-0041-4441-af5b-4e76fecd4711","system_id":"levelo_inurba_marseille","lat":43.2407,"lon":5.37737,"is_reserved":false,"is_disabled":false,"rental_uris":{"android":"levelo://app?vid=c4c2d57e-0041-4441-af5b-4e76fecd4711","ios":"levelo://app?vid=c4c2d57e-0041-4441-af5b-4e76fecd4711"},"vehicle_type_id":"4","last_reported":1734084637,"current_range_meters":14000,"station_id":"ce4bhnp2rcd13ifvqgvg","pricing_plan_id":"cebpf4jnsgd1na2vs0mg"},{"bike_id":"44dea3bd-4411-41f6-b1ef-f066d537c0bd","system_id":"levelo_inurba_marseille","lat":43.23956,"lon":5.3664,"is_reserved":false,"is_disabled":false,"rental_uris":{"android":"levelo://app?vid=44dea3bd-4411-41f6-b1ef-f066d537c0bd","ios":"levelo://app?vid=44dea3bd-4411-41f6-b1ef-f066d537c0bd"},"vehicle_type_id":"4","last_reported":1734084637,"current_range_meters":39200,"station_id":"ce4bhi12rcd13ifvqfp0","pricing_plan_id":"cebpf4jnsgd1na2vs0mg"},{"bike_id":"38eb172d-a077-4ca7-9a48-d1565bc55b20","system_id":"levelo_inurba_marseille","lat":43.32283,"lon":5.38273,"is_reserved":false,"is_disabled":false,"rental_uris":{"android":"levelo://app?vid=38eb172d-a077-4ca7-9a48-d1565bc55b20","ios":"levelo://app?vid=38eb172d-a077-4ca7-9a48-d1565bc55b20"},"vehicle_type_id":"4","last_reported":1734084637,"current_range_meters":37600,"station_id":"ce4bhr12rcd13ifvqhqg","pricing_plan_id":"cebpf4jnsgd1na2vs0mg"},{"bike_id":"23b203e2-b068-4fc8-9a12-e11cba490e91","system_id":"levelo_inurba_marseille","lat":43.25566,"lon":5.3824,"is_reserved":false,"is_disabled":false,"rental_uris":{"android":"levelo://app?vid=23b203e2-b068-4fc8-9a12-e11cba490e91","ios":"levelo://app?vid=23b203e2-b068-4fc8-9a12-e11cba490e91"},"vehicle_type_id":"4","last_reported":1734084637,"current_range_meters":37600,"station_id":"ce4bhih2rcd13ifvqfs0","pricing_plan_id":"cebpf4jnsgd1na2vs0mg"},{"bike_id":"516bcbce-8b75-4610-9ee5-df08b7034853","system_id":"levelo_inurba_marseille","lat":43.26785,"lon":5.39421,"is_reserved":false,"is_disabled":false,"rental_uris":{"android":"levelo://app?vid=516bcbce-8b75-4610-9ee5-df08b7034853","ios":"levelo://app?vid=516bcbce-8b75-4610-9ee5-df08b7034853"},"vehicle_type_id":"4","last_reported":1734084637,"current_range_meters":37600,"station_id":"ce4bhh12rcd13ifvqfg0","pricing_plan_id":"cebpf4jnsgd1na2vs0mg"},{"bike_id":"599a43e8-90a3-4380-878b-70b7077ec6aa","system_id":"levelo_inurba_marseille","lat":43.29369,"lon":5.37844,"is_reserved":false,"is_disabled":false,"rental_uris":{"android":"levelo://app?vid=599a43e8-90a3-4380-878b-70b7077ec6aa","ios":"levelo://app?vid=599a43e8-90a3-4380-878b-70b7077ec6aa"},"vehicle_type_id":"4","last_reported":1734084637,"current_range_meters":23200,"station_id":"ce4bgjh2rcd13ifvqbf0","pricing_plan_id":"cebpf4jnsgd1na2vs0mg"},{"bike_id":"80f66b82-54aa-4843-b64e-91d3afce4948","system_id":"levelo_inurba_marseille","lat":43.30807,"lon":5.37303,"is_reserved":false,"is_disabled":true,"rental_uris":{"android":"levelo://app?vid=80f66b82-54aa-4843-b64e-91d3afce4948","ios":"levelo://app?vid=80f66b82-54aa-4843-b64e-91d3afce4948"},"vehicle_type_id":"4","last_reported":1734084637,"current_range_meters":23200,"station_id":"","pricing_plan_id":"cebpf4jnsgd1na2vs0mg"},{"bike_id":"03e5713c-5978-439a-819c-960a064c142d","system_id":"levelo_inurba_marseille","lat":43.2872,"lon":5.37942,"is_reserved":false,"is_disabled":false,"rental_uris":{"android":"levelo://app?vid=03e5713c-5978-439a-819c-960a064c142d","ios":"levelo://app?vid=03e5713c-5978-439a-819c-960a064c142d"},"vehicle_type_id":"4","last_reported":1734084637,"current_range_meters":39200,"station_id":"ce4bh9p2rcd13ifvqec0","pricing_plan_id":"cebpf4jnsgd1na2vs0mg"},{"bike_id":"94e1f871-2269-4dc0-b678-810d929953a4","system_id":"levelo_inurba_marseille","lat":43.26557,"lon":5.37295,"is_reserved":false,"is_disabled":false,"rental_uris":{"android":"levelo://app?vid=94e1f871-2269-4dc0-b678-810d929953a4","ios":"levelo://app?vid=94e1f871-2269-4dc0-b678-810d929953a4"},"vehicle_type_id":"4","last_reported":1734084637,"current_range_meters":30000,"station_id":"ce4bhg12rcd13ifvqf70","pricing_plan_id":"cebpf4jnsgd1na2vs0mg"},{"bike_id":"3a56946e-b571-4f0a-89c3-228266a44430","system_id":"levelo_inurba_marseille","lat":43.26597,"lon":5.38971,"is_reserved":false,"is_disabled":true,"rental_uris":{"android":"levelo://app?vid=3a56946e-b571-4f0a-89c3-228266a44430","ios":"levelo://app?vid=3a56946e-b571-4f0a-89c3-228266a44430"},"vehicle_type_id":"4","last_reported":1734084637,"current_range_meters":0,"station_id":"","pricing_plan_id":"cebpf4jnsgd1na2vs0mg"},{"bike_id":"495986c7-e02a-4c20-a1dc-c3edae2c8c07","system_id":"levelo_inurba_marseille","lat":43.3054,"lon":5.36697,"is_reserved":false,"is_disabled":false,"rental_uris":{"android":"levelo://app?vid=495986c7-e02a-4c20-a1dc-c3edae2c8c07","ios":"levelo://app?vid=495986c7-e02a-4c20-a1dc-c3edae2c8c07"},"vehicle_type_id":"4","last_reported":1734084637,"current_range_meters":22400,"station_id":"ce4bgrp2rcd13ifvqc9g","pricing_plan_id":"cebpf4jnsgd1na2vs0mg"},{"bike_id":"02c5af54-8024-4a73-8dc2-6f8da750dd32","system_id":"levelo_inurba_marseille","lat":43.26204,"lon":5.37927,"is_reserved":false,"is_disabled":false,"rental_uris":{"android":"levelo://app?vid=02c5af54-8024-4a73-8dc2-6f8da750dd32","ios":"levelo://app?vid=02c5af54-8024-4a73-8dc2-6f8da750dd32"},"vehicle_type_id":"4","last_reported":1734084637,"current_range_meters":36400,"station_id":"ce4bhjp2rcd13ifvqg90","pricing_plan_id":"cebpf4jnsgd1na2vs0mg"},{"bike_id":"3579cd3c-5694-48a6-92ce-95bfe5890d10","system_id":"levelo_inurba_marseille","lat":43.27949,"lon":5.41043,"is_reserved":false,"is_disabled":false,"rental_uris":{"android":"levelo://app?vid=3579cd3c-5694-48a6-92ce-95bfe5890d10","ios":"levelo://app?vid=3579cd3c-5694-48a6-92ce-95bfe5890d10"},"vehicle_type_id":"4","last_reported":1734084637,"current_range_meters":38800,"station_id":"ce4bhnp2rcd13ifvqh0g","pricing_plan_id":"cebpf4jnsgd1na2vs0mg"},{"bike_id":"01db2a8b-3688-4a47-8a7d-5292921c444a","system_id":"levelo_inurba_marseille","lat":43.29932,"lon":5.36546,"is_reserved":false,"is_disabled":false,"rental_uris":{"android":"levelo://app?vid=01db2a8b-3688-4a47-8a7d-5292921c444a","ios":"levelo://app?vid=01db2a8b-3688-4a47-8a7d-5292921c444a"},"vehicle_type_id":"4","last_reported":1734084637,"current_range_meters":8800,"station_id":"ce4bgm92rcd13ifvqbr0","pricing_plan_id":"cebpf4jnsgd1na2vs0mg"},{"bike_id":"48f89538-caef-48c0-b76c-a236ac0f81eb","system_id":"levelo_inurba_marseille","lat":43.29539,"lon":5.38554,"is_reserved":false,"is_disabled":true,"rental_uris":{"android":"levelo://app?vid=48f89538-caef-48c0-b76c-a236ac0f81eb","ios":"levelo://app?vid=48f89538-caef-48c0-b76c-a236ac0f81eb"},"vehicle_type_id":"4","last_reported":1734084637,"current_range_meters":20800,"station_id":"ce4bgih2rcd13ifvqba0","pricing_plan_id":"cebpf4jnsgd1na2vs0mg"},{"bike_id":"edaea664-24e0-4d6c-aa7a-497f5c5f88f6","system_id":"levelo_inurba_marseille","lat":43.27004,"lon":5.39153,"is_reserved":false,"is_disabled":true,"rental_uris":{"android":"levelo://app?vid=edaea664-24e0-4d6c-aa7a-497f5c5f88f6","ios":"levelo://app?vid=edaea664-24e0-4d6c-aa7a-497f5c5f88f6"},"vehicle_type_id":"4","last_reported":1734084637,"current_range_meters":0,"station_id":"","pricing_plan_id":"cebpf4jnsgd1na2vs0mg"},{"bike_id":"e3f87214-e79a-460e-b324-ceed85381c34","system_id":"levelo_inurba_marseille","lat":43.336114,"lon":5.410201,"is_reserved":false,"is_disabled":false,"rental_uris":{"android":"levelo://app?vid=e3f87214-e79a-460e-b324-ceed85381c34","ios":"levelo://app?vid=e3f87214-e79a-460e-b324-ceed85381c34"},"vehicle_type_id":"4","last_reported":1734084637,"current_range_meters":38800,"station_id":"ce4bhqh2rcd13ifvqhmg","pricing_plan_id":"cebpf4jnsgd1na2vs0mg"},{"bike_id":"d7c3e27f-5de7-4f48-ade2-851e2c8cccf3","system_id":"levelo_inurba_marseille","lat":43.31532,"lon":5.38021,"is_reserved":false,"is_disabled":false,"rental_uris":{"android":"levelo://app?vid=d7c3e27f-5de7-4f48-ade2-851e2c8cccf3","ios":"levelo://app?vid=d7c3e27f-5de7-4f48-ade2-851e2c8cccf3"},"vehicle_type_id":"4","last_reported":1734084637,"current_range_meters":29600,"station_id":"ce4bhsp2rcd13ifvqi50","pricing_plan_id":"cebpf4jnsgd1na2vs0mg"},{"bike_id":"c2b0a1de-04dc-4eba-8fc8-f71a703093c8","system_id":"levelo_inurba_marseille","lat":43.26498,"lon":5.3954,"is_reserved":false,"is_disabled":true,"rental_uris":{"android":"levelo://app?vid=c2b0a1de-04dc-4eba-8fc8-f71a703093c8","ios":"levelo://app?vid=c2b0a1de-04dc-4eba-8fc8-f71a703093c8"},"vehicle_type_id":"4","last_reported":1734084637,"current_range_meters":38800,"station_id":"ce4bhi12rcd13ifvqfq0","pricing_plan_id":"cebpf4jnsgd1na2vs0mg"},{"bike_id":"516f14a4-04fe-406e-80c1-e9be448aafa5","system_id":"levelo_inurba_marseille","lat":43.30555,"lon":5.36532,"is_reserved":false,"is_disabled":false,"rental_uris":{"android":"levelo://app?vid=516f14a4-04fe-406e-80c1-e9be448aafa5","ios":"levelo://app?vid=516f14a4-04fe-406e-80c1-e9be448aafa5"},"vehicle_type_id":"4","last_reported":1734084637,"current_range_meters":38400,"station_id":"ce4bgs12rcd13ifvqcag","pricing_plan_id":"cebpf4jnsgd1na2vs0mg"},{"bike_id":"75d005f1-a104-4287-b501-1002db049ee7","system_id":"levelo_inurba_marseille","lat":43.33719,"lon":5.39183,"is_reserved":false,"is_disabled":false,"rental_uris":{"android":"levelo://app?vid=75d005f1-a104-4287-b501-1002db049ee7","ios":"levelo://app?vid=75d005f1-a104-4287-b501-1002db049ee7"},"vehicle_type_id":"4","last_reported":1734084637,"current_range_meters":39200,"station_id":"ce4bhr92rcd13ifvqhsg","pricing_plan_id":"cebpf4jnsgd1na2vs0mg"},{"bike_id":"4d13eabf-b7f3-4054-99c3-2364d31938b4","system_id":"levelo_inurba_marseille","lat":43.2835,"lon":5.38091,"is_reserved":false,"is_disabled":false,"rental_uris":{"android":"levelo://app?vid=4d13eabf-b7f3-4054-99c3-2364d31938b4","ios":"levelo://app?vid=4d13eabf-b7f3-4054-99c3-2364d31938b4"},"vehicle_type_id":"4","last_reported":1734084637,"current_range_meters":35600,"station_id":"ce4bh412rcd13ifvqdr0","pricing_plan_id":"cebpf4jnsgd1na2vs0mg"},{"bike_id":"30b7f7b0-cffb-44e8-9e23-86428fe1183d","system_id":"levelo_inurba_marseille","lat":43.23053,"lon":5.35507,"is_reserved":false,"is_disabled":false,"rental_uris":{"android":"levelo://app?vid=30b7f7b0-cffb-44e8-9e23-86428fe1183d","ios":"levelo://app?vid=30b7f7b0-cffb-44e8-9e23-86428fe1183d"},"vehicle_type_id":"4","last_reported":1734084637,"current_range_meters":4800,"station_id":"cpo3342slgdg3j2ifvpg","pricing_plan_id":"cebpf4jnsgd1na2vs0mg"},{"bike_id":"0049db0b-05fb-4da5-9069-3fbce4577114","system_id":"levelo_inurba_marseille","lat":43.29369,"lon":5.37848,"is_reserved":false,"is_disabled":false,"rental_uris":{"android":"levelo://app?vid=0049db0b-05fb-4da5-9069-3fbce4577114","ios":"levelo://app?vid=0049db0b-05fb-4da5-9069-3fbce4577114"},"vehicle_type_id":"4","last_reported":1734084637,"current_range_meters":24800,"station_id":"ce4bgjh2rcd13ifvqbf0","pricing_plan_id":"cebpf4jnsgd1na2vs0mg"},{"bike_id":"c962957d-ec10-4997-96e1-a869343f922e","system_id":"levelo_inurba_marseille","lat":43.32677,"lon":5.36093,"is_reserved":false,"is_disabled":false,"rental_uris":{"android":"levelo://app?vid=c962957d-ec10-4997-96e1-a869343f922e","ios":"levelo://app?vid=c962957d-ec10-4997-96e1-a869343f922e"},"vehicle_type_id":"4","last_reported":1734084637,"current_range_meters":6400,"station_id":"","pricing_plan_id":"cebpf4jnsgd1na2vs0mg"},{"bike_id":"a961712e-bcd8-4a53-b6af-0949b26de961","system_id":"levelo_inurba_marseille","lat":43.31111,"lon":5.37771,"is_reserved":false,"is_disabled":false,"rental_uris":{"android":"levelo://app?vid=a961712e-bcd8-4a53-b6af-0949b26de961","ios":"levelo://app?vid=a961712e-bcd8-4a53-b6af-0949b26de961"},"vehicle_type_id":"4","last_reported":1734084637,"current_range_meters":9600,"station_id":"ce4bgt92rcd13ifvqcg0","pricing_plan_id":"cebpf4jnsgd1na2vs0mg"},{"bike_id":"5313f15a-6be9-4e32-afca-b26d6d5068af","system_id":"levelo_inurba_marseille","lat":43.26548,"lon":5.39012,"is_reserved":false,"is_disabled":false,"rental_uris":{"android":"levelo://app?vid=5313f15a-6be9-4e32-afca-b26d6d5068af","ios":"levelo://app?vid=5313f15a-6be9-4e32-afca-b26d6d5068af"},"vehicle_type_id":"4","last_reported":1734084637,"current_range_meters":8000,"station_id":"ce4bhe12rcd13ifvqf30","pricing_plan_id":"cebpf4jnsgd1na2vs0mg"},{"bike_id":"7123aa8b-c80e-4f40-9072-be578e43de12","system_id":"levelo_inurba_marseille","lat":43.30151,"lon":5.37428,"is_reserved":false,"is_disabled":false,"rental_uris":{"android":"levelo://app?vid=7123aa8b-c80e-4f40-9072-be578e43de12","ios":"levelo://app?vid=7123aa8b-c80e-4f40-9072-be578e43de12"},"vehicle_type_id":"4","last_reported":1734084637,"current_range_meters":30400,"station_id":"ce4bgs92rcd13ifvqcc0","pricing_plan_id":"cebpf4jnsgd1na2vs0mg"},{"bike_id":"51524a51-fed7-42cd-9ad5-a44d5b930670","system_id":"levelo_inurba_marseille","lat":43.29096,"lon":5.38154,"is_reserved":false,"is_disabled":false,"rental_uris":{"android":"levelo://app?vid=51524a51-fed7-42cd-9ad5-a44d5b930670","ios":"levelo://app?vid=51524a51-fed7-42cd-9ad5-a44d5b930670"},"vehicle_type_id":"4","last_reported":1734084637,"current_range_meters":27600,"station_id":"ce4bh512rcd13ifvqe2g","pricing_plan_id":"cebpf4jnsgd1na2vs0mg"},{"bike_id":"06484603-0b85-447c-abad-1a7d6aff6239","system_id":"levelo_inurba_marseille","lat":43.27683,"lon":5.38874,"is_reserved":false,"is_disabled":false,"rental_uris":{"android":"levelo://app?vid=06484603-0b85-447c-abad-1a7d6aff6239","ios":"levelo://app?vid=06484603-0b85-447c-abad-1a7d6aff6239"},"vehicle_type_id":"4","last_reported":1734084637,"current_range_meters":38800,"station_id":"ce4bhi12rcd13ifvqfo0","pricing_plan_id":"cebpf4jnsgd1na2vs0mg"},{"bike_id":"b2b94c2b-4213-4224-804e-94d481f95e98","system_id":"levelo_inurba_marseille","lat":43.23151,"lon":5.43728,"is_reserved":false,"is_disabled":false,"rental_uris":{"android":"levelo://app?vid=b2b94c2b-4213-4224-804e-94d481f95e98","ios":"levelo://app?vid=b2b94c2b-4213-4224-804e-94d481f95e98"},"vehicle_type_id":"4","last_reported":1734084637,"current_range_meters":18000,"station_id":"ce4bhmp2rcd13ifvqgog","pricing_plan_id":"cebpf4jnsgd1na2vs0mg"},{"bike_id":"da345435-a4ab-4142-96e2-d4c3515056c7","system_id":"levelo_inurba_marseille","lat":43.30141,"lon":5.38794,"is_reserved":false,"is_disabled":true,"rental_uris":{"android":"levelo://app?vid=da345435-a4ab-4142-96e2-d4c3515056c7","ios":"levelo://app?vid=da345435-a4ab-4142-96e2-d4c3515056c7"},"vehicle_type_id":"4","last_reported":1734084637,"current_range_meters":0,"station_id":"ce4bghh2rcd13ifvqb60","pricing_plan_id":"cebpf4jnsgd1na2vs0mg"},{"bike_id":"9697d189-a8ed-4bf6-82a1-a26630737281","system_id":"levelo_inurba_marseille","lat":43.32475,"lon":5.36551,"is_reserved":false,"is_disabled":false,"rental_uris":{"android":"levelo://app?vid=9697d189-a8ed-4bf6-82a1-a26630737281","ios":"levelo://app?vid=9697d189-a8ed-4bf6-82a1-a26630737281"},"vehicle_type_id":"4","last_reported":1734084637,"current_range_meters":27200,"station_id":"ce4bhs12rcd13ifvqhvg","pricing_plan_id":"cebpf4jnsgd1na2vs0mg"},{"bike_id":"76c3770b-f7ef-459b-a94d-534b1694f912","system_id":"levelo_inurba_marseille","lat":43.27202,"lon":5.39172,"is_reserved":false,"is_disabled":false,"rental_uris":{"android":"levelo://app?vid=76c3770b-f7ef-459b-a94d-534b1694f912","ios":"levelo://app?vid=76c3770b-f7ef-459b-a94d-534b1694f912"},"vehicle_type_id":"4","last_reported":1734084637,"current_range_meters":38800,"station_id":"ce4bhhp2rcd13ifvqfm0","pricing_plan_id":"cebpf4jnsgd1na2vs0mg"},{"bike_id":"4cc774ee-ae5a-4146-919f-2e8715c09683","system_id":"levelo_inurba_marseille","lat":43.33614,"lon":5.41025,"is_reserved":false,"is_disabled":false,"rental_uris":{"android":"levelo://app?vid=4cc774ee-ae5a-4146-919f-2e8715c09683","ios":"levelo://app?vid=4cc774ee-ae5a-4146-919f-2e8715c09683"},"vehicle_type_id":"4","last_reported":1734084637,"current_range_meters":29600,"station_id":"ce4bhqh2rcd13ifvqhmg","pricing_plan_id":"cebpf4jnsgd1na2vs0mg"},{"bike_id":"9d29b262-a36d-49aa-852b-0999ae204b5e","system_id":"levelo_inurba_marseille","lat":43.29615,"lon":5.37732,"is_reserved":false,"is_disabled":false,"rental_uris":{"android":"levelo://app?vid=9d29b262-a36d-49aa-852b-0999ae204b5e","ios":"levelo://app?vid=9d29b262-a36d-49aa-852b-0999ae204b5e"},"vehicle_type_id":"4","last_reported":1734084637,"current_range_meters":38000,"station_id":"ce4bgi92rcd13ifvqb90","pricing_plan_id":"cebpf4jnsgd1na2vs0mg"},{"bike_id":"38735faf-3d00-4c11-a12a-b3576b51aafd","system_id":"levelo_inurba_marseille","lat":43.28728,"lon":5.3793,"is_reserved":false,"is_disabled":false,"rental_uris":{"android":"levelo://app?vid=38735faf-3d00-4c11-a12a-b3576b51aafd","ios":"levelo://app?vid=38735faf-3d00-4c11-a12a-b3576b51aafd"},"vehicle_type_id":"4","last_reported":1734084637,"current_range_meters":29600,"station_id":"ce4bh9p2rcd13ifvqec0","pricing_plan_id":"cebpf4jnsgd1na2vs0mg"},{"bike_id":"af67ac53-ba21-4ff0-8334-95679e9ff2cc","system_id":"levelo_inurba_marseille","lat":43.278805,"lon":5.388003,"is_reserved":false,"is_disabled":true,"rental_uris":{"android":"levelo://app?vid=af67ac53-ba21-4ff0-8334-95679e9ff2cc","ios":"levelo://app?vid=af67ac53-ba21-4ff0-8334-95679e9ff2cc"},"vehicle_type_id":"4","last_reported":1734084637,"current_range_meters":6800,"station_id":"","pricing_plan_id":"cebpf4jnsgd1na2vs0mg"},{"bike_id":"7ef45363-4449-4581-8642-1221e400cf3b","system_id":"levelo_inurba_marseille","lat":43.30548,"lon":5.36539,"is_reserved":false,"is_disabled":false,"rental_uris":{"android":"levelo://app?vid=7ef45363-4449-4581-8642-1221e400cf3b","ios":"levelo://app?vid=7ef45363-4449-4581-8642-1221e400cf3b"},"vehicle_type_id":"4","last_reported":1734084637,"current_range_meters":38000,"station_id":"ce4bgs12rcd13ifvqcag","pricing_plan_id":"cebpf4jnsgd1na2vs0mg"},{"bike_id":"db77e765-d19a-457b-827a-76559bcb7fb2","system_id":"levelo_inurba_marseille","lat":43.29023,"lon":5.38136,"is_reserved":false,"is_disabled":false,"rental_uris":{"android":"levelo://app?vid=db77e765-d19a-457b-827a-76559bcb7fb2","ios":"levelo://app?vid=db77e765-d19a-457b-827a-76559bcb7fb2"},"vehicle_type_id":"4","last_reported":1734084637,"current_range_meters":38000,"station_id":"ce4bh4p2rcd13ifvqe1g","pricing_plan_id":"cebpf4jnsgd1na2vs0mg"},{"bike_id":"1863e5bb-1339-4a2a-a04e-e9e9d05a787a","system_id":"levelo_inurba_marseille","lat":43.29076,"lon":5.3715,"is_reserved":false,"is_disabled":true,"rental_uris":{"android":"levelo://app?vid=1863e5bb-1339-4a2a-a04e-e9e9d05a787a","ios":"levelo://app?vid=1863e5bb-1339-4a2a-a04e-e9e9d05a787a"},"vehicle_type_id":"4","last_reported":1734084637,"current_range_meters":38800,"station_id":"ce4bh5p2rcd13ifvqe4g","pricing_plan_id":"cebpf4jnsgd1na2vs0mg"},{"bike_id":"d8d7ffef-ae54-446a-a28c-8265164b47ce","system_id":"levelo_inurba_marseille","lat":43.2916,"lon":5.43921,"is_reserved":false,"is_disabled":true,"rental_uris":{"android":"levelo://app?vid=d8d7ffef-ae54-446a-a28c-8265164b47ce","ios":"levelo://app?vid=d8d7ffef-ae54-446a-a28c-8265164b47ce"},"vehicle_type_id":"4","last_reported":1734084637,"current_range_meters":31200,"station_id":"","pricing_plan_id":"cebpf4jnsgd1na2vs0mg"},{"bike_id":"4a60b9db-0aec-4f8e-b19a-58467e256e5b","system_id":"levelo_inurba_marseille","lat":43.27504,"lon":5.4245,"is_reserved":false,"is_disabled":true,"rental_uris":{"android":"levelo://app?vid=4a60b9db-0aec-4f8e-b19a-58467e256e5b","ios":"levelo://app?vid=4a60b9db-0aec-4f8e-b19a-58467e256e5b"},"vehicle_type_id":"4","last_reported":1734084637,"current_range_meters":0,"station_id":"ce4bhn92rcd13ifvqgrg","pricing_plan_id":"cebpf4jnsgd1na2vs0mg"},{"bike_id":"d65fcea9-51ba-41f0-86fd-e798dfdd6f09","system_id":"levelo_inurba_marseille","lat":43.28674,"lon":5.38328,"is_reserved":false,"is_disabled":true,"rental_uris":{"android":"levelo://app?vid=d65fcea9-51ba-41f0-86fd-e798dfdd6f09","ios":"levelo://app?vid=d65fcea9-51ba-41f0-86fd-e798dfdd6f09"},"vehicle_type_id":"4","last_reported":1734084637,"current_range_meters":0,"station_id":"","pricing_plan_id":"cebpf4jnsgd1na2vs0mg"},{"bike_id":"9f90c432-ac23-4439-a028-afaf147c7c4b","system_id":"levelo_inurba_marseille","lat":43.27497,"lon":5.42457,"is_reserved":false,"is_disabled":false,"rental_uris":{"android":"levelo://app?vid=9f90c432-ac23-4439-a028-afaf147c7c4b","ios":"levelo://app?vid=9f90c432-ac23-4439-a028-afaf147c7c4b"},"vehicle_type_id":"4","last_reported":1734084637,"current_range_meters":7200,"station_id":"ce4bhn92rcd13ifvqgrg","pricing_plan_id":"cebpf4jnsgd1na2vs0mg"},{"bike_id":"3cffa040-7e8b-4d9e-a1bd-b8a78d782447","system_id":"levelo_inurba_marseille","lat":43.314905,"lon":5.373088,"is_reserved":false,"is_disabled":true,"rental_uris":{"android":"levelo://app?vid=3cffa040-7e8b-4d9e-a1bd-b8a78d782447","ios":"levelo://app?vid=3cffa040-7e8b-4d9e-a1bd-b8a78d782447"},"vehicle_type_id":"4","last_reported":1734084637,"current_range_meters":4400,"station_id":"","pricing_plan_id":"cebpf4jnsgd1na2vs0mg"},{"bike_id":"812146ef-5497-4746-b4ff-5d5d828fb6ac","system_id":"levelo_inurba_marseille","lat":43.31725,"lon":5.42408,"is_reserved":false,"is_disabled":false,"rental_uris":{"android":"levelo://app?vid=812146ef-5497-4746-b4ff-5d5d828fb6ac","ios":"levelo://app?vid=812146ef-5497-4746-b4ff-5d5d828fb6ac"},"vehicle_type_id":"4","last_reported":1734084637,"current_range_meters":38400,"station_id":"ce4bhp92rcd13ifvqhbg","pricing_plan_id":"cebpf4jnsgd1na2vs0mg"},{"bike_id":"ebc27306-24e0-4f99-892a-679bdab030bd","system_id":"levelo_inurba_marseille","lat":43.2694,"lon":5.3864,"is_reserved":false,"is_disabled":false,"rental_uris":{"android":"levelo://app?vid=ebc27306-24e0-4f99-892a-679bdab030bd","ios":"levelo://app?vid=ebc27306-24e0-4f99-892a-679bdab030bd"},"vehicle_type_id":"4","last_reported":1734084637,"current_range_meters":38800,"station_id":"ce4bhh92rcd13ifvqfh0","pricing_plan_id":"cebpf4jnsgd1na2vs0mg"},{"bike_id":"e7cfd852-9909-436d-bad5-f8e28209031c","system_id":"levelo_inurba_marseille","lat":43.26928,"lon":5.40271,"is_reserved":false,"is_disabled":false,"rental_uris":{"android":"levelo://app?vid=e7cfd852-9909-436d-bad5-f8e28209031c","ios":"levelo://app?vid=e7cfd852-9909-436d-bad5-f8e28209031c"},"vehicle_type_id":"4","last_reported":1734084637,"current_range_meters":38800,"station_id":"cjm6bp8fraef2m0cb0m0","pricing_plan_id":"cebpf4jnsgd1na2vs0mg"},{"bike_id":"5fd2d230-b800-4b85-b8f9-d759ea94e1ca","system_id":"levelo_inurba_marseille","lat":43.28154,"lon":5.42643,"is_reserved":false,"is_disabled":false,"rental_uris":{"android":"levelo://app?vid=5fd2d230-b800-4b85-b8f9-d759ea94e1ca","ios":"levelo://app?vid=5fd2d230-b800-4b85-b8f9-d759ea94e1ca"},"vehicle_type_id":"4","last_reported":1734084637,"current_range_meters":27600,"station_id":"ce4bhnh2rcd13ifvqgug","pricing_plan_id":"cebpf4jnsgd1na2vs0mg"},{"bike_id":"64203de9-e72b-4d66-9a84-7a315c7ed37f","system_id":"levelo_inurba_marseille","lat":43.29443,"lon":5.37435,"is_reserved":false,"is_disabled":true,"rental_uris":{"android":"levelo://app?vid=64203de9-e72b-4d66-9a84-7a315c7ed37f","ios":"levelo://app?vid=64203de9-e72b-4d66-9a84-7a315c7ed37f"},"vehicle_type_id":"4","last_reported":1734084637,"current_range_meters":0,"station_id":"","pricing_plan_id":"cebpf4jnsgd1na2vs0mg"},{"bike_id":"f3a5f041-a0a0-4b24-abde-29aae475b806","system_id":"levelo_inurba_marseille","lat":43.26945,"lon":5.38643,"is_reserved":false,"is_disabled":false,"rental_uris":{"android":"levelo://app?vid=f3a5f041-a0a0-4b24-abde-29aae475b806","ios":"levelo://app?vid=f3a5f041-a0a0-4b24-abde-29aae475b806"},"vehicle_type_id":"4","last_reported":1734084637,"current_range_meters":16400,"station_id":"ce4bhh92rcd13ifvqfh0","pricing_plan_id":"cebpf4jnsgd1na2vs0mg"},{"bike_id":"46b470a9-ee54-4c61-bc81-fe1869a3f5f5","system_id":"levelo_inurba_marseille","lat":43.3136,"lon":5.36728,"is_reserved":false,"is_disabled":false,"rental_uris":{"android":"levelo://app?vid=46b470a9-ee54-4c61-bc81-fe1869a3f5f5","ios":"levelo://app?vid=46b470a9-ee54-4c61-bc81-fe1869a3f5f5"},"vehicle_type_id":"4","last_reported":1734084637,"current_range_meters":15200,"station_id":"ce4bgr92rcd13ifvqc6g","pricing_plan_id":"cebpf4jnsgd1na2vs0mg"},{"bike_id":"c9179a56-6ac3-49b3-8785-0da77ec0b66c","system_id":"levelo_inurba_marseille","lat":43.29869,"lon":5.36273,"is_reserved":false,"is_disabled":false,"rental_uris":{"android":"levelo://app?vid=c9179a56-6ac3-49b3-8785-0da77ec0b66c","ios":"levelo://app?vid=c9179a56-6ac3-49b3-8785-0da77ec0b66c"},"vehicle_type_id":"4","last_reported":1734084637,"current_range_meters":38800,"station_id":"ce4bgpp2rcd13ifvqc3g","pricing_plan_id":"cebpf4jnsgd1na2vs0mg"},{"bike_id":"8de31fd9-fa1f-417e-82df-ccb5e27d297f","system_id":"levelo_inurba_marseille","lat":43.293,"lon":5.3746,"is_reserved":false,"is_disabled":true,"rental_uris":{"android":"levelo://app?vid=8de31fd9-fa1f-417e-82df-ccb5e27d297f","ios":"levelo://app?vid=8de31fd9-fa1f-417e-82df-ccb5e27d297f"},"vehicle_type_id":"4","last_reported":1734084637,"current_range_meters":24800,"station_id":"ce4bgi12rcd13ifvqb70","pricing_plan_id":"cebpf4jnsgd1na2vs0mg"},{"bike_id":"e577bfc5-d7d7-4ada-a086-4531e88bc82a","system_id":"levelo_inurba_marseille","lat":43.32541,"lon":5.41435,"is_reserved":false,"is_disabled":false,"rental_uris":{"android":"levelo://app?vid=e577bfc5-d7d7-4ada-a086-4531e88bc82a","ios":"levelo://app?vid=e577bfc5-d7d7-4ada-a086-4531e88bc82a"},"vehicle_type_id":"4","last_reported":1734084637,"current_range_meters":22800,"station_id":"ce4bhq12rcd13ifvqhhg","pricing_plan_id":"cebpf4jnsgd1na2vs0mg"},{"bike_id":"fec03a7a-132e-4b92-b45c-af4d4538e0d9","system_id":"levelo_inurba_marseille","lat":43.2695,"lon":5.38636,"is_reserved":false,"is_disabled":false,"rental_uris":{"android":"levelo://app?vid=fec03a7a-132e-4b92-b45c-af4d4538e0d9","ios":"levelo://app?vid=fec03a7a-132e-4b92-b45c-af4d4538e0d9"},"vehicle_type_id":"4","last_reported":1734084637,"current_range_meters":33600,"station_id":"ce4bhh92rcd13ifvqfh0","pricing_plan_id":"cebpf4jnsgd1na2vs0mg"},{"bike_id":"5cf1a6d2-5370-4ad7-a793-9a3d9e8bb489","system_id":"levelo_inurba_marseille","lat":43.26572,"lon":5.39005,"is_reserved":false,"is_disabled":false,"rental_uris":{"android":"levelo://app?vid=5cf1a6d2-5370-4ad7-a793-9a3d9e8bb489","ios":"levelo://app?vid=5cf1a6d2-5370-4ad7-a793-9a3d9e8bb489"},"vehicle_type_id":"4","last_reported":1734084637,"current_range_meters":16000,"station_id":"ce4bhe12rcd13ifvqf30","pricing_plan_id":"cebpf4jnsgd1na2vs0mg"},{"bike_id":"039b6f22-cfaa-479d-b6be-d30c8bca7e6b","system_id":"levelo_inurba_marseille","lat":43.2781,"lon":5.40721,"is_reserved":false,"is_disabled":false,"rental_uris":{"android":"levelo://app?vid=039b6f22-cfaa-479d-b6be-d30c8bca7e6b","ios":"levelo://app?vid=039b6f22-cfaa-479d-b6be-d30c8bca7e6b"},"vehicle_type_id":"4","last_reported":1734084637,"current_range_meters":6800,"station_id":"ce4bhnh2rcd13ifvqgtg","pricing_plan_id":"cebpf4jnsgd1na2vs0mg"},{"bike_id":"2d92463f-6ba9-4a99-9b0c-87d9cb45b5a8","system_id":"levelo_inurba_marseille","lat":43.26179,"lon":5.37945,"is_reserved":false,"is_disabled":false,"rental_uris":{"android":"levelo://app?vid=2d92463f-6ba9-4a99-9b0c-87d9cb45b5a8","ios":"levelo://app?vid=2d92463f-6ba9-4a99-9b0c-87d9cb45b5a8"},"vehicle_type_id":"4","last_reported":1734084637,"current_range_meters":38800,"station_id":"ce4bhjp2rcd13ifvqg90","pricing_plan_id":"cebpf4jnsgd1na2vs0mg"},{"bike_id":"b53b3ab3-c41d-46fb-a14f-a29253fdadd2","system_id":"levelo_inurba_marseille","lat":43.26941,"lon":5.38647,"is_reserved":false,"is_disabled":false,"rental_uris":{"android":"levelo://app?vid=b53b3ab3-c41d-46fb-a14f-a29253fdadd2","ios":"levelo://app?vid=b53b3ab3-c41d-46fb-a14f-a29253fdadd2"},"vehicle_type_id":"4","last_reported":1734084637,"current_range_meters":38800,"station_id":"ce4bhh92rcd13ifvqfh0","pricing_plan_id":"cebpf4jnsgd1na2vs0mg"},{"bike_id":"18449eca-7cd4-4637-aad8-d740a9109818","system_id":"levelo_inurba_marseille","lat":43.26803,"lon":5.40258,"is_reserved":false,"is_disabled":false,"rental_uris":{"android":"levelo://app?vid=18449eca-7cd4-4637-aad8-d740a9109818","ios":"levelo://app?vid=18449eca-7cd4-4637-aad8-d740a9109818"},"vehicle_type_id":"4","last_reported":1734084637,"current_range_meters":38800,"station_id":"ce501612rcd8frsf0b60","pricing_plan_id":"cebpf4jnsgd1na2vs0mg"},{"bike_id":"3d91e3c5-7cef-4a6b-b72c-1f72f9823e2d","system_id":"levelo_inurba_marseille","lat":43.29845,"lon":5.36272,"is_reserved":false,"is_disabled":false,"rental_uris":{"android":"levelo://app?vid=3d91e3c5-7cef-4a6b-b72c-1f72f9823e2d","ios":"levelo://app?vid=3d91e3c5-7cef-4a6b-b72c-1f72f9823e2d"},"vehicle_type_id":"4","last_reported":1734084637,"current_range_meters":38800,"station_id":"ce4bgpp2rcd13ifvqc3g","pricing_plan_id":"cebpf4jnsgd1na2vs0mg"},{"bike_id":"d551c461-bb30-4a0b-9132-5a3c4b7a0dc5","system_id":"levelo_inurba_marseille","lat":43.30939,"lon":5.39001,"is_reserved":false,"is_disabled":false,"rental_uris":{"android":"levelo://app?vid=d551c461-bb30-4a0b-9132-5a3c4b7a0dc5","ios":"levelo://app?vid=d551c461-bb30-4a0b-9132-5a3c4b7a0dc5"},"vehicle_type_id":"4","last_reported":1734084637,"current_range_meters":22400,"station_id":"ce4bgup2rcd13ifvqco0","pricing_plan_id":"cebpf4jnsgd1na2vs0mg"},{"bike_id":"ed21cbfd-1f19-44f5-ba93-62f6ccb283c1","system_id":"levelo_inurba_marseille","lat":43.24075,"lon":5.37757,"is_reserved":false,"is_disabled":false,"rental_uris":{"android":"levelo://app?vid=ed21cbfd-1f19-44f5-ba93-62f6ccb283c1","ios":"levelo://app?vid=ed21cbfd-1f19-44f5-ba93-62f6ccb283c1"},"vehicle_type_id":"4","last_reported":1734084637,"current_range_meters":38800,"station_id":"ce4bhnp2rcd13ifvqgvg","pricing_plan_id":"cebpf4jnsgd1na2vs0mg"},{"bike_id":"e939de06-d909-4758-b8f3-8d43330311ae","system_id":"levelo_inurba_marseille","lat":43.2558,"lon":5.38241,"is_reserved":false,"is_disabled":false,"rental_uris":{"android":"levelo://app?vid=e939de06-d909-4758-b8f3-8d43330311ae","ios":"levelo://app?vid=e939de06-d909-4758-b8f3-8d43330311ae"},"vehicle_type_id":"4","last_reported":1734084637,"current_range_meters":37600,"station_id":"ce4bhih2rcd13ifvqfs0","pricing_plan_id":"cebpf4jnsgd1na2vs0mg"},{"bike_id":"caa51262-8860-4111-a4d0-ed9aa59ffbc9","system_id":"levelo_inurba_marseille","lat":43.29202,"lon":5.39325,"is_reserved":false,"is_disabled":false,"rental_uris":{"android":"levelo://app?vid=caa51262-8860-4111-a4d0-ed9aa59ffbc9","ios":"levelo://app?vid=caa51262-8860-4111-a4d0-ed9aa59ffbc9"},"vehicle_type_id":"4","last_reported":1734084637,"current_range_meters":30800,"station_id":"ce4bh192rcd13ifvqdd0","pricing_plan_id":"cebpf4jnsgd1na2vs0mg"},{"bike_id":"efb655cb-2785-4efc-abaf-ae9549ebe3e6","system_id":"levelo_inurba_marseille","lat":43.24077,"lon":5.37756,"is_reserved":false,"is_disabled":false,"rental_uris":{"android":"levelo://app?vid=efb655cb-2785-4efc-abaf-ae9549ebe3e6","ios":"levelo://app?vid=efb655cb-2785-4efc-abaf-ae9549ebe3e6"},"vehicle_type_id":"4","last_reported":1734084637,"current_range_meters":36000,"station_id":"ce4bhnp2rcd13ifvqgvg","pricing_plan_id":"cebpf4jnsgd1na2vs0mg"},{"bike_id":"8c8bad0e-eec2-4927-9599-8cfdaf514754","system_id":"levelo_inurba_marseille","lat":43.29989,"lon":5.38492,"is_reserved":false,"is_disabled":true,"rental_uris":{"android":"levelo://app?vid=8c8bad0e-eec2-4927-9599-8cfdaf514754","ios":"levelo://app?vid=8c8bad0e-eec2-4927-9599-8cfdaf514754"},"vehicle_type_id":"4","last_reported":1734084637,"current_range_meters":19600,"station_id":"ce4bgj92rcd13ifvqbd0","pricing_plan_id":"cebpf4jnsgd1na2vs0mg"},{"bike_id":"c9e1454b-54c0-42a6-b3fa-918fdc07bf7b","system_id":"levelo_inurba_marseille","lat":43.30138,"lon":5.37428,"is_reserved":false,"is_disabled":false,"rental_uris":{"android":"levelo://app?vid=c9e1454b-54c0-42a6-b3fa-918fdc07bf7b","ios":"levelo://app?vid=c9e1454b-54c0-42a6-b3fa-918fdc07bf7b"},"vehicle_type_id":"4","last_reported":1734084637,"current_range_meters":38800,"station_id":"ce4bgs92rcd13ifvqcc0","pricing_plan_id":"cebpf4jnsgd1na2vs0mg"},{"bike_id":"cfb1effe-5f2f-4f39-9956-43a0cf6b039f","system_id":"levelo_inurba_marseille","lat":43.29911,"lon":5.37479,"is_reserved":false,"is_disabled":false,"rental_uris":{"android":"levelo://app?vid=cfb1effe-5f2f-4f39-9956-43a0cf6b039f","ios":"levelo://app?vid=cfb1effe-5f2f-4f39-9956-43a0cf6b039f"},"vehicle_type_id":"4","last_reported":1734084637,"current_range_meters":39200,"station_id":"ce4bgjh2rcd13ifvqbg0","pricing_plan_id":"cebpf4jnsgd1na2vs0mg"},{"bike_id":"7a180bba-03ef-4b16-be59-f0dc220fd8cc","system_id":"levelo_inurba_marseille","lat":43.30886,"lon":5.36859,"is_reserved":false,"is_disabled":false,"rental_uris":{"android":"levelo://app?vid=7a180bba-03ef-4b16-be59-f0dc220fd8cc","ios":"levelo://app?vid=7a180bba-03ef-4b16-be59-f0dc220fd8cc"},"vehicle_type_id":"4","last_reported":1734084637,"current_range_meters":27600,"station_id":"ce4bgn92rcd13ifvqbvg","pricing_plan_id":"cebpf4jnsgd1na2vs0mg"},{"bike_id":"fb7ee11d-68a5-4de4-aacd-83fa5cd7d271","system_id":"levelo_inurba_marseille","lat":43.29172,"lon":5.37157,"is_reserved":false,"is_disabled":false,"rental_uris":{"android":"levelo://app?vid=fb7ee11d-68a5-4de4-aacd-83fa5cd7d271","ios":"levelo://app?vid=fb7ee11d-68a5-4de4-aacd-83fa5cd7d271"},"vehicle_type_id":"4","last_reported":1734084637,"current_range_meters":36400,"station_id":"ce4bha92rcd13ifvqeh0","pricing_plan_id":"cebpf4jnsgd1na2vs0mg"},{"bike_id":"97b55a38-976a-4015-b3d7-3ad989b0be89","system_id":"levelo_inurba_marseille","lat":43.33011,"lon":5.39044,"is_reserved":false,"is_disabled":false,"rental_uris":{"android":"levelo://app?vid=97b55a38-976a-4015-b3d7-3ad989b0be89","ios":"levelo://app?vid=97b55a38-976a-4015-b3d7-3ad989b0be89"},"vehicle_type_id":"4","last_reported":1734084637,"current_range_meters":38800,"station_id":"ce4bhr92rcd13ifvqhrg","pricing_plan_id":"cebpf4jnsgd1na2vs0mg"},{"bike_id":"98ba51a8-eb8c-4fdb-b2b4-1ee6f2e84d7c","system_id":"levelo_inurba_marseille","lat":43.2997,"lon":5.38479,"is_reserved":false,"is_disabled":false,"rental_uris":{"android":"levelo://app?vid=98ba51a8-eb8c-4fdb-b2b4-1ee6f2e84d7c","ios":"levelo://app?vid=98ba51a8-eb8c-4fdb-b2b4-1ee6f2e84d7c"},"vehicle_type_id":"4","last_reported":1734084637,"current_range_meters":36800,"station_id":"ce4bgj92rcd13ifvqbd0","pricing_plan_id":"cebpf4jnsgd1na2vs0mg"},{"bike_id":"265a59a5-1f8b-40cd-bb56-038ad2f60a5d","system_id":"levelo_inurba_marseille","lat":43.29044,"lon":5.40087,"is_reserved":false,"is_disabled":true,"rental_uris":{"android":"levelo://app?vid=265a59a5-1f8b-40cd-bb56-038ad2f60a5d","ios":"levelo://app?vid=265a59a5-1f8b-40cd-bb56-038ad2f60a5d"},"vehicle_type_id":"4","last_reported":1734084637,"current_range_meters":38400,"station_id":"","pricing_plan_id":"cebpf4jnsgd1na2vs0mg"},{"bike_id":"9cae785b-bd39-4a7b-8aad-0b48af8c98e6","system_id":"levelo_inurba_marseille","lat":43.24804,"lon":5.37462,"is_reserved":false,"is_disabled":false,"rental_uris":{"android":"levelo://app?vid=9cae785b-bd39-4a7b-8aad-0b48af8c98e6","ios":"levelo://app?vid=9cae785b-bd39-4a7b-8aad-0b48af8c98e6"},"vehicle_type_id":"4","last_reported":1734084637,"current_range_meters":25200,"station_id":"ce4bhgh2rcd13ifvqfb0","pricing_plan_id":"cebpf4jnsgd1na2vs0mg"},{"bike_id":"6bc7401a-ad66-4e4d-bfd6-a954bc5b40c0","system_id":"levelo_inurba_marseille","lat":43.337527,"lon":5.37441,"is_reserved":false,"is_disabled":false,"rental_uris":{"android":"levelo://app?vid=6bc7401a-ad66-4e4d-bfd6-a954bc5b40c0","ios":"levelo://app?vid=6bc7401a-ad66-4e4d-bfd6-a954bc5b40c0"},"vehicle_type_id":"4","last_reported":1734084637,"current_range_meters":30800,"station_id":"","pricing_plan_id":"cebpf4jnsgd1na2vs0mg"},{"bike_id":"e89553f0-3470-45f5-935f-7d00cfd09bbb","system_id":"levelo_inurba_marseille","lat":43.28829,"lon":5.35854,"is_reserved":false,"is_disabled":false,"rental_uris":{"android":"levelo://app?vid=e89553f0-3470-45f5-935f-7d00cfd09bbb","ios":"levelo://app?vid=e89553f0-3470-45f5-935f-7d00cfd09bbb"},"vehicle_type_id":"4","last_reported":1734084637,"current_range_meters":30400,"station_id":"ce4bhb12rcd13ifvqem0","pricing_plan_id":"cebpf4jnsgd1na2vs0mg"},{"bike_id":"f0a4f587-2333-4a7a-8819-09121e495e1b","system_id":"levelo_inurba_marseille","lat":43.22935,"lon":5.3538,"is_reserved":false,"is_disabled":false,"rental_uris":{"android":"levelo://app?vid=f0a4f587-2333-4a7a-8819-09121e495e1b","ios":"levelo://app?vid=f0a4f587-2333-4a7a-8819-09121e495e1b"},"vehicle_type_id":"4","last_reported":1734084637,"current_range_meters":4800,"station_id":"cpo3532slgdg3j2ikp40","pricing_plan_id":"cebpf4jnsgd1na2vs0mg"},{"bike_id":"d03ed5ce-e520-4069-9e0e-9e1df4579056","system_id":"levelo_inurba_marseille","lat":43.29844,"lon":5.36264,"is_reserved":false,"is_disabled":false,"rental_uris":{"android":"levelo://app?vid=d03ed5ce-e520-4069-9e0e-9e1df4579056","ios":"levelo://app?vid=d03ed5ce-e520-4069-9e0e-9e1df4579056"},"vehicle_type_id":"4","last_reported":1734084637,"current_range_meters":38000,"station_id":"ce4bgpp2rcd13ifvqc3g","pricing_plan_id":"cebpf4jnsgd1na2vs0mg"},{"bike_id":"1b220d30-3141-46d2-9384-1a5e1a00a2c3","system_id":"levelo_inurba_marseille","lat":43.28148,"lon":5.42642,"is_reserved":false,"is_disabled":false,"rental_uris":{"android":"levelo://app?vid=1b220d30-3141-46d2-9384-1a5e1a00a2c3","ios":"levelo://app?vid=1b220d30-3141-46d2-9384-1a5e1a00a2c3"},"vehicle_type_id":"4","last_reported":1734084637,"current_range_meters":28400,"station_id":"ce4bhnh2rcd13ifvqgug","pricing_plan_id":"cebpf4jnsgd1na2vs0mg"},{"bike_id":"5f7350aa-6be0-4012-bc16-bb17a1538b4c","system_id":"levelo_inurba_marseille","lat":43.30951,"lon":5.39033,"is_reserved":false,"is_disabled":true,"rental_uris":{"android":"levelo://app?vid=5f7350aa-6be0-4012-bc16-bb17a1538b4c","ios":"levelo://app?vid=5f7350aa-6be0-4012-bc16-bb17a1538b4c"},"vehicle_type_id":"4","last_reported":1734084637,"current_range_meters":38800,"station_id":"ce4bgup2rcd13ifvqco0","pricing_plan_id":"cebpf4jnsgd1na2vs0mg"},{"bike_id":"e2b090ff-7c7f-4d4a-8f5b-c317e750043e","system_id":"levelo_inurba_marseille","lat":43.27072,"lon":5.42277,"is_reserved":false,"is_disabled":true,"rental_uris":{"android":"levelo://app?vid=e2b090ff-7c7f-4d4a-8f5b-c317e750043e","ios":"levelo://app?vid=e2b090ff-7c7f-4d4a-8f5b-c317e750043e"},"vehicle_type_id":"4","last_reported":1734084637,"current_range_meters":0,"station_id":"ce4bhk92rcd13ifvqgb0","pricing_plan_id":"cebpf4jnsgd1na2vs0mg"},{"bike_id":"1be4dfd7-b95c-4558-b62a-debc1f52eb94","system_id":"levelo_inurba_marseille","lat":43.27056,"lon":5.42277,"is_reserved":false,"is_disabled":false,"rental_uris":{"android":"levelo://app?vid=1be4dfd7-b95c-4558-b62a-debc1f52eb94","ios":"levelo://app?vid=1be4dfd7-b95c-4558-b62a-debc1f52eb94"},"vehicle_type_id":"4","last_reported":1734084637,"current_range_meters":38800,"station_id":"ce4bhk92rcd13ifvqgb0","pricing_plan_id":"cebpf4jnsgd1na2vs0mg"},{"bike_id":"eb1496f4-67ed-47fd-8660-60023378367f","system_id":"levelo_inurba_marseille","lat":43.294212,"lon":5.374322,"is_reserved":false,"is_disabled":true,"rental_uris":{"android":"levelo://app?vid=eb1496f4-67ed-47fd-8660-60023378367f","ios":"levelo://app?vid=eb1496f4-67ed-47fd-8660-60023378367f"},"vehicle_type_id":"4","last_reported":1734084637,"current_range_meters":0,"station_id":"","pricing_plan_id":"cebpf4jnsgd1na2vs0mg"},{"bike_id":"d8c38b2d-b44a-4b92-9de2-3398fbee6529","system_id":"levelo_inurba_marseille","lat":43.3094,"lon":5.39046,"is_reserved":false,"is_disabled":false,"rental_uris":{"android":"levelo://app?vid=d8c38b2d-b44a-4b92-9de2-3398fbee6529","ios":"levelo://app?vid=d8c38b2d-b44a-4b92-9de2-3398fbee6529"},"vehicle_type_id":"4","last_reported":1734084637,"current_range_meters":39200,"station_id":"ce4bgup2rcd13ifvqco0","pricing_plan_id":"cebpf4jnsgd1na2vs0mg"},{"bike_id":"0a1612fc-d027-4748-910f-382c7b5de3be","system_id":"levelo_inurba_marseille","lat":43.29945,"lon":5.41311,"is_reserved":false,"is_disabled":false,"rental_uris":{"android":"levelo://app?vid=0a1612fc-d027-4748-910f-382c7b5de3be","ios":"levelo://app?vid=0a1612fc-d027-4748-910f-382c7b5de3be"},"vehicle_type_id":"4","last_reported":1734084637,"current_range_meters":38000,"station_id":"ce4bhp12rcd13ifvqh9g","pricing_plan_id":"cebpf4jnsgd1na2vs0mg"},{"bike_id":"a2e3bf37-f1e5-4b35-adeb-0da3e0fe69d3","system_id":"levelo_inurba_marseille","lat":43.286345,"lon":5.386014,"is_reserved":false,"is_disabled":true,"rental_uris":{"android":"levelo://app?vid=a2e3bf37-f1e5-4b35-adeb-0da3e0fe69d3","ios":"levelo://app?vid=a2e3bf37-f1e5-4b35-adeb-0da3e0fe69d3"},"vehicle_type_id":"4","last_reported":1734084637,"current_range_meters":0,"station_id":"","pricing_plan_id":"cebpf4jnsgd1na2vs0mg"},{"bike_id":"a29ec15a-0267-4de8-b687-0d568e0a6a18","system_id":"levelo_inurba_marseille","lat":43.30975,"lon":5.3796,"is_reserved":false,"is_disabled":true,"rental_uris":{"android":"levelo://app?vid=a29ec15a-0267-4de8-b687-0d568e0a6a18","ios":"levelo://app?vid=a29ec15a-0267-4de8-b687-0d568e0a6a18"},"vehicle_type_id":"4","last_reported":1734084637,"current_range_meters":0,"station_id":"","pricing_plan_id":"cebpf4jnsgd1na2vs0mg"},{"bike_id":"4e1a89e0-73cd-4fdb-823a-d951d9f182c3","system_id":"levelo_inurba_marseille","lat":43.24993,"lon":5.38931,"is_reserved":false,"is_disabled":false,"rental_uris":{"android":"levelo://app?vid=4e1a89e0-73cd-4fdb-823a-d951d9f182c3","ios":"levelo://app?vid=4e1a89e0-73cd-4fdb-823a-d951d9f182c3"},"vehicle_type_id":"4","last_reported":1734084637,"current_range_meters":16400,"station_id":"ce4bhgp2rcd13ifvqfd0","pricing_plan_id":"cebpf4jnsgd1na2vs0mg"},{"bike_id":"1f01128d-fc05-4e40-8477-0fd2da76d6ff","system_id":"levelo_inurba_marseille","lat":43.27403,"lon":5.42389,"is_reserved":false,"is_disabled":false,"rental_uris":{"android":"levelo://app?vid=1f01128d-fc05-4e40-8477-0fd2da76d6ff","ios":"levelo://app?vid=1f01128d-fc05-4e40-8477-0fd2da76d6ff"},"vehicle_type_id":"4","last_reported":1734084637,"current_range_meters":36400,"station_id":"","pricing_plan_id":"cebpf4jnsgd1na2vs0mg"},{"bike_id":"4505fb73-6c16-4c2f-8ef6-5815f06d183e","system_id":"levelo_inurba_marseille","lat":43.31355,"lon":5.3673,"is_reserved":false,"is_disabled":false,"rental_uris":{"android":"levelo://app?vid=4505fb73-6c16-4c2f-8ef6-5815f06d183e","ios":"levelo://app?vid=4505fb73-6c16-4c2f-8ef6-5815f06d183e"},"vehicle_type_id":"4","last_reported":1734084637,"current_range_meters":38800,"station_id":"ce4bgr92rcd13ifvqc6g","pricing_plan_id":"cebpf4jnsgd1na2vs0mg"},{"bike_id":"97b1cd87-8606-4c2a-9862-6a741e594f6f","system_id":"levelo_inurba_marseille","lat":43.29626,"lon":5.37166,"is_reserved":false,"is_disabled":false,"rental_uris":{"android":"levelo://app?vid=97b1cd87-8606-4c2a-9862-6a741e594f6f","ios":"levelo://app?vid=97b1cd87-8606-4c2a-9862-6a741e594f6f"},"vehicle_type_id":"4","last_reported":1734084637,"current_range_meters":38800,"station_id":"ce4bgnh2rcd13ifvqc0g","pricing_plan_id":"cebpf4jnsgd1na2vs0mg"},{"bike_id":"097a41bf-6635-41a6-b7a7-1173cae29ada","system_id":"levelo_inurba_marseille","lat":43.22926,"lon":5.35394,"is_reserved":false,"is_disabled":false,"rental_uris":{"android":"levelo://app?vid=097a41bf-6635-41a6-b7a7-1173cae29ada","ios":"levelo://app?vid=097a41bf-6635-41a6-b7a7-1173cae29ada"},"vehicle_type_id":"4","last_reported":1734084637,"current_range_meters":38400,"station_id":"cpo3532slgdg3j2ikp40","pricing_plan_id":"cebpf4jnsgd1na2vs0mg"},{"bike_id":"cdf16078-1095-4dd1-bef1-046651739475","system_id":"levelo_inurba_marseille","lat":43.29549,"lon":5.37493,"is_reserved":false,"is_disabled":false,"rental_uris":{"android":"levelo://app?vid=cdf16078-1095-4dd1-bef1-046651739475","ios":"levelo://app?vid=cdf16078-1095-4dd1-bef1-046651739475"},"vehicle_type_id":"4","last_reported":1734084637,"current_range_meters":26000,"station_id":"ce4bgkp2rcd13ifvqbmg","pricing_plan_id":"cebpf4jnsgd1na2vs0mg"},{"bike_id":"e74372ac-2a6c-47ae-afc7-e1b4e1c3d13f","system_id":"levelo_inurba_marseille","lat":43.23058,"lon":5.35495,"is_reserved":false,"is_disabled":true,"rental_uris":{"android":"levelo://app?vid=e74372ac-2a6c-47ae-afc7-e1b4e1c3d13f","ios":"levelo://app?vid=e74372ac-2a6c-47ae-afc7-e1b4e1c3d13f"},"vehicle_type_id":"4","last_reported":1734084637,"current_range_meters":9200,"station_id":"cpo3342slgdg3j2ifvpg","pricing_plan_id":"cebpf4jnsgd1na2vs0mg"},{"bike_id":"d937db70-f7a3-4428-b2b8-402916faf695","system_id":"levelo_inurba_marseille","lat":43.33615,"lon":5.41036,"is_reserved":false,"is_disabled":false,"rental_uris":{"android":"levelo://app?vid=d937db70-f7a3-4428-b2b8-402916faf695","ios":"levelo://app?vid=d937db70-f7a3-4428-b2b8-402916faf695"},"vehicle_type_id":"4","last_reported":1734084637,"current_range_meters":30400,"station_id":"ce4bhqh2rcd13ifvqhmg","pricing_plan_id":"cebpf4jnsgd1na2vs0mg"},{"bike_id":"e193ef0e-e328-415a-a8ad-7b8f709bf396","system_id":"levelo_inurba_marseille","lat":43.28491,"lon":5.37904,"is_reserved":false,"is_disabled":true,"rental_uris":{"android":"levelo://app?vid=e193ef0e-e328-415a-a8ad-7b8f709bf396","ios":"levelo://app?vid=e193ef0e-e328-415a-a8ad-7b8f709bf396"},"vehicle_type_id":"4","last_reported":1734084637,"current_range_meters":25200,"station_id":"","pricing_plan_id":"cebpf4jnsgd1na2vs0mg"},{"bike_id":"ce90e20c-6725-4fad-b499-78a4839bb82f","system_id":"levelo_inurba_marseille","lat":43.29269,"lon":5.36843,"is_reserved":false,"is_disabled":false,"rental_uris":{"android":"levelo://app?vid=ce90e20c-6725-4fad-b499-78a4839bb82f","ios":"levelo://app?vid=ce90e20c-6725-4fad-b499-78a4839bb82f"},"vehicle_type_id":"4","last_reported":1734084637,"current_range_meters":38800,"station_id":"ce4bhbp2rcd13ifvqesg","pricing_plan_id":"cebpf4jnsgd1na2vs0mg"},{"bike_id":"1f3bb220-68bc-4ae2-ad43-3a927d11010e","system_id":"levelo_inurba_marseille","lat":43.27055,"lon":5.40265,"is_reserved":false,"is_disabled":false,"rental_uris":{"android":"levelo://app?vid=1f3bb220-68bc-4ae2-ad43-3a927d11010e","ios":"levelo://app?vid=1f3bb220-68bc-4ae2-ad43-3a927d11010e"},"vehicle_type_id":"4","last_reported":1734084637,"current_range_meters":6800,"station_id":"ce4bhk92rcd13ifvqgc0","pricing_plan_id":"cebpf4jnsgd1na2vs0mg"},{"bike_id":"409bc7aa-9eb7-45e9-aea2-11f34d5e1c06","system_id":"levelo_inurba_marseille","lat":43.26032,"lon":5.37558,"is_reserved":false,"is_disabled":false,"rental_uris":{"android":"levelo://app?vid=409bc7aa-9eb7-45e9-aea2-11f34d5e1c06","ios":"levelo://app?vid=409bc7aa-9eb7-45e9-aea2-11f34d5e1c06"},"vehicle_type_id":"4","last_reported":1734084637,"current_range_meters":39200,"station_id":"ce4bhgh2rcd13ifvqfa0","pricing_plan_id":"cebpf4jnsgd1na2vs0mg"},{"bike_id":"16629034-a9ee-4dc6-9dde-fdcffeb5d512","system_id":"levelo_inurba_marseille","lat":43.30122,"lon":5.37455,"is_reserved":false,"is_disabled":false,"rental_uris":{"android":"levelo://app?vid=16629034-a9ee-4dc6-9dde-fdcffeb5d512","ios":"levelo://app?vid=16629034-a9ee-4dc6-9dde-fdcffeb5d512"},"vehicle_type_id":"4","last_reported":1734084637,"current_range_meters":37600,"station_id":"ce4bgs92rcd13ifvqcc0","pricing_plan_id":"cebpf4jnsgd1na2vs0mg"},{"bike_id":"48e2ac3f-e925-4b33-9ce3-13df3fa9afe4","system_id":"levelo_inurba_marseille","lat":43.23149,"lon":5.43721,"is_reserved":false,"is_disabled":false,"rental_uris":{"android":"levelo://app?vid=48e2ac3f-e925-4b33-9ce3-13df3fa9afe4","ios":"levelo://app?vid=48e2ac3f-e925-4b33-9ce3-13df3fa9afe4"},"vehicle_type_id":"4","last_reported":1734084637,"current_range_meters":38800,"station_id":"ce4bhmp2rcd13ifvqgog","pricing_plan_id":"cebpf4jnsgd1na2vs0mg"},{"bike_id":"f9057f19-d9a3-44f3-a552-3b93ad5d76b1","system_id":"levelo_inurba_marseille","lat":43.31366,"lon":5.38487,"is_reserved":false,"is_disabled":false,"rental_uris":{"android":"levelo://app?vid=f9057f19-d9a3-44f3-a552-3b93ad5d76b1","ios":"levelo://app?vid=f9057f19-d9a3-44f3-a552-3b93ad5d76b1"},"vehicle_type_id":"4","last_reported":1734084637,"current_range_meters":34000,"station_id":"ce4bgt92rcd13ifvqcf0","pricing_plan_id":"cebpf4jnsgd1na2vs0mg"},{"bike_id":"4b30fdce-6f49-4ba4-9af4-94655e2846b0","system_id":"levelo_inurba_marseille","lat":43.28458,"lon":5.35893,"is_reserved":false,"is_disabled":false,"rental_uris":{"android":"levelo://app?vid=4b30fdce-6f49-4ba4-9af4-94655e2846b0","ios":"levelo://app?vid=4b30fdce-6f49-4ba4-9af4-94655e2846b0"},"vehicle_type_id":"4","last_reported":1734084637,"current_range_meters":38000,"station_id":"ce4bhah2rcd13ifvqei0","pricing_plan_id":"cebpf4jnsgd1na2vs0mg"},{"bike_id":"f43b60c0-f88c-4e14-af84-90e9e26b07b0","system_id":"levelo_inurba_marseille","lat":43.30904,"lon":5.36864,"is_reserved":false,"is_disabled":false,"rental_uris":{"android":"levelo://app?vid=f43b60c0-f88c-4e14-af84-90e9e26b07b0","ios":"levelo://app?vid=f43b60c0-f88c-4e14-af84-90e9e26b07b0"},"vehicle_type_id":"4","last_reported":1734084637,"current_range_meters":38800,"station_id":"ce4bgn92rcd13ifvqbvg","pricing_plan_id":"cebpf4jnsgd1na2vs0mg"},{"bike_id":"33ad9660-15bd-4b07-9830-c99b28418d84","system_id":"levelo_inurba_marseille","lat":43.286619,"lon":5.363371,"is_reserved":false,"is_disabled":false,"rental_uris":{"android":"levelo://app?vid=33ad9660-15bd-4b07-9830-c99b28418d84","ios":"levelo://app?vid=33ad9660-15bd-4b07-9830-c99b28418d84"},"vehicle_type_id":"4","last_reported":1734084637,"current_range_meters":12800,"station_id":"ce4bhah2rcd13ifvqej0","pricing_plan_id":"cebpf4jnsgd1na2vs0mg"},{"bike_id":"6af5705e-0b63-4941-bd75-095717cfa6f1","system_id":"levelo_inurba_marseille","lat":43.29679,"lon":5.37292,"is_reserved":false,"is_disabled":false,"rental_uris":{"android":"levelo://app?vid=6af5705e-0b63-4941-bd75-095717cfa6f1","ios":"levelo://app?vid=6af5705e-0b63-4941-bd75-095717cfa6f1"},"vehicle_type_id":"4","last_reported":1734084637,"current_range_meters":39200,"station_id":"ce4bgk12rcd13ifvqbj0","pricing_plan_id":"cebpf4jnsgd1na2vs0mg"},{"bike_id":"2043af62-049c-42e3-8c2a-256cb1b49a43","system_id":"levelo_inurba_marseille","lat":43.30597,"lon":5.39353,"is_reserved":false,"is_disabled":true,"rental_uris":{"android":"levelo://app?vid=2043af62-049c-42e3-8c2a-256cb1b49a43","ios":"levelo://app?vid=2043af62-049c-42e3-8c2a-256cb1b49a43"},"vehicle_type_id":"4","last_reported":1734084637,"current_range_meters":400,"station_id":"ce4bh0p2rcd13ifvqd80","pricing_plan_id":"cebpf4jnsgd1na2vs0mg"},{"bike_id":"4816fffd-4eb5-48db-97dc-f79cf46ccdbd","system_id":"levelo_inurba_marseille","lat":43.26681,"lon":5.38262,"is_reserved":false,"is_disabled":false,"rental_uris":{"android":"levelo://app?vid=4816fffd-4eb5-48db-97dc-f79cf46ccdbd","ios":"levelo://app?vid=4816fffd-4eb5-48db-97dc-f79cf46ccdbd"},"vehicle_type_id":"4","last_reported":1734084637,"current_range_meters":38800,"station_id":"ce4bhg92rcd13ifvqf90","pricing_plan_id":"cebpf4jnsgd1na2vs0mg"},{"bike_id":"97337123-5e0b-44f7-bca2-4a892488b0e1","system_id":"levelo_inurba_marseille","lat":43.23959,"lon":5.36635,"is_reserved":false,"is_disabled":false,"rental_uris":{"android":"levelo://app?vid=97337123-5e0b-44f7-bca2-4a892488b0e1","ios":"levelo://app?vid=97337123-5e0b-44f7-bca2-4a892488b0e1"},"vehicle_type_id":"4","last_reported":1734084637,"current_range_meters":39200,"station_id":"ce4bhi12rcd13ifvqfp0","pricing_plan_id":"cebpf4jnsgd1na2vs0mg"},{"bike_id":"0b9b1eb6-bf49-4e9d-995e-245f768cff0d","system_id":"levelo_inurba_marseille","lat":43.28465,"lon":5.38407,"is_reserved":false,"is_disabled":false,"rental_uris":{"android":"levelo://app?vid=0b9b1eb6-bf49-4e9d-995e-245f768cff0d","ios":"levelo://app?vid=0b9b1eb6-bf49-4e9d-995e-245f768cff0d"},"vehicle_type_id":"4","last_reported":1734084637,"current_range_meters":39200,"station_id":"ce4bh512rcd13ifvqe3g","pricing_plan_id":"cebpf4jnsgd1na2vs0mg"},{"bike_id":"002069da-d74c-4e41-ae54-1da711c0eed6","system_id":"levelo_inurba_marseille","lat":43.285943,"lon":5.412958,"is_reserved":false,"is_disabled":true,"rental_uris":{"android":"levelo://app?vid=002069da-d74c-4e41-ae54-1da711c0eed6","ios":"levelo://app?vid=002069da-d74c-4e41-ae54-1da711c0eed6"},"vehicle_type_id":"4","last_reported":1734084637,"current_range_meters":0,"station_id":"","pricing_plan_id":"cebpf4jnsgd1na2vs0mg"},{"bike_id":"63481ad9-2e1c-4c79-86ba-4261df66f71a","system_id":"levelo_inurba_marseille","lat":43.25483,"lon":5.37665,"is_reserved":false,"is_disabled":false,"rental_uris":{"android":"levelo://app?vid=63481ad9-2e1c-4c79-86ba-4261df66f71a","ios":"levelo://app?vid=63481ad9-2e1c-4c79-86ba-4261df66f71a"},"vehicle_type_id":"4","last_reported":1734084637,"current_range_meters":38800,"station_id":"ce4bhh12rcd13ifvqff0","pricing_plan_id":"cebpf4jnsgd1na2vs0mg"},{"bike_id":"003fcc20-75cd-4e78-9b9a-bd60ee138a76","system_id":"levelo_inurba_marseille","lat":43.25576,"lon":5.38238,"is_reserved":false,"is_disabled":false,"rental_uris":{"android":"levelo://app?vid=003fcc20-75cd-4e78-9b9a-bd60ee138a76","ios":"levelo://app?vid=003fcc20-75cd-4e78-9b9a-bd60ee138a76"},"vehicle_type_id":"4","last_reported":1734084637,"current_range_meters":38000,"station_id":"ce4bhih2rcd13ifvqfs0","pricing_plan_id":"cebpf4jnsgd1na2vs0mg"},{"bike_id":"e2f124c7-d990-40c0-b50f-b56a2eaf596e","system_id":"levelo_inurba_marseille","lat":43.23961,"lon":5.36632,"is_reserved":false,"is_disabled":false,"rental_uris":{"android":"levelo://app?vid=e2f124c7-d990-40c0-b50f-b56a2eaf596e","ios":"levelo://app?vid=e2f124c7-d990-40c0-b50f-b56a2eaf596e"},"vehicle_type_id":"4","last_reported":1734084637,"current_range_meters":24800,"station_id":"ce4bhi12rcd13ifvqfp0","pricing_plan_id":"cebpf4jnsgd1na2vs0mg"},{"bike_id":"0dc53ed0-703c-41c7-a7ba-e5fe121ea6cc","system_id":"levelo_inurba_marseille","lat":43.2893,"lon":5.3789,"is_reserved":false,"is_disabled":false,"rental_uris":{"android":"levelo://app?vid=0dc53ed0-703c-41c7-a7ba-e5fe121ea6cc","ios":"levelo://app?vid=0dc53ed0-703c-41c7-a7ba-e5fe121ea6cc"},"vehicle_type_id":"4","last_reported":1734084637,"current_range_meters":34000,"station_id":"","pricing_plan_id":"cebpf4jnsgd1na2vs0mg"},{"bike_id":"a1b3e7ef-122c-4c3b-8be9-c3cc1fd01590","system_id":"levelo_inurba_marseille","lat":43.24546,"lon":5.39512,"is_reserved":false,"is_disabled":false,"rental_uris":{"android":"levelo://app?vid=a1b3e7ef-122c-4c3b-8be9-c3cc1fd01590","ios":"levelo://app?vid=a1b3e7ef-122c-4c3b-8be9-c3cc1fd01590"},"vehicle_type_id":"4","last_reported":1734084637,"current_range_meters":4800,"station_id":"ce4bhlp2rcd13ifvqgjg","pricing_plan_id":"cebpf4jnsgd1na2vs0mg"},{"bike_id":"1e09aea1-6592-4606-838e-01c5295332d1","system_id":"levelo_inurba_marseille","lat":43.32663,"lon":5.40982,"is_reserved":false,"is_disabled":true,"rental_uris":{"android":"levelo://app?vid=1e09aea1-6592-4606-838e-01c5295332d1","ios":"levelo://app?vid=1e09aea1-6592-4606-838e-01c5295332d1"},"vehicle_type_id":"4","last_reported":1734084637,"current_range_meters":33200,"station_id":"ce4bhpp2rcd13ifvqhgg","pricing_plan_id":"cebpf4jnsgd1na2vs0mg"},{"bike_id":"117995f4-b8d9-45ec-80c9-df0eb7dadab5","system_id":"levelo_inurba_marseille","lat":43.30142,"lon":5.37418,"is_reserved":false,"is_disabled":false,"rental_uris":{"android":"levelo://app?vid=117995f4-b8d9-45ec-80c9-df0eb7dadab5","ios":"levelo://app?vid=117995f4-b8d9-45ec-80c9-df0eb7dadab5"},"vehicle_type_id":"4","last_reported":1734084637,"current_range_meters":36000,"station_id":"ce4bgs92rcd13ifvqcc0","pricing_plan_id":"cebpf4jnsgd1na2vs0mg"},{"bike_id":"7eb424bd-d083-4a4f-899d-588f0d08f74f","system_id":"levelo_inurba_marseille","lat":43.30901,"lon":5.36848,"is_reserved":false,"is_disabled":false,"rental_uris":{"android":"levelo://app?vid=7eb424bd-d083-4a4f-899d-588f0d08f74f","ios":"levelo://app?vid=7eb424bd-d083-4a4f-899d-588f0d08f74f"},"vehicle_type_id":"4","last_reported":1734084637,"current_range_meters":8000,"station_id":"ce4bgn92rcd13ifvqbvg","pricing_plan_id":"cebpf4jnsgd1na2vs0mg"},{"bike_id":"dfd6a7b1-1bfd-45d4-b3ac-ca6eb00299de","system_id":"levelo_inurba_marseille","lat":43.24084,"lon":5.37751,"is_reserved":false,"is_disabled":false,"rental_uris":{"android":"levelo://app?vid=dfd6a7b1-1bfd-45d4-b3ac-ca6eb00299de","ios":"levelo://app?vid=dfd6a7b1-1bfd-45d4-b3ac-ca6eb00299de"},"vehicle_type_id":"4","last_reported":1734084637,"current_range_meters":38800,"station_id":"ce4bhnp2rcd13ifvqgvg","pricing_plan_id":"cebpf4jnsgd1na2vs0mg"},{"bike_id":"9787a470-5ff4-43a3-964e-f4fa29342bd3","system_id":"levelo_inurba_marseille","lat":43.28934,"lon":5.38389,"is_reserved":false,"is_disabled":false,"rental_uris":{"android":"levelo://app?vid=9787a470-5ff4-43a3-964e-f4fa29342bd3","ios":"levelo://app?vid=9787a470-5ff4-43a3-964e-f4fa29342bd3"},"vehicle_type_id":"4","last_reported":1734084637,"current_range_meters":36400,"station_id":"ce4bh612rcd13ifvqe6g","pricing_plan_id":"cebpf4jnsgd1na2vs0mg"},{"bike_id":"f7235e1b-bd49-4bfc-85da-79dbffe2ae1b","system_id":"levelo_inurba_marseille","lat":43.2556,"lon":5.38234,"is_reserved":false,"is_disabled":false,"rental_uris":{"android":"levelo://app?vid=f7235e1b-bd49-4bfc-85da-79dbffe2ae1b","ios":"levelo://app?vid=f7235e1b-bd49-4bfc-85da-79dbffe2ae1b"},"vehicle_type_id":"4","last_reported":1734084637,"current_range_meters":28000,"station_id":"ce4bhih2rcd13ifvqfs0","pricing_plan_id":"cebpf4jnsgd1na2vs0mg"},{"bike_id":"1a6191e2-ac99-485d-8e32-fe2f8071e4a9","system_id":"levelo_inurba_marseille","lat":43.29417,"lon":5.38626,"is_reserved":false,"is_disabled":true,"rental_uris":{"android":"levelo://app?vid=1a6191e2-ac99-485d-8e32-fe2f8071e4a9","ios":"levelo://app?vid=1a6191e2-ac99-485d-8e32-fe2f8071e4a9"},"vehicle_type_id":"4","last_reported":1734084637,"current_range_meters":800,"station_id":"ce4bh2h2rcd13ifvqdh0","pricing_plan_id":"cebpf4jnsgd1na2vs0mg"},{"bike_id":"ebdbc8d5-b290-4e69-aa5c-3c2a17f728a0","system_id":"levelo_inurba_marseille","lat":43.30134,"lon":5.37424,"is_reserved":false,"is_disabled":false,"rental_uris":{"android":"levelo://app?vid=ebdbc8d5-b290-4e69-aa5c-3c2a17f728a0","ios":"levelo://app?vid=ebdbc8d5-b290-4e69-aa5c-3c2a17f728a0"},"vehicle_type_id":"4","last_reported":1734084637,"current_range_meters":39200,"station_id":"ce4bgs92rcd13ifvqcc0","pricing_plan_id":"cebpf4jnsgd1na2vs0mg"},{"bike_id":"4793a77e-bece-4a69-b846-b8ef7b1dd4df","system_id":"levelo_inurba_marseille","lat":43.26682,"lon":5.38267,"is_reserved":false,"is_disabled":false,"rental_uris":{"android":"levelo://app?vid=4793a77e-bece-4a69-b846-b8ef7b1dd4df","ios":"levelo://app?vid=4793a77e-bece-4a69-b846-b8ef7b1dd4df"},"vehicle_type_id":"4","last_reported":1734084637,"current_range_meters":28800,"station_id":"ce4bhg92rcd13ifvqf90","pricing_plan_id":"cebpf4jnsgd1na2vs0mg"},{"bike_id":"bced2216-fe81-4039-bef5-7e9843b329f3","system_id":"levelo_inurba_marseille","lat":43.28138,"lon":5.42665,"is_reserved":false,"is_disabled":false,"rental_uris":{"android":"levelo://app?vid=bced2216-fe81-4039-bef5-7e9843b329f3","ios":"levelo://app?vid=bced2216-fe81-4039-bef5-7e9843b329f3"},"vehicle_type_id":"4","last_reported":1734084637,"current_range_meters":38000,"station_id":"ce4bhnh2rcd13ifvqgug","pricing_plan_id":"cebpf4jnsgd1na2vs0mg"},{"bike_id":"02010470-d49c-4e8d-bc30-b563b1dfc3f9","system_id":"levelo_inurba_marseille","lat":43.25829,"lon":5.39437,"is_reserved":false,"is_disabled":false,"rental_uris":{"android":"levelo://app?vid=02010470-d49c-4e8d-bc30-b563b1dfc3f9","ios":"levelo://app?vid=02010470-d49c-4e8d-bc30-b563b1dfc3f9"},"vehicle_type_id":"4","last_reported":1734084637,"current_range_meters":32000,"station_id":"ce4bhip2rcd13ifvqft0","pricing_plan_id":"cebpf4jnsgd1na2vs0mg"},{"bike_id":"9332f19c-96e3-47ac-8807-c5c2384614c0","system_id":"levelo_inurba_marseille","lat":43.23063,"lon":5.35497,"is_reserved":false,"is_disabled":false,"rental_uris":{"android":"levelo://app?vid=9332f19c-96e3-47ac-8807-c5c2384614c0","ios":"levelo://app?vid=9332f19c-96e3-47ac-8807-c5c2384614c0"},"vehicle_type_id":"4","last_reported":1734084637,"current_range_meters":8000,"station_id":"cpo3342slgdg3j2ifvpg","pricing_plan_id":"cebpf4jnsgd1na2vs0mg"},{"bike_id":"507a9668-9123-4b65-b9a1-3df80fdee677","system_id":"levelo_inurba_marseille","lat":43.30599,"lon":5.3935,"is_reserved":false,"is_disabled":true,"rental_uris":{"android":"levelo://app?vid=507a9668-9123-4b65-b9a1-3df80fdee677","ios":"levelo://app?vid=507a9668-9123-4b65-b9a1-3df80fdee677"},"vehicle_type_id":"4","last_reported":1734084637,"current_range_meters":32000,"station_id":"ce4bh0p2rcd13ifvqd80","pricing_plan_id":"cebpf4jnsgd1na2vs0mg"},{"bike_id":"524fdc59-1def-4765-b344-53587a6914ff","system_id":"levelo_inurba_marseille","lat":43.31081,"lon":5.42427,"is_reserved":false,"is_disabled":false,"rental_uris":{"android":"levelo://app?vid=524fdc59-1def-4765-b344-53587a6914ff","ios":"levelo://app?vid=524fdc59-1def-4765-b344-53587a6914ff"},"vehicle_type_id":"4","last_reported":1734084637,"current_range_meters":22000,"station_id":"ce4bhp92rcd13ifvqhag","pricing_plan_id":"cebpf4jnsgd1na2vs0mg"},{"bike_id":"1e5b3424-92e2-4d6e-a8c1-3ffc43434050","system_id":"levelo_inurba_marseille","lat":43.28152,"lon":5.4264,"is_reserved":false,"is_disabled":false,"rental_uris":{"android":"levelo://app?vid=1e5b3424-92e2-4d6e-a8c1-3ffc43434050","ios":"levelo://app?vid=1e5b3424-92e2-4d6e-a8c1-3ffc43434050"},"vehicle_type_id":"4","last_reported":1734084637,"current_range_meters":20800,"station_id":"ce4bhnh2rcd13ifvqgug","pricing_plan_id":"cebpf4jnsgd1na2vs0mg"},{"bike_id":"a8942e43-f3d6-46fd-8576-2cc6b2787f3e","system_id":"levelo_inurba_marseille","lat":43.33011,"lon":5.39068,"is_reserved":false,"is_disabled":false,"rental_uris":{"android":"levelo://app?vid=a8942e43-f3d6-46fd-8576-2cc6b2787f3e","ios":"levelo://app?vid=a8942e43-f3d6-46fd-8576-2cc6b2787f3e"},"vehicle_type_id":"4","last_reported":1734084637,"current_range_meters":21600,"station_id":"ce4bhr92rcd13ifvqhrg","pricing_plan_id":"cebpf4jnsgd1na2vs0mg"},{"bike_id":"944732fc-8f8d-403d-9ff9-2505e1a6a3e4","system_id":"levelo_inurba_marseille","lat":43.31106,"lon":5.37769,"is_reserved":false,"is_disabled":false,"rental_uris":{"android":"levelo://app?vid=944732fc-8f8d-403d-9ff9-2505e1a6a3e4","ios":"levelo://app?vid=944732fc-8f8d-403d-9ff9-2505e1a6a3e4"},"vehicle_type_id":"4","last_reported":1734084637,"current_range_meters":37600,"station_id":"ce4bgt92rcd13ifvqcg0","pricing_plan_id":"cebpf4jnsgd1na2vs0mg"},{"bike_id":"aea55c11-a746-495e-af18-748a718c6fc8","system_id":"levelo_inurba_marseille","lat":43.30213,"lon":5.39464,"is_reserved":false,"is_disabled":false,"rental_uris":{"android":"levelo://app?vid=aea55c11-a746-495e-af18-748a718c6fc8","ios":"levelo://app?vid=aea55c11-a746-495e-af18-748a718c6fc8"},"vehicle_type_id":"4","last_reported":1734084637,"current_range_meters":38800,"station_id":"ce4bh0p2rcd13ifvqd70","pricing_plan_id":"cebpf4jnsgd1na2vs0mg"},{"bike_id":"642c8e54-a083-4eb8-a4e1-e3b3c6a30834","system_id":"levelo_inurba_marseille","lat":43.290143,"lon":5.35618,"is_reserved":false,"is_disabled":false,"rental_uris":{"android":"levelo://app?vid=642c8e54-a083-4eb8-a4e1-e3b3c6a30834","ios":"levelo://app?vid=642c8e54-a083-4eb8-a4e1-e3b3c6a30834"},"vehicle_type_id":"4","last_reported":1734084637,"current_range_meters":38800,"station_id":"ce4bhb92rcd13ifvqen0","pricing_plan_id":"cebpf4jnsgd1na2vs0mg"},{"bike_id":"d008ef1b-ded1-44b6-a802-684884d045ff","system_id":"levelo_inurba_marseille","lat":43.2978,"lon":5.39357,"is_reserved":false,"is_disabled":true,"rental_uris":{"android":"levelo://app?vid=d008ef1b-ded1-44b6-a802-684884d045ff","ios":"levelo://app?vid=d008ef1b-ded1-44b6-a802-684884d045ff"},"vehicle_type_id":"4","last_reported":1734084637,"current_range_meters":17600,"station_id":"chh1huq6cuj3fo74tm60","pricing_plan_id":"cebpf4jnsgd1na2vs0mg"},{"bike_id":"208886c0-de2e-43ca-abbf-3e8665653f84","system_id":"levelo_inurba_marseille","lat":43.30404,"lon":5.37714,"is_reserved":false,"is_disabled":true,"rental_uris":{"android":"levelo://app?vid=208886c0-de2e-43ca-abbf-3e8665653f84","ios":"levelo://app?vid=208886c0-de2e-43ca-abbf-3e8665653f84"},"vehicle_type_id":"4","last_reported":1734084637,"current_range_meters":0,"station_id":"","pricing_plan_id":"cebpf4jnsgd1na2vs0mg"},{"bike_id":"9bec7e02-cc4e-42a5-9336-5b32da85843d","system_id":"levelo_inurba_marseille","lat":43.2971,"lon":5.36611,"is_reserved":false,"is_disabled":false,"rental_uris":{"android":"levelo://app?vid=9bec7e02-cc4e-42a5-9336-5b32da85843d","ios":"levelo://app?vid=9bec7e02-cc4e-42a5-9336-5b32da85843d"},"vehicle_type_id":"4","last_reported":1734084637,"current_range_meters":31200,"station_id":"ce4bgn12rcd13ifvqbt0","pricing_plan_id":"cebpf4jnsgd1na2vs0mg"},{"bike_id":"96ef27b0-d49e-42f9-ac02-31e916e33695","system_id":"levelo_inurba_marseille","lat":43.25931,"lon":5.40916,"is_reserved":false,"is_disabled":false,"rental_uris":{"android":"levelo://app?vid=96ef27b0-d49e-42f9-ac02-31e916e33695","ios":"levelo://app?vid=96ef27b0-d49e-42f9-ac02-31e916e33695"},"vehicle_type_id":"4","last_reported":1734084637,"current_range_meters":21600,"station_id":"ce4bhm92rcd13ifvqglg","pricing_plan_id":"cebpf4jnsgd1na2vs0mg"},{"bike_id":"36a6aaf7-7942-4cf8-a178-14100534e00e","system_id":"levelo_inurba_marseille","lat":43.28446,"lon":5.3918,"is_reserved":false,"is_disabled":true,"rental_uris":{"android":"levelo://app?vid=36a6aaf7-7942-4cf8-a178-14100534e00e","ios":"levelo://app?vid=36a6aaf7-7942-4cf8-a178-14100534e00e"},"vehicle_type_id":"4","last_reported":1734084637,"current_range_meters":28000,"station_id":"ce4bhoh2rcd13ifvqh5g","pricing_plan_id":"cebpf4jnsgd1na2vs0mg"},{"bike_id":"7f014d92-7469-41a1-8877-2858610992f9","system_id":"levelo_inurba_marseille","lat":43.30943,"lon":5.39028,"is_reserved":false,"is_disabled":false,"rental_uris":{"android":"levelo://app?vid=7f014d92-7469-41a1-8877-2858610992f9","ios":"levelo://app?vid=7f014d92-7469-41a1-8877-2858610992f9"},"vehicle_type_id":"4","last_reported":1734084637,"current_range_meters":34000,"station_id":"ce4bgup2rcd13ifvqco0","pricing_plan_id":"cebpf4jnsgd1na2vs0mg"},{"bike_id":"1432cf1d-5f52-496b-8b0f-41af200811c1","system_id":"levelo_inurba_marseille","lat":43.29577,"lon":5.37508,"is_reserved":false,"is_disabled":false,"rental_uris":{"android":"levelo://app?vid=1432cf1d-5f52-496b-8b0f-41af200811c1","ios":"levelo://app?vid=1432cf1d-5f52-496b-8b0f-41af200811c1"},"vehicle_type_id":"4","last_reported":1734084637,"current_range_meters":30000,"station_id":"ce4bgh92rcd13ifvqb50","pricing_plan_id":"cebpf4jnsgd1na2vs0mg"},{"bike_id":"08bdaf8d-472d-4722-9107-74a799921207","system_id":"levelo_inurba_marseille","lat":43.30139,"lon":5.38781,"is_reserved":false,"is_disabled":false,"rental_uris":{"android":"levelo://app?vid=08bdaf8d-472d-4722-9107-74a799921207","ios":"levelo://app?vid=08bdaf8d-472d-4722-9107-74a799921207"},"vehicle_type_id":"4","last_reported":1734084637,"current_range_meters":26000,"station_id":"ce4bghh2rcd13ifvqb60","pricing_plan_id":"cebpf4jnsgd1na2vs0mg"},{"bike_id":"f3cb3fa5-f996-4779-a72c-c8dc29955965","system_id":"levelo_inurba_marseille","lat":43.26561,"lon":5.37304,"is_reserved":false,"is_disabled":false,"rental_uris":{"android":"levelo://app?vid=f3cb3fa5-f996-4779-a72c-c8dc29955965","ios":"levelo://app?vid=f3cb3fa5-f996-4779-a72c-c8dc29955965"},"vehicle_type_id":"4","last_reported":1734084637,"current_range_meters":27600,"station_id":"ce4bhg12rcd13ifvqf70","pricing_plan_id":"cebpf4jnsgd1na2vs0mg"},{"bike_id":"6e6a004b-462d-4b03-aeaa-2611256f0d89","system_id":"levelo_inurba_marseille","lat":43.28111,"lon":5.38928,"is_reserved":false,"is_disabled":true,"rental_uris":{"android":"levelo://app?vid=6e6a004b-462d-4b03-aeaa-2611256f0d89","ios":"levelo://app?vid=6e6a004b-462d-4b03-aeaa-2611256f0d89"},"vehicle_type_id":"4","last_reported":1734084637,"current_range_meters":0,"station_id":"","pricing_plan_id":"cebpf4jnsgd1na2vs0mg"},{"bike_id":"14845a8f-c0c8-4311-843d-ef820014914a","system_id":"levelo_inurba_marseille","lat":43.26807,"lon":5.40258,"is_reserved":false,"is_disabled":false,"rental_uris":{"android":"levelo://app?vid=14845a8f-c0c8-4311-843d-ef820014914a","ios":"levelo://app?vid=14845a8f-c0c8-4311-843d-ef820014914a"},"vehicle_type_id":"4","last_reported":1734084637,"current_range_meters":37600,"station_id":"ce501612rcd8frsf0b60","pricing_plan_id":"cebpf4jnsgd1na2vs0mg"},{"bike_id":"89b7528c-fd56-4128-b133-e3ab623913c3","system_id":"levelo_inurba_marseille","lat":43.3053,"lon":5.36681,"is_reserved":false,"is_disabled":false,"rental_uris":{"android":"levelo://app?vid=89b7528c-fd56-4128-b133-e3ab623913c3","ios":"levelo://app?vid=89b7528c-fd56-4128-b133-e3ab623913c3"},"vehicle_type_id":"4","last_reported":1734084637,"current_range_meters":36400,"station_id":"ce4bgrp2rcd13ifvqc9g","pricing_plan_id":"cebpf4jnsgd1na2vs0mg"},{"bike_id":"3bb32b92-c0c6-4d08-8abb-2c29d9cba00b","system_id":"levelo_inurba_marseille","lat":43.32483,"lon":5.36568,"is_reserved":false,"is_disabled":false,"rental_uris":{"android":"levelo://app?vid=3bb32b92-c0c6-4d08-8abb-2c29d9cba00b","ios":"levelo://app?vid=3bb32b92-c0c6-4d08-8abb-2c29d9cba00b"},"vehicle_type_id":"4","last_reported":1734084637,"current_range_meters":30000,"station_id":"ce4bhs12rcd13ifvqhvg","pricing_plan_id":"cebpf4jnsgd1na2vs0mg"},{"bike_id":"e738fcc8-c725-46f1-b7fe-8f522bd56ad4","system_id":"levelo_inurba_marseille","lat":43.22928,"lon":5.35374,"is_reserved":false,"is_disabled":false,"rental_uris":{"android":"levelo://app?vid=e738fcc8-c725-46f1-b7fe-8f522bd56ad4","ios":"levelo://app?vid=e738fcc8-c725-46f1-b7fe-8f522bd56ad4"},"vehicle_type_id":"4","last_reported":1734084637,"current_range_meters":6800,"station_id":"cpo3532slgdg3j2ikp40","pricing_plan_id":"cebpf4jnsgd1na2vs0mg"},{"bike_id":"721075bd-1ce6-4bad-a2c6-1173c7fa4791","system_id":"levelo_inurba_marseille","lat":43.31711,"lon":5.43709,"is_reserved":false,"is_disabled":false,"rental_uris":{"android":"levelo://app?vid=721075bd-1ce6-4bad-a2c6-1173c7fa4791","ios":"levelo://app?vid=721075bd-1ce6-4bad-a2c6-1173c7fa4791"},"vehicle_type_id":"4","last_reported":1734084637,"current_range_meters":19600,"station_id":"ce4bhp92rcd13ifvqhcg","pricing_plan_id":"cebpf4jnsgd1na2vs0mg"},{"bike_id":"5f1cfd8c-9d3d-4847-b38c-c599318bbbeb","system_id":"levelo_inurba_marseille","lat":43.29298,"lon":5.37144,"is_reserved":false,"is_disabled":false,"rental_uris":{"android":"levelo://app?vid=5f1cfd8c-9d3d-4847-b38c-c599318bbbeb","ios":"levelo://app?vid=5f1cfd8c-9d3d-4847-b38c-c599318bbbeb"},"vehicle_type_id":"4","last_reported":1734084637,"current_range_meters":38800,"station_id":"ce4bgh92rcd13ifvqb40","pricing_plan_id":"cebpf4jnsgd1na2vs0mg"},{"bike_id":"7965bd8b-65b9-4460-9e65-36f253ebc53b","system_id":"levelo_inurba_marseille","lat":43.32046,"lon":5.41517,"is_reserved":false,"is_disabled":false,"rental_uris":{"android":"levelo://app?vid=7965bd8b-65b9-4460-9e65-36f253ebc53b","ios":"levelo://app?vid=7965bd8b-65b9-4460-9e65-36f253ebc53b"},"vehicle_type_id":"4","last_reported":1734084637,"current_range_meters":24400,"station_id":"ce4bhq92rcd13ifvqhkg","pricing_plan_id":"cebpf4jnsgd1na2vs0mg"},{"bike_id":"dceb06ae-bf28-4d27-98ce-089695e7c27b","system_id":"levelo_inurba_marseille","lat":43.29631,"lon":5.40596,"is_reserved":false,"is_disabled":false,"rental_uris":{"android":"levelo://app?vid=dceb06ae-bf28-4d27-98ce-089695e7c27b","ios":"levelo://app?vid=dceb06ae-bf28-4d27-98ce-089695e7c27b"},"vehicle_type_id":"4","last_reported":1734084637,"current_range_meters":21600,"station_id":"ce4bh0h2rcd13ifvqd60","pricing_plan_id":"cebpf4jnsgd1na2vs0mg"},{"bike_id":"698ad75d-4505-4127-812a-dfdea147bfbd","system_id":"levelo_inurba_marseille","lat":43.36728,"lon":5.34614,"is_reserved":false,"is_disabled":false,"rental_uris":{"android":"levelo://app?vid=698ad75d-4505-4127-812a-dfdea147bfbd","ios":"levelo://app?vid=698ad75d-4505-4127-812a-dfdea147bfbd"},"vehicle_type_id":"4","last_reported":1734084637,"current_range_meters":28000,"station_id":"","pricing_plan_id":"cebpf4jnsgd1na2vs0mg"},{"bike_id":"3f376398-b9b7-4419-aed9-9595c8c18ff6","system_id":"levelo_inurba_marseille","lat":43.2955,"lon":5.42276,"is_reserved":false,"is_disabled":false,"rental_uris":{"android":"levelo://app?vid=3f376398-b9b7-4419-aed9-9595c8c18ff6","ios":"levelo://app?vid=3f376398-b9b7-4419-aed9-9595c8c18ff6"},"vehicle_type_id":"4","last_reported":1734084637,"current_range_meters":35600,"station_id":"ce4bhph2rcd13ifvqhdg","pricing_plan_id":"cebpf4jnsgd1na2vs0mg"},{"bike_id":"8cdf61de-84bd-4342-8543-3ed2ab8b5537","system_id":"levelo_inurba_marseille","lat":43.29915,"lon":5.37466,"is_reserved":false,"is_disabled":false,"rental_uris":{"android":"levelo://app?vid=8cdf61de-84bd-4342-8543-3ed2ab8b5537","ios":"levelo://app?vid=8cdf61de-84bd-4342-8543-3ed2ab8b5537"},"vehicle_type_id":"4","last_reported":1734084637,"current_range_meters":19200,"station_id":"ce4bgjh2rcd13ifvqbg0","pricing_plan_id":"cebpf4jnsgd1na2vs0mg"},{"bike_id":"bcfe25a6-b3a3-4a49-bd92-818d66886f16","system_id":"levelo_inurba_marseille","lat":43.28153,"lon":5.42646,"is_reserved":false,"is_disabled":false,"rental_uris":{"android":"levelo://app?vid=bcfe25a6-b3a3-4a49-bd92-818d66886f16","ios":"levelo://app?vid=bcfe25a6-b3a3-4a49-bd92-818d66886f16"},"vehicle_type_id":"4","last_reported":1734084637,"current_range_meters":37600,"station_id":"ce4bhnh2rcd13ifvqgug","pricing_plan_id":"cebpf4jnsgd1na2vs0mg"},{"bike_id":"a5589391-a7e4-412b-9a87-f917b2322580","system_id":"levelo_inurba_marseille","lat":43.23051,"lon":5.35494,"is_reserved":false,"is_disabled":false,"rental_uris":{"android":"levelo://app?vid=a5589391-a7e4-412b-9a87-f917b2322580","ios":"levelo://app?vid=a5589391-a7e4-412b-9a87-f917b2322580"},"vehicle_type_id":"4","last_reported":1734084637,"current_range_meters":8800,"station_id":"cpo3342slgdg3j2ifvpg","pricing_plan_id":"cebpf4jnsgd1na2vs0mg"},{"bike_id":"80122f82-2a34-42b2-9142-51ebe480d7dc","system_id":"levelo_inurba_marseille","lat":43.30145,"lon":5.38093,"is_reserved":false,"is_disabled":false,"rental_uris":{"android":"levelo://app?vid=80122f82-2a34-42b2-9142-51ebe480d7dc","ios":"levelo://app?vid=80122f82-2a34-42b2-9142-51ebe480d7dc"},"vehicle_type_id":"4","last_reported":1734084637,"current_range_meters":37600,"station_id":"ce4bgjp2rcd13ifvqbh0","pricing_plan_id":"cebpf4jnsgd1na2vs0mg"},{"bike_id":"103e9cb3-a529-4d55-b047-75adf6d60c18","system_id":"levelo_inurba_marseille","lat":43.27967,"lon":5.39923,"is_reserved":false,"is_disabled":true,"rental_uris":{"android":"levelo://app?vid=103e9cb3-a529-4d55-b047-75adf6d60c18","ios":"levelo://app?vid=103e9cb3-a529-4d55-b047-75adf6d60c18"},"vehicle_type_id":"4","last_reported":1734084637,"current_range_meters":0,"station_id":"","pricing_plan_id":"cebpf4jnsgd1na2vs0mg"},{"bike_id":"31ab51ef-1505-42cd-91a4-b143b9a55d4f","system_id":"levelo_inurba_marseille","lat":43.29008,"lon":5.35609,"is_reserved":false,"is_disabled":false,"rental_uris":{"android":"levelo://app?vid=31ab51ef-1505-42cd-91a4-b143b9a55d4f","ios":"levelo://app?vid=31ab51ef-1505-42cd-91a4-b143b9a55d4f"},"vehicle_type_id":"4","last_reported":1734084637,"current_range_meters":38400,"station_id":"ce4bhb92rcd13ifvqen0","pricing_plan_id":"cebpf4jnsgd1na2vs0mg"},{"bike_id":"2abcec0c-aafa-4f10-b40b-0344473164ae","system_id":"levelo_inurba_marseille","lat":43.23961,"lon":5.36636,"is_reserved":false,"is_disabled":false,"rental_uris":{"android":"levelo://app?vid=2abcec0c-aafa-4f10-b40b-0344473164ae","ios":"levelo://app?vid=2abcec0c-aafa-4f10-b40b-0344473164ae"},"vehicle_type_id":"4","last_reported":1734084637,"current_range_meters":21600,"station_id":"ce4bhi12rcd13ifvqfp0","pricing_plan_id":"cebpf4jnsgd1na2vs0mg"},{"bike_id":"cf2a554d-dca1-468f-a79f-dbc5900e9168","system_id":"levelo_inurba_marseille","lat":43.33022,"lon":5.39046,"is_reserved":false,"is_disabled":false,"rental_uris":{"android":"levelo://app?vid=cf2a554d-dca1-468f-a79f-dbc5900e9168","ios":"levelo://app?vid=cf2a554d-dca1-468f-a79f-dbc5900e9168"},"vehicle_type_id":"4","last_reported":1734084637,"current_range_meters":31200,"station_id":"ce4bhr92rcd13ifvqhrg","pricing_plan_id":"cebpf4jnsgd1na2vs0mg"},{"bike_id":"9170b74c-6ab9-4aed-ae3b-75ae727d0100","system_id":"levelo_inurba_marseille","lat":43.27406,"lon":5.38999,"is_reserved":false,"is_disabled":false,"rental_uris":{"android":"levelo://app?vid=9170b74c-6ab9-4aed-ae3b-75ae727d0100","ios":"levelo://app?vid=9170b74c-6ab9-4aed-ae3b-75ae727d0100"},"vehicle_type_id":"4","last_reported":1734084637,"current_range_meters":10000,"station_id":"","pricing_plan_id":"cebpf4jnsgd1na2vs0mg"},{"bike_id":"bf26ba67-e67a-47f2-aeb5-22efb7770553","system_id":"levelo_inurba_marseille","lat":43.28616,"lon":5.35097,"is_reserved":false,"is_disabled":true,"rental_uris":{"android":"levelo://app?vid=bf26ba67-e67a-47f2-aeb5-22efb7770553","ios":"levelo://app?vid=bf26ba67-e67a-47f2-aeb5-22efb7770553"},"vehicle_type_id":"4","last_reported":1734084637,"current_range_meters":28800,"station_id":"ce4bhch2rcd13ifvqeug","pricing_plan_id":"cebpf4jnsgd1na2vs0mg"},{"bike_id":"1edcb435-be97-41f8-aa8c-4a20808cef7c","system_id":"levelo_inurba_marseille","lat":43.2683,"lon":5.40239,"is_reserved":false,"is_disabled":false,"rental_uris":{"android":"levelo://app?vid=1edcb435-be97-41f8-aa8c-4a20808cef7c","ios":"levelo://app?vid=1edcb435-be97-41f8-aa8c-4a20808cef7c"},"vehicle_type_id":"4","last_reported":1734084637,"current_range_meters":6000,"station_id":"ce501612rcd8frsf0b60","pricing_plan_id":"cebpf4jnsgd1na2vs0mg"},{"bike_id":"dd95b514-06c0-4cdf-8f36-c898a523926b","system_id":"levelo_inurba_marseille","lat":43.30952,"lon":5.39051,"is_reserved":false,"is_disabled":false,"rental_uris":{"android":"levelo://app?vid=dd95b514-06c0-4cdf-8f36-c898a523926b","ios":"levelo://app?vid=dd95b514-06c0-4cdf-8f36-c898a523926b"},"vehicle_type_id":"4","last_reported":1734084637,"current_range_meters":24800,"station_id":"ce4bgup2rcd13ifvqco0","pricing_plan_id":"cebpf4jnsgd1na2vs0mg"},{"bike_id":"79efbb5a-a5a0-4710-a47a-ff1244106665","system_id":"levelo_inurba_marseille","lat":43.29535,"lon":5.38549,"is_reserved":false,"is_disabled":true,"rental_uris":{"android":"levelo://app?vid=79efbb5a-a5a0-4710-a47a-ff1244106665","ios":"levelo://app?vid=79efbb5a-a5a0-4710-a47a-ff1244106665"},"vehicle_type_id":"4","last_reported":1734084637,"current_range_meters":0,"station_id":"ce4bgih2rcd13ifvqba0","pricing_plan_id":"cebpf4jnsgd1na2vs0mg"},{"bike_id":"61df4582-7c9f-489e-b7da-d6a0cfdcd7c7","system_id":"levelo_inurba_marseille","lat":43.28659,"lon":5.36351,"is_reserved":false,"is_disabled":true,"rental_uris":{"android":"levelo://app?vid=61df4582-7c9f-489e-b7da-d6a0cfdcd7c7","ios":"levelo://app?vid=61df4582-7c9f-489e-b7da-d6a0cfdcd7c7"},"vehicle_type_id":"4","last_reported":1734084637,"current_range_meters":0,"station_id":"ce4bhah2rcd13ifvqej0","pricing_plan_id":"cebpf4jnsgd1na2vs0mg"},{"bike_id":"069bd7be-d7b1-4fb4-8a31-6d5c7733f3a6","system_id":"levelo_inurba_marseille","lat":43.30147,"lon":5.37418,"is_reserved":false,"is_disabled":false,"rental_uris":{"android":"levelo://app?vid=069bd7be-d7b1-4fb4-8a31-6d5c7733f3a6","ios":"levelo://app?vid=069bd7be-d7b1-4fb4-8a31-6d5c7733f3a6"},"vehicle_type_id":"4","last_reported":1734084637,"current_range_meters":16800,"station_id":"ce4bgs92rcd13ifvqcc0","pricing_plan_id":"cebpf4jnsgd1na2vs0mg"},{"bike_id":"ca3bf6a0-806c-4046-b219-bbea4c2ba646","system_id":"levelo_inurba_marseille","lat":43.23197,"lon":5.35542,"is_reserved":false,"is_disabled":false,"rental_uris":{"android":"levelo://app?vid=ca3bf6a0-806c-4046-b219-bbea4c2ba646","ios":"levelo://app?vid=ca3bf6a0-806c-4046-b219-bbea4c2ba646"},"vehicle_type_id":"4","last_reported":1734084637,"current_range_meters":38800,"station_id":"ce4bhu92rcd13ifvqi70","pricing_plan_id":"cebpf4jnsgd1na2vs0mg"},{"bike_id":"3a549d43-70b2-4ff1-a4a9-70acfb8c94b7","system_id":"levelo_inurba_marseille","lat":43.286368,"lon":5.393087,"is_reserved":false,"is_disabled":false,"rental_uris":{"android":"levelo://app?vid=3a549d43-70b2-4ff1-a4a9-70acfb8c94b7","ios":"levelo://app?vid=3a549d43-70b2-4ff1-a4a9-70acfb8c94b7"},"vehicle_type_id":"4","last_reported":1734084637,"current_range_meters":38400,"station_id":"","pricing_plan_id":"cebpf4jnsgd1na2vs0mg"},{"bike_id":"057d46ff-2ee8-4fe4-a32e-cfffa3f5aaa8","system_id":"levelo_inurba_marseille","lat":43.28436,"lon":5.39187,"is_reserved":false,"is_disabled":true,"rental_uris":{"android":"levelo://app?vid=057d46ff-2ee8-4fe4-a32e-cfffa3f5aaa8","ios":"levelo://app?vid=057d46ff-2ee8-4fe4-a32e-cfffa3f5aaa8"},"vehicle_type_id":"4","last_reported":1734084637,"current_range_meters":0,"station_id":"ce4bhoh2rcd13ifvqh5g","pricing_plan_id":"cebpf4jnsgd1na2vs0mg"},{"bike_id":"46b2fdec-0870-4ae2-84dc-b1f57512351e","system_id":"levelo_inurba_marseille","lat":43.337444,"lon":5.374475,"is_reserved":false,"is_disabled":true,"rental_uris":{"android":"levelo://app?vid=46b2fdec-0870-4ae2-84dc-b1f57512351e","ios":"levelo://app?vid=46b2fdec-0870-4ae2-84dc-b1f57512351e"},"vehicle_type_id":"4","last_reported":1734084637,"current_range_meters":0,"station_id":"","pricing_plan_id":"cebpf4jnsgd1na2vs0mg"},{"bike_id":"f6bfa59a-017c-4ffa-b401-cde289947443","system_id":"levelo_inurba_marseille","lat":43.2586,"lon":5.39904,"is_reserved":false,"is_disabled":false,"rental_uris":{"android":"levelo://app?vid=f6bfa59a-017c-4ffa-b401-cde289947443","ios":"levelo://app?vid=f6bfa59a-017c-4ffa-b401-cde289947443"},"vehicle_type_id":"4","last_reported":1734084637,"current_range_meters":26800,"station_id":"ce4bhl92rcd13ifvqghg","pricing_plan_id":"cebpf4jnsgd1na2vs0mg"},{"bike_id":"87efc92e-0af2-4acd-a4e3-bc563823065b","system_id":"levelo_inurba_marseille","lat":43.2827,"lon":5.3506,"is_reserved":false,"is_disabled":false,"rental_uris":{"android":"levelo://app?vid=87efc92e-0af2-4acd-a4e3-bc563823065b","ios":"levelo://app?vid=87efc92e-0af2-4acd-a4e3-bc563823065b"},"vehicle_type_id":"4","last_reported":1734084637,"current_range_meters":22000,"station_id":"ce4bhbp2rcd13ifvqerg","pricing_plan_id":"cebpf4jnsgd1na2vs0mg"},{"bike_id":"cbe01e99-0ff7-479e-ac8d-a89f5a65b0d8","system_id":"levelo_inurba_marseille","lat":43.25581,"lon":5.38226,"is_reserved":false,"is_disabled":false,"rental_uris":{"android":"levelo://app?vid=cbe01e99-0ff7-479e-ac8d-a89f5a65b0d8","ios":"levelo://app?vid=cbe01e99-0ff7-479e-ac8d-a89f5a65b0d8"},"vehicle_type_id":"4","last_reported":1734084637,"current_range_meters":37600,"station_id":"ce4bhih2rcd13ifvqfs0","pricing_plan_id":"cebpf4jnsgd1na2vs0mg"},{"bike_id":"53137f10-384f-4722-8f4b-28efb63c52ea","system_id":"levelo_inurba_marseille","lat":43.27988,"lon":5.41672,"is_reserved":false,"is_disabled":false,"rental_uris":{"android":"levelo://app?vid=53137f10-384f-4722-8f4b-28efb63c52ea","ios":"levelo://app?vid=53137f10-384f-4722-8f4b-28efb63c52ea"},"vehicle_type_id":"4","last_reported":1734084637,"current_range_meters":35200,"station_id":"ce4bho12rcd13ifvqh1g","pricing_plan_id":"cebpf4jnsgd1na2vs0mg"},{"bike_id":"919d3571-0425-4640-9cf9-03f52f255e02","system_id":"levelo_inurba_marseille","lat":43.26945,"lon":5.38642,"is_reserved":false,"is_disabled":false,"rental_uris":{"android":"levelo://app?vid=919d3571-0425-4640-9cf9-03f52f255e02","ios":"levelo://app?vid=919d3571-0425-4640-9cf9-03f52f255e02"},"vehicle_type_id":"4","last_reported":1734084637,"current_range_meters":12400,"station_id":"ce4bhh92rcd13ifvqfh0","pricing_plan_id":"cebpf4jnsgd1na2vs0mg"},{"bike_id":"c8f061b9-cdf8-456e-b591-d2629d387532","system_id":"levelo_inurba_marseille","lat":43.24082,"lon":5.37746,"is_reserved":false,"is_disabled":false,"rental_uris":{"android":"levelo://app?vid=c8f061b9-cdf8-456e-b591-d2629d387532","ios":"levelo://app?vid=c8f061b9-cdf8-456e-b591-d2629d387532"},"vehicle_type_id":"4","last_reported":1734084637,"current_range_meters":14800,"station_id":"ce4bhnp2rcd13ifvqgvg","pricing_plan_id":"cebpf4jnsgd1na2vs0mg"},{"bike_id":"8a4df873-34b9-404c-9abe-d5e162e12685","system_id":"levelo_inurba_marseille","lat":43.28713,"lon":5.37956,"is_reserved":false,"is_disabled":false,"rental_uris":{"android":"levelo://app?vid=8a4df873-34b9-404c-9abe-d5e162e12685","ios":"levelo://app?vid=8a4df873-34b9-404c-9abe-d5e162e12685"},"vehicle_type_id":"4","last_reported":1734084637,"current_range_meters":29600,"station_id":"ce4bh9p2rcd13ifvqec0","pricing_plan_id":"cebpf4jnsgd1na2vs0mg"},{"bike_id":"69ef6e13-6d74-4067-a25e-0d94d6f9f54f","system_id":"levelo_inurba_marseille","lat":43.25577,"lon":5.38237,"is_reserved":false,"is_disabled":false,"rental_uris":{"android":"levelo://app?vid=69ef6e13-6d74-4067-a25e-0d94d6f9f54f","ios":"levelo://app?vid=69ef6e13-6d74-4067-a25e-0d94d6f9f54f"},"vehicle_type_id":"4","last_reported":1734084637,"current_range_meters":37600,"station_id":"ce4bhih2rcd13ifvqfs0","pricing_plan_id":"cebpf4jnsgd1na2vs0mg"},{"bike_id":"9c51598c-968e-48b4-81b9-e35f67cfa712","system_id":"levelo_inurba_marseille","lat":43.28456,"lon":5.35881,"is_reserved":false,"is_disabled":false,"rental_uris":{"android":"levelo://app?vid=9c51598c-968e-48b4-81b9-e35f67cfa712","ios":"levelo://app?vid=9c51598c-968e-48b4-81b9-e35f67cfa712"},"vehicle_type_id":"4","last_reported":1734084637,"current_range_meters":36800,"station_id":"ce4bhah2rcd13ifvqei0","pricing_plan_id":"cebpf4jnsgd1na2vs0mg"},{"bike_id":"f59b8059-8f3f-46ac-b492-7c47ad80f721","system_id":"levelo_inurba_marseille","lat":43.28607,"lon":5.37064,"is_reserved":false,"is_disabled":true,"rental_uris":{"android":"levelo://app?vid=f59b8059-8f3f-46ac-b492-7c47ad80f721","ios":"levelo://app?vid=f59b8059-8f3f-46ac-b492-7c47ad80f721"},"vehicle_type_id":"4","last_reported":1734084637,"current_range_meters":38800,"station_id":"ce4bht12rcd13ifvqi60","pricing_plan_id":"cebpf4jnsgd1na2vs0mg"},{"bike_id":"2448f112-093b-44a4-8c49-c482af2ba024","system_id":"levelo_inurba_marseille","lat":43.23077,"lon":5.35494,"is_reserved":false,"is_disabled":false,"rental_uris":{"android":"levelo://app?vid=2448f112-093b-44a4-8c49-c482af2ba024","ios":"levelo://app?vid=2448f112-093b-44a4-8c49-c482af2ba024"},"vehicle_type_id":"4","last_reported":1734084637,"current_range_meters":27200,"station_id":"cpo3342slgdg3j2ifvpg","pricing_plan_id":"cebpf4jnsgd1na2vs0mg"},{"bike_id":"4eb4de63-fb4a-4730-a45d-a4cb07186670","system_id":"levelo_inurba_marseille","lat":43.3014,"lon":5.37414,"is_reserved":false,"is_disabled":false,"rental_uris":{"android":"levelo://app?vid=4eb4de63-fb4a-4730-a45d-a4cb07186670","ios":"levelo://app?vid=4eb4de63-fb4a-4730-a45d-a4cb07186670"},"vehicle_type_id":"4","last_reported":1734084637,"current_range_meters":24000,"station_id":"ce4bgs92rcd13ifvqcc0","pricing_plan_id":"cebpf4jnsgd1na2vs0mg"},{"bike_id":"ab08005d-bf1d-47fb-af7d-90191ffb317a","system_id":"levelo_inurba_marseille","lat":43.29292,"lon":5.37445,"is_reserved":false,"is_disabled":false,"rental_uris":{"android":"levelo://app?vid=ab08005d-bf1d-47fb-af7d-90191ffb317a","ios":"levelo://app?vid=ab08005d-bf1d-47fb-af7d-90191ffb317a"},"vehicle_type_id":"4","last_reported":1734084637,"current_range_meters":39200,"station_id":"ce4bgi12rcd13ifvqb70","pricing_plan_id":"cebpf4jnsgd1na2vs0mg"},