{"last_updated":1690222219,"ttl":30,"version":"2.2","data":{"bikes":[{"bike_id":"cc8c60f0-aa84-42b5-a961-0c6e5412b9c4","system_id":"levelo_inurba_marseille","lat":43.312239,"lon":5.368562,"is_reserved":false,"is_disabled":false,"rental_uris":{"android":"levelo://app?vid=cc8c60f0-aa84-42b5-a961-0c6e5412b9c4","ios":"levelo://app?vid=cc8c60f0-aa84-42b5-a961-0c6e5412b9c4"},"vehicle_type_id":"4","last_reported":1690222219,"current_range_meters":31600,"station_id":"ce4bgl92rcd13ifvqbq0","pricing_plan_id":"free"},{"bike_id":"c3feff2e-6999-42b4-9119-f12ffca6613f","system_id":"levelo_inurba_marseille","lat":43.309076,"lon":5.368465,"is_reserved":false,"is_disabled":false,"rental_uris":{"android":"levelo://app?vid=c3feff2e-6999-42b4-9119-f12ffca6613f","ios":"levelo://app?vid=c3feff2e-6999-42b4-9119-f12ffca6613f"},"vehicle_type_id":"4","last_reported":1690222219,"current_range_meters":14000,"station_id":"ce4bgn92rcd13ifvqbvg","pricing_plan_id":"free"},{"bike_id":"2cc1183b-6748-487b-95f6-5085456108a3","system_id":"levelo_inurba_marseille","lat":43.3149,"lon":5.37304,"is_reserved":false,"is_disabled":false,"rental_uris":{"android":"levelo://app?vid=2cc1183b-6748-487b-95f6-5085456108a3","ios":"levelo://app?vid=2cc1183b-6748-487b-95f6-5085456108a3"},"vehicle_type_id":"4","last_reported":1690222219,"current_range_meters":28800,"station_id":"ce4bgt12rcd13ifvqcd0","pricing_plan_id":"free"},{"bike_id":"db8aafdf-dfbe-4cbd-b2a1-d1a69c578c02","system_id":"levelo_inurba_marseille","lat":43.30891,"lon":5.3719,"is_reserved":false,"is_disabled":false,"rental_uris":{"android":"levelo://app?vid=db8aafdf-dfbe-4cbd-b2a1-d1a69c578c02","ios":"levelo://app?vid=db8aafdf-dfbe-4cbd-b2a1-d1a69c578c02"},"vehicle_type_id":"4","last_reported":1690222219,"current_range_meters":9600,"station_id":"ce4bguh2rcd13ifvqckg","pricing_plan_id":"free"},{"bike_id":"2aa49445-c7d2-4066-a023-d9426e405aa3","system_id":"levelo_inurba_marseille","lat":43.30879,"lon":5.3718,"is_reserved":false,"is_disabled":false,"rental_uris":{"android":"levelo://app?vid=2aa49445-c7d2-4066-a023-d9426e405aa3","ios":"levelo://app?vid=2aa49445-c7d2-4066-a023-d9426e405aa3"},"vehicle_type_id":"4","last_reported":1690222219,"current_range_meters":0,"station_id":"ce4bguh2rcd13ifvqckg","pricing_plan_id":"free"},{"bike_id":"7b31ae41-a2c4-4ab7-b8f2-4ffa0c8bbab1","system_id":"levelo_inurba_marseille","lat":43.305368,"lon":5.367343,"is_reserved":false,"is_disabled":false,"rental_uris":{"android":"levelo://app?vid=7b31ae41-a2c4-4ab7-b8f2-4ffa0c8bbab1","ios":"levelo://app?vid=7b31ae41-a2c4-4ab7-b8f2-4ffa0c8bbab1"},"vehicle_type_id":"4","last_reported":1690222219,"current_range_meters":0,"station_id":"ce4bgrp2rcd13ifvqc9g","pricing_plan_id":"free"},{"bike_id":"03128d8a-47cb-4a46-9148-281491f042f4","system_id":"levelo_inurba_marseille","lat":43.30539,"lon":5.36547,"is_reserved":false,"is_disabled":false,"rental_uris":{"android":"levelo://app?vid=03128d8a-47cb-4a46-9148-281491f042f4","ios":"levelo://app?vid=03128d8a-47cb-4a46-9148-281491f042f4"},"vehicle_type_id":"4","last_reported":1690222219,"current_range_meters":28800,"station_id":"ce4bgs12rcd13ifvqcag","pricing_plan_id":"free"},{"bike_id":"d562688e-c132-4a2b-9080-37129dc5cf62","system_id":"levelo_inurba_marseille","lat":43.31111,"lon":5.37765,"is_reserved":false,"is_disabled":false,"rental_uris":{"android":"levelo://app?vid=d562688e-c132-4a2b-9080-37129dc5cf62","ios":"levelo://app?vid=d562688e-c132-4a2b-9080-37129dc5cf62"},"vehicle_type_id":"4","last_reported":1690222219,"current_range_meters":22400,"station_id":"ce4bgt92rcd13ifvqcg0","pricing_plan_id":"free"},{"bike_id":"45869fba-3422-42a2-bdc0-5648eceeb42e","system_id":"levelo_inurba_marseille","lat":43.311125,"lon":5.377624,"is_reserved":false,"is_disabled":false,"rental_uris":{"android":"levelo://app?vid=45869fba-3422-42a2-bdc0-5648eceeb42e","ios":"levelo://app?vid=45869fba-3422-42a2-bdc0-5648eceeb42e"},"vehicle_type_id":"4","last_reported":1690222219,"current_range_meters":30000,"station_id":"ce4bgt92rcd13ifvqcg0","pricing_plan_id":"free"},{"bike_id":"377b082c-84d6-4c12-92da-ac4410c1006b","system_id":"levelo_inurba_marseille","lat":43.31118,"lon":5.37782,"is_reserved":false,"is_disabled":false,"rental_uris":{"android":"levelo://app?vid=377b082c-84d6-4c12-92da-ac4410c1006b","ios":"levelo://app?vid=377b082c-84d6-4c12-92da-ac4410c1006b"},"vehicle_type_id":"4","last_reported":1690222219,"current_range_meters":30800,"station_id":"ce4bgt92rcd13ifvqcg0","pricing_plan_id":"free"},{"bike_id":"a674cb1f-b787-4d42-aff6-1056df85d62e","system_id":"levelo_inurba_marseille","lat":43.307945,"lon":5.376487,"is_reserved":false,"is_disabled":false,"rental_uris":{"android":"levelo://app?vid=a674cb1f-b787-4d42-aff6-1056df85d62e","ios":"levelo://app?vid=a674cb1f-b787-4d42-aff6-1056df85d62e"},"vehicle_type_id":"4","last_reported":1690222219,"current_range_meters":0,"station_id":"ce4bgv92rcd13ifvqcq0","pricing_plan_id":"free"},{"bike_id":"a2e136f1-c728-4018-88c2-a46aa30aa3c2","system_id":"levelo_inurba_marseille","lat":43.30322,"lon":5.36891,"is_reserved":false,"is_disabled":false,"rental_uris":{"android":"levelo://app?vid=a2e136f1-c728-4018-88c2-a46aa30aa3c2","ios":"levelo://app?vid=a2e136f1-c728-4018-88c2-a46aa30aa3c2"},"vehicle_type_id":"4","last_reported":1690222219,"current_range_meters":9200,"station_id":"ce4bgqh2rcd13ifvqc5g","pricing_plan_id":"free"},{"bike_id":"67812fa7-dd51-4255-b7ce-a113fdefbbf5","system_id":"levelo_inurba_marseille","lat":43.31529,"lon":5.38025,"is_reserved":false,"is_disabled":false,"rental_uris":{"android":"levelo://app?vid=67812fa7-dd51-4255-b7ce-a113fdefbbf5","ios":"levelo://app?vid=67812fa7-dd51-4255-b7ce-a113fdefbbf5"},"vehicle_type_id":"4","last_reported":1690222219,"current_range_meters":21200,"station_id":"ce4bhsp2rcd13ifvqi50","pricing_plan_id":"free"},{"bike_id":"b11a0bca-1c80-4677-b2e3-9ea54f025fe1","system_id":"levelo_inurba_marseille","lat":43.308012,"lon":5.381511,"is_reserved":false,"is_disabled":false,"rental_uris":{"android":"levelo://app?vid=b11a0bca-1c80-4677-b2e3-9ea54f025fe1","ios":"levelo://app?vid=b11a0bca-1c80-4677-b2e3-9ea54f025fe1"},"vehicle_type_id":"4","last_reported":1690222219,"current_range_meters":25600,"station_id":"ce4bgt12rcd13ifvqce0","pricing_plan_id":"free"},{"bike_id":"0c451e27-dba6-4add-8ae8-f1e3a7703ee1","system_id":"levelo_inurba_marseille","lat":43.308012,"lon":5.381511,"is_reserved":false,"is_disabled":false,"rental_uris":{"android":"levelo://app?vid=0c451e27-dba6-4add-8ae8-f1e3a7703ee1","ios":"levelo://app?vid=0c451e27-dba6-4add-8ae8-f1e3a7703ee1"},"vehicle_type_id":"4","last_reported":1690222219,"current_range_meters":0,"station_id":"ce4bgt12rcd13ifvqce0","pricing_plan_id":"free"},{"bike_id":"2676cdef-e21e-4327-99e9-26e32120b670","system_id":"levelo_inurba_marseille","lat":43.30464,"lon":5.37905,"is_reserved":false,"is_disabled":false,"rental_uris":{"android":"levelo://app?vid=2676cdef-e21e-4327-99e9-26e32120b670","ios":"levelo://app?vid=2676cdef-e21e-4327-99e9-26e32120b670"},"vehicle_type_id":"4","last_reported":1690222219,"current_range_meters":13200,"station_id":"ce4bgup2rcd13ifvqcn0","pricing_plan_id":"free"},{"bike_id":"ab8cb21c-4f34-4dfe-b5fb-0219e70ae64e","system_id":"levelo_inurba_marseille","lat":43.30163,"lon":5.37359,"is_reserved":false,"is_disabled":false,"rental_uris":{"android":"levelo://app?vid=ab8cb21c-4f34-4dfe-b5fb-0219e70ae64e","ios":"levelo://app?vid=ab8cb21c-4f34-4dfe-b5fb-0219e70ae64e"},"vehicle_type_id":"4","last_reported":1690222219,"current_range_meters":8400,"station_id":"","pricing_plan_id":"free"},{"bike_id":"a46aba59-3cf9-4cfc-a747-75016910504f","system_id":"levelo_inurba_marseille","lat":43.30283,"lon":5.37696,"is_reserved":false,"is_disabled":false,"rental_uris":{"android":"levelo://app?vid=a46aba59-3cf9-4cfc-a747-75016910504f","ios":"levelo://app?vid=a46aba59-3cf9-4cfc-a747-75016910504f"},"vehicle_type_id":"4","last_reported":1690222219,"current_range_meters":22800,"station_id":"ce4bguh2rcd13ifvqcj0","pricing_plan_id":"free"},{"bike_id":"8e1e3059-babe-443d-bbc7-8e6cfe336b64","system_id":"levelo_inurba_marseille","lat":43.30277,"lon":5.37714,"is_reserved":false,"is_disabled":false,"rental_uris":{"android":"levelo://app?vid=8e1e3059-babe-443d-bbc7-8e6cfe336b64","ios":"levelo://app?vid=8e1e3059-babe-443d-bbc7-8e6cfe336b64"},"vehicle_type_id":"4","last_reported":1690222219,"current_range_meters":11200,"station_id":"ce4bguh2rcd13ifvqcj0","pricing_plan_id":"free"},{"bike_id":"09ab96e6-a072-4a4a-9f42-2b1fe952c749","system_id":"levelo_inurba_marseille","lat":43.313571,"lon":5.384829,"is_reserved":false,"is_disabled":false,"rental_uris":{"android":"levelo://app?vid=09ab96e6-a072-4a4a-9f42-2b1fe952c749","ios":"levelo://app?vid=09ab96e6-a072-4a4a-9f42-2b1fe952c749"},"vehicle_type_id":"4","last_reported":1690222219,"current_range_meters":28400,"station_id":"ce4bgt92rcd13ifvqcf0","pricing_plan_id":"free"},{"bike_id":"64b3ccdd-3259-4b7d-9dd8-1fbab834617a","system_id":"levelo_inurba_marseille","lat":43.29944,"lon":5.36561,"is_reserved":false,"is_disabled":false,"rental_uris":{"android":"levelo://app?vid=64b3ccdd-3259-4b7d-9dd8-1fbab834617a","ios":"levelo://app?vid=64b3ccdd-3259-4b7d-9dd8-1fbab834617a"},"vehicle_type_id":"4","last_reported":1690222219,"current_range_meters":25600,"station_id":"ce4bgm92rcd13ifvqbr0","pricing_plan_id":"free"},{"bike_id":"24d6e9aa-b1b0-495f-a393-ec46034b4021","system_id":"levelo_inurba_marseille","lat":43.305364,"lon":5.384119,"is_reserved":false,"is_disabled":false,"rental_uris":{"android":"levelo://app?vid=24d6e9aa-b1b0-495f-a393-ec46034b4021","ios":"levelo://app?vid=24d6e9aa-b1b0-495f-a393-ec46034b4021"},"vehicle_type_id":"4","last_reported":1690222219,"current_range_meters":6800,"station_id":"ce4bgg92rcd13ifvqb30","pricing_plan_id":"free"},{"bike_id":"8b4570f7-d487-4a4a-8e32-81deed5aa610","system_id":"levelo_inurba_marseille","lat":43.298433,"lon":5.362774,"is_reserved":false,"is_disabled":false,"rental_uris":{"android":"levelo://app?vid=8b4570f7-d487-4a4a-8e32-81deed5aa610","ios":"levelo://app?vid=8b4570f7-d487-4a4a-8e32-81deed5aa610"},"vehicle_type_id":"4","last_reported":1690222219,"current_range_meters":10000,"station_id":"ce4bgpp2rcd13ifvqc3g","pricing_plan_id":"free"},{"bike_id":"443ebf2d-eac4-4afe-bb3a-457a47fbf96e","system_id":"levelo_inurba_marseille","lat":43.298492,"lon":5.362857,"is_reserved":false,"is_disabled":false,"rental_uris":{"android":"levelo://app?vid=443ebf2d-eac4-4afe-bb3a-457a47fbf96e","ios":"levelo://app?vid=443ebf2d-eac4-4afe-bb3a-457a47fbf96e"},"vehicle_type_id":"4","last_reported":1690222219,"current_range_meters":31600,"station_id":"ce4bgpp2rcd13ifvqc3g","pricing_plan_id":"free"},{"bike_id":"29ba370d-1946-45d3-a37e-a6cb43b03dcb","system_id":"levelo_inurba_marseille","lat":43.298433,"lon":5.362774,"is_reserved":false,"is_disabled":false,"rental_uris":{"android":"levelo://app?vid=29ba370d-1946-45d3-a37e-a6cb43b03dcb","ios":"levelo://app?vid=29ba370d-1946-45d3-a37e-a6cb43b03dcb"},"vehicle_type_id":"4","last_reported":1690222219,"current_range_meters":16000,"station_id":"ce4bgpp2rcd13ifvqc3g","pricing_plan_id":"free"},{"bike_id":"8c9a18c6-57e3-422f-981e-4f49f1d4d6b0","system_id":"levelo_inurba_marseille","lat":43.298433,"lon":5.362774,"is_reserved":false,"is_disabled":false,"rental_uris":{"android":"levelo://app?vid=8c9a18c6-57e3-422f-981e-4f49f1d4d6b0","ios":"levelo://app?vid=8c9a18c6-57e3-422f-981e-4f49f1d4d6b0"},"vehicle_type_id":"4","last_reported":1690222219,"current_range_meters":31200,"station_id":"ce4bgpp2rcd13ifvqc3g","pricing_plan_id":"free"},{"bike_id":"93b54ff2-59e3-4b88-9b05-3e2d32760bbf","system_id":"levelo_inurba_marseille","lat":43.305364,"lon":5.384119,"is_reserved":false,"is_disabled":false,"rental_uris":{"android":"levelo://app?vid=93b54ff2-59e3-4b88-9b05-3e2d32760bbf","ios":"levelo://app?vid=93b54ff2-59e3-4b88-9b05-3e2d32760bbf"},"vehicle_type_id":"4","last_reported":1690222219,"current_range_meters":2800,"station_id":"ce4bgg92rcd13ifvqb30","pricing_plan_id":"free"},{"bike_id":"18c8cde6-9bf0-4444-8be1-4d5d326b7053","system_id":"levelo_inurba_marseille","lat":43.311722,"lon":5.387247,"is_reserved":false,"is_disabled":false,"rental_uris":{"android":"levelo://app?vid=18c8cde6-9bf0-4444-8be1-4d5d326b7053","ios":"levelo://app?vid=18c8cde6-9bf0-4444-8be1-4d5d326b7053"},"vehicle_type_id":"4","last_reported":1690222219,"current_range_meters":15600,"station_id":"ce4bgv12rcd13ifvqcp0","pricing_plan_id":"free"},{"bike_id":"a6e535d2-4edd-4ea4-a81f-3999fab24549","system_id":"levelo_inurba_marseille","lat":43.322872,"lon":5.382756,"is_reserved":false,"is_disabled":false,"rental_uris":{"android":"levelo://app?vid=a6e535d2-4edd-4ea4-a81f-3999fab24549","ios":"levelo://app?vid=a6e535d2-4edd-4ea4-a81f-3999fab24549"},"vehicle_type_id":"4","last_reported":1690222219,"current_range_meters":29200,"station_id":"ce4bhr12rcd13ifvqhqg","pricing_plan_id":"free"},{"bike_id":"7cf8300b-ea34-4969-9e25-33bf8acdaea0","system_id":"levelo_inurba_marseille","lat":43.322924,"lon":5.382581,"is_reserved":false,"is_disabled":false,"rental_uris":{"android":"levelo://app?vid=7cf8300b-ea34-4969-9e25-33bf8acdaea0","ios":"levelo://app?vid=7cf8300b-ea34-4969-9e25-33bf8acdaea0"},"vehicle_type_id":"4","last_reported":1690222219,"current_range_meters":400,"station_id":"","pricing_plan_id":"free"},{"bike_id":"21f797af-f51b-4ce0-aa86-b150f8c8a2c3","system_id":"levelo_inurba_marseille","lat":43.32296,"lon":5.38267,"is_reserved":false,"is_disabled":false,"rental_uris":{"android":"levelo://app?vid=21f797af-f51b-4ce0-aa86-b150f8c8a2c3","ios":"levelo://app?vid=21f797af-f51b-4ce0-aa86-b150f8c8a2c3"},"vehicle_type_id":"4","last_reported":1690222219,"current_range_meters":21600,"station_id":"ce4bhr12rcd13ifvqhqg","pricing_plan_id":"free"},{"bike_id":"be50c5b9-e20a-4c98-9db7-cc160cffd554","system_id":"levelo_inurba_marseille","lat":43.3229,"lon":5.38277,"is_reserved":false,"is_disabled":false,"rental_uris":{"android":"levelo://app?vid=be50c5b9-e20a-4c98-9db7-cc160cffd554","ios":"levelo://app?vid=be50c5b9-e20a-4c98-9db7-cc160cffd554"},"vehicle_type_id":"4","last_reported":1690222219,"current_range_meters":29200,"station_id":"ce4bhr12rcd13ifvqhqg","pricing_plan_id":"free"},{"bike_id":"60fd52b0-b11d-4c12-a679-e2a0ec487b61","system_id":"levelo_inurba_marseille","lat":43.30116,"lon":5.38081,"is_reserved":false,"is_disabled":false,"rental_uris":{"android":"levelo://app?vid=60fd52b0-b11d-4c12-a679-e2a0ec487b61","ios":"levelo://app?vid=60fd52b0-b11d-4c12-a679-e2a0ec487b61"},"vehicle_type_id":"4","last_reported":1690222219,"current_range_meters":22800,"station_id":"","pricing_plan_id":"free"},{"bike_id":"34054e72-7c92-4702-aad8-52b1993c870b","system_id":"levelo_inurba_marseille","lat":43.328371,"lon":5.366909,"is_reserved":false,"is_disabled":false,"rental_uris":{"android":"levelo://app?vid=34054e72-7c92-4702-aad8-52b1993c870b","ios":"levelo://app?vid=34054e72-7c92-4702-aad8-52b1993c870b"},"vehicle_type_id":"4","last_reported":1690222219,"current_range_meters":6800,"station_id":"ce4bhs92rcd13ifvqi0g","pricing_plan_id":"free"},{"bike_id":"3916e407-8c11-4a2b-8e00-1d25f7bfdca8","system_id":"levelo_inurba_marseille","lat":43.297163,"lon":5.365866,"is_reserved":false,"is_disabled":false,"rental_uris":{"android":"levelo://app?vid=3916e407-8c11-4a2b-8e00-1d25f7bfdca8","ios":"levelo://app?vid=3916e407-8c11-4a2b-8e00-1d25f7bfdca8"},"vehicle_type_id":"4","last_reported":1690222219,"current_range_meters":31200,"station_id":"ce4bgn12rcd13ifvqbt0","pricing_plan_id":"free"},{"bike_id":"5fa56686-1249-4bcf-85d7-e508d22b9b0a","system_id":"levelo_inurba_marseille","lat":43.29593,"lon":5.36732,"is_reserved":false,"is_disabled":false,"rental_uris":{"android":"levelo://app?vid=5fa56686-1249-4bcf-85d7-e508d22b9b0a","ios":"levelo://app?vid=5fa56686-1249-4bcf-85d7-e508d22b9b0a"},"vehicle_type_id":"4","last_reported":1690222219,"current_range_meters":1600,"station_id":"ce4bgph2rcd13ifvqc2g","pricing_plan_id":"free"},{"bike_id":"a3b340d6-05f6-4ed1-90bd-b7cff12633fb","system_id":"levelo_inurba_marseille","lat":43.29625,"lon":5.37166,"is_reserved":false,"is_disabled":false,"rental_uris":{"android":"levelo://app?vid=a3b340d6-05f6-4ed1-90bd-b7cff12633fb","ios":"levelo://app?vid=a3b340d6-05f6-4ed1-90bd-b7cff12633fb"},"vehicle_type_id":"4","last_reported":1690222219,"current_range_meters":9200,"station_id":"","pricing_plan_id":"free"},{"bike_id":"6bfa5310-3d5f-432b-a4bc-dfe2afad9cdf","system_id":"levelo_inurba_marseille","lat":43.29582,"lon":5.36738,"is_reserved":false,"is_disabled":false,"rental_uris":{"android":"levelo://app?vid=6bfa5310-3d5f-432b-a4bc-dfe2afad9cdf","ios":"levelo://app?vid=6bfa5310-3d5f-432b-a4bc-dfe2afad9cdf"},"vehicle_type_id":"4","last_reported":1690222219,"current_range_meters":24000,"station_id":"ce4bgph2rcd13ifvqc2g","pricing_plan_id":"free"},{"bike_id":"7b41cafb-0668-42a7-90e6-54cd9476479a","system_id":"levelo_inurba_marseille","lat":43.295804,"lon":5.367374,"is_reserved":false,"is_disabled":false,"rental_uris":{"android":"levelo://app?vid=7b41cafb-0668-42a7-90e6-54cd9476479a","ios":"levelo://app?vid=7b41cafb-0668-42a7-90e6-54cd9476479a"},"vehicle_type_id":"4","last_reported":1690222219,"current_range_meters":24800,"station_id":"","pricing_plan_id":"free"},{"bike_id":"ba4dc72c-c068-43dd-92db-34c01823a016","system_id":"levelo_inurba_marseille","lat":43.309589,"lon":5.390258,"is_reserved":false,"is_disabled":false,"rental_uris":{"android":"levelo://app?vid=ba4dc72c-c068-43dd-92db-34c01823a016","ios":"levelo://app?vid=ba4dc72c-c068-43dd-92db-34c01823a016"},"vehicle_type_id":"4","last_reported":1690222219,"current_range_meters":5600,"station_id":"ce4bgup2rcd13ifvqco0","pricing_plan_id":"free"},{"bike_id":"c6fa1f4a-93c3-457d-8328-be6a9dc65cb6","system_id":"levelo_inurba_marseille","lat":43.29636,"lon":5.37482,"is_reserved":false,"is_disabled":false,"rental_uris":{"android":"levelo://app?vid=c6fa1f4a-93c3-457d-8328-be6a9dc65cb6","ios":"levelo://app?vid=c6fa1f4a-93c3-457d-8328-be6a9dc65cb6"},"vehicle_type_id":"4","last_reported":1690222219,"current_range_meters":31600,"station_id":"ce4bgkp2rcd13ifvqbmg","pricing_plan_id":"free"},{"bike_id":"c7b46059-e23a-486e-9f31-7c0c8a534a13","system_id":"levelo_inurba_marseille","lat":43.317557,"lon":5.390173,"is_reserved":false,"is_disabled":false,"rental_uris":{"android":"levelo://app?vid=c7b46059-e23a-486e-9f31-7c0c8a534a13","ios":"levelo://app?vid=c7b46059-e23a-486e-9f31-7c0c8a534a13"},"vehicle_type_id":"4","last_reported":1690222219,"current_range_meters":31200,"station_id":"ce4bhqp2rcd13ifvqhng","pricing_plan_id":"free"},{"bike_id":"c49a7f68-723c-4368-b62c-572283447993","system_id":"levelo_inurba_marseille","lat":43.31761,"lon":5.39012,"is_reserved":false,"is_disabled":false,"rental_uris":{"android":"levelo://app?vid=c49a7f68-723c-4368-b62c-572283447993","ios":"levelo://app?vid=c49a7f68-723c-4368-b62c-572283447993"},"vehicle_type_id":"4","last_reported":1690222219,"current_range_meters":18800,"station_id":"ce4bhqp2rcd13ifvqhng","pricing_plan_id":"free"},{"bike_id":"ae89ade8-7405-4cea-8b4a-29e2843bfd81","system_id":"levelo_inurba_marseille","lat":43.31759,"lon":5.39016,"is_reserved":false,"is_disabled":false,"rental_uris":{"android":"levelo://app?vid=ae89ade8-7405-4cea-8b4a-29e2843bfd81","ios":"levelo://app?vid=ae89ade8-7405-4cea-8b4a-29e2843bfd81"},"vehicle_type_id":"4","last_reported":1690222219,"current_range_meters":30000,"station_id":"ce4bhqp2rcd13ifvqhng","pricing_plan_id":"free"},{"bike_id":"d81e9621-061f-4523-b740-358018303aa1","system_id":"levelo_inurba_marseille","lat":43.2978,"lon":5.38098,"is_reserved":false,"is_disabled":false,"rental_uris":{"android":"levelo://app?vid=d81e9621-061f-4523-b740-358018303aa1","ios":"levelo://app?vid=d81e9621-061f-4523-b740-358018303aa1"},"vehicle_type_id":"4","last_reported":1690222219,"current_range_meters":4400,"station_id":"ce4bgip2rcd13ifvqbb0","pricing_plan_id":"free"},{"bike_id":"9af5a282-4091-4ae8-8f4d-32220db8abc7","system_id":"levelo_inurba_marseille","lat":43.304274,"lon":5.388873,"is_reserved":false,"is_disabled":false,"rental_uris":{"android":"levelo://app?vid=9af5a282-4091-4ae8-8f4d-32220db8abc7","ios":"levelo://app?vid=9af5a282-4091-4ae8-8f4d-32220db8abc7"},"vehicle_type_id":"4","last_reported":1690222219,"current_range_meters":25200,"station_id":"ce4bgk12rcd13ifvqbi0","pricing_plan_id":"free"},{"bike_id":"4493f8b7-cd99-493b-bede-b81f0b61ad0b","system_id":"levelo_inurba_marseille","lat":43.299724,"lon":5.384848,"is_reserved":false,"is_disabled":false,"rental_uris":{"android":"levelo://app?vid=4493f8b7-cd99-493b-bede-b81f0b61ad0b","ios":"levelo://app?vid=4493f8b7-cd99-493b-bede-b81f0b61ad0b"},"vehicle_type_id":"4","last_reported":1690222219,"current_range_meters":10000,"station_id":"ce4bgj92rcd13ifvqbd0","pricing_plan_id":"free"},{"bike_id":"09014823-2f55-479e-89a3-b9ea92d911c6","system_id":"levelo_inurba_marseille","lat":43.32369,"lon":5.38868,"is_reserved":false,"is_disabled":false,"rental_uris":{"android":"levelo://app?vid=09014823-2f55-479e-89a3-b9ea92d911c6","ios":"levelo://app?vid=09014823-2f55-479e-89a3-b9ea92d911c6"},"vehicle_type_id":"4","last_reported":1690222219,"current_range_meters":31200,"station_id":"ce4bhqp2rcd13ifvqhog","pricing_plan_id":"free"},{"bike_id":"453f3dcf-6ba6-4819-b5f2-0c567b9c1185","system_id":"levelo_inurba_marseille","lat":43.32364,"lon":5.38873,"is_reserved":false,"is_disabled":false,"rental_uris":{"android":"levelo://app?vid=453f3dcf-6ba6-4819-b5f2-0c567b9c1185","ios":"levelo://app?vid=453f3dcf-6ba6-4819-b5f2-0c567b9c1185"},"vehicle_type_id":"4","last_reported":1690222219,"current_range_meters":7600,"station_id":"ce4bhqp2rcd13ifvqhog","pricing_plan_id":"free"},{"bike_id":"404fdd21-e55e-4101-b07c-2a3b5dbd8caa","system_id":"levelo_inurba_marseille","lat":43.32363,"lon":5.38874,"is_reserved":false,"is_disabled":false,"rental_uris":{"android":"levelo://app?vid=404fdd21-e55e-4101-b07c-2a3b5dbd8caa","ios":"levelo://app?vid=404fdd21-e55e-4101-b07c-2a3b5dbd8caa"},"vehicle_type_id":"4","last_reported":1690222219,"current_range_meters":13600,"station_id":"ce4bhqp2rcd13ifvqhog","pricing_plan_id":"free"},{"bike_id":"28b80635-5710-4a8b-9bc7-52106782f5ef","system_id":"levelo_inurba_marseille","lat":43.32364,"lon":5.38876,"is_reserved":false,"is_disabled":false,"rental_uris":{"android":"levelo://app?vid=28b80635-5710-4a8b-9bc7-52106782f5ef","ios":"levelo://app?vid=28b80635-5710-4a8b-9bc7-52106782f5ef"},"vehicle_type_id":"4","last_reported":1690222219,"current_range_meters":21600,"station_id":"ce4bhqp2rcd13ifvqhog","pricing_plan_id":"free"},{"bike_id":"c69d656e-c28c-4a19-938d-5ee3be2a5249","system_id":"levelo_inurba_marseille","lat":43.32366,"lon":5.38884,"is_reserved":false,"is_disabled":false,"rental_uris":{"android":"levelo://app?vid=c69d656e-c28c-4a19-938d-5ee3be2a5249","ios":"levelo://app?vid=c69d656e-c28c-4a19-938d-5ee3be2a5249"},"vehicle_type_id":"4","last_reported":1690222219,"current_range_meters":21200,"station_id":"ce4bhqp2rcd13ifvqhog","pricing_plan_id":"free"},{"bike_id":"ba255296-b012-440c-a4ac-a04d7dedcd78","system_id":"levelo_inurba_marseille","lat":43.3237,"lon":5.3889,"is_reserved":false,"is_disabled":false,"rental_uris":{"android":"levelo://app?vid=ba255296-b012-440c-a4ac-a04d7dedcd78","ios":"levelo://app?vid=ba255296-b012-440c-a4ac-a04d7dedcd78"},"vehicle_type_id":"4","last_reported":1690222219,"current_range_meters":28800,"station_id":"ce4bhqp2rcd13ifvqhog","pricing_plan_id":"free"},{"bike_id":"a1dfbca2-aad6-4ac1-aa1f-4be294047d24","system_id":"levelo_inurba_marseille","lat":43.29602,"lon":5.381084,"is_reserved":false,"is_disabled":false,"rental_uris":{"android":"levelo://app?vid=a1dfbca2-aad6-4ac1-aa1f-4be294047d24","ios":"levelo://app?vid=a1dfbca2-aad6-4ac1-aa1f-4be294047d24"},"vehicle_type_id":"4","last_reported":1690222219,"current_range_meters":17600,"station_id":"ce4bgl12rcd13ifvqbo0","pricing_plan_id":"free"},{"bike_id":"07ea740a-be00-4a28-8bb2-c39d1c33c659","system_id":"levelo_inurba_marseille","lat":43.29591,"lon":5.38104,"is_reserved":false,"is_disabled":false,"rental_uris":{"android":"levelo://app?vid=07ea740a-be00-4a28-8bb2-c39d1c33c659","ios":"levelo://app?vid=07ea740a-be00-4a28-8bb2-c39d1c33c659"},"vehicle_type_id":"4","last_reported":1690222219,"current_range_meters":18400,"station_id":"ce4bgl12rcd13ifvqbo0","pricing_plan_id":"free"},{"bike_id":"d4173472-082b-4d5f-b2fa-20d809e6a71a","system_id":"levelo_inurba_marseille","lat":43.293009,"lon":5.374584,"is_reserved":false,"is_disabled":false,"rental_uris":{"android":"levelo://app?vid=d4173472-082b-4d5f-b2fa-20d809e6a71a","ios":"levelo://app?vid=d4173472-082b-4d5f-b2fa-20d809e6a71a"},"vehicle_type_id":"4","last_reported":1690222219,"current_range_meters":13600,"station_id":"ce4bgi12rcd13ifvqb70","pricing_plan_id":"free"},{"bike_id":"a4b29549-e1c4-4a22-a239-34fb596b1717","system_id":"levelo_inurba_marseille","lat":43.30598,"lon":5.39351,"is_reserved":false,"is_disabled":false,"rental_uris":{"android":"levelo://app?vid=a4b29549-e1c4-4a22-a239-34fb596b1717","ios":"levelo://app?vid=a4b29549-e1c4-4a22-a239-34fb596b1717"},"vehicle_type_id":"4","last_reported":1690222219,"current_range_meters":29200,"station_id":"ce4bh0p2rcd13ifvqd80","pricing_plan_id":"free"},{"bike_id":"65458586-d744-4f2e-b316-1dc952416fec","system_id":"levelo_inurba_marseille","lat":43.305994,"lon":5.393687,"is_reserved":false,"is_disabled":false,"rental_uris":{"android":"levelo://app?vid=65458586-d744-4f2e-b316-1dc952416fec","ios":"levelo://app?vid=65458586-d744-4f2e-b316-1dc952416fec"},"vehicle_type_id":"4","last_reported":1690222219,"current_range_meters":24000,"station_id":"ce4bh0p2rcd13ifvqd80","pricing_plan_id":"free"},{"bike_id":"351a1d84-3cb8-46a9-800f-b1ed6acf8386","system_id":"levelo_inurba_marseille","lat":43.30599,"lon":5.39359,"is_reserved":false,"is_disabled":false,"rental_uris":{"android":"levelo://app?vid=351a1d84-3cb8-46a9-800f-b1ed6acf8386","ios":"levelo://app?vid=351a1d84-3cb8-46a9-800f-b1ed6acf8386"},"vehicle_type_id":"4","last_reported":1690222219,"current_range_meters":0,"station_id":"ce4bh0p2rcd13ifvqd80","pricing_plan_id":"free"},{"bike_id":"271eff73-3747-449f-9ab1-6c5ab5f3c7f4","system_id":"levelo_inurba_marseille","lat":43.30588,"lon":5.39359,"is_reserved":false,"is_disabled":false,"rental_uris":{"android":"levelo://app?vid=271eff73-3747-449f-9ab1-6c5ab5f3c7f4","ios":"levelo://app?vid=271eff73-3747-449f-9ab1-6c5ab5f3c7f4"},"vehicle_type_id":"4","last_reported":1690222219,"current_range_meters":4400,"station_id":"ce4bh0p2rcd13ifvqd80","pricing_plan_id":"free"},{"bike_id":"b0b66aae-85f9-43d2-8951-b449cce0dbb2","system_id":"levelo_inurba_marseille","lat":43.305994,"lon":5.393687,"is_reserved":false,"is_disabled":false,"rental_uris":{"android":"levelo://app?vid=b0b66aae-85f9-43d2-8951-b449cce0dbb2","ios":"levelo://app?vid=b0b66aae-85f9-43d2-8951-b449cce0dbb2"},"vehicle_type_id":"4","last_reported":1690222219,"current_range_meters":13600,"station_id":"ce4bh0p2rcd13ifvqd80","pricing_plan_id":"free"},{"bike_id":"e40191b1-f9e0-448d-b169-96027e3579eb","system_id":"levelo_inurba_marseille","lat":43.303002,"lon":5.392142,"is_reserved":false,"is_disabled":false,"rental_uris":{"android":"levelo://app?vid=e40191b1-f9e0-448d-b169-96027e3579eb","ios":"levelo://app?vid=e40191b1-f9e0-448d-b169-96027e3579eb"},"vehicle_type_id":"4","last_reported":1690222219,"current_range_meters":11200,"station_id":"ce4bgkh2rcd13ifvqbk0","pricing_plan_id":"free"},{"bike_id":"63af00a3-a754-41e0-8748-786e5293f0f4","system_id":"levelo_inurba_marseille","lat":43.2936,"lon":5.37835,"is_reserved":false,"is_disabled":false,"rental_uris":{"android":"levelo://app?vid=63af00a3-a754-41e0-8748-786e5293f0f4","ios":"levelo://app?vid=63af00a3-a754-41e0-8748-786e5293f0f4"},"vehicle_type_id":"4","last_reported":1690222219,"current_range_meters":15200,"station_id":"ce4bgjh2rcd13ifvqbf0","pricing_plan_id":"free"},{"bike_id":"31ab41f0-d6d7-4a75-8f59-dfa233cf9c6a","system_id":"levelo_inurba_marseille","lat":43.29362,"lon":5.37839,"is_reserved":false,"is_disabled":false,"rental_uris":{"android":"levelo://app?vid=31ab41f0-d6d7-4a75-8f59-dfa233cf9c6a","ios":"levelo://app?vid=31ab41f0-d6d7-4a75-8f59-dfa233cf9c6a"},"vehicle_type_id":"4","last_reported":1690222219,"current_range_meters":0,"station_id":"ce4bgjh2rcd13ifvqbf0","pricing_plan_id":"free"},{"bike_id":"b5f36127-60ec-4f8d-b32d-f72173d12bd6","system_id":"levelo_inurba_marseille","lat":43.2936,"lon":5.37835,"is_reserved":false,"is_disabled":false,"rental_uris":{"android":"levelo://app?vid=b5f36127-60ec-4f8d-b32d-f72173d12bd6","ios":"levelo://app?vid=b5f36127-60ec-4f8d-b32d-f72173d12bd6"},"vehicle_type_id":"4","last_reported":1690222219,"current_range_meters":12800,"station_id":"ce4bgjh2rcd13ifvqbf0","pricing_plan_id":"free"},{"bike_id":"63d34800-934c-4a63-b50c-8680d9158704","system_id":"levelo_inurba_marseille","lat":43.292311,"lon":5.360731,"is_reserved":false,"is_disabled":false,"rental_uris":{"android":"levelo://app?vid=63d34800-934c-4a63-b50c-8680d9158704","ios":"levelo://app?vid=63d34800-934c-4a63-b50c-8680d9158704"},"vehicle_type_id":"4","last_reported":1690222219,"current_range_meters":8400,"station_id":"ce4bhbh2rcd13ifvqeqg","pricing_plan_id":"free"},{"bike_id":"c383bdd4-146c-482b-89ee-b633d1024d04","system_id":"levelo_inurba_marseille","lat":43.29227,"lon":5.36069,"is_reserved":false,"is_disabled":false,"rental_uris":{"android":"levelo://app?vid=c383bdd4-146c-482b-89ee-b633d1024d04","ios":"levelo://app?vid=c383bdd4-146c-482b-89ee-b633d1024d04"},"vehicle_type_id":"4","last_reported":1690222219,"current_range_meters":6000,"station_id":"ce4bhbh2rcd13ifvqeqg","pricing_plan_id":"free"},{"bike_id":"a3482635-afa1-4622-b3f6-87224f4973e2","system_id":"levelo_inurba_marseille","lat":43.30081,"lon":5.39079,"is_reserved":false,"is_disabled":false,"rental_uris":{"android":"levelo://app?vid=a3482635-afa1-4622-b3f6-87224f4973e2","ios":"levelo://app?vid=a3482635-afa1-4622-b3f6-87224f4973e2"},"vehicle_type_id":"4","last_reported":1690222219,"current_range_meters":29600,"station_id":"ce4bh192rcd13ifvqdb0","pricing_plan_id":"free"},{"bike_id":"e2660bf9-9c57-471a-a9e0-c372aed11541","system_id":"levelo_inurba_marseille","lat":43.298764,"lon":5.388973,"is_reserved":false,"is_disabled":false,"rental_uris":{"android":"levelo://app?vid=e2660bf9-9c57-471a-a9e0-c372aed11541","ios":"levelo://app?vid=e2660bf9-9c57-471a-a9e0-c372aed11541"},"vehicle_type_id":"4","last_reported":1690222219,"current_range_meters":22400,"station_id":"ce4bh392rcd13ifvqdl0","pricing_plan_id":"free"},{"bike_id":"1651855a-d6ec-4ca1-813a-6cedb56cf297","system_id":"levelo_inurba_marseille","lat":43.29883,"lon":5.38897,"is_reserved":false,"is_disabled":false,"rental_uris":{"android":"levelo://app?vid=1651855a-d6ec-4ca1-813a-6cedb56cf297","ios":"levelo://app?vid=1651855a-d6ec-4ca1-813a-6cedb56cf297"},"vehicle_type_id":"4","last_reported":1690222219,"current_range_meters":17600,"station_id":"ce4bh392rcd13ifvqdl0","pricing_plan_id":"free"},{"bike_id":"1018bb11-05ac-4181-ae0a-64e6ac599fa1","system_id":"levelo_inurba_marseille","lat":43.298764,"lon":5.388973,"is_reserved":false,"is_disabled":false,"rental_uris":{"android":"levelo://app?vid=1018bb11-05ac-4181-ae0a-64e6ac599fa1","ios":"levelo://app?vid=1018bb11-05ac-4181-ae0a-64e6ac599fa1"},"vehicle_type_id":"4","last_reported":1690222219,"current_range_meters":28400,"station_id":"ce4bh392rcd13ifvqdl0","pricing_plan_id":"free"},{"bike_id":"dc43b511-9ce1-4e39-b81a-c58008532e6b","system_id":"levelo_inurba_marseille","lat":43.29878,"lon":5.38897,"is_reserved":false,"is_disabled":false,"rental_uris":{"android":"levelo://app?vid=dc43b511-9ce1-4e39-b81a-c58008532e6b","ios":"levelo://app?vid=dc43b511-9ce1-4e39-b81a-c58008532e6b"},"vehicle_type_id":"4","last_reported":1690222219,"current_range_meters":25200,"station_id":"ce4bh392rcd13ifvqdl0","pricing_plan_id":"free"},{"bike_id":"535355a5-f65e-4224-bb6c-7a79e157f21d","system_id":"levelo_inurba_marseille","lat":43.29875,"lon":5.38899,"is_reserved":false,"is_disabled":false,"rental_uris":{"android":"levelo://app?vid=535355a5-f65e-4224-bb6c-7a79e157f21d","ios":"levelo://app?vid=535355a5-f65e-4224-bb6c-7a79e157f21d"},"vehicle_type_id":"4","last_reported":1690222219,"current_range_meters":7200,"station_id":"ce4bh392rcd13ifvqdl0","pricing_plan_id":"free"},{"bike_id":"68826e53-f6f6-4ff2-9a33-1099cd9c0571","system_id":"levelo_inurba_marseille","lat":43.31321,"lon":5.39686,"is_reserved":false,"is_disabled":false,"rental_uris":{"android":"levelo://app?vid=68826e53-f6f6-4ff2-9a33-1099cd9c0571","ios":"levelo://app?vid=68826e53-f6f6-4ff2-9a33-1099cd9c0571"},"vehicle_type_id":"4","last_reported":1690222219,"current_range_meters":23600,"station_id":"ce4bgvp2rcd13ifvqcu0","pricing_plan_id":"free"},{"bike_id":"08c9206f-f1e4-4cd5-b080-8b8d117edc9a","system_id":"levelo_inurba_marseille","lat":43.30883,"lon":5.39642,"is_reserved":false,"is_disabled":false,"rental_uris":{"android":"levelo://app?vid=08c9206f-f1e4-4cd5-b080-8b8d117edc9a","ios":"levelo://app?vid=08c9206f-f1e4-4cd5-b080-8b8d117edc9a"},"vehicle_type_id":"4","last_reported":1690222219,"current_range_meters":19600,"station_id":"ce4bh012rcd13ifvqcv0","pricing_plan_id":"free"},{"bike_id":"bb93f240-1da7-4a76-a7e3-5b89ee3518c7","system_id":"levelo_inurba_marseille","lat":43.31323,"lon":5.39692,"is_reserved":false,"is_disabled":false,"rental_uris":{"android":"levelo://app?vid=bb93f240-1da7-4a76-a7e3-5b89ee3518c7","ios":"levelo://app?vid=bb93f240-1da7-4a76-a7e3-5b89ee3518c7"},"vehicle_type_id":"4","last_reported":1690222219,"current_range_meters":15200,"station_id":"ce4bgvp2rcd13ifvqcu0","pricing_plan_id":"free"},{"bike_id":"7ee4e250-6d48-40f7-b837-ba47a4977c57","system_id":"levelo_inurba_marseille","lat":43.31326,"lon":5.39692,"is_reserved":false,"is_disabled":false,"rental_uris":{"android":"levelo://app?vid=7ee4e250-6d48-40f7-b837-ba47a4977c57","ios":"levelo://app?vid=7ee4e250-6d48-40f7-b837-ba47a4977c57"},"vehicle_type_id":"4","last_reported":1690222219,"current_range_meters":16000,"station_id":"ce4bgvp2rcd13ifvqcu0","pricing_plan_id":"free"},{"bike_id":"9fe4f699-e558-4653-8ae4-7d54ece16c72","system_id":"levelo_inurba_marseille","lat":43.31327,"lon":5.39692,"is_reserved":false,"is_disabled":false,"rental_uris":{"android":"levelo://app?vid=9fe4f699-e558-4653-8ae4-7d54ece16c72","ios":"levelo://app?vid=9fe4f699-e558-4653-8ae4-7d54ece16c72"},"vehicle_type_id":"4","last_reported":1690222219,"current_range_meters":28400,"station_id":"ce4bgvp2rcd13ifvqcu0","pricing_plan_id":"free"},{"bike_id":"2ec89e1a-303f-4149-91c2-ee03ed356e4f","system_id":"levelo_inurba_marseille","lat":43.31324,"lon":5.39694,"is_reserved":false,"is_disabled":false,"rental_uris":{"android":"levelo://app?vid=2ec89e1a-303f-4149-91c2-ee03ed356e4f","ios":"levelo://app?vid=2ec89e1a-303f-4149-91c2-ee03ed356e4f"},"vehicle_type_id":"4","last_reported":1690222219,"current_range_meters":21600,"station_id":"ce4bgvp2rcd13ifvqcu0","pricing_plan_id":"free"},{"bike_id":"0ae6d500-9a1e-41de-b1a2-731c6ad463b9","system_id":"levelo_inurba_marseille","lat":43.3133,"lon":5.39694,"is_reserved":false,"is_disabled":false,"rental_uris":{"android":"levelo://app?vid=0ae6d500-9a1e-41de-b1a2-731c6ad463b9","ios":"levelo://app?vid=0ae6d500-9a1e-41de-b1a2-731c6ad463b9"},"vehicle_type_id":"4","last_reported":1690222219,"current_range_meters":6800,"station_id":"ce4bgvp2rcd13ifvqcu0","pricing_plan_id":"free"},{"bike_id":"33801ecf-e842-40b8-8e90-3cdbcaceed24","system_id":"levelo_inurba_marseille","lat":43.31327,"lon":5.39698,"is_reserved":false,"is_disabled":false,"rental_uris":{"android":"levelo://app?vid=33801ecf-e842-40b8-8e90-3cdbcaceed24","ios":"levelo://app?vid=33801ecf-e842-40b8-8e90-3cdbcaceed24"},"vehicle_type_id":"4","last_reported":1690222219,"current_range_meters":7600,"station_id":"ce4bgvp2rcd13ifvqcu0","pricing_plan_id":"free"},{"bike_id":"44893b0e-fe33-4249-afad-cd2fadc3b175","system_id":"levelo_inurba_marseille","lat":43.309038,"lon":5.396546,"is_reserved":false,"is_disabled":false,"rental_uris":{"android":"levelo://app?vid=44893b0e-fe33-4249-afad-cd2fadc3b175","ios":"levelo://app?vid=44893b0e-fe33-4249-afad-cd2fadc3b175"},"vehicle_type_id":"4","last_reported":1690222219,"current_range_meters":24800,"station_id":"ce4bh012rcd13ifvqcv0","pricing_plan_id":"free"},{"bike_id":"4b49a99a-c09b-4a5d-9702-aadecf7a1d29","system_id":"levelo_inurba_marseille","lat":43.30884,"lon":5.39657,"is_reserved":false,"is_disabled":false,"rental_uris":{"android":"levelo://app?vid=4b49a99a-c09b-4a5d-9702-aadecf7a1d29","ios":"levelo://app?vid=4b49a99a-c09b-4a5d-9702-aadecf7a1d29"},"vehicle_type_id":"4","last_reported":1690222219,"current_range_meters":22400,"station_id":"ce4bh012rcd13ifvqcv0","pricing_plan_id":"free"},{"bike_id":"badddedc-d15e-4ba5-b117-b2460fff7059","system_id":"levelo_inurba_marseille","lat":43.30875,"lon":5.39656,"is_reserved":false,"is_disabled":false,"rental_uris":{"android":"levelo://app?vid=badddedc-d15e-4ba5-b117-b2460fff7059","ios":"levelo://app?vid=badddedc-d15e-4ba5-b117-b2460fff7059"},"vehicle_type_id":"4","last_reported":1690222219,"current_range_meters":23200,"station_id":"ce4bh012rcd13ifvqcv0","pricing_plan_id":"free"},{"bike_id":"aec7c779-c5cd-42fb-be34-4ae3c8d7cd10","system_id":"levelo_inurba_marseille","lat":43.29529,"lon":5.385581,"is_reserved":false,"is_disabled":false,"rental_uris":{"android":"levelo://app?vid=aec7c779-c5cd-42fb-be34-4ae3c8d7cd10","ios":"levelo://app?vid=aec7c779-c5cd-42fb-be34-4ae3c8d7cd10"},"vehicle_type_id":"4","last_reported":1690222219,"current_range_meters":9200,"station_id":"ce4bgih2rcd13ifvqba0","pricing_plan_id":"free"},{"bike_id":"a68128bd-5f7d-4aa5-9980-c8a648275c05","system_id":"levelo_inurba_marseille","lat":43.295351,"lon":5.38539,"is_reserved":false,"is_disabled":false,"rental_uris":{"android":"levelo://app?vid=a68128bd-5f7d-4aa5-9980-c8a648275c05","ios":"levelo://app?vid=a68128bd-5f7d-4aa5-9980-c8a648275c05"},"vehicle_type_id":"4","last_reported":1690222219,"current_range_meters":13200,"station_id":"ce4bgih2rcd13ifvqba0","pricing_plan_id":"free"},{"bike_id":"fce8031d-be08-4b24-b34e-df92f192b21b","system_id":"levelo_inurba_marseille","lat":43.29535,"lon":5.38542,"is_reserved":false,"is_disabled":false,"rental_uris":{"android":"levelo://app?vid=fce8031d-be08-4b24-b34e-df92f192b21b","ios":"levelo://app?vid=fce8031d-be08-4b24-b34e-df92f192b21b"},"vehicle_type_id":"4","last_reported":1690222219,"current_range_meters":4000,"station_id":"ce4bgih2rcd13ifvqba0","pricing_plan_id":"free"},{"bike_id":"8272d498-5803-41bf-8900-39d06135f36b","system_id":"levelo_inurba_marseille","lat":43.29529,"lon":5.385581,"is_reserved":false,"is_disabled":false,"rental_uris":{"android":"levelo://app?vid=8272d498-5803-41bf-8900-39d06135f36b","ios":"levelo://app?vid=8272d498-5803-41bf-8900-39d06135f36b"},"vehicle_type_id":"4","last_reported":1690222219,"current_range_meters":15600,"station_id":"ce4bgih2rcd13ifvqba0","pricing_plan_id":"free"},{"bike_id":"71a9356f-6973-49b4-9a47-c8b6daba1c5b","system_id":"levelo_inurba_marseille","lat":43.29532,"lon":5.38539,"is_reserved":false,"is_disabled":false,"rental_uris":{"android":"levelo://app?vid=71a9356f-6973-49b4-9a47-c8b6daba1c5b","ios":"levelo://app?vid=71a9356f-6973-49b4-9a47-c8b6daba1c5b"},"vehicle_type_id":"4","last_reported":1690222219,"current_range_meters":20400,"station_id":"ce4bgih2rcd13ifvqba0","pricing_plan_id":"free"},{"bike_id":"4f60a199-0238-4fa0-81c8-df6750baac6d","system_id":"levelo_inurba_marseille","lat":43.2953,"lon":5.38538,"is_reserved":false,"is_disabled":false,"rental_uris":{"android":"levelo://app?vid=4f60a199-0238-4fa0-81c8-df6750baac6d","ios":"levelo://app?vid=4f60a199-0238-4fa0-81c8-df6750baac6d"},"vehicle_type_id":"4","last_reported":1690222219,"current_range_meters":17600,"station_id":"ce4bgih2rcd13ifvqba0","pricing_plan_id":"free"},{"bike_id":"85465748-9e30-4d8e-b3c2-a63ee4713115","system_id":"levelo_inurba_marseille","lat":43.29529,"lon":5.385581,"is_reserved":false,"is_disabled":false,"rental_uris":{"android":"levelo://app?vid=85465748-9e30-4d8e-b3c2-a63ee4713115","ios":"levelo://app?vid=85465748-9e30-4d8e-b3c2-a63ee4713115"},"vehicle_type_id":"4","last_reported":1690222219,"current_range_meters":11600,"station_id":"ce4bgih2rcd13ifvqba0","pricing_plan_id":"free"},{"bike_id":"9bdf37a5-cd11-4464-82d8-1c1db7d85238","system_id":"levelo_inurba_marseille","lat":43.29529,"lon":5.385581,"is_reserved":false,"is_disabled":false,"rental_uris":{"android":"levelo://app?vid=9bdf37a5-cd11-4464-82d8-1c1db7d85238","ios":"levelo://app?vid=9bdf37a5-cd11-4464-82d8-1c1db7d85238"},"vehicle_type_id":"4","last_reported":1690222219,"current_range_meters":6400,"station_id":"ce4bgih2rcd13ifvqba0","pricing_plan_id":"free"},{"bike_id":"58fe6737-72d2-432f-909e-1d9a6719a2a3","system_id":"levelo_inurba_marseille","lat":43.29529,"lon":5.385581,"is_reserved":false,"is_disabled":false,"rental_uris":{"android":"levelo://app?vid=58fe6737-72d2-432f-909e-1d9a6719a2a3","ios":"levelo://app?vid=58fe6737-72d2-432f-909e-1d9a6719a2a3"},"vehicle_type_id":"4","last_reported":1690222219,"current_range_meters":12400,"station_id":"ce4bgih2rcd13ifvqba0","pricing_plan_id":"free"},{"bike_id":"b9972be2-4a5d-445c-a9a8-9030e05d021a","system_id":"levelo_inurba_marseille","lat":43.29528,"lon":5.38539,"is_reserved":false,"is_disabled":false,"rental_uris":{"android":"levelo://app?vid=b9972be2-4a5d-445c-a9a8-9030e05d021a","ios":"levelo://app?vid=b9972be2-4a5d-445c-a9a8-9030e05d021a"},"vehicle_type_id":"4","last_reported":1690222219,"current_range_meters":21200,"station_id":"ce4bgih2rcd13ifvqba0","pricing_plan_id":"free"},{"bike_id":"0ee4c269-40b1-4ecb-9ede-3244830af42b","system_id":"levelo_inurba_marseille","lat":43.29077,"lon":5.37159,"is_reserved":false,"is_disabled":false,"rental_uris":{"android":"levelo://app?vid=0ee4c269-40b1-4ecb-9ede-3244830af42b","ios":"levelo://app?vid=0ee4c269-40b1-4ecb-9ede-3244830af42b"},"vehicle_type_id":"4","last_reported":1690222219,"current_range_meters":2400,"station_id":"ce4bh5p2rcd13ifvqe4g","pricing_plan_id":"free"},{"bike_id":"f1053319-0c0b-48a5-b9d5-db175104d75e","system_id":"levelo_inurba_marseille","lat":43.303002,"lon":5.392142,"is_reserved":false,"is_disabled":false,"rental_uris":{"android":"levelo://app?vid=f1053319-0c0b-48a5-b9d5-db175104d75e","ios":"levelo://app?vid=f1053319-0c0b-48a5-b9d5-db175104d75e"},"vehicle_type_id":"4","last_reported":1690222219,"current_range_meters":10800,"station_id":"ce4bgkh2rcd13ifvqbk0","pricing_plan_id":"free"},{"bike_id":"3dbbcd2a-80a9-40fa-bb53-b73354891e0e","system_id":"levelo_inurba_marseille","lat":43.302008,"lon":5.394694,"is_reserved":false,"is_disabled":false,"rental_uris":{"android":"levelo://app?vid=3dbbcd2a-80a9-40fa-bb53-b73354891e0e","ios":"levelo://app?vid=3dbbcd2a-80a9-40fa-bb53-b73354891e0e"},"vehicle_type_id":"4","last_reported":1690222219,"current_range_meters":6000,"station_id":"ce4bh0p2rcd13ifvqd70","pricing_plan_id":"free"},{"bike_id":"fc624a4b-92a4-4ba3-951e-f5360a1b0d09","system_id":"levelo_inurba_marseille","lat":43.290525,"lon":5.359133,"is_reserved":false,"is_disabled":false,"rental_uris":{"android":"levelo://app?vid=fc624a4b-92a4-4ba3-951e-f5360a1b0d09","ios":"levelo://app?vid=fc624a4b-92a4-4ba3-951e-f5360a1b0d09"},"vehicle_type_id":"4","last_reported":1690222219,"current_range_meters":6400,"station_id":"ce4bha92rcd13ifvqeg0","pricing_plan_id":"free"},{"bike_id":"f61aad24-c24f-4524-ae52-6998d0bb6cb9","system_id":"levelo_inurba_marseille","lat":43.29054,"lon":5.359,"is_reserved":false,"is_disabled":false,"rental_uris":{"android":"levelo://app?vid=f61aad24-c24f-4524-ae52-6998d0bb6cb9","ios":"levelo://app?vid=f61aad24-c24f-4524-ae52-6998d0bb6cb9"},"vehicle_type_id":"4","last_reported":1690222219,"current_range_meters":26400,"station_id":"ce4bha92rcd13ifvqeg0","pricing_plan_id":"free"},{"bike_id":"14994da8-3db1-4ede-8bfb-afe74fd2ee54","system_id":"levelo_inurba_marseille","lat":43.29043,"lon":5.35922,"is_reserved":false,"is_disabled":false,"rental_uris":{"android":"levelo://app?vid=14994da8-3db1-4ede-8bfb-afe74fd2ee54","ios":"levelo://app?vid=14994da8-3db1-4ede-8bfb-afe74fd2ee54"},"vehicle_type_id":"4","last_reported":1690222219,"current_range_meters":7600,"station_id":"ce4bha92rcd13ifvqeg0","pricing_plan_id":"free"},{"bike_id":"88824589-4661-4085-89f5-3e3c7cc6c139","system_id":"levelo_inurba_marseille","lat":43.290631,"lon":5.359244,"is_reserved":false,"is_disabled":false,"rental_uris":{"android":"levelo://app?vid=88824589-4661-4085-89f5-3e3c7cc6c139","ios":"levelo://app?vid=88824589-4661-4085-89f5-3e3c7cc6c139"},"vehicle_type_id":"4","last_reported":1690222219,"current_range_meters":31200,"station_id":"ce4bha92rcd13ifvqeg0","pricing_plan_id":"free"},{"bike_id":"bb954ac3-0b71-4f1f-83d3-4d01af4484a3","system_id":"levelo_inurba_marseille","lat":43.2942,"lon":5.38612,"is_reserved":false,"is_disabled":false,"rental_uris":{"android":"levelo://app?vid=bb954ac3-0b71-4f1f-83d3-4d01af4484a3","ios":"levelo://app?vid=bb954ac3-0b71-4f1f-83d3-4d01af4484a3"},"vehicle_type_id":"4","last_reported":1690222219,"current_range_meters":21200,"station_id":"ce4bh2h2rcd13ifvqdh0","pricing_plan_id":"free"},{"bike_id":"e4cea4f5-d2f6-4dda-a67b-95c10e739759","system_id":"levelo_inurba_marseille","lat":43.294162,"lon":5.386292,"is_reserved":false,"is_disabled":false,"rental_uris":{"android":"levelo://app?vid=e4cea4f5-d2f6-4dda-a67b-95c10e739759","ios":"levelo://app?vid=e4cea4f5-d2f6-4dda-a67b-95c10e739759"},"vehicle_type_id":"4","last_reported":1690222219,"current_range_meters":0,"station_id":"ce4bh2h2rcd13ifvqdh0","pricing_plan_id":"free"},{"bike_id":"a1c77fae-1259-4a63-98a2-cad0f4c395b3","system_id":"levelo_inurba_marseille","lat":43.29418,"lon":5.38622,"is_reserved":false,"is_disabled":false,"rental_uris":{"android":"levelo://app?vid=a1c77fae-1259-4a63-98a2-cad0f4c395b3","ios":"levelo://app?vid=a1c77fae-1259-4a63-98a2-cad0f4c395b3"},"vehicle_type_id":"4","last_reported":1690222219,"current_range_meters":27600,"station_id":"ce4bh2h2rcd13ifvqdh0","pricing_plan_id":"free"},{"bike_id":"fd30daf2-d1cf-44d8-b517-b0fae07b15a4","system_id":"levelo_inurba_marseille","lat":43.294162,"lon":5.386292,"is_reserved":false,"is_disabled":false,"rental_uris":{"android":"levelo://app?vid=fd30daf2-d1cf-44d8-b517-b0fae07b15a4","ios":"levelo://app?vid=fd30daf2-d1cf-44d8-b517-b0fae07b15a4"},"vehicle_type_id":"4","last_reported":1690222219,"current_range_meters":18400,"station_id":"ce4bh2h2rcd13ifvqdh0","pricing_plan_id":"free"},{"bike_id":"ab51eb89-8f40-40dc-adc2-5bc085921ff0","system_id":"levelo_inurba_marseille","lat":43.2894,"lon":5.36634,"is_reserved":false,"is_disabled":false,"rental_uris":{"android":"levelo://app?vid=ab51eb89-8f40-40dc-adc2-5bc085921ff0","ios":"levelo://app?vid=ab51eb89-8f40-40dc-adc2-5bc085921ff0"},"vehicle_type_id":"4","last_reported":1690222219,"current_range_meters":10800,"station_id":"ce4bhap2rcd13ifvqek0","pricing_plan_id":"free"},{"bike_id":"4e4a3cb3-2683-484a-8b01-9e2449dc25db","system_id":"levelo_inurba_marseille","lat":43.3355,"lon":5.37468,"is_reserved":false,"is_disabled":false,"rental_uris":{"android":"levelo://app?vid=4e4a3cb3-2683-484a-8b01-9e2449dc25db","ios":"levelo://app?vid=4e4a3cb3-2683-484a-8b01-9e2449dc25db"},"vehicle_type_id":"4","last_reported":1690222219,"current_range_meters":17600,"station_id":"","pricing_plan_id":"free"},{"bike_id":"83785394-9edc-4a27-aee2-d3236c35d807","system_id":"levelo_inurba_marseille","lat":43.292644,"lon":5.384257,"is_reserved":false,"is_disabled":false,"rental_uris":{"android":"levelo://app?vid=83785394-9edc-4a27-aee2-d3236c35d807","ios":"levelo://app?vid=83785394-9edc-4a27-aee2-d3236c35d807"},"vehicle_type_id":"4","last_reported":1690222219,"current_range_meters":8800,"station_id":"ce4bh692rcd13ifvqea0","pricing_plan_id":"free"},{"bike_id":"46f42ef3-01f6-4630-97f1-8d078c0923c9","system_id":"levelo_inurba_marseille","lat":43.29261,"lon":5.38437,"is_reserved":false,"is_disabled":false,"rental_uris":{"android":"levelo://app?vid=46f42ef3-01f6-4630-97f1-8d078c0923c9","ios":"levelo://app?vid=46f42ef3-01f6-4630-97f1-8d078c0923c9"},"vehicle_type_id":"4","last_reported":1690222219,"current_range_meters":18400,"station_id":"ce4bh692rcd13ifvqea0","pricing_plan_id":"free"},{"bike_id":"1c90473a-e330-4282-8072-c51bc82116c1","system_id":"levelo_inurba_marseille","lat":43.298764,"lon":5.388973,"is_reserved":false,"is_disabled":false,"rental_uris":{"android":"levelo://app?vid=1c90473a-e330-4282-8072-c51bc82116c1","ios":"levelo://app?vid=1c90473a-e330-4282-8072-c51bc82116c1"},"vehicle_type_id":"4","last_reported":1690222219,"current_range_meters":17600,"station_id":"ce4bh392rcd13ifvqdl0","pricing_plan_id":"free"},{"bike_id":"e6812726-2bcd-4014-b079-f77ca29d3e54","system_id":"levelo_inurba_marseille","lat":43.29263,"lon":5.38447,"is_reserved":false,"is_disabled":false,"rental_uris":{"android":"levelo://app?vid=e6812726-2bcd-4014-b079-f77ca29d3e54","ios":"levelo://app?vid=e6812726-2bcd-4014-b079-f77ca29d3e54"},"vehicle_type_id":"4","last_reported":1690222219,"current_range_meters":30800,"station_id":"ce4bh692rcd13ifvqea0","pricing_plan_id":"free"},{"bike_id":"d149a979-e833-4380-8bcb-9eafa35cb730","system_id":"levelo_inurba_marseille","lat":43.33045,"lon":5.38911,"is_reserved":false,"is_disabled":false,"rental_uris":{"android":"levelo://app?vid=d149a979-e833-4380-8bcb-9eafa35cb730","ios":"levelo://app?vid=d149a979-e833-4380-8bcb-9eafa35cb730"},"vehicle_type_id":"4","last_reported":1690222219,"current_range_meters":17200,"station_id":"ce4bhr92rcd13ifvqhrg","pricing_plan_id":"free"},{"bike_id":"9b7a4a8a-7add-49b0-b4b8-f745fd45f2dc","system_id":"levelo_inurba_marseille","lat":43.33044,"lon":5.38914,"is_reserved":false,"is_disabled":false,"rental_uris":{"android":"levelo://app?vid=9b7a4a8a-7add-49b0-b4b8-f745fd45f2dc","ios":"levelo://app?vid=9b7a4a8a-7add-49b0-b4b8-f745fd45f2dc"},"vehicle_type_id":"4","last_reported":1690222219,"current_range_meters":28400,"station_id":"ce4bhr92rcd13ifvqhrg","pricing_plan_id":"free"},{"bike_id":"189e3407-1be2-4725-af87-c9b11f2fdb98","system_id":"levelo_inurba_marseille","lat":43.33043,"lon":5.38916,"is_reserved":false,"is_disabled":false,"rental_uris":{"android":"levelo://app?vid=189e3407-1be2-4725-af87-c9b11f2fdb98","ios":"levelo://app?vid=189e3407-1be2-4725-af87-c9b11f2fdb98"},"vehicle_type_id":"4","last_reported":1690222219,"current_range_meters":17600,"station_id":"ce4bhr92rcd13ifvqhrg","pricing_plan_id":"free"},{"bike_id":"bf0d8409-e185-4184-be5b-bee96b2570d1","system_id":"levelo_inurba_marseille","lat":43.29009,"lon":5.3561,"is_reserved":false,"is_disabled":false,"rental_uris":{"android":"levelo://app?vid=bf0d8409-e185-4184-be5b-bee96b2570d1","ios":"levelo://app?vid=bf0d8409-e185-4184-be5b-bee96b2570d1"},"vehicle_type_id":"4","last_reported":1690222219,"current_range_meters":26800,"station_id":"ce4bhb92rcd13ifvqen0","pricing_plan_id":"free"},{"bike_id":"f78ec00d-d26b-40c6-beb9-cb19df3732d2","system_id":"levelo_inurba_marseille","lat":43.2901,"lon":5.35606,"is_reserved":false,"is_disabled":false,"rental_uris":{"android":"levelo://app?vid=f78ec00d-d26b-40c6-beb9-cb19df3732d2","ios":"levelo://app?vid=f78ec00d-d26b-40c6-beb9-cb19df3732d2"},"vehicle_type_id":"4","last_reported":1690222219,"current_range_meters":2000,"station_id":"ce4bhb92rcd13ifvqen0","pricing_plan_id":"free"},{"bike_id":"44f20f57-7226-469c-9872-88a16c6ed9df","system_id":"levelo_inurba_marseille","lat":43.29004,"lon":5.35611,"is_reserved":false,"is_disabled":false,"rental_uris":{"android":"levelo://app?vid=44f20f57-7226-469c-9872-88a16c6ed9df","ios":"levelo://app?vid=44f20f57-7226-469c-9872-88a16c6ed9df"},"vehicle_type_id":"4","last_reported":1690222219,"current_range_meters":31200,"station_id":"ce4bhb92rcd13ifvqen0","pricing_plan_id":"free"},{"bike_id":"69ee07cb-57ea-4dc2-99e9-894e3d463a7f","system_id":"levelo_inurba_marseille","lat":43.28999,"lon":5.35617,"is_reserved":false,"is_disabled":false,"rental_uris":{"android":"levelo://app?vid=69ee07cb-57ea-4dc2-99e9-894e3d463a7f","ios":"levelo://app?vid=69ee07cb-57ea-4dc2-99e9-894e3d463a7f"},"vehicle_type_id":"4","last_reported":1690222219,"current_range_meters":31200,"station_id":"ce4bhb92rcd13ifvqen0","pricing_plan_id":"free"},{"bike_id":"0189aaa2-1cba-425c-9fb3-82f77f65d207","system_id":"levelo_inurba_marseille","lat":43.28979,"lon":5.35655,"is_reserved":false,"is_disabled":false,"rental_uris":{"android":"levelo://app?vid=0189aaa2-1cba-425c-9fb3-82f77f65d207","ios":"levelo://app?vid=0189aaa2-1cba-425c-9fb3-82f77f65d207"},"vehicle_type_id":"4","last_reported":1690222219,"current_range_meters":5600,"station_id":"ce4bh9p2rcd13ifvqec0","pricing_plan_id":"free"},{"bike_id":"0f9b0874-6205-4378-816b-5a872d0f1c9a","system_id":"levelo_inurba_marseille","lat":43.29094,"lon":5.38139,"is_reserved":false,"is_disabled":false,"rental_uris":{"android":"levelo://app?vid=0f9b0874-6205-4378-816b-5a872d0f1c9a","ios":"levelo://app?vid=0f9b0874-6205-4378-816b-5a872d0f1c9a"},"vehicle_type_id":"4","last_reported":1690222219,"current_range_meters":0,"station_id":"ce4bh512rcd13ifvqe2g","pricing_plan_id":"free"},{"bike_id":"ff3494a6-b601-48f7-be37-b338327b0787","system_id":"levelo_inurba_marseille","lat":43.295369,"lon":5.390285,"is_reserved":false,"is_disabled":false,"rental_uris":{"android":"levelo://app?vid=ff3494a6-b601-48f7-be37-b338327b0787","ios":"levelo://app?vid=ff3494a6-b601-48f7-be37-b338327b0787"},"vehicle_type_id":"4","last_reported":1690222219,"current_range_meters":30800,"station_id":"ce4bh3p2rcd13ifvqdp0","pricing_plan_id":"free"},{"bike_id":"8fcc1617-4b9f-4882-a2ef-fd91c58cb4b7","system_id":"levelo_inurba_marseille","lat":43.289744,"lon":5.378377,"is_reserved":false,"is_disabled":false,"rental_uris":{"android":"levelo://app?vid=8fcc1617-4b9f-4882-a2ef-fd91c58cb4b7","ios":"levelo://app?vid=8fcc1617-4b9f-4882-a2ef-fd91c58cb4b7"},"vehicle_type_id":"4","last_reported":1690222219,"current_range_meters":14400,"station_id":"ce4bh9p2rcd13ifvqed0","pricing_plan_id":"free"},{"bike_id":"dad8c706-6746-48c9-a91c-940d1eb1a03d","system_id":"levelo_inurba_marseille","lat":43.297523,"lon":5.393819,"is_reserved":false,"is_disabled":false,"rental_uris":{"android":"levelo://app?vid=dad8c706-6746-48c9-a91c-940d1eb1a03d","ios":"levelo://app?vid=dad8c706-6746-48c9-a91c-940d1eb1a03d"},"vehicle_type_id":"4","last_reported":1690222219,"current_range_meters":4400,"station_id":"chh1huq6cuj3fo74tm60","pricing_plan_id":"free"},{"bike_id":"666e2add-54a3-453a-9b1d-77e7f73ce2fb","system_id":"levelo_inurba_marseille","lat":43.28856,"lon":5.358371,"is_reserved":false,"is_disabled":false,"rental_uris":{"android":"levelo://app?vid=666e2add-54a3-453a-9b1d-77e7f73ce2fb","ios":"levelo://app?vid=666e2add-54a3-453a-9b1d-77e7f73ce2fb"},"vehicle_type_id":"4","last_reported":1690222219,"current_range_meters":5200,"station_id":"ce4bhb12rcd13ifvqem0","pricing_plan_id":"free"},{"bike_id":"08fc5a37-544c-4a95-af25-1966233ee81b","system_id":"levelo_inurba_marseille","lat":43.28856,"lon":5.358371,"is_reserved":false,"is_disabled":false,"rental_uris":{"android":"levelo://app?vid=08fc5a37-544c-4a95-af25-1966233ee81b","ios":"levelo://app?vid=08fc5a37-544c-4a95-af25-1966233ee81b"},"vehicle_type_id":"4","last_reported":1690222219,"current_range_meters":18400,"station_id":"ce4bhb12rcd13ifvqem0","pricing_plan_id":"free"},{"bike_id":"aa98800c-21d2-4884-af0e-39093a6e73aa","system_id":"levelo_inurba_marseille","lat":43.28851,"lon":5.35863,"is_reserved":false,"is_disabled":false,"rental_uris":{"android":"levelo://app?vid=aa98800c-21d2-4884-af0e-39093a6e73aa","ios":"levelo://app?vid=aa98800c-21d2-4884-af0e-39093a6e73aa"},"vehicle_type_id":"4","last_reported":1690222219,"current_range_meters":24400,"station_id":"ce4bhb12rcd13ifvqem0","pricing_plan_id":"free"},{"bike_id":"c7aa8a52-7b64-4b60-8b0a-6c19106db824","system_id":"levelo_inurba_marseille","lat":43.28852,"lon":5.35855,"is_reserved":false,"is_disabled":false,"rental_uris":{"android":"levelo://app?vid=c7aa8a52-7b64-4b60-8b0a-6c19106db824","ios":"levelo://app?vid=c7aa8a52-7b64-4b60-8b0a-6c19106db824"},"vehicle_type_id":"4","last_reported":1690222219,"current_range_meters":25600,"station_id":"ce4bhb12rcd13ifvqem0","pricing_plan_id":"free"},{"bike_id":"f7b527ea-e92b-4f65-8dd9-8a022355846e","system_id":"levelo_inurba_marseille","lat":43.2885,"lon":5.35855,"is_reserved":false,"is_disabled":false,"rental_uris":{"android":"levelo://app?vid=f7b527ea-e92b-4f65-8dd9-8a022355846e","ios":"levelo://app?vid=f7b527ea-e92b-4f65-8dd9-8a022355846e"},"vehicle_type_id":"4","last_reported":1690222219,"current_range_meters":11600,"station_id":"ce4bhb12rcd13ifvqem0","pricing_plan_id":"free"},{"bike_id":"04511194-9ebd-4353-8595-5c1e84a0d8bc","system_id":"levelo_inurba_marseille","lat":43.28852,"lon":5.35843,"is_reserved":false,"is_disabled":false,"rental_uris":{"android":"levelo://app?vid=04511194-9ebd-4353-8595-5c1e84a0d8bc","ios":"levelo://app?vid=04511194-9ebd-4353-8595-5c1e84a0d8bc"},"vehicle_type_id":"4","last_reported":1690222219,"current_range_meters":30000,"station_id":"ce4bhb12rcd13ifvqem0","pricing_plan_id":"free"},{"bike_id":"5261cc94-671b-4539-b0dc-ab070169bf8f","system_id":"levelo_inurba_marseille","lat":43.28856,"lon":5.358371,"is_reserved":false,"is_disabled":false,"rental_uris":{"android":"levelo://app?vid=5261cc94-671b-4539-b0dc-ab070169bf8f","ios":"levelo://app?vid=5261cc94-671b-4539-b0dc-ab070169bf8f"},"vehicle_type_id":"4","last_reported":1690222219,"current_range_meters":24800,"station_id":"ce4bhb12rcd13ifvqem0","pricing_plan_id":"free"},{"bike_id":"c8b43fa2-23cb-4208-9cce-afe977c467d4","system_id":"levelo_inurba_marseille","lat":43.28856,"lon":5.358371,"is_reserved":false,"is_disabled":false,"rental_uris":{"android":"levelo://app?vid=c8b43fa2-23cb-4208-9cce-afe977c467d4","ios":"levelo://app?vid=c8b43fa2-23cb-4208-9cce-afe977c467d4"},"vehicle_type_id":"4","last_reported":1690222219,"current_range_meters":30000,"station_id":"ce4bhb12rcd13ifvqem0","pricing_plan_id":"free"},{"bike_id":"8bd352a4-98f5-4582-a066-8dd97a71a70c","system_id":"levelo_inurba_marseille","lat":43.28848,"lon":5.35846,"is_reserved":false,"is_disabled":false,"rental_uris":{"android":"levelo://app?vid=8bd352a4-98f5-4582-a066-8dd97a71a70c","ios":"levelo://app?vid=8bd352a4-98f5-4582-a066-8dd97a71a70c"},"vehicle_type_id":"4","last_reported":1690222219,"current_range_meters":30400,"station_id":"ce4bhb12rcd13ifvqem0","pricing_plan_id":"free"},{"bike_id":"ef3ab09e-c804-454c-83f4-1584bc135ec7","system_id":"levelo_inurba_marseille","lat":43.33733,"lon":5.37469,"is_reserved":false,"is_disabled":false,"rental_uris":{"android":"levelo://app?vid=ef3ab09e-c804-454c-83f4-1584bc135ec7","ios":"levelo://app?vid=ef3ab09e-c804-454c-83f4-1584bc135ec7"},"vehicle_type_id":"4","last_reported":1690222219,"current_range_meters":2800,"station_id":"","pricing_plan_id":"free"},{"bike_id":"faece398-6ce0-446d-bb18-97f09b158401","system_id":"levelo_inurba_marseille","lat":43.31272,"lon":5.40165,"is_reserved":false,"is_disabled":false,"rental_uris":{"android":"levelo://app?vid=faece398-6ce0-446d-bb18-97f09b158401","ios":"levelo://app?vid=faece398-6ce0-446d-bb18-97f09b158401"},"vehicle_type_id":"4","last_reported":1690222219,"current_range_meters":21200,"station_id":"ce4bh092rcd13ifvqd30","pricing_plan_id":"free"},{"bike_id":"c308073a-3364-42a0-b537-5752ac447d94","system_id":"levelo_inurba_marseille","lat":43.3127,"lon":5.40166,"is_reserved":false,"is_disabled":false,"rental_uris":{"android":"levelo://app?vid=c308073a-3364-42a0-b537-5752ac447d94","ios":"levelo://app?vid=c308073a-3364-42a0-b537-5752ac447d94"},"vehicle_type_id":"4","last_reported":1690222219,"current_range_meters":21200,"station_id":"ce4bh092rcd13ifvqd30","pricing_plan_id":"free"},{"bike_id":"b8de4044-9f6a-4a37-a1b9-0edd89b18e7e","system_id":"levelo_inurba_marseille","lat":43.3128,"lon":5.40175,"is_reserved":false,"is_disabled":false,"rental_uris":{"android":"levelo://app?vid=b8de4044-9f6a-4a37-a1b9-0edd89b18e7e","ios":"levelo://app?vid=b8de4044-9f6a-4a37-a1b9-0edd89b18e7e"},"vehicle_type_id":"4","last_reported":1690222219,"current_range_meters":8800,"station_id":"ce4bh092rcd13ifvqd30","pricing_plan_id":"free"},{"bike_id":"c642e034-5e07-459b-8f1e-4ce61beabaf5","system_id":"levelo_inurba_marseille","lat":43.30637,"lon":5.40067,"is_reserved":false,"is_disabled":false,"rental_uris":{"android":"levelo://app?vid=c642e034-5e07-459b-8f1e-4ce61beabaf5","ios":"levelo://app?vid=c642e034-5e07-459b-8f1e-4ce61beabaf5"},"vehicle_type_id":"4","last_reported":1690222219,"current_range_meters":14800,"station_id":"ce4bh112rcd13ifvqda0","pricing_plan_id":"free"},{"bike_id":"8458abfa-04f9-468a-8130-d8a3ee06255a","system_id":"levelo_inurba_marseille","lat":43.33745,"lon":5.37483,"is_reserved":false,"is_disabled":false,"rental_uris":{"android":"levelo://app?vid=8458abfa-04f9-468a-8130-d8a3ee06255a","ios":"levelo://app?vid=8458abfa-04f9-468a-8130-d8a3ee06255a"},"vehicle_type_id":"4","last_reported":1690222219,"current_range_meters":19600,"station_id":"","pricing_plan_id":"free"},{"bike_id":"53a1f332-a31c-4b59-9c58-6fd012dac7f9","system_id":"levelo_inurba_marseille","lat":43.30646,"lon":5.40071,"is_reserved":false,"is_disabled":false,"rental_uris":{"android":"levelo://app?vid=53a1f332-a31c-4b59-9c58-6fd012dac7f9","ios":"levelo://app?vid=53a1f332-a31c-4b59-9c58-6fd012dac7f9"},"vehicle_type_id":"4","last_reported":1690222219,"current_range_meters":27600,"station_id":"ce4bh112rcd13ifvqda0","pricing_plan_id":"free"},{"bike_id":"5e75d666-5103-4ded-855d-a1ed711cc639","system_id":"levelo_inurba_marseille","lat":43.29041,"lon":5.399634,"is_reserved":false,"is_disabled":false,"rental_uris":{"android":"levelo://app?vid=5e75d666-5103-4ded-855d-a1ed711cc639","ios":"levelo://app?vid=5e75d666-5103-4ded-855d-a1ed711cc639"},"vehicle_type_id":"4","last_reported":1690222219,"current_range_meters":4400,"station_id":"ce4bh392rcd13ifvqdm0","pricing_plan_id":"free"},{"bike_id":"c2522701-e6b7-4cf3-9788-36e3b48bd4af","system_id":"levelo_inurba_marseille","lat":43.30642,"lon":5.401031,"is_reserved":false,"is_disabled":false,"rental_uris":{"android":"levelo://app?vid=c2522701-e6b7-4cf3-9788-36e3b48bd4af","ios":"levelo://app?vid=c2522701-e6b7-4cf3-9788-36e3b48bd4af"},"vehicle_type_id":"4","last_reported":1690222219,"current_range_meters":4400,"station_id":"ce4bh112rcd13ifvqda0","pricing_plan_id":"free"},{"bike_id":"75291762-56e3-4b2b-a54d-cfaab2a3f704","system_id":"levelo_inurba_marseille","lat":43.337474,"lon":5.374932,"is_reserved":false,"is_disabled":false,"rental_uris":{"android":"levelo://app?vid=75291762-56e3-4b2b-a54d-cfaab2a3f704","ios":"levelo://app?vid=75291762-56e3-4b2b-a54d-cfaab2a3f704"},"vehicle_type_id":"4","last_reported":1690222219,"current_range_meters":2800,"station_id":"","pricing_plan_id":"free"},{"bike_id":"a063d9cd-6be9-421f-b1a0-d8b0d211b3fd","system_id":"levelo_inurba_marseille","lat":43.30638,"lon":5.40074,"is_reserved":false,"is_disabled":false,"rental_uris":{"android":"levelo://app?vid=a063d9cd-6be9-421f-b1a0-d8b0d211b3fd","ios":"levelo://app?vid=a063d9cd-6be9-421f-b1a0-d8b0d211b3fd"},"vehicle_type_id":"4","last_reported":1690222219,"current_range_meters":12000,"station_id":"ce4bh112rcd13ifvqda0","pricing_plan_id":"free"},{"bike_id":"8a2269c9-e6ed-4566-b8ef-70338d11839d","system_id":"levelo_inurba_marseille","lat":43.30644,"lon":5.40078,"is_reserved":false,"is_disabled":false,"rental_uris":{"android":"levelo://app?vid=8a2269c9-e6ed-4566-b8ef-70338d11839d","ios":"levelo://app?vid=8a2269c9-e6ed-4566-b8ef-70338d11839d"},"vehicle_type_id":"4","last_reported":1690222219,"current_range_meters":0,"station_id":"ce4bh112rcd13ifvqda0","pricing_plan_id":"free"},{"bike_id":"2228bd0f-669d-4602-bab2-ad0af6715109","system_id":"levelo_inurba_marseille","lat":43.30652,"lon":5.40082,"is_reserved":false,"is_disabled":false,"rental_uris":{"android":"levelo://app?vid=2228bd0f-669d-4602-bab2-ad0af6715109","ios":"levelo://app?vid=2228bd0f-669d-4602-bab2-ad0af6715109"},"vehicle_type_id":"4","last_reported":1690222219,"current_range_meters":14000,"station_id":"ce4bh112rcd13ifvqda0","pricing_plan_id":"free"},{"bike_id":"912fcd6e-25e8-44f0-b921-c1e8ec71bd0f","system_id":"levelo_inurba_marseille","lat":43.33755,"lon":5.3748,"is_reserved":false,"is_disabled":false,"rental_uris":{"android":"levelo://app?vid=912fcd6e-25e8-44f0-b921-c1e8ec71bd0f","ios":"levelo://app?vid=912fcd6e-25e8-44f0-b921-c1e8ec71bd0f"},"vehicle_type_id":"4","last_reported":1690222219,"current_range_meters":28400,"station_id":"","pricing_plan_id":"free"},{"bike_id":"6cb9c75c-1abb-4bdf-8711-812e28e7285a","system_id":"levelo_inurba_marseille","lat":43.33753,"lon":5.37492,"is_reserved":false,"is_disabled":false,"rental_uris":{"android":"levelo://app?vid=6cb9c75c-1abb-4bdf-8711-812e28e7285a","ios":"levelo://app?vid=6cb9c75c-1abb-4bdf-8711-812e28e7285a"},"vehicle_type_id":"4","last_reported":1690222219,"current_range_meters":22400,"station_id":"","pricing_plan_id":"free"},{"bike_id":"9efaf868-356e-43db-9d0b-73cae01d7d11","system_id":"levelo_inurba_marseille","lat":43.33757,"lon":5.37475,"is_reserved":false,"is_disabled":false,"rental_uris":{"android":"levelo://app?vid=9efaf868-356e-43db-9d0b-73cae01d7d11","ios":"levelo://app?vid=9efaf868-356e-43db-9d0b-73cae01d7d11"},"vehicle_type_id":"4","last_reported":1690222219,"current_range_meters":28400,"station_id":"","pricing_plan_id":"free"},{"bike_id":"6f628464-a32e-4e4a-85ca-b2349907f02c","system_id":"levelo_inurba_marseille","lat":43.33759,"lon":5.3748,"is_reserved":false,"is_disabled":false,"rental_uris":{"android":"levelo://app?vid=6f628464-a32e-4e4a-85ca-b2349907f02c","ios":"levelo://app?vid=6f628464-a32e-4e4a-85ca-b2349907f02c"},"vehicle_type_id":"4","last_reported":1690222219,"current_range_meters":30000,"station_id":"","pricing_plan_id":"free"},{"bike_id":"0ca429df-7d5d-47a0-b350-13b523c72210","system_id":"levelo_inurba_marseille","lat":43.33761,"lon":5.37479,"is_reserved":false,"is_disabled":false,"rental_uris":{"android":"levelo://app?vid=0ca429df-7d5d-47a0-b350-13b523c72210","ios":"levelo://app?vid=0ca429df-7d5d-47a0-b350-13b523c72210"},"vehicle_type_id":"4","last_reported":1690222219,"current_range_meters":13200,"station_id":"","pricing_plan_id":"free"},{"bike_id":"7b87b23d-af82-4544-a2da-752d89c25ef3","system_id":"levelo_inurba_marseille","lat":43.33765,"lon":5.37473,"is_reserved":false,"is_disabled":false,"rental_uris":{"android":"levelo://app?vid=7b87b23d-af82-4544-a2da-752d89c25ef3","ios":"levelo://app?vid=7b87b23d-af82-4544-a2da-752d89c25ef3"},"vehicle_type_id":"4","last_reported":1690222219,"current_range_meters":28000,"station_id":"","pricing_plan_id":"free"},{"bike_id":"ec0002c6-ccd7-44c0-b2ca-0cb1a15fc191","system_id":"levelo_inurba_marseille","lat":43.33765,"lon":5.3748,"is_reserved":false,"is_disabled":false,"rental_uris":{"android":"levelo://app?vid=ec0002c6-ccd7-44c0-b2ca-0cb1a15fc191","ios":"levelo://app?vid=ec0002c6-ccd7-44c0-b2ca-0cb1a15fc191"},"vehicle_type_id":"4","last_reported":1690222219,"current_range_meters":0,"station_id":"","pricing_plan_id":"free"},{"bike_id":"c319c68f-5ff4-4a17-a51d-a9ff5746561a","system_id":"levelo_inurba_marseille","lat":43.301117,"lon":5.398795,"is_reserved":false,"is_disabled":false,"rental_uris":{"android":"levelo://app?vid=c319c68f-5ff4-4a17-a51d-a9ff5746561a","ios":"levelo://app?vid=c319c68f-5ff4-4a17-a51d-a9ff5746561a"},"vehicle_type_id":"4","last_reported":1690222219,"current_range_meters":28400,"station_id":"ce4bh0h2rcd13ifvqd40","pricing_plan_id":"free"},{"bike_id":"828f20da-326c-405b-9752-d8e185b6f7aa","system_id":"levelo_inurba_marseille","lat":43.33765,"lon":5.37485,"is_reserved":false,"is_disabled":false,"rental_uris":{"android":"levelo://app?vid=828f20da-326c-405b-9752-d8e185b6f7aa","ios":"levelo://app?vid=828f20da-326c-405b-9752-d8e185b6f7aa"},"vehicle_type_id":"4","last_reported":1690222219,"current_range_meters":31200,"station_id":"","pricing_plan_id":"free"},{"bike_id":"14214634-e03e-4009-acf1-1b6acf10a784","system_id":"levelo_inurba_marseille","lat":43.33768,"lon":5.37482,"is_reserved":false,"is_disabled":false,"rental_uris":{"android":"levelo://app?vid=14214634-e03e-4009-acf1-1b6acf10a784","ios":"levelo://app?vid=14214634-e03e-4009-acf1-1b6acf10a784"},"vehicle_type_id":"4","last_reported":1690222219,"current_range_meters":30800,"station_id":"","pricing_plan_id":"free"},{"bike_id":"bc7949c6-9979-4db2-8f28-306f85150b0e","system_id":"levelo_inurba_marseille","lat":43.3377,"lon":5.3747,"is_reserved":false,"is_disabled":false,"rental_uris":{"android":"levelo://app?vid=bc7949c6-9979-4db2-8f28-306f85150b0e","ios":"levelo://app?vid=bc7949c6-9979-4db2-8f28-306f85150b0e"},"vehicle_type_id":"4","last_reported":1690222219,"current_range_meters":30000,"station_id":"","pricing_plan_id":"free"},{"bike_id":"389a8281-e8f0-4d41-af9b-0b458ba96fde","system_id":"levelo_inurba_marseille","lat":43.3377,"lon":5.37473,"is_reserved":false,"is_disabled":false,"rental_uris":{"android":"levelo://app?vid=389a8281-e8f0-4d41-af9b-0b458ba96fde","ios":"levelo://app?vid=389a8281-e8f0-4d41-af9b-0b458ba96fde"},"vehicle_type_id":"4","last_reported":1690222219,"current_range_meters":30000,"station_id":"","pricing_plan_id":"free"},{"bike_id":"641218c5-ee59-47c7-949e-aa9bb9ce5408","system_id":"levelo_inurba_marseille","lat":43.33767,"lon":5.37492,"is_reserved":false,"is_disabled":false,"rental_uris":{"android":"levelo://app?vid=641218c5-ee59-47c7-949e-aa9bb9ce5408","ios":"levelo://app?vid=641218c5-ee59-47c7-949e-aa9bb9ce5408"},"vehicle_type_id":"4","last_reported":1690222219,"current_range_meters":18000,"station_id":"","pricing_plan_id":"free"},{"bike_id":"8f74425c-a1b2-445b-ab84-8e85eb6cce55","system_id":"levelo_inurba_marseille","lat":43.301117,"lon":5.398795,"is_reserved":false,"is_disabled":false,"rental_uris":{"android":"levelo://app?vid=8f74425c-a1b2-445b-ab84-8e85eb6cce55","ios":"levelo://app?vid=8f74425c-a1b2-445b-ab84-8e85eb6cce55"},"vehicle_type_id":"4","last_reported":1690222219,"current_range_meters":24400,"station_id":"ce4bh0h2rcd13ifvqd40","pricing_plan_id":"free"},{"bike_id":"acd926fb-a7da-43de-84a0-eb70085f9bbe","system_id":"levelo_inurba_marseille","lat":43.301117,"lon":5.398795,"is_reserved":false,"is_disabled":false,"rental_uris":{"android":"levelo://app?vid=acd926fb-a7da-43de-84a0-eb70085f9bbe","ios":"levelo://app?vid=acd926fb-a7da-43de-84a0-eb70085f9bbe"},"vehicle_type_id":"4","last_reported":1690222219,"current_range_meters":17200,"station_id":"ce4bh0h2rcd13ifvqd40","pricing_plan_id":"free"},{"bike_id":"0ffd4bbf-e47a-4d76-b399-05005f2c4460","system_id":"levelo_inurba_marseille","lat":43.301117,"lon":5.398795,"is_reserved":false,"is_disabled":false,"rental_uris":{"android":"levelo://app?vid=0ffd4bbf-e47a-4d76-b399-05005f2c4460","ios":"levelo://app?vid=0ffd4bbf-e47a-4d76-b399-05005f2c4460"},"vehicle_type_id":"4","last_reported":1690222219,"current_range_meters":22800,"station_id":"ce4bh0h2rcd13ifvqd40","pricing_plan_id":"free"},{"bike_id":"644114c1-c6be-40f2-9476-09e334858c21","system_id":"levelo_inurba_marseille","lat":43.28708,"lon":5.37378,"is_reserved":false,"is_disabled":false,"rental_uris":{"android":"levelo://app?vid=644114c1-c6be-40f2-9476-09e334858c21","ios":"levelo://app?vid=644114c1-c6be-40f2-9476-09e334858c21"},"vehicle_type_id":"4","last_reported":1690222219,"current_range_meters":30000,"station_id":"ce4bha12rcd13ifvqef0","pricing_plan_id":"free"},{"bike_id":"0a8b476b-ea09-487d-b0a8-4a28ee0bb6cd","system_id":"levelo_inurba_marseille","lat":43.287089,"lon":5.373898,"is_reserved":false,"is_disabled":false,"rental_uris":{"android":"levelo://app?vid=0a8b476b-ea09-487d-b0a8-4a28ee0bb6cd","ios":"levelo://app?vid=0a8b476b-ea09-487d-b0a8-4a28ee0bb6cd"},"vehicle_type_id":"4","last_reported":1690222219,"current_range_meters":30000,"station_id":"ce4bh3p2rcd13ifvqdq0","pricing_plan_id":"free"},{"bike_id":"e136a2f5-ac96-4497-83ae-433a2d6b14ac","system_id":"levelo_inurba_marseille","lat":43.28662,"lon":5.36353,"is_reserved":false,"is_disabled":false,"rental_uris":{"android":"levelo://app?vid=e136a2f5-ac96-4497-83ae-433a2d6b14ac","ios":"levelo://app?vid=e136a2f5-ac96-4497-83ae-433a2d6b14ac"},"vehicle_type_id":"4","last_reported":1690222219,"current_range_meters":21600,"station_id":"ce4bhah2rcd13ifvqej0","pricing_plan_id":"free"},{"bike_id":"8660b575-d6d7-4baa-bb0c-ae8a09ccd584","system_id":"levelo_inurba_marseille","lat":43.298677,"lon":5.397457,"is_reserved":false,"is_disabled":false,"rental_uris":{"android":"levelo://app?vid=8660b575-d6d7-4baa-bb0c-ae8a09ccd584","ios":"levelo://app?vid=8660b575-d6d7-4baa-bb0c-ae8a09ccd584"},"vehicle_type_id":"4","last_reported":1690222219,"current_range_meters":4000,"station_id":"ce4bh0h2rcd13ifvqd50","pricing_plan_id":"free"},{"bike_id":"35a229f7-a455-4066-8150-885019850dc0","system_id":"levelo_inurba_marseille","lat":43.29523,"lon":5.39399,"is_reserved":false,"is_disabled":false,"rental_uris":{"android":"levelo://app?vid=35a229f7-a455-4066-8150-885019850dc0","ios":"levelo://app?vid=35a229f7-a455-4066-8150-885019850dc0"},"vehicle_type_id":"4","last_reported":1690222219,"current_range_meters":31200,"station_id":"ce4bh292rcd13ifvqdf0","pricing_plan_id":"free"},{"bike_id":"bc8ccd83-5d11-41c0-aea9-e5d94b21115f","system_id":"levelo_inurba_marseille","lat":43.29032,"lon":5.38642,"is_reserved":false,"is_disabled":false,"rental_uris":{"android":"levelo://app?vid=bc8ccd83-5d11-41c0-aea9-e5d94b21115f","ios":"levelo://app?vid=bc8ccd83-5d11-41c0-aea9-e5d94b21115f"},"vehicle_type_id":"4","last_reported":1690222219,"current_range_meters":19200,"station_id":"ce4bh4p2rcd13ifvqe0g","pricing_plan_id":"free"},{"bike_id":"32aa1a04-92ed-4144-a516-1ed1bd37c281","system_id":"levelo_inurba_marseille","lat":43.302759,"lon":5.400793,"is_reserved":false,"is_disabled":false,"rental_uris":{"android":"levelo://app?vid=32aa1a04-92ed-4144-a516-1ed1bd37c281","ios":"levelo://app?vid=32aa1a04-92ed-4144-a516-1ed1bd37c281"},"vehicle_type_id":"4","last_reported":1690222219,"current_range_meters":10800,"station_id":"ce4bgvh2rcd13ifvqcs0","pricing_plan_id":"free"},{"bike_id":"790304a9-4f1d-4d03-b403-08b7c88015b0","system_id":"levelo_inurba_marseille","lat":43.30263,"lon":5.40076,"is_reserved":false,"is_disabled":false,"rental_uris":{"android":"levelo://app?vid=790304a9-4f1d-4d03-b403-08b7c88015b0","ios":"levelo://app?vid=790304a9-4f1d-4d03-b403-08b7c88015b0"},"vehicle_type_id":"4","last_reported":1690222219,"current_range_meters":10400,"station_id":"ce4bgvh2rcd13ifvqcs0","pricing_plan_id":"free"},{"bike_id":"508e4f0c-744f-4ce4-97f1-74f80d26c47d","system_id":"levelo_inurba_marseille","lat":43.302759,"lon":5.400793,"is_reserved":false,"is_disabled":false,"rental_uris":{"android":"levelo://app?vid=508e4f0c-744f-4ce4-97f1-74f80d26c47d","ios":"levelo://app?vid=508e4f0c-744f-4ce4-97f1-74f80d26c47d"},"vehicle_type_id":"4","last_reported":1690222219,"current_range_meters":29600,"station_id":"ce4bgvh2rcd13ifvqcs0","pricing_plan_id":"free"},{"bike_id":"daf5f491-b2c2-44a6-a46e-221f7e7ad44e","system_id":"levelo_inurba_marseille","lat":43.30249,"lon":5.40073,"is_reserved":false,"is_disabled":false,"rental_uris":{"android":"levelo://app?vid=daf5f491-b2c2-44a6-a46e-221f7e7ad44e","ios":"levelo://app?vid=daf5f491-b2c2-44a6-a46e-221f7e7ad44e"},"vehicle_type_id":"4","last_reported":1690222219,"current_range_meters":14800,"station_id":"ce4bgvh2rcd13ifvqcs0","pricing_plan_id":"free"},{"bike_id":"934c32b7-2c6e-4ec9-94a1-b4e8279903d3","system_id":"levelo_inurba_marseille","lat":43.290181,"lon":5.386494,"is_reserved":false,"is_disabled":false,"rental_uris":{"android":"levelo://app?vid=934c32b7-2c6e-4ec9-94a1-b4e8279903d3","ios":"levelo://app?vid=934c32b7-2c6e-4ec9-94a1-b4e8279903d3"},"vehicle_type_id":"4","last_reported":1690222219,"current_range_meters":21200,"station_id":"","pricing_plan_id":"free"},{"bike_id":"81b61a88-f955-4751-ac65-afd7cfa8ede8","system_id":"levelo_inurba_marseille","lat":43.286039,"lon":5.370679,"is_reserved":false,"is_disabled":false,"rental_uris":{"android":"levelo://app?vid=81b61a88-f955-4751-ac65-afd7cfa8ede8","ios":"levelo://app?vid=81b61a88-f955-4751-ac65-afd7cfa8ede8"},"vehicle_type_id":"4","last_reported":1690222219,"current_range_meters":13200,"station_id":"ce4bht12rcd13ifvqi60","pricing_plan_id":"free"},{"bike_id":"816dc9c7-e788-475b-a472-7b5d33e74c96","system_id":"levelo_inurba_marseille","lat":43.286114,"lon":5.370556,"is_reserved":false,"is_disabled":false,"rental_uris":{"android":"levelo://app?vid=816dc9c7-e788-475b-a472-7b5d33e74c96","ios":"levelo://app?vid=816dc9c7-e788-475b-a472-7b5d33e74c96"},"vehicle_type_id":"4","last_reported":1690222219,"current_range_meters":7200,"station_id":"","pricing_plan_id":"free"},{"bike_id":"7ba7726b-eada-47b4-9ea9-216dcf118b73","system_id":"levelo_inurba_marseille","lat":43.286039,"lon":5.370681,"is_reserved":false,"is_disabled":false,"rental_uris":{"android":"levelo://app?vid=7ba7726b-eada-47b4-9ea9-216dcf118b73","ios":"levelo://app?vid=7ba7726b-eada-47b4-9ea9-216dcf118b73"},"vehicle_type_id":"4","last_reported":1690222219,"current_range_meters":29600,"station_id":"ce4bht12rcd13ifvqi60","pricing_plan_id":"free"},{"bike_id":"cefa0f32-4869-4015-9f47-424e2fe8d513","system_id":"levelo_inurba_marseille","lat":43.287185,"lon":5.379373,"is_reserved":false,"is_disabled":false,"rental_uris":{"android":"levelo://app?vid=cefa0f32-4869-4015-9f47-424e2fe8d513","ios":"levelo://app?vid=cefa0f32-4869-4015-9f47-424e2fe8d513"},"vehicle_type_id":"4","last_reported":1690222219,"current_range_meters":7600,"station_id":"ce4bh9p2rcd13ifvqec0","pricing_plan_id":"free"},{"bike_id":"bbb98be5-5081-4f06-869e-ef7151c33a66","system_id":"levelo_inurba_marseille","lat":43.316477,"lon":5.404385,"is_reserved":false,"is_disabled":false,"rental_uris":{"android":"levelo://app?vid=bbb98be5-5081-4f06-869e-ef7151c33a66","ios":"levelo://app?vid=bbb98be5-5081-4f06-869e-ef7151c33a66"},"vehicle_type_id":"4","last_reported":1690222219,"current_range_meters":0,"station_id":"ce4bh012rcd13ifvqd00","pricing_plan_id":"free"},{"bike_id":"21ccb0ed-339b-4ba0-8e31-024968a5a9b5","system_id":"levelo_inurba_marseille","lat":43.28996,"lon":5.38912,"is_reserved":false,"is_disabled":false,"rental_uris":{"android":"levelo://app?vid=21ccb0ed-339b-4ba0-8e31-024968a5a9b5","ios":"levelo://app?vid=21ccb0ed-339b-4ba0-8e31-024968a5a9b5"},"vehicle_type_id":"4","last_reported":1690222219,"current_range_meters":10800,"station_id":"","pricing_plan_id":"free"},{"bike_id":"e868b9db-dc6d-45fd-9bfd-bc0155c51439","system_id":"levelo_inurba_marseille","lat":43.28465,"lon":5.3589,"is_reserved":false,"is_disabled":false,"rental_uris":{"android":"levelo://app?vid=e868b9db-dc6d-45fd-9bfd-bc0155c51439","ios":"levelo://app?vid=e868b9db-dc6d-45fd-9bfd-bc0155c51439"},"vehicle_type_id":"4","last_reported":1690222219,"current_range_meters":0,"station_id":"ce4bhah2rcd13ifvqei0","pricing_plan_id":"free"},{"bike_id":"3f9ff790-314e-48d4-97e6-08ebf07c27f0","system_id":"levelo_inurba_marseille","lat":43.31625,"lon":5.40608,"is_reserved":false,"is_disabled":false,"rental_uris":{"android":"levelo://app?vid=3f9ff790-314e-48d4-97e6-08ebf07c27f0","ios":"levelo://app?vid=3f9ff790-314e-48d4-97e6-08ebf07c27f0"},"vehicle_type_id":"4","last_reported":1690222219,"current_range_meters":22000,"station_id":"","pricing_plan_id":"free"},{"bike_id":"58dcccb7-08b2-4eac-8714-980615a7991e","system_id":"levelo_inurba_marseille","lat":43.28463,"lon":5.35887,"is_reserved":false,"is_disabled":false,"rental_uris":{"android":"levelo://app?vid=58dcccb7-08b2-4eac-8714-980615a7991e","ios":"levelo://app?vid=58dcccb7-08b2-4eac-8714-980615a7991e"},"vehicle_type_id":"4","last_reported":1690222219,"current_range_meters":26000,"station_id":"ce4bhah2rcd13ifvqei0","pricing_plan_id":"free"},{"bike_id":"c4f9212e-321f-4e80-a89c-a2abab93eda2","system_id":"levelo_inurba_marseille","lat":43.28461,"lon":5.35894,"is_reserved":false,"is_disabled":false,"rental_uris":{"android":"levelo://app?vid=c4f9212e-321f-4e80-a89c-a2abab93eda2","ios":"levelo://app?vid=c4f9212e-321f-4e80-a89c-a2abab93eda2"},"vehicle_type_id":"4","last_reported":1690222219,"current_range_meters":31200,"station_id":"ce4bhah2rcd13ifvqei0","pricing_plan_id":"free"},{"bike_id":"1bc9f39d-6411-4ef8-a73d-8d9d4e6b5ea8","system_id":"levelo_inurba_marseille","lat":43.28462,"lon":5.35884,"is_reserved":false,"is_disabled":false,"rental_uris":{"android":"levelo://app?vid=1bc9f39d-6411-4ef8-a73d-8d9d4e6b5ea8","ios":"levelo://app?vid=1bc9f39d-6411-4ef8-a73d-8d9d4e6b5ea8"},"vehicle_type_id":"4","last_reported":1690222219,"current_range_meters":28000,"station_id":"ce4bhah2rcd13ifvqei0","pricing_plan_id":"free"},{"bike_id":"f852fb2f-1094-4fd5-8242-5242da6108c6","system_id":"levelo_inurba_marseille","lat":43.2846,"lon":5.35892,"is_reserved":false,"is_disabled":false,"rental_uris":{"android":"levelo://app?vid=f852fb2f-1094-4fd5-8242-5242da6108c6","ios":"levelo://app?vid=f852fb2f-1094-4fd5-8242-5242da6108c6"},"vehicle_type_id":"4","last_reported":1690222219,"current_range_meters":31200,"station_id":"ce4bhah2rcd13ifvqei0","pricing_plan_id":"free"},{"bike_id":"202588db-c224-4547-b023-beeba656d2a3","system_id":"levelo_inurba_marseille","lat":43.28461,"lon":5.35882,"is_reserved":false,"is_disabled":false,"rental_uris":{"android":"levelo://app?vid=202588db-c224-4547-b023-beeba656d2a3","ios":"levelo://app?vid=202588db-c224-4547-b023-beeba656d2a3"},"vehicle_type_id":"4","last_reported":1690222219,"current_range_meters":21600,"station_id":"ce4bhah2rcd13ifvqei0","pricing_plan_id":"free"},{"bike_id":"04f6af26-83eb-4372-9a79-3afb1fa1f1d4","system_id":"levelo_inurba_marseille","lat":43.2846,"lon":5.35888,"is_reserved":false,"is_disabled":false,"rental_uris":{"android":"levelo://app?vid=04f6af26-83eb-4372-9a79-3afb1fa1f1d4","ios":"levelo://app?vid=04f6af26-83eb-4372-9a79-3afb1fa1f1d4"},"vehicle_type_id":"4","last_reported":1690222219,"current_range_meters":20000,"station_id":"ce4bhah2rcd13ifvqei0","pricing_plan_id":"free"},{"bike_id":"991e052b-5579-4dab-ab07-4e6523c95ca5","system_id":"levelo_inurba_marseille","lat":43.284538,"lon":5.358657,"is_reserved":false,"is_disabled":false,"rental_uris":{"android":"levelo://app?vid=991e052b-5579-4dab-ab07-4e6523c95ca5","ios":"levelo://app?vid=991e052b-5579-4dab-ab07-4e6523c95ca5"},"vehicle_type_id":"4","last_reported":1690222219,"current_range_meters":31200,"station_id":"ce4bhah2rcd13ifvqei0","pricing_plan_id":"free"},{"bike_id":"c365644e-bfb8-40a1-b56f-2f3facd6926a","system_id":"levelo_inurba_marseille","lat":43.28458,"lon":5.35899,"is_reserved":false,"is_disabled":false,"rental_uris":{"android":"levelo://app?vid=c365644e-bfb8-40a1-b56f-2f3facd6926a","ios":"levelo://app?vid=c365644e-bfb8-40a1-b56f-2f3facd6926a"},"vehicle_type_id":"4","last_reported":1690222219,"current_range_meters":23200,"station_id":"ce4bhah2rcd13ifvqei0","pricing_plan_id":"free"},{"bike_id":"4c50b617-a7ab-46f3-a683-e2496ca7c9d4","system_id":"levelo_inurba_marseille","lat":43.284534,"lon":5.358662,"is_reserved":false,"is_disabled":false,"rental_uris":{"android":"levelo://app?vid=4c50b617-a7ab-46f3-a683-e2496ca7c9d4","ios":"levelo://app?vid=4c50b617-a7ab-46f3-a683-e2496ca7c9d4"},"vehicle_type_id":"4","last_reported":1690222219,"current_range_meters":26800,"station_id":"ce4bhah2rcd13ifvqei0","pricing_plan_id":"free"},{"bike_id":"d4a5b3a9-dcfd-4b7a-95ca-7e698d8ef154","system_id":"levelo_inurba_marseille","lat":43.28458,"lon":5.35893,"is_reserved":false,"is_disabled":false,"rental_uris":{"android":"levelo://app?vid=d4a5b3a9-dcfd-4b7a-95ca-7e698d8ef154","ios":"levelo://app?vid=d4a5b3a9-dcfd-4b7a-95ca-7e698d8ef154"},"vehicle_type_id":"4","last_reported":1690222219,"current_range_meters":22000,"station_id":"ce4bhah2rcd13ifvqei0","pricing_plan_id":"free"},{"bike_id":"9b739a35-71c9-48c3-b3b9-bfecf50cc44b","system_id":"levelo_inurba_marseille","lat":43.28458,"lon":5.35889,"is_reserved":false,"is_disabled":false,"rental_uris":{"android":"levelo://app?vid=9b739a35-71c9-48c3-b3b9-bfecf50cc44b","ios":"levelo://app?vid=9b739a35-71c9-48c3-b3b9-bfecf50cc44b"},"vehicle_type_id":"4","last_reported":1690222219,"current_range_meters":21200,"station_id":"ce4bhah2rcd13ifvqei0","pricing_plan_id":"free"},{"bike_id":"696dc526-fa1f-419e-af2e-4cb06e76253d","system_id":"levelo_inurba_marseille","lat":43.284534,"lon":5.358662,"is_reserved":false,"is_disabled":false,"rental_uris":{"android":"levelo://app?vid=696dc526-fa1f-419e-af2e-4cb06e76253d","ios":"levelo://app?vid=696dc526-fa1f-419e-af2e-4cb06e76253d"},"vehicle_type_id":"4","last_reported":1690222219,"current_range_meters":22400,"station_id":"ce4bhah2rcd13ifvqei0","pricing_plan_id":"free"},{"bike_id":"568e6f47-c897-4c90-8008-4e475ba59439","system_id":"levelo_inurba_marseille","lat":43.29452,"lon":5.39752,"is_reserved":false,"is_disabled":false,"rental_uris":{"android":"levelo://app?vid=568e6f47-c897-4c90-8008-4e475ba59439","ios":"levelo://app?vid=568e6f47-c897-4c90-8008-4e475ba59439"},"vehicle_type_id":"4","last_reported":1690222219,"current_range_meters":4400,"station_id":"ce4bh3h2rcd13ifvqdo0","pricing_plan_id":"free"},{"bike_id":"47ec99c5-a3de-4cf6-bebc-74ae0262d2e6","system_id":"levelo_inurba_marseille","lat":43.28457,"lon":5.35886,"is_reserved":false,"is_disabled":false,"rental_uris":{"android":"levelo://app?vid=47ec99c5-a3de-4cf6-bebc-74ae0262d2e6","ios":"levelo://app?vid=47ec99c5-a3de-4cf6-bebc-74ae0262d2e6"},"vehicle_type_id":"4","last_reported":1690222219,"current_range_meters":28800,"station_id":"ce4bhah2rcd13ifvqei0","pricing_plan_id":"free"},{"bike_id":"8ec406f4-a80b-4378-a9bb-72789087bef7","system_id":"levelo_inurba_marseille","lat":43.28457,"lon":5.35885,"is_reserved":false,"is_disabled":false,"rental_uris":{"android":"levelo://app?vid=8ec406f4-a80b-4378-a9bb-72789087bef7","ios":"levelo://app?vid=8ec406f4-a80b-4378-a9bb-72789087bef7"},"vehicle_type_id":"4","last_reported":1690222219,"current_range_meters":31600,"station_id":"ce4bhah2rcd13ifvqei0","pricing_plan_id":"free"},{"bike_id":"a5c49410-cc33-4318-a74e-b75175bed279","system_id":"levelo_inurba_marseille","lat":43.284534,"lon":5.358662,"is_reserved":false,"is_disabled":false,"rental_uris":{"android":"levelo://app?vid=a5c49410-cc33-4318-a74e-b75175bed279","ios":"levelo://app?vid=a5c49410-cc33-4318-a74e-b75175bed279"},"vehicle_type_id":"4","last_reported":1690222219,"current_range_meters":30000,"station_id":"ce4bhah2rcd13ifvqei0","pricing_plan_id":"free"},{"bike_id":"78d8a218-97b5-4bf8-bac0-07a431178d43","system_id":"levelo_inurba_marseille","lat":43.28457,"lon":5.35879,"is_reserved":false,"is_disabled":false,"rental_uris":{"android":"levelo://app?vid=78d8a218-97b5-4bf8-bac0-07a431178d43","ios":"levelo://app?vid=78d8a218-97b5-4bf8-bac0-07a431178d43"},"vehicle_type_id":"4","last_reported":1690222219,"current_range_meters":20000,"station_id":"ce4bhah2rcd13ifvqei0","pricing_plan_id":"free"},{"bike_id":"33fe6c1a-9d33-4392-903e-790d65a003b9","system_id":"levelo_inurba_marseille","lat":43.284534,"lon":5.358662,"is_reserved":false,"is_disabled":false,"rental_uris":{"android":"levelo://app?vid=33fe6c1a-9d33-4392-903e-790d65a003b9","ios":"levelo://app?vid=33fe6c1a-9d33-4392-903e-790d65a003b9"},"vehicle_type_id":"4","last_reported":1690222219,"current_range_meters":31600,"station_id":"ce4bhah2rcd13ifvqei0","pricing_plan_id":"free"},{"bike_id":"5f059bb4-4354-40c5-95cc-ffed7bf98919","system_id":"levelo_inurba_marseille","lat":43.28455,"lon":5.35889,"is_reserved":false,"is_disabled":false,"rental_uris":{"android":"levelo://app?vid=5f059bb4-4354-40c5-95cc-ffed7bf98919","ios":"levelo://app?vid=5f059bb4-4354-40c5-95cc-ffed7bf98919"},"vehicle_type_id":"4","last_reported":1690222219,"current_range_meters":31200,"station_id":"ce4bhah2rcd13ifvqei0","pricing_plan_id":"free"},{"bike_id":"30bcd49a-e1b5-42d4-93bf-6b57ba0acd6c","system_id":"levelo_inurba_marseille","lat":43.294314,"lon":5.397498,"is_reserved":false,"is_disabled":false,"rental_uris":{"android":"levelo://app?vid=30bcd49a-e1b5-42d4-93bf-6b57ba0acd6c","ios":"levelo://app?vid=30bcd49a-e1b5-42d4-93bf-6b57ba0acd6c"},"vehicle_type_id":"4","last_reported":1690222219,"current_range_meters":12400,"station_id":"ce4bh3h2rcd13ifvqdo0","pricing_plan_id":"free"},{"bike_id":"b74d04c0-b98d-4aa2-bf55-349066517c8a","system_id":"levelo_inurba_marseille","lat":43.29446,"lon":5.39755,"is_reserved":false,"is_disabled":false,"rental_uris":{"android":"levelo://app?vid=b74d04c0-b98d-4aa2-bf55-349066517c8a","ios":"levelo://app?vid=b74d04c0-b98d-4aa2-bf55-349066517c8a"},"vehicle_type_id":"4","last_reported":1690222219,"current_range_meters":22800,"station_id":"ce4bh3h2rcd13ifvqdo0","pricing_plan_id":"free"},{"bike_id":"ba0fc676-c1f2-4f3d-bd5d-1d82624cbad4","system_id":"levelo_inurba_marseille","lat":43.28451,"lon":5.35884,"is_reserved":false,"is_disabled":false,"rental_uris":{"android":"levelo://app?vid=ba0fc676-c1f2-4f3d-bd5d-1d82624cbad4","ios":"levelo://app?vid=ba0fc676-c1f2-4f3d-bd5d-1d82624cbad4"},"vehicle_type_id":"4","last_reported":1690222219,"current_range_meters":28800,"station_id":"ce4bhah2rcd13ifvqei0","pricing_plan_id":"free"},{"bike_id":"427cde32-1bf9-46f6-ba5f-7f37de9c8447","system_id":"levelo_inurba_marseille","lat":43.284534,"lon":5.358662,"is_reserved":false,"is_disabled":false,"rental_uris":{"android":"levelo://app?vid=427cde32-1bf9-46f6-ba5f-7f37de9c8447","ios":"levelo://app?vid=427cde32-1bf9-46f6-ba5f-7f37de9c8447"},"vehicle_type_id":"4","last_reported":1690222219,"current_range_meters":31600,"station_id":"ce4bhah2rcd13ifvqei0","pricing_plan_id":"free"},{"bike_id":"a735b300-102f-4cc2-a8ea-2c9d4f79b118","system_id":"levelo_inurba_marseille","lat":43.294314,"lon":5.397498,"is_reserved":false,"is_disabled":false,"rental_uris":{"android":"levelo://app?vid=a735b300-102f-4cc2-a8ea-2c9d4f79b118","ios":"levelo://app?vid=a735b300-102f-4cc2-a8ea-2c9d4f79b118"},"vehicle_type_id":"4","last_reported":1690222219,"current_range_meters":31200,"station_id":"ce4bh3h2rcd13ifvqdo0","pricing_plan_id":"free"},{"bike_id":"9fbc7a5f-56f5-4757-8c75-0ada2715356e","system_id":"levelo_inurba_marseille","lat":43.2862,"lon":5.35103,"is_reserved":false,"is_disabled":false,"rental_uris":{"android":"levelo://app?vid=9fbc7a5f-56f5-4757-8c75-0ada2715356e","ios":"levelo://app?vid=9fbc7a5f-56f5-4757-8c75-0ada2715356e"},"vehicle_type_id":"4","last_reported":1690222219,"current_range_meters":1200,"station_id":"ce4bhch2rcd13ifvqeug","pricing_plan_id":"free"},{"bike_id":"04300619-e2f9-4ca7-8824-111f07023cfd","system_id":"levelo_inurba_marseille","lat":43.28619,"lon":5.35106,"is_reserved":false,"is_disabled":false,"rental_uris":{"android":"levelo://app?vid=04300619-e2f9-4ca7-8824-111f07023cfd","ios":"levelo://app?vid=04300619-e2f9-4ca7-8824-111f07023cfd"},"vehicle_type_id":"4","last_reported":1690222219,"current_range_meters":20000,"station_id":"ce4bhch2rcd13ifvqeug","pricing_plan_id":"free"},{"bike_id":"b0194cc9-8cf1-448c-b77f-e151f27c9e13","system_id":"levelo_inurba_marseille","lat":43.28619,"lon":5.35102,"is_reserved":false,"is_disabled":false,"rental_uris":{"android":"levelo://app?vid=b0194cc9-8cf1-448c-b77f-e151f27c9e13","ios":"levelo://app?vid=b0194cc9-8cf1-448c-b77f-e151f27c9e13"},"vehicle_type_id":"4","last_reported":1690222219,"current_range_meters":3600,"station_id":"ce4bhch2rcd13ifvqeug","pricing_plan_id":"free"},{"bike_id":"d0d298f7-27e3-4418-8b9d-11e831f7e673","system_id":"levelo_inurba_marseille","lat":43.28617,"lon":5.35106,"is_reserved":false,"is_disabled":false,"rental_uris":{"android":"levelo://app?vid=d0d298f7-27e3-4418-8b9d-11e831f7e673","ios":"levelo://app?vid=d0d298f7-27e3-4418-8b9d-11e831f7e673"},"vehicle_type_id":"4","last_reported":1690222219,"current_range_meters":4400,"station_id":"ce4bhch2rcd13ifvqeug","pricing_plan_id":"free"},{"bike_id":"e07c79ac-8683-4f2b-96a8-44b12fa54019","system_id":"levelo_inurba_marseille","lat":43.28616,"lon":5.35108,"is_reserved":false,"is_disabled":false,"rental_uris":{"android":"levelo://app?vid=e07c79ac-8683-4f2b-96a8-44b12fa54019","ios":"levelo://app?vid=e07c79ac-8683-4f2b-96a8-44b12fa54019"},"vehicle_type_id":"4","last_reported":1690222219,"current_range_meters":22400,"station_id":"ce4bhch2rcd13ifvqeug","pricing_plan_id":"free"},{"bike_id":"19b508da-5010-447e-90da-1e32b07f0427","system_id":"levelo_inurba_marseille","lat":43.28618,"lon":5.35101,"is_reserved":false,"is_disabled":false,"rental_uris":{"android":"levelo://app?vid=19b508da-5010-447e-90da-1e32b07f0427","ios":"levelo://app?vid=19b508da-5010-447e-90da-1e32b07f0427"},"vehicle_type_id":"4","last_reported":1690222219,"current_range_meters":17600,"station_id":"ce4bhch2rcd13ifvqeug","pricing_plan_id":"free"},{"bike_id":"1c208603-ec95-4443-944a-47d616c41d2f","system_id":"levelo_inurba_marseille","lat":43.28617,"lon":5.35104,"is_reserved":false,"is_disabled":false,"rental_uris":{"android":"levelo://app?vid=1c208603-ec95-4443-944a-47d616c41d2f","ios":"levelo://app?vid=1c208603-ec95-4443-944a-47d616c41d2f"},"vehicle_type_id":"4","last_reported":1690222219,"current_range_meters":27600,"station_id":"ce4bhch2rcd13ifvqeug","pricing_plan_id":"free"},{"bike_id":"1ffe7ed7-1b4f-4dee-8f4e-0cc0aa242fba","system_id":"levelo_inurba_marseille","lat":43.28618,"lon":5.351,"is_reserved":false,"is_disabled":false,"rental_uris":{"android":"levelo://app?vid=1ffe7ed7-1b4f-4dee-8f4e-0cc0aa242fba","ios":"levelo://app?vid=1ffe7ed7-1b4f-4dee-8f4e-0cc0aa242fba"},"vehicle_type_id":"4","last_reported":1690222219,"current_range_meters":3600,"station_id":"ce4bhch2rcd13ifvqeug","pricing_plan_id":"free"},{"bike_id":"cde56607-8c49-4386-851e-246c2fd30051","system_id":"levelo_inurba_marseille","lat":43.28616,"lon":5.35105,"is_reserved":false,"is_disabled":false,"rental_uris":{"android":"levelo://app?vid=cde56607-8c49-4386-851e-246c2fd30051","ios":"levelo://app?vid=cde56607-8c49-4386-851e-246c2fd30051"},"vehicle_type_id":"4","last_reported":1690222219,"current_range_meters":30000,"station_id":"ce4bhch2rcd13ifvqeug","pricing_plan_id":"free"},{"bike_id":"d89551cc-5557-450e-8f5d-b1d0b8fc22ef","system_id":"levelo_inurba_marseille","lat":43.28616,"lon":5.35101,"is_reserved":false,"is_disabled":false,"rental_uris":{"android":"levelo://app?vid=d89551cc-5557-450e-8f5d-b1d0b8fc22ef","ios":"levelo://app?vid=d89551cc-5557-450e-8f5d-b1d0b8fc22ef"},"vehicle_type_id":"4","last_reported":1690222219,"current_range_meters":27200,"station_id":"ce4bhch2rcd13ifvqeug","pricing_plan_id":"free"},{"bike_id":"49a8d3b0-e114-444d-8bf3-52d94d3e7f6a","system_id":"levelo_inurba_marseille","lat":43.28615,"lon":5.35104,"is_reserved":false,"is_disabled":false,"rental_uris":{"android":"levelo://app?vid=49a8d3b0-e114-444d-8bf3-52d94d3e7f6a","ios":"levelo://app?vid=49a8d3b0-e114-444d-8bf3-52d94d3e7f6a"},"vehicle_type_id":"4","last_reported":1690222219,"current_range_meters":31200,"station_id":"ce4bhch2rcd13ifvqeug","pricing_plan_id":"free"},{"bike_id":"2689f6ac-a8c0-4e1e-80e7-2b7f9f63c80f","system_id":"levelo_inurba_marseille","lat":43.28614,"lon":5.35107,"is_reserved":false,"is_disabled":false,"rental_uris":{"android":"levelo://app?vid=2689f6ac-a8c0-4e1e-80e7-2b7f9f63c80f","ios":"levelo://app?vid=2689f6ac-a8c0-4e1e-80e7-2b7f9f63c80f"},"vehicle_type_id":"4","last_reported":1690222219,"current_range_meters":28800,"station_id":"ce4bhch2rcd13ifvqeug","pricing_plan_id":"free"},{"bike_id":"1cfe3e46-4bee-4c4f-a863-5b964426fb98","system_id":"levelo_inurba_marseille","lat":43.28613,"lon":5.3511,"is_reserved":false,"is_disabled":false,"rental_uris":{"android":"levelo://app?vid=1cfe3e46-4bee-4c4f-a863-5b964426fb98","ios":"levelo://app?vid=1cfe3e46-4bee-4c4f-a863-5b964426fb98"},"vehicle_type_id":"4","last_reported":1690222219,"current_range_meters":27200,"station_id":"ce4bhch2rcd13ifvqeug","pricing_plan_id":"free"},{"bike_id":"a4d77cab-6c9d-4d96-b0ad-29851cafd031","system_id":"levelo_inurba_marseille","lat":43.286152,"lon":5.351026,"is_reserved":false,"is_disabled":false,"rental_uris":{"android":"levelo://app?vid=a4d77cab-6c9d-4d96-b0ad-29851cafd031","ios":"levelo://app?vid=a4d77cab-6c9d-4d96-b0ad-29851cafd031"},"vehicle_type_id":"4","last_reported":1690222219,"current_range_meters":16000,"station_id":"ce4bhb12rcd13ifvqel0","pricing_plan_id":"free"},{"bike_id":"05a4e802-e678-481b-9d38-8a5d542153a4","system_id":"levelo_inurba_marseille","lat":43.28615,"lon":5.35102,"is_reserved":false,"is_disabled":false,"rental_uris":{"android":"levelo://app?vid=05a4e802-e678-481b-9d38-8a5d542153a4","ios":"levelo://app?vid=05a4e802-e678-481b-9d38-8a5d542153a4"},"vehicle_type_id":"4","last_reported":1690222219,"current_range_meters":24000,"station_id":"ce4bhch2rcd13ifvqeug","pricing_plan_id":"free"},{"bike_id":"42e502b5-6fc9-4fa1-b3f7-18d773da3aeb","system_id":"levelo_inurba_marseille","lat":43.28615,"lon":5.35099,"is_reserved":false,"is_disabled":false,"rental_uris":{"android":"levelo://app?vid=42e502b5-6fc9-4fa1-b3f7-18d773da3aeb","ios":"levelo://app?vid=42e502b5-6fc9-4fa1-b3f7-18d773da3aeb"},"vehicle_type_id":"4","last_reported":1690222219,"current_range_meters":0,"station_id":"ce4bhch2rcd13ifvqeug","pricing_plan_id":"free"},{"bike_id":"ae2e7531-5efa-4ee8-b82e-38c6b1bc9aac","system_id":"levelo_inurba_marseille","lat":43.28613,"lon":5.35105,"is_reserved":false,"is_disabled":false,"rental_uris":{"android":"levelo://app?vid=ae2e7531-5efa-4ee8-b82e-38c6b1bc9aac","ios":"levelo://app?vid=ae2e7531-5efa-4ee8-b82e-38c6b1bc9aac"},"vehicle_type_id":"4","last_reported":1690222219,"current_range_meters":2800,"station_id":"ce4bhch2rcd13ifvqeug","pricing_plan_id":"free"},{"bike_id":"da6fc790-717d-4a7e-85d6-cdf24d3ec16f","system_id":"levelo_inurba_marseille","lat":43.285848,"lon":5.350787,"is_reserved":false,"is_disabled":false,"rental_uris":{"android":"levelo://app?vid=da6fc790-717d-4a7e-85d6-cdf24d3ec16f","ios":"levelo://app?vid=da6fc790-717d-4a7e-85d6-cdf24d3ec16f"},"vehicle_type_id":"4","last_reported":1690222219,"current_range_meters":11200,"station_id":"ce4bhch2rcd13ifvqeug","pricing_plan_id":"free"},{"bike_id":"53318d08-747b-42a2-9472-85a72cddbe1a","system_id":"levelo_inurba_marseille","lat":43.28425,"lon":5.37516,"is_reserved":false,"is_disabled":false,"rental_uris":{"android":"levelo://app?vid=53318d08-747b-42a2-9472-85a72cddbe1a","ios":"levelo://app?vid=53318d08-747b-42a2-9472-85a72cddbe1a"},"vehicle_type_id":"4","last_reported":1690222219,"current_range_meters":26000,"station_id":"ce4bh412rcd13ifvqds0","pricing_plan_id":"free"},{"bike_id":"cbf380d8-1121-4ece-a0cd-102200c44d8c","system_id":"levelo_inurba_marseille","lat":43.28421,"lon":5.37519,"is_reserved":false,"is_disabled":false,"rental_uris":{"android":"levelo://app?vid=cbf380d8-1121-4ece-a0cd-102200c44d8c","ios":"levelo://app?vid=cbf380d8-1121-4ece-a0cd-102200c44d8c"},"vehicle_type_id":"4","last_reported":1690222219,"current_range_meters":6400,"station_id":"ce4bh412rcd13ifvqds0","pricing_plan_id":"free"},{"bike_id":"db376317-72f2-40c0-b531-0fd761995ea6","system_id":"levelo_inurba_marseille","lat":43.285942,"lon":5.351139,"is_reserved":false,"is_disabled":false,"rental_uris":{"android":"levelo://app?vid=db376317-72f2-40c0-b531-0fd761995ea6","ios":"levelo://app?vid=db376317-72f2-40c0-b531-0fd761995ea6"},"vehicle_type_id":"4","last_reported":1690222219,"current_range_meters":17600,"station_id":"ce4bhch2rcd13ifvqeug","pricing_plan_id":"free"},{"bike_id":"8e907fac-5273-40a9-aa14-c43ecae19009","system_id":"levelo_inurba_marseille","lat":43.29573,"lon":5.39959,"is_reserved":false,"is_disabled":false,"rental_uris":{"android":"levelo://app?vid=8e907fac-5273-40a9-aa14-c43ecae19009","ios":"levelo://app?vid=8e907fac-5273-40a9-aa14-c43ecae19009"},"vehicle_type_id":"4","last_reported":1690222219,"current_range_meters":17600,"station_id":"ce4bh312rcd13ifvqdj0","pricing_plan_id":"free"},{"bike_id":"2ba2d2ae-5075-447d-b9e4-2c9810254df9","system_id":"levelo_inurba_marseille","lat":43.28413,"lon":5.37519,"is_reserved":false,"is_disabled":false,"rental_uris":{"android":"levelo://app?vid=2ba2d2ae-5075-447d-b9e4-2c9810254df9","ios":"levelo://app?vid=2ba2d2ae-5075-447d-b9e4-2c9810254df9"},"vehicle_type_id":"4","last_reported":1690222219,"current_range_meters":30000,"station_id":"ce4bh412rcd13ifvqds0","pricing_plan_id":"free"},{"bike_id":"5bc42841-a753-4ba4-901a-322473a6ce2b","system_id":"levelo_inurba_marseille","lat":43.2841,"lon":5.374993,"is_reserved":false,"is_disabled":false,"rental_uris":{"android":"levelo://app?vid=5bc42841-a753-4ba4-901a-322473a6ce2b","ios":"levelo://app?vid=5bc42841-a753-4ba4-901a-322473a6ce2b"},